{"last_updated":1753405165,"ttl":60,"version":"2.2","data":{"bikes":[{"bike_id":"09a8bc6a-ab3a-4c9e-b873-b672b12f169e","system_id":"levelo_inurba_marseille","lat":43.29772,"lon":5.37107,"is_reserved":false,"is_disabled":true,"rental_uris":{"android":"levelo://app?vid=09a8bc6a-ab3a-4c9e-b873-b672b12f169e","ios":"levelo://app?vid=09a8bc6a-ab3a-4c9e-b873-b672b12f169e"},"vehicle_type_id":"4","last_reported":1753405166,"current_range_meters":2800,"station_id":"ce4bgop2rcd13ifvqc1g","pricing_plan_id":"cebpf4jnsgd1na2vs0mg"},{"bike_id":"c8cbe188-8c80-4aac-881d-65feb870e521","system_id":"levelo_inurba_marseille","lat":43.33106,"lon":5.37381,"is_reserved":false,"is_disabled":true,"rental_uris":{"android":"levelo://app?vid=c8cbe188-8c80-4aac-881d-65feb870e521","ios":"levelo://app?vid=c8cbe188-8c80-4aac-881d-65feb870e521"},"vehicle_type_id":"4","last_reported":1753405166,"current_range_meters":2800,"station_id":"","pricing_plan_id":"cebpf4jnsgd1na2vs0mg"},{"bike_id":"59533f55-283e-405b-9a62-dfd13dfd7b61","system_id":"levelo_inurba_marseille","lat":43.2871,"lon":5.39964,"is_reserved":false,"is_disabled":false,"rental_uris":{"android":"levelo://app?vid=59533f55-283e-405b-9a62-dfd13dfd7b61","ios":"levelo://app?vid=59533f55-283e-405b-9a62-dfd13dfd7b61"},"vehicle_type_id":"4","last_reported":1753405166,"current_range_meters":4000,"station_id":"ce4bho92rcd13ifvqh3g","pricing_plan_id":"cebpf4jnsgd1na2vs0mg"},{"bike_id":"c9dbd36b-479c-4a5c-b200-3aa7673340d9","system_id":"levelo_inurba_marseille","lat":43.241448,"lon":5.363743,"is_reserved":false,"is_disabled":false,"rental_uris":{"android":"levelo://app?vid=c9dbd36b-479c-4a5c-b200-3aa7673340d9","ios":"levelo://app?vid=c9dbd36b-479c-4a5c-b200-3aa7673340d9"},"vehicle_type_id":"4","last_reported":1753405166,"current_range_meters":4000,"station_id":"","pricing_plan_id":"cebpf4jnsgd1na2vs0mg"},{"bike_id":"cb6eb26c-caff-430c-a934-3a1f3e2a988e","system_id":"levelo_inurba_marseille","lat":43.28703,"lon":5.39998,"is_reserved":false,"is_disabled":false,"rental_uris":{"android":"levelo://app?vid=cb6eb26c-caff-430c-a934-3a1f3e2a988e","ios":"levelo://app?vid=cb6eb26c-caff-430c-a934-3a1f3e2a988e"},"vehicle_type_id":"4","last_reported":1753405166,"current_range_meters":4800,"station_id":"ce4bho92rcd13ifvqh3g","pricing_plan_id":"cebpf4jnsgd1na2vs0mg"},{"bike_id":"59a15ad2-15d7-4154-b27a-a8773758dd23","system_id":"levelo_inurba_marseille","lat":43.298182,"lon":5.370916,"is_reserved":false,"is_disabled":true,"rental_uris":{"android":"levelo://app?vid=59a15ad2-15d7-4154-b27a-a8773758dd23","ios":"levelo://app?vid=59a15ad2-15d7-4154-b27a-a8773758dd23"},"vehicle_type_id":"4","last_reported":1753405166,"current_range_meters":5600,"station_id":"","pricing_plan_id":"cebpf4jnsgd1na2vs0mg"},{"bike_id":"0bcc95b4-425e-469f-939d-91b1cd71cef9","system_id":"levelo_inurba_marseille","lat":43.27558,"lon":5.38404,"is_reserved":false,"is_disabled":false,"rental_uris":{"android":"levelo://app?vid=0bcc95b4-425e-469f-939d-91b1cd71cef9","ios":"levelo://app?vid=0bcc95b4-425e-469f-939d-91b1cd71cef9"},"vehicle_type_id":"4","last_reported":1753405166,"current_range_meters":6000,"station_id":"ce4bhh92rcd13ifvqfi0","pricing_plan_id":"cebpf4jnsgd1na2vs0mg"},{"bike_id":"8d4c0420-d0a3-4380-bcc1-62c045f8d4b9","system_id":"levelo_inurba_marseille","lat":43.26548,"lon":5.39042,"is_reserved":false,"is_disabled":true,"rental_uris":{"android":"levelo://app?vid=8d4c0420-d0a3-4380-bcc1-62c045f8d4b9","ios":"levelo://app?vid=8d4c0420-d0a3-4380-bcc1-62c045f8d4b9"},"vehicle_type_id":"4","last_reported":1753405166,"current_range_meters":6400,"station_id":"ce4bhe12rcd13ifvqf30","pricing_plan_id":"cebpf4jnsgd1na2vs0mg"},{"bike_id":"da053e6a-15f2-492e-8bc1-42b1d66cc329","system_id":"levelo_inurba_marseille","lat":43.28344,"lon":5.43228,"is_reserved":false,"is_disabled":false,"rental_uris":{"android":"levelo://app?vid=da053e6a-15f2-492e-8bc1-42b1d66cc329","ios":"levelo://app?vid=da053e6a-15f2-492e-8bc1-42b1d66cc329"},"vehicle_type_id":"4","last_reported":1753405166,"current_range_meters":6800,"station_id":"","pricing_plan_id":"cebpf4jnsgd1na2vs0mg"},{"bike_id":"4e6dd435-dcdc-4c6d-be23-774e5b68e116","system_id":"levelo_inurba_marseille","lat":43.286087,"lon":5.351113,"is_reserved":false,"is_disabled":false,"rental_uris":{"android":"levelo://app?vid=4e6dd435-dcdc-4c6d-be23-774e5b68e116","ios":"levelo://app?vid=4e6dd435-dcdc-4c6d-be23-774e5b68e116"},"vehicle_type_id":"4","last_reported":1753405166,"current_range_meters":6800,"station_id":"ce4bhch2rcd13ifvqeug","pricing_plan_id":"cebpf4jnsgd1na2vs0mg"},{"bike_id":"89c38ff2-c71f-41c4-8522-b0a3e37137c5","system_id":"levelo_inurba_marseille","lat":43.30784,"lon":5.37643,"is_reserved":false,"is_disabled":false,"rental_uris":{"android":"levelo://app?vid=89c38ff2-c71f-41c4-8522-b0a3e37137c5","ios":"levelo://app?vid=89c38ff2-c71f-41c4-8522-b0a3e37137c5"},"vehicle_type_id":"4","last_reported":1753405166,"current_range_meters":7200,"station_id":"ce4bgv92rcd13ifvqcq0","pricing_plan_id":"cebpf4jnsgd1na2vs0mg"},{"bike_id":"87d9cc9e-fb09-41d9-ab2e-0f924589aaeb","system_id":"levelo_inurba_marseille","lat":43.31223,"lon":5.36869,"is_reserved":false,"is_disabled":true,"rental_uris":{"android":"levelo://app?vid=87d9cc9e-fb09-41d9-ab2e-0f924589aaeb","ios":"levelo://app?vid=87d9cc9e-fb09-41d9-ab2e-0f924589aaeb"},"vehicle_type_id":"4","last_reported":1753405166,"current_range_meters":7200,"station_id":"ce4bgl92rcd13ifvqbq0","pricing_plan_id":"cebpf4jnsgd1na2vs0mg"},{"bike_id":"73be3c77-0070-483c-9c65-3e3c88eda8f2","system_id":"levelo_inurba_marseille","lat":43.28106,"lon":5.37862,"is_reserved":false,"is_disabled":false,"rental_uris":{"android":"levelo://app?vid=73be3c77-0070-483c-9c65-3e3c88eda8f2","ios":"levelo://app?vid=73be3c77-0070-483c-9c65-3e3c88eda8f2"},"vehicle_type_id":"4","last_reported":1753405166,"current_range_meters":7200,"station_id":"ce4bha12rcd13ifvqee0","pricing_plan_id":"cebpf4jnsgd1na2vs0mg"},{"bike_id":"8e14b7f3-c16f-461e-89ef-88a7168c6eff","system_id":"levelo_inurba_marseille","lat":43.31099,"lon":5.37785,"is_reserved":false,"is_disabled":false,"rental_uris":{"android":"levelo://app?vid=8e14b7f3-c16f-461e-89ef-88a7168c6eff","ios":"levelo://app?vid=8e14b7f3-c16f-461e-89ef-88a7168c6eff"},"vehicle_type_id":"4","last_reported":1753405166,"current_range_meters":7200,"station_id":"ce4bgt92rcd13ifvqcg0","pricing_plan_id":"cebpf4jnsgd1na2vs0mg"},{"bike_id":"ce0ffc32-a366-4e8b-b135-ca54d0fd6cbb","system_id":"levelo_inurba_marseille","lat":43.261893,"lon":5.374471,"is_reserved":false,"is_disabled":true,"rental_uris":{"android":"levelo://app?vid=ce0ffc32-a366-4e8b-b135-ca54d0fd6cbb","ios":"levelo://app?vid=ce0ffc32-a366-4e8b-b135-ca54d0fd6cbb"},"vehicle_type_id":"4","last_reported":1753405166,"current_range_meters":8000,"station_id":"ce4bhgp2rcd13ifvqfc0","pricing_plan_id":"cebpf4jnsgd1na2vs0mg"},{"bike_id":"a4c4bad3-a0b1-45ab-8f46-1d962fecee79","system_id":"levelo_inurba_marseille","lat":43.28454,"lon":5.39189,"is_reserved":false,"is_disabled":false,"rental_uris":{"android":"levelo://app?vid=a4c4bad3-a0b1-45ab-8f46-1d962fecee79","ios":"levelo://app?vid=a4c4bad3-a0b1-45ab-8f46-1d962fecee79"},"vehicle_type_id":"4","last_reported":1753405166,"current_range_meters":8000,"station_id":"ce4bhoh2rcd13ifvqh5g","pricing_plan_id":"cebpf4jnsgd1na2vs0mg"},{"bike_id":"ebeaa1e0-37f7-48bf-8e38-f2e4b31a9d30","system_id":"levelo_inurba_marseille","lat":43.308064,"lon":5.38141,"is_reserved":false,"is_disabled":false,"rental_uris":{"android":"levelo://app?vid=ebeaa1e0-37f7-48bf-8e38-f2e4b31a9d30","ios":"levelo://app?vid=ebeaa1e0-37f7-48bf-8e38-f2e4b31a9d30"},"vehicle_type_id":"4","last_reported":1753405166,"current_range_meters":8000,"station_id":"ce4bgt12rcd13ifvqce0","pricing_plan_id":"cebpf4jnsgd1na2vs0mg"},{"bike_id":"2936456c-77f6-4f82-a181-4bc2dd541746","system_id":"levelo_inurba_marseille","lat":43.29187,"lon":5.358,"is_reserved":false,"is_disabled":true,"rental_uris":{"android":"levelo://app?vid=2936456c-77f6-4f82-a181-4bc2dd541746","ios":"levelo://app?vid=2936456c-77f6-4f82-a181-4bc2dd541746"},"vehicle_type_id":"4","last_reported":1753405166,"current_range_meters":8400,"station_id":"ce4bhb12rcd13ifvqel0","pricing_plan_id":"cebpf4jnsgd1na2vs0mg"},{"bike_id":"67b83d00-9ce3-4d04-b3e7-245417e4357e","system_id":"levelo_inurba_marseille","lat":43.30595,"lon":5.39348,"is_reserved":false,"is_disabled":false,"rental_uris":{"android":"levelo://app?vid=67b83d00-9ce3-4d04-b3e7-245417e4357e","ios":"levelo://app?vid=67b83d00-9ce3-4d04-b3e7-245417e4357e"},"vehicle_type_id":"4","last_reported":1753405166,"current_range_meters":24800,"station_id":"ce4bh0p2rcd13ifvqd80","pricing_plan_id":"cebpf4jnsgd1na2vs0mg"},{"bike_id":"f3217e35-0bb5-43ab-beb0-dd5e233a7114","system_id":"levelo_inurba_marseille","lat":43.25578,"lon":5.382244,"is_reserved":false,"is_disabled":true,"rental_uris":{"android":"levelo://app?vid=f3217e35-0bb5-43ab-beb0-dd5e233a7114","ios":"levelo://app?vid=f3217e35-0bb5-43ab-beb0-dd5e233a7114"},"vehicle_type_id":"4","last_reported":1753405166,"current_range_meters":8400,"station_id":"ce4bhih2rcd13ifvqfs0","pricing_plan_id":"cebpf4jnsgd1na2vs0mg"},{"bike_id":"e343ccda-9486-40c5-8d5c-0f78e80d25f9","system_id":"levelo_inurba_marseille","lat":43.30416,"lon":5.41284,"is_reserved":false,"is_disabled":false,"rental_uris":{"android":"levelo://app?vid=e343ccda-9486-40c5-8d5c-0f78e80d25f9","ios":"levelo://app?vid=e343ccda-9486-40c5-8d5c-0f78e80d25f9"},"vehicle_type_id":"4","last_reported":1753405166,"current_range_meters":8400,"station_id":"ce4bhop2rcd13ifvqh8g","pricing_plan_id":"cebpf4jnsgd1na2vs0mg"},{"bike_id":"d4043fff-8474-4a89-965a-b8794944d0a3","system_id":"levelo_inurba_marseille","lat":43.23192,"lon":5.39997,"is_reserved":false,"is_disabled":true,"rental_uris":{"android":"levelo://app?vid=d4043fff-8474-4a89-965a-b8794944d0a3","ios":"levelo://app?vid=d4043fff-8474-4a89-965a-b8794944d0a3"},"vehicle_type_id":"4","last_reported":1753405166,"current_range_meters":8800,"station_id":"ce4bhn12rcd13ifvqgqg","pricing_plan_id":"cebpf4jnsgd1na2vs0mg"},{"bike_id":"bbc2b271-396f-4875-9f1d-0fcc163d87b6","system_id":"levelo_inurba_marseille","lat":43.290569,"lon":5.398914,"is_reserved":false,"is_disabled":false,"rental_uris":{"android":"levelo://app?vid=bbc2b271-396f-4875-9f1d-0fcc163d87b6","ios":"levelo://app?vid=bbc2b271-396f-4875-9f1d-0fcc163d87b6"},"vehicle_type_id":"4","last_reported":1753405166,"current_range_meters":8800,"station_id":"ce4bh392rcd13ifvqdm0","pricing_plan_id":"cebpf4jnsgd1na2vs0mg"},{"bike_id":"7250624a-63df-4e44-9e5a-1056e5f8a90f","system_id":"levelo_inurba_marseille","lat":43.2923,"lon":5.4081,"is_reserved":false,"is_disabled":false,"rental_uris":{"android":"levelo://app?vid=7250624a-63df-4e44-9e5a-1056e5f8a90f","ios":"levelo://app?vid=7250624a-63df-4e44-9e5a-1056e5f8a90f"},"vehicle_type_id":"4","last_reported":1753405166,"current_range_meters":8800,"station_id":"","pricing_plan_id":"cebpf4jnsgd1na2vs0mg"},{"bike_id":"b5ce8d93-17c0-45a5-b2b1-eefce45c2d79","system_id":"levelo_inurba_marseille","lat":43.29245,"lon":5.44607,"is_reserved":false,"is_disabled":false,"rental_uris":{"android":"levelo://app?vid=b5ce8d93-17c0-45a5-b2b1-eefce45c2d79","ios":"levelo://app?vid=b5ce8d93-17c0-45a5-b2b1-eefce45c2d79"},"vehicle_type_id":"4","last_reported":1753405166,"current_range_meters":8800,"station_id":"","pricing_plan_id":"cebpf4jnsgd1na2vs0mg"},{"bike_id":"03614573-0f94-4043-a1c0-44c370ae68e7","system_id":"levelo_inurba_marseille","lat":43.3176,"lon":5.39013,"is_reserved":false,"is_disabled":false,"rental_uris":{"android":"levelo://app?vid=03614573-0f94-4043-a1c0-44c370ae68e7","ios":"levelo://app?vid=03614573-0f94-4043-a1c0-44c370ae68e7"},"vehicle_type_id":"4","last_reported":1753405166,"current_range_meters":8800,"station_id":"ce4bhqp2rcd13ifvqhng","pricing_plan_id":"cebpf4jnsgd1na2vs0mg"},{"bike_id":"103f1055-8f09-4334-abab-9f44037f0884","system_id":"levelo_inurba_marseille","lat":43.23188,"lon":5.35556,"is_reserved":false,"is_disabled":true,"rental_uris":{"android":"levelo://app?vid=103f1055-8f09-4334-abab-9f44037f0884","ios":"levelo://app?vid=103f1055-8f09-4334-abab-9f44037f0884"},"vehicle_type_id":"4","last_reported":1753405166,"current_range_meters":8800,"station_id":"ce4bhu92rcd13ifvqi70","pricing_plan_id":"cebpf4jnsgd1na2vs0mg"},{"bike_id":"1242185d-2b3c-44b4-8f56-bd2cf4041b46","system_id":"levelo_inurba_marseille","lat":43.288545,"lon":5.358527,"is_reserved":false,"is_disabled":false,"rental_uris":{"android":"levelo://app?vid=1242185d-2b3c-44b4-8f56-bd2cf4041b46","ios":"levelo://app?vid=1242185d-2b3c-44b4-8f56-bd2cf4041b46"},"vehicle_type_id":"4","last_reported":1753405166,"current_range_meters":8800,"station_id":"","pricing_plan_id":"cebpf4jnsgd1na2vs0mg"},{"bike_id":"860aa23e-a816-40f6-b571-34ba11bce5cf","system_id":"levelo_inurba_marseille","lat":43.24133,"lon":5.37003,"is_reserved":false,"is_disabled":false,"rental_uris":{"android":"levelo://app?vid=860aa23e-a816-40f6-b571-34ba11bce5cf","ios":"levelo://app?vid=860aa23e-a816-40f6-b571-34ba11bce5cf"},"vehicle_type_id":"4","last_reported":1753405166,"current_range_meters":8800,"station_id":"","pricing_plan_id":"cebpf4jnsgd1na2vs0mg"},{"bike_id":"300a4756-01bd-4e0c-90d5-87daadcf6e14","system_id":"levelo_inurba_marseille","lat":43.290972,"lon":5.359105,"is_reserved":false,"is_disabled":true,"rental_uris":{"android":"levelo://app?vid=300a4756-01bd-4e0c-90d5-87daadcf6e14","ios":"levelo://app?vid=300a4756-01bd-4e0c-90d5-87daadcf6e14"},"vehicle_type_id":"4","last_reported":1753405166,"current_range_meters":9200,"station_id":"","pricing_plan_id":"cebpf4jnsgd1na2vs0mg"},{"bike_id":"ae131367-d818-44a0-9e1d-4aa65dcdb16a","system_id":"levelo_inurba_marseille","lat":43.27605,"lon":5.39678,"is_reserved":false,"is_disabled":true,"rental_uris":{"android":"levelo://app?vid=ae131367-d818-44a0-9e1d-4aa65dcdb16a","ios":"levelo://app?vid=ae131367-d818-44a0-9e1d-4aa65dcdb16a"},"vehicle_type_id":"4","last_reported":1753405166,"current_range_meters":9200,"station_id":"","pricing_plan_id":"cebpf4jnsgd1na2vs0mg"},{"bike_id":"65183824-4b76-48ad-bf8a-b0414bc805f2","system_id":"levelo_inurba_marseille","lat":43.307879,"lon":5.381658,"is_reserved":false,"is_disabled":false,"rental_uris":{"android":"levelo://app?vid=65183824-4b76-48ad-bf8a-b0414bc805f2","ios":"levelo://app?vid=65183824-4b76-48ad-bf8a-b0414bc805f2"},"vehicle_type_id":"4","last_reported":1753405166,"current_range_meters":9200,"station_id":"ce4bgt12rcd13ifvqce0","pricing_plan_id":"cebpf4jnsgd1na2vs0mg"},{"bike_id":"dc32fb6a-5b59-468c-a883-b773ad2e10f3","system_id":"levelo_inurba_marseille","lat":43.23173,"lon":5.39988,"is_reserved":false,"is_disabled":false,"rental_uris":{"android":"levelo://app?vid=dc32fb6a-5b59-468c-a883-b773ad2e10f3","ios":"levelo://app?vid=dc32fb6a-5b59-468c-a883-b773ad2e10f3"},"vehicle_type_id":"4","last_reported":1753405166,"current_range_meters":8800,"station_id":"ce4bhn12rcd13ifvqgqg","pricing_plan_id":"cebpf4jnsgd1na2vs0mg"},{"bike_id":"0a7cf1b0-976e-43f6-be59-2b74afda25b1","system_id":"levelo_inurba_marseille","lat":43.28688,"lon":5.41343,"is_reserved":false,"is_disabled":false,"rental_uris":{"android":"levelo://app?vid=0a7cf1b0-976e-43f6-be59-2b74afda25b1","ios":"levelo://app?vid=0a7cf1b0-976e-43f6-be59-2b74afda25b1"},"vehicle_type_id":"4","last_reported":1753405166,"current_range_meters":9200,"station_id":"","pricing_plan_id":"cebpf4jnsgd1na2vs0mg"},{"bike_id":"8fc40684-9b2f-4471-90f0-d80318962260","system_id":"levelo_inurba_marseille","lat":43.28556,"lon":5.37778,"is_reserved":false,"is_disabled":false,"rental_uris":{"android":"levelo://app?vid=8fc40684-9b2f-4471-90f0-d80318962260","ios":"levelo://app?vid=8fc40684-9b2f-4471-90f0-d80318962260"},"vehicle_type_id":"4","last_reported":1753405166,"current_range_meters":9200,"station_id":"","pricing_plan_id":"cebpf4jnsgd1na2vs0mg"},{"bike_id":"2ae83899-90fd-4b59-b691-4169c75aef1a","system_id":"levelo_inurba_marseille","lat":43.33773,"lon":5.37426,"is_reserved":false,"is_disabled":false,"rental_uris":{"android":"levelo://app?vid=2ae83899-90fd-4b59-b691-4169c75aef1a","ios":"levelo://app?vid=2ae83899-90fd-4b59-b691-4169c75aef1a"},"vehicle_type_id":"4","last_reported":1753405166,"current_range_meters":9200,"station_id":"","pricing_plan_id":"cebpf4jnsgd1na2vs0mg"},{"bike_id":"d6f40dc1-27da-4a67-8ed3-8cd86d65885d","system_id":"levelo_inurba_marseille","lat":43.292712,"lon":5.401293,"is_reserved":false,"is_disabled":false,"rental_uris":{"android":"levelo://app?vid=d6f40dc1-27da-4a67-8ed3-8cd86d65885d","ios":"levelo://app?vid=d6f40dc1-27da-4a67-8ed3-8cd86d65885d"},"vehicle_type_id":"4","last_reported":1753405166,"current_range_meters":9600,"station_id":"ce4bh312rcd13ifvqdk0","pricing_plan_id":"cebpf4jnsgd1na2vs0mg"},{"bike_id":"20b3ac39-d220-4d0b-8848-1b7f328b0525","system_id":"levelo_inurba_marseille","lat":43.26218,"lon":5.40397,"is_reserved":false,"is_disabled":true,"rental_uris":{"android":"levelo://app?vid=20b3ac39-d220-4d0b-8848-1b7f328b0525","ios":"levelo://app?vid=20b3ac39-d220-4d0b-8848-1b7f328b0525"},"vehicle_type_id":"4","last_reported":1753405166,"current_range_meters":9600,"station_id":"ce4bhmh2rcd13ifvqgmg","pricing_plan_id":"cebpf4jnsgd1na2vs0mg"},{"bike_id":"3cd09fc8-9554-4236-8496-0931a7be09d1","system_id":"levelo_inurba_marseille","lat":43.21181,"lon":5.35126,"is_reserved":false,"is_disabled":false,"rental_uris":{"android":"levelo://app?vid=3cd09fc8-9554-4236-8496-0931a7be09d1","ios":"levelo://app?vid=3cd09fc8-9554-4236-8496-0931a7be09d1"},"vehicle_type_id":"4","last_reported":1753405166,"current_range_meters":9600,"station_id":"st_cvj6sg6p6f1abm77japg","pricing_plan_id":"cebpf4jnsgd1na2vs0mg"},{"bike_id":"7953bd65-7d69-47f9-8eab-d9ef0a5c4807","system_id":"levelo_inurba_marseille","lat":43.28937,"lon":5.36645,"is_reserved":false,"is_disabled":false,"rental_uris":{"android":"levelo://app?vid=7953bd65-7d69-47f9-8eab-d9ef0a5c4807","ios":"levelo://app?vid=7953bd65-7d69-47f9-8eab-d9ef0a5c4807"},"vehicle_type_id":"4","last_reported":1753405166,"current_range_meters":9600,"station_id":"ce4bhap2rcd13ifvqek0","pricing_plan_id":"cebpf4jnsgd1na2vs0mg"},{"bike_id":"84f24291-cef0-4087-b021-970103e21e14","system_id":"levelo_inurba_marseille","lat":43.25107,"lon":5.40324,"is_reserved":false,"is_disabled":false,"rental_uris":{"android":"levelo://app?vid=84f24291-cef0-4087-b021-970103e21e14","ios":"levelo://app?vid=84f24291-cef0-4087-b021-970103e21e14"},"vehicle_type_id":"4","last_reported":1753405166,"current_range_meters":9600,"station_id":"ce4bhlh2rcd13ifvqgig","pricing_plan_id":"cebpf4jnsgd1na2vs0mg"},{"bike_id":"a4b946b9-d774-4aa8-a674-ad0eb8d743ec","system_id":"levelo_inurba_marseille","lat":43.29044,"lon":5.37158,"is_reserved":false,"is_disabled":false,"rental_uris":{"android":"levelo://app?vid=a4b946b9-d774-4aa8-a674-ad0eb8d743ec","ios":"levelo://app?vid=a4b946b9-d774-4aa8-a674-ad0eb8d743ec"},"vehicle_type_id":"4","last_reported":1753405166,"current_range_meters":9600,"station_id":"ce4bh5p2rcd13ifvqe4g","pricing_plan_id":"cebpf4jnsgd1na2vs0mg"},{"bike_id":"5ac85406-65d0-4336-aa89-4b04b2e6689e","system_id":"levelo_inurba_marseille","lat":43.33259,"lon":5.41974,"is_reserved":false,"is_disabled":false,"rental_uris":{"android":"levelo://app?vid=5ac85406-65d0-4336-aa89-4b04b2e6689e","ios":"levelo://app?vid=5ac85406-65d0-4336-aa89-4b04b2e6689e"},"vehicle_type_id":"4","last_reported":1753405166,"current_range_meters":10000,"station_id":"","pricing_plan_id":"cebpf4jnsgd1na2vs0mg"},{"bike_id":"3cbb97c5-1f06-4add-ac6d-a120022e686c","system_id":"levelo_inurba_marseille","lat":43.2991,"lon":5.37581,"is_reserved":false,"is_disabled":false,"rental_uris":{"android":"levelo://app?vid=3cbb97c5-1f06-4add-ac6d-a120022e686c","ios":"levelo://app?vid=3cbb97c5-1f06-4add-ac6d-a120022e686c"},"vehicle_type_id":"4","last_reported":1753405166,"current_range_meters":10000,"station_id":"","pricing_plan_id":"cebpf4jnsgd1na2vs0mg"},{"bike_id":"2006d6ab-c619-4a15-b9f3-97c1160843f0","system_id":"levelo_inurba_marseille","lat":43.28149,"lon":5.36106,"is_reserved":false,"is_disabled":false,"rental_uris":{"android":"levelo://app?vid=2006d6ab-c619-4a15-b9f3-97c1160843f0","ios":"levelo://app?vid=2006d6ab-c619-4a15-b9f3-97c1160843f0"},"vehicle_type_id":"4","last_reported":1753405166,"current_range_meters":10000,"station_id":"","pricing_plan_id":"cebpf4jnsgd1na2vs0mg"},{"bike_id":"bbe4aeb7-04e7-47d0-bfc3-ec905bf28738","system_id":"levelo_inurba_marseille","lat":43.2896,"lon":5.38393,"is_reserved":false,"is_disabled":false,"rental_uris":{"android":"levelo://app?vid=bbe4aeb7-04e7-47d0-bfc3-ec905bf28738","ios":"levelo://app?vid=bbe4aeb7-04e7-47d0-bfc3-ec905bf28738"},"vehicle_type_id":"4","last_reported":1753405166,"current_range_meters":10000,"station_id":"ce4bh612rcd13ifvqe6g","pricing_plan_id":"cebpf4jnsgd1na2vs0mg"},{"bike_id":"cb6d78b0-d68e-4afd-ab98-9da9a4db9787","system_id":"levelo_inurba_marseille","lat":43.24647,"lon":5.38897,"is_reserved":false,"is_disabled":false,"rental_uris":{"android":"levelo://app?vid=cb6d78b0-d68e-4afd-ab98-9da9a4db9787","ios":"levelo://app?vid=cb6d78b0-d68e-4afd-ab98-9da9a4db9787"},"vehicle_type_id":"4","last_reported":1753405166,"current_range_meters":10000,"station_id":"ce4bhg12rcd13ifvqf60","pricing_plan_id":"cebpf4jnsgd1na2vs0mg"},{"bike_id":"95142580-76f7-40f2-97f7-b187124c6efa","system_id":"levelo_inurba_marseille","lat":43.284251,"lon":5.375217,"is_reserved":false,"is_disabled":false,"rental_uris":{"android":"levelo://app?vid=95142580-76f7-40f2-97f7-b187124c6efa","ios":"levelo://app?vid=95142580-76f7-40f2-97f7-b187124c6efa"},"vehicle_type_id":"4","last_reported":1753405166,"current_range_meters":10000,"station_id":"ce4bh412rcd13ifvqds0","pricing_plan_id":"cebpf4jnsgd1na2vs0mg"},{"bike_id":"91b55df7-1767-4fdc-9d6b-d549895dbc61","system_id":"levelo_inurba_marseille","lat":43.30308,"lon":5.39207,"is_reserved":false,"is_disabled":false,"rental_uris":{"android":"levelo://app?vid=91b55df7-1767-4fdc-9d6b-d549895dbc61","ios":"levelo://app?vid=91b55df7-1767-4fdc-9d6b-d549895dbc61"},"vehicle_type_id":"4","last_reported":1753405166,"current_range_meters":10800,"station_id":"ce4bgkh2rcd13ifvqbk0","pricing_plan_id":"cebpf4jnsgd1na2vs0mg"},{"bike_id":"416e6562-fe87-4aa1-b2a7-cc8166757e10","system_id":"levelo_inurba_marseille","lat":43.3172,"lon":5.43712,"is_reserved":false,"is_disabled":false,"rental_uris":{"android":"levelo://app?vid=416e6562-fe87-4aa1-b2a7-cc8166757e10","ios":"levelo://app?vid=416e6562-fe87-4aa1-b2a7-cc8166757e10"},"vehicle_type_id":"4","last_reported":1753405166,"current_range_meters":10800,"station_id":"ce4bhp92rcd13ifvqhcg","pricing_plan_id":"cebpf4jnsgd1na2vs0mg"},{"bike_id":"a927f348-f866-40cf-8ad4-9daab71eecd4","system_id":"levelo_inurba_marseille","lat":43.28406,"lon":5.37536,"is_reserved":false,"is_disabled":false,"rental_uris":{"android":"levelo://app?vid=a927f348-f866-40cf-8ad4-9daab71eecd4","ios":"levelo://app?vid=a927f348-f866-40cf-8ad4-9daab71eecd4"},"vehicle_type_id":"4","last_reported":1753405166,"current_range_meters":10800,"station_id":"ce4bh412rcd13ifvqds0","pricing_plan_id":"cebpf4jnsgd1na2vs0mg"},{"bike_id":"b57f5444-81ff-4a62-9ea3-1b3feaeafb55","system_id":"levelo_inurba_marseille","lat":43.28337,"lon":5.38106,"is_reserved":false,"is_disabled":true,"rental_uris":{"android":"levelo://app?vid=b57f5444-81ff-4a62-9ea3-1b3feaeafb55","ios":"levelo://app?vid=b57f5444-81ff-4a62-9ea3-1b3feaeafb55"},"vehicle_type_id":"4","last_reported":1753405166,"current_range_meters":10800,"station_id":"ce4bh412rcd13ifvqdr0","pricing_plan_id":"cebpf4jnsgd1na2vs0mg"},{"bike_id":"6bb1f31c-9335-4f39-9585-31374a4775f9","system_id":"levelo_inurba_marseille","lat":43.325583,"lon":5.379059,"is_reserved":false,"is_disabled":false,"rental_uris":{"android":"levelo://app?vid=6bb1f31c-9335-4f39-9585-31374a4775f9","ios":"levelo://app?vid=6bb1f31c-9335-4f39-9585-31374a4775f9"},"vehicle_type_id":"4","last_reported":1753405166,"current_range_meters":10800,"station_id":"","pricing_plan_id":"cebpf4jnsgd1na2vs0mg"},{"bike_id":"3363dedc-8d9a-4d07-86c7-a592a157e616","system_id":"levelo_inurba_marseille","lat":43.30252,"lon":5.40065,"is_reserved":false,"is_disabled":false,"rental_uris":{"android":"levelo://app?vid=3363dedc-8d9a-4d07-86c7-a592a157e616","ios":"levelo://app?vid=3363dedc-8d9a-4d07-86c7-a592a157e616"},"vehicle_type_id":"4","last_reported":1753405166,"current_range_meters":10800,"station_id":"ce4bgvh2rcd13ifvqcs0","pricing_plan_id":"cebpf4jnsgd1na2vs0mg"},{"bike_id":"61669521-2c65-4931-bc2c-4bdfe86f873c","system_id":"levelo_inurba_marseille","lat":43.21773,"lon":5.34592,"is_reserved":false,"is_disabled":false,"rental_uris":{"android":"levelo://app?vid=61669521-2c65-4931-bc2c-4bdfe86f873c","ios":"levelo://app?vid=61669521-2c65-4931-bc2c-4bdfe86f873c"},"vehicle_type_id":"4","last_reported":1753405166,"current_range_meters":10800,"station_id":"","pricing_plan_id":"cebpf4jnsgd1na2vs0mg"},{"bike_id":"1ad257b5-7f83-42c1-867f-92635ff1abbf","system_id":"levelo_inurba_marseille","lat":43.2293,"lon":5.353816,"is_reserved":false,"is_disabled":false,"rental_uris":{"android":"levelo://app?vid=1ad257b5-7f83-42c1-867f-92635ff1abbf","ios":"levelo://app?vid=1ad257b5-7f83-42c1-867f-92635ff1abbf"},"vehicle_type_id":"4","last_reported":1753405166,"current_range_meters":10800,"station_id":"cpo3532slgdg3j2ikp40","pricing_plan_id":"cebpf4jnsgd1na2vs0mg"},{"bike_id":"3e70609d-f90c-42ca-bfc8-bb7b81a1664f","system_id":"levelo_inurba_marseille","lat":43.302955,"lon":5.392048,"is_reserved":false,"is_disabled":false,"rental_uris":{"android":"levelo://app?vid=3e70609d-f90c-42ca-bfc8-bb7b81a1664f","ios":"levelo://app?vid=3e70609d-f90c-42ca-bfc8-bb7b81a1664f"},"vehicle_type_id":"4","last_reported":1753405166,"current_range_meters":10800,"station_id":"ce4bgkh2rcd13ifvqbk0","pricing_plan_id":"cebpf4jnsgd1na2vs0mg"},{"bike_id":"b913c24d-ffa7-4a46-9ee5-97549d6a74ee","system_id":"levelo_inurba_marseille","lat":43.26778,"lon":5.39423,"is_reserved":false,"is_disabled":true,"rental_uris":{"android":"levelo://app?vid=b913c24d-ffa7-4a46-9ee5-97549d6a74ee","ios":"levelo://app?vid=b913c24d-ffa7-4a46-9ee5-97549d6a74ee"},"vehicle_type_id":"4","last_reported":1753405166,"current_range_meters":11200,"station_id":"ce4bhh12rcd13ifvqfg0","pricing_plan_id":"cebpf4jnsgd1na2vs0mg"},{"bike_id":"ad25e224-b15c-4949-92a3-53289b1bd1fb","system_id":"levelo_inurba_marseille","lat":43.28772,"lon":5.38503,"is_reserved":false,"is_disabled":false,"rental_uris":{"android":"levelo://app?vid=ad25e224-b15c-4949-92a3-53289b1bd1fb","ios":"levelo://app?vid=ad25e224-b15c-4949-92a3-53289b1bd1fb"},"vehicle_type_id":"4","last_reported":1753405166,"current_range_meters":11200,"station_id":"","pricing_plan_id":"cebpf4jnsgd1na2vs0mg"},{"bike_id":"15764e5c-9dbf-4127-b7d5-4ec1473657e5","system_id":"levelo_inurba_marseille","lat":43.289427,"lon":5.364133,"is_reserved":false,"is_disabled":false,"rental_uris":{"android":"levelo://app?vid=15764e5c-9dbf-4127-b7d5-4ec1473657e5","ios":"levelo://app?vid=15764e5c-9dbf-4127-b7d5-4ec1473657e5"},"vehicle_type_id":"4","last_reported":1753405166,"current_range_meters":11200,"station_id":"ce4bhc92rcd13ifvqetg","pricing_plan_id":"cebpf4jnsgd1na2vs0mg"},{"bike_id":"703ccaa0-9b5e-4431-b67b-89a744137a05","system_id":"levelo_inurba_marseille","lat":43.29977,"lon":5.37164,"is_reserved":false,"is_disabled":false,"rental_uris":{"android":"levelo://app?vid=703ccaa0-9b5e-4431-b67b-89a744137a05","ios":"levelo://app?vid=703ccaa0-9b5e-4431-b67b-89a744137a05"},"vehicle_type_id":"4","last_reported":1753405166,"current_range_meters":11200,"station_id":"ce4bgr92rcd13ifvqc7g","pricing_plan_id":"cebpf4jnsgd1na2vs0mg"},{"bike_id":"cc5dbab6-22b7-4bf7-83b4-2f2dc7b1ca62","system_id":"levelo_inurba_marseille","lat":43.251173,"lon":5.403336,"is_reserved":false,"is_disabled":false,"rental_uris":{"android":"levelo://app?vid=cc5dbab6-22b7-4bf7-83b4-2f2dc7b1ca62","ios":"levelo://app?vid=cc5dbab6-22b7-4bf7-83b4-2f2dc7b1ca62"},"vehicle_type_id":"4","last_reported":1753405166,"current_range_meters":11600,"station_id":"ce4bhlh2rcd13ifvqgig","pricing_plan_id":"cebpf4jnsgd1na2vs0mg"},{"bike_id":"dd71c597-cc14-4dd7-8d23-23b6fa189262","system_id":"levelo_inurba_marseille","lat":43.28172,"lon":5.4265,"is_reserved":false,"is_disabled":false,"rental_uris":{"android":"levelo://app?vid=dd71c597-cc14-4dd7-8d23-23b6fa189262","ios":"levelo://app?vid=dd71c597-cc14-4dd7-8d23-23b6fa189262"},"vehicle_type_id":"4","last_reported":1753405166,"current_range_meters":11600,"station_id":"ce4bhnh2rcd13ifvqgug","pricing_plan_id":"cebpf4jnsgd1na2vs0mg"},{"bike_id":"a5ec0df8-a141-453d-bf18-19268a53af5b","system_id":"levelo_inurba_marseille","lat":43.28183,"lon":5.42642,"is_reserved":false,"is_disabled":false,"rental_uris":{"android":"levelo://app?vid=a5ec0df8-a141-453d-bf18-19268a53af5b","ios":"levelo://app?vid=a5ec0df8-a141-453d-bf18-19268a53af5b"},"vehicle_type_id":"4","last_reported":1753405166,"current_range_meters":11600,"station_id":"ce4bhnh2rcd13ifvqgug","pricing_plan_id":"cebpf4jnsgd1na2vs0mg"},{"bike_id":"5b60f57d-b8df-45b1-a77e-1a26de4cd1e1","system_id":"levelo_inurba_marseille","lat":43.3078,"lon":5.37655,"is_reserved":false,"is_disabled":false,"rental_uris":{"android":"levelo://app?vid=5b60f57d-b8df-45b1-a77e-1a26de4cd1e1","ios":"levelo://app?vid=5b60f57d-b8df-45b1-a77e-1a26de4cd1e1"},"vehicle_type_id":"4","last_reported":1753405166,"current_range_meters":11600,"station_id":"ce4bgv92rcd13ifvqcq0","pricing_plan_id":"cebpf4jnsgd1na2vs0mg"},{"bike_id":"5fb5dc0b-c5c2-47ba-9bf5-b3381a8d470d","system_id":"levelo_inurba_marseille","lat":43.30898,"lon":5.39654,"is_reserved":false,"is_disabled":true,"rental_uris":{"android":"levelo://app?vid=5fb5dc0b-c5c2-47ba-9bf5-b3381a8d470d","ios":"levelo://app?vid=5fb5dc0b-c5c2-47ba-9bf5-b3381a8d470d"},"vehicle_type_id":"4","last_reported":1753405166,"current_range_meters":11600,"station_id":"ce4bh012rcd13ifvqcv0","pricing_plan_id":"cebpf4jnsgd1na2vs0mg"},{"bike_id":"22c247f3-1b7c-4346-bee3-7830463b1ca2","system_id":"levelo_inurba_marseille","lat":43.289313,"lon":5.384013,"is_reserved":false,"is_disabled":false,"rental_uris":{"android":"levelo://app?vid=22c247f3-1b7c-4346-bee3-7830463b1ca2","ios":"levelo://app?vid=22c247f3-1b7c-4346-bee3-7830463b1ca2"},"vehicle_type_id":"4","last_reported":1753405166,"current_range_meters":12000,"station_id":"ce4bh612rcd13ifvqe6g","pricing_plan_id":"cebpf4jnsgd1na2vs0mg"},{"bike_id":"e93e4ee1-01b0-47d1-bb7f-aa21b1772a4c","system_id":"levelo_inurba_marseille","lat":43.3135,"lon":5.38498,"is_reserved":false,"is_disabled":false,"rental_uris":{"android":"levelo://app?vid=e93e4ee1-01b0-47d1-bb7f-aa21b1772a4c","ios":"levelo://app?vid=e93e4ee1-01b0-47d1-bb7f-aa21b1772a4c"},"vehicle_type_id":"4","last_reported":1753405166,"current_range_meters":12000,"station_id":"ce4bgt92rcd13ifvqcf0","pricing_plan_id":"cebpf4jnsgd1na2vs0mg"},{"bike_id":"a06cac27-b5f8-4f16-bb55-d61b75816638","system_id":"levelo_inurba_marseille","lat":43.2466,"lon":5.3892,"is_reserved":false,"is_disabled":false,"rental_uris":{"android":"levelo://app?vid=a06cac27-b5f8-4f16-bb55-d61b75816638","ios":"levelo://app?vid=a06cac27-b5f8-4f16-bb55-d61b75816638"},"vehicle_type_id":"4","last_reported":1753405166,"current_range_meters":12000,"station_id":"ce4bhg12rcd13ifvqf60","pricing_plan_id":"cebpf4jnsgd1na2vs0mg"},{"bike_id":"5f824980-27aa-4ef2-856d-b766bebead8a","system_id":"levelo_inurba_marseille","lat":43.22503,"lon":5.34784,"is_reserved":false,"is_disabled":false,"rental_uris":{"android":"levelo://app?vid=5f824980-27aa-4ef2-856d-b766bebead8a","ios":"levelo://app?vid=5f824980-27aa-4ef2-856d-b766bebead8a"},"vehicle_type_id":"4","last_reported":1753405166,"current_range_meters":12000,"station_id":"st_cvj5dfep6f1abm77gieg","pricing_plan_id":"cebpf4jnsgd1na2vs0mg"},{"bike_id":"66ec3a69-f0e9-48ec-801d-0e8671697a4b","system_id":"levelo_inurba_marseille","lat":43.30892,"lon":5.3965,"is_reserved":false,"is_disabled":false,"rental_uris":{"android":"levelo://app?vid=66ec3a69-f0e9-48ec-801d-0e8671697a4b","ios":"levelo://app?vid=66ec3a69-f0e9-48ec-801d-0e8671697a4b"},"vehicle_type_id":"4","last_reported":1753405166,"current_range_meters":11600,"station_id":"ce4bh012rcd13ifvqcv0","pricing_plan_id":"cebpf4jnsgd1na2vs0mg"},{"bike_id":"aafe922b-1965-4ae3-9069-6b1b4d042556","system_id":"levelo_inurba_marseille","lat":43.305853,"lon":5.39352,"is_reserved":false,"is_disabled":false,"rental_uris":{"android":"levelo://app?vid=aafe922b-1965-4ae3-9069-6b1b4d042556","ios":"levelo://app?vid=aafe922b-1965-4ae3-9069-6b1b4d042556"},"vehicle_type_id":"4","last_reported":1753405166,"current_range_meters":12000,"station_id":"ce4bh0p2rcd13ifvqd80","pricing_plan_id":"cebpf4jnsgd1na2vs0mg"},{"bike_id":"57941dba-0e76-4cd1-9074-4a97e1ffa0b1","system_id":"levelo_inurba_marseille","lat":43.28073,"lon":5.39672,"is_reserved":false,"is_disabled":false,"rental_uris":{"android":"levelo://app?vid=57941dba-0e76-4cd1-9074-4a97e1ffa0b1","ios":"levelo://app?vid=57941dba-0e76-4cd1-9074-4a97e1ffa0b1"},"vehicle_type_id":"4","last_reported":1753405166,"current_range_meters":12000,"station_id":"ce4bho12rcd13ifvqh2g","pricing_plan_id":"cebpf4jnsgd1na2vs0mg"},{"bike_id":"d6f31a75-91b7-4e94-8dca-517b1b51f13f","system_id":"levelo_inurba_marseille","lat":43.30137,"lon":5.37425,"is_reserved":false,"is_disabled":false,"rental_uris":{"android":"levelo://app?vid=d6f31a75-91b7-4e94-8dca-517b1b51f13f","ios":"levelo://app?vid=d6f31a75-91b7-4e94-8dca-517b1b51f13f"},"vehicle_type_id":"4","last_reported":1753405166,"current_range_meters":12000,"station_id":"ce4bgs92rcd13ifvqcc0","pricing_plan_id":"cebpf4jnsgd1na2vs0mg"},{"bike_id":"0f874eab-c533-4f1e-abcb-a27522d7baf2","system_id":"levelo_inurba_marseille","lat":43.28657,"lon":5.36345,"is_reserved":false,"is_disabled":false,"rental_uris":{"android":"levelo://app?vid=0f874eab-c533-4f1e-abcb-a27522d7baf2","ios":"levelo://app?vid=0f874eab-c533-4f1e-abcb-a27522d7baf2"},"vehicle_type_id":"4","last_reported":1753405166,"current_range_meters":12000,"station_id":"ce4bhah2rcd13ifvqej0","pricing_plan_id":"cebpf4jnsgd1na2vs0mg"},{"bike_id":"9d1a101e-1892-46a4-b29b-304f673a1e25","system_id":"levelo_inurba_marseille","lat":43.28702,"lon":5.3739,"is_reserved":false,"is_disabled":false,"rental_uris":{"android":"levelo://app?vid=9d1a101e-1892-46a4-b29b-304f673a1e25","ios":"levelo://app?vid=9d1a101e-1892-46a4-b29b-304f673a1e25"},"vehicle_type_id":"4","last_reported":1753405166,"current_range_meters":12400,"station_id":"ce4bh3p2rcd13ifvqdq0","pricing_plan_id":"cebpf4jnsgd1na2vs0mg"},{"bike_id":"71b3be78-a065-4a7d-a660-cdc4f905766e","system_id":"levelo_inurba_marseille","lat":43.29031,"lon":5.39984,"is_reserved":false,"is_disabled":false,"rental_uris":{"android":"levelo://app?vid=71b3be78-a065-4a7d-a660-cdc4f905766e","ios":"levelo://app?vid=71b3be78-a065-4a7d-a660-cdc4f905766e"},"vehicle_type_id":"4","last_reported":1753405166,"current_range_meters":12400,"station_id":"ce4bh392rcd13ifvqdm0","pricing_plan_id":"cebpf4jnsgd1na2vs0mg"},{"bike_id":"3f94cca8-8ca9-4713-8017-eed8acb78034","system_id":"levelo_inurba_marseille","lat":43.24164,"lon":5.36398,"is_reserved":false,"is_disabled":false,"rental_uris":{"android":"levelo://app?vid=3f94cca8-8ca9-4713-8017-eed8acb78034","ios":"levelo://app?vid=3f94cca8-8ca9-4713-8017-eed8acb78034"},"vehicle_type_id":"4","last_reported":1753405166,"current_range_meters":12400,"station_id":"cpo36qri1sfpv3e86is0","pricing_plan_id":"cebpf4jnsgd1na2vs0mg"},{"bike_id":"94f32c38-82eb-4489-9734-8082cf499adb","system_id":"levelo_inurba_marseille","lat":43.28796,"lon":5.39174,"is_reserved":false,"is_disabled":false,"rental_uris":{"android":"levelo://app?vid=94f32c38-82eb-4489-9734-8082cf499adb","ios":"levelo://app?vid=94f32c38-82eb-4489-9734-8082cf499adb"},"vehicle_type_id":"4","last_reported":1753405166,"current_range_meters":12400,"station_id":"","pricing_plan_id":"cebpf4jnsgd1na2vs0mg"},{"bike_id":"35a86048-76dd-4de0-afb2-7da8772fad44","system_id":"levelo_inurba_marseille","lat":43.2151,"lon":5.34726,"is_reserved":false,"is_disabled":false,"rental_uris":{"android":"levelo://app?vid=35a86048-76dd-4de0-afb2-7da8772fad44","ios":"levelo://app?vid=35a86048-76dd-4de0-afb2-7da8772fad44"},"vehicle_type_id":"4","last_reported":1753405166,"current_range_meters":12400,"station_id":"","pricing_plan_id":"cebpf4jnsgd1na2vs0mg"},{"bike_id":"7043615b-ade2-4e50-a083-e59f8b28b13a","system_id":"levelo_inurba_marseille","lat":43.28708,"lon":5.39986,"is_reserved":false,"is_disabled":false,"rental_uris":{"android":"levelo://app?vid=7043615b-ade2-4e50-a083-e59f8b28b13a","ios":"levelo://app?vid=7043615b-ade2-4e50-a083-e59f8b28b13a"},"vehicle_type_id":"4","last_reported":1753405166,"current_range_meters":12800,"station_id":"ce4bho92rcd13ifvqh3g","pricing_plan_id":"cebpf4jnsgd1na2vs0mg"},{"bike_id":"bee85b99-8dbc-44aa-997f-ebcfd221c874","system_id":"levelo_inurba_marseille","lat":43.30951,"lon":5.40179,"is_reserved":false,"is_disabled":false,"rental_uris":{"android":"levelo://app?vid=bee85b99-8dbc-44aa-997f-ebcfd221c874","ios":"levelo://app?vid=bee85b99-8dbc-44aa-997f-ebcfd221c874"},"vehicle_type_id":"4","last_reported":1753405166,"current_range_meters":12800,"station_id":"ce4bgvp2rcd13ifvqct0","pricing_plan_id":"cebpf4jnsgd1na2vs0mg"},{"bike_id":"702e96cb-8a61-4726-b91e-0ec8b89ce6c5","system_id":"levelo_inurba_marseille","lat":43.30228,"lon":5.40058,"is_reserved":false,"is_disabled":false,"rental_uris":{"android":"levelo://app?vid=702e96cb-8a61-4726-b91e-0ec8b89ce6c5","ios":"levelo://app?vid=702e96cb-8a61-4726-b91e-0ec8b89ce6c5"},"vehicle_type_id":"4","last_reported":1753405166,"current_range_meters":12800,"station_id":"","pricing_plan_id":"cebpf4jnsgd1na2vs0mg"},{"bike_id":"2eee3cc3-8307-4686-ab2d-5018248f4684","system_id":"levelo_inurba_marseille","lat":43.29279,"lon":5.40134,"is_reserved":false,"is_disabled":false,"rental_uris":{"android":"levelo://app?vid=2eee3cc3-8307-4686-ab2d-5018248f4684","ios":"levelo://app?vid=2eee3cc3-8307-4686-ab2d-5018248f4684"},"vehicle_type_id":"4","last_reported":1753405166,"current_range_meters":12800,"station_id":"ce4bh312rcd13ifvqdk0","pricing_plan_id":"cebpf4jnsgd1na2vs0mg"},{"bike_id":"27b5acbc-b1fd-4385-9be5-bae49e9e4f6a","system_id":"levelo_inurba_marseille","lat":43.24805,"lon":5.3746,"is_reserved":false,"is_disabled":false,"rental_uris":{"android":"levelo://app?vid=27b5acbc-b1fd-4385-9be5-bae49e9e4f6a","ios":"levelo://app?vid=27b5acbc-b1fd-4385-9be5-bae49e9e4f6a"},"vehicle_type_id":"4","last_reported":1753405166,"current_range_meters":12800,"station_id":"ce4bhgh2rcd13ifvqfb0","pricing_plan_id":"cebpf4jnsgd1na2vs0mg"},{"bike_id":"fbda76a5-068e-4d90-b9ba-25721acd9298","system_id":"levelo_inurba_marseille","lat":43.290333,"lon":5.439609,"is_reserved":false,"is_disabled":false,"rental_uris":{"android":"levelo://app?vid=fbda76a5-068e-4d90-b9ba-25721acd9298","ios":"levelo://app?vid=fbda76a5-068e-4d90-b9ba-25721acd9298"},"vehicle_type_id":"4","last_reported":1753405166,"current_range_meters":13600,"station_id":"","pricing_plan_id":"cebpf4jnsgd1na2vs0mg"},{"bike_id":"cf776233-7766-4109-aadc-a0d3c334d400","system_id":"levelo_inurba_marseille","lat":43.24069,"lon":5.37763,"is_reserved":false,"is_disabled":false,"rental_uris":{"android":"levelo://app?vid=cf776233-7766-4109-aadc-a0d3c334d400","ios":"levelo://app?vid=cf776233-7766-4109-aadc-a0d3c334d400"},"vehicle_type_id":"4","last_reported":1753405166,"current_range_meters":13600,"station_id":"ce4bhnp2rcd13ifvqgvg","pricing_plan_id":"cebpf4jnsgd1na2vs0mg"},{"bike_id":"9353d228-8680-4d7c-b6dd-c80a6ca3c031","system_id":"levelo_inurba_marseille","lat":43.30378,"lon":5.42483,"is_reserved":false,"is_disabled":false,"rental_uris":{"android":"levelo://app?vid=9353d228-8680-4d7c-b6dd-c80a6ca3c031","ios":"levelo://app?vid=9353d228-8680-4d7c-b6dd-c80a6ca3c031"},"vehicle_type_id":"4","last_reported":1753405166,"current_range_meters":13600,"station_id":"ce4bhoh2rcd13ifvqh6g","pricing_plan_id":"cebpf4jnsgd1na2vs0mg"},{"bike_id":"eaea15aa-98ae-4f78-b37a-80e2e4524837","system_id":"levelo_inurba_marseille","lat":43.297916,"lon":5.381026,"is_reserved":false,"is_disabled":false,"rental_uris":{"android":"levelo://app?vid=eaea15aa-98ae-4f78-b37a-80e2e4524837","ios":"levelo://app?vid=eaea15aa-98ae-4f78-b37a-80e2e4524837"},"vehicle_type_id":"4","last_reported":1753405166,"current_range_meters":13600,"station_id":"","pricing_plan_id":"cebpf4jnsgd1na2vs0mg"},{"bike_id":"f7f07796-c7c9-4a74-80e9-fb85744448b8","system_id":"levelo_inurba_marseille","lat":43.22929,"lon":5.35389,"is_reserved":false,"is_disabled":false,"rental_uris":{"android":"levelo://app?vid=f7f07796-c7c9-4a74-80e9-fb85744448b8","ios":"levelo://app?vid=f7f07796-c7c9-4a74-80e9-fb85744448b8"},"vehicle_type_id":"4","last_reported":1753405166,"current_range_meters":13600,"station_id":"cpo3532slgdg3j2ikp40","pricing_plan_id":"cebpf4jnsgd1na2vs0mg"},{"bike_id":"efe430a2-b548-451c-a0da-531bae37a4ee","system_id":"levelo_inurba_marseille","lat":43.30932,"lon":5.40148,"is_reserved":false,"is_disabled":false,"rental_uris":{"android":"levelo://app?vid=efe430a2-b548-451c-a0da-531bae37a4ee","ios":"levelo://app?vid=efe430a2-b548-451c-a0da-531bae37a4ee"},"vehicle_type_id":"4","last_reported":1753405166,"current_range_meters":14000,"station_id":"ce4bgvp2rcd13ifvqct0","pricing_plan_id":"cebpf4jnsgd1na2vs0mg"},{"bike_id":"032f66d0-c387-41c5-9af4-1ad9711f505c","system_id":"levelo_inurba_marseille","lat":43.316889,"lon":5.404699,"is_reserved":false,"is_disabled":false,"rental_uris":{"android":"levelo://app?vid=032f66d0-c387-41c5-9af4-1ad9711f505c","ios":"levelo://app?vid=032f66d0-c387-41c5-9af4-1ad9711f505c"},"vehicle_type_id":"4","last_reported":1753405166,"current_range_meters":14000,"station_id":"","pricing_plan_id":"cebpf4jnsgd1na2vs0mg"},{"bike_id":"7136e517-5ffc-4744-82ab-5e8aff975eec","system_id":"levelo_inurba_marseille","lat":43.2969,"lon":5.36598,"is_reserved":false,"is_disabled":true,"rental_uris":{"android":"levelo://app?vid=7136e517-5ffc-4744-82ab-5e8aff975eec","ios":"levelo://app?vid=7136e517-5ffc-4744-82ab-5e8aff975eec"},"vehicle_type_id":"4","last_reported":1753405166,"current_range_meters":14000,"station_id":"ce4bgn12rcd13ifvqbt0","pricing_plan_id":"cebpf4jnsgd1na2vs0mg"},{"bike_id":"cde09118-4e23-4bb2-b849-33e3f64e39e6","system_id":"levelo_inurba_marseille","lat":43.28465,"lon":5.39181,"is_reserved":false,"is_disabled":false,"rental_uris":{"android":"levelo://app?vid=cde09118-4e23-4bb2-b849-33e3f64e39e6","ios":"levelo://app?vid=cde09118-4e23-4bb2-b849-33e3f64e39e6"},"vehicle_type_id":"4","last_reported":1753405166,"current_range_meters":14000,"station_id":"ce4bhoh2rcd13ifvqh5g","pricing_plan_id":"cebpf4jnsgd1na2vs0mg"},{"bike_id":"1f39eb17-34c7-4235-9069-0f68f613789c","system_id":"levelo_inurba_marseille","lat":43.26886,"lon":5.36871,"is_reserved":false,"is_disabled":false,"rental_uris":{"android":"levelo://app?vid=1f39eb17-34c7-4235-9069-0f68f613789c","ios":"levelo://app?vid=1f39eb17-34c7-4235-9069-0f68f613789c"},"vehicle_type_id":"4","last_reported":1753405166,"current_range_meters":14400,"station_id":"","pricing_plan_id":"cebpf4jnsgd1na2vs0mg"},{"bike_id":"0aa2d153-96d1-4d69-83b8-d39119aa9dd5","system_id":"levelo_inurba_marseille","lat":43.33523,"lon":5.36229,"is_reserved":false,"is_disabled":false,"rental_uris":{"android":"levelo://app?vid=0aa2d153-96d1-4d69-83b8-d39119aa9dd5","ios":"levelo://app?vid=0aa2d153-96d1-4d69-83b8-d39119aa9dd5"},"vehicle_type_id":"4","last_reported":1753405166,"current_range_meters":14400,"station_id":"","pricing_plan_id":"cebpf4jnsgd1na2vs0mg"},{"bike_id":"1bad41f4-2220-48a2-9d56-f732121985af","system_id":"levelo_inurba_marseille","lat":43.31308,"lon":5.43112,"is_reserved":false,"is_disabled":false,"rental_uris":{"android":"levelo://app?vid=1bad41f4-2220-48a2-9d56-f732121985af","ios":"levelo://app?vid=1bad41f4-2220-48a2-9d56-f732121985af"},"vehicle_type_id":"4","last_reported":1753405166,"current_range_meters":14400,"station_id":"","pricing_plan_id":"cebpf4jnsgd1na2vs0mg"},{"bike_id":"b3c98151-32c9-4162-a221-f12ba796feaf","system_id":"levelo_inurba_marseille","lat":43.28136,"lon":5.37853,"is_reserved":false,"is_disabled":false,"rental_uris":{"android":"levelo://app?vid=b3c98151-32c9-4162-a221-f12ba796feaf","ios":"levelo://app?vid=b3c98151-32c9-4162-a221-f12ba796feaf"},"vehicle_type_id":"4","last_reported":1753405166,"current_range_meters":14400,"station_id":"ce4bha12rcd13ifvqee0","pricing_plan_id":"cebpf4jnsgd1na2vs0mg"},{"bike_id":"7007db7b-2139-45dc-8fb3-06207f8a2b0d","system_id":"levelo_inurba_marseille","lat":43.271734,"lon":5.409981,"is_reserved":false,"is_disabled":false,"rental_uris":{"android":"levelo://app?vid=7007db7b-2139-45dc-8fb3-06207f8a2b0d","ios":"levelo://app?vid=7007db7b-2139-45dc-8fb3-06207f8a2b0d"},"vehicle_type_id":"4","last_reported":1753405166,"current_range_meters":14400,"station_id":"ce4bhl12rcd13ifvqgf0","pricing_plan_id":"cebpf4jnsgd1na2vs0mg"},{"bike_id":"e8ceab27-aa51-45d2-8fcc-ce7e4149a8cd","system_id":"levelo_inurba_marseille","lat":43.31701,"lon":5.40457,"is_reserved":false,"is_disabled":false,"rental_uris":{"android":"levelo://app?vid=e8ceab27-aa51-45d2-8fcc-ce7e4149a8cd","ios":"levelo://app?vid=e8ceab27-aa51-45d2-8fcc-ce7e4149a8cd"},"vehicle_type_id":"4","last_reported":1753405166,"current_range_meters":14800,"station_id":"ce4bh012rcd13ifvqd00","pricing_plan_id":"cebpf4jnsgd1na2vs0mg"},{"bike_id":"2bee8a00-4220-48c4-b5ef-0cc3dd8900d1","system_id":"levelo_inurba_marseille","lat":43.32664,"lon":5.40993,"is_reserved":false,"is_disabled":false,"rental_uris":{"android":"levelo://app?vid=2bee8a00-4220-48c4-b5ef-0cc3dd8900d1","ios":"levelo://app?vid=2bee8a00-4220-48c4-b5ef-0cc3dd8900d1"},"vehicle_type_id":"4","last_reported":1753405166,"current_range_meters":14800,"station_id":"ce4bhpp2rcd13ifvqhgg","pricing_plan_id":"cebpf4jnsgd1na2vs0mg"},{"bike_id":"d8ab8225-ebfc-48f1-9981-f15e3b9960ea","system_id":"levelo_inurba_marseille","lat":43.22928,"lon":5.35371,"is_reserved":false,"is_disabled":false,"rental_uris":{"android":"levelo://app?vid=d8ab8225-ebfc-48f1-9981-f15e3b9960ea","ios":"levelo://app?vid=d8ab8225-ebfc-48f1-9981-f15e3b9960ea"},"vehicle_type_id":"4","last_reported":1753405166,"current_range_meters":14800,"station_id":"cpo3532slgdg3j2ikp40","pricing_plan_id":"cebpf4jnsgd1na2vs0mg"},{"bike_id":"668d3622-317d-4af1-bbd6-1f8c2bb0f9b0","system_id":"levelo_inurba_marseille","lat":43.28938,"lon":5.36631,"is_reserved":false,"is_disabled":false,"rental_uris":{"android":"levelo://app?vid=668d3622-317d-4af1-bbd6-1f8c2bb0f9b0","ios":"levelo://app?vid=668d3622-317d-4af1-bbd6-1f8c2bb0f9b0"},"vehicle_type_id":"4","last_reported":1753405166,"current_range_meters":14800,"station_id":"ce4bhap2rcd13ifvqek0","pricing_plan_id":"cebpf4jnsgd1na2vs0mg"},{"bike_id":"53e61ac0-0184-4f05-bbb5-4880020e7dc9","system_id":"levelo_inurba_marseille","lat":43.28401,"lon":5.37528,"is_reserved":false,"is_disabled":false,"rental_uris":{"android":"levelo://app?vid=53e61ac0-0184-4f05-bbb5-4880020e7dc9","ios":"levelo://app?vid=53e61ac0-0184-4f05-bbb5-4880020e7dc9"},"vehicle_type_id":"4","last_reported":1753405166,"current_range_meters":15200,"station_id":"ce4bh412rcd13ifvqds0","pricing_plan_id":"cebpf4jnsgd1na2vs0mg"},{"bike_id":"3c253366-1281-425e-98d6-1eb86657caca","system_id":"levelo_inurba_marseille","lat":43.29524,"lon":5.38544,"is_reserved":false,"is_disabled":false,"rental_uris":{"android":"levelo://app?vid=3c253366-1281-425e-98d6-1eb86657caca","ios":"levelo://app?vid=3c253366-1281-425e-98d6-1eb86657caca"},"vehicle_type_id":"4","last_reported":1753405166,"current_range_meters":14800,"station_id":"ce4bgih2rcd13ifvqba0","pricing_plan_id":"cebpf4jnsgd1na2vs0mg"},{"bike_id":"481351de-e3d5-4a6f-aa67-c1762e7ed223","system_id":"levelo_inurba_marseille","lat":43.2706,"lon":5.42288,"is_reserved":false,"is_disabled":false,"rental_uris":{"android":"levelo://app?vid=481351de-e3d5-4a6f-aa67-c1762e7ed223","ios":"levelo://app?vid=481351de-e3d5-4a6f-aa67-c1762e7ed223"},"vehicle_type_id":"4","last_reported":1753405166,"current_range_meters":15200,"station_id":"ce4bhk92rcd13ifvqgb0","pricing_plan_id":"cebpf4jnsgd1na2vs0mg"},{"bike_id":"ff60dcca-3068-4d2f-a2dd-3838f8ac83e5","system_id":"levelo_inurba_marseille","lat":43.28662,"lon":5.3636,"is_reserved":false,"is_disabled":false,"rental_uris":{"android":"levelo://app?vid=ff60dcca-3068-4d2f-a2dd-3838f8ac83e5","ios":"levelo://app?vid=ff60dcca-3068-4d2f-a2dd-3838f8ac83e5"},"vehicle_type_id":"4","last_reported":1753405166,"current_range_meters":15200,"station_id":"ce4bhah2rcd13ifvqej0","pricing_plan_id":"cebpf4jnsgd1na2vs0mg"},{"bike_id":"ce193c8e-90e0-4599-95e2-d02b7d163b03","system_id":"levelo_inurba_marseille","lat":43.241,"lon":5.37704,"is_reserved":false,"is_disabled":false,"rental_uris":{"android":"levelo://app?vid=ce193c8e-90e0-4599-95e2-d02b7d163b03","ios":"levelo://app?vid=ce193c8e-90e0-4599-95e2-d02b7d163b03"},"vehicle_type_id":"4","last_reported":1753405166,"current_range_meters":16000,"station_id":"","pricing_plan_id":"cebpf4jnsgd1na2vs0mg"},{"bike_id":"cf16c6c0-86f5-442e-bbba-3b2c4b02695a","system_id":"levelo_inurba_marseille","lat":43.31125,"lon":5.37767,"is_reserved":false,"is_disabled":false,"rental_uris":{"android":"levelo://app?vid=cf16c6c0-86f5-442e-bbba-3b2c4b02695a","ios":"levelo://app?vid=cf16c6c0-86f5-442e-bbba-3b2c4b02695a"},"vehicle_type_id":"4","last_reported":1753405166,"current_range_meters":16000,"station_id":"ce4bgt92rcd13ifvqcg0","pricing_plan_id":"cebpf4jnsgd1na2vs0mg"},{"bike_id":"bf4c6dc9-697a-45fa-9f70-43b71a8ccd27","system_id":"levelo_inurba_marseille","lat":43.31716,"lon":5.43708,"is_reserved":false,"is_disabled":false,"rental_uris":{"android":"levelo://app?vid=bf4c6dc9-697a-45fa-9f70-43b71a8ccd27","ios":"levelo://app?vid=bf4c6dc9-697a-45fa-9f70-43b71a8ccd27"},"vehicle_type_id":"4","last_reported":1753405166,"current_range_meters":16000,"station_id":"ce4bhp92rcd13ifvqhcg","pricing_plan_id":"cebpf4jnsgd1na2vs0mg"},{"bike_id":"3f947606-5aaa-4500-8084-bd1f98e6a611","system_id":"levelo_inurba_marseille","lat":43.31681,"lon":5.40434,"is_reserved":false,"is_disabled":false,"rental_uris":{"android":"levelo://app?vid=3f947606-5aaa-4500-8084-bd1f98e6a611","ios":"levelo://app?vid=3f947606-5aaa-4500-8084-bd1f98e6a611"},"vehicle_type_id":"4","last_reported":1753405166,"current_range_meters":16000,"station_id":"ce4bh012rcd13ifvqd00","pricing_plan_id":"cebpf4jnsgd1na2vs0mg"},{"bike_id":"da93b008-ce26-4a20-82f4-fc970dc56012","system_id":"levelo_inurba_marseille","lat":43.30324,"lon":5.40446,"is_reserved":false,"is_disabled":false,"rental_uris":{"android":"levelo://app?vid=da93b008-ce26-4a20-82f4-fc970dc56012","ios":"levelo://app?vid=da93b008-ce26-4a20-82f4-fc970dc56012"},"vehicle_type_id":"4","last_reported":1753405166,"current_range_meters":16000,"station_id":"ce4bh012rcd13ifvqd10","pricing_plan_id":"cebpf4jnsgd1na2vs0mg"},{"bike_id":"ad7f924d-5443-4b14-80c3-fdbe71f8752e","system_id":"levelo_inurba_marseille","lat":43.26092,"lon":5.37284,"is_reserved":false,"is_disabled":false,"rental_uris":{"android":"levelo://app?vid=ad7f924d-5443-4b14-80c3-fdbe71f8752e","ios":"levelo://app?vid=ad7f924d-5443-4b14-80c3-fdbe71f8752e"},"vehicle_type_id":"4","last_reported":1753405166,"current_range_meters":16000,"station_id":"","pricing_plan_id":"cebpf4jnsgd1na2vs0mg"},{"bike_id":"f2bb9022-194f-48c2-8458-a0c976dec6c6","system_id":"levelo_inurba_marseille","lat":43.302962,"lon":5.39233,"is_reserved":false,"is_disabled":false,"rental_uris":{"android":"levelo://app?vid=f2bb9022-194f-48c2-8458-a0c976dec6c6","ios":"levelo://app?vid=f2bb9022-194f-48c2-8458-a0c976dec6c6"},"vehicle_type_id":"4","last_reported":1753405166,"current_range_meters":16000,"station_id":"ce4bgkh2rcd13ifvqbk0","pricing_plan_id":"cebpf4jnsgd1na2vs0mg"},{"bike_id":"ad6b526d-f6c5-4f55-b69a-aae76d38e284","system_id":"levelo_inurba_marseille","lat":43.27911,"lon":5.39583,"is_reserved":false,"is_disabled":false,"rental_uris":{"android":"levelo://app?vid=ad6b526d-f6c5-4f55-b69a-aae76d38e284","ios":"levelo://app?vid=ad6b526d-f6c5-4f55-b69a-aae76d38e284"},"vehicle_type_id":"4","last_reported":1753405166,"current_range_meters":16000,"station_id":"ce4bhf92rcd13ifvqf40","pricing_plan_id":"cebpf4jnsgd1na2vs0mg"},{"bike_id":"ffab4a34-82e9-461f-8967-2ccafce68b3b","system_id":"levelo_inurba_marseille","lat":43.265572,"lon":5.372933,"is_reserved":false,"is_disabled":false,"rental_uris":{"android":"levelo://app?vid=ffab4a34-82e9-461f-8967-2ccafce68b3b","ios":"levelo://app?vid=ffab4a34-82e9-461f-8967-2ccafce68b3b"},"vehicle_type_id":"4","last_reported":1753405166,"current_range_meters":16000,"station_id":"ce4bhg12rcd13ifvqf70","pricing_plan_id":"cebpf4jnsgd1na2vs0mg"},{"bike_id":"447d74e2-9c8d-43a0-b913-e13e3541f114","system_id":"levelo_inurba_marseille","lat":43.30814,"lon":5.38154,"is_reserved":false,"is_disabled":false,"rental_uris":{"android":"levelo://app?vid=447d74e2-9c8d-43a0-b913-e13e3541f114","ios":"levelo://app?vid=447d74e2-9c8d-43a0-b913-e13e3541f114"},"vehicle_type_id":"4","last_reported":1753405166,"current_range_meters":16000,"station_id":"ce4bgt12rcd13ifvqce0","pricing_plan_id":"cebpf4jnsgd1na2vs0mg"},{"bike_id":"51c449d9-7f57-4808-a857-72a97aadcc7c","system_id":"levelo_inurba_marseille","lat":43.25818,"lon":5.39423,"is_reserved":false,"is_disabled":false,"rental_uris":{"android":"levelo://app?vid=51c449d9-7f57-4808-a857-72a97aadcc7c","ios":"levelo://app?vid=51c449d9-7f57-4808-a857-72a97aadcc7c"},"vehicle_type_id":"4","last_reported":1753405166,"current_range_meters":16400,"station_id":"ce4bhip2rcd13ifvqft0","pricing_plan_id":"cebpf4jnsgd1na2vs0mg"},{"bike_id":"d732a5e3-7a84-4ad4-9791-9078970609c5","system_id":"levelo_inurba_marseille","lat":43.31106,"lon":5.37751,"is_reserved":false,"is_disabled":false,"rental_uris":{"android":"levelo://app?vid=d732a5e3-7a84-4ad4-9791-9078970609c5","ios":"levelo://app?vid=d732a5e3-7a84-4ad4-9791-9078970609c5"},"vehicle_type_id":"4","last_reported":1753405166,"current_range_meters":16400,"station_id":"ce4bgt92rcd13ifvqcg0","pricing_plan_id":"cebpf4jnsgd1na2vs0mg"},{"bike_id":"261d4bb0-7bb9-4c80-93f3-cd6f68b7285e","system_id":"levelo_inurba_marseille","lat":43.31497,"lon":5.36908,"is_reserved":false,"is_disabled":false,"rental_uris":{"android":"levelo://app?vid=261d4bb0-7bb9-4c80-93f3-cd6f68b7285e","ios":"levelo://app?vid=261d4bb0-7bb9-4c80-93f3-cd6f68b7285e"},"vehicle_type_id":"4","last_reported":1753405166,"current_range_meters":16400,"station_id":"","pricing_plan_id":"cebpf4jnsgd1na2vs0mg"},{"bike_id":"1e9cf983-3afc-4620-a4d4-2dd094704fd1","system_id":"levelo_inurba_marseille","lat":43.22501,"lon":5.34774,"is_reserved":false,"is_disabled":false,"rental_uris":{"android":"levelo://app?vid=1e9cf983-3afc-4620-a4d4-2dd094704fd1","ios":"levelo://app?vid=1e9cf983-3afc-4620-a4d4-2dd094704fd1"},"vehicle_type_id":"4","last_reported":1753405166,"current_range_meters":16400,"station_id":"st_cvj5dfep6f1abm77gieg","pricing_plan_id":"cebpf4jnsgd1na2vs0mg"},{"bike_id":"76c2176d-20df-4c0c-846f-d109f0e6f041","system_id":"levelo_inurba_marseille","lat":43.28409,"lon":5.37528,"is_reserved":false,"is_disabled":false,"rental_uris":{"android":"levelo://app?vid=76c2176d-20df-4c0c-846f-d109f0e6f041","ios":"levelo://app?vid=76c2176d-20df-4c0c-846f-d109f0e6f041"},"vehicle_type_id":"4","last_reported":1753405166,"current_range_meters":16400,"station_id":"ce4bh412rcd13ifvqds0","pricing_plan_id":"cebpf4jnsgd1na2vs0mg"},{"bike_id":"81214a4c-aec9-4439-9ab4-8d3754022513","system_id":"levelo_inurba_marseille","lat":43.231964,"lon":5.35571,"is_reserved":false,"is_disabled":true,"rental_uris":{"android":"levelo://app?vid=81214a4c-aec9-4439-9ab4-8d3754022513","ios":"levelo://app?vid=81214a4c-aec9-4439-9ab4-8d3754022513"},"vehicle_type_id":"4","last_reported":1753405166,"current_range_meters":16400,"station_id":"ce4bhu92rcd13ifvqi70","pricing_plan_id":"cebpf4jnsgd1na2vs0mg"},{"bike_id":"3a9dba01-077d-441a-8b08-efef8454aebe","system_id":"levelo_inurba_marseille","lat":43.28876,"lon":5.39348,"is_reserved":false,"is_disabled":false,"rental_uris":{"android":"levelo://app?vid=3a9dba01-077d-441a-8b08-efef8454aebe","ios":"levelo://app?vid=3a9dba01-077d-441a-8b08-efef8454aebe"},"vehicle_type_id":"4","last_reported":1753405166,"current_range_meters":16800,"station_id":"ce4bh2p2rcd13ifvqdi0","pricing_plan_id":"cebpf4jnsgd1na2vs0mg"},{"bike_id":"2b64785a-0d05-4712-863c-7b48d9a895b4","system_id":"levelo_inurba_marseille","lat":43.29181,"lon":5.39349,"is_reserved":false,"is_disabled":false,"rental_uris":{"android":"levelo://app?vid=2b64785a-0d05-4712-863c-7b48d9a895b4","ios":"levelo://app?vid=2b64785a-0d05-4712-863c-7b48d9a895b4"},"vehicle_type_id":"4","last_reported":1753405166,"current_range_meters":16800,"station_id":"","pricing_plan_id":"cebpf4jnsgd1na2vs0mg"},{"bike_id":"21bb3fef-81ef-46bb-a48d-d85402757c94","system_id":"levelo_inurba_marseille","lat":43.25451,"lon":5.37988,"is_reserved":false,"is_disabled":false,"rental_uris":{"android":"levelo://app?vid=21bb3fef-81ef-46bb-a48d-d85402757c94","ios":"levelo://app?vid=21bb3fef-81ef-46bb-a48d-d85402757c94"},"vehicle_type_id":"4","last_reported":1753405166,"current_range_meters":16800,"station_id":"","pricing_plan_id":"cebpf4jnsgd1na2vs0mg"},{"bike_id":"c6b0b8dc-68ca-4833-b11c-d2ebae51b478","system_id":"levelo_inurba_marseille","lat":43.28588,"lon":5.39503,"is_reserved":false,"is_disabled":false,"rental_uris":{"android":"levelo://app?vid=c6b0b8dc-68ca-4833-b11c-d2ebae51b478","ios":"levelo://app?vid=c6b0b8dc-68ca-4833-b11c-d2ebae51b478"},"vehicle_type_id":"4","last_reported":1753405166,"current_range_meters":16800,"station_id":"ce4bh292rcd13ifvqdg0","pricing_plan_id":"cebpf4jnsgd1na2vs0mg"},{"bike_id":"655cc3c9-24b4-495b-a8d1-14629cda4870","system_id":"levelo_inurba_marseille","lat":43.30255,"lon":5.40059,"is_reserved":false,"is_disabled":false,"rental_uris":{"android":"levelo://app?vid=655cc3c9-24b4-495b-a8d1-14629cda4870","ios":"levelo://app?vid=655cc3c9-24b4-495b-a8d1-14629cda4870"},"vehicle_type_id":"4","last_reported":1753405166,"current_range_meters":16800,"station_id":"ce4bgvh2rcd13ifvqcs0","pricing_plan_id":"cebpf4jnsgd1na2vs0mg"},{"bike_id":"9ea56ab2-ac76-40e9-a300-419720468605","system_id":"levelo_inurba_marseille","lat":43.24658,"lon":5.38908,"is_reserved":false,"is_disabled":false,"rental_uris":{"android":"levelo://app?vid=9ea56ab2-ac76-40e9-a300-419720468605","ios":"levelo://app?vid=9ea56ab2-ac76-40e9-a300-419720468605"},"vehicle_type_id":"4","last_reported":1753405166,"current_range_meters":16800,"station_id":"ce4bhg12rcd13ifvqf60","pricing_plan_id":"cebpf4jnsgd1na2vs0mg"},{"bike_id":"dddbef83-b47e-460f-a4ac-beade05833f1","system_id":"levelo_inurba_marseille","lat":43.22964,"lon":5.35379,"is_reserved":false,"is_disabled":false,"rental_uris":{"android":"levelo://app?vid=dddbef83-b47e-460f-a4ac-beade05833f1","ios":"levelo://app?vid=dddbef83-b47e-460f-a4ac-beade05833f1"},"vehicle_type_id":"4","last_reported":1753405166,"current_range_meters":16800,"station_id":"cpo3532slgdg3j2ikp40","pricing_plan_id":"cebpf4jnsgd1na2vs0mg"},{"bike_id":"0b7b393e-ffc0-466b-b83b-03bd84dc0d55","system_id":"levelo_inurba_marseille","lat":43.29535,"lon":5.4226,"is_reserved":false,"is_disabled":false,"rental_uris":{"android":"levelo://app?vid=0b7b393e-ffc0-466b-b83b-03bd84dc0d55","ios":"levelo://app?vid=0b7b393e-ffc0-466b-b83b-03bd84dc0d55"},"vehicle_type_id":"4","last_reported":1753405166,"current_range_meters":16800,"station_id":"ce4bhph2rcd13ifvqhdg","pricing_plan_id":"cebpf4jnsgd1na2vs0mg"},{"bike_id":"06f04326-e47c-43bd-93a9-fd0f762b4c6e","system_id":"levelo_inurba_marseille","lat":43.28703,"lon":5.37375,"is_reserved":false,"is_disabled":false,"rental_uris":{"android":"levelo://app?vid=06f04326-e47c-43bd-93a9-fd0f762b4c6e","ios":"levelo://app?vid=06f04326-e47c-43bd-93a9-fd0f762b4c6e"},"vehicle_type_id":"4","last_reported":1753405166,"current_range_meters":16800,"station_id":"ce4bh3p2rcd13ifvqdq0","pricing_plan_id":"cebpf4jnsgd1na2vs0mg"},{"bike_id":"d2c1d56d-6a3a-4ae3-b7ab-84022ad7ad84","system_id":"levelo_inurba_marseille","lat":43.29741,"lon":5.37632,"is_reserved":false,"is_disabled":false,"rental_uris":{"android":"levelo://app?vid=d2c1d56d-6a3a-4ae3-b7ab-84022ad7ad84","ios":"levelo://app?vid=d2c1d56d-6a3a-4ae3-b7ab-84022ad7ad84"},"vehicle_type_id":"4","last_reported":1753405166,"current_range_meters":16800,"station_id":"","pricing_plan_id":"cebpf4jnsgd1na2vs0mg"},{"bike_id":"9b61a7f2-cfab-4c58-8920-0b6024e14b10","system_id":"levelo_inurba_marseille","lat":43.26639,"lon":5.39049,"is_reserved":false,"is_disabled":false,"rental_uris":{"android":"levelo://app?vid=9b61a7f2-cfab-4c58-8920-0b6024e14b10","ios":"levelo://app?vid=9b61a7f2-cfab-4c58-8920-0b6024e14b10"},"vehicle_type_id":"4","last_reported":1753405166,"current_range_meters":16800,"station_id":"ce4bhe12rcd13ifvqf30","pricing_plan_id":"cebpf4jnsgd1na2vs0mg"},{"bike_id":"f2ca3887-7e82-498b-8c49-e80cd18a3051","system_id":"levelo_inurba_marseille","lat":43.239665,"lon":5.366306,"is_reserved":false,"is_disabled":false,"rental_uris":{"android":"levelo://app?vid=f2ca3887-7e82-498b-8c49-e80cd18a3051","ios":"levelo://app?vid=f2ca3887-7e82-498b-8c49-e80cd18a3051"},"vehicle_type_id":"4","last_reported":1753405166,"current_range_meters":17200,"station_id":"ce4bhi12rcd13ifvqfp0","pricing_plan_id":"cebpf4jnsgd1na2vs0mg"},{"bike_id":"43cd5563-ddd3-4f60-b2c3-37573b482b03","system_id":"levelo_inurba_marseille","lat":43.29184,"lon":5.3932,"is_reserved":false,"is_disabled":false,"rental_uris":{"android":"levelo://app?vid=43cd5563-ddd3-4f60-b2c3-37573b482b03","ios":"levelo://app?vid=43cd5563-ddd3-4f60-b2c3-37573b482b03"},"vehicle_type_id":"4","last_reported":1753405166,"current_range_meters":17200,"station_id":"ce4bh192rcd13ifvqdd0","pricing_plan_id":"cebpf4jnsgd1na2vs0mg"},{"bike_id":"87cac935-7fe9-4031-b13a-86b3c06380e1","system_id":"levelo_inurba_marseille","lat":43.30922,"lon":5.40178,"is_reserved":false,"is_disabled":false,"rental_uris":{"android":"levelo://app?vid=87cac935-7fe9-4031-b13a-86b3c06380e1","ios":"levelo://app?vid=87cac935-7fe9-4031-b13a-86b3c06380e1"},"vehicle_type_id":"4","last_reported":1753405166,"current_range_meters":17200,"station_id":"ce4bgvp2rcd13ifvqct0","pricing_plan_id":"cebpf4jnsgd1na2vs0mg"},{"bike_id":"5de7867a-387c-407e-a78f-8d9a8ba15ef9","system_id":"levelo_inurba_marseille","lat":43.28618,"lon":5.351,"is_reserved":false,"is_disabled":false,"rental_uris":{"android":"levelo://app?vid=5de7867a-387c-407e-a78f-8d9a8ba15ef9","ios":"levelo://app?vid=5de7867a-387c-407e-a78f-8d9a8ba15ef9"},"vehicle_type_id":"4","last_reported":1753405166,"current_range_meters":17200,"station_id":"ce4bhch2rcd13ifvqeug","pricing_plan_id":"cebpf4jnsgd1na2vs0mg"},{"bike_id":"a8943243-4e04-42c3-bd1a-14873656122b","system_id":"levelo_inurba_marseille","lat":43.31108,"lon":5.4243,"is_reserved":false,"is_disabled":false,"rental_uris":{"android":"levelo://app?vid=a8943243-4e04-42c3-bd1a-14873656122b","ios":"levelo://app?vid=a8943243-4e04-42c3-bd1a-14873656122b"},"vehicle_type_id":"4","last_reported":1753405166,"current_range_meters":17200,"station_id":"ce4bhp92rcd13ifvqhag","pricing_plan_id":"cebpf4jnsgd1na2vs0mg"},{"bike_id":"4235c584-f9ca-4ae8-961d-69448a002c8d","system_id":"levelo_inurba_marseille","lat":43.24074,"lon":5.3778,"is_reserved":false,"is_disabled":false,"rental_uris":{"android":"levelo://app?vid=4235c584-f9ca-4ae8-961d-69448a002c8d","ios":"levelo://app?vid=4235c584-f9ca-4ae8-961d-69448a002c8d"},"vehicle_type_id":"4","last_reported":1753405166,"current_range_meters":17200,"station_id":"ce4bhnp2rcd13ifvqgvg","pricing_plan_id":"cebpf4jnsgd1na2vs0mg"},{"bike_id":"9dd88cc0-ad2c-451a-9d9b-271ddd803b84","system_id":"levelo_inurba_marseille","lat":43.31191,"lon":5.38713,"is_reserved":false,"is_disabled":false,"rental_uris":{"android":"levelo://app?vid=9dd88cc0-ad2c-451a-9d9b-271ddd803b84","ios":"levelo://app?vid=9dd88cc0-ad2c-451a-9d9b-271ddd803b84"},"vehicle_type_id":"4","last_reported":1753405166,"current_range_meters":17200,"station_id":"ce4bgv12rcd13ifvqcp0","pricing_plan_id":"cebpf4jnsgd1na2vs0mg"},{"bike_id":"20859a24-fd13-44e9-b9b3-6028ee9c71d4","system_id":"levelo_inurba_marseille","lat":43.283725,"lon":5.386328,"is_reserved":false,"is_disabled":false,"rental_uris":{"android":"levelo://app?vid=20859a24-fd13-44e9-b9b3-6028ee9c71d4","ios":"levelo://app?vid=20859a24-fd13-44e9-b9b3-6028ee9c71d4"},"vehicle_type_id":"4","last_reported":1753405166,"current_range_meters":17200,"station_id":"ce4bh492rcd13ifvqdvg","pricing_plan_id":"cebpf4jnsgd1na2vs0mg"},{"bike_id":"71b44c32-1ec1-479f-8f9e-a464e1647579","system_id":"levelo_inurba_marseille","lat":43.23308,"lon":5.36111,"is_reserved":false,"is_disabled":false,"rental_uris":{"android":"levelo://app?vid=71b44c32-1ec1-479f-8f9e-a464e1647579","ios":"levelo://app?vid=71b44c32-1ec1-479f-8f9e-a464e1647579"},"vehicle_type_id":"4","last_reported":1753405166,"current_range_meters":17200,"station_id":"","pricing_plan_id":"cebpf4jnsgd1na2vs0mg"},{"bike_id":"f970799e-9028-4d92-b0c4-2146290c3493","system_id":"levelo_inurba_marseille","lat":43.29785,"lon":5.39347,"is_reserved":false,"is_disabled":false,"rental_uris":{"android":"levelo://app?vid=f970799e-9028-4d92-b0c4-2146290c3493","ios":"levelo://app?vid=f970799e-9028-4d92-b0c4-2146290c3493"},"vehicle_type_id":"4","last_reported":1753405166,"current_range_meters":17200,"station_id":"chh1huq6cuj3fo74tm60","pricing_plan_id":"cebpf4jnsgd1na2vs0mg"},{"bike_id":"c0c9581e-3f6b-4c4b-8f58-4908446a05ea","system_id":"levelo_inurba_marseille","lat":43.31118,"lon":5.37748,"is_reserved":false,"is_disabled":false,"rental_uris":{"android":"levelo://app?vid=c0c9581e-3f6b-4c4b-8f58-4908446a05ea","ios":"levelo://app?vid=c0c9581e-3f6b-4c4b-8f58-4908446a05ea"},"vehicle_type_id":"4","last_reported":1753405166,"current_range_meters":17600,"station_id":"ce4bgt92rcd13ifvqcg0","pricing_plan_id":"cebpf4jnsgd1na2vs0mg"},{"bike_id":"fd13a871-6a7c-45ab-8193-0aedb29a36fc","system_id":"levelo_inurba_marseille","lat":43.26577,"lon":5.37276,"is_reserved":false,"is_disabled":false,"rental_uris":{"android":"levelo://app?vid=fd13a871-6a7c-45ab-8193-0aedb29a36fc","ios":"levelo://app?vid=fd13a871-6a7c-45ab-8193-0aedb29a36fc"},"vehicle_type_id":"4","last_reported":1753405166,"current_range_meters":17600,"station_id":"ce4bhg12rcd13ifvqf70","pricing_plan_id":"cebpf4jnsgd1na2vs0mg"},{"bike_id":"03517c70-be07-4330-878a-c12562b71a86","system_id":"levelo_inurba_marseille","lat":43.30584,"lon":5.39348,"is_reserved":false,"is_disabled":false,"rental_uris":{"android":"levelo://app?vid=03517c70-be07-4330-878a-c12562b71a86","ios":"levelo://app?vid=03517c70-be07-4330-878a-c12562b71a86"},"vehicle_type_id":"4","last_reported":1753405166,"current_range_meters":17600,"station_id":"ce4bh0p2rcd13ifvqd80","pricing_plan_id":"cebpf4jnsgd1na2vs0mg"},{"bike_id":"f2c1cc68-66ae-448d-8763-030629ea502f","system_id":"levelo_inurba_marseille","lat":43.26652,"lon":5.40273,"is_reserved":false,"is_disabled":true,"rental_uris":{"android":"levelo://app?vid=f2c1cc68-66ae-448d-8763-030629ea502f","ios":"levelo://app?vid=f2c1cc68-66ae-448d-8763-030629ea502f"},"vehicle_type_id":"4","last_reported":1753405166,"current_range_meters":17600,"station_id":"","pricing_plan_id":"cebpf4jnsgd1na2vs0mg"},{"bike_id":"4aa97969-2f6e-4edb-a09f-12d31a04a044","system_id":"levelo_inurba_marseille","lat":43.307844,"lon":5.376663,"is_reserved":false,"is_disabled":false,"rental_uris":{"android":"levelo://app?vid=4aa97969-2f6e-4edb-a09f-12d31a04a044","ios":"levelo://app?vid=4aa97969-2f6e-4edb-a09f-12d31a04a044"},"vehicle_type_id":"4","last_reported":1753405166,"current_range_meters":17600,"station_id":"ce4bgv92rcd13ifvqcq0","pricing_plan_id":"cebpf4jnsgd1na2vs0mg"},{"bike_id":"5cfe74ee-67cc-4223-97ee-3d16374f01fc","system_id":"levelo_inurba_marseille","lat":43.27367,"lon":5.36239,"is_reserved":false,"is_disabled":true,"rental_uris":{"android":"levelo://app?vid=5cfe74ee-67cc-4223-97ee-3d16374f01fc","ios":"levelo://app?vid=5cfe74ee-67cc-4223-97ee-3d16374f01fc"},"vehicle_type_id":"4","last_reported":1753405166,"current_range_meters":17600,"station_id":"ce4bhbh2rcd13ifvqeo0","pricing_plan_id":"cebpf4jnsgd1na2vs0mg"},{"bike_id":"75ce79c1-e23f-47ca-b12f-ecbb1fdfab43","system_id":"levelo_inurba_marseille","lat":43.28697,"lon":5.39987,"is_reserved":false,"is_disabled":false,"rental_uris":{"android":"levelo://app?vid=75ce79c1-e23f-47ca-b12f-ecbb1fdfab43","ios":"levelo://app?vid=75ce79c1-e23f-47ca-b12f-ecbb1fdfab43"},"vehicle_type_id":"4","last_reported":1753405166,"current_range_meters":17600,"station_id":"ce4bho92rcd13ifvqh3g","pricing_plan_id":"cebpf4jnsgd1na2vs0mg"},{"bike_id":"8e0fc6ca-95fd-484d-81be-068c9b37e71d","system_id":"levelo_inurba_marseille","lat":43.292685,"lon":5.407861,"is_reserved":false,"is_disabled":false,"rental_uris":{"android":"levelo://app?vid=8e0fc6ca-95fd-484d-81be-068c9b37e71d","ios":"levelo://app?vid=8e0fc6ca-95fd-484d-81be-068c9b37e71d"},"vehicle_type_id":"4","last_reported":1753405166,"current_range_meters":18000,"station_id":"ce4bh192rcd13ifvqdc0","pricing_plan_id":"cebpf4jnsgd1na2vs0mg"},{"bike_id":"7a2e9e7e-4e9d-4e71-a22e-ef2896aef70a","system_id":"levelo_inurba_marseille","lat":43.289282,"lon":5.383986,"is_reserved":false,"is_disabled":false,"rental_uris":{"android":"levelo://app?vid=7a2e9e7e-4e9d-4e71-a22e-ef2896aef70a","ios":"levelo://app?vid=7a2e9e7e-4e9d-4e71-a22e-ef2896aef70a"},"vehicle_type_id":"4","last_reported":1753405166,"current_range_meters":17600,"station_id":"ce4bh612rcd13ifvqe6g","pricing_plan_id":"cebpf4jnsgd1na2vs0mg"},{"bike_id":"6017f8ed-cd95-4d92-8507-66c8be2e8ee3","system_id":"levelo_inurba_marseille","lat":43.27937,"lon":5.41032,"is_reserved":false,"is_disabled":false,"rental_uris":{"android":"levelo://app?vid=6017f8ed-cd95-4d92-8507-66c8be2e8ee3","ios":"levelo://app?vid=6017f8ed-cd95-4d92-8507-66c8be2e8ee3"},"vehicle_type_id":"4","last_reported":1753405166,"current_range_meters":17600,"station_id":"ce4bhnp2rcd13ifvqh0g","pricing_plan_id":"cebpf4jnsgd1na2vs0mg"},{"bike_id":"510956f4-4053-4240-99f3-35d5b3186629","system_id":"levelo_inurba_marseille","lat":43.2951,"lon":5.39406,"is_reserved":false,"is_disabled":false,"rental_uris":{"android":"levelo://app?vid=510956f4-4053-4240-99f3-35d5b3186629","ios":"levelo://app?vid=510956f4-4053-4240-99f3-35d5b3186629"},"vehicle_type_id":"4","last_reported":1753405166,"current_range_meters":18000,"station_id":"ce4bh292rcd13ifvqdf0","pricing_plan_id":"cebpf4jnsgd1na2vs0mg"},{"bike_id":"bdf8bcb9-51f6-4a65-8181-f600f5b30780","system_id":"levelo_inurba_marseille","lat":43.27464,"lon":5.39566,"is_reserved":false,"is_disabled":false,"rental_uris":{"android":"levelo://app?vid=bdf8bcb9-51f6-4a65-8181-f600f5b30780","ios":"levelo://app?vid=bdf8bcb9-51f6-4a65-8181-f600f5b30780"},"vehicle_type_id":"4","last_reported":1753405166,"current_range_meters":18000,"station_id":"","pricing_plan_id":"cebpf4jnsgd1na2vs0mg"},{"bike_id":"8ba9968b-94e2-4ff4-915d-5054e965f84a","system_id":"levelo_inurba_marseille","lat":43.27991,"lon":5.41667,"is_reserved":false,"is_disabled":false,"rental_uris":{"android":"levelo://app?vid=8ba9968b-94e2-4ff4-915d-5054e965f84a","ios":"levelo://app?vid=8ba9968b-94e2-4ff4-915d-5054e965f84a"},"vehicle_type_id":"4","last_reported":1753405166,"current_range_meters":18000,"station_id":"ce4bho12rcd13ifvqh1g","pricing_plan_id":"cebpf4jnsgd1na2vs0mg"},{"bike_id":"cf5577ea-8085-442d-b092-8cf7a9d9102b","system_id":"levelo_inurba_marseille","lat":43.32375,"lon":5.36719,"is_reserved":false,"is_disabled":false,"rental_uris":{"android":"levelo://app?vid=cf5577ea-8085-442d-b092-8cf7a9d9102b","ios":"levelo://app?vid=cf5577ea-8085-442d-b092-8cf7a9d9102b"},"vehicle_type_id":"4","last_reported":1753405166,"current_range_meters":18000,"station_id":"","pricing_plan_id":"cebpf4jnsgd1na2vs0mg"},{"bike_id":"ec7c929a-26fb-4d06-aed1-ced5cc3b3a86","system_id":"levelo_inurba_marseille","lat":43.30062,"lon":5.38708,"is_reserved":false,"is_disabled":false,"rental_uris":{"android":"levelo://app?vid=ec7c929a-26fb-4d06-aed1-ced5cc3b3a86","ios":"levelo://app?vid=ec7c929a-26fb-4d06-aed1-ced5cc3b3a86"},"vehicle_type_id":"4","last_reported":1753405166,"current_range_meters":18000,"station_id":"","pricing_plan_id":"cebpf4jnsgd1na2vs0mg"},{"bike_id":"c59386ad-d49e-4400-92f2-a2c0fcc21264","system_id":"levelo_inurba_marseille","lat":43.29172,"lon":5.375319,"is_reserved":false,"is_disabled":true,"rental_uris":{"android":"levelo://app?vid=c59386ad-d49e-4400-92f2-a2c0fcc21264","ios":"levelo://app?vid=c59386ad-d49e-4400-92f2-a2c0fcc21264"},"vehicle_type_id":"4","last_reported":1753405166,"current_range_meters":18000,"station_id":"","pricing_plan_id":"cebpf4jnsgd1na2vs0mg"},{"bike_id":"ea40d06b-5543-4293-839d-31b4d117e7d9","system_id":"levelo_inurba_marseille","lat":43.309,"lon":5.37188,"is_reserved":false,"is_disabled":false,"rental_uris":{"android":"levelo://app?vid=ea40d06b-5543-4293-839d-31b4d117e7d9","ios":"levelo://app?vid=ea40d06b-5543-4293-839d-31b4d117e7d9"},"vehicle_type_id":"4","last_reported":1753405166,"current_range_meters":18000,"station_id":"ce4bguh2rcd13ifvqckg","pricing_plan_id":"cebpf4jnsgd1na2vs0mg"},{"bike_id":"cc9d64e8-fcbe-4a3d-9d87-6e0999603b75","system_id":"levelo_inurba_marseille","lat":43.30944,"lon":5.40138,"is_reserved":false,"is_disabled":false,"rental_uris":{"android":"levelo://app?vid=cc9d64e8-fcbe-4a3d-9d87-6e0999603b75","ios":"levelo://app?vid=cc9d64e8-fcbe-4a3d-9d87-6e0999603b75"},"vehicle_type_id":"4","last_reported":1753405166,"current_range_meters":18000,"station_id":"ce4bgvp2rcd13ifvqct0","pricing_plan_id":"cebpf4jnsgd1na2vs0mg"},{"bike_id":"97601d55-2795-414a-8157-dc0e66cbeef1","system_id":"levelo_inurba_marseille","lat":43.301238,"lon":5.387855,"is_reserved":false,"is_disabled":false,"rental_uris":{"android":"levelo://app?vid=97601d55-2795-414a-8157-dc0e66cbeef1","ios":"levelo://app?vid=97601d55-2795-414a-8157-dc0e66cbeef1"},"vehicle_type_id":"4","last_reported":1753405166,"current_range_meters":18000,"station_id":"","pricing_plan_id":"cebpf4jnsgd1na2vs0mg"},{"bike_id":"635d529b-81db-4d95-967c-681543329cb0","system_id":"levelo_inurba_marseille","lat":43.29833,"lon":5.43657,"is_reserved":false,"is_disabled":false,"rental_uris":{"android":"levelo://app?vid=635d529b-81db-4d95-967c-681543329cb0","ios":"levelo://app?vid=635d529b-81db-4d95-967c-681543329cb0"},"vehicle_type_id":"4","last_reported":1753405166,"current_range_meters":18000,"station_id":"","pricing_plan_id":"cebpf4jnsgd1na2vs0mg"},{"bike_id":"fee0cfe9-b59a-449c-bc7c-ef27dde6dbf7","system_id":"levelo_inurba_marseille","lat":43.28663,"lon":5.36341,"is_reserved":false,"is_disabled":false,"rental_uris":{"android":"levelo://app?vid=fee0cfe9-b59a-449c-bc7c-ef27dde6dbf7","ios":"levelo://app?vid=fee0cfe9-b59a-449c-bc7c-ef27dde6dbf7"},"vehicle_type_id":"4","last_reported":1753405166,"current_range_meters":18000,"station_id":"ce4bhah2rcd13ifvqej0","pricing_plan_id":"cebpf4jnsgd1na2vs0mg"},{"bike_id":"46a705ee-9bbe-4cc0-8c8c-ad064e9051a7","system_id":"levelo_inurba_marseille","lat":43.302651,"lon":5.400735,"is_reserved":false,"is_disabled":false,"rental_uris":{"android":"levelo://app?vid=46a705ee-9bbe-4cc0-8c8c-ad064e9051a7","ios":"levelo://app?vid=46a705ee-9bbe-4cc0-8c8c-ad064e9051a7"},"vehicle_type_id":"4","last_reported":1753405166,"current_range_meters":18000,"station_id":"ce4bgvh2rcd13ifvqcs0","pricing_plan_id":"cebpf4jnsgd1na2vs0mg"},{"bike_id":"d3eea4a0-76ba-4059-ba6b-c1ecd6270925","system_id":"levelo_inurba_marseille","lat":43.211936,"lon":5.350766,"is_reserved":false,"is_disabled":false,"rental_uris":{"android":"levelo://app?vid=d3eea4a0-76ba-4059-ba6b-c1ecd6270925","ios":"levelo://app?vid=d3eea4a0-76ba-4059-ba6b-c1ecd6270925"},"vehicle_type_id":"4","last_reported":1753405166,"current_range_meters":18800,"station_id":"st_cvj6sg6p6f1abm77japg","pricing_plan_id":"cebpf4jnsgd1na2vs0mg"},{"bike_id":"25d1e659-75f0-413f-9dd4-93bad69c331b","system_id":"levelo_inurba_marseille","lat":43.29358,"lon":5.38219,"is_reserved":false,"is_disabled":false,"rental_uris":{"android":"levelo://app?vid=25d1e659-75f0-413f-9dd4-93bad69c331b","ios":"levelo://app?vid=25d1e659-75f0-413f-9dd4-93bad69c331b"},"vehicle_type_id":"4","last_reported":1753405166,"current_range_meters":18800,"station_id":"","pricing_plan_id":"cebpf4jnsgd1na2vs0mg"},{"bike_id":"266198a5-1fdd-4903-a22e-685ee660fe16","system_id":"levelo_inurba_marseille","lat":43.22477,"lon":5.34801,"is_reserved":false,"is_disabled":false,"rental_uris":{"android":"levelo://app?vid=266198a5-1fdd-4903-a22e-685ee660fe16","ios":"levelo://app?vid=266198a5-1fdd-4903-a22e-685ee660fe16"},"vehicle_type_id":"4","last_reported":1753405166,"current_range_meters":18800,"station_id":"st_cvj5dfep6f1abm77gieg","pricing_plan_id":"cebpf4jnsgd1na2vs0mg"},{"bike_id":"04d1bd0e-5da4-459b-b302-34aadd691c4e","system_id":"levelo_inurba_marseille","lat":43.29458,"lon":5.39752,"is_reserved":false,"is_disabled":false,"rental_uris":{"android":"levelo://app?vid=04d1bd0e-5da4-459b-b302-34aadd691c4e","ios":"levelo://app?vid=04d1bd0e-5da4-459b-b302-34aadd691c4e"},"vehicle_type_id":"4","last_reported":1753405166,"current_range_meters":18800,"station_id":"ce4bh3h2rcd13ifvqdo0","pricing_plan_id":"cebpf4jnsgd1na2vs0mg"},{"bike_id":"aa3a6420-eb4d-4632-8b68-f541c086db55","system_id":"levelo_inurba_marseille","lat":43.225289,"lon":5.347647,"is_reserved":false,"is_disabled":false,"rental_uris":{"android":"levelo://app?vid=aa3a6420-eb4d-4632-8b68-f541c086db55","ios":"levelo://app?vid=aa3a6420-eb4d-4632-8b68-f541c086db55"},"vehicle_type_id":"4","last_reported":1753405166,"current_range_meters":18800,"station_id":"","pricing_plan_id":"cebpf4jnsgd1na2vs0mg"},{"bike_id":"8d52dd68-d9f6-410d-91a8-aaae93ee1c85","system_id":"levelo_inurba_marseille","lat":43.29534,"lon":5.39391,"is_reserved":false,"is_disabled":true,"rental_uris":{"android":"levelo://app?vid=8d52dd68-d9f6-410d-91a8-aaae93ee1c85","ios":"levelo://app?vid=8d52dd68-d9f6-410d-91a8-aaae93ee1c85"},"vehicle_type_id":"4","last_reported":1753405166,"current_range_meters":18800,"station_id":"ce4bh292rcd13ifvqdf0","pricing_plan_id":"cebpf4jnsgd1na2vs0mg"},{"bike_id":"cfa036ba-6387-41c8-9316-d11c79876b74","system_id":"levelo_inurba_marseille","lat":43.29219,"lon":5.37099,"is_reserved":false,"is_disabled":false,"rental_uris":{"android":"levelo://app?vid=cfa036ba-6387-41c8-9316-d11c79876b74","ios":"levelo://app?vid=cfa036ba-6387-41c8-9316-d11c79876b74"},"vehicle_type_id":"4","last_reported":1753405166,"current_range_meters":18800,"station_id":"","pricing_plan_id":"cebpf4jnsgd1na2vs0mg"},{"bike_id":"50b905ef-953a-4765-9f9b-7165906869d7","system_id":"levelo_inurba_marseille","lat":43.23055,"lon":5.35494,"is_reserved":false,"is_disabled":false,"rental_uris":{"android":"levelo://app?vid=50b905ef-953a-4765-9f9b-7165906869d7","ios":"levelo://app?vid=50b905ef-953a-4765-9f9b-7165906869d7"},"vehicle_type_id":"4","last_reported":1753405166,"current_range_meters":18800,"station_id":"cpo3342slgdg3j2ifvpg","pricing_plan_id":"cebpf4jnsgd1na2vs0mg"},{"bike_id":"8ac6ac23-2e29-4c74-a612-7e7b672b1362","system_id":"levelo_inurba_marseille","lat":43.28946,"lon":5.39614,"is_reserved":false,"is_disabled":false,"rental_uris":{"android":"levelo://app?vid=8ac6ac23-2e29-4c74-a612-7e7b672b1362","ios":"levelo://app?vid=8ac6ac23-2e29-4c74-a612-7e7b672b1362"},"vehicle_type_id":"4","last_reported":1753405166,"current_range_meters":18800,"station_id":"ce4bh3h2rcd13ifvqdn0","pricing_plan_id":"cebpf4jnsgd1na2vs0mg"},{"bike_id":"f9923509-d1f5-4a78-8677-ee3e9a0ad4e2","system_id":"levelo_inurba_marseille","lat":43.279901,"lon":5.4001,"is_reserved":false,"is_disabled":true,"rental_uris":{"android":"levelo://app?vid=f9923509-d1f5-4a78-8677-ee3e9a0ad4e2","ios":"levelo://app?vid=f9923509-d1f5-4a78-8677-ee3e9a0ad4e2"},"vehicle_type_id":"4","last_reported":1753405166,"current_range_meters":18800,"station_id":"ce4bho92rcd13ifvqh4g","pricing_plan_id":"cebpf4jnsgd1na2vs0mg"},{"bike_id":"5247fd70-7beb-420b-9723-e2d653f96661","system_id":"levelo_inurba_marseille","lat":43.28697,"lon":5.38664,"is_reserved":false,"is_disabled":false,"rental_uris":{"android":"levelo://app?vid=5247fd70-7beb-420b-9723-e2d653f96661","ios":"levelo://app?vid=5247fd70-7beb-420b-9723-e2d653f96661"},"vehicle_type_id":"4","last_reported":1753405166,"current_range_meters":18800,"station_id":"ce4bh492rcd13ifvqdug","pricing_plan_id":"cebpf4jnsgd1na2vs0mg"},{"bike_id":"7a728a3e-ae5a-416b-ab98-c609bdc15d67","system_id":"levelo_inurba_marseille","lat":43.262054,"lon":5.374491,"is_reserved":false,"is_disabled":false,"rental_uris":{"android":"levelo://app?vid=7a728a3e-ae5a-416b-ab98-c609bdc15d67","ios":"levelo://app?vid=7a728a3e-ae5a-416b-ab98-c609bdc15d67"},"vehicle_type_id":"4","last_reported":1753405166,"current_range_meters":18800,"station_id":"","pricing_plan_id":"cebpf4jnsgd1na2vs0mg"},{"bike_id":"8d92968d-91e7-4161-88c8-7b0504e2b8e2","system_id":"levelo_inurba_marseille","lat":43.311679,"lon":5.387181,"is_reserved":false,"is_disabled":false,"rental_uris":{"android":"levelo://app?vid=8d92968d-91e7-4161-88c8-7b0504e2b8e2","ios":"levelo://app?vid=8d92968d-91e7-4161-88c8-7b0504e2b8e2"},"vehicle_type_id":"4","last_reported":1753405166,"current_range_meters":19200,"station_id":"ce4bgv12rcd13ifvqcp0","pricing_plan_id":"cebpf4jnsgd1na2vs0mg"},{"bike_id":"d861442c-09c2-4130-9f6c-d36472e7baf5","system_id":"levelo_inurba_marseille","lat":43.211886,"lon":5.350766,"is_reserved":false,"is_disabled":true,"rental_uris":{"android":"levelo://app?vid=d861442c-09c2-4130-9f6c-d36472e7baf5","ios":"levelo://app?vid=d861442c-09c2-4130-9f6c-d36472e7baf5"},"vehicle_type_id":"4","last_reported":1753405166,"current_range_meters":19200,"station_id":"","pricing_plan_id":"cebpf4jnsgd1na2vs0mg"},{"bike_id":"83c80cb3-658b-40cc-83d3-d8398877868e","system_id":"levelo_inurba_marseille","lat":43.28839,"lon":5.39369,"is_reserved":false,"is_disabled":false,"rental_uris":{"android":"levelo://app?vid=83c80cb3-658b-40cc-83d3-d8398877868e","ios":"levelo://app?vid=83c80cb3-658b-40cc-83d3-d8398877868e"},"vehicle_type_id":"4","last_reported":1753405166,"current_range_meters":19200,"station_id":"ce4bh2p2rcd13ifvqdi0","pricing_plan_id":"cebpf4jnsgd1na2vs0mg"},{"bike_id":"3bd05bbf-7c84-4862-9872-a45fb672ab94","system_id":"levelo_inurba_marseille","lat":43.28431,"lon":5.35906,"is_reserved":false,"is_disabled":false,"rental_uris":{"android":"levelo://app?vid=3bd05bbf-7c84-4862-9872-a45fb672ab94","ios":"levelo://app?vid=3bd05bbf-7c84-4862-9872-a45fb672ab94"},"vehicle_type_id":"4","last_reported":1753405166,"current_range_meters":19200,"station_id":"ce4bhah2rcd13ifvqei0","pricing_plan_id":"cebpf4jnsgd1na2vs0mg"},{"bike_id":"a1ec26cb-9d4a-4dd4-ad23-fecbc49f2a3d","system_id":"levelo_inurba_marseille","lat":43.25467,"lon":5.37687,"is_reserved":false,"is_disabled":false,"rental_uris":{"android":"levelo://app?vid=a1ec26cb-9d4a-4dd4-ad23-fecbc49f2a3d","ios":"levelo://app?vid=a1ec26cb-9d4a-4dd4-ad23-fecbc49f2a3d"},"vehicle_type_id":"4","last_reported":1753405166,"current_range_meters":19200,"station_id":"","pricing_plan_id":"cebpf4jnsgd1na2vs0mg"},{"bike_id":"db4065a9-8ae8-4da2-9ed6-25a24760a414","system_id":"levelo_inurba_marseille","lat":43.230532,"lon":5.354917,"is_reserved":false,"is_disabled":true,"rental_uris":{"android":"levelo://app?vid=db4065a9-8ae8-4da2-9ed6-25a24760a414","ios":"levelo://app?vid=db4065a9-8ae8-4da2-9ed6-25a24760a414"},"vehicle_type_id":"4","last_reported":1753405166,"current_range_meters":19200,"station_id":"cpo3342slgdg3j2ifvpg","pricing_plan_id":"cebpf4jnsgd1na2vs0mg"},{"bike_id":"c8e02a19-b856-420d-bf9d-a6e6b78bd182","system_id":"levelo_inurba_marseille","lat":43.265568,"lon":5.372994,"is_reserved":false,"is_disabled":false,"rental_uris":{"android":"levelo://app?vid=c8e02a19-b856-420d-bf9d-a6e6b78bd182","ios":"levelo://app?vid=c8e02a19-b856-420d-bf9d-a6e6b78bd182"},"vehicle_type_id":"4","last_reported":1753405166,"current_range_meters":19200,"station_id":"ce4bhg12rcd13ifvqf70","pricing_plan_id":"cebpf4jnsgd1na2vs0mg"},{"bike_id":"ec6a2d2a-f9b7-4796-b105-370ad5cb4241","system_id":"levelo_inurba_marseille","lat":43.24802,"lon":5.37457,"is_reserved":false,"is_disabled":false,"rental_uris":{"android":"levelo://app?vid=ec6a2d2a-f9b7-4796-b105-370ad5cb4241","ios":"levelo://app?vid=ec6a2d2a-f9b7-4796-b105-370ad5cb4241"},"vehicle_type_id":"4","last_reported":1753405166,"current_range_meters":19200,"station_id":"ce4bhgh2rcd13ifvqfb0","pricing_plan_id":"cebpf4jnsgd1na2vs0mg"},{"bike_id":"9bb03dc8-1285-4dc3-82e4-cbcb16687686","system_id":"levelo_inurba_marseille","lat":43.22933,"lon":5.3538,"is_reserved":false,"is_disabled":false,"rental_uris":{"android":"levelo://app?vid=9bb03dc8-1285-4dc3-82e4-cbcb16687686","ios":"levelo://app?vid=9bb03dc8-1285-4dc3-82e4-cbcb16687686"},"vehicle_type_id":"4","last_reported":1753405166,"current_range_meters":19200,"station_id":"cpo3532slgdg3j2ikp40","pricing_plan_id":"cebpf4jnsgd1na2vs0mg"},{"bike_id":"d89a78d9-9567-45b4-b7dc-774d4fdee32b","system_id":"levelo_inurba_marseille","lat":43.29605,"lon":5.38104,"is_reserved":false,"is_disabled":true,"rental_uris":{"android":"levelo://app?vid=d89a78d9-9567-45b4-b7dc-774d4fdee32b","ios":"levelo://app?vid=d89a78d9-9567-45b4-b7dc-774d4fdee32b"},"vehicle_type_id":"4","last_reported":1753405166,"current_range_meters":19200,"station_id":"ce4bgl12rcd13ifvqbo0","pricing_plan_id":"cebpf4jnsgd1na2vs0mg"},{"bike_id":"0a7e2862-d8ec-4c77-89d9-cfcdd51f8d75","system_id":"levelo_inurba_marseille","lat":43.31872,"lon":5.37373,"is_reserved":false,"is_disabled":false,"rental_uris":{"android":"levelo://app?vid=0a7e2862-d8ec-4c77-89d9-cfcdd51f8d75","ios":"levelo://app?vid=0a7e2862-d8ec-4c77-89d9-cfcdd51f8d75"},"vehicle_type_id":"4","last_reported":1753405166,"current_range_meters":19200,"station_id":"","pricing_plan_id":"cebpf4jnsgd1na2vs0mg"},{"bike_id":"fe2ebdbb-1c2e-4f77-b307-5fbb71bee13a","system_id":"levelo_inurba_marseille","lat":43.29253,"lon":5.38425,"is_reserved":false,"is_disabled":true,"rental_uris":{"android":"levelo://app?vid=fe2ebdbb-1c2e-4f77-b307-5fbb71bee13a","ios":"levelo://app?vid=fe2ebdbb-1c2e-4f77-b307-5fbb71bee13a"},"vehicle_type_id":"4","last_reported":1753405166,"current_range_meters":19200,"station_id":"ce4bh692rcd13ifvqea0","pricing_plan_id":"cebpf4jnsgd1na2vs0mg"},{"bike_id":"6f9c5fc7-0a95-4593-b71f-0b9d9a8caaf5","system_id":"levelo_inurba_marseille","lat":43.22503,"lon":5.34784,"is_reserved":false,"is_disabled":false,"rental_uris":{"android":"levelo://app?vid=6f9c5fc7-0a95-4593-b71f-0b9d9a8caaf5","ios":"levelo://app?vid=6f9c5fc7-0a95-4593-b71f-0b9d9a8caaf5"},"vehicle_type_id":"4","last_reported":1753405166,"current_range_meters":19600,"station_id":"st_cvj5dfep6f1abm77gieg","pricing_plan_id":"cebpf4jnsgd1na2vs0mg"},{"bike_id":"425fe799-b8aa-4bc2-84d0-38078e4882ef","system_id":"levelo_inurba_marseille","lat":43.22504,"lon":5.34795,"is_reserved":false,"is_disabled":false,"rental_uris":{"android":"levelo://app?vid=425fe799-b8aa-4bc2-84d0-38078e4882ef","ios":"levelo://app?vid=425fe799-b8aa-4bc2-84d0-38078e4882ef"},"vehicle_type_id":"4","last_reported":1753405166,"current_range_meters":19600,"station_id":"st_cvj5dfep6f1abm77gieg","pricing_plan_id":"cebpf4jnsgd1na2vs0mg"},{"bike_id":"37196ec7-b4da-4ce9-afac-167cb2e1fca7","system_id":"levelo_inurba_marseille","lat":43.25084,"lon":5.39509,"is_reserved":false,"is_disabled":false,"rental_uris":{"android":"levelo://app?vid=37196ec7-b4da-4ce9-afac-167cb2e1fca7","ios":"levelo://app?vid=37196ec7-b4da-4ce9-afac-167cb2e1fca7"},"vehicle_type_id":"4","last_reported":1753405166,"current_range_meters":19600,"station_id":"ce4bhm12rcd13ifvqgkg","pricing_plan_id":"cebpf4jnsgd1na2vs0mg"},{"bike_id":"c4ba540f-c839-42f1-978d-251697d4322a","system_id":"levelo_inurba_marseille","lat":43.30918,"lon":5.40149,"is_reserved":false,"is_disabled":false,"rental_uris":{"android":"levelo://app?vid=c4ba540f-c839-42f1-978d-251697d4322a","ios":"levelo://app?vid=c4ba540f-c839-42f1-978d-251697d4322a"},"vehicle_type_id":"4","last_reported":1753405166,"current_range_meters":19600,"station_id":"ce4bgvp2rcd13ifvqct0","pricing_plan_id":"cebpf4jnsgd1na2vs0mg"},{"bike_id":"354de624-85f3-448e-8f8c-0bb62a0f5266","system_id":"levelo_inurba_marseille","lat":43.301622,"lon":5.37431,"is_reserved":false,"is_disabled":false,"rental_uris":{"android":"levelo://app?vid=354de624-85f3-448e-8f8c-0bb62a0f5266","ios":"levelo://app?vid=354de624-85f3-448e-8f8c-0bb62a0f5266"},"vehicle_type_id":"4","last_reported":1753405166,"current_range_meters":19600,"station_id":"ce4bgs92rcd13ifvqcc0","pricing_plan_id":"cebpf4jnsgd1na2vs0mg"},{"bike_id":"cf75fdd5-eea5-45ba-a75c-2d3f5e3ecf00","system_id":"levelo_inurba_marseille","lat":43.229344,"lon":5.353958,"is_reserved":false,"is_disabled":false,"rental_uris":{"android":"levelo://app?vid=cf75fdd5-eea5-45ba-a75c-2d3f5e3ecf00","ios":"levelo://app?vid=cf75fdd5-eea5-45ba-a75c-2d3f5e3ecf00"},"vehicle_type_id":"4","last_reported":1753405166,"current_range_meters":19600,"station_id":"cpo3532slgdg3j2ikp40","pricing_plan_id":"cebpf4jnsgd1na2vs0mg"},{"bike_id":"f654cd89-4e9f-47c0-a7e1-1fa38a6b8372","system_id":"levelo_inurba_marseille","lat":43.28408,"lon":5.3752,"is_reserved":false,"is_disabled":false,"rental_uris":{"android":"levelo://app?vid=f654cd89-4e9f-47c0-a7e1-1fa38a6b8372","ios":"levelo://app?vid=f654cd89-4e9f-47c0-a7e1-1fa38a6b8372"},"vehicle_type_id":"4","last_reported":1753405166,"current_range_meters":19600,"station_id":"ce4bh412rcd13ifvqds0","pricing_plan_id":"cebpf4jnsgd1na2vs0mg"},{"bike_id":"1dead8dc-fdb6-4c34-b5a6-09bf895e76a6","system_id":"levelo_inurba_marseille","lat":43.22948,"lon":5.35391,"is_reserved":false,"is_disabled":false,"rental_uris":{"android":"levelo://app?vid=1dead8dc-fdb6-4c34-b5a6-09bf895e76a6","ios":"levelo://app?vid=1dead8dc-fdb6-4c34-b5a6-09bf895e76a6"},"vehicle_type_id":"4","last_reported":1753405166,"current_range_meters":19600,"station_id":"cpo3532slgdg3j2ikp40","pricing_plan_id":"cebpf4jnsgd1na2vs0mg"},{"bike_id":"2b0233f5-c5d1-4c76-a880-0f99683c9955","system_id":"levelo_inurba_marseille","lat":43.28701,"lon":5.39976,"is_reserved":false,"is_disabled":false,"rental_uris":{"android":"levelo://app?vid=2b0233f5-c5d1-4c76-a880-0f99683c9955","ios":"levelo://app?vid=2b0233f5-c5d1-4c76-a880-0f99683c9955"},"vehicle_type_id":"4","last_reported":1753405166,"current_range_meters":19600,"station_id":"ce4bho92rcd13ifvqh3g","pricing_plan_id":"cebpf4jnsgd1na2vs0mg"},{"bike_id":"37771c5e-d270-46f0-b39b-509fb9c3f73b","system_id":"levelo_inurba_marseille","lat":43.30256,"lon":5.4007,"is_reserved":false,"is_disabled":false,"rental_uris":{"android":"levelo://app?vid=37771c5e-d270-46f0-b39b-509fb9c3f73b","ios":"levelo://app?vid=37771c5e-d270-46f0-b39b-509fb9c3f73b"},"vehicle_type_id":"4","last_reported":1753405166,"current_range_meters":20000,"station_id":"ce4bgvh2rcd13ifvqcs0","pricing_plan_id":"cebpf4jnsgd1na2vs0mg"},{"bike_id":"b8c01e37-f891-418c-994c-896116e55c96","system_id":"levelo_inurba_marseille","lat":43.29271,"lon":5.37615,"is_reserved":false,"is_disabled":false,"rental_uris":{"android":"levelo://app?vid=b8c01e37-f891-418c-994c-896116e55c96","ios":"levelo://app?vid=b8c01e37-f891-418c-994c-896116e55c96"},"vehicle_type_id":"4","last_reported":1753405166,"current_range_meters":20000,"station_id":"ce4bgi12rcd13ifvqb80","pricing_plan_id":"cebpf4jnsgd1na2vs0mg"},{"bike_id":"4f1df88e-9856-4c6e-9042-41d80c6fe67f","system_id":"levelo_inurba_marseille","lat":43.27921,"lon":5.39571,"is_reserved":false,"is_disabled":false,"rental_uris":{"android":"levelo://app?vid=4f1df88e-9856-4c6e-9042-41d80c6fe67f","ios":"levelo://app?vid=4f1df88e-9856-4c6e-9042-41d80c6fe67f"},"vehicle_type_id":"4","last_reported":1753405166,"current_range_meters":20000,"station_id":"ce4bhf92rcd13ifvqf40","pricing_plan_id":"cebpf4jnsgd1na2vs0mg"},{"bike_id":"6be21520-db96-42c5-a4c2-7e7ab3d8589b","system_id":"levelo_inurba_marseille","lat":43.24649,"lon":5.38929,"is_reserved":false,"is_disabled":false,"rental_uris":{"android":"levelo://app?vid=6be21520-db96-42c5-a4c2-7e7ab3d8589b","ios":"levelo://app?vid=6be21520-db96-42c5-a4c2-7e7ab3d8589b"},"vehicle_type_id":"4","last_reported":1753405166,"current_range_meters":20000,"station_id":"ce4bhg12rcd13ifvqf60","pricing_plan_id":"cebpf4jnsgd1na2vs0mg"},{"bike_id":"ba7117c7-599b-4608-b93d-d89e0f33f15b","system_id":"levelo_inurba_marseille","lat":43.284924,"lon":5.384276,"is_reserved":false,"is_disabled":false,"rental_uris":{"android":"levelo://app?vid=ba7117c7-599b-4608-b93d-d89e0f33f15b","ios":"levelo://app?vid=ba7117c7-599b-4608-b93d-d89e0f33f15b"},"vehicle_type_id":"4","last_reported":1753405166,"current_range_meters":20000,"station_id":"ce4bh512rcd13ifvqe3g","pricing_plan_id":"cebpf4jnsgd1na2vs0mg"},{"bike_id":"918062da-54dd-4d69-939b-4a965f6fa7f2","system_id":"levelo_inurba_marseille","lat":43.292789,"lon":5.36837,"is_reserved":false,"is_disabled":false,"rental_uris":{"android":"levelo://app?vid=918062da-54dd-4d69-939b-4a965f6fa7f2","ios":"levelo://app?vid=918062da-54dd-4d69-939b-4a965f6fa7f2"},"vehicle_type_id":"4","last_reported":1753405166,"current_range_meters":20000,"station_id":"","pricing_plan_id":"cebpf4jnsgd1na2vs0mg"},{"bike_id":"fac612d1-16e2-45d9-ab10-11b7935fddc0","system_id":"levelo_inurba_marseille","lat":43.27377,"lon":5.36243,"is_reserved":false,"is_disabled":false,"rental_uris":{"android":"levelo://app?vid=fac612d1-16e2-45d9-ab10-11b7935fddc0","ios":"levelo://app?vid=fac612d1-16e2-45d9-ab10-11b7935fddc0"},"vehicle_type_id":"4","last_reported":1753405166,"current_range_meters":20000,"station_id":"ce4bhbh2rcd13ifvqeo0","pricing_plan_id":"cebpf4jnsgd1na2vs0mg"},{"bike_id":"a1e9e67f-55d1-49e5-a2c3-e87f3c41fb76","system_id":"levelo_inurba_marseille","lat":43.23059,"lon":5.35491,"is_reserved":false,"is_disabled":true,"rental_uris":{"android":"levelo://app?vid=a1e9e67f-55d1-49e5-a2c3-e87f3c41fb76","ios":"levelo://app?vid=a1e9e67f-55d1-49e5-a2c3-e87f3c41fb76"},"vehicle_type_id":"4","last_reported":1753405166,"current_range_meters":20400,"station_id":"cpo3342slgdg3j2ifvpg","pricing_plan_id":"cebpf4jnsgd1na2vs0mg"},{"bike_id":"2aac8bf3-b0ff-4c45-aa57-60e73f9a1f6c","system_id":"levelo_inurba_marseille","lat":43.26561,"lon":5.39051,"is_reserved":false,"is_disabled":false,"rental_uris":{"android":"levelo://app?vid=2aac8bf3-b0ff-4c45-aa57-60e73f9a1f6c","ios":"levelo://app?vid=2aac8bf3-b0ff-4c45-aa57-60e73f9a1f6c"},"vehicle_type_id":"4","last_reported":1753405166,"current_range_meters":20400,"station_id":"ce4bhe12rcd13ifvqf30","pricing_plan_id":"cebpf4jnsgd1na2vs0mg"},{"bike_id":"a9d60925-9d72-451a-8a3c-955be9b668cf","system_id":"levelo_inurba_marseille","lat":43.31161,"lon":5.38736,"is_reserved":false,"is_disabled":false,"rental_uris":{"android":"levelo://app?vid=a9d60925-9d72-451a-8a3c-955be9b668cf","ios":"levelo://app?vid=a9d60925-9d72-451a-8a3c-955be9b668cf"},"vehicle_type_id":"4","last_reported":1753405166,"current_range_meters":20400,"station_id":"ce4bgv12rcd13ifvqcp0","pricing_plan_id":"cebpf4jnsgd1na2vs0mg"},{"bike_id":"fb278dd7-23b8-467b-96ee-58e606563c70","system_id":"levelo_inurba_marseille","lat":43.2989,"lon":5.38093,"is_reserved":false,"is_disabled":false,"rental_uris":{"android":"levelo://app?vid=fb278dd7-23b8-467b-96ee-58e606563c70","ios":"levelo://app?vid=fb278dd7-23b8-467b-96ee-58e606563c70"},"vehicle_type_id":"4","last_reported":1753405166,"current_range_meters":20400,"station_id":"","pricing_plan_id":"cebpf4jnsgd1na2vs0mg"},{"bike_id":"a3d8203d-224c-43dd-b2f2-15386e44f94f","system_id":"levelo_inurba_marseille","lat":43.29784,"lon":5.39356,"is_reserved":false,"is_disabled":false,"rental_uris":{"android":"levelo://app?vid=a3d8203d-224c-43dd-b2f2-15386e44f94f","ios":"levelo://app?vid=a3d8203d-224c-43dd-b2f2-15386e44f94f"},"vehicle_type_id":"4","last_reported":1753405166,"current_range_meters":20400,"station_id":"chh1huq6cuj3fo74tm60","pricing_plan_id":"cebpf4jnsgd1na2vs0mg"},{"bike_id":"9b79106a-5113-48cc-8f4f-bd2b8e45b4c6","system_id":"levelo_inurba_marseille","lat":43.333506,"lon":5.407373,"is_reserved":false,"is_disabled":false,"rental_uris":{"android":"levelo://app?vid=9b79106a-5113-48cc-8f4f-bd2b8e45b4c6","ios":"levelo://app?vid=9b79106a-5113-48cc-8f4f-bd2b8e45b4c6"},"vehicle_type_id":"4","last_reported":1753405166,"current_range_meters":20400,"station_id":"ce4bhqh2rcd13ifvqhmg","pricing_plan_id":"cebpf4jnsgd1na2vs0mg"},{"bike_id":"4f5a5a58-fa0b-4a12-98e2-b0f724f897b4","system_id":"levelo_inurba_marseille","lat":43.3108,"lon":5.38338,"is_reserved":false,"is_disabled":false,"rental_uris":{"android":"levelo://app?vid=4f5a5a58-fa0b-4a12-98e2-b0f724f897b4","ios":"levelo://app?vid=4f5a5a58-fa0b-4a12-98e2-b0f724f897b4"},"vehicle_type_id":"4","last_reported":1753405166,"current_range_meters":20400,"station_id":"ce4bgv92rcd13ifvqcr0","pricing_plan_id":"cebpf4jnsgd1na2vs0mg"},{"bike_id":"a4758bd9-0b6b-4888-9305-b4a56ad8a559","system_id":"levelo_inurba_marseille","lat":43.30379,"lon":5.4249,"is_reserved":false,"is_disabled":false,"rental_uris":{"android":"levelo://app?vid=a4758bd9-0b6b-4888-9305-b4a56ad8a559","ios":"levelo://app?vid=a4758bd9-0b6b-4888-9305-b4a56ad8a559"},"vehicle_type_id":"4","last_reported":1753405166,"current_range_meters":20400,"station_id":"ce4bhoh2rcd13ifvqh6g","pricing_plan_id":"cebpf4jnsgd1na2vs0mg"},{"bike_id":"4506b0fc-bba5-4f5e-b64f-bd34caffd40a","system_id":"levelo_inurba_marseille","lat":43.30294,"lon":5.39202,"is_reserved":false,"is_disabled":false,"rental_uris":{"android":"levelo://app?vid=4506b0fc-bba5-4f5e-b64f-bd34caffd40a","ios":"levelo://app?vid=4506b0fc-bba5-4f5e-b64f-bd34caffd40a"},"vehicle_type_id":"4","last_reported":1753405166,"current_range_meters":20400,"station_id":"ce4bgkh2rcd13ifvqbk0","pricing_plan_id":"cebpf4jnsgd1na2vs0mg"},{"bike_id":"e960d729-c1cc-459a-ae99-59e3377514e5","system_id":"levelo_inurba_marseille","lat":43.23965,"lon":5.366308,"is_reserved":false,"is_disabled":false,"rental_uris":{"android":"levelo://app?vid=e960d729-c1cc-459a-ae99-59e3377514e5","ios":"levelo://app?vid=e960d729-c1cc-459a-ae99-59e3377514e5"},"vehicle_type_id":"4","last_reported":1753405166,"current_range_meters":20800,"station_id":"ce4bhi12rcd13ifvqfp0","pricing_plan_id":"cebpf4jnsgd1na2vs0mg"},{"bike_id":"a15ea72f-9510-4d3f-b298-9304aca32840","system_id":"levelo_inurba_marseille","lat":43.30585,"lon":5.39343,"is_reserved":false,"is_disabled":false,"rental_uris":{"android":"levelo://app?vid=a15ea72f-9510-4d3f-b298-9304aca32840","ios":"levelo://app?vid=a15ea72f-9510-4d3f-b298-9304aca32840"},"vehicle_type_id":"4","last_reported":1753405166,"current_range_meters":20400,"station_id":"ce4bh0p2rcd13ifvqd80","pricing_plan_id":"cebpf4jnsgd1na2vs0mg"},{"bike_id":"147b2e50-3b30-4984-b3cd-71a3f7eef672","system_id":"levelo_inurba_marseille","lat":43.30451,"lon":5.38896,"is_reserved":false,"is_disabled":false,"rental_uris":{"android":"levelo://app?vid=147b2e50-3b30-4984-b3cd-71a3f7eef672","ios":"levelo://app?vid=147b2e50-3b30-4984-b3cd-71a3f7eef672"},"vehicle_type_id":"4","last_reported":1753405166,"current_range_meters":20800,"station_id":"ce4bgk12rcd13ifvqbi0","pricing_plan_id":"cebpf4jnsgd1na2vs0mg"},{"bike_id":"bd120089-590e-496c-9c90-6d1a02982638","system_id":"levelo_inurba_marseille","lat":43.292328,"lon":5.36098,"is_reserved":false,"is_disabled":true,"rental_uris":{"android":"levelo://app?vid=bd120089-590e-496c-9c90-6d1a02982638","ios":"levelo://app?vid=bd120089-590e-496c-9c90-6d1a02982638"},"vehicle_type_id":"4","last_reported":1753405166,"current_range_meters":20800,"station_id":"ce4bhbh2rcd13ifvqeqg","pricing_plan_id":"cebpf4jnsgd1na2vs0mg"},{"bike_id":"f5449828-dfeb-44a0-8352-abea387f03de","system_id":"levelo_inurba_marseille","lat":43.28137,"lon":5.42654,"is_reserved":false,"is_disabled":false,"rental_uris":{"android":"levelo://app?vid=f5449828-dfeb-44a0-8352-abea387f03de","ios":"levelo://app?vid=f5449828-dfeb-44a0-8352-abea387f03de"},"vehicle_type_id":"4","last_reported":1753405166,"current_range_meters":20800,"station_id":"ce4bhnh2rcd13ifvqgug","pricing_plan_id":"cebpf4jnsgd1na2vs0mg"},{"bike_id":"3c6ec051-0a31-4f91-8968-0915a102c9b9","system_id":"levelo_inurba_marseille","lat":43.30612,"lon":5.37227,"is_reserved":false,"is_disabled":false,"rental_uris":{"android":"levelo://app?vid=3c6ec051-0a31-4f91-8968-0915a102c9b9","ios":"levelo://app?vid=3c6ec051-0a31-4f91-8968-0915a102c9b9"},