{"last_updated":1751749791,"ttl":60,"version":"2.2","data":{"bikes":[{"bike_id":"3da29fb8-fc97-44c6-b9ac-31dd456b2fd4","system_id":"levelo_inurba_marseille","lat":43.33771,"lon":5.37424,"is_reserved":false,"is_disabled":true,"rental_uris":{"android":"levelo://app?vid=3da29fb8-fc97-44c6-b9ac-31dd456b2fd4","ios":"levelo://app?vid=3da29fb8-fc97-44c6-b9ac-31dd456b2fd4"},"vehicle_type_id":"4","last_reported":1751749791,"current_range_meters":0,"station_id":"","pricing_plan_id":"cebpf4jnsgd1na2vs0mg"},{"bike_id":"01861ad8-a8d7-4be6-816e-651927c87584","system_id":"levelo_inurba_marseille","lat":43.33751,"lon":5.37456,"is_reserved":false,"is_disabled":true,"rental_uris":{"android":"levelo://app?vid=01861ad8-a8d7-4be6-816e-651927c87584","ios":"levelo://app?vid=01861ad8-a8d7-4be6-816e-651927c87584"},"vehicle_type_id":"4","last_reported":1751749791,"current_range_meters":0,"station_id":"","pricing_plan_id":"cebpf4jnsgd1na2vs0mg"},{"bike_id":"76fb90db-012f-4066-a5f3-564c36551849","system_id":"levelo_inurba_marseille","lat":43.29101,"lon":5.36786,"is_reserved":false,"is_disabled":true,"rental_uris":{"android":"levelo://app?vid=76fb90db-012f-4066-a5f3-564c36551849","ios":"levelo://app?vid=76fb90db-012f-4066-a5f3-564c36551849"},"vehicle_type_id":"4","last_reported":1751749791,"current_range_meters":0,"station_id":"","pricing_plan_id":"cebpf4jnsgd1na2vs0mg"},{"bike_id":"ff5c8e93-8275-4e91-b094-4b309eead73a","system_id":"levelo_inurba_marseille","lat":43.30533,"lon":5.36731,"is_reserved":false,"is_disabled":true,"rental_uris":{"android":"levelo://app?vid=ff5c8e93-8275-4e91-b094-4b309eead73a","ios":"levelo://app?vid=ff5c8e93-8275-4e91-b094-4b309eead73a"},"vehicle_type_id":"4","last_reported":1751749791,"current_range_meters":0,"station_id":"ce4bgrp2rcd13ifvqc9g","pricing_plan_id":"cebpf4jnsgd1na2vs0mg"},{"bike_id":"5c4f64a4-318e-4fc0-8b3a-bacf5c5ecd92","system_id":"levelo_inurba_marseille","lat":43.30465,"lon":5.37911,"is_reserved":false,"is_disabled":true,"rental_uris":{"android":"levelo://app?vid=5c4f64a4-318e-4fc0-8b3a-bacf5c5ecd92","ios":"levelo://app?vid=5c4f64a4-318e-4fc0-8b3a-bacf5c5ecd92"},"vehicle_type_id":"4","last_reported":1751749791,"current_range_meters":0,"station_id":"ce4bgup2rcd13ifvqcn0","pricing_plan_id":"cebpf4jnsgd1na2vs0mg"},{"bike_id":"c7d02e7b-389c-4055-a2ad-bba8b8dd4603","system_id":"levelo_inurba_marseille","lat":43.320273,"lon":5.41439,"is_reserved":false,"is_disabled":true,"rental_uris":{"android":"levelo://app?vid=c7d02e7b-389c-4055-a2ad-bba8b8dd4603","ios":"levelo://app?vid=c7d02e7b-389c-4055-a2ad-bba8b8dd4603"},"vehicle_type_id":"4","last_reported":1751749791,"current_range_meters":0,"station_id":"ce4bh012rcd13ifvqd00","pricing_plan_id":"cebpf4jnsgd1na2vs0mg"},{"bike_id":"e28e124a-9e2d-4060-88ef-debd79f34d50","system_id":"levelo_inurba_marseille","lat":43.29281,"lon":5.40118,"is_reserved":false,"is_disabled":true,"rental_uris":{"android":"levelo://app?vid=e28e124a-9e2d-4060-88ef-debd79f34d50","ios":"levelo://app?vid=e28e124a-9e2d-4060-88ef-debd79f34d50"},"vehicle_type_id":"4","last_reported":1751749791,"current_range_meters":0,"station_id":"ce4bh312rcd13ifvqdk0","pricing_plan_id":"cebpf4jnsgd1na2vs0mg"},{"bike_id":"72d15a93-7e1d-4be2-b7d4-3a51dd187d10","system_id":"levelo_inurba_marseille","lat":43.26775,"lon":5.39415,"is_reserved":false,"is_disabled":true,"rental_uris":{"android":"levelo://app?vid=72d15a93-7e1d-4be2-b7d4-3a51dd187d10","ios":"levelo://app?vid=72d15a93-7e1d-4be2-b7d4-3a51dd187d10"},"vehicle_type_id":"4","last_reported":1751749791,"current_range_meters":0,"station_id":"ce4bhh12rcd13ifvqfg0","pricing_plan_id":"cebpf4jnsgd1na2vs0mg"},{"bike_id":"ab78d7ff-8265-44d4-b52a-c75a482a2b1b","system_id":"levelo_inurba_marseille","lat":43.24177,"lon":5.39738,"is_reserved":false,"is_disabled":true,"rental_uris":{"android":"levelo://app?vid=ab78d7ff-8265-44d4-b52a-c75a482a2b1b","ios":"levelo://app?vid=ab78d7ff-8265-44d4-b52a-c75a482a2b1b"},"vehicle_type_id":"4","last_reported":1751749791,"current_range_meters":0,"station_id":"ce4bhn12rcd13ifvqgpg","pricing_plan_id":"cebpf4jnsgd1na2vs0mg"},{"bike_id":"a4037ec8-a14b-4a76-b60b-a867bed46730","system_id":"levelo_inurba_marseille","lat":43.23195,"lon":5.35558,"is_reserved":false,"is_disabled":true,"rental_uris":{"android":"levelo://app?vid=a4037ec8-a14b-4a76-b60b-a867bed46730","ios":"levelo://app?vid=a4037ec8-a14b-4a76-b60b-a867bed46730"},"vehicle_type_id":"4","last_reported":1751749791,"current_range_meters":0,"station_id":"ce4bhu92rcd13ifvqi70","pricing_plan_id":"cebpf4jnsgd1na2vs0mg"},{"bike_id":"0c49a7d6-f9db-4a6c-978f-71d3ca86d4a3","system_id":"levelo_inurba_marseille","lat":43.22506,"lon":5.34786,"is_reserved":false,"is_disabled":true,"rental_uris":{"android":"levelo://app?vid=0c49a7d6-f9db-4a6c-978f-71d3ca86d4a3","ios":"levelo://app?vid=0c49a7d6-f9db-4a6c-978f-71d3ca86d4a3"},"vehicle_type_id":"4","last_reported":1751749791,"current_range_meters":0,"station_id":"st_cvj5dfep6f1abm77gieg","pricing_plan_id":"cebpf4jnsgd1na2vs0mg"},{"bike_id":"e26ba497-efc7-4420-b8c5-9fa5e27f2ce4","system_id":"levelo_inurba_marseille","lat":43.31386,"lon":5.370642,"is_reserved":false,"is_disabled":true,"rental_uris":{"android":"levelo://app?vid=e26ba497-efc7-4420-b8c5-9fa5e27f2ce4","ios":"levelo://app?vid=e26ba497-efc7-4420-b8c5-9fa5e27f2ce4"},"vehicle_type_id":"4","last_reported":1751749791,"current_range_meters":400,"station_id":"","pricing_plan_id":"cebpf4jnsgd1na2vs0mg"},{"bike_id":"cde432a2-80d6-4464-8f9d-936b35723570","system_id":"levelo_inurba_marseille","lat":43.25493,"lon":5.37649,"is_reserved":false,"is_disabled":true,"rental_uris":{"android":"levelo://app?vid=cde432a2-80d6-4464-8f9d-936b35723570","ios":"levelo://app?vid=cde432a2-80d6-4464-8f9d-936b35723570"},"vehicle_type_id":"4","last_reported":1751749791,"current_range_meters":400,"station_id":"ce4bhh12rcd13ifvqff0","pricing_plan_id":"cebpf4jnsgd1na2vs0mg"},{"bike_id":"aba35d18-7210-4024-9bd8-7239e12e7aff","system_id":"levelo_inurba_marseille","lat":43.25497,"lon":5.37651,"is_reserved":false,"is_disabled":true,"rental_uris":{"android":"levelo://app?vid=aba35d18-7210-4024-9bd8-7239e12e7aff","ios":"levelo://app?vid=aba35d18-7210-4024-9bd8-7239e12e7aff"},"vehicle_type_id":"4","last_reported":1751749791,"current_range_meters":400,"station_id":"ce4bhh12rcd13ifvqff0","pricing_plan_id":"cebpf4jnsgd1na2vs0mg"},{"bike_id":"1c57a3c7-1fe2-49b4-93b2-29842e960d9b","system_id":"levelo_inurba_marseille","lat":43.25484,"lon":5.37653,"is_reserved":false,"is_disabled":true,"rental_uris":{"android":"levelo://app?vid=1c57a3c7-1fe2-49b4-93b2-29842e960d9b","ios":"levelo://app?vid=1c57a3c7-1fe2-49b4-93b2-29842e960d9b"},"vehicle_type_id":"4","last_reported":1751749791,"current_range_meters":800,"station_id":"","pricing_plan_id":"cebpf4jnsgd1na2vs0mg"},{"bike_id":"d91e775c-3409-4ec4-aa1b-a0ca4dd7daae","system_id":"levelo_inurba_marseille","lat":43.30956,"lon":5.39035,"is_reserved":false,"is_disabled":true,"rental_uris":{"android":"levelo://app?vid=d91e775c-3409-4ec4-aa1b-a0ca4dd7daae","ios":"levelo://app?vid=d91e775c-3409-4ec4-aa1b-a0ca4dd7daae"},"vehicle_type_id":"4","last_reported":1751749791,"current_range_meters":800,"station_id":"ce4bgup2rcd13ifvqco0","pricing_plan_id":"cebpf4jnsgd1na2vs0mg"},{"bike_id":"2e6ee0fa-8087-4fcc-b58a-1749a0ec00c2","system_id":"levelo_inurba_marseille","lat":43.28995,"lon":5.35647,"is_reserved":false,"is_disabled":true,"rental_uris":{"android":"levelo://app?vid=2e6ee0fa-8087-4fcc-b58a-1749a0ec00c2","ios":"levelo://app?vid=2e6ee0fa-8087-4fcc-b58a-1749a0ec00c2"},"vehicle_type_id":"4","last_reported":1751749791,"current_range_meters":800,"station_id":"ce4bhb92rcd13ifvqen0","pricing_plan_id":"cebpf4jnsgd1na2vs0mg"},{"bike_id":"9bfc7d3d-4e60-4f8a-9c32-ef3d0e77ec5b","system_id":"levelo_inurba_marseille","lat":43.21186,"lon":5.35078,"is_reserved":false,"is_disabled":true,"rental_uris":{"android":"levelo://app?vid=9bfc7d3d-4e60-4f8a-9c32-ef3d0e77ec5b","ios":"levelo://app?vid=9bfc7d3d-4e60-4f8a-9c32-ef3d0e77ec5b"},"vehicle_type_id":"4","last_reported":1751749791,"current_range_meters":800,"station_id":"st_cvj6sg6p6f1abm77japg","pricing_plan_id":"cebpf4jnsgd1na2vs0mg"},{"bike_id":"10526e14-e6c3-4632-888d-8dff4073d9d7","system_id":"levelo_inurba_marseille","lat":43.27318,"lon":5.39114,"is_reserved":false,"is_disabled":true,"rental_uris":{"android":"levelo://app?vid=10526e14-e6c3-4632-888d-8dff4073d9d7","ios":"levelo://app?vid=10526e14-e6c3-4632-888d-8dff4073d9d7"},"vehicle_type_id":"4","last_reported":1751749791,"current_range_meters":1200,"station_id":"ce4bhgp2rcd13ifvqfe0","pricing_plan_id":"cebpf4jnsgd1na2vs0mg"},{"bike_id":"f2bf559f-93d9-4b14-8bbc-8aab08ff1f12","system_id":"levelo_inurba_marseille","lat":43.23182,"lon":5.39983,"is_reserved":false,"is_disabled":true,"rental_uris":{"android":"levelo://app?vid=f2bf559f-93d9-4b14-8bbc-8aab08ff1f12","ios":"levelo://app?vid=f2bf559f-93d9-4b14-8bbc-8aab08ff1f12"},"vehicle_type_id":"4","last_reported":1751749791,"current_range_meters":1200,"station_id":"ce4bhn12rcd13ifvqgqg","pricing_plan_id":"cebpf4jnsgd1na2vs0mg"},{"bike_id":"1a22c9f7-69be-44c9-8c9f-be1194fead73","system_id":"levelo_inurba_marseille","lat":43.32652,"lon":5.41,"is_reserved":false,"is_disabled":true,"rental_uris":{"android":"levelo://app?vid=1a22c9f7-69be-44c9-8c9f-be1194fead73","ios":"levelo://app?vid=1a22c9f7-69be-44c9-8c9f-be1194fead73"},"vehicle_type_id":"4","last_reported":1751749791,"current_range_meters":1200,"station_id":"ce4bhpp2rcd13ifvqhgg","pricing_plan_id":"cebpf4jnsgd1na2vs0mg"},{"bike_id":"2fad383f-cfd7-4ed2-b443-8c222ca1a5b8","system_id":"levelo_inurba_marseille","lat":43.296318,"lon":5.372771,"is_reserved":false,"is_disabled":true,"rental_uris":{"android":"levelo://app?vid=2fad383f-cfd7-4ed2-b443-8c222ca1a5b8","ios":"levelo://app?vid=2fad383f-cfd7-4ed2-b443-8c222ca1a5b8"},"vehicle_type_id":"4","last_reported":1751749791,"current_range_meters":1600,"station_id":"","pricing_plan_id":"cebpf4jnsgd1na2vs0mg"},{"bike_id":"41d9c1ec-3804-4317-8b86-e6c2b1911f16","system_id":"levelo_inurba_marseille","lat":43.30932,"lon":5.40148,"is_reserved":false,"is_disabled":true,"rental_uris":{"android":"levelo://app?vid=41d9c1ec-3804-4317-8b86-e6c2b1911f16","ios":"levelo://app?vid=41d9c1ec-3804-4317-8b86-e6c2b1911f16"},"vehicle_type_id":"4","last_reported":1751749791,"current_range_meters":1600,"station_id":"ce4bgvp2rcd13ifvqct0","pricing_plan_id":"cebpf4jnsgd1na2vs0mg"},{"bike_id":"0fdaf47a-5ef7-4f6b-8c7d-33a850226b62","system_id":"levelo_inurba_marseille","lat":43.30738,"lon":5.42446,"is_reserved":false,"is_disabled":true,"rental_uris":{"android":"levelo://app?vid=0fdaf47a-5ef7-4f6b-8c7d-33a850226b62","ios":"levelo://app?vid=0fdaf47a-5ef7-4f6b-8c7d-33a850226b62"},"vehicle_type_id":"4","last_reported":1751749791,"current_range_meters":1600,"station_id":"st_cvj6ca6bvosntc0bfgr0","pricing_plan_id":"cebpf4jnsgd1na2vs0mg"},{"bike_id":"61f6c752-20dd-40d0-8ebe-efcc9159db89","system_id":"levelo_inurba_marseille","lat":43.27201,"lon":5.41005,"is_reserved":false,"is_disabled":true,"rental_uris":{"android":"levelo://app?vid=61f6c752-20dd-40d0-8ebe-efcc9159db89","ios":"levelo://app?vid=61f6c752-20dd-40d0-8ebe-efcc9159db89"},"vehicle_type_id":"4","last_reported":1751749791,"current_range_meters":2000,"station_id":"ce4bhl12rcd13ifvqgf0","pricing_plan_id":"cebpf4jnsgd1na2vs0mg"},{"bike_id":"d1444e94-489f-4fa9-9e06-4bdf6ba47149","system_id":"levelo_inurba_marseille","lat":43.22508,"lon":5.34794,"is_reserved":false,"is_disabled":true,"rental_uris":{"android":"levelo://app?vid=d1444e94-489f-4fa9-9e06-4bdf6ba47149","ios":"levelo://app?vid=d1444e94-489f-4fa9-9e06-4bdf6ba47149"},"vehicle_type_id":"4","last_reported":1751749791,"current_range_meters":2000,"station_id":"st_cvj5dfep6f1abm77gieg","pricing_plan_id":"cebpf4jnsgd1na2vs0mg"},{"bike_id":"c0808f09-18ba-480d-b1ed-3210aabbac5c","system_id":"levelo_inurba_marseille","lat":43.23177,"lon":5.39987,"is_reserved":false,"is_disabled":false,"rental_uris":{"android":"levelo://app?vid=c0808f09-18ba-480d-b1ed-3210aabbac5c","ios":"levelo://app?vid=c0808f09-18ba-480d-b1ed-3210aabbac5c"},"vehicle_type_id":"4","last_reported":1751749791,"current_range_meters":2800,"station_id":"ce4bhn12rcd13ifvqgqg","pricing_plan_id":"cebpf4jnsgd1na2vs0mg"},{"bike_id":"f6ac2ca1-a3ac-4f58-b1a1-b74be8a76990","system_id":"levelo_inurba_marseille","lat":43.29908,"lon":5.43661,"is_reserved":false,"is_disabled":false,"rental_uris":{"android":"levelo://app?vid=f6ac2ca1-a3ac-4f58-b1a1-b74be8a76990","ios":"levelo://app?vid=f6ac2ca1-a3ac-4f58-b1a1-b74be8a76990"},"vehicle_type_id":"4","last_reported":1751749791,"current_range_meters":2800,"station_id":"ce4bhpp2rcd13ifvqhfg","pricing_plan_id":"cebpf4jnsgd1na2vs0mg"},{"bike_id":"4ff0a587-b444-4d32-942b-15bf910e854b","system_id":"levelo_inurba_marseille","lat":43.31712,"lon":5.43708,"is_reserved":false,"is_disabled":false,"rental_uris":{"android":"levelo://app?vid=4ff0a587-b444-4d32-942b-15bf910e854b","ios":"levelo://app?vid=4ff0a587-b444-4d32-942b-15bf910e854b"},"vehicle_type_id":"4","last_reported":1751749791,"current_range_meters":3200,"station_id":"ce4bhp92rcd13ifvqhcg","pricing_plan_id":"cebpf4jnsgd1na2vs0mg"},{"bike_id":"0c69c945-e35b-4701-8a40-4756f4598d29","system_id":"levelo_inurba_marseille","lat":43.284576,"lon":5.358845,"is_reserved":false,"is_disabled":false,"rental_uris":{"android":"levelo://app?vid=0c69c945-e35b-4701-8a40-4756f4598d29","ios":"levelo://app?vid=0c69c945-e35b-4701-8a40-4756f4598d29"},"vehicle_type_id":"4","last_reported":1751749791,"current_range_meters":4000,"station_id":"ce4bhah2rcd13ifvqei0","pricing_plan_id":"cebpf4jnsgd1na2vs0mg"},{"bike_id":"1fab6945-1d15-4308-916f-83d9d3693968","system_id":"levelo_inurba_marseille","lat":43.24663,"lon":5.38164,"is_reserved":false,"is_disabled":false,"rental_uris":{"android":"levelo://app?vid=1fab6945-1d15-4308-916f-83d9d3693968","ios":"levelo://app?vid=1fab6945-1d15-4308-916f-83d9d3693968"},"vehicle_type_id":"4","last_reported":1751749791,"current_range_meters":4400,"station_id":"ce4bhih2rcd13ifvqfr0","pricing_plan_id":"cebpf4jnsgd1na2vs0mg"},{"bike_id":"962505fe-d88d-4f86-b584-57d2e2c26894","system_id":"levelo_inurba_marseille","lat":43.28705,"lon":5.39985,"is_reserved":false,"is_disabled":false,"rental_uris":{"android":"levelo://app?vid=962505fe-d88d-4f86-b584-57d2e2c26894","ios":"levelo://app?vid=962505fe-d88d-4f86-b584-57d2e2c26894"},"vehicle_type_id":"4","last_reported":1751749791,"current_range_meters":4400,"station_id":"ce4bho92rcd13ifvqh3g","pricing_plan_id":"cebpf4jnsgd1na2vs0mg"},{"bike_id":"7fb7dfd4-1432-4335-820c-9a460d28d576","system_id":"levelo_inurba_marseille","lat":43.31235,"lon":5.36842,"is_reserved":false,"is_disabled":false,"rental_uris":{"android":"levelo://app?vid=7fb7dfd4-1432-4335-820c-9a460d28d576","ios":"levelo://app?vid=7fb7dfd4-1432-4335-820c-9a460d28d576"},"vehicle_type_id":"4","last_reported":1751749791,"current_range_meters":4800,"station_id":"ce4bgl92rcd13ifvqbq0","pricing_plan_id":"cebpf4jnsgd1na2vs0mg"},{"bike_id":"2a167045-bcf9-4af6-9a96-bf9de5bc9f8c","system_id":"levelo_inurba_marseille","lat":43.27938,"lon":5.41047,"is_reserved":false,"is_disabled":false,"rental_uris":{"android":"levelo://app?vid=2a167045-bcf9-4af6-9a96-bf9de5bc9f8c","ios":"levelo://app?vid=2a167045-bcf9-4af6-9a96-bf9de5bc9f8c"},"vehicle_type_id":"4","last_reported":1751749791,"current_range_meters":4800,"station_id":"ce4bhnp2rcd13ifvqh0g","pricing_plan_id":"cebpf4jnsgd1na2vs0mg"},{"bike_id":"27cd5f55-3510-4056-836b-b4de6aeb19ea","system_id":"levelo_inurba_marseille","lat":43.2407,"lon":5.37767,"is_reserved":false,"is_disabled":false,"rental_uris":{"android":"levelo://app?vid=27cd5f55-3510-4056-836b-b4de6aeb19ea","ios":"levelo://app?vid=27cd5f55-3510-4056-836b-b4de6aeb19ea"},"vehicle_type_id":"4","last_reported":1751749791,"current_range_meters":6000,"station_id":"","pricing_plan_id":"cebpf4jnsgd1na2vs0mg"},{"bike_id":"ba154a12-11bd-42a5-958a-5992f5d043d1","system_id":"levelo_inurba_marseille","lat":43.30503,"lon":5.37098,"is_reserved":false,"is_disabled":false,"rental_uris":{"android":"levelo://app?vid=ba154a12-11bd-42a5-958a-5992f5d043d1","ios":"levelo://app?vid=ba154a12-11bd-42a5-958a-5992f5d043d1"},"vehicle_type_id":"4","last_reported":1751749791,"current_range_meters":6000,"station_id":"","pricing_plan_id":"cebpf4jnsgd1na2vs0mg"},{"bike_id":"ab04b59a-89b0-4eb1-b0b7-0b90249c2515","system_id":"levelo_inurba_marseille","lat":43.290015,"lon":5.356115,"is_reserved":false,"is_disabled":false,"rental_uris":{"android":"levelo://app?vid=ab04b59a-89b0-4eb1-b0b7-0b90249c2515","ios":"levelo://app?vid=ab04b59a-89b0-4eb1-b0b7-0b90249c2515"},"vehicle_type_id":"4","last_reported":1751749791,"current_range_meters":6000,"station_id":"ce4bhb92rcd13ifvqen0","pricing_plan_id":"cebpf4jnsgd1na2vs0mg"},{"bike_id":"17b371a1-bdea-433c-88cc-4e01d7f66f8d","system_id":"levelo_inurba_marseille","lat":43.27426,"lon":5.39423,"is_reserved":false,"is_disabled":false,"rental_uris":{"android":"levelo://app?vid=17b371a1-bdea-433c-88cc-4e01d7f66f8d","ios":"levelo://app?vid=17b371a1-bdea-433c-88cc-4e01d7f66f8d"},"vehicle_type_id":"4","last_reported":1751749791,"current_range_meters":6000,"station_id":"ce4bhdp2rcd13ifvqf20","pricing_plan_id":"cebpf4jnsgd1na2vs0mg"},{"bike_id":"3c2aa2cd-f034-450e-acce-1e09f038dee8","system_id":"levelo_inurba_marseille","lat":43.25113,"lon":5.40341,"is_reserved":false,"is_disabled":false,"rental_uris":{"android":"levelo://app?vid=3c2aa2cd-f034-450e-acce-1e09f038dee8","ios":"levelo://app?vid=3c2aa2cd-f034-450e-acce-1e09f038dee8"},"vehicle_type_id":"4","last_reported":1751749791,"current_range_meters":6000,"station_id":"ce4bhlh2rcd13ifvqgig","pricing_plan_id":"cebpf4jnsgd1na2vs0mg"},{"bike_id":"4fafff37-a86a-46e5-809f-a4b169e2784c","system_id":"levelo_inurba_marseille","lat":43.250873,"lon":5.395237,"is_reserved":false,"is_disabled":false,"rental_uris":{"android":"levelo://app?vid=4fafff37-a86a-46e5-809f-a4b169e2784c","ios":"levelo://app?vid=4fafff37-a86a-46e5-809f-a4b169e2784c"},"vehicle_type_id":"4","last_reported":1751749791,"current_range_meters":6000,"station_id":"ce4bhm12rcd13ifvqgkg","pricing_plan_id":"cebpf4jnsgd1na2vs0mg"},{"bike_id":"d13d9016-7c35-4095-a399-ac89fde82279","system_id":"levelo_inurba_marseille","lat":43.29346,"lon":5.38339,"is_reserved":false,"is_disabled":false,"rental_uris":{"android":"levelo://app?vid=d13d9016-7c35-4095-a399-ac89fde82279","ios":"levelo://app?vid=d13d9016-7c35-4095-a399-ac89fde82279"},"vehicle_type_id":"4","last_reported":1751749791,"current_range_meters":6400,"station_id":"","pricing_plan_id":"cebpf4jnsgd1na2vs0mg"},{"bike_id":"0c4b7fdb-b39e-49b3-a2b0-ae3d0f43e89d","system_id":"levelo_inurba_marseille","lat":43.32903,"lon":5.40613,"is_reserved":false,"is_disabled":false,"rental_uris":{"android":"levelo://app?vid=0c4b7fdb-b39e-49b3-a2b0-ae3d0f43e89d","ios":"levelo://app?vid=0c4b7fdb-b39e-49b3-a2b0-ae3d0f43e89d"},"vehicle_type_id":"4","last_reported":1751749791,"current_range_meters":6400,"station_id":"","pricing_plan_id":"cebpf4jnsgd1na2vs0mg"},{"bike_id":"7878e314-a08d-4050-9bc4-d166de69b22f","system_id":"levelo_inurba_marseille","lat":43.25089,"lon":5.39522,"is_reserved":false,"is_disabled":false,"rental_uris":{"android":"levelo://app?vid=7878e314-a08d-4050-9bc4-d166de69b22f","ios":"levelo://app?vid=7878e314-a08d-4050-9bc4-d166de69b22f"},"vehicle_type_id":"4","last_reported":1751749791,"current_range_meters":6400,"station_id":"ce4bhm12rcd13ifvqgkg","pricing_plan_id":"cebpf4jnsgd1na2vs0mg"},{"bike_id":"4fb31fff-0fc2-4434-afd9-8dcf03fd0c6c","system_id":"levelo_inurba_marseille","lat":43.23152,"lon":5.43719,"is_reserved":false,"is_disabled":false,"rental_uris":{"android":"levelo://app?vid=4fb31fff-0fc2-4434-afd9-8dcf03fd0c6c","ios":"levelo://app?vid=4fb31fff-0fc2-4434-afd9-8dcf03fd0c6c"},"vehicle_type_id":"4","last_reported":1751749791,"current_range_meters":6400,"station_id":"ce4bhmp2rcd13ifvqgog","pricing_plan_id":"cebpf4jnsgd1na2vs0mg"},{"bike_id":"9963238f-7950-4c1f-a174-226fea210e04","system_id":"levelo_inurba_marseille","lat":43.250811,"lon":5.39521,"is_reserved":false,"is_disabled":false,"rental_uris":{"android":"levelo://app?vid=9963238f-7950-4c1f-a174-226fea210e04","ios":"levelo://app?vid=9963238f-7950-4c1f-a174-226fea210e04"},"vehicle_type_id":"4","last_reported":1751749791,"current_range_meters":6800,"station_id":"ce4bhm12rcd13ifvqgkg","pricing_plan_id":"cebpf4jnsgd1na2vs0mg"},{"bike_id":"6917bed5-c21f-48c3-870d-5408dab99803","system_id":"levelo_inurba_marseille","lat":43.29701,"lon":5.36865,"is_reserved":false,"is_disabled":false,"rental_uris":{"android":"levelo://app?vid=6917bed5-c21f-48c3-870d-5408dab99803","ios":"levelo://app?vid=6917bed5-c21f-48c3-870d-5408dab99803"},"vehicle_type_id":"4","last_reported":1751749791,"current_range_meters":7200,"station_id":"","pricing_plan_id":"cebpf4jnsgd1na2vs0mg"},{"bike_id":"4afd9531-143e-4539-b198-059e59e17ebf","system_id":"levelo_inurba_marseille","lat":43.311707,"lon":5.387203,"is_reserved":false,"is_disabled":false,"rental_uris":{"android":"levelo://app?vid=4afd9531-143e-4539-b198-059e59e17ebf","ios":"levelo://app?vid=4afd9531-143e-4539-b198-059e59e17ebf"},"vehicle_type_id":"4","last_reported":1751749791,"current_range_meters":7200,"station_id":"ce4bgv12rcd13ifvqcp0","pricing_plan_id":"cebpf4jnsgd1na2vs0mg"},{"bike_id":"98790af5-31b0-4011-8db2-41e4e2b62826","system_id":"levelo_inurba_marseille","lat":43.2958,"lon":5.3997,"is_reserved":false,"is_disabled":false,"rental_uris":{"android":"levelo://app?vid=98790af5-31b0-4011-8db2-41e4e2b62826","ios":"levelo://app?vid=98790af5-31b0-4011-8db2-41e4e2b62826"},"vehicle_type_id":"4","last_reported":1751749791,"current_range_meters":7200,"station_id":"ce4bh312rcd13ifvqdj0","pricing_plan_id":"cebpf4jnsgd1na2vs0mg"},{"bike_id":"0fb4ccd5-511f-455d-b432-b40c9616e81f","system_id":"levelo_inurba_marseille","lat":43.24074,"lon":5.37766,"is_reserved":false,"is_disabled":false,"rental_uris":{"android":"levelo://app?vid=0fb4ccd5-511f-455d-b432-b40c9616e81f","ios":"levelo://app?vid=0fb4ccd5-511f-455d-b432-b40c9616e81f"},"vehicle_type_id":"4","last_reported":1751749791,"current_range_meters":7200,"station_id":"ce4bhnp2rcd13ifvqgvg","pricing_plan_id":"cebpf4jnsgd1na2vs0mg"},{"bike_id":"999bf1d9-3a81-447e-922b-375213cb8f9c","system_id":"levelo_inurba_marseille","lat":43.33024,"lon":5.39045,"is_reserved":false,"is_disabled":false,"rental_uris":{"android":"levelo://app?vid=999bf1d9-3a81-447e-922b-375213cb8f9c","ios":"levelo://app?vid=999bf1d9-3a81-447e-922b-375213cb8f9c"},"vehicle_type_id":"4","last_reported":1751749791,"current_range_meters":7200,"station_id":"ce4bhr92rcd13ifvqhrg","pricing_plan_id":"cebpf4jnsgd1na2vs0mg"},{"bike_id":"371edb06-dc3d-43bb-8c9f-119f7b22ba75","system_id":"levelo_inurba_marseille","lat":43.30947,"lon":5.39047,"is_reserved":false,"is_disabled":false,"rental_uris":{"android":"levelo://app?vid=371edb06-dc3d-43bb-8c9f-119f7b22ba75","ios":"levelo://app?vid=371edb06-dc3d-43bb-8c9f-119f7b22ba75"},"vehicle_type_id":"4","last_reported":1751749791,"current_range_meters":8000,"station_id":"ce4bgup2rcd13ifvqco0","pricing_plan_id":"cebpf4jnsgd1na2vs0mg"},{"bike_id":"b962aa38-2f1f-481b-bf99-a9392f719784","system_id":"levelo_inurba_marseille","lat":43.29784,"lon":5.3935,"is_reserved":false,"is_disabled":false,"rental_uris":{"android":"levelo://app?vid=b962aa38-2f1f-481b-bf99-a9392f719784","ios":"levelo://app?vid=b962aa38-2f1f-481b-bf99-a9392f719784"},"vehicle_type_id":"4","last_reported":1751749791,"current_range_meters":8000,"station_id":"chh1huq6cuj3fo74tm60","pricing_plan_id":"cebpf4jnsgd1na2vs0mg"},{"bike_id":"2ffeba7a-8316-4052-8019-91454da58cbe","system_id":"levelo_inurba_marseille","lat":43.26987,"lon":5.42007,"is_reserved":false,"is_disabled":false,"rental_uris":{"android":"levelo://app?vid=2ffeba7a-8316-4052-8019-91454da58cbe","ios":"levelo://app?vid=2ffeba7a-8316-4052-8019-91454da58cbe"},"vehicle_type_id":"4","last_reported":1751749791,"current_range_meters":8400,"station_id":"","pricing_plan_id":"cebpf4jnsgd1na2vs0mg"},{"bike_id":"8205bdf4-ee83-4bb6-bcbe-d476b17ea327","system_id":"levelo_inurba_marseille","lat":43.32001,"lon":5.43263,"is_reserved":false,"is_disabled":false,"rental_uris":{"android":"levelo://app?vid=8205bdf4-ee83-4bb6-bcbe-d476b17ea327","ios":"levelo://app?vid=8205bdf4-ee83-4bb6-bcbe-d476b17ea327"},"vehicle_type_id":"4","last_reported":1751749791,"current_range_meters":8400,"station_id":"","pricing_plan_id":"cebpf4jnsgd1na2vs0mg"},{"bike_id":"36c296fb-83e1-4044-b065-50d87bcfbef1","system_id":"levelo_inurba_marseille","lat":43.30935,"lon":5.39037,"is_reserved":false,"is_disabled":false,"rental_uris":{"android":"levelo://app?vid=36c296fb-83e1-4044-b065-50d87bcfbef1","ios":"levelo://app?vid=36c296fb-83e1-4044-b065-50d87bcfbef1"},"vehicle_type_id":"4","last_reported":1751749791,"current_range_meters":8400,"station_id":"ce4bgup2rcd13ifvqco0","pricing_plan_id":"cebpf4jnsgd1na2vs0mg"},{"bike_id":"ed174135-772f-4ad8-8e10-82e4034d5337","system_id":"levelo_inurba_marseille","lat":43.309346,"lon":5.390524,"is_reserved":false,"is_disabled":false,"rental_uris":{"android":"levelo://app?vid=ed174135-772f-4ad8-8e10-82e4034d5337","ios":"levelo://app?vid=ed174135-772f-4ad8-8e10-82e4034d5337"},"vehicle_type_id":"4","last_reported":1751749791,"current_range_meters":8400,"station_id":"ce4bgup2rcd13ifvqco0","pricing_plan_id":"cebpf4jnsgd1na2vs0mg"},{"bike_id":"b9892cb9-e3ea-4d80-8e2b-3144970601c5","system_id":"levelo_inurba_marseille","lat":43.32336,"lon":5.40603,"is_reserved":false,"is_disabled":false,"rental_uris":{"android":"levelo://app?vid=b9892cb9-e3ea-4d80-8e2b-3144970601c5","ios":"levelo://app?vid=b9892cb9-e3ea-4d80-8e2b-3144970601c5"},"vehicle_type_id":"4","last_reported":1751749791,"current_range_meters":8400,"station_id":"ce4bhq92rcd13ifvqhjg","pricing_plan_id":"cebpf4jnsgd1na2vs0mg"},{"bike_id":"1c8ab180-05fd-405f-9922-b2b2c2d5142f","system_id":"levelo_inurba_marseille","lat":43.33799,"lon":5.38113,"is_reserved":false,"is_disabled":false,"rental_uris":{"android":"levelo://app?vid=1c8ab180-05fd-405f-9922-b2b2c2d5142f","ios":"levelo://app?vid=1c8ab180-05fd-405f-9922-b2b2c2d5142f"},"vehicle_type_id":"4","last_reported":1751749791,"current_range_meters":8800,"station_id":"","pricing_plan_id":"cebpf4jnsgd1na2vs0mg"},{"bike_id":"b26fae72-751e-4090-a9c4-76ff5de1ad66","system_id":"levelo_inurba_marseille","lat":43.332494,"lon":5.380348,"is_reserved":false,"is_disabled":false,"rental_uris":{"android":"levelo://app?vid=b26fae72-751e-4090-a9c4-76ff5de1ad66","ios":"levelo://app?vid=b26fae72-751e-4090-a9c4-76ff5de1ad66"},"vehicle_type_id":"4","last_reported":1751749791,"current_range_meters":8800,"station_id":"","pricing_plan_id":"cebpf4jnsgd1na2vs0mg"},{"bike_id":"e227ba38-cf05-4368-b4e3-deb39e7d2c57","system_id":"levelo_inurba_marseille","lat":43.30942,"lon":5.39041,"is_reserved":false,"is_disabled":false,"rental_uris":{"android":"levelo://app?vid=e227ba38-cf05-4368-b4e3-deb39e7d2c57","ios":"levelo://app?vid=e227ba38-cf05-4368-b4e3-deb39e7d2c57"},"vehicle_type_id":"4","last_reported":1751749791,"current_range_meters":8800,"station_id":"ce4bgup2rcd13ifvqco0","pricing_plan_id":"cebpf4jnsgd1na2vs0mg"},{"bike_id":"e4560f8c-11ed-46ad-b9be-9dcac128a8e1","system_id":"levelo_inurba_marseille","lat":43.25506,"lon":5.37645,"is_reserved":false,"is_disabled":false,"rental_uris":{"android":"levelo://app?vid=e4560f8c-11ed-46ad-b9be-9dcac128a8e1","ios":"levelo://app?vid=e4560f8c-11ed-46ad-b9be-9dcac128a8e1"},"vehicle_type_id":"4","last_reported":1751749791,"current_range_meters":9200,"station_id":"ce4bhh12rcd13ifvqff0","pricing_plan_id":"cebpf4jnsgd1na2vs0mg"},{"bike_id":"77acf04e-8db8-42df-bfb9-642dc73d7fae","system_id":"levelo_inurba_marseille","lat":43.29789,"lon":5.39332,"is_reserved":false,"is_disabled":false,"rental_uris":{"android":"levelo://app?vid=77acf04e-8db8-42df-bfb9-642dc73d7fae","ios":"levelo://app?vid=77acf04e-8db8-42df-bfb9-642dc73d7fae"},"vehicle_type_id":"4","last_reported":1751749791,"current_range_meters":9200,"station_id":"chh1huq6cuj3fo74tm60","pricing_plan_id":"cebpf4jnsgd1na2vs0mg"},{"bike_id":"d25eea36-2afa-42fc-bdb9-57171f21ff02","system_id":"levelo_inurba_marseille","lat":43.21749,"lon":5.34601,"is_reserved":false,"is_disabled":false,"rental_uris":{"android":"levelo://app?vid=d25eea36-2afa-42fc-bdb9-57171f21ff02","ios":"levelo://app?vid=d25eea36-2afa-42fc-bdb9-57171f21ff02"},"vehicle_type_id":"4","last_reported":1751749791,"current_range_meters":9200,"station_id":"st_cvj6r9ubvosntc0bgbag","pricing_plan_id":"cebpf4jnsgd1na2vs0mg"},{"bike_id":"4b8da722-ee9e-48a4-a5e5-3a8a10364708","system_id":"levelo_inurba_marseille","lat":43.31215,"lon":5.37813,"is_reserved":false,"is_disabled":false,"rental_uris":{"android":"levelo://app?vid=4b8da722-ee9e-48a4-a5e5-3a8a10364708","ios":"levelo://app?vid=4b8da722-ee9e-48a4-a5e5-3a8a10364708"},"vehicle_type_id":"4","last_reported":1751749791,"current_range_meters":9600,"station_id":"","pricing_plan_id":"cebpf4jnsgd1na2vs0mg"},{"bike_id":"69c2280d-9883-47db-99f2-c073a6babae6","system_id":"levelo_inurba_marseille","lat":43.30845,"lon":5.37035,"is_reserved":false,"is_disabled":false,"rental_uris":{"android":"levelo://app?vid=69c2280d-9883-47db-99f2-c073a6babae6","ios":"levelo://app?vid=69c2280d-9883-47db-99f2-c073a6babae6"},"vehicle_type_id":"4","last_reported":1751749791,"current_range_meters":9600,"station_id":"","pricing_plan_id":"cebpf4jnsgd1na2vs0mg"},{"bike_id":"5a5fcf8f-78fc-4aa3-9c4d-16dcbf7a9f1c","system_id":"levelo_inurba_marseille","lat":43.29531,"lon":5.38553,"is_reserved":false,"is_disabled":false,"rental_uris":{"android":"levelo://app?vid=5a5fcf8f-78fc-4aa3-9c4d-16dcbf7a9f1c","ios":"levelo://app?vid=5a5fcf8f-78fc-4aa3-9c4d-16dcbf7a9f1c"},"vehicle_type_id":"4","last_reported":1751749791,"current_range_meters":9600,"station_id":"ce4bgih2rcd13ifvqba0","pricing_plan_id":"cebpf4jnsgd1na2vs0mg"},{"bike_id":"16d144eb-03d5-4a7a-bfca-9dbcae1f835f","system_id":"levelo_inurba_marseille","lat":43.31176,"lon":5.38714,"is_reserved":false,"is_disabled":false,"rental_uris":{"android":"levelo://app?vid=16d144eb-03d5-4a7a-bfca-9dbcae1f835f","ios":"levelo://app?vid=16d144eb-03d5-4a7a-bfca-9dbcae1f835f"},"vehicle_type_id":"4","last_reported":1751749791,"current_range_meters":9600,"station_id":"ce4bgv12rcd13ifvqcp0","pricing_plan_id":"cebpf4jnsgd1na2vs0mg"},{"bike_id":"4db45513-e520-4598-82fa-5809d80d4f3d","system_id":"levelo_inurba_marseille","lat":43.28101,"lon":5.3548,"is_reserved":false,"is_disabled":false,"rental_uris":{"android":"levelo://app?vid=4db45513-e520-4598-82fa-5809d80d4f3d","ios":"levelo://app?vid=4db45513-e520-4598-82fa-5809d80d4f3d"},"vehicle_type_id":"4","last_reported":1751749791,"current_range_meters":10000,"station_id":"","pricing_plan_id":"cebpf4jnsgd1na2vs0mg"},{"bike_id":"6ee80a1f-98d1-4c55-9b20-e8f1bed52cbc","system_id":"levelo_inurba_marseille","lat":43.25486,"lon":5.37658,"is_reserved":false,"is_disabled":false,"rental_uris":{"android":"levelo://app?vid=6ee80a1f-98d1-4c55-9b20-e8f1bed52cbc","ios":"levelo://app?vid=6ee80a1f-98d1-4c55-9b20-e8f1bed52cbc"},"vehicle_type_id":"4","last_reported":1751749791,"current_range_meters":10000,"station_id":"","pricing_plan_id":"cebpf4jnsgd1na2vs0mg"},{"bike_id":"1e04b9e2-27c6-4b30-b902-6c81e18716e2","system_id":"levelo_inurba_marseille","lat":43.31183,"lon":5.37748,"is_reserved":false,"is_disabled":false,"rental_uris":{"android":"levelo://app?vid=1e04b9e2-27c6-4b30-b902-6c81e18716e2","ios":"levelo://app?vid=1e04b9e2-27c6-4b30-b902-6c81e18716e2"},"vehicle_type_id":"4","last_reported":1751749791,"current_range_meters":10000,"station_id":"","pricing_plan_id":"cebpf4jnsgd1na2vs0mg"},{"bike_id":"b403a668-871b-4e65-b249-1e478fe87348","system_id":"levelo_inurba_marseille","lat":43.3094,"lon":5.39037,"is_reserved":false,"is_disabled":false,"rental_uris":{"android":"levelo://app?vid=b403a668-871b-4e65-b249-1e478fe87348","ios":"levelo://app?vid=b403a668-871b-4e65-b249-1e478fe87348"},"vehicle_type_id":"4","last_reported":1751749791,"current_range_meters":10000,"station_id":"ce4bgup2rcd13ifvqco0","pricing_plan_id":"cebpf4jnsgd1na2vs0mg"},{"bike_id":"c5ce8a99-7ca5-437d-aa9b-99f704f729fc","system_id":"levelo_inurba_marseille","lat":43.31175,"lon":5.38709,"is_reserved":false,"is_disabled":false,"rental_uris":{"android":"levelo://app?vid=c5ce8a99-7ca5-437d-aa9b-99f704f729fc","ios":"levelo://app?vid=c5ce8a99-7ca5-437d-aa9b-99f704f729fc"},"vehicle_type_id":"4","last_reported":1751749791,"current_range_meters":10000,"station_id":"ce4bgv12rcd13ifvqcp0","pricing_plan_id":"cebpf4jnsgd1na2vs0mg"},{"bike_id":"437f9c06-3126-47b5-b17a-65ff32a7c641","system_id":"levelo_inurba_marseille","lat":43.30633,"lon":5.40095,"is_reserved":false,"is_disabled":false,"rental_uris":{"android":"levelo://app?vid=437f9c06-3126-47b5-b17a-65ff32a7c641","ios":"levelo://app?vid=437f9c06-3126-47b5-b17a-65ff32a7c641"},"vehicle_type_id":"4","last_reported":1751749791,"current_range_meters":10000,"station_id":"ce4bh112rcd13ifvqda0","pricing_plan_id":"cebpf4jnsgd1na2vs0mg"},{"bike_id":"8eb283fe-44c7-4bb1-836e-cde6c55f1adf","system_id":"levelo_inurba_marseille","lat":43.30341,"lon":5.37393,"is_reserved":false,"is_disabled":false,"rental_uris":{"android":"levelo://app?vid=8eb283fe-44c7-4bb1-836e-cde6c55f1adf","ios":"levelo://app?vid=8eb283fe-44c7-4bb1-836e-cde6c55f1adf"},"vehicle_type_id":"4","last_reported":1751749791,"current_range_meters":10800,"station_id":"","pricing_plan_id":"cebpf4jnsgd1na2vs0mg"},{"bike_id":"6e3bd33b-753a-42da-933e-313e723b0ed0","system_id":"levelo_inurba_marseille","lat":43.30307,"lon":5.39213,"is_reserved":false,"is_disabled":false,"rental_uris":{"android":"levelo://app?vid=6e3bd33b-753a-42da-933e-313e723b0ed0","ios":"levelo://app?vid=6e3bd33b-753a-42da-933e-313e723b0ed0"},"vehicle_type_id":"4","last_reported":1751749791,"current_range_meters":10800,"station_id":"ce4bgkh2rcd13ifvqbk0","pricing_plan_id":"cebpf4jnsgd1na2vs0mg"},{"bike_id":"b6fc651c-afd3-404d-b515-fefd722d36fe","system_id":"levelo_inurba_marseille","lat":43.30947,"lon":5.39064,"is_reserved":false,"is_disabled":false,"rental_uris":{"android":"levelo://app?vid=b6fc651c-afd3-404d-b515-fefd722d36fe","ios":"levelo://app?vid=b6fc651c-afd3-404d-b515-fefd722d36fe"},"vehicle_type_id":"4","last_reported":1751749791,"current_range_meters":10800,"station_id":"ce4bgup2rcd13ifvqco0","pricing_plan_id":"cebpf4jnsgd1na2vs0mg"},{"bike_id":"6dc6ebca-5b26-4ce5-8c4f-b8e201944964","system_id":"levelo_inurba_marseille","lat":43.28573,"lon":5.39496,"is_reserved":false,"is_disabled":false,"rental_uris":{"android":"levelo://app?vid=6dc6ebca-5b26-4ce5-8c4f-b8e201944964","ios":"levelo://app?vid=6dc6ebca-5b26-4ce5-8c4f-b8e201944964"},"vehicle_type_id":"4","last_reported":1751749791,"current_range_meters":10800,"station_id":"ce4bh292rcd13ifvqdg0","pricing_plan_id":"cebpf4jnsgd1na2vs0mg"},{"bike_id":"1f60eb49-49b4-4de7-8398-1976524eb9a4","system_id":"levelo_inurba_marseille","lat":43.28846,"lon":5.39314,"is_reserved":false,"is_disabled":false,"rental_uris":{"android":"levelo://app?vid=1f60eb49-49b4-4de7-8398-1976524eb9a4","ios":"levelo://app?vid=1f60eb49-49b4-4de7-8398-1976524eb9a4"},"vehicle_type_id":"4","last_reported":1751749791,"current_range_meters":10800,"station_id":"ce4bh2p2rcd13ifvqdi0","pricing_plan_id":"cebpf4jnsgd1na2vs0mg"},{"bike_id":"6cacebfc-fe25-4c47-a4be-036a1463ad57","system_id":"levelo_inurba_marseille","lat":43.273784,"lon":5.384913,"is_reserved":false,"is_disabled":false,"rental_uris":{"android":"levelo://app?vid=6cacebfc-fe25-4c47-a4be-036a1463ad57","ios":"levelo://app?vid=6cacebfc-fe25-4c47-a4be-036a1463ad57"},"vehicle_type_id":"4","last_reported":1751749791,"current_range_meters":10800,"station_id":"ce4bhg92rcd13ifvqf90","pricing_plan_id":"cebpf4jnsgd1na2vs0mg"},{"bike_id":"6957440d-f892-4ac4-88a7-ea5daafdfc5f","system_id":"levelo_inurba_marseille","lat":43.31171,"lon":5.38717,"is_reserved":false,"is_disabled":false,"rental_uris":{"android":"levelo://app?vid=6957440d-f892-4ac4-88a7-ea5daafdfc5f","ios":"levelo://app?vid=6957440d-f892-4ac4-88a7-ea5daafdfc5f"},"vehicle_type_id":"4","last_reported":1751749791,"current_range_meters":11200,"station_id":"ce4bgv12rcd13ifvqcp0","pricing_plan_id":"cebpf4jnsgd1na2vs0mg"},{"bike_id":"daeee1e5-3b93-44da-8e47-7b24df6d544e","system_id":"levelo_inurba_marseille","lat":43.29992,"lon":5.37354,"is_reserved":false,"is_disabled":false,"rental_uris":{"android":"levelo://app?vid=daeee1e5-3b93-44da-8e47-7b24df6d544e","ios":"levelo://app?vid=daeee1e5-3b93-44da-8e47-7b24df6d544e"},"vehicle_type_id":"4","last_reported":1751749791,"current_range_meters":11600,"station_id":"","pricing_plan_id":"cebpf4jnsgd1na2vs0mg"},{"bike_id":"b26f4b81-8ee5-4928-a4f7-32e415148079","system_id":"levelo_inurba_marseille","lat":43.28421,"lon":5.39201,"is_reserved":false,"is_disabled":false,"rental_uris":{"android":"levelo://app?vid=b26f4b81-8ee5-4928-a4f7-32e415148079","ios":"levelo://app?vid=b26f4b81-8ee5-4928-a4f7-32e415148079"},"vehicle_type_id":"4","last_reported":1751749791,"current_range_meters":11600,"station_id":"ce4bhoh2rcd13ifvqh5g","pricing_plan_id":"cebpf4jnsgd1na2vs0mg"},{"bike_id":"b1d40197-e49c-4962-8cd8-0babe05d31a6","system_id":"levelo_inurba_marseille","lat":43.21258,"lon":5.35265,"is_reserved":false,"is_disabled":false,"rental_uris":{"android":"levelo://app?vid=b1d40197-e49c-4962-8cd8-0babe05d31a6","ios":"levelo://app?vid=b1d40197-e49c-4962-8cd8-0babe05d31a6"},"vehicle_type_id":"4","last_reported":1751749791,"current_range_meters":12000,"station_id":"","pricing_plan_id":"cebpf4jnsgd1na2vs0mg"},{"bike_id":"c8d54838-4cbf-4bae-bd38-eee89ae6662f","system_id":"levelo_inurba_marseille","lat":43.295324,"lon":5.38551,"is_reserved":false,"is_disabled":false,"rental_uris":{"android":"levelo://app?vid=c8d54838-4cbf-4bae-bd38-eee89ae6662f","ios":"levelo://app?vid=c8d54838-4cbf-4bae-bd38-eee89ae6662f"},"vehicle_type_id":"4","last_reported":1751749791,"current_range_meters":12000,"station_id":"ce4bgih2rcd13ifvqba0","pricing_plan_id":"cebpf4jnsgd1na2vs0mg"},{"bike_id":"d355e39c-c208-44cd-997d-fa48db00607b","system_id":"levelo_inurba_marseille","lat":43.29619,"lon":5.38116,"is_reserved":false,"is_disabled":false,"rental_uris":{"android":"levelo://app?vid=d355e39c-c208-44cd-997d-fa48db00607b","ios":"levelo://app?vid=d355e39c-c208-44cd-997d-fa48db00607b"},"vehicle_type_id":"4","last_reported":1751749791,"current_range_meters":12000,"station_id":"ce4bgl12rcd13ifvqbo0","pricing_plan_id":"cebpf4jnsgd1na2vs0mg"},{"bike_id":"dbcb8a3b-8ed1-42a1-adb9-e44b9106b840","system_id":"levelo_inurba_marseille","lat":43.30961,"lon":5.39048,"is_reserved":false,"is_disabled":false,"rental_uris":{"android":"levelo://app?vid=dbcb8a3b-8ed1-42a1-adb9-e44b9106b840","ios":"levelo://app?vid=dbcb8a3b-8ed1-42a1-adb9-e44b9106b840"},"vehicle_type_id":"4","last_reported":1751749791,"current_range_meters":12000,"station_id":"ce4bgup2rcd13ifvqco0","pricing_plan_id":"cebpf4jnsgd1na2vs0mg"},{"bike_id":"a98465ce-a7bf-4e08-8461-c5eb2ef3fbd6","system_id":"levelo_inurba_marseille","lat":43.30956,"lon":5.39041,"is_reserved":false,"is_disabled":false,"rental_uris":{"android":"levelo://app?vid=a98465ce-a7bf-4e08-8461-c5eb2ef3fbd6","ios":"levelo://app?vid=a98465ce-a7bf-4e08-8461-c5eb2ef3fbd6"},"vehicle_type_id":"4","last_reported":1751749791,"current_range_meters":12400,"station_id":"ce4bgup2rcd13ifvqco0","pricing_plan_id":"cebpf4jnsgd1na2vs0mg"},{"bike_id":"371a9b20-6caa-4e01-b9fc-62e70cf886ee","system_id":"levelo_inurba_marseille","lat":43.31175,"lon":5.38714,"is_reserved":false,"is_disabled":false,"rental_uris":{"android":"levelo://app?vid=371a9b20-6caa-4e01-b9fc-62e70cf886ee","ios":"levelo://app?vid=371a9b20-6caa-4e01-b9fc-62e70cf886ee"},"vehicle_type_id":"4","last_reported":1751749791,"current_range_meters":12400,"station_id":"ce4bgv12rcd13ifvqcp0","pricing_plan_id":"cebpf4jnsgd1na2vs0mg"},{"bike_id":"19bb5868-904d-4996-8f5c-431ffaa80219","system_id":"levelo_inurba_marseille","lat":43.30431,"lon":5.39747,"is_reserved":false,"is_disabled":false,"rental_uris":{"android":"levelo://app?vid=19bb5868-904d-4996-8f5c-431ffaa80219","ios":"levelo://app?vid=19bb5868-904d-4996-8f5c-431ffaa80219"},"vehicle_type_id":"4","last_reported":1751749791,"current_range_meters":12400,"station_id":"ce4bh092rcd13ifvqd20","pricing_plan_id":"cebpf4jnsgd1na2vs0mg"},{"bike_id":"10b0d87e-5b9b-4afb-ad19-1aec8c37fa93","system_id":"levelo_inurba_marseille","lat":43.24809,"lon":5.37454,"is_reserved":false,"is_disabled":false,"rental_uris":{"android":"levelo://app?vid=10b0d87e-5b9b-4afb-ad19-1aec8c37fa93","ios":"levelo://app?vid=10b0d87e-5b9b-4afb-ad19-1aec8c37fa93"},"vehicle_type_id":"4","last_reported":1751749791,"current_range_meters":12400,"station_id":"ce4bhgh2rcd13ifvqfb0","pricing_plan_id":"cebpf4jnsgd1na2vs0mg"},{"bike_id":"d84a486e-8b9f-45f3-a0fd-543abb0af312","system_id":"levelo_inurba_marseille","lat":43.24661,"lon":5.38168,"is_reserved":false,"is_disabled":false,"rental_uris":{"android":"levelo://app?vid=d84a486e-8b9f-45f3-a0fd-543abb0af312","ios":"levelo://app?vid=d84a486e-8b9f-45f3-a0fd-543abb0af312"},"vehicle_type_id":"4","last_reported":1751749791,"current_range_meters":12400,"station_id":"ce4bhih2rcd13ifvqfr0","pricing_plan_id":"cebpf4jnsgd1na2vs0mg"},{"bike_id":"d1a72572-4347-4d66-b9ca-75ff8f8b0210","system_id":"levelo_inurba_marseille","lat":43.31998,"lon":5.3815,"is_reserved":false,"is_disabled":false,"rental_uris":{"android":"levelo://app?vid=d1a72572-4347-4d66-b9ca-75ff8f8b0210","ios":"levelo://app?vid=d1a72572-4347-4d66-b9ca-75ff8f8b0210"},"vehicle_type_id":"4","last_reported":1751749791,"current_range_meters":12400,"station_id":"ce4bhr12rcd13ifvqhpg","pricing_plan_id":"cebpf4jnsgd1na2vs0mg"},{"bike_id":"86c92dc1-b4da-49d9-acb8-ba390f939865","system_id":"levelo_inurba_marseille","lat":43.32992,"lon":5.39252,"is_reserved":false,"is_disabled":false,"rental_uris":{"android":"levelo://app?vid=86c92dc1-b4da-49d9-acb8-ba390f939865","ios":"levelo://app?vid=86c92dc1-b4da-49d9-acb8-ba390f939865"},"vehicle_type_id":"4","last_reported":1751749791,"current_range_meters":12800,"station_id":"","pricing_plan_id":"cebpf4jnsgd1na2vs0mg"},{"bike_id":"08b0a964-1ce0-47f7-8730-238247b71e4d","system_id":"levelo_inurba_marseille","lat":43.29419,"lon":5.38613,"is_reserved":false,"is_disabled":false,"rental_uris":{"android":"levelo://app?vid=08b0a964-1ce0-47f7-8730-238247b71e4d","ios":"levelo://app?vid=08b0a964-1ce0-47f7-8730-238247b71e4d"},"vehicle_type_id":"4","last_reported":1751749791,"current_range_meters":12800,"station_id":"ce4bh2h2rcd13ifvqdh0","pricing_plan_id":"cebpf4jnsgd1na2vs0mg"},{"bike_id":"c4ff648a-f214-4632-8118-32b7fd04476a","system_id":"levelo_inurba_marseille","lat":43.31533,"lon":5.38028,"is_reserved":false,"is_disabled":false,"rental_uris":{"android":"levelo://app?vid=c4ff648a-f214-4632-8118-32b7fd04476a","ios":"levelo://app?vid=c4ff648a-f214-4632-8118-32b7fd04476a"},"vehicle_type_id":"4","last_reported":1751749791,"current_range_meters":12800,"station_id":"ce4bhsp2rcd13ifvqi50","pricing_plan_id":"cebpf4jnsgd1na2vs0mg"},{"bike_id":"8b01cf32-54e2-4fd2-a618-94fbfc8c3130","system_id":"levelo_inurba_marseille","lat":43.23184,"lon":5.3554,"is_reserved":false,"is_disabled":false,"rental_uris":{"android":"levelo://app?vid=8b01cf32-54e2-4fd2-a618-94fbfc8c3130","ios":"levelo://app?vid=8b01cf32-54e2-4fd2-a618-94fbfc8c3130"},"vehicle_type_id":"4","last_reported":1751749791,"current_range_meters":12800,"station_id":"ce4bhu92rcd13ifvqi70","pricing_plan_id":"cebpf4jnsgd1na2vs0mg"},{"bike_id":"36f9c75b-5d6c-412a-b395-ad8ffc2d771a","system_id":"levelo_inurba_marseille","lat":43.26022,"lon":5.41747,"is_reserved":false,"is_disabled":false,"rental_uris":{"android":"levelo://app?vid=36f9c75b-5d6c-412a-b395-ad8ffc2d771a","ios":"levelo://app?vid=36f9c75b-5d6c-412a-b395-ad8ffc2d771a"},"vehicle_type_id":"4","last_reported":1751749791,"current_range_meters":13600,"station_id":"","pricing_plan_id":"cebpf4jnsgd1na2vs0mg"},{"bike_id":"adf1d38d-1f03-40cf-9b57-0a8f15f62b2d","system_id":"levelo_inurba_marseille","lat":43.32967,"lon":5.36368,"is_reserved":false,"is_disabled":false,"rental_uris":{"android":"levelo://app?vid=adf1d38d-1f03-40cf-9b57-0a8f15f62b2d","ios":"levelo://app?vid=adf1d38d-1f03-40cf-9b57-0a8f15f62b2d"},"vehicle_type_id":"4","last_reported":1751749791,"current_range_meters":13600,"station_id":"","pricing_plan_id":"cebpf4jnsgd1na2vs0mg"},{"bike_id":"6245befa-99c2-4c59-a7ec-9684f680e09d","system_id":"levelo_inurba_marseille","lat":43.31171,"lon":5.38717,"is_reserved":false,"is_disabled":false,"rental_uris":{"android":"levelo://app?vid=6245befa-99c2-4c59-a7ec-9684f680e09d","ios":"levelo://app?vid=6245befa-99c2-4c59-a7ec-9684f680e09d"},"vehicle_type_id":"4","last_reported":1751749791,"current_range_meters":13600,"station_id":"","pricing_plan_id":"cebpf4jnsgd1na2vs0mg"},{"bike_id":"ecb19588-8bc8-47b7-a3ae-bfbaea42e00c","system_id":"levelo_inurba_marseille","lat":43.30213,"lon":5.39474,"is_reserved":false,"is_disabled":false,"rental_uris":{"android":"levelo://app?vid=ecb19588-8bc8-47b7-a3ae-bfbaea42e00c","ios":"levelo://app?vid=ecb19588-8bc8-47b7-a3ae-bfbaea42e00c"},"vehicle_type_id":"4","last_reported":1751749791,"current_range_meters":13600,"station_id":"ce4bh0p2rcd13ifvqd70","pricing_plan_id":"cebpf4jnsgd1na2vs0mg"},{"bike_id":"7fe374f1-0228-4a99-8b43-5631a459b039","system_id":"levelo_inurba_marseille","lat":43.289398,"lon":5.36643,"is_reserved":false,"is_disabled":false,"rental_uris":{"android":"levelo://app?vid=7fe374f1-0228-4a99-8b43-5631a459b039","ios":"levelo://app?vid=7fe374f1-0228-4a99-8b43-5631a459b039"},"vehicle_type_id":"4","last_reported":1751749791,"current_range_meters":13600,"station_id":"ce4bhap2rcd13ifvqek0","pricing_plan_id":"cebpf4jnsgd1na2vs0mg"},{"bike_id":"97daa956-99df-4e77-b32c-7cab3c866920","system_id":"levelo_inurba_marseille","lat":43.27379,"lon":5.36257,"is_reserved":false,"is_disabled":false,"rental_uris":{"android":"levelo://app?vid=97daa956-99df-4e77-b32c-7cab3c866920","ios":"levelo://app?vid=97daa956-99df-4e77-b32c-7cab3c866920"},"vehicle_type_id":"4","last_reported":1751749791,"current_range_meters":13600,"station_id":"ce4bhbh2rcd13ifvqeo0","pricing_plan_id":"cebpf4jnsgd1na2vs0mg"},{"bike_id":"92c60af5-f87a-45a7-8b97-2992b36a2c0c","system_id":"levelo_inurba_marseille","lat":43.3188,"lon":5.40736,"is_reserved":false,"is_disabled":false,"rental_uris":{"android":"levelo://app?vid=92c60af5-f87a-45a7-8b97-2992b36a2c0c","ios":"levelo://app?vid=92c60af5-f87a-45a7-8b97-2992b36a2c0c"},"vehicle_type_id":"4","last_reported":1751749791,"current_range_meters":13600,"station_id":"ce4bhq12rcd13ifvqhig","pricing_plan_id":"cebpf4jnsgd1na2vs0mg"},{"bike_id":"89b4eca9-e526-4b41-be44-89c8952c28b2","system_id":"levelo_inurba_marseille","lat":43.30943,"lon":5.39026,"is_reserved":false,"is_disabled":false,"rental_uris":{"android":"levelo://app?vid=89b4eca9-e526-4b41-be44-89c8952c28b2","ios":"levelo://app?vid=89b4eca9-e526-4b41-be44-89c8952c28b2"},"vehicle_type_id":"4","last_reported":1751749791,"current_range_meters":14000,"station_id":"ce4bgup2rcd13ifvqco0","pricing_plan_id":"cebpf4jnsgd1na2vs0mg"},{"bike_id":"637fcc3b-c74d-473a-96c1-57ab4bb52ed7","system_id":"levelo_inurba_marseille","lat":43.25904,"lon":5.40928,"is_reserved":false,"is_disabled":false,"rental_uris":{"android":"levelo://app?vid=637fcc3b-c74d-473a-96c1-57ab4bb52ed7","ios":"levelo://app?vid=637fcc3b-c74d-473a-96c1-57ab4bb52ed7"},"vehicle_type_id":"4","last_reported":1751749791,"current_range_meters":14000,"station_id":"ce4bhm92rcd13ifvqglg","pricing_plan_id":"cebpf4jnsgd1na2vs0mg"},{"bike_id":"00d046c1-c97a-4cbf-9104-df0b8a144efc","system_id":"levelo_inurba_marseille","lat":43.27497,"lon":5.42457,"is_reserved":false,"is_disabled":false,"rental_uris":{"android":"levelo://app?vid=00d046c1-c97a-4cbf-9104-df0b8a144efc","ios":"levelo://app?vid=00d046c1-c97a-4cbf-9104-df0b8a144efc"},"vehicle_type_id":"4","last_reported":1751749791,"current_range_meters":14000,"station_id":"ce4bhn92rcd13ifvqgrg","pricing_plan_id":"cebpf4jnsgd1na2vs0mg"},{"bike_id":"fe8ee84c-fdfc-40aa-a1c2-6e36409c0740","system_id":"levelo_inurba_marseille","lat":43.26793,"lon":5.39053,"is_reserved":false,"is_disabled":false,"rental_uris":{"android":"levelo://app?vid=fe8ee84c-fdfc-40aa-a1c2-6e36409c0740","ios":"levelo://app?vid=fe8ee84c-fdfc-40aa-a1c2-6e36409c0740"},"vehicle_type_id":"4","last_reported":1751749791,"current_range_meters":14400,"station_id":"","pricing_plan_id":"cebpf4jnsgd1na2vs0mg"},{"bike_id":"4d8942c7-0e64-4b67-b6b6-d1a5c3d08cfb","system_id":"levelo_inurba_marseille","lat":43.224823,"lon":5.347908,"is_reserved":false,"is_disabled":false,"rental_uris":{"android":"levelo://app?vid=4d8942c7-0e64-4b67-b6b6-d1a5c3d08cfb","ios":"levelo://app?vid=4d8942c7-0e64-4b67-b6b6-d1a5c3d08cfb"},"vehicle_type_id":"4","last_reported":1751749791,"current_range_meters":14400,"station_id":"","pricing_plan_id":"cebpf4jnsgd1na2vs0mg"},{"bike_id":"d712008c-4f25-4a2b-bf71-9d59dbc29da6","system_id":"levelo_inurba_marseille","lat":43.2573,"lon":5.41107,"is_reserved":false,"is_disabled":false,"rental_uris":{"android":"levelo://app?vid=d712008c-4f25-4a2b-bf71-9d59dbc29da6","ios":"levelo://app?vid=d712008c-4f25-4a2b-bf71-9d59dbc29da6"},"vehicle_type_id":"4","last_reported":1751749791,"current_range_meters":14400,"station_id":"","pricing_plan_id":"cebpf4jnsgd1na2vs0mg"},{"bike_id":"e55cea4f-26d4-4f9c-bf7a-025fd9a4a22d","system_id":"levelo_inurba_marseille","lat":43.23441,"lon":5.35925,"is_reserved":false,"is_disabled":false,"rental_uris":{"android":"levelo://app?vid=e55cea4f-26d4-4f9c-bf7a-025fd9a4a22d","ios":"levelo://app?vid=e55cea4f-26d4-4f9c-bf7a-025fd9a4a22d"},"vehicle_type_id":"4","last_reported":1751749791,"current_range_meters":14400,"station_id":"","pricing_plan_id":"cebpf4jnsgd1na2vs0mg"},{"bike_id":"99e1b8e7-1e6d-44a4-90b9-75915fdd90b9","system_id":"levelo_inurba_marseille","lat":43.30941,"lon":5.39053,"is_reserved":false,"is_disabled":false,"rental_uris":{"android":"levelo://app?vid=99e1b8e7-1e6d-44a4-90b9-75915fdd90b9","ios":"levelo://app?vid=99e1b8e7-1e6d-44a4-90b9-75915fdd90b9"},"vehicle_type_id":"4","last_reported":1751749791,"current_range_meters":14400,"station_id":"ce4bgup2rcd13ifvqco0","pricing_plan_id":"cebpf4jnsgd1na2vs0mg"},{"bike_id":"af29a437-e9b5-4281-9ba4-b9ccb4fdae7f","system_id":"levelo_inurba_marseille","lat":43.31174,"lon":5.38718,"is_reserved":false,"is_disabled":false,"rental_uris":{"android":"levelo://app?vid=af29a437-e9b5-4281-9ba4-b9ccb4fdae7f","ios":"levelo://app?vid=af29a437-e9b5-4281-9ba4-b9ccb4fdae7f"},"vehicle_type_id":"4","last_reported":1751749791,"current_range_meters":14400,"station_id":"ce4bgv12rcd13ifvqcp0","pricing_plan_id":"cebpf4jnsgd1na2vs0mg"},{"bike_id":"c0f33a4b-2a86-4b3f-8c28-0f7c687f9052","system_id":"levelo_inurba_marseille","lat":43.311627,"lon":5.38711,"is_reserved":false,"is_disabled":false,"rental_uris":{"android":"levelo://app?vid=c0f33a4b-2a86-4b3f-8c28-0f7c687f9052","ios":"levelo://app?vid=c0f33a4b-2a86-4b3f-8c28-0f7c687f9052"},"vehicle_type_id":"4","last_reported":1751749791,"current_range_meters":14400,"station_id":"ce4bgv12rcd13ifvqcp0","pricing_plan_id":"cebpf4jnsgd1na2vs0mg"},{"bike_id":"4b65bac1-3dcb-4187-a3e9-2736a93c45d0","system_id":"levelo_inurba_marseille","lat":43.30125,"lon":5.39854,"is_reserved":false,"is_disabled":false,"rental_uris":{"android":"levelo://app?vid=4b65bac1-3dcb-4187-a3e9-2736a93c45d0","ios":"levelo://app?vid=4b65bac1-3dcb-4187-a3e9-2736a93c45d0"},"vehicle_type_id":"4","last_reported":1751749791,"current_range_meters":14400,"station_id":"ce4bh0h2rcd13ifvqd40","pricing_plan_id":"cebpf4jnsgd1na2vs0mg"},{"bike_id":"f23d3307-7abe-41d9-a288-0e9cd15dcaa7","system_id":"levelo_inurba_marseille","lat":43.28848,"lon":5.39304,"is_reserved":false,"is_disabled":false,"rental_uris":{"android":"levelo://app?vid=f23d3307-7abe-41d9-a288-0e9cd15dcaa7","ios":"levelo://app?vid=f23d3307-7abe-41d9-a288-0e9cd15dcaa7"},"vehicle_type_id":"4","last_reported":1751749791,"current_range_meters":14400,"station_id":"ce4bh2p2rcd13ifvqdi0","pricing_plan_id":"cebpf4jnsgd1na2vs0mg"},{"bike_id":"6059c830-af5a-413e-a02b-0b02c64df85a","system_id":"levelo_inurba_marseille","lat":43.292568,"lon":5.384373,"is_reserved":false,"is_disabled":false,"rental_uris":{"android":"levelo://app?vid=6059c830-af5a-413e-a02b-0b02c64df85a","ios":"levelo://app?vid=6059c830-af5a-413e-a02b-0b02c64df85a"},"vehicle_type_id":"4","last_reported":1751749791,"current_range_meters":14400,"station_id":"ce4bh692rcd13ifvqea0","pricing_plan_id":"cebpf4jnsgd1na2vs0mg"},{"bike_id":"3bcc9505-e8a6-46c7-aee3-c0aac566b088","system_id":"levelo_inurba_marseille","lat":43.27899,"lon":5.38005,"is_reserved":false,"is_disabled":false,"rental_uris":{"android":"levelo://app?vid=3bcc9505-e8a6-46c7-aee3-c0aac566b088","ios":"levelo://app?vid=3bcc9505-e8a6-46c7-aee3-c0aac566b088"},"vehicle_type_id":"4","last_reported":1751749791,"current_range_meters":14400,"station_id":"ce4bhf92rcd13ifvqf50","pricing_plan_id":"cebpf4jnsgd1na2vs0mg"},{"bike_id":"b98ba2c5-3d18-4e0d-bb68-13f32134f56e","system_id":"levelo_inurba_marseille","lat":43.25826,"lon":5.39441,"is_reserved":false,"is_disabled":false,"rental_uris":{"android":"levelo://app?vid=b98ba2c5-3d18-4e0d-bb68-13f32134f56e","ios":"levelo://app?vid=b98ba2c5-3d18-4e0d-bb68-13f32134f56e"},"vehicle_type_id":"4","last_reported":1751749791,"current_range_meters":14400,"station_id":"ce4bhip2rcd13ifvqft0","pricing_plan_id":"cebpf4jnsgd1na2vs0mg"},{"bike_id":"1133fa96-960d-45e6-9328-aa458deeee07","system_id":"levelo_inurba_marseille","lat":43.26189,"lon":5.40473,"is_reserved":false,"is_disabled":false,"rental_uris":{"android":"levelo://app?vid=1133fa96-960d-45e6-9328-aa458deeee07","ios":"levelo://app?vid=1133fa96-960d-45e6-9328-aa458deeee07"},"vehicle_type_id":"4","last_reported":1751749791,"current_range_meters":14400,"station_id":"ce4bhmh2rcd13ifvqgmg","pricing_plan_id":"cebpf4jnsgd1na2vs0mg"},{"bike_id":"f24de232-65c7-4be7-9e98-e4a9a828fd58","system_id":"levelo_inurba_marseille","lat":43.24265,"lon":5.38843,"is_reserved":false,"is_disabled":false,"rental_uris":{"android":"levelo://app?vid=f24de232-65c7-4be7-9e98-e4a9a828fd58","ios":"levelo://app?vid=f24de232-65c7-4be7-9e98-e4a9a828fd58"},"vehicle_type_id":"4","last_reported":1751749791,"current_range_meters":14800,"station_id":"","pricing_plan_id":"cebpf4jnsgd1na2vs0mg"},{"bike_id":"883a31b2-32d0-40ae-abfb-0a8cad9f140f","system_id":"levelo_inurba_marseille","lat":43.309354,"lon":5.390348,"is_reserved":false,"is_disabled":false,"rental_uris":{"android":"levelo://app?vid=883a31b2-32d0-40ae-abfb-0a8cad9f140f","ios":"levelo://app?vid=883a31b2-32d0-40ae-abfb-0a8cad9f140f"},"vehicle_type_id":"4","last_reported":1751749791,"current_range_meters":14800,"station_id":"","pricing_plan_id":"cebpf4jnsgd1na2vs0mg"},{"bike_id":"7f0c1e3c-145d-459e-b135-55934e2c45cf","system_id":"levelo_inurba_marseille","lat":43.28121,"lon":5.42648,"is_reserved":false,"is_disabled":false,"rental_uris":{"android":"levelo://app?vid=7f0c1e3c-145d-459e-b135-55934e2c45cf","ios":"levelo://app?vid=7f0c1e3c-145d-459e-b135-55934e2c45cf"},"vehicle_type_id":"4","last_reported":1751749791,"current_range_meters":14800,"station_id":"ce4bhnh2rcd13ifvqgug","pricing_plan_id":"cebpf4jnsgd1na2vs0mg"},{"bike_id":"1bdb02c3-7bbc-4c30-abd2-cd7dee2e633d","system_id":"levelo_inurba_marseille","lat":43.26935,"lon":5.40259,"is_reserved":false,"is_disabled":false,"rental_uris":{"android":"levelo://app?vid=1bdb02c3-7bbc-4c30-abd2-cd7dee2e633d","ios":"levelo://app?vid=1bdb02c3-7bbc-4c30-abd2-cd7dee2e633d"},"vehicle_type_id":"4","last_reported":1751749791,"current_range_meters":14800,"station_id":"cjm6bp8fraef2m0cb0m0","pricing_plan_id":"cebpf4jnsgd1na2vs0mg"},{"bike_id":"38f7fbb9-ddf9-4adc-90d7-9ce9e9c6f27c","system_id":"levelo_inurba_marseille","lat":43.282339,"lon":5.385703,"is_reserved":false,"is_disabled":false,"rental_uris":{"android":"levelo://app?vid=38f7fbb9-ddf9-4adc-90d7-9ce9e9c6f27c","ios":"levelo://app?vid=38f7fbb9-ddf9-4adc-90d7-9ce9e9c6f27c"},"vehicle_type_id":"4","last_reported":1751749791,"current_range_meters":15200,"station_id":"","pricing_plan_id":"cebpf4jnsgd1na2vs0mg"},{"bike_id":"3f7401d9-d29b-4d8f-a46e-088d196d4511","system_id":"levelo_inurba_marseille","lat":43.29491,"lon":5.38553,"is_reserved":false,"is_disabled":false,"rental_uris":{"android":"levelo://app?vid=3f7401d9-d29b-4d8f-a46e-088d196d4511","ios":"levelo://app?vid=3f7401d9-d29b-4d8f-a46e-088d196d4511"},"vehicle_type_id":"4","last_reported":1751749791,"current_range_meters":15200,"station_id":"ce4bgih2rcd13ifvqba0","pricing_plan_id":"cebpf4jnsgd1na2vs0mg"},{"bike_id":"9cf0249f-eeef-4d62-bbc1-75b39c7cd182","system_id":"levelo_inurba_marseille","lat":43.29533,"lon":5.38546,"is_reserved":false,"is_disabled":false,"rental_uris":{"android":"levelo://app?vid=9cf0249f-eeef-4d62-bbc1-75b39c7cd182","ios":"levelo://app?vid=9cf0249f-eeef-4d62-bbc1-75b39c7cd182"},"vehicle_type_id":"4","last_reported":1751749791,"current_range_meters":15200,"station_id":"ce4bgih2rcd13ifvqba0","pricing_plan_id":"cebpf4jnsgd1na2vs0mg"},{"bike_id":"18009a16-38ab-4fc4-8cd6-30bc90d13be8","system_id":"levelo_inurba_marseille","lat":43.26554,"lon":5.37285,"is_reserved":false,"is_disabled":false,"rental_uris":{"android":"levelo://app?vid=18009a16-38ab-4fc4-8cd6-30bc90d13be8","ios":"levelo://app?vid=18009a16-38ab-4fc4-8cd6-30bc90d13be8"},"vehicle_type_id":"4","last_reported":1751749791,"current_range_meters":15200,"station_id":"ce4bhg12rcd13ifvqf70","pricing_plan_id":"cebpf4jnsgd1na2vs0mg"},{"bike_id":"c2605c04-ed62-4cd1-a921-b67e24362106","system_id":"levelo_inurba_marseille","lat":43.31368,"lon":5.38506,"is_reserved":false,"is_disabled":false,"rental_uris":{"android":"levelo://app?vid=c2605c04-ed62-4cd1-a921-b67e24362106","ios":"levelo://app?vid=c2605c04-ed62-4cd1-a921-b67e24362106"},"vehicle_type_id":"4","last_reported":1751749791,"current_range_meters":16000,"station_id":"ce4bgt92rcd13ifvqcf0","pricing_plan_id":"cebpf4jnsgd1na2vs0mg"},{"bike_id":"bba003aa-2c86-4d35-8454-122e7bddc421","system_id":"levelo_inurba_marseille","lat":43.3095,"lon":5.39061,"is_reserved":false,"is_disabled":false,"rental_uris":{"android":"levelo://app?vid=bba003aa-2c86-4d35-8454-122e7bddc421","ios":"levelo://app?vid=bba003aa-2c86-4d35-8454-122e7bddc421"},"vehicle_type_id":"4","last_reported":1751749791,"current_range_meters":16000,"station_id":"ce4bgup2rcd13ifvqco0","pricing_plan_id":"cebpf4jnsgd1na2vs0mg"},{"bike_id":"1e18f1cb-655d-478c-b26b-b01b2442181f","system_id":"levelo_inurba_marseille","lat":43.30957,"lon":5.39027,"is_reserved":false,"is_disabled":false,"rental_uris":{"android":"levelo://app?vid=1e18f1cb-655d-478c-b26b-b01b2442181f","ios":"levelo://app?vid=1e18f1cb-655d-478c-b26b-b01b2442181f"},"vehicle_type_id":"4","last_reported":1751749791,"current_range_meters":16000,"station_id":"ce4bgup2rcd13ifvqco0","pricing_plan_id":"cebpf4jnsgd1na2vs0mg"},{"bike_id":"affd2cdd-8e3c-4786-9921-d4a56a34bdc4","system_id":"levelo_inurba_marseille","lat":43.31162,"lon":5.38741,"is_reserved":false,"is_disabled":false,"rental_uris":{"android":"levelo://app?vid=affd2cdd-8e3c-4786-9921-d4a56a34bdc4","ios":"levelo://app?vid=affd2cdd-8e3c-4786-9921-d4a56a34bdc4"},"vehicle_type_id":"4","last_reported":1751749791,"current_range_meters":16000,"station_id":"ce4bgv12rcd13ifvqcp0","pricing_plan_id":"cebpf4jnsgd1na2vs0mg"},{"bike_id":"0db738ae-2fd3-4baa-bcf5-7888526dc098","system_id":"levelo_inurba_marseille","lat":43.30929,"lon":5.40172,"is_reserved":false,"is_disabled":false,"rental_uris":{"android":"levelo://app?vid=0db738ae-2fd3-4baa-bcf5-7888526dc098","ios":"levelo://app?vid=0db738ae-2fd3-4baa-bcf5-7888526dc098"},"vehicle_type_id":"4","last_reported":1751749791,"current_range_meters":16000,"station_id":"ce4bgvp2rcd13ifvqct0","pricing_plan_id":"cebpf4jnsgd1na2vs0mg"},{"bike_id":"2cf2f7e6-fdee-46ee-9a63-b754d7e424bf","system_id":"levelo_inurba_marseille","lat":43.29189,"lon":5.39302,"is_reserved":false,"is_disabled":false,"rental_uris":{"android":"levelo://app?vid=2cf2f7e6-fdee-46ee-9a63-b754d7e424bf","ios":"levelo://app?vid=2cf2f7e6-fdee-46ee-9a63-b754d7e424bf"},"vehicle_type_id":"4","last_reported":1751749791,"current_range_meters":16000,"station_id":"ce4bh192rcd13ifvqdd0","pricing_plan_id":"cebpf4jnsgd1na2vs0mg"},{"bike_id":"2dfe9a6c-c017-4c3c-b211-38be4ceaca18","system_id":"levelo_inurba_marseille","lat":43.2509,"lon":5.39523,"is_reserved":false,"is_disabled":false,"rental_uris":{"android":"levelo://app?vid=2dfe9a6c-c017-4c3c-b211-38be4ceaca18","ios":"levelo://app?vid=2dfe9a6c-c017-4c3c-b211-38be4ceaca18"},"vehicle_type_id":"4","last_reported":1751749791,"current_range_meters":16000,"station_id":"ce4bhm12rcd13ifvqgkg","pricing_plan_id":"cebpf4jnsgd1na2vs0mg"},{"bike_id":"18e903c3-bd69-4cad-bc4b-fefd2f289489","system_id":"levelo_inurba_marseille","lat":43.2623,"lon":5.40451,"is_reserved":false,"is_disabled":false,"rental_uris":{"android":"levelo://app?vid=18e903c3-bd69-4cad-bc4b-fefd2f289489","ios":"levelo://app?vid=18e903c3-bd69-4cad-bc4b-fefd2f289489"},"vehicle_type_id":"4","last_reported":1751749791,"current_range_meters":16000,"station_id":"ce4bhmh2rcd13ifvqgmg","pricing_plan_id":"cebpf4jnsgd1na2vs0mg"},{"bike_id":"cb89440e-5507-479e-8f72-87930af17d8e","system_id":"levelo_inurba_marseille","lat":43.24176,"lon":5.39732,"is_reserved":false,"is_disabled":false,"rental_uris":{"android":"levelo://app?vid=cb89440e-5507-479e-8f72-87930af17d8e","ios":"levelo://app?vid=cb89440e-5507-479e-8f72-87930af17d8e"},"vehicle_type_id":"4","last_reported":1751749791,"current_range_meters":16000,"station_id":"ce4bhn12rcd13ifvqgpg","pricing_plan_id":"cebpf4jnsgd1na2vs0mg"},{"bike_id":"f4083786-8573-439f-9aac-f7840641a4f4","system_id":"levelo_inurba_marseille","lat":43.231873,"lon":5.399827,"is_reserved":false,"is_disabled":false,"rental_uris":{"android":"levelo://app?vid=f4083786-8573-439f-9aac-f7840641a4f4","ios":"levelo://app?vid=f4083786-8573-439f-9aac-f7840641a4f4"},"vehicle_type_id":"4","last_reported":1751749791,"current_range_meters":16000,"station_id":"ce4bhn12rcd13ifvqgqg","pricing_plan_id":"cebpf4jnsgd1na2vs0mg"},{"bike_id":"a7e5431d-e55e-43ec-a7c5-2f3ae3fec63d","system_id":"levelo_inurba_marseille","lat":43.29955,"lon":5.41318,"is_reserved":false,"is_disabled":false,"rental_uris":{"android":"levelo://app?vid=a7e5431d-e55e-43ec-a7c5-2f3ae3fec63d","ios":"levelo://app?vid=a7e5431d-e55e-43ec-a7c5-2f3ae3fec63d"},"vehicle_type_id":"4","last_reported":1751749791,"current_range_meters":16000,"station_id":"ce4bhp12rcd13ifvqh9g","pricing_plan_id":"cebpf4jnsgd1na2vs0mg"},{"bike_id":"e934df3a-55ad-4287-be0e-970eb81a614c","system_id":"levelo_inurba_marseille","lat":43.33724,"lon":5.39224,"is_reserved":false,"is_disabled":false,"rental_uris":{"android":"levelo://app?vid=e934df3a-55ad-4287-be0e-970eb81a614c","ios":"levelo://app?vid=e934df3a-55ad-4287-be0e-970eb81a614c"},"vehicle_type_id":"4","last_reported":1751749791,"current_range_meters":16000,"station_id":"ce4bhr92rcd13ifvqhsg","pricing_plan_id":"cebpf4jnsgd1na2vs0mg"},{"bike_id":"38855c64-4a55-4d3a-8da1-44a2b313158b","system_id":"levelo_inurba_marseille","lat":43.32358,"lon":5.36766,"is_reserved":false,"is_disabled":false,"rental_uris":{"android":"levelo://app?vid=38855c64-4a55-4d3a-8da1-44a2b313158b","ios":"levelo://app?vid=38855c64-4a55-4d3a-8da1-44a2b313158b"},"vehicle_type_id":"4","last_reported":1751749791,"current_range_meters":16000,"station_id":"ce4bhsh2rcd13ifvqi2g","pricing_plan_id":"cebpf4jnsgd1na2vs0mg"},{"bike_id":"076a3538-b670-4b2e-a73f-76f37fcc1bd5","system_id":"levelo_inurba_marseille","lat":43.2417,"lon":5.36399,"is_reserved":false,"is_disabled":false,"rental_uris":{"android":"levelo://app?vid=076a3538-b670-4b2e-a73f-76f37fcc1bd5","ios":"levelo://app?vid=076a3538-b670-4b2e-a73f-76f37fcc1bd5"},"vehicle_type_id":"4","last_reported":1751749791,"current_range_meters":16000,"station_id":"cpo36qri1sfpv3e86is0","pricing_plan_id":"cebpf4jnsgd1na2vs0mg"},{"bike_id":"d858b784-4fd9-41d7-8169-6d2f7e176251","system_id":"levelo_inurba_marseille","lat":43.30014,"lon":5.37818,"is_reserved":false,"is_disabled":false,"rental_uris":{"android":"levelo://app?vid=d858b784-4fd9-41d7-8169-6d2f7e176251","ios":"levelo://app?vid=d858b784-4fd9-41d7-8169-6d2f7e176251"},"vehicle_type_id":"4","last_reported":1751749791,"current_range_meters":16400,"station_id":"","pricing_plan_id":"cebpf4jnsgd1na2vs0mg"},{"bike_id":"57eb87ae-ada6-4ec3-8528-9064837e5876","system_id":"levelo_inurba_marseille","lat":43.31364,"lon":5.38507,"is_reserved":false,"is_disabled":false,"rental_uris":{"android":"levelo://app?vid=57eb87ae-ada6-4ec3-8528-9064837e5876","ios":"levelo://app?vid=57eb87ae-ada6-4ec3-8528-9064837e5876"},"vehicle_type_id":"4","last_reported":1751749791,"current_range_meters":16400,"station_id":"ce4bgt92rcd13ifvqcf0","pricing_plan_id":"cebpf4jnsgd1na2vs0mg"},{"bike_id":"e08cb157-9e04-465a-9963-036a0fe77a1c","system_id":"levelo_inurba_marseille","lat":43.30951,"lon":5.39023,"is_reserved":false,"is_disabled":false,"rental_uris":{"android":"levelo://app?vid=e08cb157-9e04-465a-9963-036a0fe77a1c","ios":"levelo://app?vid=e08cb157-9e04-465a-9963-036a0fe77a1c"},"vehicle_type_id":"4","last_reported":1751749791,"current_range_meters":16400,"station_id":"ce4bgup2rcd13ifvqco0","pricing_plan_id":"cebpf4jnsgd1na2vs0mg"},{"bike_id":"45e69d60-6a96-4504-93c8-71f494049f76","system_id":"levelo_inurba_marseille","lat":43.31174,"lon":5.38715,"is_reserved":false,"is_disabled":false,"rental_uris":{"android":"levelo://app?vid=45e69d60-6a96-4504-93c8-71f494049f76","ios":"levelo://app?vid=45e69d60-6a96-4504-93c8-71f494049f76"},"vehicle_type_id":"4","last_reported":1751749791,"current_range_meters":16400,"station_id":"ce4bgv12rcd13ifvqcp0","pricing_plan_id":"cebpf4jnsgd1na2vs0mg"},{"bike_id":"2839a6fa-69e6-491b-846d-9ad46f5e4b06","system_id":"levelo_inurba_marseille","lat":43.32112,"lon":5.36773,"is_reserved":false,"is_disabled":false,"rental_uris":{"android":"levelo://app?vid=2839a6fa-69e6-491b-846d-9ad46f5e4b06","ios":"levelo://app?vid=2839a6fa-69e6-491b-846d-9ad46f5e4b06"},"vehicle_type_id":"4","last_reported":1751749791,"current_range_meters":16400,"station_id":"ce4bhrh2rcd13ifvqhug","pricing_plan_id":"cebpf4jnsgd1na2vs0mg"},{"bike_id":"cd6f91d4-bdaf-4e38-b4f5-14f6e83055e8","system_id":"levelo_inurba_marseille","lat":43.21192,"lon":5.3506,"is_reserved":false,"is_disabled":false,"rental_uris":{"android":"levelo://app?vid=cd6f91d4-bdaf-4e38-b4f5-14f6e83055e8","ios":"levelo://app?vid=cd6f91d4-bdaf-4e38-b4f5-14f6e83055e8"},"vehicle_type_id":"4","last_reported":1751749791,"current_range_meters":16400,"station_id":"st_cvj6sg6p6f1abm77japg","pricing_plan_id":"cebpf4jnsgd1na2vs0mg"},{"bike_id":"452e8211-4f44-45d0-814a-3e9e25b8c44e","system_id":"levelo_inurba_marseille","lat":43.21192,"lon":5.35075,"is_reserved":false,"is_disabled":false,"rental_uris":{"android":"levelo://app?vid=452e8211-4f44-45d0-814a-3e9e25b8c44e","ios":"levelo://app?vid=452e8211-4f44-45d0-814a-3e9e25b8c44e"},"vehicle_type_id":"4","last_reported":1751749791,"current_range_meters":16400,"station_id":"st_cvj6sg6p6f1abm77japg","pricing_plan_id":"cebpf4jnsgd1na2vs0mg"},{"bike_id":"9f28415b-5428-4d1e-be25-244ff4d00520","system_id":"levelo_inurba_marseille","lat":43.3063,"lon":5.37209,"is_reserved":false,"is_disabled":false,"rental_uris":{"android":"levelo://app?vid=9f28415b-5428-4d1e-be25-244ff4d00520","ios":"levelo://app?vid=9f28415b-5428-4d1e-be25-244ff4d00520"},"vehicle_type_id":"4","last_reported":1751749791,"current_range_meters":16800,"station_id":"ce4bgqh2rcd13ifvqc4g","pricing_plan_id":"cebpf4jnsgd1na2vs0mg"},{"bike_id":"c36c1dd5-94de-479e-9aa2-37440e999633","system_id":"levelo_inurba_marseille","lat":43.31227,"lon":5.38608,"is_reserved":false,"is_disabled":false,"rental_uris":{"android":"levelo://app?vid=c36c1dd5-94de-479e-9aa2-37440e999633","ios":"levelo://app?vid=c36c1dd5-94de-479e-9aa2-37440e999633"},"vehicle_type_id":"4","last_reported":1751749791,"current_range_meters":16800,"station_id":"ce4bgv12rcd13ifvqcp0","pricing_plan_id":"cebpf4jnsgd1na2vs0mg"},{"bike_id":"8bae1bfe-d77c-4ad0-a166-8096e5036127","system_id":"levelo_inurba_marseille","lat":43.29255,"lon":5.38435,"is_reserved":false,"is_disabled":false,"rental_uris":{"android":"levelo://app?vid=8bae1bfe-d77c-4ad0-a166-8096e5036127","ios":"levelo://app?vid=8bae1bfe-d77c-4ad0-a166-8096e5036127"},"vehicle_type_id":"4","last_reported":1751749791,"current_range_meters":16800,"station_id":"ce4bh692rcd13ifvqea0","pricing_plan_id":"cebpf4jnsgd1na2vs0mg"},{"bike_id":"499d3f54-2cd6-4287-a69a-b233d09f3341","system_id":"levelo_inurba_marseille","lat":43.299595,"lon":5.385104,"is_reserved":false,"is_disabled":false,"rental_uris":{"android":"levelo://app?vid=499d3f54-2cd6-4287-a69a-b233d09f3341","ios":"levelo://app?vid=499d3f54-2cd6-4287-a69a-b233d09f3341"},"vehicle_type_id":"4","last_reported":1751749791,"current_range_meters":16800,"station_id":"ce4bh692rcd13ifvqea0","pricing_plan_id":"cebpf4jnsgd1na2vs0mg"},{"bike_id":"cc7b29cf-e18b-4de3-9e18-36629c044c7a","system_id":"levelo_inurba_marseille","lat":43.26221,"lon":5.37434,"is_reserved":false,"is_disabled":false,"rental_uris":{"android":"levelo://app?vid=cc7b29cf-e18b-4de3-9e18-36629c044c7a","ios":"levelo://app?vid=cc7b29cf-e18b-4de3-9e18-36629c044c7a"},"vehicle_type_id":"4","last_reported":1751749791,"current_range_meters":16800,"station_id":"ce4bhgp2rcd13ifvqfc0","pricing_plan_id":"cebpf4jnsgd1na2vs0mg"},{"bike_id":"001c84d9-0c03-4f27-9212-9eb28e27f49d","system_id":"levelo_inurba_marseille","lat":43.25132,"lon":5.40312,"is_reserved":false,"is_disabled":false,"rental_uris":{"android":"levelo://app?vid=001c84d9-0c03-4f27-9212-9eb28e27f49d","ios":"levelo://app?vid=001c84d9-0c03-4f27-9212-9eb28e27f49d"},"vehicle_type_id":"4","last_reported":1751749791,"current_range_meters":16800,"station_id":"ce4bhlh2rcd13ifvqgig","pricing_plan_id":"cebpf4jnsgd1na2vs0mg"},{"bike_id":"731b5e70-d1cc-4ced-b7ae-93827a8caf1b","system_id":"levelo_inurba_marseille","lat":43.295345,"lon":5.374313,"is_reserved":false,"is_disabled":false,"rental_uris":{"android":"levelo://app?vid=731b5e70-d1cc-4ced-b7ae-93827a8caf1b","ios":"levelo://app?vid=731b5e70-d1cc-4ced-b7ae-93827a8caf1b"},"vehicle_type_id":"4","last_reported":1751749791,"current_range_meters":17200,"station_id":"ce4bgrp2rcd13ifvqc9g","pricing_plan_id":"cebpf4jnsgd1na2vs0mg"},{"bike_id":"01cedf28-185c-4b2f-99ea-df555e0d522e","system_id":"levelo_inurba_marseille","lat":43.31377,"lon":5.38494,"is_reserved":false,"is_disabled":false,"rental_uris":{"android":"levelo://app?vid=01cedf28-185c-4b2f-99ea-df555e0d522e","ios":"levelo://app?vid=01cedf28-185c-4b2f-99ea-df555e0d522e"},"vehicle_type_id":"4","last_reported":1751749791,"current_range_meters":17200,"station_id":"ce4bgt92rcd13ifvqcf0","pricing_plan_id":"cebpf4jnsgd1na2vs0mg"},{"bike_id":"b634b58e-84ab-4877-9471-76843a7eb776","system_id":"levelo_inurba_marseille","lat":43.30955,"lon":5.39017,"is_reserved":false,"is_disabled":false,"rental_uris":{"android":"levelo://app?vid=b634b58e-84ab-4877-9471-76843a7eb776","ios":"levelo://app?vid=b634b58e-84ab-4877-9471-76843a7eb776"},"vehicle_type_id":"4","last_reported":1751749791,"current_range_meters":17200,"station_id":"ce4bgup2rcd13ifvqco0","pricing_plan_id":"cebpf4jnsgd1na2vs0mg"},{"bike_id":"41d928e6-b9b0-4e48-84e1-7ba52781d76b","system_id":"levelo_inurba_marseille","lat":43.24672,"lon":5.38166,"is_reserved":false,"is_disabled":false,"rental_uris":{"android":"levelo://app?vid=41d928e6-b9b0-4e48-84e1-7ba52781d76b","ios":"levelo://app?vid=41d928e6-b9b0-4e48-84e1-7ba52781d76b"},"vehicle_type_id":"4","last_reported":1751749791,"current_range_meters":17200,"station_id":"ce4bhih2rcd13ifvqfr0","pricing_plan_id":"cebpf4jnsgd1na2vs0mg"},{"bike_id":"8ca6a07d-f9d2-4447-bff3-b052b7faa217","system_id":"levelo_inurba_marseille","lat":43.30808,"lon":5.43524,"is_reserved":false,"is_disabled":false,"rental_uris":{"android":"levelo://app?vid=8ca6a07d-f9d2-4447-bff3-b052b7faa217","ios":"levelo://app?vid=8ca6a07d-f9d2-4447-bff3-b052b7faa217"},"vehicle_type_id":"4","last_reported":1751749791,"current_range_meters":17200,"station_id":"ce4bhph2rcd13ifvqheg","pricing_plan_id":"cebpf4jnsgd1na2vs0mg"},{"bike_id":"aca47642-4ceb-4a40-bae0-66b7f0d6dee2","system_id":"levelo_inurba_marseille","lat":43.22498,"lon":5.34786,"is_reserved":false,"is_disabled":false,"rental_uris":{"android":"levelo://app?vid=aca47642-4ceb-4a40-bae0-66b7f0d6dee2","ios":"levelo://app?vid=aca47642-4ceb-4a40-bae0-66b7f0d6dee2"},"vehicle_type_id":"4","last_reported":1751749791,"current_range_meters":17200,"station_id":"st_cvj5dfep6f1abm77gieg","pricing_plan_id":"cebpf4jnsgd1na2vs0mg"},{"bike_id":"19c552da-55bc-46d8-97cb-d1fbabdad01a","system_id":"levelo_inurba_marseille","lat":43.21198,"lon":5.35074,"is_reserved":false,"is_disabled":false,"rental_uris":{"android":"levelo://app?vid=19c552da-55bc-46d8-97cb-d1fbabdad01a","ios":"levelo://app?vid=19c552da-55bc-46d8-97cb-d1fbabdad01a"},"vehicle_type_id":"4","last_reported":1751749791,"current_range_meters":17200,"station_id":"st_cvj6sg6p6f1abm77japg","pricing_plan_id":"cebpf4jnsgd1na2vs0mg"},{"bike_id":"92b474f4-40a9-46d3-9fe5-89d04dd9bdf6","system_id":"levelo_inurba_marseille","lat":43.21745,"lon":5.34608,"is_reserved":false,"is_disabled":false,"rental_uris":{"android":"levelo://app?vid=92b474f4-40a9-46d3-9fe5-89d04dd9bdf6","ios":"levelo://app?vid=92b474f4-40a9-46d3-9fe5-89d04dd9bdf6"},"vehicle_type_id":"4","last_reported":1751749791,"current_range_meters":17600,"station_id":"","pricing_plan_id":"cebpf4jnsgd1na2vs0mg"},{"bike_id":"a7ac00dc-9f76-4b7a-8e78-ffb03028d2e5","system_id":"levelo_inurba_marseille","lat":43.26679,"lon":5.38269,"is_reserved":false,"is_disabled":false,"rental_uris":{"android":"levelo://app?vid=a7ac00dc-9f76-4b7a-8e78-ffb03028d2e5","ios":"levelo://app?vid=a7ac00dc-9f76-4b7a-8e78-ffb03028d2e5"},"vehicle_type_id":"4","last_reported":1751749791,"current_range_meters":17600,"station_id":"ce4bhg92rcd13ifvqf90","pricing_plan_id":"cebpf4jnsgd1na2vs0mg"},{"bike_id":"d5ac8cdf-52b8-49ac-9700-4c91ec376a71","system_id":"levelo_inurba_marseille","lat":43.24815,"lon":5.37468,"is_reserved":false,"is_disabled":false,"rental_uris":{"android":"levelo://app?vid=d5ac8cdf-52b8-49ac-9700-4c91ec376a71","ios":"levelo://app?vid=d5ac8cdf-52b8-49ac-9700-4c91ec376a71"},"vehicle_type_id":"4","last_reported":1751749791,"current_range_meters":17600,"station_id":"ce4bhgh2rcd13ifvqfb0","pricing_plan_id":"cebpf4jnsgd1na2vs0mg"},{"bike_id":"569d244c-df3e-41f2-a896-980aecdff6ea","system_id":"levelo_inurba_marseille","lat":43.26214,"lon":5.37441,"is_reserved":false,"is_disabled":false,"rental_uris":{"android":"levelo://app?vid=569d244c-df3e-41f2-a896-980aecdff6ea","ios":"levelo://app?vid=569d244c-df3e-41f2-a896-980aecdff6ea"},"vehicle_type_id":"4","last_reported":1751749791,"current_range_meters":17600,"station_id":"ce4bhgp2rcd13ifvqfc0","pricing_plan_id":"cebpf4jnsgd1na2vs0mg"},{"bike_id":"87e1ab2e-fac9-47a9-8541-a3a75a347f56","system_id":"levelo_inurba_marseille","lat":43.29598,"lon":5.38103,"is_reserved":false,"is_disabled":false,"rental_uris":{"android":"levelo://app?vid=87e1ab2e-fac9-47a9-8541-a3a75a347f56","ios":"levelo://app?vid=87e1ab2e-fac9-47a9-8541-a3a75a347f56"},"vehicle_type_id":"4","last_reported":1751749791,"current_range_meters":18000,"station_id":"ce4bgl12rcd13ifvqbo0","pricing_plan_id":"cebpf4jnsgd1na2vs0mg"},{"bike_id":"71632596-46e4-4bfe-b99f-0d2fb18c6a02","system_id":"levelo_inurba_marseille","lat":43.30946,"lon":5.39064,"is_reserved":false,"is_disabled":false,"rental_uris":{"android":"levelo://app?vid=71632596-46e4-4bfe-b99f-0d2fb18c6a02","ios":"levelo://app?vid=71632596-46e4-4bfe-b99f-0d2fb18c6a02"},"vehicle_type_id":"4","last_reported":1751749791,"current_range_meters":18000,"station_id":"ce4bgup2rcd13ifvqco0","pricing_plan_id":"cebpf4jnsgd1na2vs0mg"},{"bike_id":"b066e99e-1e53-43b4-9962-61ffc652a434","system_id":"levelo_inurba_marseille","lat":43.30948,"lon":5.39028,"is_reserved":false,"is_disabled":false,"rental_uris":{"android":"levelo://app?vid=b066e99e-1e53-43b4-9962-61ffc652a434","ios":"levelo://app?vid=b066e99e-1e53-43b4-9962-61ffc652a434"},"vehicle_type_id":"4","last_reported":1751749791,"current_range_meters":18000,"station_id":"ce4bgup2rcd13ifvqco0","pricing_plan_id":"cebpf4jnsgd1na2vs0mg"},{"bike_id":"77c83707-cfda-4bb9-a0ea-9e7ed407d883","system_id":"levelo_inurba_marseille","lat":43.30955,"lon":5.39029,"is_reserved":false,"is_disabled":false,"rental_uris":{"android":"levelo://app?vid=77c83707-cfda-4bb9-a0ea-9e7ed407d883","ios":"levelo://app?vid=77c83707-cfda-4bb9-a0ea-9e7ed407d883"},"vehicle_type_id":"4","last_reported":1751749791,"current_range_meters":18000,"station_id":"ce4bgup2rcd13ifvqco0","pricing_plan_id":"cebpf4jnsgd1na2vs0mg"},{"bike_id":"ea959327-a3bc-40b9-8335-84c624fd07e2","system_id":"levelo_inurba_marseille","lat":43.30961,"lon":5.39021,"is_reserved":false,"is_disabled":false,"rental_uris":{"android":"levelo://app?vid=ea959327-a3bc-40b9-8335-84c624fd07e2","ios":"levelo://app?vid=ea959327-a3bc-40b9-8335-84c624fd07e2"},"vehicle_type_id":"4","last_reported":1751749791,"current_range_meters":18000,"station_id":"ce4bgup2rcd13ifvqco0","pricing_plan_id":"cebpf4jnsgd1na2vs0mg"},{"bike_id":"7609fef7-8c00-4805-9f91-2ac9e642987d","system_id":"levelo_inurba_marseille","lat":43.30956,"lon":5.39029,"is_reserved":false,"is_disabled":false,"rental_uris":{"android":"levelo://app?vid=7609fef7-8c00-4805-9f91-2ac9e642987d","ios":"levelo://app?vid=7609fef7-8c00-4805-9f91-2ac9e642987d"},"vehicle_type_id":"4","last_reported":1751749791,"current_range_meters":18800,"station_id":"ce4bgup2rcd13ifvqco0","pricing_plan_id":"cebpf4jnsgd1na2vs0mg"},{"bike_id":"fc585fdf-2272-4862-8711-a9a61b341795","system_id":"levelo_inurba_marseille","lat":43.30947,"lon":5.39028,"is_reserved":false,"is_disabled":false,"rental_uris":{"android":"levelo://app?vid=fc585fdf-2272-4862-8711-a9a61b341795","ios":"levelo://app?vid=fc585fdf-2272-4862-8711-a9a61b341795"},"vehicle_type_id":"4","last_reported":1751749791,"current_range_meters":18800,"station_id":"ce4bgup2rcd13ifvqco0","pricing_plan_id":"cebpf4jnsgd1na2vs0mg"},{"bike_id":"ca75fd4c-d4eb-417e-8889-5b54d7afac4a","system_id":"levelo_inurba_marseille","lat":43.31162,"lon":5.38701,"is_reserved":false,"is_disabled":false,"rental_uris":{"android":"levelo://app?vid=ca75fd4c-d4eb-417e-8889-5b54d7afac4a","ios":"levelo://app?vid=ca75fd4c-d4eb-417e-8889-5b54d7afac4a"},"vehicle_type_id":"4","last_reported":1751749791,"current_range_meters":18800,"station_id":"ce4bgv12rcd13ifvqcp0","pricing_plan_id":"cebpf4jnsgd1na2vs0mg"},{"bike_id":"fc1e2089-6b9f-47bf-93d9-b32f6028a427","system_id":"levelo_inurba_marseille","lat":43.28413,"lon":5.37521,"is_reserved":false,"is_disabled":false,"rental_uris":{"android":"levelo://app?vid=fc1e2089-6b9f-47bf-93d9-b32f6028a427","ios":"levelo://app?vid=fc1e2089-6b9f-47bf-93d9-b32f6028a427"},"vehicle_type_id":"4","last_reported":1751749791,"current_range_meters":18800,"station_id":"ce4bh412rcd13ifvqds0","pricing_plan_id":"cebpf4jnsgd1na2vs0mg"},{"bike_id":"c2d602b1-41c8-4704-8c6e-47951f969f4d","system_id":"levelo_inurba_marseille","lat":43.28411,"lon":5.37533,"is_reserved":false,"is_disabled":false,"rental_uris":{"android":"levelo://app?vid=c2d602b1-41c8-4704-8c6e-47951f969f4d","ios":"levelo://app?vid=c2d602b1-41c8-4704-8c6e-47951f969f4d"},"vehicle_type_id":"4","last_reported":1751749791,"current_range_meters":18800,"station_id":"ce4bh412rcd13ifvqds0","pricing_plan_id":"cebpf4jnsgd1na2vs0mg"},{"bike_id":"d5ef770d-9759-47e3-b3a5-7d2785ef76db","system_id":"levelo_inurba_marseille","lat":43.32953,"lon":5.39028,"is_reserved":false,"is_disabled":false,"rental_uris":{"android":"levelo://app?vid=d5ef770d-9759-47e3-b3a5-7d2785ef76db","ios":"levelo://app?vid=d5ef770d-9759-47e3-b3a5-7d2785ef76db"},"vehicle_type_id":"4","last_reported":1751749791,"current_range_meters":19200,"station_id":"","pricing_plan_id":"cebpf4jnsgd1na2vs0mg"},{"bike_id":"80955d0f-8669-4c02-b90f-c6fe20790c37","system_id":"levelo_inurba_marseille","lat":43.23182,"lon":5.35065,"is_reserved":false,"is_disabled":false,"rental_uris":{"android":"levelo://app?vid=80955d0f-8669-4c02-b90f-c6fe20790c37","ios":"levelo://app?vid=80955d0f-8669-4c02-b90f-c6fe20790c37"},"vehicle_type_id":"4","last_reported":1751749791,"current_range_meters":19200,"station_id":"","pricing_plan_id":"cebpf4jnsgd1na2vs0mg"},{"bike_id":"83b675fd-1904-4cf7-bde7-95cad47ffafe","system_id":"levelo_inurba_marseille","lat":43.29408,"lon":5.38547,"is_reserved":false,"is_disabled":false,"rental_uris":{"android":"levelo://app?vid=83b675fd-1904-4cf7-bde7-95cad47ffafe","ios":"levelo://app?vid=83b675fd-1904-4cf7-bde7-95cad47ffafe"},"vehicle_type_id":"4","last_reported":1751749791,"current_range_meters":19200,"station_id":"","pricing_plan_id":"cebpf4jnsgd1na2vs0mg"},{"bike_id":"3b22f952-d0bc-4c00-8fd3-7e27b88aea23","system_id":"levelo_inurba_marseille","lat":43.29659,"lon":5.36245,"is_reserved":false,"is_disabled":false,"rental_uris":{"android":"levelo://app?vid=3b22f952-d0bc-4c00-8fd3-7e27b88aea23","ios":"levelo://app?vid=3b22f952-d0bc-4c00-8fd3-7e27b88aea23"},"vehicle_type_id":"4","last_reported":1751749791,"current_range_meters":19200,"station_id":"","pricing_plan_id":"cebpf4jnsgd1na2vs0mg"},{"bike_id":"d7dfd7fb-41c7-4e0f-921a-f388c3605816","system_id":"levelo_inurba_marseille","lat":43.2791,"lon":5.39586,"is_reserved":false,"is_disabled":false,"rental_uris":{"android":"levelo://app?vid=d7dfd7fb-41c7-4e0f-921a-f388c3605816","ios":"levelo://app?vid=d7dfd7fb-41c7-4e0f-921a-f388c3605816"},"vehicle_type_id":"4","last_reported":1751749791,"current_range_meters":19200,"station_id":"ce4bhf92rcd13ifvqf40","pricing_plan_id":"cebpf4jnsgd1na2vs0mg"},{"bike_id":"80d5d438-51cd-4e92-9249-33be9f083d24","system_id":"levelo_inurba_marseille","lat":43.24813,"lon":5.37461,"is_reserved":false,"is_disabled":false,"rental_uris":{"android":"levelo://app?vid=80d5d438-51cd-4e92-9249-33be9f083d24","ios":"levelo://app?vid=80d5d438-51cd-4e92-9249-33be9f083d24"},"vehicle_type_id":"4","last_reported":1751749791,"current_range_meters":19200,"station_id":"ce4bhgh2rcd13ifvqfb0","pricing_plan_id":"cebpf4jnsgd1na2vs0mg"},{"bike_id":"a6db5fc2-e5d0-430e-aa71-36b96c5b42ff","system_id":"levelo_inurba_marseille","lat":43.262061,"lon":5.374469,"is_reserved":false,"is_disabled":false,"rental_uris":{"android":"levelo://app?vid=a6db5fc2-e5d0-430e-aa71-36b96c5b42ff","ios":"levelo://app?vid=a6db5fc2-e5d0-430e-aa71-36b96c5b42ff"},"vehicle_type_id":"4","last_reported":1751749791,"current_range_meters":19200,"station_id":"ce4bhgp2rcd13ifvqfc0","pricing_plan_id":"cebpf4jnsgd1na2vs0mg"},{"bike_id":"e113175a-26c2-4709-bd2e-8b90ec8dd3ee","system_id":"levelo_inurba_marseille","lat":43.27489,"lon":5.424624,"is_reserved":false,"is_disabled":false,"rental_uris":{"android":"levelo://app?vid=e113175a-26c2-4709-bd2e-8b90ec8dd3ee","ios":"levelo://app?vid=e113175a-26c2-4709-bd2e-8b90ec8dd3ee"},"vehicle_type_id":"4","last_reported":1751749791,"current_range_meters":19200,"station_id":"ce4bhn92rcd13ifvqgrg","pricing_plan_id":"cebpf4jnsgd1na2vs0mg"},{"bike_id":"aa8f61d8-323f-47e5-890f-90ad80dab82c","system_id":"levelo_inurba_marseille","lat":43.33727,"lon":5.391955,"is_reserved":false,"is_disabled":false,"rental_uris":{"android":"levelo://app?vid=aa8f61d8-323f-47e5-890f-90ad80dab82c","ios":"levelo://app?vid=aa8f61d8-323f-47e5-890f-90ad80dab82c"},"vehicle_type_id":"4","last_reported":1751749791,"current_range_meters":19200,"station_id":"ce4bhr92rcd13ifvqhsg","pricing_plan_id":"cebpf4jnsgd1na2vs0mg"},{"bike_id":"e8d7fcf5-14a0-430b-a247-ddceafd06b95","system_id":"levelo_inurba_marseille","lat":43.22537,"lon":5.34742,"is_reserved":false,"is_disabled":false,"rental_uris":{"android":"levelo://app?vid=e8d7fcf5-14a0-430b-a247-ddceafd06b95","ios":"levelo://app?vid=e8d7fcf5-14a0-430b-a247-ddceafd06b95"},"vehicle_type_id":"4","last_reported":1751749791,"current_range_meters":19600,"station_id":"","pricing_plan_id":"cebpf4jnsgd1na2vs0mg"},{"bike_id":"5ff56cab-eeea-4638-8c8a-bf5e32f9da37","system_id":"levelo_inurba_marseille","lat":43.3041,"lon":5.378093,"is_reserved":false,"is_disabled":false,"rental_uris":{"android":"levelo://app?vid=5ff56cab-eeea-4638-8c8a-bf5e32f9da37","ios":"levelo://app?vid=5ff56cab-eeea-4638-8c8a-bf5e32f9da37"},"vehicle_type_id":"4","last_reported":1751749791,"current_range_meters":19600,"station_id":"ce4bgup2rcd13ifvqcn0","pricing_plan_id":"cebpf4jnsgd1na2vs0mg"},{"bike_id":"b3d2f217-8e8b-45db-b2a1-8f7a18b4a963","system_id":"levelo_inurba_marseille","lat":43.28671,"lon":5.38676,"is_reserved":false,"is_disabled":false,"rental_uris":{"android":"levelo://app?vid=b3d2f217-8e8b-45db-b2a1-8f7a18b4a963","ios":"levelo://app?vid=b3d2f217-8e8b-45db-b2a1-8f7a18b4a963"},"vehicle_type_id":"4","last_reported":1751749791,"current_range_meters":19600,"station_id":"ce4bh492rcd13ifvqdug","pricing_plan_id":"cebpf4jnsgd1na2vs0mg"},{"bike_id":"ad35e9c5-194e-450b-bed8-7ca855cfff07","system_id":"levelo_inurba_marseille","lat":43.2481,"lon":5.37487,"is_reserved":false,"is_disabled":false,"rental_uris":{"android":"levelo://app?vid=ad35e9c5-194e-450b-bed8-7ca855cfff07","ios":"levelo://app?vid=ad35e9c5-194e-450b-bed8-7ca855cfff07"},"vehicle_type_id":"4","last_reported":1751749791,"current_range_meters":19600,"station_id":"ce4bhgh2rcd13ifvqfb0","pricing_plan_id":"cebpf4jnsgd1na2vs0mg"},{"bike_id":"288f3705-e8cd-40ea-9cf2-174db393b9f5","system_id":"levelo_inurba_marseille","lat":43.26213,"lon":5.37443,"is_reserved":false,"is_disabled":false,"rental_uris":{"android":"levelo://app?vid=288f3705-e8cd-40ea-9cf2-174db393b9f5","ios":"levelo://app?vid=288f3705-e8cd-40ea-9cf2-174db393b9f5"},"vehicle_type_id":"4","last_reported":1751749791,"current_range_meters":19600,"station_id":"ce4bhgp2rcd13ifvqfc0","pricing_plan_id":"cebpf4jnsgd1na2vs0mg"},{"bike_id":"2835a0f9-f0d8-4065-bfec-a99a55480d3d","system_id":"levelo_inurba_marseille","lat":43.24173,"lon":5.39736,"is_reserved":false,"is_disabled":false,"rental_uris":{"android":"levelo://app?vid=2835a0f9-f0d8-4065-bfec-a99a55480d3d","ios":"levelo://app?vid=2835a0f9-f0d8-4065-bfec-a99a55480d3d"},"vehicle_type_id":"4","last_reported":1751749791,"current_range_meters":19600,"station_id":"ce4bhn12rcd13ifvqgpg","pricing_plan_id":"cebpf4jnsgd1na2vs0mg"},{"bike_id":"d0f90c24-dd03-411b-9731-55305f76b7c8","system_id":"levelo_inurba_marseille","lat":43.21264,"lon":5.3507,"is_reserved":false,"is_disabled":false,"rental_uris":{"android":"levelo://app?vid=d0f90c24-dd03-411b-9731-55305f76b7c8","ios":"levelo://app?vid=d0f90c24-dd03-411b-9731-55305f76b7c8"},"vehicle_type_id":"4","last_reported":1751749791,"current_range_meters":19600,"station_id":"st_cvj6sg6p6f1abm77japg","pricing_plan_id":"cebpf4jnsgd1na2vs0mg"},{"bike_id":"37f2becd-23f9-4f13-a711-38b8024eeec7","system_id":"levelo_inurba_marseille","lat":43.33768,"lon":5.37516,"is_reserved":false,"is_disabled":false,"rental_uris":{"android":"levelo://app?vid=37f2becd-23f9-4f13-a711-38b8024eeec7","ios":"levelo://app?vid=37f2becd-23f9-4f13-a711-38b8024eeec7"},"vehicle_type_id":"4","last_reported":1751749791,"current_range_meters":20000,"station_id":"","pricing_plan_id":"cebpf4jnsgd1na2vs0mg"},{"bike_id":"b524a750-7ec1-495b-83ba-2c3b6da69323","system_id":"levelo_inurba_marseille","lat":43.248095,"lon":5.374593,"is_reserved":false,"is_disabled":false,"rental_uris":{"android":"levelo://app?vid=b524a750-7ec1-495b-83ba-2c3b6da69323","ios":"levelo://app?vid=b524a750-7ec1-495b-83ba-2c3b6da69323"},"vehicle_type_id":"4","last_reported":1751749791,"current_range_meters":20000,"station_id":"ce4bgjp2rcd13ifvqbh0","pricing_plan_id":"cebpf4jnsgd1na2vs0mg"},{"bike_id":"5c17168a-03ad-4763-b328-bef6da50497b","system_id":"levelo_inurba_marseille","lat":43.3094,"lon":5.39041,"is_reserved":false,"is_disabled":false,"rental_uris":{"android":"levelo://app?vid=5c17168a-03ad-4763-b328-bef6da50497b","ios":"levelo://app?vid=5c17168a-03ad-4763-b328-bef6da50497b"},"vehicle_type_id":"4","last_reported":1751749791,"current_range_meters":20000,"station_id":"ce4bgup2rcd13ifvqco0","pricing_plan_id":"cebpf4jnsgd1na2vs0mg"},{"bike_id":"0c728d79-fde6-4b81-b680-17e57ea8bf58","system_id":"levelo_inurba_marseille","lat":43.30954,"lon":5.39032,"is_reserved":false,"is_disabled":false,"rental_uris":{"android":"levelo://app?vid=0c728d79-fde6-4b81-b680-17e57ea8bf58","ios":"levelo://app?vid=0c728d79-fde6-4b81-b680-17e57ea8bf58"},"vehicle_type_id":"4","last_reported":1751749791,"current_range_meters":20000,"station_id":"ce4bgup2rcd13ifvqco0","pricing_plan_id":"cebpf4jnsgd1na2vs0mg"},{"bike_id":"9795a957-6639-435a-a2cc-2e742a0df161","system_id":"levelo_inurba_marseille","lat":43.24791,"lon":5.37469,"is_reserved":false,"is_disabled":false,"rental_uris":{"android":"levelo://app?vid=9795a957-6639-435a-a2cc-2e742a0df161","ios":"levelo://app?vid=9795a957-6639-435a-a2cc-2e742a0df161"},"vehicle_type_id":"4","last_reported":1751749791,"current_range_meters":20000,"station_id":"ce4bhgh2rcd13ifvqfb0","pricing_plan_id":"cebpf4jnsgd1na2vs0mg"},{"bike_id":"1ea33fdf-813c-4aaa-a6fe-4ff71858acde","system_id":"levelo_inurba_marseille","lat":43.29538,"lon":5.3854,"is_reserved":false,"is_disabled":false,"rental_uris":{"android":"levelo://app?vid=1ea33fdf-813c-4aaa-a6fe-4ff71858acde","ios":"levelo://app?vid=1ea33fdf-813c-4aaa-a6fe-4ff71858acde"},"vehicle_type_id":"4","last_reported":1751749791,"current_range_meters":20400,"station_id":"ce4bgih2rcd13ifvqba0","pricing_plan_id":"cebpf4jnsgd1na2vs0mg"},{"bike_id":"29f534f3-f43b-40a1-972c-ff4928125cc6","system_id":"levelo_inurba_marseille","lat":43.313618,"lon":5.384982,"is_reserved":false,"is_disabled":false,"rental_uris":{"android":"levelo://app?vid=29f534f3-f43b-40a1-972c-ff4928125cc6","ios":"levelo://app?vid=29f534f3-f43b-40a1-972c-ff4928125cc6"},"vehicle_type_id":"4","last_reported":1751749791,"current_range_meters":20400,"station_id":"ce4bgt92rcd13ifvqcf0","pricing_plan_id":"cebpf4jnsgd1na2vs0mg"},{"bike_id":"42b72ce6-7d17-41a6-9b59-5d5b43149788","system_id":"levelo_inurba_marseille","lat":43.31707,"lon":5.37748,"is_reserved":false,"is_disabled":false,"rental_uris":{"android":"levelo://app?vid=42b72ce6-7d17-41a6-9b59-5d5b43149788","ios":"levelo://app?vid=42b72ce6-7d17-41a6-9b59-5d5b43149788"},"vehicle_type_id":"4","last_reported":1751749791,"current_range_meters":20400,"station_id":"ce4bgth2rcd13ifvqch0","pricing_plan_id":"cebpf4jnsgd1na2vs0mg"},{"bike_id":"b8503c38-13b9-4697-a532-da3a50ada19c","system_id":"levelo_inurba_marseille","lat":43.30946,"lon":5.39044,"is_reserved":false,"is_disabled":false,"rental_uris":{"android":"levelo://app?vid=b8503c38-13b9-4697-a532-da3a50ada19c","ios":"levelo://app?vid=b8503c38-13b9-4697-a532-da3a50ada19c"},"vehicle_type_id":"4","last_reported":1751749791,"current_range_meters":20400,"station_id":"ce4bgup2rcd13ifvqco0","pricing_plan_id":"cebpf4jnsgd1na2vs0mg"},{"bike_id":"3e409920-3a50-42ea-88fe-c990c4339a4f","system_id":"levelo_inurba_marseille","lat":43.30949,"lon":5.39076,"is_reserved":false,"is_disabled":false,"rental_uris":{"android":"levelo://app?vid=3e409920-3a50-42ea-88fe-c990c4339a4f","ios":"levelo://app?vid=3e409920-3a50-42ea-88fe-c990c4339a4f"},"vehicle_type_id":"4","last_reported":1751749791,"current_range_meters":20400,"station_id":"ce4bgup2rcd13ifvqco0","pricing_plan_id":"cebpf4jnsgd1na2vs0mg"},{"bike_id":"92956f34-a313-40c1-a677-a4856fd13d79","system_id":"levelo_inurba_marseille","lat":43.31177,"lon":5.38703,"is_reserved":false,"is_disabled":false,"rental_uris":{"android":"levelo://app?vid=92956f34-a313-40c1-a677-a4856fd13d79","ios":"levelo://app?vid=92956f34-a313-40c1-a677-a4856fd13d79"},"vehicle_type_id":"4","last_reported":1751749791,"current_range_meters":20400,"station_id":"ce4bgv12rcd13ifvqcp0","pricing_plan_id":"cebpf4jnsgd1na2vs0mg"},{"bike_id":"7d3a3129-23ba-429a-a18f-24d0fd4b0c95","system_id":"levelo_inurba_marseille","lat":43.293414,"lon":5.385751,"is_reserved":false,"is_disabled":false,"rental_uris":{"android":"levelo://app?vid=7d3a3129-23ba-429a-a18f-24d0fd4b0c95","ios":"levelo://app?vid=7d3a3129-23ba-429a-a18f-24d0fd4b0c95"},"vehicle_type_id":"4","last_reported":1751749791,"current_range_meters":20400,"station_id":"ce4bh2h2rcd13ifvqdh0","pricing_plan_id":"cebpf4jnsgd1na2vs0mg"},{"bike_id":"a5d5b7c3-7af8-4440-b5fe-5d61d92fa0d8","system_id":"levelo_inurba_marseille","lat":43.33602,"lon":5.41035,"is_reserved":false,"is_disabled":false,"rental_uris":{"android":"levelo://app?vid=a5d5b7c3-7af8-4440-b5fe-5d61d92fa0d8","ios":"levelo://app?vid=a5d5b7c3-7af8-4440-b5fe-5d61d92fa0d8"},"vehicle_type_id":"4","last_reported":1751749791,"current_range_meters":20400,"station_id":"ce4bhqh2rcd13ifvqhmg","pricing_plan_id":"cebpf4jnsgd1na2vs0mg"},{"bike_id":"f2d18484-44cc-4fb4-b95c-474982d1a9c6","system_id":"levelo_inurba_marseille","lat":43.30459,"lon":5.37905,"is_reserved":false,"is_disabled":false,"rental_uris":{"android":"levelo://app?vid=f2d18484-44cc-4fb4-b95c-474982d1a9c6","ios":"levelo://app?vid=f2d18484-44cc-4fb4-b95c-474982d1a9c6"},"vehicle_type_id":"4","last_reported":1751749791,"current_range_meters":20800,"station_id":"ce4bgup2rcd13ifvqcn0","pricing_plan_id":"cebpf4jnsgd1na2vs0mg"},{"bike_id":"992bcf19-300c-4f5e-ba0f-d824420b4780","system_id":"levelo_inurba_marseille","lat":43.31176,"lon":5.38724,"is_reserved":false,"is_disabled":false,"rental_uris":{"android":"levelo://app?vid=992bcf19-300c-4f5e-ba0f-d824420b4780","ios":"levelo://app?vid=992bcf19-300c-4f5e-ba0f-d824420b4780"},"vehicle_type_id":"4","last_reported":1751749791,"current_range_meters":20800,"station_id":"ce4bgv12rcd13ifvqcp0","pricing_plan_id":"cebpf4jnsgd1na2vs0mg"},{"bike_id":"82b7d7e5-b783-4fdc-98ca-20db1531cbe0","system_id":"levelo_inurba_marseille","lat":43.29562,"lon":5.42287,"is_reserved":false,"is_disabled":false,"rental_uris":{"android":"levelo://app?vid=82b7d7e5-b783-4fdc-98ca-20db1531cbe0","ios":"levelo://app?vid=82b7d7e5-b783-4fdc-98ca-20db1531cbe0"},"vehicle_type_id":"4","last_reported":1751749791,"current_range_meters":20800,"station_id":"ce4bhph2rcd13ifvqhdg","pricing_plan_id":"cebpf4jnsgd1na2vs0mg"},{"bike_id":"54162009-10cb-4291-bb9a-2b1f87daa58d","system_id":"levelo_inurba_marseille","lat":43.32006,"lon":5.38152,"is_reserved":false,"is_disabled":false,"rental_uris":{"android":"levelo://app?vid=54162009-10cb-4291-bb9a-2b1f87daa58d","ios":"levelo://app?vid=54162009-10cb-4291-bb9a-2b1f87daa58d"},"vehicle_type_id":"4","last_reported":1751749791,"current_range_meters":20800,"station_id":"ce4bhr12rcd13ifvqhpg","pricing_plan_id":"cebpf4jnsgd1na2vs0mg"},{"bike_id":"624e5b3d-cd9a-4de8-892e-e2a3fc885b3c","system_id":"levelo_inurba_marseille","lat":43.28723,"lon":5.37947,"is_reserved":false,"is_disabled":false,"rental_uris":{"android":"levelo://app?vid=624e5b3d-cd9a-4de8-892e-e2a3fc885b3c","ios":"levelo://app?vid=624e5b3d-cd9a-4de8-892e-e2a3fc885b3c"},"vehicle_type_id":"4","last_reported":1751749791,"current_range_meters":21600,"station_id":"ce4bh9p2rcd13ifvqec0","pricing_plan_id":"cebpf4jnsgd1na2vs0mg"},{"bike_id":"369c8dd5-1813-419d-a4e5-23b99d5734f3","system_id":"levelo_inurba_marseille","lat":43.21189,"lon":5.35095,"is_reserved":false,"is_disabled":false,"rental_uris":{"android":"levelo://app?vid=369c8dd5-1813-419d-a4e5-23b99d5734f3","ios":"levelo://app?vid=369c8dd5-1813-419d-a4e5-23b99d5734f3"},"vehicle_type_id":"4","last_reported":1751749791,"current_range_meters":22000,"station_id":"","pricing_plan_id":"cebpf4jnsgd1na2vs0mg"},{"bike_id":"19dd7b98-15b6-4d0b-ab82-022fdd31581c","system_id":"levelo_inurba_marseille","lat":43.26551,"lon":5.3729,"is_reserved":false,"is_disabled":false,"rental_uris":{"android":"levelo://app?vid=19dd7b98-15b6-4d0b-ab82-022fdd31581c","ios":"levelo://app?vid=19dd7b98-15b6-4d0b-ab82-022fdd31581c"},"vehicle_type_id":"4","last_reported":1751749791,"current_range_meters":22000,"station_id":"ce4bhg12rcd13ifvqf70","pricing_plan_id":"cebpf4jnsgd1na2vs0mg"},{"bike_id":"5af221d7-fce8-451e-8458-1bc0f0a00e22","system_id":"levelo_inurba_marseille","lat":43.281614,"lon":5.426748,"is_reserved":false,"is_disabled":false,"rental_uris":{"android":"levelo://app?vid=5af221d7-fce8-451e-8458-1bc0f0a00e22","ios":"levelo://app?vid=5af221d7-fce8-451e-8458-1bc0f0a00e22"},"vehicle_type_id":"4","last_reported":1751749791,"current_range_meters":22000,"station_id":"ce4bhnh2rcd13ifvqgug","pricing_plan_id":"cebpf4jnsgd1na2vs0mg"},{"bike_id":"8ebfd25a-e2f5-4b64-8815-88dd33e0b5f8","system_id":"levelo_inurba_marseille","lat":43.269423,"lon":5.402663,"is_reserved":false,"is_disabled":false,"rental_uris":{"android":"levelo://app?vid=8ebfd25a-e2f5-4b64-8815-88dd33e0b5f8","ios":"levelo://app?vid=8ebfd25a-e2f5-4b64-8815-88dd33e0b5f8"},"vehicle_type_id":"4","last_reported":1751749791,"current_range_meters":22000,"station_id":"cjm6bp8fraef2m0cb0m0","pricing_plan_id":"cebpf4jnsgd1na2vs0mg"},{"bike_id":"f6a70927-154b-4b3b-a66f-8f981699d927","system_id":"levelo_inurba_marseille","lat":43.30309,"lon":5.39212,"is_reserved":false,"is_disabled":false,"rental_uris":{"android":"levelo://app?vid=f6a70927-154b-4b3b-a66f-8f981699d927","ios":"levelo://app?vid=f6a70927-154b-4b3b-a66f-8f981699d927"},"vehicle_type_id":"4","last_reported":1751749791,"current_range_meters":22400,"station_id":"ce4bgkh2rcd13ifvqbk0","pricing_plan_id":"cebpf4jnsgd1na2vs0mg"},{"bike_id":"b827126b-7ffd-4f35-b034-7419409799e3","system_id":"levelo_inurba_marseille","lat":43.24805,"lon":5.37452,"is_reserved":false,"is_disabled":false,"rental_uris":{"android":"levelo://app?vid=b827126b-7ffd-4f35-b034-7419409799e3","ios":"levelo://app?vid=b827126b-7ffd-4f35-b034-7419409799e3"},"vehicle_type_id":"4","last_reported":1751749791,"current_range_meters":22400,"station_id":"ce4bhgh2rcd13ifvqfb0","pricing_plan_id":"cebpf4jnsgd1na2vs0mg"},{"bike_id":"e7137259-a8cc-465f-80c9-301193a6bbc3","system_id":"levelo_inurba_marseille","lat":43.211952,"lon":5.350734,"is_reserved":false,"is_disabled":false,"rental_uris":{"android":"levelo://app?vid=e7137259-a8cc-465f-80c9-301193a6bbc3","ios":"levelo://app?vid=e7137259-a8cc-465f-80c9-301193a6bbc3"},"vehicle_type_id":"4","last_reported":1751749791,"current_range_meters":22400,"station_id":"st_cvj6sg6p6f1abm77japg","pricing_plan_id":"cebpf4jnsgd1na2vs0mg"},{"bike_id":"4a5d94a1-dcb4-4008-903b-2f9fef849e5d","system_id":"levelo_inurba_marseille","lat":43.30181,"lon":5.39826,"is_reserved":false,"is_disabled":false,"rental_uris":{"android":"levelo://app?vid=4a5d94a1-dcb4-4008-903b-2f9fef849e5d","ios":"levelo://app?vid=4a5d94a1-dcb4-4008-903b-2f9fef849e5d"},"vehicle_type_id":"4","last_reported":1751749791,"current_range_meters":22800,"station_id":"","pricing_plan_id":"cebpf4jnsgd1na2vs0mg"},{"bike_id":"642a1b38-0686-4fba-82b0-46ee8081e028","system_id":"levelo_inurba_marseille","lat":43.311707,"lon":5.387191,"is_reserved":false,"is_disabled":false,"rental_uris":{"android":"levelo://app?vid=642a1b38-0686-4fba-82b0-46ee8081e028","ios":"levelo://app?vid=642a1b38-0686-4fba-82b0-46ee8081e028"},"vehicle_type_id":"4","last_reported":1751749791,"current_range_meters":22800,"station_id":"ce4bgg92rcd13ifvqb30","pricing_plan_id":"cebpf4jnsgd1na2vs0mg"},{"bike_id":"a2b50646-4c18-4b70-b2c3-71ab544ab4ae","system_id":"levelo_inurba_marseille","lat":43.29537,"lon":5.3854,"is_reserved":false,"is_disabled":false,"rental_uris":{"android":"levelo://app?vid=a2b50646-4c18-4b70-b2c3-71ab544ab4ae","ios":"levelo://app?vid=a2b50646-4c18-4b70-b2c3-71ab544ab4ae"},"vehicle_type_id":"4","last_reported":1751749791,"current_range_meters":22800,"station_id":"ce4bgih2rcd13ifvqba0","pricing_plan_id":"cebpf4jnsgd1na2vs0mg"},{"bike_id":"7326ac85-0dd5-4e29-9ecf-dc0478ccac29","system_id":"levelo_inurba_marseille","lat":43.28392,"lon":5.37545,"is_reserved":false,"is_disabled":false,"rental_uris":{"android":"levelo://app?vid=7326ac85-0dd5-4e29-9ecf-dc0478ccac29","ios":"levelo://app?vid=7326ac85-0dd5-4e29-9ecf-dc0478ccac29"},"vehicle_type_id":"4","last_reported":1751749791,"current_range_meters":22800,"station_id":"ce4bh412rcd13ifvqds0","pricing_plan_id":"cebpf4jnsgd1na2vs0mg"},{"bike_id":"f723588c-5019-4049-bb23-d1e8f5fe6288","system_id":"levelo_inurba_marseille","lat":43.2869,"lon":5.38661,"is_reserved":false,"is_disabled":false,"rental_uris":{"android":"levelo://app?vid=f723588c-5019-4049-bb23-d1e8f5fe6288","ios":"levelo://app?vid=f723588c-5019-4049-bb23-d1e8f5fe6288"},