{"last_updated":1740589713,"ttl":60,"version":"2.2","data":{"bikes":[{"bike_id":"24a04eeb-09d5-40ca-835b-69f5ef43731f","system_id":"levelo_inurba_marseille","lat":43.29876,"lon":5.39734,"is_reserved":false,"is_disabled":false,"rental_uris":{"android":"levelo://app?vid=24a04eeb-09d5-40ca-835b-69f5ef43731f","ios":"levelo://app?vid=24a04eeb-09d5-40ca-835b-69f5ef43731f"},"vehicle_type_id":"4","last_reported":1740589713,"current_range_meters":3600,"station_id":"ce4bh0h2rcd13ifvqd50","pricing_plan_id":"cebpf4jnsgd1na2vs0mg"},{"bike_id":"ac6f6a05-5e63-4e04-86cd-ae60a04bd977","system_id":"levelo_inurba_marseille","lat":43.28464,"lon":5.38422,"is_reserved":false,"is_disabled":false,"rental_uris":{"android":"levelo://app?vid=ac6f6a05-5e63-4e04-86cd-ae60a04bd977","ios":"levelo://app?vid=ac6f6a05-5e63-4e04-86cd-ae60a04bd977"},"vehicle_type_id":"4","last_reported":1740589713,"current_range_meters":3200,"station_id":"ce4bh512rcd13ifvqe3g","pricing_plan_id":"cebpf4jnsgd1na2vs0mg"},{"bike_id":"77fb9451-81e4-444e-a934-1f83094b6e2f","system_id":"levelo_inurba_marseille","lat":43.28422,"lon":5.37538,"is_reserved":false,"is_disabled":false,"rental_uris":{"android":"levelo://app?vid=77fb9451-81e4-444e-a934-1f83094b6e2f","ios":"levelo://app?vid=77fb9451-81e4-444e-a934-1f83094b6e2f"},"vehicle_type_id":"4","last_reported":1740589713,"current_range_meters":1600,"station_id":"ce4bh412rcd13ifvqds0","pricing_plan_id":"cebpf4jnsgd1na2vs0mg"},{"bike_id":"3a190ad7-7108-4ed3-8f9f-73acb9dd33db","system_id":"levelo_inurba_marseille","lat":43.28705,"lon":5.39992,"is_reserved":false,"is_disabled":false,"rental_uris":{"android":"levelo://app?vid=3a190ad7-7108-4ed3-8f9f-73acb9dd33db","ios":"levelo://app?vid=3a190ad7-7108-4ed3-8f9f-73acb9dd33db"},"vehicle_type_id":"4","last_reported":1740589713,"current_range_meters":2000,"station_id":"ce4bho92rcd13ifvqh3g","pricing_plan_id":"cebpf4jnsgd1na2vs0mg"},{"bike_id":"4e8695ab-c928-4d34-89f3-f7dc7fe4dc45","system_id":"levelo_inurba_marseille","lat":43.2811,"lon":5.37826,"is_reserved":false,"is_disabled":false,"rental_uris":{"android":"levelo://app?vid=4e8695ab-c928-4d34-89f3-f7dc7fe4dc45","ios":"levelo://app?vid=4e8695ab-c928-4d34-89f3-f7dc7fe4dc45"},"vehicle_type_id":"4","last_reported":1740589713,"current_range_meters":4400,"station_id":"ce4bha12rcd13ifvqee0","pricing_plan_id":"cebpf4jnsgd1na2vs0mg"},{"bike_id":"e9dc8385-bccb-4d99-b0be-20fac0722c1c","system_id":"levelo_inurba_marseille","lat":43.30129,"lon":5.39875,"is_reserved":false,"is_disabled":false,"rental_uris":{"android":"levelo://app?vid=e9dc8385-bccb-4d99-b0be-20fac0722c1c","ios":"levelo://app?vid=e9dc8385-bccb-4d99-b0be-20fac0722c1c"},"vehicle_type_id":"4","last_reported":1740589713,"current_range_meters":2800,"station_id":"ce4bh0h2rcd13ifvqd40","pricing_plan_id":"cebpf4jnsgd1na2vs0mg"},{"bike_id":"5e3bc055-53f5-4e27-b05a-f6514521a1e0","system_id":"levelo_inurba_marseille","lat":43.255,"lon":5.37651,"is_reserved":false,"is_disabled":false,"rental_uris":{"android":"levelo://app?vid=5e3bc055-53f5-4e27-b05a-f6514521a1e0","ios":"levelo://app?vid=5e3bc055-53f5-4e27-b05a-f6514521a1e0"},"vehicle_type_id":"4","last_reported":1740589713,"current_range_meters":2800,"station_id":"ce4bhh12rcd13ifvqff0","pricing_plan_id":"cebpf4jnsgd1na2vs0mg"},{"bike_id":"599d392e-dc55-4dfd-80ca-642baa0ad14e","system_id":"levelo_inurba_marseille","lat":43.26209,"lon":5.37443,"is_reserved":false,"is_disabled":false,"rental_uris":{"android":"levelo://app?vid=599d392e-dc55-4dfd-80ca-642baa0ad14e","ios":"levelo://app?vid=599d392e-dc55-4dfd-80ca-642baa0ad14e"},"vehicle_type_id":"4","last_reported":1740589713,"current_range_meters":2800,"station_id":"ce4bhgp2rcd13ifvqfc0","pricing_plan_id":"cebpf4jnsgd1na2vs0mg"},{"bike_id":"35e8a2d3-c5c6-4eaa-9188-53dafef8b511","system_id":"levelo_inurba_marseille","lat":43.29072,"lon":5.38152,"is_reserved":false,"is_disabled":false,"rental_uris":{"android":"levelo://app?vid=35e8a2d3-c5c6-4eaa-9188-53dafef8b511","ios":"levelo://app?vid=35e8a2d3-c5c6-4eaa-9188-53dafef8b511"},"vehicle_type_id":"4","last_reported":1740589713,"current_range_meters":2000,"station_id":"ce4bh512rcd13ifvqe2g","pricing_plan_id":"cebpf4jnsgd1na2vs0mg"},{"bike_id":"b1390c52-917d-4eb2-9a5a-de5ed9ba5ddc","system_id":"levelo_inurba_marseille","lat":43.29895,"lon":5.43669,"is_reserved":false,"is_disabled":false,"rental_uris":{"android":"levelo://app?vid=b1390c52-917d-4eb2-9a5a-de5ed9ba5ddc","ios":"levelo://app?vid=b1390c52-917d-4eb2-9a5a-de5ed9ba5ddc"},"vehicle_type_id":"4","last_reported":1740589713,"current_range_meters":3200,"station_id":"ce4bhpp2rcd13ifvqhfg","pricing_plan_id":"cebpf4jnsgd1na2vs0mg"},{"bike_id":"2d9fd4d8-c93e-4482-ac9a-27e0eb1c2dfe","system_id":"levelo_inurba_marseille","lat":43.31436,"lon":5.3876,"is_reserved":false,"is_disabled":false,"rental_uris":{"android":"levelo://app?vid=2d9fd4d8-c93e-4482-ac9a-27e0eb1c2dfe","ios":"levelo://app?vid=2d9fd4d8-c93e-4482-ac9a-27e0eb1c2dfe"},"vehicle_type_id":"4","last_reported":1740589713,"current_range_meters":3200,"station_id":"","pricing_plan_id":"cebpf4jnsgd1na2vs0mg"},{"bike_id":"81886b0c-7299-4537-8caa-41b66534a157","system_id":"levelo_inurba_marseille","lat":43.29263,"lon":5.38437,"is_reserved":false,"is_disabled":false,"rental_uris":{"android":"levelo://app?vid=81886b0c-7299-4537-8caa-41b66534a157","ios":"levelo://app?vid=81886b0c-7299-4537-8caa-41b66534a157"},"vehicle_type_id":"4","last_reported":1740589713,"current_range_meters":3200,"station_id":"ce4bh692rcd13ifvqea0","pricing_plan_id":"cebpf4jnsgd1na2vs0mg"},{"bike_id":"9dddb1e0-e67e-4e90-b84a-eeafc6eee4ce","system_id":"levelo_inurba_marseille","lat":43.25584,"lon":5.38224,"is_reserved":false,"is_disabled":false,"rental_uris":{"android":"levelo://app?vid=9dddb1e0-e67e-4e90-b84a-eeafc6eee4ce","ios":"levelo://app?vid=9dddb1e0-e67e-4e90-b84a-eeafc6eee4ce"},"vehicle_type_id":"4","last_reported":1740589713,"current_range_meters":4000,"station_id":"ce4bhih2rcd13ifvqfs0","pricing_plan_id":"cebpf4jnsgd1na2vs0mg"},{"bike_id":"0bc2b0f6-0892-4f52-ac83-cc77060f29fc","system_id":"levelo_inurba_marseille","lat":43.2482,"lon":5.37444,"is_reserved":false,"is_disabled":false,"rental_uris":{"android":"levelo://app?vid=0bc2b0f6-0892-4f52-ac83-cc77060f29fc","ios":"levelo://app?vid=0bc2b0f6-0892-4f52-ac83-cc77060f29fc"},"vehicle_type_id":"4","last_reported":1740589713,"current_range_meters":3600,"station_id":"ce4bhgh2rcd13ifvqfb0","pricing_plan_id":"cebpf4jnsgd1na2vs0mg"},{"bike_id":"aa91a3f2-a1c7-49b9-ab06-f14aec4db27b","system_id":"levelo_inurba_marseille","lat":43.29531,"lon":5.39044,"is_reserved":false,"is_disabled":false,"rental_uris":{"android":"levelo://app?vid=aa91a3f2-a1c7-49b9-ab06-f14aec4db27b","ios":"levelo://app?vid=aa91a3f2-a1c7-49b9-ab06-f14aec4db27b"},"vehicle_type_id":"4","last_reported":1740589713,"current_range_meters":5600,"station_id":"ce4bh3p2rcd13ifvqdp0","pricing_plan_id":"cebpf4jnsgd1na2vs0mg"},{"bike_id":"0852ad86-64d9-41fe-a230-869fe47cdb17","system_id":"levelo_inurba_marseille","lat":43.290354,"lon":5.399607,"is_reserved":false,"is_disabled":false,"rental_uris":{"android":"levelo://app?vid=0852ad86-64d9-41fe-a230-869fe47cdb17","ios":"levelo://app?vid=0852ad86-64d9-41fe-a230-869fe47cdb17"},"vehicle_type_id":"4","last_reported":1740589713,"current_range_meters":4000,"station_id":"ce4bhf92rcd13ifvqf40","pricing_plan_id":"cebpf4jnsgd1na2vs0mg"},{"bike_id":"d8a9108e-498a-4851-bb03-c24e839e3957","system_id":"levelo_inurba_marseille","lat":43.23153,"lon":5.43728,"is_reserved":false,"is_disabled":false,"rental_uris":{"android":"levelo://app?vid=d8a9108e-498a-4851-bb03-c24e839e3957","ios":"levelo://app?vid=d8a9108e-498a-4851-bb03-c24e839e3957"},"vehicle_type_id":"4","last_reported":1740589713,"current_range_meters":3600,"station_id":"ce4bhmp2rcd13ifvqgog","pricing_plan_id":"cebpf4jnsgd1na2vs0mg"},{"bike_id":"d781153a-e0bd-4f05-85a8-8589fd9aa21a","system_id":"levelo_inurba_marseille","lat":43.32118,"lon":5.36762,"is_reserved":false,"is_disabled":false,"rental_uris":{"android":"levelo://app?vid=d781153a-e0bd-4f05-85a8-8589fd9aa21a","ios":"levelo://app?vid=d781153a-e0bd-4f05-85a8-8589fd9aa21a"},"vehicle_type_id":"4","last_reported":1740589713,"current_range_meters":4400,"station_id":"ce4bhrh2rcd13ifvqhug","pricing_plan_id":"cebpf4jnsgd1na2vs0mg"},{"bike_id":"67b3b19a-9c33-45c3-874a-9702e7a51cf9","system_id":"levelo_inurba_marseille","lat":43.28728,"lon":5.37938,"is_reserved":false,"is_disabled":false,"rental_uris":{"android":"levelo://app?vid=67b3b19a-9c33-45c3-874a-9702e7a51cf9","ios":"levelo://app?vid=67b3b19a-9c33-45c3-874a-9702e7a51cf9"},"vehicle_type_id":"4","last_reported":1740589713,"current_range_meters":4400,"station_id":"ce4bh9p2rcd13ifvqec0","pricing_plan_id":"cebpf4jnsgd1na2vs0mg"},{"bike_id":"b2ed9dbd-2da5-48dc-adc7-67c5770e9205","system_id":"levelo_inurba_marseille","lat":43.24804,"lon":5.37456,"is_reserved":false,"is_disabled":false,"rental_uris":{"android":"levelo://app?vid=b2ed9dbd-2da5-48dc-adc7-67c5770e9205","ios":"levelo://app?vid=b2ed9dbd-2da5-48dc-adc7-67c5770e9205"},"vehicle_type_id":"4","last_reported":1740589713,"current_range_meters":4400,"station_id":"ce4bhgh2rcd13ifvqfb0","pricing_plan_id":"cebpf4jnsgd1na2vs0mg"},{"bike_id":"1e12dedb-be23-4cc8-9b41-a420f3d8562b","system_id":"levelo_inurba_marseille","lat":43.29555,"lon":5.42283,"is_reserved":false,"is_disabled":false,"rental_uris":{"android":"levelo://app?vid=1e12dedb-be23-4cc8-9b41-a420f3d8562b","ios":"levelo://app?vid=1e12dedb-be23-4cc8-9b41-a420f3d8562b"},"vehicle_type_id":"4","last_reported":1740589713,"current_range_meters":4000,"station_id":"ce4bhph2rcd13ifvqhdg","pricing_plan_id":"cebpf4jnsgd1na2vs0mg"},{"bike_id":"6c1dd79c-d6c5-441e-ac70-1c7797fdd333","system_id":"levelo_inurba_marseille","lat":43.28461,"lon":5.35888,"is_reserved":false,"is_disabled":false,"rental_uris":{"android":"levelo://app?vid=6c1dd79c-d6c5-441e-ac70-1c7797fdd333","ios":"levelo://app?vid=6c1dd79c-d6c5-441e-ac70-1c7797fdd333"},"vehicle_type_id":"4","last_reported":1740589713,"current_range_meters":4800,"station_id":"ce4bhah2rcd13ifvqei0","pricing_plan_id":"cebpf4jnsgd1na2vs0mg"},{"bike_id":"fae16b87-2a89-4b39-ba3f-4283d4ee9ba9","system_id":"levelo_inurba_marseille","lat":43.25078,"lon":5.39508,"is_reserved":false,"is_disabled":false,"rental_uris":{"android":"levelo://app?vid=fae16b87-2a89-4b39-ba3f-4283d4ee9ba9","ios":"levelo://app?vid=fae16b87-2a89-4b39-ba3f-4283d4ee9ba9"},"vehicle_type_id":"4","last_reported":1740589713,"current_range_meters":3600,"station_id":"ce4bhm12rcd13ifvqgkg","pricing_plan_id":"cebpf4jnsgd1na2vs0mg"},{"bike_id":"a8c08fe9-0a0a-4ea8-a3cf-0a57c01dd7eb","system_id":"levelo_inurba_marseille","lat":43.26235,"lon":5.40456,"is_reserved":false,"is_disabled":false,"rental_uris":{"android":"levelo://app?vid=a8c08fe9-0a0a-4ea8-a3cf-0a57c01dd7eb","ios":"levelo://app?vid=a8c08fe9-0a0a-4ea8-a3cf-0a57c01dd7eb"},"vehicle_type_id":"4","last_reported":1740589713,"current_range_meters":5600,"station_id":"ce4bhmh2rcd13ifvqgmg","pricing_plan_id":"cebpf4jnsgd1na2vs0mg"},{"bike_id":"87896c59-a31c-4744-9a2c-6fdf733154be","system_id":"levelo_inurba_marseille","lat":43.287065,"lon":5.373937,"is_reserved":false,"is_disabled":false,"rental_uris":{"android":"levelo://app?vid=87896c59-a31c-4744-9a2c-6fdf733154be","ios":"levelo://app?vid=87896c59-a31c-4744-9a2c-6fdf733154be"},"vehicle_type_id":"4","last_reported":1740589713,"current_range_meters":5600,"station_id":"ce4bh3p2rcd13ifvqdq0","pricing_plan_id":"cebpf4jnsgd1na2vs0mg"},{"bike_id":"cd10686f-c971-4b3f-932b-0955ecbea819","system_id":"levelo_inurba_marseille","lat":43.29264,"lon":5.38442,"is_reserved":false,"is_disabled":false,"rental_uris":{"android":"levelo://app?vid=cd10686f-c971-4b3f-932b-0955ecbea819","ios":"levelo://app?vid=cd10686f-c971-4b3f-932b-0955ecbea819"},"vehicle_type_id":"4","last_reported":1740589713,"current_range_meters":6400,"station_id":"ce4bh692rcd13ifvqea0","pricing_plan_id":"cebpf4jnsgd1na2vs0mg"},{"bike_id":"ac99685c-d902-4a61-8238-569aa0a06e7f","system_id":"levelo_inurba_marseille","lat":43.29004,"lon":5.35616,"is_reserved":false,"is_disabled":false,"rental_uris":{"android":"levelo://app?vid=ac99685c-d902-4a61-8238-569aa0a06e7f","ios":"levelo://app?vid=ac99685c-d902-4a61-8238-569aa0a06e7f"},"vehicle_type_id":"4","last_reported":1740589713,"current_range_meters":6000,"station_id":"ce4bhb92rcd13ifvqen0","pricing_plan_id":"cebpf4jnsgd1na2vs0mg"},{"bike_id":"e5c275a2-a964-47d8-9489-ed1126cf4cef","system_id":"levelo_inurba_marseille","lat":43.29571,"lon":5.37899,"is_reserved":false,"is_disabled":false,"rental_uris":{"android":"levelo://app?vid=e5c275a2-a964-47d8-9489-ed1126cf4cef","ios":"levelo://app?vid=e5c275a2-a964-47d8-9489-ed1126cf4cef"},"vehicle_type_id":"4","last_reported":1740589713,"current_range_meters":6400,"station_id":"","pricing_plan_id":"cebpf4jnsgd1na2vs0mg"},{"bike_id":"9856034c-d300-4258-a1e7-1de09dc9b2ea","system_id":"levelo_inurba_marseille","lat":43.29523,"lon":5.39406,"is_reserved":false,"is_disabled":false,"rental_uris":{"android":"levelo://app?vid=9856034c-d300-4258-a1e7-1de09dc9b2ea","ios":"levelo://app?vid=9856034c-d300-4258-a1e7-1de09dc9b2ea"},"vehicle_type_id":"4","last_reported":1740589713,"current_range_meters":6400,"station_id":"ce4bh292rcd13ifvqdf0","pricing_plan_id":"cebpf4jnsgd1na2vs0mg"},{"bike_id":"77d72656-ec37-44f1-ab2b-c05ee9e3e3e9","system_id":"levelo_inurba_marseille","lat":43.29285,"lon":5.37563,"is_reserved":false,"is_disabled":false,"rental_uris":{"android":"levelo://app?vid=77d72656-ec37-44f1-ab2b-c05ee9e3e3e9","ios":"levelo://app?vid=77d72656-ec37-44f1-ab2b-c05ee9e3e3e9"},"vehicle_type_id":"4","last_reported":1740589713,"current_range_meters":6400,"station_id":"","pricing_plan_id":"cebpf4jnsgd1na2vs0mg"},{"bike_id":"a40836f3-b31b-43b6-87ee-28aadd78212e","system_id":"levelo_inurba_marseille","lat":43.30441,"lon":5.38895,"is_reserved":false,"is_disabled":false,"rental_uris":{"android":"levelo://app?vid=a40836f3-b31b-43b6-87ee-28aadd78212e","ios":"levelo://app?vid=a40836f3-b31b-43b6-87ee-28aadd78212e"},"vehicle_type_id":"4","last_reported":1740589713,"current_range_meters":2000,"station_id":"ce4bgk12rcd13ifvqbi0","pricing_plan_id":"cebpf4jnsgd1na2vs0mg"},{"bike_id":"35a05e47-ab6f-4908-8390-cbb06134fc25","system_id":"levelo_inurba_marseille","lat":43.24547,"lon":5.39525,"is_reserved":false,"is_disabled":false,"rental_uris":{"android":"levelo://app?vid=35a05e47-ab6f-4908-8390-cbb06134fc25","ios":"levelo://app?vid=35a05e47-ab6f-4908-8390-cbb06134fc25"},"vehicle_type_id":"4","last_reported":1740589713,"current_range_meters":6400,"station_id":"ce4bhlp2rcd13ifvqgjg","pricing_plan_id":"cebpf4jnsgd1na2vs0mg"},{"bike_id":"411b5315-e03f-43f4-b5cd-9f0caf8d3081","system_id":"levelo_inurba_marseille","lat":43.23234,"lon":5.39865,"is_reserved":false,"is_disabled":false,"rental_uris":{"android":"levelo://app?vid=411b5315-e03f-43f4-b5cd-9f0caf8d3081","ios":"levelo://app?vid=411b5315-e03f-43f4-b5cd-9f0caf8d3081"},"vehicle_type_id":"4","last_reported":1740589713,"current_range_meters":6400,"station_id":"ce4bhn12rcd13ifvqgqg","pricing_plan_id":"cebpf4jnsgd1na2vs0mg"},{"bike_id":"fc9aa409-a204-4164-8b26-4901f08902df","system_id":"levelo_inurba_marseille","lat":43.3254,"lon":5.41427,"is_reserved":false,"is_disabled":false,"rental_uris":{"android":"levelo://app?vid=fc9aa409-a204-4164-8b26-4901f08902df","ios":"levelo://app?vid=fc9aa409-a204-4164-8b26-4901f08902df"},"vehicle_type_id":"4","last_reported":1740589713,"current_range_meters":6800,"station_id":"ce4bhq12rcd13ifvqhhg","pricing_plan_id":"cebpf4jnsgd1na2vs0mg"},{"bike_id":"24a8cee3-b60a-461d-954c-54ff092724df","system_id":"levelo_inurba_marseille","lat":43.23188,"lon":5.35557,"is_reserved":false,"is_disabled":false,"rental_uris":{"android":"levelo://app?vid=24a8cee3-b60a-461d-954c-54ff092724df","ios":"levelo://app?vid=24a8cee3-b60a-461d-954c-54ff092724df"},"vehicle_type_id":"4","last_reported":1740589713,"current_range_meters":6400,"station_id":"ce4bhu92rcd13ifvqi70","pricing_plan_id":"cebpf4jnsgd1na2vs0mg"},{"bike_id":"7f7cc99d-4ce7-4009-91d2-73969ba982b5","system_id":"levelo_inurba_marseille","lat":43.29889,"lon":5.3889,"is_reserved":false,"is_disabled":false,"rental_uris":{"android":"levelo://app?vid=7f7cc99d-4ce7-4009-91d2-73969ba982b5","ios":"levelo://app?vid=7f7cc99d-4ce7-4009-91d2-73969ba982b5"},"vehicle_type_id":"4","last_reported":1740589713,"current_range_meters":6000,"station_id":"ce4bh392rcd13ifvqdl0","pricing_plan_id":"cebpf4jnsgd1na2vs0mg"},{"bike_id":"69c692df-9f27-4a56-9dba-b128b39eda4c","system_id":"levelo_inurba_marseille","lat":43.29982,"lon":5.38493,"is_reserved":false,"is_disabled":false,"rental_uris":{"android":"levelo://app?vid=69c692df-9f27-4a56-9dba-b128b39eda4c","ios":"levelo://app?vid=69c692df-9f27-4a56-9dba-b128b39eda4c"},"vehicle_type_id":"4","last_reported":1740589713,"current_range_meters":6400,"station_id":"ce4bgj92rcd13ifvqbd0","pricing_plan_id":"cebpf4jnsgd1na2vs0mg"},{"bike_id":"39c490fa-7a92-47db-bc32-fe7f8b3890e2","system_id":"levelo_inurba_marseille","lat":43.29275,"lon":5.36843,"is_reserved":false,"is_disabled":true,"rental_uris":{"android":"levelo://app?vid=39c490fa-7a92-47db-bc32-fe7f8b3890e2","ios":"levelo://app?vid=39c490fa-7a92-47db-bc32-fe7f8b3890e2"},"vehicle_type_id":"4","last_reported":1740589713,"current_range_meters":6400,"station_id":"ce4bhbp2rcd13ifvqesg","pricing_plan_id":"cebpf4jnsgd1na2vs0mg"},{"bike_id":"3fb31dea-2449-4888-af5d-67d12d6314a8","system_id":"levelo_inurba_marseille","lat":43.3064,"lon":5.40077,"is_reserved":false,"is_disabled":false,"rental_uris":{"android":"levelo://app?vid=3fb31dea-2449-4888-af5d-67d12d6314a8","ios":"levelo://app?vid=3fb31dea-2449-4888-af5d-67d12d6314a8"},"vehicle_type_id":"4","last_reported":1740589713,"current_range_meters":6000,"station_id":"ce4bh112rcd13ifvqda0","pricing_plan_id":"cebpf4jnsgd1na2vs0mg"},{"bike_id":"7392fb11-e3c7-4e14-aafa-e4328dbd71c0","system_id":"levelo_inurba_marseille","lat":43.293,"lon":5.37458,"is_reserved":false,"is_disabled":false,"rental_uris":{"android":"levelo://app?vid=7392fb11-e3c7-4e14-aafa-e4328dbd71c0","ios":"levelo://app?vid=7392fb11-e3c7-4e14-aafa-e4328dbd71c0"},"vehicle_type_id":"4","last_reported":1740589713,"current_range_meters":5600,"station_id":"ce4bgi12rcd13ifvqb70","pricing_plan_id":"cebpf4jnsgd1na2vs0mg"},{"bike_id":"5f94efb5-7329-43c9-b632-c0cbf0ee741f","system_id":"levelo_inurba_marseille","lat":43.22931,"lon":5.35375,"is_reserved":false,"is_disabled":false,"rental_uris":{"android":"levelo://app?vid=5f94efb5-7329-43c9-b632-c0cbf0ee741f","ios":"levelo://app?vid=5f94efb5-7329-43c9-b632-c0cbf0ee741f"},"vehicle_type_id":"4","last_reported":1740589713,"current_range_meters":6800,"station_id":"cpo3532slgdg3j2ikp40","pricing_plan_id":"cebpf4jnsgd1na2vs0mg"},{"bike_id":"7ac7ffdf-ce03-4411-8e89-d7fd66908cad","system_id":"levelo_inurba_marseille","lat":43.29589,"lon":5.36742,"is_reserved":false,"is_disabled":false,"rental_uris":{"android":"levelo://app?vid=7ac7ffdf-ce03-4411-8e89-d7fd66908cad","ios":"levelo://app?vid=7ac7ffdf-ce03-4411-8e89-d7fd66908cad"},"vehicle_type_id":"4","last_reported":1740589713,"current_range_meters":5600,"station_id":"ce4bgph2rcd13ifvqc2g","pricing_plan_id":"cebpf4jnsgd1na2vs0mg"},{"bike_id":"05d1f474-57e5-43d3-a6a4-5af3a09a75d3","system_id":"levelo_inurba_marseille","lat":43.26555,"lon":5.3901,"is_reserved":false,"is_disabled":false,"rental_uris":{"android":"levelo://app?vid=05d1f474-57e5-43d3-a6a4-5af3a09a75d3","ios":"levelo://app?vid=05d1f474-57e5-43d3-a6a4-5af3a09a75d3"},"vehicle_type_id":"4","last_reported":1740589713,"current_range_meters":2800,"station_id":"ce4bhe12rcd13ifvqf30","pricing_plan_id":"cebpf4jnsgd1na2vs0mg"},{"bike_id":"cf3ab1f0-0123-4e26-8e4f-f65d17d40274","system_id":"levelo_inurba_marseille","lat":43.29319,"lon":5.37158,"is_reserved":false,"is_disabled":false,"rental_uris":{"android":"levelo://app?vid=cf3ab1f0-0123-4e26-8e4f-f65d17d40274","ios":"levelo://app?vid=cf3ab1f0-0123-4e26-8e4f-f65d17d40274"},"vehicle_type_id":"4","last_reported":1740589713,"current_range_meters":3200,"station_id":"ce4bgh92rcd13ifvqb40","pricing_plan_id":"cebpf4jnsgd1na2vs0mg"},{"bike_id":"63dc7ddd-5e3c-41d8-99a1-8dd74a3ff057","system_id":"levelo_inurba_marseille","lat":43.27007,"lon":5.40625,"is_reserved":false,"is_disabled":false,"rental_uris":{"android":"levelo://app?vid=63dc7ddd-5e3c-41d8-99a1-8dd74a3ff057","ios":"levelo://app?vid=63dc7ddd-5e3c-41d8-99a1-8dd74a3ff057"},"vehicle_type_id":"4","last_reported":1740589713,"current_range_meters":7200,"station_id":"","pricing_plan_id":"cebpf4jnsgd1na2vs0mg"},{"bike_id":"13f0fd3f-1db0-4400-ad4e-d3d898260e6e","system_id":"levelo_inurba_marseille","lat":43.3064,"lon":5.40107,"is_reserved":false,"is_disabled":false,"rental_uris":{"android":"levelo://app?vid=13f0fd3f-1db0-4400-ad4e-d3d898260e6e","ios":"levelo://app?vid=13f0fd3f-1db0-4400-ad4e-d3d898260e6e"},"vehicle_type_id":"4","last_reported":1740589713,"current_range_meters":6800,"station_id":"ce4bh112rcd13ifvqda0","pricing_plan_id":"cebpf4jnsgd1na2vs0mg"},{"bike_id":"60563ad7-422d-49af-af20-ae1986ecd328","system_id":"levelo_inurba_marseille","lat":43.3113,"lon":5.37757,"is_reserved":false,"is_disabled":false,"rental_uris":{"android":"levelo://app?vid=60563ad7-422d-49af-af20-ae1986ecd328","ios":"levelo://app?vid=60563ad7-422d-49af-af20-ae1986ecd328"},"vehicle_type_id":"4","last_reported":1740589713,"current_range_meters":7200,"station_id":"ce4bgt92rcd13ifvqcg0","pricing_plan_id":"cebpf4jnsgd1na2vs0mg"},{"bike_id":"81f46376-25f2-4311-bbcc-5849a96bb9b2","system_id":"levelo_inurba_marseille","lat":43.29965,"lon":5.38495,"is_reserved":false,"is_disabled":false,"rental_uris":{"android":"levelo://app?vid=81f46376-25f2-4311-bbcc-5849a96bb9b2","ios":"levelo://app?vid=81f46376-25f2-4311-bbcc-5849a96bb9b2"},"vehicle_type_id":"4","last_reported":1740589713,"current_range_meters":7200,"station_id":"ce4bgj92rcd13ifvqbd0","pricing_plan_id":"cebpf4jnsgd1na2vs0mg"},{"bike_id":"274a0001-6316-4453-9c79-e95591e69152","system_id":"levelo_inurba_marseille","lat":43.31896,"lon":5.40739,"is_reserved":false,"is_disabled":false,"rental_uris":{"android":"levelo://app?vid=274a0001-6316-4453-9c79-e95591e69152","ios":"levelo://app?vid=274a0001-6316-4453-9c79-e95591e69152"},"vehicle_type_id":"4","last_reported":1740589713,"current_range_meters":0,"station_id":"ce4bhq12rcd13ifvqhig","pricing_plan_id":"cebpf4jnsgd1na2vs0mg"},{"bike_id":"661450c0-692b-4295-81d0-ec63ad25ae93","system_id":"levelo_inurba_marseille","lat":43.27997,"lon":5.40014,"is_reserved":false,"is_disabled":false,"rental_uris":{"android":"levelo://app?vid=661450c0-692b-4295-81d0-ec63ad25ae93","ios":"levelo://app?vid=661450c0-692b-4295-81d0-ec63ad25ae93"},"vehicle_type_id":"4","last_reported":1740589713,"current_range_meters":12400,"station_id":"ce4bho92rcd13ifvqh4g","pricing_plan_id":"cebpf4jnsgd1na2vs0mg"},{"bike_id":"692772d7-7df1-47bf-8448-7ff1d0a3e3f6","system_id":"levelo_inurba_marseille","lat":43.31682,"lon":5.40474,"is_reserved":false,"is_disabled":false,"rental_uris":{"android":"levelo://app?vid=692772d7-7df1-47bf-8448-7ff1d0a3e3f6","ios":"levelo://app?vid=692772d7-7df1-47bf-8448-7ff1d0a3e3f6"},"vehicle_type_id":"4","last_reported":1740589713,"current_range_meters":7200,"station_id":"ce4bh012rcd13ifvqd00","pricing_plan_id":"cebpf4jnsgd1na2vs0mg"},{"bike_id":"3b4f43c2-ab38-4f97-85d6-7d6ae634fb74","system_id":"levelo_inurba_marseille","lat":43.29775,"lon":5.3711,"is_reserved":false,"is_disabled":false,"rental_uris":{"android":"levelo://app?vid=3b4f43c2-ab38-4f97-85d6-7d6ae634fb74","ios":"levelo://app?vid=3b4f43c2-ab38-4f97-85d6-7d6ae634fb74"},"vehicle_type_id":"4","last_reported":1740589713,"current_range_meters":8000,"station_id":"ce4bgop2rcd13ifvqc1g","pricing_plan_id":"cebpf4jnsgd1na2vs0mg"},{"bike_id":"9d492f09-320c-4bc2-9881-e71ca7d6aa17","system_id":"levelo_inurba_marseille","lat":43.27918,"lon":5.39586,"is_reserved":false,"is_disabled":false,"rental_uris":{"android":"levelo://app?vid=9d492f09-320c-4bc2-9881-e71ca7d6aa17","ios":"levelo://app?vid=9d492f09-320c-4bc2-9881-e71ca7d6aa17"},"vehicle_type_id":"4","last_reported":1740589713,"current_range_meters":7200,"station_id":"ce4bhf92rcd13ifvqf40","pricing_plan_id":"cebpf4jnsgd1na2vs0mg"},{"bike_id":"8fb42d55-ce42-48d8-ae7f-5b20b0348403","system_id":"levelo_inurba_marseille","lat":43.27627,"lon":5.36089,"is_reserved":false,"is_disabled":false,"rental_uris":{"android":"levelo://app?vid=8fb42d55-ce42-48d8-ae7f-5b20b0348403","ios":"levelo://app?vid=8fb42d55-ce42-48d8-ae7f-5b20b0348403"},"vehicle_type_id":"4","last_reported":1740589713,"current_range_meters":7200,"station_id":"ce4bgj92rcd13ifvqbe0","pricing_plan_id":"cebpf4jnsgd1na2vs0mg"},{"bike_id":"0a3f5ff5-949d-4cf4-a30b-f6d782a87c75","system_id":"levelo_inurba_marseille","lat":43.25584,"lon":5.38245,"is_reserved":false,"is_disabled":false,"rental_uris":{"android":"levelo://app?vid=0a3f5ff5-949d-4cf4-a30b-f6d782a87c75","ios":"levelo://app?vid=0a3f5ff5-949d-4cf4-a30b-f6d782a87c75"},"vehicle_type_id":"4","last_reported":1740589713,"current_range_meters":8000,"station_id":"ce4bhih2rcd13ifvqfs0","pricing_plan_id":"cebpf4jnsgd1na2vs0mg"},{"bike_id":"08f84616-04e9-4729-a088-76cd7cd7e0c4","system_id":"levelo_inurba_marseille","lat":43.29275,"lon":5.40114,"is_reserved":false,"is_disabled":false,"rental_uris":{"android":"levelo://app?vid=08f84616-04e9-4729-a088-76cd7cd7e0c4","ios":"levelo://app?vid=08f84616-04e9-4729-a088-76cd7cd7e0c4"},"vehicle_type_id":"4","last_reported":1740589713,"current_range_meters":8000,"station_id":"ce4bh312rcd13ifvqdk0","pricing_plan_id":"cebpf4jnsgd1na2vs0mg"},{"bike_id":"05f51bd6-bf8c-4b6c-ba2f-d7bf7cec3006","system_id":"levelo_inurba_marseille","lat":43.23189,"lon":5.35566,"is_reserved":false,"is_disabled":false,"rental_uris":{"android":"levelo://app?vid=05f51bd6-bf8c-4b6c-ba2f-d7bf7cec3006","ios":"levelo://app?vid=05f51bd6-bf8c-4b6c-ba2f-d7bf7cec3006"},"vehicle_type_id":"4","last_reported":1740589713,"current_range_meters":8000,"station_id":"ce4bhu92rcd13ifvqi70","pricing_plan_id":"cebpf4jnsgd1na2vs0mg"},{"bike_id":"e6d782ec-fa49-4ce5-97b5-6b5406718ee7","system_id":"levelo_inurba_marseille","lat":43.29571,"lon":5.39983,"is_reserved":false,"is_disabled":false,"rental_uris":{"android":"levelo://app?vid=e6d782ec-fa49-4ce5-97b5-6b5406718ee7","ios":"levelo://app?vid=e6d782ec-fa49-4ce5-97b5-6b5406718ee7"},"vehicle_type_id":"4","last_reported":1740589713,"current_range_meters":8000,"station_id":"","pricing_plan_id":"cebpf4jnsgd1na2vs0mg"},{"bike_id":"68db716c-6572-40ea-b079-987ee4623b4d","system_id":"levelo_inurba_marseille","lat":43.26854,"lon":5.40944,"is_reserved":false,"is_disabled":false,"rental_uris":{"android":"levelo://app?vid=68db716c-6572-40ea-b079-987ee4623b4d","ios":"levelo://app?vid=68db716c-6572-40ea-b079-987ee4623b4d"},"vehicle_type_id":"4","last_reported":1740589713,"current_range_meters":8000,"station_id":"","pricing_plan_id":"cebpf4jnsgd1na2vs0mg"},{"bike_id":"e0491cf4-34bc-4e42-8149-ccd299413841","system_id":"levelo_inurba_marseille","lat":43.31165,"lon":5.38723,"is_reserved":false,"is_disabled":false,"rental_uris":{"android":"levelo://app?vid=e0491cf4-34bc-4e42-8149-ccd299413841","ios":"levelo://app?vid=e0491cf4-34bc-4e42-8149-ccd299413841"},"vehicle_type_id":"4","last_reported":1740589713,"current_range_meters":8000,"station_id":"ce4bgv12rcd13ifvqcp0","pricing_plan_id":"cebpf4jnsgd1na2vs0mg"},{"bike_id":"34cc810b-432c-432d-99b7-1a96a7baa929","system_id":"levelo_inurba_marseille","lat":43.26026,"lon":5.37551,"is_reserved":false,"is_disabled":false,"rental_uris":{"android":"levelo://app?vid=34cc810b-432c-432d-99b7-1a96a7baa929","ios":"levelo://app?vid=34cc810b-432c-432d-99b7-1a96a7baa929"},"vehicle_type_id":"4","last_reported":1740589713,"current_range_meters":8400,"station_id":"ce4bhgh2rcd13ifvqfa0","pricing_plan_id":"cebpf4jnsgd1na2vs0mg"},{"bike_id":"9c24a9e2-7378-4601-93d3-5ed31818cd93","system_id":"levelo_inurba_marseille","lat":43.23196,"lon":5.35553,"is_reserved":false,"is_disabled":false,"rental_uris":{"android":"levelo://app?vid=9c24a9e2-7378-4601-93d3-5ed31818cd93","ios":"levelo://app?vid=9c24a9e2-7378-4601-93d3-5ed31818cd93"},"vehicle_type_id":"4","last_reported":1740589713,"current_range_meters":8000,"station_id":"ce4bhu92rcd13ifvqi70","pricing_plan_id":"cebpf4jnsgd1na2vs0mg"},{"bike_id":"75f2dea2-0d05-448b-902b-0854c8eb6245","system_id":"levelo_inurba_marseille","lat":43.29963,"lon":5.38504,"is_reserved":false,"is_disabled":false,"rental_uris":{"android":"levelo://app?vid=75f2dea2-0d05-448b-902b-0854c8eb6245","ios":"levelo://app?vid=75f2dea2-0d05-448b-902b-0854c8eb6245"},"vehicle_type_id":"4","last_reported":1740589713,"current_range_meters":8000,"station_id":"ce4bgj92rcd13ifvqbd0","pricing_plan_id":"cebpf4jnsgd1na2vs0mg"},{"bike_id":"8af2705b-c60b-4eee-b9e5-8fb442a06131","system_id":"levelo_inurba_marseille","lat":43.30436,"lon":5.389,"is_reserved":false,"is_disabled":false,"rental_uris":{"android":"levelo://app?vid=8af2705b-c60b-4eee-b9e5-8fb442a06131","ios":"levelo://app?vid=8af2705b-c60b-4eee-b9e5-8fb442a06131"},"vehicle_type_id":"4","last_reported":1740589713,"current_range_meters":8800,"station_id":"ce4bgk12rcd13ifvqbi0","pricing_plan_id":"cebpf4jnsgd1na2vs0mg"},{"bike_id":"f052d07c-a6d1-4581-a616-0fe68ed371b3","system_id":"levelo_inurba_marseille","lat":43.3089,"lon":5.3964,"is_reserved":false,"is_disabled":false,"rental_uris":{"android":"levelo://app?vid=f052d07c-a6d1-4581-a616-0fe68ed371b3","ios":"levelo://app?vid=f052d07c-a6d1-4581-a616-0fe68ed371b3"},"vehicle_type_id":"4","last_reported":1740589713,"current_range_meters":8400,"station_id":"ce4bh012rcd13ifvqcv0","pricing_plan_id":"cebpf4jnsgd1na2vs0mg"},{"bike_id":"70187ca0-b496-4163-8aa3-961ba0ce5c65","system_id":"levelo_inurba_marseille","lat":43.29599,"lon":5.38119,"is_reserved":false,"is_disabled":false,"rental_uris":{"android":"levelo://app?vid=70187ca0-b496-4163-8aa3-961ba0ce5c65","ios":"levelo://app?vid=70187ca0-b496-4163-8aa3-961ba0ce5c65"},"vehicle_type_id":"4","last_reported":1740589713,"current_range_meters":8400,"station_id":"ce4bgl12rcd13ifvqbo0","pricing_plan_id":"cebpf4jnsgd1na2vs0mg"},{"bike_id":"dbc8f7b4-0717-4dd1-b8c8-259a7be32b08","system_id":"levelo_inurba_marseille","lat":43.29523,"lon":5.4229,"is_reserved":false,"is_disabled":false,"rental_uris":{"android":"levelo://app?vid=dbc8f7b4-0717-4dd1-b8c8-259a7be32b08","ios":"levelo://app?vid=dbc8f7b4-0717-4dd1-b8c8-259a7be32b08"},"vehicle_type_id":"4","last_reported":1740589713,"current_range_meters":8400,"station_id":"ce4bhph2rcd13ifvqhdg","pricing_plan_id":"cebpf4jnsgd1na2vs0mg"},{"bike_id":"8f4f5c61-91cc-4fd5-85ad-d5b23eff483d","system_id":"levelo_inurba_marseille","lat":43.29478,"lon":5.36238,"is_reserved":false,"is_disabled":false,"rental_uris":{"android":"levelo://app?vid=8f4f5c61-91cc-4fd5-85ad-d5b23eff483d","ios":"levelo://app?vid=8f4f5c61-91cc-4fd5-85ad-d5b23eff483d"},"vehicle_type_id":"4","last_reported":1740589713,"current_range_meters":8800,"station_id":"","pricing_plan_id":"cebpf4jnsgd1na2vs0mg"},{"bike_id":"666230d7-ac9f-4e04-8619-30760676b0da","system_id":"levelo_inurba_marseille","lat":43.29776,"lon":5.3933,"is_reserved":false,"is_disabled":false,"rental_uris":{"android":"levelo://app?vid=666230d7-ac9f-4e04-8619-30760676b0da","ios":"levelo://app?vid=666230d7-ac9f-4e04-8619-30760676b0da"},"vehicle_type_id":"4","last_reported":1740589713,"current_range_meters":4800,"station_id":"chh1huq6cuj3fo74tm60","pricing_plan_id":"cebpf4jnsgd1na2vs0mg"},{"bike_id":"719baaea-c293-42a3-a0f8-1e9953de7b58","system_id":"levelo_inurba_marseille","lat":43.26578,"lon":5.39017,"is_reserved":false,"is_disabled":true,"rental_uris":{"android":"levelo://app?vid=719baaea-c293-42a3-a0f8-1e9953de7b58","ios":"levelo://app?vid=719baaea-c293-42a3-a0f8-1e9953de7b58"},"vehicle_type_id":"4","last_reported":1740589713,"current_range_meters":11200,"station_id":"ce4bhe12rcd13ifvqf30","pricing_plan_id":"cebpf4jnsgd1na2vs0mg"},{"bike_id":"6b476c4c-d004-478f-830c-b15af7eb8d1a","system_id":"levelo_inurba_marseille","lat":43.2957,"lon":5.39975,"is_reserved":false,"is_disabled":false,"rental_uris":{"android":"levelo://app?vid=6b476c4c-d004-478f-830c-b15af7eb8d1a","ios":"levelo://app?vid=6b476c4c-d004-478f-830c-b15af7eb8d1a"},"vehicle_type_id":"4","last_reported":1740589713,"current_range_meters":8800,"station_id":"ce4bh312rcd13ifvqdj0","pricing_plan_id":"cebpf4jnsgd1na2vs0mg"},{"bike_id":"92462461-2e5a-4065-97a2-8bc6cd2092c1","system_id":"levelo_inurba_marseille","lat":43.29073,"lon":5.37183,"is_reserved":false,"is_disabled":false,"rental_uris":{"android":"levelo://app?vid=92462461-2e5a-4065-97a2-8bc6cd2092c1","ios":"levelo://app?vid=92462461-2e5a-4065-97a2-8bc6cd2092c1"},"vehicle_type_id":"4","last_reported":1740589713,"current_range_meters":8800,"station_id":"ce4bh5p2rcd13ifvqe4g","pricing_plan_id":"cebpf4jnsgd1na2vs0mg"},{"bike_id":"a18d2462-6430-4fa5-8ce7-637ac348b4cd","system_id":"levelo_inurba_marseille","lat":43.27948,"lon":5.4106,"is_reserved":false,"is_disabled":false,"rental_uris":{"android":"levelo://app?vid=a18d2462-6430-4fa5-8ce7-637ac348b4cd","ios":"levelo://app?vid=a18d2462-6430-4fa5-8ce7-637ac348b4cd"},"vehicle_type_id":"4","last_reported":1740589713,"current_range_meters":8800,"station_id":"ce4bhnp2rcd13ifvqh0g","pricing_plan_id":"cebpf4jnsgd1na2vs0mg"},{"bike_id":"d0801915-0de0-4f9d-9726-750b42c06614","system_id":"levelo_inurba_marseille","lat":43.3211,"lon":5.36781,"is_reserved":false,"is_disabled":false,"rental_uris":{"android":"levelo://app?vid=d0801915-0de0-4f9d-9726-750b42c06614","ios":"levelo://app?vid=d0801915-0de0-4f9d-9726-750b42c06614"},"vehicle_type_id":"4","last_reported":1740589713,"current_range_meters":9200,"station_id":"ce4bhrh2rcd13ifvqhug","pricing_plan_id":"cebpf4jnsgd1na2vs0mg"},{"bike_id":"6b58fa16-ee61-426e-8858-9b39830e2344","system_id":"levelo_inurba_marseille","lat":43.29275,"lon":5.36846,"is_reserved":false,"is_disabled":false,"rental_uris":{"android":"levelo://app?vid=6b58fa16-ee61-426e-8858-9b39830e2344","ios":"levelo://app?vid=6b58fa16-ee61-426e-8858-9b39830e2344"},"vehicle_type_id":"4","last_reported":1740589713,"current_range_meters":0,"station_id":"ce4bhbp2rcd13ifvqesg","pricing_plan_id":"cebpf4jnsgd1na2vs0mg"},{"bike_id":"a3d9602c-161f-46cd-ad29-4a7cfa7846a2","system_id":"levelo_inurba_marseille","lat":43.31085,"lon":5.42434,"is_reserved":false,"is_disabled":false,"rental_uris":{"android":"levelo://app?vid=a3d9602c-161f-46cd-ad29-4a7cfa7846a2","ios":"levelo://app?vid=a3d9602c-161f-46cd-ad29-4a7cfa7846a2"},"vehicle_type_id":"4","last_reported":1740589713,"current_range_meters":9200,"station_id":"ce4bhp92rcd13ifvqhag","pricing_plan_id":"cebpf4jnsgd1na2vs0mg"},{"bike_id":"6b286004-f086-4023-9675-02a95f8e917b","system_id":"levelo_inurba_marseille","lat":43.309549,"lon":5.390382,"is_reserved":false,"is_disabled":true,"rental_uris":{"android":"levelo://app?vid=6b286004-f086-4023-9675-02a95f8e917b","ios":"levelo://app?vid=6b286004-f086-4023-9675-02a95f8e917b"},"vehicle_type_id":"4","last_reported":1740589713,"current_range_meters":9200,"station_id":"ce4bgup2rcd13ifvqco0","pricing_plan_id":"cebpf4jnsgd1na2vs0mg"},{"bike_id":"efb5f2b4-d9c1-4861-9b02-2203e0e83c08","system_id":"levelo_inurba_marseille","lat":43.301427,"lon":5.370267,"is_reserved":false,"is_disabled":false,"rental_uris":{"android":"levelo://app?vid=efb5f2b4-d9c1-4861-9b02-2203e0e83c08","ios":"levelo://app?vid=efb5f2b4-d9c1-4861-9b02-2203e0e83c08"},"vehicle_type_id":"4","last_reported":1740589713,"current_range_meters":10800,"station_id":"","pricing_plan_id":"cebpf4jnsgd1na2vs0mg"},{"bike_id":"b007f058-4163-4bbe-ba13-50835769bd43","system_id":"levelo_inurba_marseille","lat":43.31704,"lon":5.43711,"is_reserved":false,"is_disabled":false,"rental_uris":{"android":"levelo://app?vid=b007f058-4163-4bbe-ba13-50835769bd43","ios":"levelo://app?vid=b007f058-4163-4bbe-ba13-50835769bd43"},"vehicle_type_id":"4","last_reported":1740589713,"current_range_meters":9200,"station_id":"ce4bhp92rcd13ifvqhcg","pricing_plan_id":"cebpf4jnsgd1na2vs0mg"},{"bike_id":"0a5bfbc0-66a7-4e59-9571-3eb0c7fee0f0","system_id":"levelo_inurba_marseille","lat":43.28869,"lon":5.35859,"is_reserved":false,"is_disabled":false,"rental_uris":{"android":"levelo://app?vid=0a5bfbc0-66a7-4e59-9571-3eb0c7fee0f0","ios":"levelo://app?vid=0a5bfbc0-66a7-4e59-9571-3eb0c7fee0f0"},"vehicle_type_id":"4","last_reported":1740589713,"current_range_meters":9600,"station_id":"ce4bhb12rcd13ifvqem0","pricing_plan_id":"cebpf4jnsgd1na2vs0mg"},{"bike_id":"e383e810-8e1b-4db0-8940-56db638d0b42","system_id":"levelo_inurba_marseille","lat":43.29626,"lon":5.40604,"is_reserved":false,"is_disabled":false,"rental_uris":{"android":"levelo://app?vid=e383e810-8e1b-4db0-8940-56db638d0b42","ios":"levelo://app?vid=e383e810-8e1b-4db0-8940-56db638d0b42"},"vehicle_type_id":"4","last_reported":1740589713,"current_range_meters":17600,"station_id":"ce4bh0h2rcd13ifvqd60","pricing_plan_id":"cebpf4jnsgd1na2vs0mg"},{"bike_id":"8086b8fd-33e4-4643-b060-e7ecb7f7a859","system_id":"levelo_inurba_marseille","lat":43.29576,"lon":5.37514,"is_reserved":false,"is_disabled":false,"rental_uris":{"android":"levelo://app?vid=8086b8fd-33e4-4643-b060-e7ecb7f7a859","ios":"levelo://app?vid=8086b8fd-33e4-4643-b060-e7ecb7f7a859"},"vehicle_type_id":"4","last_reported":1740589713,"current_range_meters":9600,"station_id":"ce4bgh92rcd13ifvqb50","pricing_plan_id":"cebpf4jnsgd1na2vs0mg"},{"bike_id":"904b275c-97b7-4d2a-9cbb-114b6cdc9bfb","system_id":"levelo_inurba_marseille","lat":43.30302,"lon":5.36898,"is_reserved":false,"is_disabled":false,"rental_uris":{"android":"levelo://app?vid=904b275c-97b7-4d2a-9cbb-114b6cdc9bfb","ios":"levelo://app?vid=904b275c-97b7-4d2a-9cbb-114b6cdc9bfb"},"vehicle_type_id":"4","last_reported":1740589713,"current_range_meters":9600,"station_id":"ce4bgqh2rcd13ifvqc5g","pricing_plan_id":"cebpf4jnsgd1na2vs0mg"},{"bike_id":"57772caa-8ab8-4428-afea-3c045597a429","system_id":"levelo_inurba_marseille","lat":43.30543,"lon":5.38422,"is_reserved":false,"is_disabled":true,"rental_uris":{"android":"levelo://app?vid=57772caa-8ab8-4428-afea-3c045597a429","ios":"levelo://app?vid=57772caa-8ab8-4428-afea-3c045597a429"},"vehicle_type_id":"4","last_reported":1740589713,"current_range_meters":9600,"station_id":"ce4bgg92rcd13ifvqb30","pricing_plan_id":"cebpf4jnsgd1na2vs0mg"},{"bike_id":"bc0e2730-6a09-4c2d-88eb-5f3d9106f5a5","system_id":"levelo_inurba_marseille","lat":43.30254,"lon":5.40101,"is_reserved":false,"is_disabled":false,"rental_uris":{"android":"levelo://app?vid=bc0e2730-6a09-4c2d-88eb-5f3d9106f5a5","ios":"levelo://app?vid=bc0e2730-6a09-4c2d-88eb-5f3d9106f5a5"},"vehicle_type_id":"4","last_reported":1740589713,"current_range_meters":9600,"station_id":"ce4bgvh2rcd13ifvqcs0","pricing_plan_id":"cebpf4jnsgd1na2vs0mg"},{"bike_id":"02297ece-c603-41ac-b7ac-477a2a94a97a","system_id":"levelo_inurba_marseille","lat":43.30531,"lon":5.36558,"is_reserved":false,"is_disabled":false,"rental_uris":{"android":"levelo://app?vid=02297ece-c603-41ac-b7ac-477a2a94a97a","ios":"levelo://app?vid=02297ece-c603-41ac-b7ac-477a2a94a97a"},"vehicle_type_id":"4","last_reported":1740589713,"current_range_meters":8800,"station_id":"ce4bgs12rcd13ifvqcag","pricing_plan_id":"cebpf4jnsgd1na2vs0mg"},{"bike_id":"2699620d-45a0-4cf8-ae42-c2025f1e8e8d","system_id":"levelo_inurba_marseille","lat":43.29505,"lon":5.394,"is_reserved":false,"is_disabled":false,"rental_uris":{"android":"levelo://app?vid=2699620d-45a0-4cf8-ae42-c2025f1e8e8d","ios":"levelo://app?vid=2699620d-45a0-4cf8-ae42-c2025f1e8e8d"},"vehicle_type_id":"4","last_reported":1740589713,"current_range_meters":9600,"station_id":"ce4bh292rcd13ifvqdf0","pricing_plan_id":"cebpf4jnsgd1na2vs0mg"},{"bike_id":"ea630c8a-0ecd-4bee-b693-0df46eb3303f","system_id":"levelo_inurba_marseille","lat":43.30934,"lon":5.40141,"is_reserved":false,"is_disabled":false,"rental_uris":{"android":"levelo://app?vid=ea630c8a-0ecd-4bee-b693-0df46eb3303f","ios":"levelo://app?vid=ea630c8a-0ecd-4bee-b693-0df46eb3303f"},"vehicle_type_id":"4","last_reported":1740589713,"current_range_meters":10000,"station_id":"ce4bgvp2rcd13ifvqct0","pricing_plan_id":"cebpf4jnsgd1na2vs0mg"},{"bike_id":"4ba12d90-76ed-49c3-8f11-c6f91fca27fb","system_id":"levelo_inurba_marseille","lat":43.29417,"lon":5.38625,"is_reserved":false,"is_disabled":false,"rental_uris":{"android":"levelo://app?vid=4ba12d90-76ed-49c3-8f11-c6f91fca27fb","ios":"levelo://app?vid=4ba12d90-76ed-49c3-8f11-c6f91fca27fb"},"vehicle_type_id":"4","last_reported":1740589713,"current_range_meters":10000,"station_id":"ce4bh2h2rcd13ifvqdh0","pricing_plan_id":"cebpf4jnsgd1na2vs0mg"},{"bike_id":"f4523e52-867f-4f3e-9a21-56f452d68f23","system_id":"levelo_inurba_marseille","lat":43.30544,"lon":5.36549,"is_reserved":false,"is_disabled":false,"rental_uris":{"android":"levelo://app?vid=f4523e52-867f-4f3e-9a21-56f452d68f23","ios":"levelo://app?vid=f4523e52-867f-4f3e-9a21-56f452d68f23"},"vehicle_type_id":"4","last_reported":1740589713,"current_range_meters":6400,"station_id":"ce4bgs12rcd13ifvqcag","pricing_plan_id":"cebpf4jnsgd1na2vs0mg"},{"bike_id":"b983d621-06d1-4a23-a18d-766fc62bb8c7","system_id":"levelo_inurba_marseille","lat":43.28148,"lon":5.4263,"is_reserved":false,"is_disabled":false,"rental_uris":{"android":"levelo://app?vid=b983d621-06d1-4a23-a18d-766fc62bb8c7","ios":"levelo://app?vid=b983d621-06d1-4a23-a18d-766fc62bb8c7"},"vehicle_type_id":"4","last_reported":1740589713,"current_range_meters":10000,"station_id":"ce4bhnh2rcd13ifvqgug","pricing_plan_id":"cebpf4jnsgd1na2vs0mg"},{"bike_id":"0433191a-0b6b-44c4-a359-306fdae91677","system_id":"levelo_inurba_marseille","lat":43.3061,"lon":5.37231,"is_reserved":false,"is_disabled":false,"rental_uris":{"android":"levelo://app?vid=0433191a-0b6b-44c4-a359-306fdae91677","ios":"levelo://app?vid=0433191a-0b6b-44c4-a359-306fdae91677"},"vehicle_type_id":"4","last_reported":1740589713,"current_range_meters":10800,"station_id":"ce4bgqh2rcd13ifvqc4g","pricing_plan_id":"cebpf4jnsgd1na2vs0mg"},{"bike_id":"9ec75b96-e397-4b90-a9a0-62864a1aca45","system_id":"levelo_inurba_marseille","lat":43.28108,"lon":5.37833,"is_reserved":false,"is_disabled":false,"rental_uris":{"android":"levelo://app?vid=9ec75b96-e397-4b90-a9a0-62864a1aca45","ios":"levelo://app?vid=9ec75b96-e397-4b90-a9a0-62864a1aca45"},"vehicle_type_id":"4","last_reported":1740589713,"current_range_meters":10800,"station_id":"ce4bha12rcd13ifvqee0","pricing_plan_id":"cebpf4jnsgd1na2vs0mg"},{"bike_id":"1e37517c-7c13-497e-93a6-2c0209fd3d04","system_id":"levelo_inurba_marseille","lat":43.2862,"lon":5.35101,"is_reserved":false,"is_disabled":false,"rental_uris":{"android":"levelo://app?vid=1e37517c-7c13-497e-93a6-2c0209fd3d04","ios":"levelo://app?vid=1e37517c-7c13-497e-93a6-2c0209fd3d04"},"vehicle_type_id":"4","last_reported":1740589713,"current_range_meters":10800,"station_id":"ce4bhch2rcd13ifvqeug","pricing_plan_id":"cebpf4jnsgd1na2vs0mg"},{"bike_id":"1d70c622-10e8-4a33-8612-a7dc67991c51","system_id":"levelo_inurba_marseille","lat":43.31701,"lon":5.3776,"is_reserved":false,"is_disabled":false,"rental_uris":{"android":"levelo://app?vid=1d70c622-10e8-4a33-8612-a7dc67991c51","ios":"levelo://app?vid=1d70c622-10e8-4a33-8612-a7dc67991c51"},"vehicle_type_id":"4","last_reported":1740589713,"current_range_meters":10800,"station_id":"ce4bgth2rcd13ifvqch0","pricing_plan_id":"cebpf4jnsgd1na2vs0mg"},{"bike_id":"193f04b0-07b1-4f3e-b609-5fd028a89805","system_id":"levelo_inurba_marseille","lat":43.27376,"lon":5.36258,"is_reserved":false,"is_disabled":false,"rental_uris":{"android":"levelo://app?vid=193f04b0-07b1-4f3e-b609-5fd028a89805","ios":"levelo://app?vid=193f04b0-07b1-4f3e-b609-5fd028a89805"},"vehicle_type_id":"4","last_reported":1740589713,"current_range_meters":10800,"station_id":"ce4bhbh2rcd13ifvqeo0","pricing_plan_id":"cebpf4jnsgd1na2vs0mg"},{"bike_id":"846ad565-fd94-4d77-af86-5432e0939425","system_id":"levelo_inurba_marseille","lat":43.29632,"lon":5.4059,"is_reserved":false,"is_disabled":false,"rental_uris":{"android":"levelo://app?vid=846ad565-fd94-4d77-af86-5432e0939425","ios":"levelo://app?vid=846ad565-fd94-4d77-af86-5432e0939425"},"vehicle_type_id":"4","last_reported":1740589713,"current_range_meters":10800,"station_id":"ce4bh0h2rcd13ifvqd60","pricing_plan_id":"cebpf4jnsgd1na2vs0mg"},{"bike_id":"f247707b-e888-49c3-89ee-ab785bbf1a0b","system_id":"levelo_inurba_marseille","lat":43.27578,"lon":5.38419,"is_reserved":false,"is_disabled":false,"rental_uris":{"android":"levelo://app?vid=f247707b-e888-49c3-89ee-ab785bbf1a0b","ios":"levelo://app?vid=f247707b-e888-49c3-89ee-ab785bbf1a0b"},"vehicle_type_id":"4","last_reported":1740589713,"current_range_meters":11200,"station_id":"ce4bhh92rcd13ifvqfi0","pricing_plan_id":"cebpf4jnsgd1na2vs0mg"},{"bike_id":"52a02ec7-8e0c-4781-ae9b-a63b7edaabaf","system_id":"levelo_inurba_marseille","lat":43.28266,"lon":5.35063,"is_reserved":false,"is_disabled":false,"rental_uris":{"android":"levelo://app?vid=52a02ec7-8e0c-4781-ae9b-a63b7edaabaf","ios":"levelo://app?vid=52a02ec7-8e0c-4781-ae9b-a63b7edaabaf"},"vehicle_type_id":"4","last_reported":1740589713,"current_range_meters":10800,"station_id":"ce4bhbp2rcd13ifvqerg","pricing_plan_id":"cebpf4jnsgd1na2vs0mg"},{"bike_id":"6e412d15-7f34-4499-9587-91fd069535cc","system_id":"levelo_inurba_marseille","lat":43.29257,"lon":5.38432,"is_reserved":false,"is_disabled":false,"rental_uris":{"android":"levelo://app?vid=6e412d15-7f34-4499-9587-91fd069535cc","ios":"levelo://app?vid=6e412d15-7f34-4499-9587-91fd069535cc"},"vehicle_type_id":"4","last_reported":1740589713,"current_range_meters":10800,"station_id":"ce4bh692rcd13ifvqea0","pricing_plan_id":"cebpf4jnsgd1na2vs0mg"},{"bike_id":"f9eed1e4-1895-44e2-8624-cc9551693ed5","system_id":"levelo_inurba_marseille","lat":43.29863,"lon":5.36298,"is_reserved":false,"is_disabled":false,"rental_uris":{"android":"levelo://app?vid=f9eed1e4-1895-44e2-8624-cc9551693ed5","ios":"levelo://app?vid=f9eed1e4-1895-44e2-8624-cc9551693ed5"},"vehicle_type_id":"4","last_reported":1740589713,"current_range_meters":11200,"station_id":"ce4bgpp2rcd13ifvqc3g","pricing_plan_id":"cebpf4jnsgd1na2vs0mg"},{"bike_id":"a575f4dc-276f-4f6f-bc4c-8972fb7f85cb","system_id":"levelo_inurba_marseille","lat":43.25786,"lon":5.39418,"is_reserved":false,"is_disabled":false,"rental_uris":{"android":"levelo://app?vid=a575f4dc-276f-4f6f-bc4c-8972fb7f85cb","ios":"levelo://app?vid=a575f4dc-276f-4f6f-bc4c-8972fb7f85cb"},"vehicle_type_id":"4","last_reported":1740589713,"current_range_meters":11200,"station_id":"ce4bhip2rcd13ifvqft0","pricing_plan_id":"cebpf4jnsgd1na2vs0mg"},{"bike_id":"e47fdc11-0c86-4e0d-86ce-22618637b918","system_id":"levelo_inurba_marseille","lat":43.27824,"lon":5.407187,"is_reserved":false,"is_disabled":false,"rental_uris":{"android":"levelo://app?vid=e47fdc11-0c86-4e0d-86ce-22618637b918","ios":"levelo://app?vid=e47fdc11-0c86-4e0d-86ce-22618637b918"},"vehicle_type_id":"4","last_reported":1740589713,"current_range_meters":11200,"station_id":"ce4bhnh2rcd13ifvqgtg","pricing_plan_id":"cebpf4jnsgd1na2vs0mg"},{"bike_id":"1406d67d-4447-4083-963a-2c5947f658d9","system_id":"levelo_inurba_marseille","lat":43.318795,"lon":5.407339,"is_reserved":false,"is_disabled":false,"rental_uris":{"android":"levelo://app?vid=1406d67d-4447-4083-963a-2c5947f658d9","ios":"levelo://app?vid=1406d67d-4447-4083-963a-2c5947f658d9"},"vehicle_type_id":"4","last_reported":1740589713,"current_range_meters":9200,"station_id":"ce4bh2h2rcd13ifvqdh0","pricing_plan_id":"cebpf4jnsgd1na2vs0mg"},{"bike_id":"13e0744d-ceaf-4b7c-b0b1-222133c7db06","system_id":"levelo_inurba_marseille","lat":43.24072,"lon":5.37768,"is_reserved":false,"is_disabled":false,"rental_uris":{"android":"levelo://app?vid=13e0744d-ceaf-4b7c-b0b1-222133c7db06","ios":"levelo://app?vid=13e0744d-ceaf-4b7c-b0b1-222133c7db06"},"vehicle_type_id":"4","last_reported":1740589713,"current_range_meters":11600,"station_id":"ce4bhnp2rcd13ifvqgvg","pricing_plan_id":"cebpf4jnsgd1na2vs0mg"},{"bike_id":"53f6206c-2750-42e7-a8f3-9533b6f35c4a","system_id":"levelo_inurba_marseille","lat":43.28613,"lon":5.35105,"is_reserved":false,"is_disabled":false,"rental_uris":{"android":"levelo://app?vid=53f6206c-2750-42e7-a8f3-9533b6f35c4a","ios":"levelo://app?vid=53f6206c-2750-42e7-a8f3-9533b6f35c4a"},"vehicle_type_id":"4","last_reported":1740589713,"current_range_meters":11200,"station_id":"ce4bhch2rcd13ifvqeug","pricing_plan_id":"cebpf4jnsgd1na2vs0mg"},{"bike_id":"b156e998-d6d4-4844-95a7-fdc37eed401c","system_id":"levelo_inurba_marseille","lat":43.28422,"lon":5.34985,"is_reserved":false,"is_disabled":false,"rental_uris":{"android":"levelo://app?vid=b156e998-d6d4-4844-95a7-fdc37eed401c","ios":"levelo://app?vid=b156e998-d6d4-4844-95a7-fdc37eed401c"},"vehicle_type_id":"4","last_reported":1740589713,"current_range_meters":11600,"station_id":"ce4bhbh2rcd13ifvqepg","pricing_plan_id":"cebpf4jnsgd1na2vs0mg"},{"bike_id":"e2231c40-4e68-4e65-8d31-9d3b67df341a","system_id":"levelo_inurba_marseille","lat":43.25495,"lon":5.37652,"is_reserved":false,"is_disabled":false,"rental_uris":{"android":"levelo://app?vid=e2231c40-4e68-4e65-8d31-9d3b67df341a","ios":"levelo://app?vid=e2231c40-4e68-4e65-8d31-9d3b67df341a"},"vehicle_type_id":"4","last_reported":1740589713,"current_range_meters":11600,"station_id":"ce4bhh12rcd13ifvqff0","pricing_plan_id":"cebpf4jnsgd1na2vs0mg"},{"bike_id":"bfaf79dc-dc64-4eb2-83e9-d0248726392b","system_id":"levelo_inurba_marseille","lat":43.298,"lon":5.38105,"is_reserved":false,"is_disabled":false,"rental_uris":{"android":"levelo://app?vid=bfaf79dc-dc64-4eb2-83e9-d0248726392b","ios":"levelo://app?vid=bfaf79dc-dc64-4eb2-83e9-d0248726392b"},"vehicle_type_id":"4","last_reported":1740589713,"current_range_meters":11600,"station_id":"ce4bgip2rcd13ifvqbb0","pricing_plan_id":"cebpf4jnsgd1na2vs0mg"},{"bike_id":"29f3de3b-f239-4c99-9f67-7ac0361d1f73","system_id":"levelo_inurba_marseille","lat":43.30132,"lon":5.38779,"is_reserved":false,"is_disabled":false,"rental_uris":{"android":"levelo://app?vid=29f3de3b-f239-4c99-9f67-7ac0361d1f73","ios":"levelo://app?vid=29f3de3b-f239-4c99-9f67-7ac0361d1f73"},"vehicle_type_id":"4","last_reported":1740589713,"current_range_meters":11600,"station_id":"ce4bghh2rcd13ifvqb60","pricing_plan_id":"cebpf4jnsgd1na2vs0mg"},{"bike_id":"0f6fc01f-ccb5-4e68-9e48-47ab104d6823","system_id":"levelo_inurba_marseille","lat":43.312305,"lon":5.36878,"is_reserved":false,"is_disabled":false,"rental_uris":{"android":"levelo://app?vid=0f6fc01f-ccb5-4e68-9e48-47ab104d6823","ios":"levelo://app?vid=0f6fc01f-ccb5-4e68-9e48-47ab104d6823"},"vehicle_type_id":"4","last_reported":1740589713,"current_range_meters":12000,"station_id":"ce4bgl92rcd13ifvqbq0","pricing_plan_id":"cebpf4jnsgd1na2vs0mg"},{"bike_id":"ef434c07-8ee7-4d9a-bb76-7f1f7ad22b65","system_id":"levelo_inurba_marseille","lat":43.24808,"lon":5.3746,"is_reserved":false,"is_disabled":false,"rental_uris":{"android":"levelo://app?vid=ef434c07-8ee7-4d9a-bb76-7f1f7ad22b65","ios":"levelo://app?vid=ef434c07-8ee7-4d9a-bb76-7f1f7ad22b65"},"vehicle_type_id":"4","last_reported":1740589713,"current_range_meters":11600,"station_id":"ce4bhgh2rcd13ifvqfb0","pricing_plan_id":"cebpf4jnsgd1na2vs0mg"},{"bike_id":"128d9f19-560e-4907-b2b5-99db2fe70c71","system_id":"levelo_inurba_marseille","lat":43.30633,"lon":5.40068,"is_reserved":false,"is_disabled":false,"rental_uris":{"android":"levelo://app?vid=128d9f19-560e-4907-b2b5-99db2fe70c71","ios":"levelo://app?vid=128d9f19-560e-4907-b2b5-99db2fe70c71"},"vehicle_type_id":"4","last_reported":1740589713,"current_range_meters":8800,"station_id":"ce4bh112rcd13ifvqda0","pricing_plan_id":"cebpf4jnsgd1na2vs0mg"},{"bike_id":"6feec15c-f65c-4a74-9b6a-043db906f264","system_id":"levelo_inurba_marseille","lat":43.30189,"lon":5.3663,"is_reserved":false,"is_disabled":false,"rental_uris":{"android":"levelo://app?vid=6feec15c-f65c-4a74-9b6a-043db906f264","ios":"levelo://app?vid=6feec15c-f65c-4a74-9b6a-043db906f264"},"vehicle_type_id":"4","last_reported":1740589713,"current_range_meters":11600,"station_id":"ce4bgrh2rcd13ifvqc8g","pricing_plan_id":"cebpf4jnsgd1na2vs0mg"},{"bike_id":"8340241d-6855-433f-b539-36ab8d4d21d3","system_id":"levelo_inurba_marseille","lat":43.2315,"lon":5.43713,"is_reserved":false,"is_disabled":false,"rental_uris":{"android":"levelo://app?vid=8340241d-6855-433f-b539-36ab8d4d21d3","ios":"levelo://app?vid=8340241d-6855-433f-b539-36ab8d4d21d3"},"vehicle_type_id":"4","last_reported":1740589713,"current_range_meters":11200,"station_id":"ce4bhmp2rcd13ifvqgog","pricing_plan_id":"cebpf4jnsgd1na2vs0mg"},{"bike_id":"916db933-e3bb-4a39-a02a-8aa6dbd1cd9f","system_id":"levelo_inurba_marseille","lat":43.28998,"lon":5.35591,"is_reserved":false,"is_disabled":false,"rental_uris":{"android":"levelo://app?vid=916db933-e3bb-4a39-a02a-8aa6dbd1cd9f","ios":"levelo://app?vid=916db933-e3bb-4a39-a02a-8aa6dbd1cd9f"},"vehicle_type_id":"4","last_reported":1740589713,"current_range_meters":12000,"station_id":"ce4bhb92rcd13ifvqen0","pricing_plan_id":"cebpf4jnsgd1na2vs0mg"},{"bike_id":"83beca08-909c-42fc-abfd-29613b513a7a","system_id":"levelo_inurba_marseille","lat":43.24187,"lon":5.39717,"is_reserved":false,"is_disabled":false,"rental_uris":{"android":"levelo://app?vid=83beca08-909c-42fc-abfd-29613b513a7a","ios":"levelo://app?vid=83beca08-909c-42fc-abfd-29613b513a7a"},"vehicle_type_id":"4","last_reported":1740589713,"current_range_meters":12000,"station_id":"ce4bhn12rcd13ifvqgpg","pricing_plan_id":"cebpf4jnsgd1na2vs0mg"},{"bike_id":"7eebcedb-18f4-4398-b9bd-d7d8a33415a2","system_id":"levelo_inurba_marseille","lat":43.29203,"lon":5.36034,"is_reserved":false,"is_disabled":false,"rental_uris":{"android":"levelo://app?vid=7eebcedb-18f4-4398-b9bd-d7d8a33415a2","ios":"levelo://app?vid=7eebcedb-18f4-4398-b9bd-d7d8a33415a2"},"vehicle_type_id":"4","last_reported":1740589713,"current_range_meters":12400,"station_id":"ce4bhbh2rcd13ifvqeqg","pricing_plan_id":"cebpf4jnsgd1na2vs0mg"},{"bike_id":"1d603e55-5939-499f-95ae-55d30c9c2364","system_id":"levelo_inurba_marseille","lat":43.28154,"lon":5.42649,"is_reserved":false,"is_disabled":false,"rental_uris":{"android":"levelo://app?vid=1d603e55-5939-499f-95ae-55d30c9c2364","ios":"levelo://app?vid=1d603e55-5939-499f-95ae-55d30c9c2364"},"vehicle_type_id":"4","last_reported":1740589713,"current_range_meters":12400,"station_id":"ce4bhnh2rcd13ifvqgug","pricing_plan_id":"cebpf4jnsgd1na2vs0mg"},{"bike_id":"ad9571bc-5194-4f71-90ef-f1cb0835f36e","system_id":"levelo_inurba_marseille","lat":43.25501,"lon":5.37649,"is_reserved":false,"is_disabled":false,"rental_uris":{"android":"levelo://app?vid=ad9571bc-5194-4f71-90ef-f1cb0835f36e","ios":"levelo://app?vid=ad9571bc-5194-4f71-90ef-f1cb0835f36e"},"vehicle_type_id":"4","last_reported":1740589713,"current_range_meters":12400,"station_id":"ce4bhh12rcd13ifvqff0","pricing_plan_id":"cebpf4jnsgd1na2vs0mg"},{"bike_id":"cd3ab7cd-ba3d-45d5-88c8-188d8f30bbd9","system_id":"levelo_inurba_marseille","lat":43.289917,"lon":5.385693,"is_reserved":false,"is_disabled":false,"rental_uris":{"android":"levelo://app?vid=cd3ab7cd-ba3d-45d5-88c8-188d8f30bbd9","ios":"levelo://app?vid=cd3ab7cd-ba3d-45d5-88c8-188d8f30bbd9"},"vehicle_type_id":"4","last_reported":1740589713,"current_range_meters":12400,"station_id":"ce4bh4p2rcd13ifvqe0g","pricing_plan_id":"cebpf4jnsgd1na2vs0mg"},{"bike_id":"79a585c5-cf42-4150-9df4-5cf43862e690","system_id":"levelo_inurba_marseille","lat":43.24651,"lon":5.38899,"is_reserved":false,"is_disabled":false,"rental_uris":{"android":"levelo://app?vid=79a585c5-cf42-4150-9df4-5cf43862e690","ios":"levelo://app?vid=79a585c5-cf42-4150-9df4-5cf43862e690"},"vehicle_type_id":"4","last_reported":1740589713,"current_range_meters":12800,"station_id":"ce4bhg12rcd13ifvqf60","pricing_plan_id":"cebpf4jnsgd1na2vs0mg"},{"bike_id":"f66913d8-adc8-4497-b81a-8613461ae8a9","system_id":"levelo_inurba_marseille","lat":43.28411,"lon":5.34994,"is_reserved":false,"is_disabled":false,"rental_uris":{"android":"levelo://app?vid=f66913d8-adc8-4497-b81a-8613461ae8a9","ios":"levelo://app?vid=f66913d8-adc8-4497-b81a-8613461ae8a9"},"vehicle_type_id":"4","last_reported":1740589713,"current_range_meters":13600,"station_id":"ce4bhbh2rcd13ifvqepg","pricing_plan_id":"cebpf4jnsgd1na2vs0mg"},{"bike_id":"657e1189-d4dc-4ebf-8cc9-aefea234e74c","system_id":"levelo_inurba_marseille","lat":43.29184,"lon":5.39334,"is_reserved":false,"is_disabled":false,"rental_uris":{"android":"levelo://app?vid=657e1189-d4dc-4ebf-8cc9-aefea234e74c","ios":"levelo://app?vid=657e1189-d4dc-4ebf-8cc9-aefea234e74c"},"vehicle_type_id":"4","last_reported":1740589713,"current_range_meters":12800,"station_id":"ce4bh192rcd13ifvqdd0","pricing_plan_id":"cebpf4jnsgd1na2vs0mg"},{"bike_id":"085e19e7-1c6a-4cef-aff7-b368aa8e492f","system_id":"levelo_inurba_marseille","lat":43.30641,"lon":5.40077,"is_reserved":false,"is_disabled":false,"rental_uris":{"android":"levelo://app?vid=085e19e7-1c6a-4cef-aff7-b368aa8e492f","ios":"levelo://app?vid=085e19e7-1c6a-4cef-aff7-b368aa8e492f"},"vehicle_type_id":"4","last_reported":1740589713,"current_range_meters":12800,"station_id":"ce4bh112rcd13ifvqda0","pricing_plan_id":"cebpf4jnsgd1na2vs0mg"},{"bike_id":"c139a364-4758-4530-beb6-b52291f5d04a","system_id":"levelo_inurba_marseille","lat":43.26573,"lon":5.3901,"is_reserved":false,"is_disabled":false,"rental_uris":{"android":"levelo://app?vid=c139a364-4758-4530-beb6-b52291f5d04a","ios":"levelo://app?vid=c139a364-4758-4530-beb6-b52291f5d04a"},"vehicle_type_id":"4","last_reported":1740589713,"current_range_meters":12800,"station_id":"ce4bhe12rcd13ifvqf30","pricing_plan_id":"cebpf4jnsgd1na2vs0mg"},{"bike_id":"34b9849b-b12b-463e-96e7-3a1e338615a2","system_id":"levelo_inurba_marseille","lat":43.30456,"lon":5.37903,"is_reserved":false,"is_disabled":false,"rental_uris":{"android":"levelo://app?vid=34b9849b-b12b-463e-96e7-3a1e338615a2","ios":"levelo://app?vid=34b9849b-b12b-463e-96e7-3a1e338615a2"},"vehicle_type_id":"4","last_reported":1740589713,"current_range_meters":16000,"station_id":"ce4bgup2rcd13ifvqcn0","pricing_plan_id":"cebpf4jnsgd1na2vs0mg"},{"bike_id":"52dce1d2-eecf-4b4b-98ee-71a66ec271c0","system_id":"levelo_inurba_marseille","lat":43.26202,"lon":5.37928,"is_reserved":false,"is_disabled":false,"rental_uris":{"android":"levelo://app?vid=52dce1d2-eecf-4b4b-98ee-71a66ec271c0","ios":"levelo://app?vid=52dce1d2-eecf-4b4b-98ee-71a66ec271c0"},"vehicle_type_id":"4","last_reported":1740589713,"current_range_meters":12000,"station_id":"ce4bhjp2rcd13ifvqg90","pricing_plan_id":"cebpf4jnsgd1na2vs0mg"},{"bike_id":"0fe36826-4865-44a8-9a66-39871c4dd5ad","system_id":"levelo_inurba_marseille","lat":43.29634,"lon":5.40594,"is_reserved":false,"is_disabled":false,"rental_uris":{"android":"levelo://app?vid=0fe36826-4865-44a8-9a66-39871c4dd5ad","ios":"levelo://app?vid=0fe36826-4865-44a8-9a66-39871c4dd5ad"},"vehicle_type_id":"4","last_reported":1740589713,"current_range_meters":12800,"station_id":"ce4bh0h2rcd13ifvqd60","pricing_plan_id":"cebpf4jnsgd1na2vs0mg"},{"bike_id":"42d1e6dc-5684-4319-a727-0b336629b253","system_id":"levelo_inurba_marseille","lat":43.25582,"lon":5.38233,"is_reserved":false,"is_disabled":false,"rental_uris":{"android":"levelo://app?vid=42d1e6dc-5684-4319-a727-0b336629b253","ios":"levelo://app?vid=42d1e6dc-5684-4319-a727-0b336629b253"},"vehicle_type_id":"4","last_reported":1740589713,"current_range_meters":13600,"station_id":"ce4bhih2rcd13ifvqfs0","pricing_plan_id":"cebpf4jnsgd1na2vs0mg"},{"bike_id":"620faf8f-9860-4e84-b6cd-4559a0b9a89c","system_id":"levelo_inurba_marseille","lat":43.32466,"lon":5.3655,"is_reserved":false,"is_disabled":false,"rental_uris":{"android":"levelo://app?vid=620faf8f-9860-4e84-b6cd-4559a0b9a89c","ios":"levelo://app?vid=620faf8f-9860-4e84-b6cd-4559a0b9a89c"},"vehicle_type_id":"4","last_reported":1740589713,"current_range_meters":13600,"station_id":"ce4bhs12rcd13ifvqhvg","pricing_plan_id":"cebpf4jnsgd1na2vs0mg"},{"bike_id":"ba58e488-d793-4880-ba64-31b57a352090","system_id":"levelo_inurba_marseille","lat":43.28942,"lon":5.36419,"is_reserved":false,"is_disabled":false,"rental_uris":{"android":"levelo://app?vid=ba58e488-d793-4880-ba64-31b57a352090","ios":"levelo://app?vid=ba58e488-d793-4880-ba64-31b57a352090"},"vehicle_type_id":"4","last_reported":1740589713,"current_range_meters":13600,"station_id":"ce4bhc92rcd13ifvqetg","pricing_plan_id":"cebpf4jnsgd1na2vs0mg"},{"bike_id":"19e4983d-b74d-4524-9c14-80fb6905f947","system_id":"levelo_inurba_marseille","lat":43.321038,"lon":5.36776,"is_reserved":false,"is_disabled":false,"rental_uris":{"android":"levelo://app?vid=19e4983d-b74d-4524-9c14-80fb6905f947","ios":"levelo://app?vid=19e4983d-b74d-4524-9c14-80fb6905f947"},"vehicle_type_id":"4","last_reported":1740589713,"current_range_meters":13600,"station_id":"ce4bhrh2rcd13ifvqhug","pricing_plan_id":"cebpf4jnsgd1na2vs0mg"},{"bike_id":"0928dd8c-9aac-472c-9f91-5ac6b9941f43","system_id":"levelo_inurba_marseille","lat":43.31682,"lon":5.40473,"is_reserved":false,"is_disabled":false,"rental_uris":{"android":"levelo://app?vid=0928dd8c-9aac-472c-9f91-5ac6b9941f43","ios":"levelo://app?vid=0928dd8c-9aac-472c-9f91-5ac6b9941f43"},"vehicle_type_id":"4","last_reported":1740589713,"current_range_meters":13600,"station_id":"ce4bh012rcd13ifvqd00","pricing_plan_id":"cebpf4jnsgd1na2vs0mg"},{"bike_id":"1690cf1f-489e-42fe-b2b4-7448c418d56d","system_id":"levelo_inurba_marseille","lat":43.32015,"lon":5.38175,"is_reserved":false,"is_disabled":false,"rental_uris":{"android":"levelo://app?vid=1690cf1f-489e-42fe-b2b4-7448c418d56d","ios":"levelo://app?vid=1690cf1f-489e-42fe-b2b4-7448c418d56d"},"vehicle_type_id":"4","last_reported":1740589713,"current_range_meters":13600,"station_id":"ce4bhr12rcd13ifvqhpg","pricing_plan_id":"cebpf4jnsgd1na2vs0mg"},{"bike_id":"0716f45b-7645-4de1-8610-7ac77a11878d","system_id":"levelo_inurba_marseille","lat":43.29537,"lon":5.38546,"is_reserved":false,"is_disabled":false,"rental_uris":{"android":"levelo://app?vid=0716f45b-7645-4de1-8610-7ac77a11878d","ios":"levelo://app?vid=0716f45b-7645-4de1-8610-7ac77a11878d"},"vehicle_type_id":"4","last_reported":1740589713,"current_range_meters":14000,"station_id":"ce4bgih2rcd13ifvqba0","pricing_plan_id":"cebpf4jnsgd1na2vs0mg"},{"bike_id":"059f0544-c0ad-45d5-a2cf-3157a310337f","system_id":"levelo_inurba_marseille","lat":43.30605,"lon":5.37225,"is_reserved":false,"is_disabled":false,"rental_uris":{"android":"levelo://app?vid=059f0544-c0ad-45d5-a2cf-3157a310337f","ios":"levelo://app?vid=059f0544-c0ad-45d5-a2cf-3157a310337f"},"vehicle_type_id":"4","last_reported":1740589713,"current_range_meters":14000,"station_id":"ce4bgqh2rcd13ifvqc4g","pricing_plan_id":"cebpf4jnsgd1na2vs0mg"},{"bike_id":"a29c9bb4-893c-4806-a38d-fe3bd2f5a3e1","system_id":"levelo_inurba_marseille","lat":43.30782,"lon":5.37664,"is_reserved":false,"is_disabled":false,"rental_uris":{"android":"levelo://app?vid=a29c9bb4-893c-4806-a38d-fe3bd2f5a3e1","ios":"levelo://app?vid=a29c9bb4-893c-4806-a38d-fe3bd2f5a3e1"},"vehicle_type_id":"4","last_reported":1740589713,"current_range_meters":14000,"station_id":"ce4bgv92rcd13ifvqcq0","pricing_plan_id":"cebpf4jnsgd1na2vs0mg"},{"bike_id":"d905ca0c-c944-4730-94c6-4871cc7ae277","system_id":"levelo_inurba_marseille","lat":43.28405,"lon":5.37528,"is_reserved":false,"is_disabled":false,"rental_uris":{"android":"levelo://app?vid=d905ca0c-c944-4730-94c6-4871cc7ae277","ios":"levelo://app?vid=d905ca0c-c944-4730-94c6-4871cc7ae277"},"vehicle_type_id":"4","last_reported":1740589713,"current_range_meters":14000,"station_id":"ce4bh412rcd13ifvqds0","pricing_plan_id":"cebpf4jnsgd1na2vs0mg"},{"bike_id":"9dc7e2d5-119c-4c57-96cd-7fcca21c9c6c","system_id":"levelo_inurba_marseille","lat":43.32481,"lon":5.36568,"is_reserved":false,"is_disabled":false,"rental_uris":{"android":"levelo://app?vid=9dc7e2d5-119c-4c57-96cd-7fcca21c9c6c","ios":"levelo://app?vid=9dc7e2d5-119c-4c57-96cd-7fcca21c9c6c"},"vehicle_type_id":"4","last_reported":1740589713,"current_range_meters":14000,"station_id":"ce4bhs12rcd13ifvqhvg","pricing_plan_id":"cebpf4jnsgd1na2vs0mg"},{"bike_id":"4b146c9c-1ee2-4f37-b18c-6ce0c0023c69","system_id":"levelo_inurba_marseille","lat":43.30649,"lon":5.40098,"is_reserved":false,"is_disabled":false,"rental_uris":{"android":"levelo://app?vid=4b146c9c-1ee2-4f37-b18c-6ce0c0023c69","ios":"levelo://app?vid=4b146c9c-1ee2-4f37-b18c-6ce0c0023c69"},"vehicle_type_id":"4","last_reported":1740589713,"current_range_meters":14000,"station_id":"ce4bh112rcd13ifvqda0","pricing_plan_id":"cebpf4jnsgd1na2vs0mg"},{"bike_id":"7266af47-e9f0-4e43-bba1-095ebf3818bf","system_id":"levelo_inurba_marseille","lat":43.25085,"lon":5.39519,"is_reserved":false,"is_disabled":false,"rental_uris":{"android":"levelo://app?vid=7266af47-e9f0-4e43-bba1-095ebf3818bf","ios":"levelo://app?vid=7266af47-e9f0-4e43-bba1-095ebf3818bf"},"vehicle_type_id":"4","last_reported":1740589713,"current_range_meters":13600,"station_id":"ce4bhm12rcd13ifvqgkg","pricing_plan_id":"cebpf4jnsgd1na2vs0mg"},{"bike_id":"26beaa03-4b78-4656-b0ab-8f85a8667980","system_id":"levelo_inurba_marseille","lat":43.30432,"lon":5.3889,"is_reserved":false,"is_disabled":false,"rental_uris":{"android":"levelo://app?vid=26beaa03-4b78-4656-b0ab-8f85a8667980","ios":"levelo://app?vid=26beaa03-4b78-4656-b0ab-8f85a8667980"},"vehicle_type_id":"4","last_reported":1740589713,"current_range_meters":14000,"station_id":"ce4bgk12rcd13ifvqbi0","pricing_plan_id":"cebpf4jnsgd1na2vs0mg"},{"bike_id":"4f78d648-c99d-4a3d-8d70-8a5f6ed628d8","system_id":"levelo_inurba_marseille","lat":43.29533,"lon":5.38543,"is_reserved":false,"is_disabled":false,"rental_uris":{"android":"levelo://app?vid=4f78d648-c99d-4a3d-8d70-8a5f6ed628d8","ios":"levelo://app?vid=4f78d648-c99d-4a3d-8d70-8a5f6ed628d8"},"vehicle_type_id":"4","last_reported":1740589713,"current_range_meters":14400,"station_id":"ce4bgih2rcd13ifvqba0","pricing_plan_id":"cebpf4jnsgd1na2vs0mg"},{"bike_id":"43307763-1893-4b15-9ab0-7221f1064010","system_id":"levelo_inurba_marseille","lat":43.31174,"lon":5.38717,"is_reserved":false,"is_disabled":false,"rental_uris":{"android":"levelo://app?vid=43307763-1893-4b15-9ab0-7221f1064010","ios":"levelo://app?vid=43307763-1893-4b15-9ab0-7221f1064010"},"vehicle_type_id":"4","last_reported":1740589713,"current_range_meters":14800,"station_id":"ce4bgv12rcd13ifvqcp0","pricing_plan_id":"cebpf4jnsgd1na2vs0mg"},{"bike_id":"735f1a71-91ce-48bb-be57-3c500b41394a","system_id":"levelo_inurba_marseille","lat":43.310655,"lon":5.382336,"is_reserved":false,"is_disabled":false,"rental_uris":{"android":"levelo://app?vid=735f1a71-91ce-48bb-be57-3c500b41394a","ios":"levelo://app?vid=735f1a71-91ce-48bb-be57-3c500b41394a"},"vehicle_type_id":"4","last_reported":1740589713,"current_range_meters":13600,"station_id":"ce4bgs12rcd13ifvqcag","pricing_plan_id":"cebpf4jnsgd1na2vs0mg"},{"bike_id":"17973595-0627-4cbe-be09-6d52168568c1","system_id":"levelo_inurba_marseille","lat":43.27812,"lon":5.40713,"is_reserved":false,"is_disabled":false,"rental_uris":{"android":"levelo://app?vid=17973595-0627-4cbe-be09-6d52168568c1","ios":"levelo://app?vid=17973595-0627-4cbe-be09-6d52168568c1"},"vehicle_type_id":"4","last_reported":1740589713,"current_range_meters":14800,"station_id":"ce4bhnh2rcd13ifvqgtg","pricing_plan_id":"cebpf4jnsgd1na2vs0mg"},{"bike_id":"df2b6808-8c0d-4f30-9be3-8afa5e31f82f","system_id":"levelo_inurba_marseille","lat":43.30882,"lon":5.39651,"is_reserved":false,"is_disabled":false,"rental_uris":{"android":"levelo://app?vid=df2b6808-8c0d-4f30-9be3-8afa5e31f82f","ios":"levelo://app?vid=df2b6808-8c0d-4f30-9be3-8afa5e31f82f"},"vehicle_type_id":"4","last_reported":1740589713,"current_range_meters":13600,"station_id":"ce4bh012rcd13ifvqcv0","pricing_plan_id":"cebpf4jnsgd1na2vs0mg"},{"bike_id":"066e84c4-09fc-4213-8968-cee7576b9289","system_id":"levelo_inurba_marseille","lat":43.29566,"lon":5.40008,"is_reserved":false,"is_disabled":false,"rental_uris":{"android":"levelo://app?vid=066e84c4-09fc-4213-8968-cee7576b9289","ios":"levelo://app?vid=066e84c4-09fc-4213-8968-cee7576b9289"},"vehicle_type_id":"4","last_reported":1740589713,"current_range_meters":15200,"station_id":"ce4bh312rcd13ifvqdj0","pricing_plan_id":"cebpf4jnsgd1na2vs0mg"},{"bike_id":"17f4d80a-1474-40a7-8fb0-00bdaf513420","system_id":"levelo_inurba_marseille","lat":43.28105,"lon":5.37846,"is_reserved":false,"is_disabled":false,"rental_uris":{"android":"levelo://app?vid=17f4d80a-1474-40a7-8fb0-00bdaf513420","ios":"levelo://app?vid=17f4d80a-1474-40a7-8fb0-00bdaf513420"},"vehicle_type_id":"4","last_reported":1740589713,"current_range_meters":15200,"station_id":"ce4bha12rcd13ifvqee0","pricing_plan_id":"cebpf4jnsgd1na2vs0mg"},{"bike_id":"c1f5384a-71a2-4dad-80de-d395c09980f5","system_id":"levelo_inurba_marseille","lat":43.313708,"lon":5.367405,"is_reserved":false,"is_disabled":false,"rental_uris":{"android":"levelo://app?vid=c1f5384a-71a2-4dad-80de-d395c09980f5","ios":"levelo://app?vid=c1f5384a-71a2-4dad-80de-d395c09980f5"},"vehicle_type_id":"4","last_reported":1740589713,"current_range_meters":15200,"station_id":"ce4bgr92rcd13ifvqc6g","pricing_plan_id":"cebpf4jnsgd1na2vs0mg"},{"bike_id":"985d16b2-8859-4895-bc32-7c0857320f09","system_id":"levelo_inurba_marseille","lat":43.29261,"lon":5.38451,"is_reserved":false,"is_disabled":false,"rental_uris":{"android":"levelo://app?vid=985d16b2-8859-4895-bc32-7c0857320f09","ios":"levelo://app?vid=985d16b2-8859-4895-bc32-7c0857320f09"},"vehicle_type_id":"4","last_reported":1740589713,"current_range_meters":9600,"station_id":"ce4bh692rcd13ifvqea0","pricing_plan_id":"cebpf4jnsgd1na2vs0mg"},{"bike_id":"e080e601-cf70-4161-9ffb-c041a462cb80","system_id":"levelo_inurba_marseille","lat":43.2907,"lon":5.37179,"is_reserved":false,"is_disabled":false,"rental_uris":{"android":"levelo://app?vid=e080e601-cf70-4161-9ffb-c041a462cb80","ios":"levelo://app?vid=e080e601-cf70-4161-9ffb-c041a462cb80"},"vehicle_type_id":"4","last_reported":1740589713,"current_range_meters":15200,"station_id":"ce4bh5p2rcd13ifvqe4g","pricing_plan_id":"cebpf4jnsgd1na2vs0mg"},{"bike_id":"5be2e40c-f3e4-4aeb-8fdd-8733f178dd85","system_id":"levelo_inurba_marseille","lat":43.26935,"lon":5.4026,"is_reserved":false,"is_disabled":false,"rental_uris":{"android":"levelo://app?vid=5be2e40c-f3e4-4aeb-8fdd-8733f178dd85","ios":"levelo://app?vid=5be2e40c-f3e4-4aeb-8fdd-8733f178dd85"},"vehicle_type_id":"4","last_reported":1740589713,"current_range_meters":15200,"station_id":"cjm6bp8fraef2m0cb0m0","pricing_plan_id":"cebpf4jnsgd1na2vs0mg"},{"bike_id":"369221f3-9783-44c0-b531-3f9160b580c5","system_id":"levelo_inurba_marseille","lat":43.25114,"lon":5.40322,"is_reserved":false,"is_disabled":false,"rental_uris":{"android":"levelo://app?vid=369221f3-9783-44c0-b531-3f9160b580c5","ios":"levelo://app?vid=369221f3-9783-44c0-b531-3f9160b580c5"},"vehicle_type_id":"4","last_reported":1740589713,"current_range_meters":16000,"station_id":"ce4bhlh2rcd13ifvqgig","pricing_plan_id":"cebpf4jnsgd1na2vs0mg"},{"bike_id":"dc1deb5f-be60-47dd-a397-2458bf714b12","system_id":"levelo_inurba_marseille","lat":43.23062,"lon":5.35483,"is_reserved":false,"is_disabled":false,"rental_uris":{"android":"levelo://app?vid=dc1deb5f-be60-47dd-a397-2458bf714b12","ios":"levelo://app?vid=dc1deb5f-be60-47dd-a397-2458bf714b12"},"vehicle_type_id":"4","last_reported":1740589713,"current_range_meters":16000,"station_id":"cpo3342slgdg3j2ifvpg","pricing_plan_id":"cebpf4jnsgd1na2vs0mg"},{"bike_id":"fd222d04-3eaa-4256-9fd7-a3869c69a87b","system_id":"levelo_inurba_marseille","lat":43.24658,"lon":5.38172,"is_reserved":false,"is_disabled":false,"rental_uris":{"android":"levelo://app?vid=fd222d04-3eaa-4256-9fd7-a3869c69a87b","ios":"levelo://app?vid=fd222d04-3eaa-4256-9fd7-a3869c69a87b"},"vehicle_type_id":"4","last_reported":1740589713,"current_range_meters":16000,"station_id":"ce4bhih2rcd13ifvqfr0","pricing_plan_id":"cebpf4jnsgd1na2vs0mg"},{"bike_id":"03b5c3b0-159f-4ee9-945f-c6a64af3eb2e","system_id":"levelo_inurba_marseille","lat":43.28373,"lon":5.37448,"is_reserved":false,"is_disabled":false,"rental_uris":{"android":"levelo://app?vid=03b5c3b0-159f-4ee9-945f-c6a64af3eb2e","ios":"levelo://app?vid=03b5c3b0-159f-4ee9-945f-c6a64af3eb2e"},"vehicle_type_id":"4","last_reported":1740589713,"current_range_meters":16000,"station_id":"","pricing_plan_id":"cebpf4jnsgd1na2vs0mg"},{"bike_id":"71379bc6-89bf-4f19-858b-8f87c953361a","system_id":"levelo_inurba_marseille","lat":43.33022,"lon":5.39045,"is_reserved":false,"is_disabled":false,"rental_uris":{"android":"levelo://app?vid=71379bc6-89bf-4f19-858b-8f87c953361a","ios":"levelo://app?vid=71379bc6-89bf-4f19-858b-8f87c953361a"},"vehicle_type_id":"4","last_reported":1740589713,"current_range_meters":16000,"station_id":"ce4bhr92rcd13ifvqhrg","pricing_plan_id":"cebpf4jnsgd1na2vs0mg"},{"bike_id":"8f6f4cfb-79b2-4b4c-b6ac-61accaf07d3f","system_id":"levelo_inurba_marseille","lat":43.24545,"lon":5.39517,"is_reserved":false,"is_disabled":false,"rental_uris":{"android":"levelo://app?vid=8f6f4cfb-79b2-4b4c-b6ac-61accaf07d3f","ios":"levelo://app?vid=8f6f4cfb-79b2-4b4c-b6ac-61accaf07d3f"},"vehicle_type_id":"4","last_reported":1740589713,"current_range_meters":16000,"station_id":"ce4bhlp2rcd13ifvqgjg","pricing_plan_id":"cebpf4jnsgd1na2vs0mg"},{"bike_id":"bfeae5a0-c23b-42bf-a588-1b9f11301899","system_id":"levelo_inurba_marseille","lat":43.31727,"lon":5.42399,"is_reserved":false,"is_disabled":false,"rental_uris":{"android":"levelo://app?vid=bfeae5a0-c23b-42bf-a588-1b9f11301899","ios":"levelo://app?vid=bfeae5a0-c23b-42bf-a588-1b9f11301899"},"vehicle_type_id":"4","last_reported":1740589713,"current_range_meters":16400,"station_id":"ce4bhp92rcd13ifvqhbg","pricing_plan_id":"cebpf4jnsgd1na2vs0mg"},{"bike_id":"11fc219b-a77a-43ee-a70a-82f761a1cbac","system_id":"levelo_inurba_marseille","lat":43.30543,"lon":5.36552,"is_reserved":false,"is_disabled":false,"rental_uris":{"android":"levelo://app?vid=11fc219b-a77a-43ee-a70a-82f761a1cbac","ios":"levelo://app?vid=11fc219b-a77a-43ee-a70a-82f761a1cbac"},"vehicle_type_id":"4","last_reported":1740589713,"current_range_meters":16400,"station_id":"ce4bgs12rcd13ifvqcag","pricing_plan_id":"cebpf4jnsgd1na2vs0mg"},{"bike_id":"32022f30-217e-4459-b186-dd7b6ca601cd","system_id":"levelo_inurba_marseille","lat":43.27814,"lon":5.40717,"is_reserved":false,"is_disabled":false,"rental_uris":{"android":"levelo://app?vid=32022f30-217e-4459-b186-dd7b6ca601cd","ios":"levelo://app?vid=32022f30-217e-4459-b186-dd7b6ca601cd"},"vehicle_type_id":"4","last_reported":1740589713,"current_range_meters":16400,"station_id":"ce4bhnh2rcd13ifvqgtg","pricing_plan_id":"cebpf4jnsgd1na2vs0mg"},{"bike_id":"4158b0e9-76cb-41f0-9dd2-da9a99a380b2","system_id":"levelo_inurba_marseille","lat":43.234387,"lon":5.43631,"is_reserved":false,"is_disabled":false,"rental_uris":{"android":"levelo://app?vid=4158b0e9-76cb-41f0-9dd2-da9a99a380b2","ios":"levelo://app?vid=4158b0e9-76cb-41f0-9dd2-da9a99a380b2"},"vehicle_type_id":"4","last_reported":1740589713,"current_range_meters":14800,"station_id":"cjm6bp8fraef2m0cb0m0","pricing_plan_id":"cebpf4jnsgd1na2vs0mg"},{"bike_id":"45396330-7d11-48a5-8dc2-e9a1e2421a5e","system_id":"levelo_inurba_marseille","lat":43.303,"lon":5.36887,"is_reserved":false,"is_disabled":false,"rental_uris":{"android":"levelo://app?vid=45396330-7d11-48a5-8dc2-e9a1e2421a5e","ios":"levelo://app?vid=45396330-7d11-48a5-8dc2-e9a1e2421a5e"},"vehicle_type_id":"4","last_reported":1740589713,"current_range_meters":16800,"station_id":"ce4bgqh2rcd13ifvqc5g","pricing_plan_id":"cebpf4jnsgd1na2vs0mg"},{"bike_id":"a2bc9785-fe24-4d76-9dfb-8ce583b8eb43","system_id":"levelo_inurba_marseille","lat":43.29255,"lon":5.40906,"is_reserved":false,"is_disabled":false,"rental_uris":{"android":"levelo://app?vid=a2bc9785-fe24-4d76-9dfb-8ce583b8eb43","ios":"levelo://app?vid=a2bc9785-fe24-4d76-9dfb-8ce583b8eb43"},"vehicle_type_id":"4","last_reported":1740589713,"current_range_meters":16400,"station_id":"ce4bh192rcd13ifvqdc0","pricing_plan_id":"cebpf4jnsgd1na2vs0mg"},{"bike_id":"b0e06c89-41c9-4171-be90-d59e4baef6a5","system_id":"levelo_inurba_marseille","lat":43.27992,"lon":5.4167,"is_reserved":false,"is_disabled":false,"rental_uris":{"android":"levelo://app?vid=b0e06c89-41c9-4171-be90-d59e4baef6a5","ios":"levelo://app?vid=b0e06c89-41c9-4171-be90-d59e4baef6a5"},"vehicle_type_id":"4","last_reported":1740589713,"current_range_meters":16800,"station_id":"ce4bho12rcd13ifvqh1g","pricing_plan_id":"cebpf4jnsgd1na2vs0mg"},{"bike_id":"c0a6f6a5-7c17-4662-b6d0-9f0dda627c78","system_id":"levelo_inurba_marseille","lat":43.28703,"lon":5.39989,"is_reserved":false,"is_disabled":false,"rental_uris":{"android":"levelo://app?vid=c0a6f6a5-7c17-4662-b6d0-9f0dda627c78","ios":"levelo://app?vid=c0a6f6a5-7c17-4662-b6d0-9f0dda627c78"},"vehicle_type_id":"4","last_reported":1740589713,"current_range_meters":16800,"station_id":"ce4bho92rcd13ifvqh3g","pricing_plan_id":"cebpf4jnsgd1na2vs0mg"},{"bike_id":"2215d5e4-8798-4621-81ec-24430288d53b","system_id":"levelo_inurba_marseille","lat":43.32001,"lon":5.38154,"is_reserved":false,"is_disabled":false,"rental_uris":{"android":"levelo://app?vid=2215d5e4-8798-4621-81ec-24430288d53b","ios":"levelo://app?vid=2215d5e4-8798-4621-81ec-24430288d53b"},"vehicle_type_id":"4","last_reported":1740589713,"current_range_meters":16800,"station_id":"ce4bhr12rcd13ifvqhpg","pricing_plan_id":"cebpf4jnsgd1na2vs0mg"},{"bike_id":"bc679af8-b2d8-495d-8f01-39de79e9748b","system_id":"levelo_inurba_marseille","lat":43.29592,"lon":5.36754,"is_reserved":false,"is_disabled":false,"rental_uris":{"android":"levelo://app?vid=bc679af8-b2d8-495d-8f01-39de79e9748b","ios":"levelo://app?vid=bc679af8-b2d8-495d-8f01-39de79e9748b"},"vehicle_type_id":"4","last_reported":1740589713,"current_range_meters":16800,"station_id":"ce4bgph2rcd13ifvqc2g","pricing_plan_id":"cebpf4jnsgd1na2vs0mg"},{"bike_id":"3ef4a283-1278-481d-a678-2032504e228a","system_id":"levelo_inurba_marseille","lat":43.28995,"lon":5.35612,"is_reserved":false,"is_disabled":true,"rental_uris":{"android":"levelo://app?vid=3ef4a283-1278-481d-a678-2032504e228a","ios":"levelo://app?vid=3ef4a283-1278-481d-a678-2032504e228a"},"vehicle_type_id":"4","last_reported":1740589713,"current_range_meters":16800,"station_id":"ce4bhb92rcd13ifvqen0","pricing_plan_id":"cebpf4jnsgd1na2vs0mg"},{"bike_id":"19e09a69-c57f-482a-b847-7f66783bd645","system_id":"levelo_inurba_marseille","lat":43.27846,"lon":5.4069,"is_reserved":false,"is_disabled":false,"rental_uris":{"android":"levelo://app?vid=19e09a69-c57f-482a-b847-7f66783bd645","ios":"levelo://app?vid=19e09a69-c57f-482a-b847-7f66783bd645"},"vehicle_type_id":"4","last_reported":1740589713,"current_range_meters":17200,"station_id":"ce4bhnh2rcd13ifvqgtg","pricing_plan_id":"cebpf4jnsgd1na2vs0mg"},{"bike_id":"fd205c1a-6451-41d8-bfd3-928e15ee4d34","system_id":"levelo_inurba_marseille","lat":43.30145,"lon":5.38782,"is_reserved":false,"is_disabled":false,"rental_uris":{"android":"levelo://app?vid=fd205c1a-6451-41d8-bfd3-928e15ee4d34","ios":"levelo://app?vid=fd205c1a-6451-41d8-bfd3-928e15ee4d34"},"vehicle_type_id":"4","last_reported":1740589713,"current_range_meters":16400,"station_id":"ce4bghh2rcd13ifvqb60","pricing_plan_id":"cebpf4jnsgd1na2vs0mg"},{"bike_id":"27247a0a-7320-40d8-9b4c-db76539b8d6e","system_id":"levelo_inurba_marseille","lat":43.308868,"lon":5.396572,"is_reserved":false,"is_disabled":false,"rental_uris":{"android":"levelo://app?vid=27247a0a-7320-40d8-9b4c-db76539b8d6e","ios":"levelo://app?vid=27247a0a-7320-40d8-9b4c-db76539b8d6e"},"vehicle_type_id":"4","last_reported":1740589713,"current_range_meters":16400,"station_id":"ce4bh5p2rcd13ifvqe4g","pricing_plan_id":"cebpf4jnsgd1na2vs0mg"},{"bike_id":"b97da98b-d76d-4cbd-9386-af27b430cd70","system_id":"levelo_inurba_marseille","lat":43.27616,"lon":5.36119,"is_reserved":false,"is_disabled":false,"rental_uris":{"android":"levelo://app?vid=b97da98b-d76d-4cbd-9386-af27b430cd70","ios":"levelo://app?vid=b97da98b-d76d-4cbd-9386-af27b430cd70"},"vehicle_type_id":"4","last_reported":1740589713,"current_range_meters":17200,"station_id":"ce4bgj92rcd13ifvqbe0","pricing_plan_id":"cebpf4jnsgd1na2vs0mg"},{"bike_id":"98b238a9-4025-493e-bfff-4f030bc1db49","system_id":"levelo_inurba_marseille","lat":43.30867,"lon":5.39632,"is_reserved":false,"is_disabled":false,"rental_uris":{"android":"levelo://app?vid=98b238a9-4025-493e-bfff-4f030bc1db49","ios":"levelo://app?vid=98b238a9-4025-493e-bfff-4f030bc1db49"},"vehicle_type_id":"4","last_reported":1740589713,"current_range_meters":16800,"station_id":"ce4bh012rcd13ifvqcv0","pricing_plan_id":"cebpf4jnsgd1na2vs0mg"},{"bike_id":"0ed72788-312f-4398-811f-dc2e05b88741","system_id":"levelo_inurba_marseille","lat":43.28928,"lon":5.36383,"is_reserved":false,"is_disabled":false,"rental_uris":{"android":"levelo://app?vid=0ed72788-312f-4398-811f-dc2e05b88741","ios":"levelo://app?vid=0ed72788-312f-4398-811f-dc2e05b88741"},"vehicle_type_id":"4","last_reported":1740589713,"current_range_meters":17600,"station_id":"ce4bhc92rcd13ifvqetg","pricing_plan_id":"cebpf4jnsgd1na2vs0mg"},{"bike_id":"1c630764-ec5d-4e31-ad68-6981e73b31ce","system_id":"levelo_inurba_marseille","lat":43.25584,"lon":5.3822,"is_reserved":false,"is_disabled":false,"rental_uris":{"android":"levelo://app?vid=1c630764-ec5d-4e31-ad68-6981e73b31ce","ios":"levelo://app?vid=1c630764-ec5d-4e31-ad68-6981e73b31ce"},"vehicle_type_id":"4","last_reported":1740589713,"current_range_meters":17200,"station_id":"ce4bhih2rcd13ifvqfs0","pricing_plan_id":"cebpf4jnsgd1na2vs0mg"},{"bike_id":"754da3b2-3d1d-42b0-9b7f-2b129530afab","system_id":"levelo_inurba_marseille","lat":43.28431,"lon":5.39191,"is_reserved":false,"is_disabled":false,"rental_uris":{"android":"levelo://app?vid=754da3b2-3d1d-42b0-9b7f-2b129530afab","ios":"levelo://app?vid=754da3b2-3d1d-42b0-9b7f-2b129530afab"},"vehicle_type_id":"4","last_reported":1740589713,"current_range_meters":16800,"station_id":"ce4bhoh2rcd13ifvqh5g","pricing_plan_id":"cebpf4jnsgd1na2vs0mg"},{"bike_id":"c8cf8366-0c44-45bd-9143-3b5fae02e2ac","system_id":"levelo_inurba_marseille","lat":43.28158,"lon":5.4263,"is_reserved":false,"is_disabled":false,"rental_uris":{"android":"levelo://app?vid=c8cf8366-0c44-45bd-9143-3b5fae02e2ac","ios":"levelo://app?vid=c8cf8366-0c44-45bd-9143-3b5fae02e2ac"},"vehicle_type_id":"4","last_reported":1740589713,"current_range_meters":17200,"station_id":"ce4bhnh2rcd13ifvqgug","pricing_plan_id":"cebpf4jnsgd1na2vs0mg"},{"bike_id":"2a11ffce-3cfd-4df9-8eda-e1ee6a707248","system_id":"levelo_inurba_marseille","lat":43.3088,"lon":5.39655,"is_reserved":false,"is_disabled":false,"rental_uris":{"android":"levelo://app?vid=2a11ffce-3cfd-4df9-8eda-e1ee6a707248","ios":"levelo://app?vid=2a11ffce-3cfd-4df9-8eda-e1ee6a707248"},"vehicle_type_id":"4","last_reported":1740589713,"current_range_meters":17200,"station_id":"ce4bh012rcd13ifvqcv0","pricing_plan_id":"cebpf4jnsgd1na2vs0mg"},{"bike_id":"00a1899b-b504-471a-99b7-12960c17c5de","system_id":"levelo_inurba_marseille","lat":43.26032,"lon":5.3755,"is_reserved":false,"is_disabled":false,"rental_uris":{"android":"levelo://app?vid=00a1899b-b504-471a-99b7-12960c17c5de","ios":"levelo://app?vid=00a1899b-b504-471a-99b7-12960c17c5de"},"vehicle_type_id":"4","last_reported":1740589713,"current_range_meters":17200,"station_id":"ce4bhgh2rcd13ifvqfa0","pricing_plan_id":"cebpf4jnsgd1na2vs0mg"},{"bike_id":"9edf317c-8574-4956-83cf-56aefa69587b","system_id":"levelo_inurba_marseille","lat":43.29626,"lon":5.37739,"is_reserved":false,"is_disabled":false,"rental_uris":{"android":"levelo://app?vid=9edf317c-8574-4956-83cf-56aefa69587b","ios":"levelo://app?vid=9edf317c-8574-4956-83cf-56aefa69587b"},"vehicle_type_id":"4","last_reported":1740589713,"current_range_meters":17200,"station_id":"ce4bgi92rcd13ifvqb90","pricing_plan_id":"cebpf4jnsgd1na2vs0mg"},{"bike_id":"294af7b8-9e89-415d-a325-35367c3d9687","system_id":"levelo_inurba_marseille","lat":43.27974,"lon":5.38737,"is_reserved":false,"is_disabled":false,"rental_uris":{"android":"levelo://app?vid=294af7b8-9e89-415d-a325-35367c3d9687","ios":"levelo://app?vid=294af7b8-9e89-415d-a325-35367c3d9687"},"vehicle_type_id":"4","last_reported":1740589713,"current_range_meters":17200,"station_id":"ce4bhg12rcd13ifvqf80","pricing_plan_id":"cebpf4jnsgd1na2vs0mg"},{"bike_id":"aa86509d-88ac-4658-8809-048774216a69","system_id":"levelo_inurba_marseille","lat":43.2962,"lon":5.40596,"is_reserved":false,"is_disabled":false,"rental_uris":{"android":"levelo://app?vid=aa86509d-88ac-4658-8809-048774216a69","ios":"levelo://app?vid=aa86509d-88ac-4658-8809-048774216a69"},"vehicle_type_id":"4","last_reported":1740589713,"current_range_meters":17600,"station_id":"ce4bh0h2rcd13ifvqd60","pricing_plan_id":"cebpf4jnsgd1na2vs0mg"},{"bike_id":"8a339686-9723-415b-8f3c-02f3810e4035","system_id":"levelo_inurba_marseille","lat":43.29871,"lon":5.3974,"is_reserved":false,"is_disabled":false,"rental_uris":{"android":"levelo://app?vid=8a339686-9723-415b-8f3c-02f3810e4035","ios":"levelo://app?vid=8a339686-9723-415b-8f3c-02f3810e4035"},"vehicle_type_id":"4","last_reported":1740589713,"current_range_meters":17600,"station_id":"ce4bh0h2rcd13ifvqd50","pricing_plan_id":"cebpf4jnsgd1na2vs0mg"},{"bike_id":"050beed1-07d1-4246-bcf0-7e296b54a4e3","system_id":"levelo_inurba_marseille","lat":43.30631,"lon":5.40069,"is_reserved":false,"is_disabled":false,"rental_uris":{"android":"levelo://app?vid=050beed1-07d1-4246-bcf0-7e296b54a4e3","ios":"levelo://app?vid=050beed1-07d1-4246-bcf0-7e296b54a4e3"},"vehicle_type_id":"4","last_reported":1740589713,"current_range_meters":17600,"station_id":"ce4bh112rcd13ifvqda0","pricing_plan_id":"cebpf4jnsgd1na2vs0mg"},{"bike_id":"23308b4c-626c-40fe-b1b2-4c27653b0fb7","system_id":"levelo_inurba_marseille","lat":43.29277,"lon":5.36852,"is_reserved":false,"is_disabled":false,"rental_uris":{"android":"levelo://app?vid=23308b4c-626c-40fe-b1b2-4c27653b0fb7","ios":"levelo://app?vid=23308b4c-626c-40fe-b1b2-4c27653b0fb7"},"vehicle_type_id":"4","last_reported":1740589713,"current_range_meters":17600,"station_id":"ce4bhbp2rcd13ifvqesg","pricing_plan_id":"cebpf4jnsgd1na2vs0mg"},{"bike_id":"fe01ef30-8581-4fe2-a681-33ac339afd62","system_id":"levelo_inurba_marseille","lat":43.29075,"lon":5.37158,"is_reserved":false,"is_disabled":false,"rental_uris":{"android":"levelo://app?vid=fe01ef30-8581-4fe2-a681-33ac339afd62","ios":"levelo://app?vid=fe01ef30-8581-4fe2-a681-33ac339afd62"},"vehicle_type_id":"4","last_reported":1740589713,"current_range_meters":17600,"station_id":"ce4bh5p2rcd13ifvqe4g","pricing_plan_id":"cebpf4jnsgd1na2vs0mg"},{"bike_id":"ab56c528-0792-40bd-ba1b-f1df340b9491","system_id":"levelo_inurba_marseille","lat":43.29287,"lon":5.40125,"is_reserved":false,"is_disabled":false,"rental_uris":{"android":"levelo://app?vid=ab56c528-0792-40bd-ba1b-f1df340b9491","ios":"levelo://app?vid=ab56c528-0792-40bd-ba1b-f1df340b9491"},"vehicle_type_id":"4","last_reported":1740589713,"current_range_meters":17600,"station_id":"ce4bh312rcd13ifvqdk0","pricing_plan_id":"cebpf4jnsgd1na2vs0mg"},{"bike_id":"babc7ec5-ac93-485c-97d0-6c9cbbb30169","system_id":"levelo_inurba_marseille","lat":43.26556,"lon":5.37285,"is_reserved":false,"is_disabled":false,"rental_uris":{"android":"levelo://app?vid=babc7ec5-ac93-485c-97d0-6c9cbbb30169","ios":"levelo://app?vid=babc7ec5-ac93-485c-97d0-6c9cbbb30169"},"vehicle_type_id":"4","last_reported":1740589713,"current_range_meters":17600,"station_id":"ce4bhg12rcd13ifvqf70","pricing_plan_id":"cebpf4jnsgd1na2vs0mg"},{"bike_id":"b530f0a6-00eb-465b-8313-1294385b0d6f","system_id":"levelo_inurba_marseille","lat":43.24069,"lon":5.37763,"is_reserved":false,"is_disabled":false,"rental_uris":{"android":"levelo://app?vid=b530f0a6-00eb-465b-8313-1294385b0d6f","ios":"levelo://app?vid=b530f0a6-00eb-465b-8313-1294385b0d6f"},"vehicle_type_id":"4","last_reported":1740589713,"current_range_meters":17600,"station_id":"ce4bhnp2rcd13ifvqgvg","pricing_plan_id":"cebpf4jnsgd1na2vs0mg"},{"bike_id":"8bb67fcf-d51e-4fb4-b020-ab7986083322","system_id":"levelo_inurba_marseille","lat":43.29503,"lon":5.39403,"is_reserved":false,"is_disabled":false,"rental_uris":{"android":"levelo://app?vid=8bb67fcf-d51e-4fb4-b020-ab7986083322","ios":"levelo://app?vid=8bb67fcf-d51e-4fb4-b020-ab7986083322"},"vehicle_type_id":"4","last_reported":1740589713,"current_range_meters":17600,"station_id":"ce4bh292rcd13ifvqdf0","pricing_plan_id":"cebpf4jnsgd1na2vs0mg"},{"bike_id":"f5900fd7-5ebc-4e9b-ae58-1b8e740df4a2","system_id":"levelo_inurba_marseille","lat":43.27811,"lon":5.40712,"is_reserved":false,"is_disabled":false,"rental_uris":{"android":"levelo://app?vid=f5900fd7-5ebc-4e9b-ae58-1b8e740df4a2","ios":"levelo://app?vid=f5900fd7-5ebc-4e9b-ae58-1b8e740df4a2"},"vehicle_type_id":"4","last_reported":1740589713,"current_range_meters":17600,"station_id":"ce4bhnh2rcd13ifvqgtg","pricing_plan_id":"cebpf4jnsgd1na2vs0mg"},{"bike_id":"8a2254bd-f672-4dd5-82f7-0d8be5b0cd1b","system_id":"levelo_inurba_marseille","lat":43.2872,"lon":5.37942,"is_reserved":false,"is_disabled":false,"rental_uris":{"android":"levelo://app?vid=8a2254bd-f672-4dd5-82f7-0d8be5b0cd1b","ios":"levelo://app?vid=8a2254bd-f672-4dd5-82f7-0d8be5b0cd1b"},"vehicle_type_id":"4","last_reported":1740589713,"current_range_meters":17600,"station_id":"ce4bh9p2rcd13ifvqec0","pricing_plan_id":"cebpf4jnsgd1na2vs0mg"},{"bike_id":"3de9aeda-1f9a-4bbc-8b90-e02a49e56ca9","system_id":"levelo_inurba_marseille","lat":43.2319,"lon":5.35545,"is_reserved":false,"is_disabled":false,"rental_uris":{"android":"levelo://app?vid=3de9aeda-1f9a-4bbc-8b90-e02a49e56ca9","ios":"levelo://app?vid=3de9aeda-1f9a-4bbc-8b90-e02a49e56ca9"},"vehicle_type_id":"4","last_reported":1740589713,"current_range_meters":18000,"station_id":"ce4bhu92rcd13ifvqi70","pricing_plan_id":"cebpf4jnsgd1na2vs0mg"},{"bike_id":"fbd303d4-1fcb-4306-bc8f-36d32cb89082","system_id":"levelo_inurba_marseille","lat":43.28928,"lon":5.38399,"is_reserved":false,"is_disabled":false,"rental_uris":{"android":"levelo://app?vid=fbd303d4-1fcb-4306-bc8f-36d32cb89082","ios":"levelo://app?vid=fbd303d4-1fcb-4306-bc8f-36d32cb89082"},"vehicle_type_id":"4","last_reported":1740589713,"current_range_meters":17600,"station_id":"ce4bh612rcd13ifvqe6g","pricing_plan_id":"cebpf4jnsgd1na2vs0mg"},{"bike_id":"e5b4c2c7-5507-414e-aaf0-d1df0f55dd2c","system_id":"levelo_inurba_marseille","lat":43.29274,"lon":5.36854,"is_reserved":false,"is_disabled":false,"rental_uris":{"android":"levelo://app?vid=e5b4c2c7-5507-414e-aaf0-d1df0f55dd2c","ios":"levelo://app?vid=e5b4c2c7-5507-414e-aaf0-d1df0f55dd2c"},"vehicle_type_id":"4","last_reported":1740589713,"current_range_meters":18000,"station_id":"ce4bhbp2rcd13ifvqesg","pricing_plan_id":"cebpf4jnsgd1na2vs0mg"},{"bike_id":"c78cf680-290d-4aff-8c35-9bb0c0d0f61d","system_id":"levelo_inurba_marseille","lat":43.3085,"lon":5.38083,"is_reserved":false,"is_disabled":false,"rental_uris":{"android":"levelo://app?vid=c78cf680-290d-4aff-8c35-9bb0c0d0f61d","ios":"levelo://app?vid=c78cf680-290d-4aff-8c35-9bb0c0d0f61d"},"vehicle_type_id":"4","last_reported":1740589713,"current_range_meters":18800,"station_id":"","pricing_plan_id":"cebpf4jnsgd1na2vs0mg"},{"bike_id":"42ae1c54-1aa0-40a2-891f-399ffa9dd0fd","system_id":"levelo_inurba_marseille","lat":43.248,"lon":5.37457,"is_reserved":false,"is_disabled":false,"rental_uris":{"android":"levelo://app?vid=42ae1c54-1aa0-40a2-891f-399ffa9dd0fd","ios":"levelo://app?vid=42ae1c54-1aa0-40a2-891f-399ffa9dd0fd"},"vehicle_type_id":"4","last_reported":1740589713,"current_range_meters":17600,"station_id":"ce4bhgh2rcd13ifvqfb0","pricing_plan_id":"cebpf4jnsgd1na2vs0mg"},{"bike_id":"21d90890-10ce-43fd-a16d-4a7f5cf655c0","system_id":"levelo_inurba_marseille","lat":43.2923,"lon":5.36073,"is_reserved":false,"is_disabled":false,"rental_uris":{"android":"levelo://app?vid=21d90890-10ce-43fd-a16d-4a7f5cf655c0","ios":"levelo://app?vid=21d90890-10ce-43fd-a16d-4a7f5cf655c0"},"vehicle_type_id":"4","last_reported":1740589713,"current_range_meters":18800,"station_id":"ce4bhbh2rcd13ifvqeqg","pricing_plan_id":"cebpf4jnsgd1na2vs0mg"},{"bike_id":"8e7ca1de-f2e1-45da-a0a6-c0442942ed30","system_id":"levelo_inurba_marseille","lat":43.255,"lon":5.37644,"is_reserved":false,"is_disabled":false,"rental_uris":{"android":"levelo://app?vid=8e7ca1de-f2e1-45da-a0a6-c0442942ed30","ios":"levelo://app?vid=8e7ca1de-f2e1-45da-a0a6-c0442942ed30"},"vehicle_type_id":"4","last_reported":1740589713,"current_range_meters":18000,"station_id":"ce4bhh12rcd13ifvqff0","pricing_plan_id":"cebpf4jnsgd1na2vs0mg"},{"bike_id":"500b5dce-0c73-43de-b254-172c4d2911e1","system_id":"levelo_inurba_marseille","lat":43.27374,"lon":5.36256,"is_reserved":false,"is_disabled":false,"rental_uris":{"android":"levelo://app?vid=500b5dce-0c73-43de-b254-172c4d2911e1","ios":"levelo://app?vid=500b5dce-0c73-43de-b254-172c4d2911e1"},"vehicle_type_id":"4","last_reported":1740589713,"current_range_meters":17600,"station_id":"ce4bhbh2rcd13ifvqeo0","pricing_plan_id":"cebpf4jnsgd1na2vs0mg"},{"bike_id":"0545665a-3be3-47c0-b534-45db7d893306","system_id":"levelo_inurba_marseille","lat":43.28273,"lon":5.35075,"is_reserved":false,"is_disabled":false,"rental_uris":{"android":"levelo://app?vid=0545665a-3be3-47c0-b534-45db7d893306","ios":"levelo://app?vid=0545665a-3be3-47c0-b534-45db7d893306"},"vehicle_type_id":"4","last_reported":1740589713,"current_range_meters":18000,"station_id":"ce4bhbp2rcd13ifvqerg","pricing_plan_id":"cebpf4jnsgd1na2vs0mg"},{"bike_id":"38f8cc79-5e4f-4990-a1a0-4df32fc56c21","system_id":"levelo_inurba_marseille","lat":43.30134,"lon":5.3879,"is_reserved":false,"is_disabled":false,"rental_uris":{"android":"levelo://app?vid=38f8cc79-5e4f-4990-a1a0-4df32fc56c21","ios":"levelo://app?vid=38f8cc79-5e4f-4990-a1a0-4df32fc56c21"},"vehicle_type_id":"4","last_reported":1740589713,"current_range_meters":19200,"station_id":"ce4bghh2rcd13ifvqb60","pricing_plan_id":"cebpf4jnsgd1na2vs0mg"},{"bike_id":"71fd5501-4551-412c-a109-38a6c1435d6c","system_id":"levelo_inurba_marseille","lat":43.30304,"lon":5.39219,"is_reserved":false,"is_disabled":false,"rental_uris":{"android":"levelo://app?vid=71fd5501-4551-412c-a109-38a6c1435d6c","ios":"levelo://app?vid=71fd5501-4551-412c-a109-38a6c1435d6c"},"vehicle_type_id":"4","last_reported":1740589713,"current_range_meters":18800,"station_id":"ce4bgkh2rcd13ifvqbk0","pricing_plan_id":"cebpf4jnsgd1na2vs0mg"},{"bike_id":"37d3ac00-0646-49af-b587-1b2558010612","system_id":"levelo_inurba_marseille","lat":43.23196,"lon":5.35551,"is_reserved":false,"is_disabled":false,"rental_uris":{"android":"levelo://app?vid=37d3ac00-0646-49af-b587-1b2558010612","ios":"levelo://app?vid=37d3ac00-0646-49af-b587-1b2558010612"},"vehicle_type_id":"4","last_reported":1740589713,"current_range_meters":18800,"station_id":"ce4bhu92rcd13ifvqi70","pricing_plan_id":"cebpf4jnsgd1na2vs0mg"},{"bike_id":"7c6f2e19-e14e-482e-81a7-645fe762ee86","system_id":"levelo_inurba_marseille","lat":43.29592,"lon":5.36748,"is_reserved":false,"is_disabled":false,"rental_uris":{"android":"levelo://app?vid=7c6f2e19-e14e-482e-81a7-645fe762ee86","ios":"levelo://app?vid=7c6f2e19-e14e-482e-81a7-645fe762ee86"},"vehicle_type_id":"4","last_reported":1740589713,"current_range_meters":18800,"station_id":"ce4bgph2rcd13ifvqc2g","pricing_plan_id":"cebpf4jnsgd1na2vs0mg"},{"bike_id":"40e25f70-02b5-4811-add6-6e8dbc26a035","system_id":"levelo_inurba_marseille","lat":43.284215,"lon":5.349861,"is_reserved":false,"is_disabled":false,"rental_uris":{"android":"levelo://app?vid=40e25f70-02b5-4811-add6-6e8dbc26a035","ios":"levelo://app?vid=40e25f70-02b5-4811-add6-6e8dbc26a035"},"vehicle_type_id":"4","last_reported":1740589713,"current_range_meters":18800,"station_id":"ce4bhbh2rcd13ifvqepg","pricing_plan_id":"cebpf4jnsgd1na2vs0mg"},{"bike_id":"52049757-4a8a-4510-b2a5-4c7a0ad8135c","system_id":"levelo_inurba_marseille","lat":43.26573,"lon":5.3901,"is_reserved":false,"is_disabled":false,"rental_uris":{"android":"levelo://app?vid=52049757-4a8a-4510-b2a5-4c7a0ad8135c","ios":"levelo://app?vid=52049757-4a8a-4510-b2a5-4c7a0ad8135c"},"vehicle_type_id":"4","last_reported":1740589713,"current_range_meters":18800,"station_id":"ce4bhe12rcd13ifvqf30","pricing_plan_id":"cebpf4jnsgd1na2vs0mg"},{"bike_id":"a74b3c5c-de72-40bc-be89-fa527314d7f2","system_id":"levelo_inurba_marseille","lat":43.29624,"lon":5.40597,"is_reserved":false,"is_disabled":false,"rental_uris":{"android":"levelo://app?vid=a74b3c5c-de72-40bc-be89-fa527314d7f2","ios":"levelo://app?vid=a74b3c5c-de72-40bc-be89-fa527314d7f2"},"vehicle_type_id":"4","last_reported":1740589713,"current_range_meters":18800,"station_id":"ce4bh0h2rcd13ifvqd60","pricing_plan_id":"cebpf4jnsgd1na2vs0mg"},{"bike_id":"201b43e1-9166-4b93-9ecb-211bb1985890","system_id":"levelo_inurba_marseille","lat":43.32361,"lon":5.36758,"is_reserved":false,"is_disabled":false,"rental_uris":{"android":"levelo://app?vid=201b43e1-9166-4b93-9ecb-211bb1985890","ios":"levelo://app?vid=201b43e1-9166-4b93-9ecb-211bb1985890"},"vehicle_type_id":"4","last_reported":1740589713,"current_range_meters":18800,"station_id":"ce4bhsh2rcd13ifvqi2g","pricing_plan_id":"cebpf4jnsgd1na2vs0mg"},{"bike_id":"d337cc62-b29d-4e4a-bd4f-e767bd643d41","system_id":"levelo_inurba_marseille","lat":43.32127,"lon":5.36756,"is_reserved":false,"is_disabled":false,"rental_uris":{"android":"levelo://app?vid=d337cc62-b29d-4e4a-bd4f-e767bd643d41","ios":"levelo://app?vid=d337cc62-b29d-4e4a-bd4f-e767bd643d41"},"vehicle_type_id":"4","last_reported":1740589713,"current_range_meters":19200,"station_id":"ce4bhrh2rcd13ifvqhug","pricing_plan_id":"cebpf4jnsgd1na2vs0mg"},{"bike_id":"defa4fcf-3888-4508-8a2a-c882b5f97042","system_id":"levelo_inurba_marseille","lat":43.33023,"lon":5.39046,"is_reserved":false,"is_disabled":false,"rental_uris":{"android":"levelo://app?vid=defa4fcf-3888-4508-8a2a-c882b5f97042","ios":"levelo://app?vid=defa4fcf-3888-4508-8a2a-c882b5f97042"},"vehicle_type_id":"4","last_reported":1740589713,"current_range_meters":18800,"station_id":"ce4bhr92rcd13ifvqhrg","pricing_plan_id":"cebpf4jnsgd1na2vs0mg"},{"bike_id":"28ed4988-b1ba-4b4f-866a-99a7644ecd34","system_id":"levelo_inurba_marseille","lat":43.29078,"lon":5.37178,"is_reserved":false,"is_disabled":false,"rental_uris":{"android":"levelo://app?vid=28ed4988-b1ba-4b4f-866a-99a7644ecd34","ios":"levelo://app?vid=28ed4988-b1ba-4b4f-866a-99a7644ecd34"},"vehicle_type_id":"4","last_reported":1740589713,"current_range_meters":18800,"station_id":"ce4bh5p2rcd13ifvqe4g","pricing_plan_id":"cebpf4jnsgd1na2vs0mg"},{"bike_id":"877c8a18-a7f8-4764-bcb8-657c95464423","system_id":"levelo_inurba_marseille","lat":43.28912,"lon":5.36391,"is_reserved":false,"is_disabled":false,"rental_uris":{"android":"levelo://app?vid=877c8a18-a7f8-4764-bcb8-657c95464423","ios":"levelo://app?vid=877c8a18-a7f8-4764-bcb8-657c95464423"},"vehicle_type_id":"4","last_reported":1740589713,"current_range_meters":18800,"station_id":"ce4bhc92rcd13ifvqetg","pricing_plan_id":"cebpf4jnsgd1na2vs0mg"},{"bike_id":"f2652af0-7f89-4f32-835a-da4ab8b102ce","system_id":"levelo_inurba_marseille","lat":43.28431,"lon":5.34998,"is_reserved":false,"is_disabled":false,"rental_uris":{"android":"levelo://app?vid=f2652af0-7f89-4f32-835a-da4ab8b102ce","ios":"levelo://app?vid=f2652af0-7f89-4f32-835a-da4ab8b102ce"},"vehicle_type_id":"4","last_reported":1740589713,"current_range_meters":19200,"station_id":"ce4bhbh2rcd13ifvqepg","pricing_plan_id":"cebpf4jnsgd1na2vs0mg"},{"bike_id":"9a877fcf-da15-4260-8223-f2555dc81bd3","system_id":"levelo_inurba_marseille","lat":43.293061,"lon":5.371796,"is_reserved":false,"is_disabled":false,"rental_uris":{"android":"levelo://app?vid=9a877fcf-da15-4260-8223-f2555dc81bd3","ios":"levelo://app?vid=9a877fcf-da15-4260-8223-f2555dc81bd3"},"vehicle_type_id":"4","last_reported":1740589713,"current_range_meters":19200,"station_id":"","pricing_plan_id":"cebpf4jnsgd1na2vs0mg"},{"bike_id":"236601ba-1a38-446c-b1e0-4b5eadd2458c","system_id":"levelo_inurba_marseille","lat":43.28475,"lon":5.38441,"is_reserved":false,"is_disabled":false,"rental_uris":{"android":"levelo://app?vid=236601ba-1a38-446c-b1e0-4b5eadd2458c","ios":"levelo://app?vid=236601ba-1a38-446c-b1e0-4b5eadd2458c"},"vehicle_type_id":"4","last_reported":1740589713,"current_range_meters":14400,"station_id":"ce4bh512rcd13ifvqe3g","pricing_plan_id":"cebpf4jnsgd1na2vs0mg"},