{"last_updated":1739340786,"ttl":60,"version":"2.2","data":{"bikes":[{"bike_id":"5cda301b-bce8-41d3-abea-2e981f99524e","system_id":"levelo_inurba_marseille","lat":43.298565,"lon":5.362835,"is_reserved":false,"is_disabled":false,"rental_uris":{"android":"levelo://app?vid=5cda301b-bce8-41d3-abea-2e981f99524e","ios":"levelo://app?vid=5cda301b-bce8-41d3-abea-2e981f99524e"},"vehicle_type_id":"4","last_reported":1739340786,"current_range_meters":21600,"station_id":"ce4bgpp2rcd13ifvqc3g","pricing_plan_id":"cebpf4jnsgd1na2vs0mg"},{"bike_id":"24690963-879b-481e-9c9d-021e22b0aefc","system_id":"levelo_inurba_marseille","lat":43.298826,"lon":5.397262,"is_reserved":false,"is_disabled":false,"rental_uris":{"android":"levelo://app?vid=24690963-879b-481e-9c9d-021e22b0aefc","ios":"levelo://app?vid=24690963-879b-481e-9c9d-021e22b0aefc"},"vehicle_type_id":"4","last_reported":1739340786,"current_range_meters":38800,"station_id":"ce4bh0h2rcd13ifvqd50","pricing_plan_id":"cebpf4jnsgd1na2vs0mg"},{"bike_id":"af82c687-d595-4b0a-919c-198b47efbc0c","system_id":"levelo_inurba_marseille","lat":43.28609,"lon":5.35102,"is_reserved":false,"is_disabled":false,"rental_uris":{"android":"levelo://app?vid=af82c687-d595-4b0a-919c-198b47efbc0c","ios":"levelo://app?vid=af82c687-d595-4b0a-919c-198b47efbc0c"},"vehicle_type_id":"4","last_reported":1739340786,"current_range_meters":20000,"station_id":"ce4bhch2rcd13ifvqeug","pricing_plan_id":"cebpf4jnsgd1na2vs0mg"},{"bike_id":"a173b609-6f6c-45fd-922e-a3a0e329e57c","system_id":"levelo_inurba_marseille","lat":43.24062,"lon":5.37777,"is_reserved":false,"is_disabled":false,"rental_uris":{"android":"levelo://app?vid=a173b609-6f6c-45fd-922e-a3a0e329e57c","ios":"levelo://app?vid=a173b609-6f6c-45fd-922e-a3a0e329e57c"},"vehicle_type_id":"4","last_reported":1739340786,"current_range_meters":12000,"station_id":"ce4bhnp2rcd13ifvqgvg","pricing_plan_id":"cebpf4jnsgd1na2vs0mg"},{"bike_id":"77fc8b4c-94e7-413f-ba24-49239e361f9a","system_id":"levelo_inurba_marseille","lat":43.284231,"lon":5.375306,"is_reserved":false,"is_disabled":false,"rental_uris":{"android":"levelo://app?vid=77fc8b4c-94e7-413f-ba24-49239e361f9a","ios":"levelo://app?vid=77fc8b4c-94e7-413f-ba24-49239e361f9a"},"vehicle_type_id":"4","last_reported":1739340786,"current_range_meters":28000,"station_id":"ce4bh412rcd13ifvqds0","pricing_plan_id":"cebpf4jnsgd1na2vs0mg"},{"bike_id":"39831059-630b-44a6-b460-3394c2f589e9","system_id":"levelo_inurba_marseille","lat":43.31361,"lon":5.3849,"is_reserved":false,"is_disabled":false,"rental_uris":{"android":"levelo://app?vid=39831059-630b-44a6-b460-3394c2f589e9","ios":"levelo://app?vid=39831059-630b-44a6-b460-3394c2f589e9"},"vehicle_type_id":"4","last_reported":1739340786,"current_range_meters":38800,"station_id":"ce4bgt92rcd13ifvqcf0","pricing_plan_id":"cebpf4jnsgd1na2vs0mg"},{"bike_id":"337ca30f-1ad7-4ee7-bda5-c59b87d3e85e","system_id":"levelo_inurba_marseille","lat":43.30137,"lon":5.38066,"is_reserved":false,"is_disabled":false,"rental_uris":{"android":"levelo://app?vid=337ca30f-1ad7-4ee7-bda5-c59b87d3e85e","ios":"levelo://app?vid=337ca30f-1ad7-4ee7-bda5-c59b87d3e85e"},"vehicle_type_id":"4","last_reported":1739340786,"current_range_meters":38000,"station_id":"ce4bgjp2rcd13ifvqbh0","pricing_plan_id":"cebpf4jnsgd1na2vs0mg"},{"bike_id":"321656ce-fafb-42eb-96e8-a2750a28cd33","system_id":"levelo_inurba_marseille","lat":43.26502,"lon":5.39542,"is_reserved":false,"is_disabled":false,"rental_uris":{"android":"levelo://app?vid=321656ce-fafb-42eb-96e8-a2750a28cd33","ios":"levelo://app?vid=321656ce-fafb-42eb-96e8-a2750a28cd33"},"vehicle_type_id":"4","last_reported":1739340786,"current_range_meters":36400,"station_id":"ce4bhi12rcd13ifvqfq0","pricing_plan_id":"cebpf4jnsgd1na2vs0mg"},{"bike_id":"20ff866e-f247-480a-bcfa-812e984a844d","system_id":"levelo_inurba_marseille","lat":43.28714,"lon":5.36093,"is_reserved":false,"is_disabled":false,"rental_uris":{"android":"levelo://app?vid=20ff866e-f247-480a-bcfa-812e984a844d","ios":"levelo://app?vid=20ff866e-f247-480a-bcfa-812e984a844d"},"vehicle_type_id":"4","last_reported":1739340786,"current_range_meters":38800,"station_id":"cki0cbj6b192h4jlfktg","pricing_plan_id":"cebpf4jnsgd1na2vs0mg"},{"bike_id":"f6ef4f9a-c914-4d4b-a06e-00485b64285e","system_id":"levelo_inurba_marseille","lat":43.32386,"lon":5.36595,"is_reserved":false,"is_disabled":false,"rental_uris":{"android":"levelo://app?vid=f6ef4f9a-c914-4d4b-a06e-00485b64285e","ios":"levelo://app?vid=f6ef4f9a-c914-4d4b-a06e-00485b64285e"},"vehicle_type_id":"4","last_reported":1739340786,"current_range_meters":39200,"station_id":"ce4bhs12rcd13ifvqhvg","pricing_plan_id":"cebpf4jnsgd1na2vs0mg"},{"bike_id":"d6d097de-e030-454f-9e60-3adcd149909a","system_id":"levelo_inurba_marseille","lat":43.28708,"lon":5.37403,"is_reserved":false,"is_disabled":false,"rental_uris":{"android":"levelo://app?vid=d6d097de-e030-454f-9e60-3adcd149909a","ios":"levelo://app?vid=d6d097de-e030-454f-9e60-3adcd149909a"},"vehicle_type_id":"4","last_reported":1739340786,"current_range_meters":30800,"station_id":"ce4bh3p2rcd13ifvqdq0","pricing_plan_id":"cebpf4jnsgd1na2vs0mg"},{"bike_id":"69226ee4-0193-40b8-90c6-6d84ea7e1c1a","system_id":"levelo_inurba_marseille","lat":43.3046,"lon":5.37904,"is_reserved":false,"is_disabled":false,"rental_uris":{"android":"levelo://app?vid=69226ee4-0193-40b8-90c6-6d84ea7e1c1a","ios":"levelo://app?vid=69226ee4-0193-40b8-90c6-6d84ea7e1c1a"},"vehicle_type_id":"4","last_reported":1739340786,"current_range_meters":38800,"station_id":"ce4bgup2rcd13ifvqcn0","pricing_plan_id":"cebpf4jnsgd1na2vs0mg"},{"bike_id":"88a0caba-d6c7-4fe5-9e2c-eb52dbc6be6f","system_id":"levelo_inurba_marseille","lat":43.31311,"lon":5.36762,"is_reserved":false,"is_disabled":false,"rental_uris":{"android":"levelo://app?vid=88a0caba-d6c7-4fe5-9e2c-eb52dbc6be6f","ios":"levelo://app?vid=88a0caba-d6c7-4fe5-9e2c-eb52dbc6be6f"},"vehicle_type_id":"4","last_reported":1739340786,"current_range_meters":38000,"station_id":"ce4bgl92rcd13ifvqbq0","pricing_plan_id":"cebpf4jnsgd1na2vs0mg"},{"bike_id":"f711750d-fe6b-4e97-a163-0212ddabd620","system_id":"levelo_inurba_marseille","lat":43.30462,"lon":5.37911,"is_reserved":false,"is_disabled":false,"rental_uris":{"android":"levelo://app?vid=f711750d-fe6b-4e97-a163-0212ddabd620","ios":"levelo://app?vid=f711750d-fe6b-4e97-a163-0212ddabd620"},"vehicle_type_id":"4","last_reported":1739340786,"current_range_meters":19600,"station_id":"ce4bgup2rcd13ifvqcn0","pricing_plan_id":"cebpf4jnsgd1na2vs0mg"},{"bike_id":"0497d784-c056-45f5-a997-c997e3fb1a75","system_id":"levelo_inurba_marseille","lat":43.31697,"lon":5.40455,"is_reserved":false,"is_disabled":true,"rental_uris":{"android":"levelo://app?vid=0497d784-c056-45f5-a997-c997e3fb1a75","ios":"levelo://app?vid=0497d784-c056-45f5-a997-c997e3fb1a75"},"vehicle_type_id":"4","last_reported":1739340786,"current_range_meters":36400,"station_id":"ce4bh012rcd13ifvqd00","pricing_plan_id":"cebpf4jnsgd1na2vs0mg"},{"bike_id":"9e4564f0-0519-46c9-beea-73f529a3ce6a","system_id":"levelo_inurba_marseille","lat":43.24801,"lon":5.37459,"is_reserved":false,"is_disabled":false,"rental_uris":{"android":"levelo://app?vid=9e4564f0-0519-46c9-beea-73f529a3ce6a","ios":"levelo://app?vid=9e4564f0-0519-46c9-beea-73f529a3ce6a"},"vehicle_type_id":"4","last_reported":1739340786,"current_range_meters":29600,"station_id":"ce4bhgh2rcd13ifvqfb0","pricing_plan_id":"cebpf4jnsgd1na2vs0mg"},{"bike_id":"e8b98b7c-5d68-4a57-8bb7-0cc04267f30a","system_id":"levelo_inurba_marseille","lat":43.28004,"lon":5.40009,"is_reserved":false,"is_disabled":false,"rental_uris":{"android":"levelo://app?vid=e8b98b7c-5d68-4a57-8bb7-0cc04267f30a","ios":"levelo://app?vid=e8b98b7c-5d68-4a57-8bb7-0cc04267f30a"},"vehicle_type_id":"4","last_reported":1739340786,"current_range_meters":24800,"station_id":"ce4bho92rcd13ifvqh4g","pricing_plan_id":"cebpf4jnsgd1na2vs0mg"},{"bike_id":"a94d2018-f678-4713-bf2d-5da0b28f3e59","system_id":"levelo_inurba_marseille","lat":43.297794,"lon":5.371163,"is_reserved":false,"is_disabled":false,"rental_uris":{"android":"levelo://app?vid=a94d2018-f678-4713-bf2d-5da0b28f3e59","ios":"levelo://app?vid=a94d2018-f678-4713-bf2d-5da0b28f3e59"},"vehicle_type_id":"4","last_reported":1739340786,"current_range_meters":35200,"station_id":"ce4bgop2rcd13ifvqc1g","pricing_plan_id":"cebpf4jnsgd1na2vs0mg"},{"bike_id":"f77430d5-5535-4852-86a2-80520fbba569","system_id":"levelo_inurba_marseille","lat":43.31687,"lon":5.40474,"is_reserved":false,"is_disabled":false,"rental_uris":{"android":"levelo://app?vid=f77430d5-5535-4852-86a2-80520fbba569","ios":"levelo://app?vid=f77430d5-5535-4852-86a2-80520fbba569"},"vehicle_type_id":"4","last_reported":1739340786,"current_range_meters":17600,"station_id":"ce4bh012rcd13ifvqd00","pricing_plan_id":"cebpf4jnsgd1na2vs0mg"},{"bike_id":"3df3041b-27b7-4def-8d60-99d6191bfdce","system_id":"levelo_inurba_marseille","lat":43.27483,"lon":5.42454,"is_reserved":false,"is_disabled":false,"rental_uris":{"android":"levelo://app?vid=3df3041b-27b7-4def-8d60-99d6191bfdce","ios":"levelo://app?vid=3df3041b-27b7-4def-8d60-99d6191bfdce"},"vehicle_type_id":"4","last_reported":1739340786,"current_range_meters":38800,"station_id":"ce4bhn92rcd13ifvqgrg","pricing_plan_id":"cebpf4jnsgd1na2vs0mg"},{"bike_id":"3557e281-7344-4c56-b643-42ea2f500ef3","system_id":"levelo_inurba_marseille","lat":43.27922,"lon":5.41683,"is_reserved":false,"is_disabled":false,"rental_uris":{"android":"levelo://app?vid=3557e281-7344-4c56-b643-42ea2f500ef3","ios":"levelo://app?vid=3557e281-7344-4c56-b643-42ea2f500ef3"},"vehicle_type_id":"4","last_reported":1739340786,"current_range_meters":24000,"station_id":"","pricing_plan_id":"cebpf4jnsgd1na2vs0mg"},{"bike_id":"b00cd1fe-6986-4a4a-9e4b-6dd0afa33530","system_id":"levelo_inurba_marseille","lat":43.29718,"lon":5.3661,"is_reserved":false,"is_disabled":false,"rental_uris":{"android":"levelo://app?vid=b00cd1fe-6986-4a4a-9e4b-6dd0afa33530","ios":"levelo://app?vid=b00cd1fe-6986-4a4a-9e4b-6dd0afa33530"},"vehicle_type_id":"4","last_reported":1739340786,"current_range_meters":38800,"station_id":"ce4bgn12rcd13ifvqbt0","pricing_plan_id":"cebpf4jnsgd1na2vs0mg"},{"bike_id":"8258c8e4-7775-45b7-a1f1-6659658d08a6","system_id":"levelo_inurba_marseille","lat":43.26554,"lon":5.37303,"is_reserved":false,"is_disabled":false,"rental_uris":{"android":"levelo://app?vid=8258c8e4-7775-45b7-a1f1-6659658d08a6","ios":"levelo://app?vid=8258c8e4-7775-45b7-a1f1-6659658d08a6"},"vehicle_type_id":"4","last_reported":1739340786,"current_range_meters":38000,"station_id":"ce4bhg12rcd13ifvqf70","pricing_plan_id":"cebpf4jnsgd1na2vs0mg"},{"bike_id":"03e763eb-2ea5-4191-8380-138ad06f19b1","system_id":"levelo_inurba_marseille","lat":43.32474,"lon":5.36558,"is_reserved":false,"is_disabled":false,"rental_uris":{"android":"levelo://app?vid=03e763eb-2ea5-4191-8380-138ad06f19b1","ios":"levelo://app?vid=03e763eb-2ea5-4191-8380-138ad06f19b1"},"vehicle_type_id":"4","last_reported":1739340786,"current_range_meters":27600,"station_id":"ce4bhs12rcd13ifvqhvg","pricing_plan_id":"cebpf4jnsgd1na2vs0mg"},{"bike_id":"8b2076c3-56f1-4a0e-8fbd-198b775c0e78","system_id":"levelo_inurba_marseille","lat":43.28445,"lon":5.35894,"is_reserved":false,"is_disabled":false,"rental_uris":{"android":"levelo://app?vid=8b2076c3-56f1-4a0e-8fbd-198b775c0e78","ios":"levelo://app?vid=8b2076c3-56f1-4a0e-8fbd-198b775c0e78"},"vehicle_type_id":"4","last_reported":1739340786,"current_range_meters":9600,"station_id":"ce4bhah2rcd13ifvqei0","pricing_plan_id":"cebpf4jnsgd1na2vs0mg"},{"bike_id":"26c79ef5-6f5f-49d9-b4aa-17fb6a7df4bb","system_id":"levelo_inurba_marseille","lat":43.29857,"lon":5.36268,"is_reserved":false,"is_disabled":false,"rental_uris":{"android":"levelo://app?vid=26c79ef5-6f5f-49d9-b4aa-17fb6a7df4bb","ios":"levelo://app?vid=26c79ef5-6f5f-49d9-b4aa-17fb6a7df4bb"},"vehicle_type_id":"4","last_reported":1739340786,"current_range_meters":39200,"station_id":"ce4bgpp2rcd13ifvqc3g","pricing_plan_id":"cebpf4jnsgd1na2vs0mg"},{"bike_id":"39e55a90-fe76-4904-bf9c-9841fe168f13","system_id":"levelo_inurba_marseille","lat":43.33719,"lon":5.39176,"is_reserved":false,"is_disabled":false,"rental_uris":{"android":"levelo://app?vid=39e55a90-fe76-4904-bf9c-9841fe168f13","ios":"levelo://app?vid=39e55a90-fe76-4904-bf9c-9841fe168f13"},"vehicle_type_id":"4","last_reported":1739340786,"current_range_meters":38800,"station_id":"ce4bhr92rcd13ifvqhsg","pricing_plan_id":"cebpf4jnsgd1na2vs0mg"},{"bike_id":"202ff7aa-aa0a-4eec-88a3-a997f57a7a24","system_id":"levelo_inurba_marseille","lat":43.28669,"lon":5.36333,"is_reserved":false,"is_disabled":false,"rental_uris":{"android":"levelo://app?vid=202ff7aa-aa0a-4eec-88a3-a997f57a7a24","ios":"levelo://app?vid=202ff7aa-aa0a-4eec-88a3-a997f57a7a24"},"vehicle_type_id":"4","last_reported":1739340786,"current_range_meters":38000,"station_id":"ce4bhah2rcd13ifvqej0","pricing_plan_id":"cebpf4jnsgd1na2vs0mg"},{"bike_id":"f798cbc4-a869-471f-bce8-f64397eebe81","system_id":"levelo_inurba_marseille","lat":43.23967,"lon":5.36632,"is_reserved":false,"is_disabled":false,"rental_uris":{"android":"levelo://app?vid=f798cbc4-a869-471f-bce8-f64397eebe81","ios":"levelo://app?vid=f798cbc4-a869-471f-bce8-f64397eebe81"},"vehicle_type_id":"4","last_reported":1739340786,"current_range_meters":19200,"station_id":"ce4bhi12rcd13ifvqfp0","pricing_plan_id":"cebpf4jnsgd1na2vs0mg"},{"bike_id":"5917b50e-263d-44f0-bc92-9b811108e42d","system_id":"levelo_inurba_marseille","lat":43.30286,"lon":5.37693,"is_reserved":false,"is_disabled":false,"rental_uris":{"android":"levelo://app?vid=5917b50e-263d-44f0-bc92-9b811108e42d","ios":"levelo://app?vid=5917b50e-263d-44f0-bc92-9b811108e42d"},"vehicle_type_id":"4","last_reported":1739340786,"current_range_meters":27600,"station_id":"ce4bguh2rcd13ifvqcj0","pricing_plan_id":"cebpf4jnsgd1na2vs0mg"},{"bike_id":"28413155-a714-4c6f-956c-f41cd00ef255","system_id":"levelo_inurba_marseille","lat":43.30426,"lon":5.39748,"is_reserved":false,"is_disabled":false,"rental_uris":{"android":"levelo://app?vid=28413155-a714-4c6f-956c-f41cd00ef255","ios":"levelo://app?vid=28413155-a714-4c6f-956c-f41cd00ef255"},"vehicle_type_id":"4","last_reported":1739340786,"current_range_meters":38800,"station_id":"ce4bh092rcd13ifvqd20","pricing_plan_id":"cebpf4jnsgd1na2vs0mg"},{"bike_id":"30e15755-4421-4ffd-b252-ccac53c81cda","system_id":"levelo_inurba_marseille","lat":43.27891,"lon":5.38019,"is_reserved":false,"is_disabled":false,"rental_uris":{"android":"levelo://app?vid=30e15755-4421-4ffd-b252-ccac53c81cda","ios":"levelo://app?vid=30e15755-4421-4ffd-b252-ccac53c81cda"},"vehicle_type_id":"4","last_reported":1739340786,"current_range_meters":28000,"station_id":"ce4bhf92rcd13ifvqf50","pricing_plan_id":"cebpf4jnsgd1na2vs0mg"},{"bike_id":"8f5a82c4-04f7-4b4f-9966-ab1d2a76827e","system_id":"levelo_inurba_marseille","lat":43.29879,"lon":5.38908,"is_reserved":false,"is_disabled":false,"rental_uris":{"android":"levelo://app?vid=8f5a82c4-04f7-4b4f-9966-ab1d2a76827e","ios":"levelo://app?vid=8f5a82c4-04f7-4b4f-9966-ab1d2a76827e"},"vehicle_type_id":"4","last_reported":1739340786,"current_range_meters":38800,"station_id":"ce4bh392rcd13ifvqdl0","pricing_plan_id":"cebpf4jnsgd1na2vs0mg"},{"bike_id":"4c983eb9-0181-4f94-9f85-22e23aa30ce0","system_id":"levelo_inurba_marseille","lat":43.30423,"lon":5.39745,"is_reserved":false,"is_disabled":false,"rental_uris":{"android":"levelo://app?vid=4c983eb9-0181-4f94-9f85-22e23aa30ce0","ios":"levelo://app?vid=4c983eb9-0181-4f94-9f85-22e23aa30ce0"},"vehicle_type_id":"4","last_reported":1739340786,"current_range_meters":35600,"station_id":"ce4bh092rcd13ifvqd20","pricing_plan_id":"cebpf4jnsgd1na2vs0mg"},{"bike_id":"b88f0c68-6b8d-4762-8f70-25e55d435333","system_id":"levelo_inurba_marseille","lat":43.30901,"lon":5.39636,"is_reserved":false,"is_disabled":false,"rental_uris":{"android":"levelo://app?vid=b88f0c68-6b8d-4762-8f70-25e55d435333","ios":"levelo://app?vid=b88f0c68-6b8d-4762-8f70-25e55d435333"},"vehicle_type_id":"4","last_reported":1739340786,"current_range_meters":32800,"station_id":"ce4bh012rcd13ifvqcv0","pricing_plan_id":"cebpf4jnsgd1na2vs0mg"},{"bike_id":"bf8cd02e-ccdc-4523-894a-3fce83d782e3","system_id":"levelo_inurba_marseille","lat":43.33712,"lon":5.39196,"is_reserved":false,"is_disabled":false,"rental_uris":{"android":"levelo://app?vid=bf8cd02e-ccdc-4523-894a-3fce83d782e3","ios":"levelo://app?vid=bf8cd02e-ccdc-4523-894a-3fce83d782e3"},"vehicle_type_id":"4","last_reported":1739340786,"current_range_meters":38800,"station_id":"ce4bhr92rcd13ifvqhsg","pricing_plan_id":"cebpf4jnsgd1na2vs0mg"},{"bike_id":"b737ae82-c86e-4ede-80b2-31fc6f755e14","system_id":"levelo_inurba_marseille","lat":43.2953,"lon":5.38541,"is_reserved":false,"is_disabled":true,"rental_uris":{"android":"levelo://app?vid=b737ae82-c86e-4ede-80b2-31fc6f755e14","ios":"levelo://app?vid=b737ae82-c86e-4ede-80b2-31fc6f755e14"},"vehicle_type_id":"4","last_reported":1739340786,"current_range_meters":38800,"station_id":"ce4bgih2rcd13ifvqba0","pricing_plan_id":"cebpf4jnsgd1na2vs0mg"},{"bike_id":"bf8e0073-3935-4e32-86d0-9614b299b0c3","system_id":"levelo_inurba_marseille","lat":43.30641,"lon":5.40064,"is_reserved":false,"is_disabled":false,"rental_uris":{"android":"levelo://app?vid=bf8e0073-3935-4e32-86d0-9614b299b0c3","ios":"levelo://app?vid=bf8e0073-3935-4e32-86d0-9614b299b0c3"},"vehicle_type_id":"4","last_reported":1739340786,"current_range_meters":39200,"station_id":"ce4bh112rcd13ifvqda0","pricing_plan_id":"cebpf4jnsgd1na2vs0mg"},{"bike_id":"4baa1943-377b-43a0-a8e8-389a2e584c67","system_id":"levelo_inurba_marseille","lat":43.28719,"lon":5.36085,"is_reserved":false,"is_disabled":true,"rental_uris":{"android":"levelo://app?vid=4baa1943-377b-43a0-a8e8-389a2e584c67","ios":"levelo://app?vid=4baa1943-377b-43a0-a8e8-389a2e584c67"},"vehicle_type_id":"4","last_reported":1739340786,"current_range_meters":36000,"station_id":"cki0cbj6b192h4jlfktg","pricing_plan_id":"cebpf4jnsgd1na2vs0mg"},{"bike_id":"76a51d0e-a847-4eb0-8e4f-b83663f8788c","system_id":"levelo_inurba_marseille","lat":43.30877,"lon":5.39647,"is_reserved":false,"is_disabled":false,"rental_uris":{"android":"levelo://app?vid=76a51d0e-a847-4eb0-8e4f-b83663f8788c","ios":"levelo://app?vid=76a51d0e-a847-4eb0-8e4f-b83663f8788c"},"vehicle_type_id":"4","last_reported":1739340786,"current_range_meters":11600,"station_id":"ce4bh012rcd13ifvqcv0","pricing_plan_id":"cebpf4jnsgd1na2vs0mg"},{"bike_id":"7e6b06bf-fc38-4db4-b686-aef5b6c7bd87","system_id":"levelo_inurba_marseille","lat":43.27837,"lon":5.39206,"is_reserved":false,"is_disabled":false,"rental_uris":{"android":"levelo://app?vid=7e6b06bf-fc38-4db4-b686-aef5b6c7bd87","ios":"levelo://app?vid=7e6b06bf-fc38-4db4-b686-aef5b6c7bd87"},"vehicle_type_id":"4","last_reported":1739340786,"current_range_meters":36000,"station_id":"ce4bhjp2rcd13ifvqga0","pricing_plan_id":"cebpf4jnsgd1na2vs0mg"},{"bike_id":"1d3ffab5-d8ca-4796-bb7d-044457287d56","system_id":"levelo_inurba_marseille","lat":43.29248,"lon":5.40905,"is_reserved":false,"is_disabled":false,"rental_uris":{"android":"levelo://app?vid=1d3ffab5-d8ca-4796-bb7d-044457287d56","ios":"levelo://app?vid=1d3ffab5-d8ca-4796-bb7d-044457287d56"},"vehicle_type_id":"4","last_reported":1739340786,"current_range_meters":30800,"station_id":"ce4bh192rcd13ifvqdc0","pricing_plan_id":"cebpf4jnsgd1na2vs0mg"},{"bike_id":"c179f179-1614-4d6a-9586-627695823c73","system_id":"levelo_inurba_marseille","lat":43.26803,"lon":5.40265,"is_reserved":false,"is_disabled":false,"rental_uris":{"android":"levelo://app?vid=c179f179-1614-4d6a-9586-627695823c73","ios":"levelo://app?vid=c179f179-1614-4d6a-9586-627695823c73"},"vehicle_type_id":"4","last_reported":1739340786,"current_range_meters":27600,"station_id":"ce501612rcd8frsf0b60","pricing_plan_id":"cebpf4jnsgd1na2vs0mg"},{"bike_id":"c573048d-b0bb-4a11-b456-07d3f804372d","system_id":"levelo_inurba_marseille","lat":43.28847,"lon":5.39324,"is_reserved":false,"is_disabled":false,"rental_uris":{"android":"levelo://app?vid=c573048d-b0bb-4a11-b456-07d3f804372d","ios":"levelo://app?vid=c573048d-b0bb-4a11-b456-07d3f804372d"},"vehicle_type_id":"4","last_reported":1739340786,"current_range_meters":30400,"station_id":"ce4bh2p2rcd13ifvqdi0","pricing_plan_id":"cebpf4jnsgd1na2vs0mg"},{"bike_id":"542c162a-2c01-4221-88ba-bc0cf2c81047","system_id":"levelo_inurba_marseille","lat":43.26833,"lon":5.40227,"is_reserved":false,"is_disabled":false,"rental_uris":{"android":"levelo://app?vid=542c162a-2c01-4221-88ba-bc0cf2c81047","ios":"levelo://app?vid=542c162a-2c01-4221-88ba-bc0cf2c81047"},"vehicle_type_id":"4","last_reported":1739340786,"current_range_meters":38800,"station_id":"","pricing_plan_id":"cebpf4jnsgd1na2vs0mg"},{"bike_id":"79cff555-ee16-43e9-910f-1f8191a63c6b","system_id":"levelo_inurba_marseille","lat":43.24644,"lon":5.38905,"is_reserved":false,"is_disabled":false,"rental_uris":{"android":"levelo://app?vid=79cff555-ee16-43e9-910f-1f8191a63c6b","ios":"levelo://app?vid=79cff555-ee16-43e9-910f-1f8191a63c6b"},"vehicle_type_id":"4","last_reported":1739340786,"current_range_meters":38800,"station_id":"ce4bhg12rcd13ifvqf60","pricing_plan_id":"cebpf4jnsgd1na2vs0mg"},{"bike_id":"87f29faa-759a-425a-824e-ac3220e83fd2","system_id":"levelo_inurba_marseille","lat":43.30775,"lon":5.37649,"is_reserved":false,"is_disabled":false,"rental_uris":{"android":"levelo://app?vid=87f29faa-759a-425a-824e-ac3220e83fd2","ios":"levelo://app?vid=87f29faa-759a-425a-824e-ac3220e83fd2"},"vehicle_type_id":"4","last_reported":1739340786,"current_range_meters":38800,"station_id":"ce4bgv92rcd13ifvqcq0","pricing_plan_id":"cebpf4jnsgd1na2vs0mg"},{"bike_id":"0946e1d0-cc5c-4db2-a494-cafba877eb11","system_id":"levelo_inurba_marseille","lat":43.30463,"lon":5.37912,"is_reserved":false,"is_disabled":false,"rental_uris":{"android":"levelo://app?vid=0946e1d0-cc5c-4db2-a494-cafba877eb11","ios":"levelo://app?vid=0946e1d0-cc5c-4db2-a494-cafba877eb11"},"vehicle_type_id":"4","last_reported":1739340786,"current_range_meters":6400,"station_id":"ce4bgup2rcd13ifvqcn0","pricing_plan_id":"cebpf4jnsgd1na2vs0mg"},{"bike_id":"e72583ac-0842-4a86-8c9f-49c0d823f1e9","system_id":"levelo_inurba_marseille","lat":43.29603,"lon":5.40613,"is_reserved":false,"is_disabled":false,"rental_uris":{"android":"levelo://app?vid=e72583ac-0842-4a86-8c9f-49c0d823f1e9","ios":"levelo://app?vid=e72583ac-0842-4a86-8c9f-49c0d823f1e9"},"vehicle_type_id":"4","last_reported":1739340786,"current_range_meters":10800,"station_id":"ce4bh0h2rcd13ifvqd60","pricing_plan_id":"cebpf4jnsgd1na2vs0mg"},{"bike_id":"1add35ea-4fc7-486b-99a6-cfb5eca5d89c","system_id":"levelo_inurba_marseille","lat":43.30212,"lon":5.39468,"is_reserved":false,"is_disabled":false,"rental_uris":{"android":"levelo://app?vid=1add35ea-4fc7-486b-99a6-cfb5eca5d89c","ios":"levelo://app?vid=1add35ea-4fc7-486b-99a6-cfb5eca5d89c"},"vehicle_type_id":"4","last_reported":1739340786,"current_range_meters":30000,"station_id":"ce4bh0p2rcd13ifvqd70","pricing_plan_id":"cebpf4jnsgd1na2vs0mg"},{"bike_id":"8dc60ba6-d690-49b8-8adf-a6261b5bfebb","system_id":"levelo_inurba_marseille","lat":43.24359,"lon":5.37065,"is_reserved":false,"is_disabled":false,"rental_uris":{"android":"levelo://app?vid=8dc60ba6-d690-49b8-8adf-a6261b5bfebb","ios":"levelo://app?vid=8dc60ba6-d690-49b8-8adf-a6261b5bfebb"},"vehicle_type_id":"4","last_reported":1739340786,"current_range_meters":30400,"station_id":"ce4bhhh2rcd13ifvqfk0","pricing_plan_id":"cebpf4jnsgd1na2vs0mg"},{"bike_id":"022bfa62-7cd3-460d-bff2-01870edd9da6","system_id":"levelo_inurba_marseille","lat":43.287266,"lon":5.360861,"is_reserved":false,"is_disabled":false,"rental_uris":{"android":"levelo://app?vid=022bfa62-7cd3-460d-bff2-01870edd9da6","ios":"levelo://app?vid=022bfa62-7cd3-460d-bff2-01870edd9da6"},"vehicle_type_id":"4","last_reported":1739340786,"current_range_meters":34800,"station_id":"cki0cbj6b192h4jlfktg","pricing_plan_id":"cebpf4jnsgd1na2vs0mg"},{"bike_id":"8a7bd441-3f99-4d50-b32c-2e4ef736875e","system_id":"levelo_inurba_marseille","lat":43.25003,"lon":5.3897,"is_reserved":false,"is_disabled":false,"rental_uris":{"android":"levelo://app?vid=8a7bd441-3f99-4d50-b32c-2e4ef736875e","ios":"levelo://app?vid=8a7bd441-3f99-4d50-b32c-2e4ef736875e"},"vehicle_type_id":"4","last_reported":1739340786,"current_range_meters":35200,"station_id":"ce4bhgp2rcd13ifvqfd0","pricing_plan_id":"cebpf4jnsgd1na2vs0mg"},{"bike_id":"d6e53530-3cc7-4db9-8a0d-93dc58983b28","system_id":"levelo_inurba_marseille","lat":43.297,"lon":5.36634,"is_reserved":false,"is_disabled":false,"rental_uris":{"android":"levelo://app?vid=d6e53530-3cc7-4db9-8a0d-93dc58983b28","ios":"levelo://app?vid=d6e53530-3cc7-4db9-8a0d-93dc58983b28"},"vehicle_type_id":"4","last_reported":1739340786,"current_range_meters":38800,"station_id":"ce4bgn12rcd13ifvqbt0","pricing_plan_id":"cebpf4jnsgd1na2vs0mg"},{"bike_id":"8d9024d1-e65d-448c-be5d-fcc051bd95bc","system_id":"levelo_inurba_marseille","lat":43.30136,"lon":5.38782,"is_reserved":false,"is_disabled":false,"rental_uris":{"android":"levelo://app?vid=8d9024d1-e65d-448c-be5d-fcc051bd95bc","ios":"levelo://app?vid=8d9024d1-e65d-448c-be5d-fcc051bd95bc"},"vehicle_type_id":"4","last_reported":1739340786,"current_range_meters":38800,"station_id":"ce4bghh2rcd13ifvqb60","pricing_plan_id":"cebpf4jnsgd1na2vs0mg"},{"bike_id":"2ccaebba-3560-415e-816d-dd75899cbbd4","system_id":"levelo_inurba_marseille","lat":43.255814,"lon":5.382343,"is_reserved":false,"is_disabled":true,"rental_uris":{"android":"levelo://app?vid=2ccaebba-3560-415e-816d-dd75899cbbd4","ios":"levelo://app?vid=2ccaebba-3560-415e-816d-dd75899cbbd4"},"vehicle_type_id":"4","last_reported":1739340786,"current_range_meters":400,"station_id":"ce4bhih2rcd13ifvqfs0","pricing_plan_id":"cebpf4jnsgd1na2vs0mg"},{"bike_id":"e169a236-33c1-4557-8a4d-0eca73ad1806","system_id":"levelo_inurba_marseille","lat":43.28001,"lon":5.40014,"is_reserved":false,"is_disabled":false,"rental_uris":{"android":"levelo://app?vid=e169a236-33c1-4557-8a4d-0eca73ad1806","ios":"levelo://app?vid=e169a236-33c1-4557-8a4d-0eca73ad1806"},"vehicle_type_id":"4","last_reported":1739340786,"current_range_meters":23200,"station_id":"ce4bho92rcd13ifvqh4g","pricing_plan_id":"cebpf4jnsgd1na2vs0mg"},{"bike_id":"6bef5661-98f3-427d-9fe9-ace76ea423c3","system_id":"levelo_inurba_marseille","lat":43.290051,"lon":5.356176,"is_reserved":false,"is_disabled":false,"rental_uris":{"android":"levelo://app?vid=6bef5661-98f3-427d-9fe9-ace76ea423c3","ios":"levelo://app?vid=6bef5661-98f3-427d-9fe9-ace76ea423c3"},"vehicle_type_id":"4","last_reported":1739340786,"current_range_meters":35600,"station_id":"","pricing_plan_id":"cebpf4jnsgd1na2vs0mg"},{"bike_id":"4ee0464e-e9f1-4c9d-b3f3-275397ffd141","system_id":"levelo_inurba_marseille","lat":43.25548,"lon":5.38241,"is_reserved":false,"is_disabled":false,"rental_uris":{"android":"levelo://app?vid=4ee0464e-e9f1-4c9d-b3f3-275397ffd141","ios":"levelo://app?vid=4ee0464e-e9f1-4c9d-b3f3-275397ffd141"},"vehicle_type_id":"4","last_reported":1739340786,"current_range_meters":38800,"station_id":"ce4bhih2rcd13ifvqfs0","pricing_plan_id":"cebpf4jnsgd1na2vs0mg"},{"bike_id":"9ac06f3a-a411-4085-9101-b216ee87bc9b","system_id":"levelo_inurba_marseille","lat":43.29444,"lon":5.39753,"is_reserved":false,"is_disabled":false,"rental_uris":{"android":"levelo://app?vid=9ac06f3a-a411-4085-9101-b216ee87bc9b","ios":"levelo://app?vid=9ac06f3a-a411-4085-9101-b216ee87bc9b"},"vehicle_type_id":"4","last_reported":1739340786,"current_range_meters":37600,"station_id":"ce4bh3h2rcd13ifvqdo0","pricing_plan_id":"cebpf4jnsgd1na2vs0mg"},{"bike_id":"ab27ba9e-3fb3-41b1-a802-4cdc50ceeacd","system_id":"levelo_inurba_marseille","lat":43.32342,"lon":5.40604,"is_reserved":false,"is_disabled":false,"rental_uris":{"android":"levelo://app?vid=ab27ba9e-3fb3-41b1-a802-4cdc50ceeacd","ios":"levelo://app?vid=ab27ba9e-3fb3-41b1-a802-4cdc50ceeacd"},"vehicle_type_id":"4","last_reported":1739340786,"current_range_meters":38800,"station_id":"ce4bhq92rcd13ifvqhjg","pricing_plan_id":"cebpf4jnsgd1na2vs0mg"},{"bike_id":"76ebc75d-2fe5-45e0-9f44-dea2f5f86814","system_id":"levelo_inurba_marseille","lat":43.243906,"lon":5.370521,"is_reserved":false,"is_disabled":false,"rental_uris":{"android":"levelo://app?vid=76ebc75d-2fe5-45e0-9f44-dea2f5f86814","ios":"levelo://app?vid=76ebc75d-2fe5-45e0-9f44-dea2f5f86814"},"vehicle_type_id":"4","last_reported":1739340786,"current_range_meters":29600,"station_id":"ce4bhhh2rcd13ifvqfk0","pricing_plan_id":"cebpf4jnsgd1na2vs0mg"},{"bike_id":"c30dfd55-b891-4456-a6ce-f5e9d05e4a09","system_id":"levelo_inurba_marseille","lat":43.28608,"lon":5.35135,"is_reserved":false,"is_disabled":false,"rental_uris":{"android":"levelo://app?vid=c30dfd55-b891-4456-a6ce-f5e9d05e4a09","ios":"levelo://app?vid=c30dfd55-b891-4456-a6ce-f5e9d05e4a09"},"vehicle_type_id":"4","last_reported":1739340786,"current_range_meters":14400,"station_id":"ce4bhch2rcd13ifvqeug","pricing_plan_id":"cebpf4jnsgd1na2vs0mg"},{"bike_id":"76305925-afef-4e0d-9960-6de968abbadf","system_id":"levelo_inurba_marseille","lat":43.248058,"lon":5.374561,"is_reserved":false,"is_disabled":false,"rental_uris":{"android":"levelo://app?vid=76305925-afef-4e0d-9960-6de968abbadf","ios":"levelo://app?vid=76305925-afef-4e0d-9960-6de968abbadf"},"vehicle_type_id":"4","last_reported":1739340786,"current_range_meters":36000,"station_id":"ce4bhgh2rcd13ifvqfb0","pricing_plan_id":"cebpf4jnsgd1na2vs0mg"},{"bike_id":"1fb1a03a-258b-416a-92dc-66b98dcbe7d9","system_id":"levelo_inurba_marseille","lat":43.33719,"lon":5.39185,"is_reserved":false,"is_disabled":false,"rental_uris":{"android":"levelo://app?vid=1fb1a03a-258b-416a-92dc-66b98dcbe7d9","ios":"levelo://app?vid=1fb1a03a-258b-416a-92dc-66b98dcbe7d9"},"vehicle_type_id":"4","last_reported":1739340786,"current_range_meters":38800,"station_id":"ce4bhr92rcd13ifvqhsg","pricing_plan_id":"cebpf4jnsgd1na2vs0mg"},{"bike_id":"0dbd0d81-4da6-4a7b-a928-c122921cd867","system_id":"levelo_inurba_marseille","lat":43.28926,"lon":5.383933,"is_reserved":false,"is_disabled":false,"rental_uris":{"android":"levelo://app?vid=0dbd0d81-4da6-4a7b-a928-c122921cd867","ios":"levelo://app?vid=0dbd0d81-4da6-4a7b-a928-c122921cd867"},"vehicle_type_id":"4","last_reported":1739340786,"current_range_meters":38800,"station_id":"ce4bh612rcd13ifvqe6g","pricing_plan_id":"cebpf4jnsgd1na2vs0mg"},{"bike_id":"51ab7186-5043-4bed-baca-73708608a302","system_id":"levelo_inurba_marseille","lat":43.29584,"lon":5.37026,"is_reserved":false,"is_disabled":true,"rental_uris":{"android":"levelo://app?vid=51ab7186-5043-4bed-baca-73708608a302","ios":"levelo://app?vid=51ab7186-5043-4bed-baca-73708608a302"},"vehicle_type_id":"4","last_reported":1739340786,"current_range_meters":4000,"station_id":"","pricing_plan_id":"cebpf4jnsgd1na2vs0mg"},{"bike_id":"337b1c35-8ea7-4241-8b1e-14e60ebc65b9","system_id":"levelo_inurba_marseille","lat":43.28703,"lon":5.3741,"is_reserved":false,"is_disabled":false,"rental_uris":{"android":"levelo://app?vid=337b1c35-8ea7-4241-8b1e-14e60ebc65b9","ios":"levelo://app?vid=337b1c35-8ea7-4241-8b1e-14e60ebc65b9"},"vehicle_type_id":"4","last_reported":1739340786,"current_range_meters":38000,"station_id":"ce4bh3p2rcd13ifvqdq0","pricing_plan_id":"cebpf4jnsgd1na2vs0mg"},{"bike_id":"305c0be0-b3c0-43da-902e-3857932ec086","system_id":"levelo_inurba_marseille","lat":43.28467,"lon":5.38553,"is_reserved":false,"is_disabled":false,"rental_uris":{"android":"levelo://app?vid=305c0be0-b3c0-43da-902e-3857932ec086","ios":"levelo://app?vid=305c0be0-b3c0-43da-902e-3857932ec086"},"vehicle_type_id":"4","last_reported":1739340786,"current_range_meters":38000,"station_id":"ce4bh8p2rcd13ifvqeb0","pricing_plan_id":"cebpf4jnsgd1na2vs0mg"},{"bike_id":"9e0da475-f4d0-486f-9093-7cc7c8f765be","system_id":"levelo_inurba_marseille","lat":43.28346,"lon":5.38105,"is_reserved":false,"is_disabled":false,"rental_uris":{"android":"levelo://app?vid=9e0da475-f4d0-486f-9093-7cc7c8f765be","ios":"levelo://app?vid=9e0da475-f4d0-486f-9093-7cc7c8f765be"},"vehicle_type_id":"4","last_reported":1739340786,"current_range_meters":21600,"station_id":"ce4bh412rcd13ifvqdr0","pricing_plan_id":"cebpf4jnsgd1na2vs0mg"},{"bike_id":"20a48ecc-be84-4a19-af41-d4d79c7ee9f1","system_id":"levelo_inurba_marseille","lat":43.29541,"lon":5.3903,"is_reserved":false,"is_disabled":false,"rental_uris":{"android":"levelo://app?vid=20a48ecc-be84-4a19-af41-d4d79c7ee9f1","ios":"levelo://app?vid=20a48ecc-be84-4a19-af41-d4d79c7ee9f1"},"vehicle_type_id":"4","last_reported":1739340786,"current_range_meters":30800,"station_id":"ce4bh3p2rcd13ifvqdp0","pricing_plan_id":"cebpf4jnsgd1na2vs0mg"},{"bike_id":"2553c908-dc12-427f-abef-c594d033e197","system_id":"levelo_inurba_marseille","lat":43.29532,"lon":5.39036,"is_reserved":false,"is_disabled":false,"rental_uris":{"android":"levelo://app?vid=2553c908-dc12-427f-abef-c594d033e197","ios":"levelo://app?vid=2553c908-dc12-427f-abef-c594d033e197"},"vehicle_type_id":"4","last_reported":1739340786,"current_range_meters":38800,"station_id":"ce4bh3p2rcd13ifvqdp0","pricing_plan_id":"cebpf4jnsgd1na2vs0mg"},{"bike_id":"a9b142c9-8146-4cd2-9929-de6fa12b9ff4","system_id":"levelo_inurba_marseille","lat":43.29806,"lon":5.40401,"is_reserved":false,"is_disabled":false,"rental_uris":{"android":"levelo://app?vid=a9b142c9-8146-4cd2-9929-de6fa12b9ff4","ios":"levelo://app?vid=a9b142c9-8146-4cd2-9929-de6fa12b9ff4"},"vehicle_type_id":"4","last_reported":1739340786,"current_range_meters":38800,"station_id":"ce4bh112rcd13ifvqd90","pricing_plan_id":"cebpf4jnsgd1na2vs0mg"},{"bike_id":"3022a390-1c44-4221-b627-b981bb6953c7","system_id":"levelo_inurba_marseille","lat":43.27993,"lon":5.4003,"is_reserved":false,"is_disabled":false,"rental_uris":{"android":"levelo://app?vid=3022a390-1c44-4221-b627-b981bb6953c7","ios":"levelo://app?vid=3022a390-1c44-4221-b627-b981bb6953c7"},"vehicle_type_id":"4","last_reported":1739340786,"current_range_meters":26000,"station_id":"ce4bho92rcd13ifvqh4g","pricing_plan_id":"cebpf4jnsgd1na2vs0mg"},{"bike_id":"291fe8e6-cbc6-4c85-a250-38d0ef387efe","system_id":"levelo_inurba_marseille","lat":43.28444,"lon":5.39196,"is_reserved":false,"is_disabled":false,"rental_uris":{"android":"levelo://app?vid=291fe8e6-cbc6-4c85-a250-38d0ef387efe","ios":"levelo://app?vid=291fe8e6-cbc6-4c85-a250-38d0ef387efe"},"vehicle_type_id":"4","last_reported":1739340786,"current_range_meters":19200,"station_id":"ce4bhoh2rcd13ifvqh5g","pricing_plan_id":"cebpf4jnsgd1na2vs0mg"},{"bike_id":"f9fcd84c-9a0b-4471-a4a8-56349dc37728","system_id":"levelo_inurba_marseille","lat":43.27321,"lon":5.39095,"is_reserved":false,"is_disabled":false,"rental_uris":{"android":"levelo://app?vid=f9fcd84c-9a0b-4471-a4a8-56349dc37728","ios":"levelo://app?vid=f9fcd84c-9a0b-4471-a4a8-56349dc37728"},"vehicle_type_id":"4","last_reported":1739340786,"current_range_meters":27600,"station_id":"ce4bhgp2rcd13ifvqfe0","pricing_plan_id":"cebpf4jnsgd1na2vs0mg"},{"bike_id":"57609933-d583-4bb0-97be-c4dee91bfc59","system_id":"levelo_inurba_marseille","lat":43.24688,"lon":5.38137,"is_reserved":false,"is_disabled":false,"rental_uris":{"android":"levelo://app?vid=57609933-d583-4bb0-97be-c4dee91bfc59","ios":"levelo://app?vid=57609933-d583-4bb0-97be-c4dee91bfc59"},"vehicle_type_id":"4","last_reported":1739340786,"current_range_meters":19600,"station_id":"ce4bhih2rcd13ifvqfr0","pricing_plan_id":"cebpf4jnsgd1na2vs0mg"},{"bike_id":"f2dbca32-c851-413c-bf67-6dd2953e8d7e","system_id":"levelo_inurba_marseille","lat":43.30318,"lon":5.36891,"is_reserved":false,"is_disabled":false,"rental_uris":{"android":"levelo://app?vid=f2dbca32-c851-413c-bf67-6dd2953e8d7e","ios":"levelo://app?vid=f2dbca32-c851-413c-bf67-6dd2953e8d7e"},"vehicle_type_id":"4","last_reported":1739340786,"current_range_meters":33600,"station_id":"ce4bgqh2rcd13ifvqc5g","pricing_plan_id":"cebpf4jnsgd1na2vs0mg"},{"bike_id":"de77abfa-6f74-40e9-8131-b7884eda37eb","system_id":"levelo_inurba_marseille","lat":43.29923,"lon":5.39394,"is_reserved":false,"is_disabled":false,"rental_uris":{"android":"levelo://app?vid=de77abfa-6f74-40e9-8131-b7884eda37eb","ios":"levelo://app?vid=de77abfa-6f74-40e9-8131-b7884eda37eb"},"vehicle_type_id":"4","last_reported":1739340786,"current_range_meters":26800,"station_id":"","pricing_plan_id":"cebpf4jnsgd1na2vs0mg"},{"bike_id":"73e22411-53b5-4cd8-85c6-eb2465766898","system_id":"levelo_inurba_marseille","lat":43.284614,"lon":5.358818,"is_reserved":false,"is_disabled":false,"rental_uris":{"android":"levelo://app?vid=73e22411-53b5-4cd8-85c6-eb2465766898","ios":"levelo://app?vid=73e22411-53b5-4cd8-85c6-eb2465766898"},"vehicle_type_id":"4","last_reported":1739340786,"current_range_meters":8000,"station_id":"ce4bhah2rcd13ifvqei0","pricing_plan_id":"cebpf4jnsgd1na2vs0mg"},{"bike_id":"aa081435-b5f9-4834-b16c-7f35c836b33a","system_id":"levelo_inurba_marseille","lat":43.30151,"lon":5.37416,"is_reserved":false,"is_disabled":false,"rental_uris":{"android":"levelo://app?vid=aa081435-b5f9-4834-b16c-7f35c836b33a","ios":"levelo://app?vid=aa081435-b5f9-4834-b16c-7f35c836b33a"},"vehicle_type_id":"4","last_reported":1739340786,"current_range_meters":38000,"station_id":"ce4bgs92rcd13ifvqcc0","pricing_plan_id":"cebpf4jnsgd1na2vs0mg"},{"bike_id":"ee079ffa-4416-4a91-bc98-3bd665acea3b","system_id":"levelo_inurba_marseille","lat":43.33729,"lon":5.39182,"is_reserved":false,"is_disabled":false,"rental_uris":{"android":"levelo://app?vid=ee079ffa-4416-4a91-bc98-3bd665acea3b","ios":"levelo://app?vid=ee079ffa-4416-4a91-bc98-3bd665acea3b"},"vehicle_type_id":"4","last_reported":1739340786,"current_range_meters":38800,"station_id":"ce4bhr92rcd13ifvqhsg","pricing_plan_id":"cebpf4jnsgd1na2vs0mg"},{"bike_id":"1fa82dc6-47d4-4356-bbca-393bf4461726","system_id":"levelo_inurba_marseille","lat":43.23957,"lon":5.366299,"is_reserved":false,"is_disabled":false,"rental_uris":{"android":"levelo://app?vid=1fa82dc6-47d4-4356-bbca-393bf4461726","ios":"levelo://app?vid=1fa82dc6-47d4-4356-bbca-393bf4461726"},"vehicle_type_id":"4","last_reported":1739340786,"current_range_meters":17600,"station_id":"ce4bhi12rcd13ifvqfp0","pricing_plan_id":"cebpf4jnsgd1na2vs0mg"},{"bike_id":"8f27805b-e45e-482f-800b-3745204b0141","system_id":"levelo_inurba_marseille","lat":43.24682,"lon":5.38145,"is_reserved":false,"is_disabled":false,"rental_uris":{"android":"levelo://app?vid=8f27805b-e45e-482f-800b-3745204b0141","ios":"levelo://app?vid=8f27805b-e45e-482f-800b-3745204b0141"},"vehicle_type_id":"4","last_reported":1739340786,"current_range_meters":25200,"station_id":"ce4bhih2rcd13ifvqfr0","pricing_plan_id":"cebpf4jnsgd1na2vs0mg"},{"bike_id":"9f99ab5f-0fe5-4085-b6b7-477d8944d558","system_id":"levelo_inurba_marseille","lat":43.2815,"lon":5.42641,"is_reserved":false,"is_disabled":false,"rental_uris":{"android":"levelo://app?vid=9f99ab5f-0fe5-4085-b6b7-477d8944d558","ios":"levelo://app?vid=9f99ab5f-0fe5-4085-b6b7-477d8944d558"},"vehicle_type_id":"4","last_reported":1739340786,"current_range_meters":39200,"station_id":"ce4bhnh2rcd13ifvqgug","pricing_plan_id":"cebpf4jnsgd1na2vs0mg"},{"bike_id":"bcb645d7-c598-4777-888d-2e2637a0a4f2","system_id":"levelo_inurba_marseille","lat":43.27903,"lon":5.38001,"is_reserved":false,"is_disabled":false,"rental_uris":{"android":"levelo://app?vid=bcb645d7-c598-4777-888d-2e2637a0a4f2","ios":"levelo://app?vid=bcb645d7-c598-4777-888d-2e2637a0a4f2"},"vehicle_type_id":"4","last_reported":1739340786,"current_range_meters":30800,"station_id":"ce4bhf92rcd13ifvqf50","pricing_plan_id":"cebpf4jnsgd1na2vs0mg"},{"bike_id":"43d9c899-b698-4010-980b-b17004dc2d7c","system_id":"levelo_inurba_marseille","lat":43.29962,"lon":5.37195,"is_reserved":false,"is_disabled":false,"rental_uris":{"android":"levelo://app?vid=43d9c899-b698-4010-980b-b17004dc2d7c","ios":"levelo://app?vid=43d9c899-b698-4010-980b-b17004dc2d7c"},"vehicle_type_id":"4","last_reported":1739340786,"current_range_meters":38800,"station_id":"ce4bgr92rcd13ifvqc7g","pricing_plan_id":"cebpf4jnsgd1na2vs0mg"},{"bike_id":"47e0f5df-3ffc-443a-8e3a-326299068a40","system_id":"levelo_inurba_marseille","lat":43.27992,"lon":5.40013,"is_reserved":false,"is_disabled":false,"rental_uris":{"android":"levelo://app?vid=47e0f5df-3ffc-443a-8e3a-326299068a40","ios":"levelo://app?vid=47e0f5df-3ffc-443a-8e3a-326299068a40"},"vehicle_type_id":"4","last_reported":1739340786,"current_range_meters":27200,"station_id":"ce4bho92rcd13ifvqh4g","pricing_plan_id":"cebpf4jnsgd1na2vs0mg"},{"bike_id":"496fa2ad-a547-4095-b8b9-a29f1a78ab4b","system_id":"levelo_inurba_marseille","lat":43.27821,"lon":5.407153,"is_reserved":false,"is_disabled":true,"rental_uris":{"android":"levelo://app?vid=496fa2ad-a547-4095-b8b9-a29f1a78ab4b","ios":"levelo://app?vid=496fa2ad-a547-4095-b8b9-a29f1a78ab4b"},"vehicle_type_id":"4","last_reported":1739340786,"current_range_meters":33600,"station_id":"ce4bhnh2rcd13ifvqgtg","pricing_plan_id":"cebpf4jnsgd1na2vs0mg"},{"bike_id":"13471ccf-c2b7-4153-8571-1eff677f39ef","system_id":"levelo_inurba_marseille","lat":43.29448,"lon":5.39747,"is_reserved":false,"is_disabled":false,"rental_uris":{"android":"levelo://app?vid=13471ccf-c2b7-4153-8571-1eff677f39ef","ios":"levelo://app?vid=13471ccf-c2b7-4153-8571-1eff677f39ef"},"vehicle_type_id":"4","last_reported":1739340786,"current_range_meters":28800,"station_id":"ce4bh3h2rcd13ifvqdo0","pricing_plan_id":"cebpf4jnsgd1na2vs0mg"},{"bike_id":"3db29e58-0383-464f-82dd-fb2e9d4db242","system_id":"levelo_inurba_marseille","lat":43.28098,"lon":5.3785,"is_reserved":false,"is_disabled":false,"rental_uris":{"android":"levelo://app?vid=3db29e58-0383-464f-82dd-fb2e9d4db242","ios":"levelo://app?vid=3db29e58-0383-464f-82dd-fb2e9d4db242"},"vehicle_type_id":"4","last_reported":1739340786,"current_range_meters":28800,"station_id":"ce4bha12rcd13ifvqee0","pricing_plan_id":"cebpf4jnsgd1na2vs0mg"},{"bike_id":"05f6ac8f-0127-4e39-bd11-d53a74225ef8","system_id":"levelo_inurba_marseille","lat":43.27874,"lon":5.40597,"is_reserved":false,"is_disabled":true,"rental_uris":{"android":"levelo://app?vid=05f6ac8f-0127-4e39-bd11-d53a74225ef8","ios":"levelo://app?vid=05f6ac8f-0127-4e39-bd11-d53a74225ef8"},"vehicle_type_id":"4","last_reported":1739340786,"current_range_meters":0,"station_id":"","pricing_plan_id":"cebpf4jnsgd1na2vs0mg"},{"bike_id":"d340f923-6944-4974-a989-68f8c77eed2b","system_id":"levelo_inurba_marseille","lat":43.25128,"lon":5.40309,"is_reserved":false,"is_disabled":false,"rental_uris":{"android":"levelo://app?vid=d340f923-6944-4974-a989-68f8c77eed2b","ios":"levelo://app?vid=d340f923-6944-4974-a989-68f8c77eed2b"},"vehicle_type_id":"4","last_reported":1739340786,"current_range_meters":26800,"station_id":"ce4bhlh2rcd13ifvqgig","pricing_plan_id":"cebpf4jnsgd1na2vs0mg"},{"bike_id":"d5aff76b-8afe-4642-9794-552d69dd1f55","system_id":"levelo_inurba_marseille","lat":43.25496,"lon":5.37649,"is_reserved":false,"is_disabled":false,"rental_uris":{"android":"levelo://app?vid=d5aff76b-8afe-4642-9794-552d69dd1f55","ios":"levelo://app?vid=d5aff76b-8afe-4642-9794-552d69dd1f55"},"vehicle_type_id":"4","last_reported":1739340786,"current_range_meters":35600,"station_id":"ce4bhh12rcd13ifvqff0","pricing_plan_id":"cebpf4jnsgd1na2vs0mg"},{"bike_id":"3aeb5cdf-f333-43fd-9c06-e99bd36b32d2","system_id":"levelo_inurba_marseille","lat":43.29959,"lon":5.41305,"is_reserved":false,"is_disabled":false,"rental_uris":{"android":"levelo://app?vid=3aeb5cdf-f333-43fd-9c06-e99bd36b32d2","ios":"levelo://app?vid=3aeb5cdf-f333-43fd-9c06-e99bd36b32d2"},"vehicle_type_id":"4","last_reported":1739340786,"current_range_meters":37600,"station_id":"ce4bhp12rcd13ifvqh9g","pricing_plan_id":"cebpf4jnsgd1na2vs0mg"},{"bike_id":"aadaf4bd-d503-4fa8-8fba-48c219f7a5ca","system_id":"levelo_inurba_marseille","lat":43.25586,"lon":5.38228,"is_reserved":false,"is_disabled":false,"rental_uris":{"android":"levelo://app?vid=aadaf4bd-d503-4fa8-8fba-48c219f7a5ca","ios":"levelo://app?vid=aadaf4bd-d503-4fa8-8fba-48c219f7a5ca"},"vehicle_type_id":"4","last_reported":1739340786,"current_range_meters":7200,"station_id":"ce4bhih2rcd13ifvqfs0","pricing_plan_id":"cebpf4jnsgd1na2vs0mg"},{"bike_id":"90f13af0-9da4-4d02-82ad-8b2ef0f8ca45","system_id":"levelo_inurba_marseille","lat":43.320031,"lon":5.38157,"is_reserved":false,"is_disabled":false,"rental_uris":{"android":"levelo://app?vid=90f13af0-9da4-4d02-82ad-8b2ef0f8ca45","ios":"levelo://app?vid=90f13af0-9da4-4d02-82ad-8b2ef0f8ca45"},"vehicle_type_id":"4","last_reported":1739340786,"current_range_meters":38800,"station_id":"ce4bhr12rcd13ifvqhpg","pricing_plan_id":"cebpf4jnsgd1na2vs0mg"},{"bike_id":"3d01ee57-be5d-4165-815d-c5b06c8be331","system_id":"levelo_inurba_marseille","lat":43.25014,"lon":5.38928,"is_reserved":false,"is_disabled":false,"rental_uris":{"android":"levelo://app?vid=3d01ee57-be5d-4165-815d-c5b06c8be331","ios":"levelo://app?vid=3d01ee57-be5d-4165-815d-c5b06c8be331"},"vehicle_type_id":"4","last_reported":1739340786,"current_range_meters":38800,"station_id":"ce4bhgp2rcd13ifvqfd0","pricing_plan_id":"cebpf4jnsgd1na2vs0mg"},{"bike_id":"ac61e543-8c2c-417c-bfb2-f5d63157c922","system_id":"levelo_inurba_marseille","lat":43.32659,"lon":5.40986,"is_reserved":false,"is_disabled":false,"rental_uris":{"android":"levelo://app?vid=ac61e543-8c2c-417c-bfb2-f5d63157c922","ios":"levelo://app?vid=ac61e543-8c2c-417c-bfb2-f5d63157c922"},"vehicle_type_id":"4","last_reported":1739340786,"current_range_meters":38000,"station_id":"ce4bhpp2rcd13ifvqhgg","pricing_plan_id":"cebpf4jnsgd1na2vs0mg"},{"bike_id":"51620b26-19de-4403-be68-cecc23178a04","system_id":"levelo_inurba_marseille","lat":43.309,"lon":5.37172,"is_reserved":false,"is_disabled":false,"rental_uris":{"android":"levelo://app?vid=51620b26-19de-4403-be68-cecc23178a04","ios":"levelo://app?vid=51620b26-19de-4403-be68-cecc23178a04"},"vehicle_type_id":"4","last_reported":1739340786,"current_range_meters":38000,"station_id":"ce4bguh2rcd13ifvqckg","pricing_plan_id":"cebpf4jnsgd1na2vs0mg"},{"bike_id":"721f5fb6-7349-49b7-a109-77ff84c72bdd","system_id":"levelo_inurba_marseille","lat":43.30225,"lon":5.39452,"is_reserved":false,"is_disabled":false,"rental_uris":{"android":"levelo://app?vid=721f5fb6-7349-49b7-a109-77ff84c72bdd","ios":"levelo://app?vid=721f5fb6-7349-49b7-a109-77ff84c72bdd"},"vehicle_type_id":"4","last_reported":1739340786,"current_range_meters":38800,"station_id":"ce4bh0p2rcd13ifvqd70","pricing_plan_id":"cebpf4jnsgd1na2vs0mg"},{"bike_id":"af75ab2f-b86c-4642-be08-13d44627c1d5","system_id":"levelo_inurba_marseille","lat":43.29415,"lon":5.38622,"is_reserved":false,"is_disabled":false,"rental_uris":{"android":"levelo://app?vid=af75ab2f-b86c-4642-be08-13d44627c1d5","ios":"levelo://app?vid=af75ab2f-b86c-4642-be08-13d44627c1d5"},"vehicle_type_id":"4","last_reported":1739340786,"current_range_meters":38000,"station_id":"ce4bh2h2rcd13ifvqdh0","pricing_plan_id":"cebpf4jnsgd1na2vs0mg"},{"bike_id":"76ed4e97-7fa9-4836-bcd3-e52753ef31b4","system_id":"levelo_inurba_marseille","lat":43.29843,"lon":5.36273,"is_reserved":false,"is_disabled":false,"rental_uris":{"android":"levelo://app?vid=76ed4e97-7fa9-4836-bcd3-e52753ef31b4","ios":"levelo://app?vid=76ed4e97-7fa9-4836-bcd3-e52753ef31b4"},"vehicle_type_id":"4","last_reported":1739340786,"current_range_meters":38000,"station_id":"ce4bgpp2rcd13ifvqc3g","pricing_plan_id":"cebpf4jnsgd1na2vs0mg"},{"bike_id":"fd7cd6eb-8023-4160-9061-39fa556cf25c","system_id":"levelo_inurba_marseille","lat":43.30319,"lon":5.40443,"is_reserved":false,"is_disabled":true,"rental_uris":{"android":"levelo://app?vid=fd7cd6eb-8023-4160-9061-39fa556cf25c","ios":"levelo://app?vid=fd7cd6eb-8023-4160-9061-39fa556cf25c"},"vehicle_type_id":"4","last_reported":1739340786,"current_range_meters":26000,"station_id":"ce4bh012rcd13ifvqd10","pricing_plan_id":"cebpf4jnsgd1na2vs0mg"},{"bike_id":"29eccc44-050e-4e0c-8728-3d5f94289209","system_id":"levelo_inurba_marseille","lat":43.2926,"lon":5.40142,"is_reserved":false,"is_disabled":false,"rental_uris":{"android":"levelo://app?vid=29eccc44-050e-4e0c-8728-3d5f94289209","ios":"levelo://app?vid=29eccc44-050e-4e0c-8728-3d5f94289209"},"vehicle_type_id":"4","last_reported":1739340786,"current_range_meters":36400,"station_id":"ce4bh312rcd13ifvqdk0","pricing_plan_id":"cebpf4jnsgd1na2vs0mg"},{"bike_id":"d32849cf-4c14-4032-9063-172d06d3f04f","system_id":"levelo_inurba_marseille","lat":43.23188,"lon":5.35569,"is_reserved":false,"is_disabled":false,"rental_uris":{"android":"levelo://app?vid=d32849cf-4c14-4032-9063-172d06d3f04f","ios":"levelo://app?vid=d32849cf-4c14-4032-9063-172d06d3f04f"},"vehicle_type_id":"4","last_reported":1739340786,"current_range_meters":32400,"station_id":"ce4bhu92rcd13ifvqi70","pricing_plan_id":"cebpf4jnsgd1na2vs0mg"},{"bike_id":"a4eaaa69-6c5f-4bbb-8db1-625e149d651e","system_id":"levelo_inurba_marseille","lat":43.29537,"lon":5.39047,"is_reserved":false,"is_disabled":false,"rental_uris":{"android":"levelo://app?vid=a4eaaa69-6c5f-4bbb-8db1-625e149d651e","ios":"levelo://app?vid=a4eaaa69-6c5f-4bbb-8db1-625e149d651e"},"vehicle_type_id":"4","last_reported":1739340786,"current_range_meters":38800,"station_id":"ce4bh3p2rcd13ifvqdp0","pricing_plan_id":"cebpf4jnsgd1na2vs0mg"},{"bike_id":"4bb4af83-e61e-4f75-9787-d8bfa4ce6d16","system_id":"levelo_inurba_marseille","lat":43.30962,"lon":5.39048,"is_reserved":false,"is_disabled":false,"rental_uris":{"android":"levelo://app?vid=4bb4af83-e61e-4f75-9787-d8bfa4ce6d16","ios":"levelo://app?vid=4bb4af83-e61e-4f75-9787-d8bfa4ce6d16"},"vehicle_type_id":"4","last_reported":1739340786,"current_range_meters":38800,"station_id":"ce4bgup2rcd13ifvqco0","pricing_plan_id":"cebpf4jnsgd1na2vs0mg"},{"bike_id":"172f1cf8-91a8-4ae5-bd29-db168c06efd6","system_id":"levelo_inurba_marseille","lat":43.28726,"lon":5.36082,"is_reserved":false,"is_disabled":false,"rental_uris":{"android":"levelo://app?vid=172f1cf8-91a8-4ae5-bd29-db168c06efd6","ios":"levelo://app?vid=172f1cf8-91a8-4ae5-bd29-db168c06efd6"},"vehicle_type_id":"4","last_reported":1739340786,"current_range_meters":38800,"station_id":"cki0cbj6b192h4jlfktg","pricing_plan_id":"cebpf4jnsgd1na2vs0mg"},{"bike_id":"09a31e22-31a3-4a8b-a8f3-c6b84a9cc357","system_id":"levelo_inurba_marseille","lat":43.275626,"lon":5.384175,"is_reserved":false,"is_disabled":false,"rental_uris":{"android":"levelo://app?vid=09a31e22-31a3-4a8b-a8f3-c6b84a9cc357","ios":"levelo://app?vid=09a31e22-31a3-4a8b-a8f3-c6b84a9cc357"},"vehicle_type_id":"4","last_reported":1739340786,"current_range_meters":24800,"station_id":"ce4bhh92rcd13ifvqfi0","pricing_plan_id":"cebpf4jnsgd1na2vs0mg"},{"bike_id":"b7cfafc0-fba3-47fa-8c3d-d96c6bee1f7a","system_id":"levelo_inurba_marseille","lat":43.24413,"lon":5.37045,"is_reserved":false,"is_disabled":false,"rental_uris":{"android":"levelo://app?vid=b7cfafc0-fba3-47fa-8c3d-d96c6bee1f7a","ios":"levelo://app?vid=b7cfafc0-fba3-47fa-8c3d-d96c6bee1f7a"},"vehicle_type_id":"4","last_reported":1739340786,"current_range_meters":30800,"station_id":"ce4bhhh2rcd13ifvqfk0","pricing_plan_id":"cebpf4jnsgd1na2vs0mg"},{"bike_id":"9ba133ba-7b58-4607-8737-7fb5bce66e58","system_id":"levelo_inurba_marseille","lat":43.24395,"lon":5.37029,"is_reserved":false,"is_disabled":false,"rental_uris":{"android":"levelo://app?vid=9ba133ba-7b58-4607-8737-7fb5bce66e58","ios":"levelo://app?vid=9ba133ba-7b58-4607-8737-7fb5bce66e58"},"vehicle_type_id":"4","last_reported":1739340786,"current_range_meters":38800,"station_id":"ce4bhhh2rcd13ifvqfk0","pricing_plan_id":"cebpf4jnsgd1na2vs0mg"},{"bike_id":"24d2a29b-fa24-4c85-a726-541b11d56bc0","system_id":"levelo_inurba_marseille","lat":43.31337,"lon":5.36719,"is_reserved":false,"is_disabled":false,"rental_uris":{"android":"levelo://app?vid=24d2a29b-fa24-4c85-a726-541b11d56bc0","ios":"levelo://app?vid=24d2a29b-fa24-4c85-a726-541b11d56bc0"},"vehicle_type_id":"4","last_reported":1739340786,"current_range_meters":15200,"station_id":"ce4bgr92rcd13ifvqc6g","pricing_plan_id":"cebpf4jnsgd1na2vs0mg"},{"bike_id":"f6e41f32-e235-432e-b657-0d4bc89c9b05","system_id":"levelo_inurba_marseille","lat":43.265631,"lon":5.37282,"is_reserved":false,"is_disabled":false,"rental_uris":{"android":"levelo://app?vid=f6e41f32-e235-432e-b657-0d4bc89c9b05","ios":"levelo://app?vid=f6e41f32-e235-432e-b657-0d4bc89c9b05"},"vehicle_type_id":"4","last_reported":1739340786,"current_range_meters":36000,"station_id":"ce4bhg12rcd13ifvqf70","pricing_plan_id":"cebpf4jnsgd1na2vs0mg"},{"bike_id":"890d9710-d39f-4ac8-b682-d39d1a34596e","system_id":"levelo_inurba_marseille","lat":43.29521,"lon":5.39031,"is_reserved":false,"is_disabled":false,"rental_uris":{"android":"levelo://app?vid=890d9710-d39f-4ac8-b682-d39d1a34596e","ios":"levelo://app?vid=890d9710-d39f-4ac8-b682-d39d1a34596e"},"vehicle_type_id":"4","last_reported":1739340786,"current_range_meters":35200,"station_id":"ce4bh3p2rcd13ifvqdp0","pricing_plan_id":"cebpf4jnsgd1na2vs0mg"},{"bike_id":"8a458595-4d2b-414d-b3f0-202dcd5ab661","system_id":"levelo_inurba_marseille","lat":43.306,"lon":5.39413,"is_reserved":false,"is_disabled":false,"rental_uris":{"android":"levelo://app?vid=8a458595-4d2b-414d-b3f0-202dcd5ab661","ios":"levelo://app?vid=8a458595-4d2b-414d-b3f0-202dcd5ab661"},"vehicle_type_id":"4","last_reported":1739340786,"current_range_meters":6400,"station_id":"ce4bh0p2rcd13ifvqd80","pricing_plan_id":"cebpf4jnsgd1na2vs0mg"},{"bike_id":"14b2070b-6ddc-42e3-b1e8-9c0cbc081f72","system_id":"levelo_inurba_marseille","lat":43.33725,"lon":5.39183,"is_reserved":false,"is_disabled":false,"rental_uris":{"android":"levelo://app?vid=14b2070b-6ddc-42e3-b1e8-9c0cbc081f72","ios":"levelo://app?vid=14b2070b-6ddc-42e3-b1e8-9c0cbc081f72"},"vehicle_type_id":"4","last_reported":1739340786,"current_range_meters":38800,"station_id":"ce4bhr92rcd13ifvqhsg","pricing_plan_id":"cebpf4jnsgd1na2vs0mg"},{"bike_id":"a4ffd37d-e603-4662-a8c5-11a265291ed9","system_id":"levelo_inurba_marseille","lat":43.28947,"lon":5.363995,"is_reserved":false,"is_disabled":false,"rental_uris":{"android":"levelo://app?vid=a4ffd37d-e603-4662-a8c5-11a265291ed9","ios":"levelo://app?vid=a4ffd37d-e603-4662-a8c5-11a265291ed9"},"vehicle_type_id":"4","last_reported":1739340786,"current_range_meters":30400,"station_id":"ce4bhc92rcd13ifvqetg","pricing_plan_id":"cebpf4jnsgd1na2vs0mg"},{"bike_id":"3ad78980-d954-4439-b88d-56e0dcfe7b89","system_id":"levelo_inurba_marseille","lat":43.23958,"lon":5.3663,"is_reserved":false,"is_disabled":false,"rental_uris":{"android":"levelo://app?vid=3ad78980-d954-4439-b88d-56e0dcfe7b89","ios":"levelo://app?vid=3ad78980-d954-4439-b88d-56e0dcfe7b89"},"vehicle_type_id":"4","last_reported":1739340786,"current_range_meters":7200,"station_id":"ce4bhi12rcd13ifvqfp0","pricing_plan_id":"cebpf4jnsgd1na2vs0mg"},{"bike_id":"383eab20-f39c-48b0-ac98-8e554f1282a2","system_id":"levelo_inurba_marseille","lat":43.30882,"lon":5.39647,"is_reserved":false,"is_disabled":false,"rental_uris":{"android":"levelo://app?vid=383eab20-f39c-48b0-ac98-8e554f1282a2","ios":"levelo://app?vid=383eab20-f39c-48b0-ac98-8e554f1282a2"},"vehicle_type_id":"4","last_reported":1739340786,"current_range_meters":28000,"station_id":"ce4bh012rcd13ifvqcv0","pricing_plan_id":"cebpf4jnsgd1na2vs0mg"},{"bike_id":"43b1ecc5-d107-4d1b-b054-0d8524909927","system_id":"levelo_inurba_marseille","lat":43.28668,"lon":5.38679,"is_reserved":false,"is_disabled":false,"rental_uris":{"android":"levelo://app?vid=43b1ecc5-d107-4d1b-b054-0d8524909927","ios":"levelo://app?vid=43b1ecc5-d107-4d1b-b054-0d8524909927"},"vehicle_type_id":"4","last_reported":1739340786,"current_range_meters":23200,"station_id":"ce4bh492rcd13ifvqdug","pricing_plan_id":"cebpf4jnsgd1na2vs0mg"},{"bike_id":"72dcdbd8-6454-45d9-a70f-b140c9e866d2","system_id":"levelo_inurba_marseille","lat":43.298936,"lon":5.436579,"is_reserved":false,"is_disabled":false,"rental_uris":{"android":"levelo://app?vid=72dcdbd8-6454-45d9-a70f-b140c9e866d2","ios":"levelo://app?vid=72dcdbd8-6454-45d9-a70f-b140c9e866d2"},"vehicle_type_id":"4","last_reported":1739340786,"current_range_meters":38800,"station_id":"ce4bhpp2rcd13ifvqhfg","pricing_plan_id":"cebpf4jnsgd1na2vs0mg"},{"bike_id":"652123cb-3721-44be-8710-a2f825a76e71","system_id":"levelo_inurba_marseille","lat":43.231896,"lon":5.399891,"is_reserved":false,"is_disabled":false,"rental_uris":{"android":"levelo://app?vid=652123cb-3721-44be-8710-a2f825a76e71","ios":"levelo://app?vid=652123cb-3721-44be-8710-a2f825a76e71"},"vehicle_type_id":"4","last_reported":1739340786,"current_range_meters":6000,"station_id":"ce4bhn12rcd13ifvqgqg","pricing_plan_id":"cebpf4jnsgd1na2vs0mg"},{"bike_id":"a44105aa-fc32-4a22-833c-afdd70d81b1f","system_id":"levelo_inurba_marseille","lat":43.29712,"lon":5.37689,"is_reserved":false,"is_disabled":false,"rental_uris":{"android":"levelo://app?vid=a44105aa-fc32-4a22-833c-afdd70d81b1f","ios":"levelo://app?vid=a44105aa-fc32-4a22-833c-afdd70d81b1f"},"vehicle_type_id":"4","last_reported":1739340786,"current_range_meters":39200,"station_id":"ce4bgkh2rcd13ifvqbl0","pricing_plan_id":"cebpf4jnsgd1na2vs0mg"},{"bike_id":"8b3dba3f-5de8-455b-8ad7-d817a08bdb0c","system_id":"levelo_inurba_marseille","lat":43.30889,"lon":5.37171,"is_reserved":false,"is_disabled":false,"rental_uris":{"android":"levelo://app?vid=8b3dba3f-5de8-455b-8ad7-d817a08bdb0c","ios":"levelo://app?vid=8b3dba3f-5de8-455b-8ad7-d817a08bdb0c"},"vehicle_type_id":"4","last_reported":1739340786,"current_range_meters":37600,"station_id":"ce4bguh2rcd13ifvqckg","pricing_plan_id":"cebpf4jnsgd1na2vs0mg"},{"bike_id":"fb2c916d-110b-4178-ae54-20a447d0a865","system_id":"levelo_inurba_marseille","lat":43.3137,"lon":5.38494,"is_reserved":false,"is_disabled":false,"rental_uris":{"android":"levelo://app?vid=fb2c916d-110b-4178-ae54-20a447d0a865","ios":"levelo://app?vid=fb2c916d-110b-4178-ae54-20a447d0a865"},"vehicle_type_id":"4","last_reported":1739340786,"current_range_meters":38800,"station_id":"ce4bgt92rcd13ifvqcf0","pricing_plan_id":"cebpf4jnsgd1na2vs0mg"},{"bike_id":"b7093d96-5e28-44c2-87d1-baed01f4cb25","system_id":"levelo_inurba_marseille","lat":43.27976,"lon":5.38752,"is_reserved":false,"is_disabled":false,"rental_uris":{"android":"levelo://app?vid=b7093d96-5e28-44c2-87d1-baed01f4cb25","ios":"levelo://app?vid=b7093d96-5e28-44c2-87d1-baed01f4cb25"},"vehicle_type_id":"4","last_reported":1739340786,"current_range_meters":36800,"station_id":"ce4bhg12rcd13ifvqf80","pricing_plan_id":"cebpf4jnsgd1na2vs0mg"},{"bike_id":"201b14f4-65c7-45ff-8010-fe136e6675ac","system_id":"levelo_inurba_marseille","lat":43.24177,"lon":5.39728,"is_reserved":false,"is_disabled":false,"rental_uris":{"android":"levelo://app?vid=201b14f4-65c7-45ff-8010-fe136e6675ac","ios":"levelo://app?vid=201b14f4-65c7-45ff-8010-fe136e6675ac"},"vehicle_type_id":"4","last_reported":1739340786,"current_range_meters":22000,"station_id":"ce4bhn12rcd13ifvqgpg","pricing_plan_id":"cebpf4jnsgd1na2vs0mg"},{"bike_id":"eb6f3195-061b-4296-b5ef-63c83812a3ff","system_id":"levelo_inurba_marseille","lat":43.32284,"lon":5.38278,"is_reserved":false,"is_disabled":false,"rental_uris":{"android":"levelo://app?vid=eb6f3195-061b-4296-b5ef-63c83812a3ff","ios":"levelo://app?vid=eb6f3195-061b-4296-b5ef-63c83812a3ff"},"vehicle_type_id":"4","last_reported":1739340786,"current_range_meters":38800,"station_id":"ce4bhr12rcd13ifvqhqg","pricing_plan_id":"cebpf4jnsgd1na2vs0mg"},{"bike_id":"9207b0f3-9707-4707-b4f6-b2339a5ec8ff","system_id":"levelo_inurba_marseille","lat":43.281506,"lon":5.426319,"is_reserved":false,"is_disabled":false,"rental_uris":{"android":"levelo://app?vid=9207b0f3-9707-4707-b4f6-b2339a5ec8ff","ios":"levelo://app?vid=9207b0f3-9707-4707-b4f6-b2339a5ec8ff"},"vehicle_type_id":"4","last_reported":1739340786,"current_range_meters":38000,"station_id":"ce4bhnh2rcd13ifvqgug","pricing_plan_id":"cebpf4jnsgd1na2vs0mg"},{"bike_id":"2550662b-5c2a-41ed-9f77-e5c02053bdf1","system_id":"levelo_inurba_marseille","lat":43.284,"lon":5.37526,"is_reserved":false,"is_disabled":false,"rental_uris":{"android":"levelo://app?vid=2550662b-5c2a-41ed-9f77-e5c02053bdf1","ios":"levelo://app?vid=2550662b-5c2a-41ed-9f77-e5c02053bdf1"},"vehicle_type_id":"4","last_reported":1739340786,"current_range_meters":32800,"station_id":"ce4bh412rcd13ifvqds0","pricing_plan_id":"cebpf4jnsgd1na2vs0mg"},{"bike_id":"80af509e-2c60-42b8-a7fc-6aebf1bb06c1","system_id":"levelo_inurba_marseille","lat":43.25728,"lon":5.41108,"is_reserved":false,"is_disabled":false,"rental_uris":{"android":"levelo://app?vid=80af509e-2c60-42b8-a7fc-6aebf1bb06c1","ios":"levelo://app?vid=80af509e-2c60-42b8-a7fc-6aebf1bb06c1"},"vehicle_type_id":"4","last_reported":1739340786,"current_range_meters":32000,"station_id":"ce4bhkp2rcd13ifvqgd0","pricing_plan_id":"cebpf4jnsgd1na2vs0mg"},{"bike_id":"7c71ad91-930b-4856-a3a6-b776fe0ad731","system_id":"levelo_inurba_marseille","lat":43.29738,"lon":5.36579,"is_reserved":false,"is_disabled":false,"rental_uris":{"android":"levelo://app?vid=7c71ad91-930b-4856-a3a6-b776fe0ad731","ios":"levelo://app?vid=7c71ad91-930b-4856-a3a6-b776fe0ad731"},"vehicle_type_id":"4","last_reported":1739340786,"current_range_meters":38800,"station_id":"ce4bgn12rcd13ifvqbt0","pricing_plan_id":"cebpf4jnsgd1na2vs0mg"},{"bike_id":"ddbfc913-16cf-4d9f-a892-35d08e1e6767","system_id":"levelo_inurba_marseille","lat":43.295899,"lon":5.36736,"is_reserved":false,"is_disabled":false,"rental_uris":{"android":"levelo://app?vid=ddbfc913-16cf-4d9f-a892-35d08e1e6767","ios":"levelo://app?vid=ddbfc913-16cf-4d9f-a892-35d08e1e6767"},"vehicle_type_id":"4","last_reported":1739340786,"current_range_meters":12400,"station_id":"ce4bgph2rcd13ifvqc2g","pricing_plan_id":"cebpf4jnsgd1na2vs0mg"},{"bike_id":"0a77f424-9d7d-4010-bd33-1687a2ffd57e","system_id":"levelo_inurba_marseille","lat":43.24821,"lon":5.37427,"is_reserved":false,"is_disabled":false,"rental_uris":{"android":"levelo://app?vid=0a77f424-9d7d-4010-bd33-1687a2ffd57e","ios":"levelo://app?vid=0a77f424-9d7d-4010-bd33-1687a2ffd57e"},"vehicle_type_id":"4","last_reported":1739340786,"current_range_meters":11200,"station_id":"ce4bhgh2rcd13ifvqfb0","pricing_plan_id":"cebpf4jnsgd1na2vs0mg"},{"bike_id":"15c8d317-fbc9-41d6-8e07-f6f8c9ef394a","system_id":"levelo_inurba_marseille","lat":43.28433,"lon":5.38454,"is_reserved":false,"is_disabled":false,"rental_uris":{"android":"levelo://app?vid=15c8d317-fbc9-41d6-8e07-f6f8c9ef394a","ios":"levelo://app?vid=15c8d317-fbc9-41d6-8e07-f6f8c9ef394a"},"vehicle_type_id":"4","last_reported":1739340786,"current_range_meters":38800,"station_id":"","pricing_plan_id":"cebpf4jnsgd1na2vs0mg"},{"bike_id":"fcacfe78-1263-41da-a6e9-484c3b1c52e1","system_id":"levelo_inurba_marseille","lat":43.30597,"lon":5.39356,"is_reserved":false,"is_disabled":false,"rental_uris":{"android":"levelo://app?vid=fcacfe78-1263-41da-a6e9-484c3b1c52e1","ios":"levelo://app?vid=fcacfe78-1263-41da-a6e9-484c3b1c52e1"},"vehicle_type_id":"4","last_reported":1739340786,"current_range_meters":33600,"station_id":"ce4bh0p2rcd13ifvqd80","pricing_plan_id":"cebpf4jnsgd1na2vs0mg"},{"bike_id":"c2250f20-2283-4e17-b7ce-382f2f740aa1","system_id":"levelo_inurba_marseille","lat":43.24808,"lon":5.37466,"is_reserved":false,"is_disabled":false,"rental_uris":{"android":"levelo://app?vid=c2250f20-2283-4e17-b7ce-382f2f740aa1","ios":"levelo://app?vid=c2250f20-2283-4e17-b7ce-382f2f740aa1"},"vehicle_type_id":"4","last_reported":1739340786,"current_range_meters":38800,"station_id":"ce4bhgh2rcd13ifvqfb0","pricing_plan_id":"cebpf4jnsgd1na2vs0mg"},{"bike_id":"d52467fa-3015-4742-aee2-f7ab48c12d28","system_id":"levelo_inurba_marseille","lat":43.3031,"lon":5.36897,"is_reserved":false,"is_disabled":false,"rental_uris":{"android":"levelo://app?vid=d52467fa-3015-4742-aee2-f7ab48c12d28","ios":"levelo://app?vid=d52467fa-3015-4742-aee2-f7ab48c12d28"},"vehicle_type_id":"4","last_reported":1739340786,"current_range_meters":14000,"station_id":"ce4bgqh2rcd13ifvqc5g","pricing_plan_id":"cebpf4jnsgd1na2vs0mg"},{"bike_id":"d42ce623-68c9-4e3f-bc1f-bff3c11777b1","system_id":"levelo_inurba_marseille","lat":43.29255,"lon":5.409,"is_reserved":false,"is_disabled":false,"rental_uris":{"android":"levelo://app?vid=d42ce623-68c9-4e3f-bc1f-bff3c11777b1","ios":"levelo://app?vid=d42ce623-68c9-4e3f-bc1f-bff3c11777b1"},"vehicle_type_id":"4","last_reported":1739340786,"current_range_meters":38400,"station_id":"ce4bh192rcd13ifvqdc0","pricing_plan_id":"cebpf4jnsgd1na2vs0mg"},{"bike_id":"a5c8d6b9-db75-471f-9015-10144bb13020","system_id":"levelo_inurba_marseille","lat":43.2571,"lon":5.4106,"is_reserved":false,"is_disabled":false,"rental_uris":{"android":"levelo://app?vid=a5c8d6b9-db75-471f-9015-10144bb13020","ios":"levelo://app?vid=a5c8d6b9-db75-471f-9015-10144bb13020"},"vehicle_type_id":"4","last_reported":1739340786,"current_range_meters":39200,"station_id":"ce4bhkp2rcd13ifvqgd0","pricing_plan_id":"cebpf4jnsgd1na2vs0mg"},{"bike_id":"2641e583-40a6-4475-a32b-76ec7bb90597","system_id":"levelo_inurba_marseille","lat":43.30892,"lon":5.40108,"is_reserved":false,"is_disabled":true,"rental_uris":{"android":"levelo://app?vid=2641e583-40a6-4475-a32b-76ec7bb90597","ios":"levelo://app?vid=2641e583-40a6-4475-a32b-76ec7bb90597"},"vehicle_type_id":"4","last_reported":1739340786,"current_range_meters":0,"station_id":"","pricing_plan_id":"cebpf4jnsgd1na2vs0mg"},{"bike_id":"8aaacf93-7a76-463b-82dc-340e7efb76fd","system_id":"levelo_inurba_marseille","lat":43.29813,"lon":5.40391,"is_reserved":false,"is_disabled":false,"rental_uris":{"android":"levelo://app?vid=8aaacf93-7a76-463b-82dc-340e7efb76fd","ios":"levelo://app?vid=8aaacf93-7a76-463b-82dc-340e7efb76fd"},"vehicle_type_id":"4","last_reported":1739340786,"current_range_meters":38800,"station_id":"ce4bh112rcd13ifvqd90","pricing_plan_id":"cebpf4jnsgd1na2vs0mg"},{"bike_id":"f85fd452-5bde-4296-ab83-dac7111c9b77","system_id":"levelo_inurba_marseille","lat":43.325451,"lon":5.414503,"is_reserved":false,"is_disabled":false,"rental_uris":{"android":"levelo://app?vid=f85fd452-5bde-4296-ab83-dac7111c9b77","ios":"levelo://app?vid=f85fd452-5bde-4296-ab83-dac7111c9b77"},"vehicle_type_id":"4","last_reported":1739340786,"current_range_meters":36800,"station_id":"ce4bhq12rcd13ifvqhhg","pricing_plan_id":"cebpf4jnsgd1na2vs0mg"},{"bike_id":"d3b58dda-3b0c-4227-b0cb-8890146ef189","system_id":"levelo_inurba_marseille","lat":43.2952,"lon":5.390793,"is_reserved":false,"is_disabled":false,"rental_uris":{"android":"levelo://app?vid=d3b58dda-3b0c-4227-b0cb-8890146ef189","ios":"levelo://app?vid=d3b58dda-3b0c-4227-b0cb-8890146ef189"},"vehicle_type_id":"4","last_reported":1739340786,"current_range_meters":4800,"station_id":"ce4bgs12rcd13ifvqcag","pricing_plan_id":"cebpf4jnsgd1na2vs0mg"},{"bike_id":"30b76049-e41b-4adb-862f-755fe2524e05","system_id":"levelo_inurba_marseille","lat":43.288513,"lon":5.393247,"is_reserved":false,"is_disabled":false,"rental_uris":{"android":"levelo://app?vid=30b76049-e41b-4adb-862f-755fe2524e05","ios":"levelo://app?vid=30b76049-e41b-4adb-862f-755fe2524e05"},"vehicle_type_id":"4","last_reported":1739340786,"current_range_meters":37600,"station_id":"","pricing_plan_id":"cebpf4jnsgd1na2vs0mg"},{"bike_id":"635543fe-6114-4369-91d2-b63a5133d0a1","system_id":"levelo_inurba_marseille","lat":43.27946,"lon":5.41037,"is_reserved":false,"is_disabled":false,"rental_uris":{"android":"levelo://app?vid=635543fe-6114-4369-91d2-b63a5133d0a1","ios":"levelo://app?vid=635543fe-6114-4369-91d2-b63a5133d0a1"},"vehicle_type_id":"4","last_reported":1739340786,"current_range_meters":8000,"station_id":"ce4bhnp2rcd13ifvqh0g","pricing_plan_id":"cebpf4jnsgd1na2vs0mg"},{"bike_id":"2c43d0f4-4ebf-4fea-b95b-899ce0b25e39","system_id":"levelo_inurba_marseille","lat":43.31272,"lon":5.4018,"is_reserved":false,"is_disabled":false,"rental_uris":{"android":"levelo://app?vid=2c43d0f4-4ebf-4fea-b95b-899ce0b25e39","ios":"levelo://app?vid=2c43d0f4-4ebf-4fea-b95b-899ce0b25e39"},"vehicle_type_id":"4","last_reported":1739340786,"current_range_meters":17600,"station_id":"ce4bh092rcd13ifvqd30","pricing_plan_id":"cebpf4jnsgd1na2vs0mg"},{"bike_id":"b287473a-74ee-4278-927d-e008af99acd8","system_id":"levelo_inurba_marseille","lat":43.29928,"lon":5.36549,"is_reserved":false,"is_disabled":false,"rental_uris":{"android":"levelo://app?vid=b287473a-74ee-4278-927d-e008af99acd8","ios":"levelo://app?vid=b287473a-74ee-4278-927d-e008af99acd8"},"vehicle_type_id":"4","last_reported":1739340786,"current_range_meters":22400,"station_id":"ce4bgm92rcd13ifvqbr0","pricing_plan_id":"cebpf4jnsgd1na2vs0mg"},{"bike_id":"f908766d-cb2b-431b-a24d-e58d576f769b","system_id":"levelo_inurba_marseille","lat":43.30157,"lon":5.38067,"is_reserved":false,"is_disabled":false,"rental_uris":{"android":"levelo://app?vid=f908766d-cb2b-431b-a24d-e58d576f769b","ios":"levelo://app?vid=f908766d-cb2b-431b-a24d-e58d576f769b"},"vehicle_type_id":"4","last_reported":1739340786,"current_range_meters":39200,"station_id":"ce4bgjp2rcd13ifvqbh0","pricing_plan_id":"cebpf4jnsgd1na2vs0mg"},{"bike_id":"861aed4c-893e-4b16-ad69-4dfb51ba3a05","system_id":"levelo_inurba_marseille","lat":43.28733,"lon":5.36086,"is_reserved":false,"is_disabled":false,"rental_uris":{"android":"levelo://app?vid=861aed4c-893e-4b16-ad69-4dfb51ba3a05","ios":"levelo://app?vid=861aed4c-893e-4b16-ad69-4dfb51ba3a05"},"vehicle_type_id":"4","last_reported":1739340786,"current_range_meters":28800,"station_id":"cki0cbj6b192h4jlfktg","pricing_plan_id":"cebpf4jnsgd1na2vs0mg"},{"bike_id":"64387a61-7414-453e-8131-28fa15536541","system_id":"levelo_inurba_marseille","lat":43.25856,"lon":5.39908,"is_reserved":false,"is_disabled":false,"rental_uris":{"android":"levelo://app?vid=64387a61-7414-453e-8131-28fa15536541","ios":"levelo://app?vid=64387a61-7414-453e-8131-28fa15536541"},"vehicle_type_id":"4","last_reported":1739340786,"current_range_meters":8000,"station_id":"ce4bhl92rcd13ifvqghg","pricing_plan_id":"cebpf4jnsgd1na2vs0mg"},{"bike_id":"1d2000e3-6e82-4c8d-9a0a-5d8181e36eb3","system_id":"levelo_inurba_marseille","lat":43.25005,"lon":5.38918,"is_reserved":false,"is_disabled":false,"rental_uris":{"android":"levelo://app?vid=1d2000e3-6e82-4c8d-9a0a-5d8181e36eb3","ios":"levelo://app?vid=1d2000e3-6e82-4c8d-9a0a-5d8181e36eb3"},"vehicle_type_id":"4","last_reported":1739340786,"current_range_meters":37600,"station_id":"ce4bhgp2rcd13ifvqfd0","pricing_plan_id":"cebpf4jnsgd1na2vs0mg"},{"bike_id":"ad1132e5-698d-42b0-a3e6-6ac75510d87b","system_id":"levelo_inurba_marseille","lat":43.28849,"lon":5.35854,"is_reserved":false,"is_disabled":false,"rental_uris":{"android":"levelo://app?vid=ad1132e5-698d-42b0-a3e6-6ac75510d87b","ios":"levelo://app?vid=ad1132e5-698d-42b0-a3e6-6ac75510d87b"},"vehicle_type_id":"4","last_reported":1739340786,"current_range_meters":27600,"station_id":"ce4bhb12rcd13ifvqem0","pricing_plan_id":"cebpf4jnsgd1na2vs0mg"},{"bike_id":"a69e567e-3774-43da-9871-c9cd59263ec8","system_id":"levelo_inurba_marseille","lat":43.288488,"lon":5.393233,"is_reserved":false,"is_disabled":true,"rental_uris":{"android":"levelo://app?vid=a69e567e-3774-43da-9871-c9cd59263ec8","ios":"levelo://app?vid=a69e567e-3774-43da-9871-c9cd59263ec8"},"vehicle_type_id":"4","last_reported":1739340786,"current_range_meters":31200,"station_id":"ce4bh2p2rcd13ifvqdi0","pricing_plan_id":"cebpf4jnsgd1na2vs0mg"},{"bike_id":"c38fb035-efa3-4aa0-bdd4-9215cbbf93bb","system_id":"levelo_inurba_marseille","lat":43.30585,"lon":5.37218,"is_reserved":false,"is_disabled":false,"rental_uris":{"android":"levelo://app?vid=c38fb035-efa3-4aa0-bdd4-9215cbbf93bb","ios":"levelo://app?vid=c38fb035-efa3-4aa0-bdd4-9215cbbf93bb"},"vehicle_type_id":"4","last_reported":1739340786,"current_range_meters":38400,"station_id":"ce4bgqh2rcd13ifvqc4g","pricing_plan_id":"cebpf4jnsgd1na2vs0mg"},{"bike_id":"799c55c2-1e76-4409-82fe-e1417f2eccf3","system_id":"levelo_inurba_marseille","lat":43.31364,"lon":5.38491,"is_reserved":false,"is_disabled":false,"rental_uris":{"android":"levelo://app?vid=799c55c2-1e76-4409-82fe-e1417f2eccf3","ios":"levelo://app?vid=799c55c2-1e76-4409-82fe-e1417f2eccf3"},"vehicle_type_id":"4","last_reported":1739340786,"current_range_meters":38800,"station_id":"ce4bgt92rcd13ifvqcf0","pricing_plan_id":"cebpf4jnsgd1na2vs0mg"},{"bike_id":"450437f7-f152-4a04-b325-03f3ed3d779b","system_id":"levelo_inurba_marseille","lat":43.23178,"lon":5.39994,"is_reserved":false,"is_disabled":false,"rental_uris":{"android":"levelo://app?vid=450437f7-f152-4a04-b325-03f3ed3d779b","ios":"levelo://app?vid=450437f7-f152-4a04-b325-03f3ed3d779b"},"vehicle_type_id":"4","last_reported":1739340786,"current_range_meters":27600,"station_id":"ce4bhn12rcd13ifvqgqg","pricing_plan_id":"cebpf4jnsgd1na2vs0mg"},{"bike_id":"21b0c502-fd63-49e2-994e-aea282d5bf53","system_id":"levelo_inurba_marseille","lat":43.28681,"lon":5.39976,"is_reserved":false,"is_disabled":false,"rental_uris":{"android":"levelo://app?vid=21b0c502-fd63-49e2-994e-aea282d5bf53","ios":"levelo://app?vid=21b0c502-fd63-49e2-994e-aea282d5bf53"},"vehicle_type_id":"4","last_reported":1739340786,"current_range_meters":11600,"station_id":"ce4bho92rcd13ifvqh3g","pricing_plan_id":"cebpf4jnsgd1na2vs0mg"},{"bike_id":"4894643c-7cbc-44b9-8d75-69292261da04","system_id":"levelo_inurba_marseille","lat":43.29044,"lon":5.39946,"is_reserved":false,"is_disabled":true,"rental_uris":{"android":"levelo://app?vid=4894643c-7cbc-44b9-8d75-69292261da04","ios":"levelo://app?vid=4894643c-7cbc-44b9-8d75-69292261da04"},"vehicle_type_id":"4","last_reported":1739340786,"current_range_meters":38800,"station_id":"ce4bh392rcd13ifvqdm0","pricing_plan_id":"cebpf4jnsgd1na2vs0mg"},{"bike_id":"8f958795-1d0e-4a72-96cf-46fac3cf00bf","system_id":"levelo_inurba_marseille","lat":43.25519,"lon":5.39431,"is_reserved":false,"is_disabled":false,"rental_uris":{"android":"levelo://app?vid=8f958795-1d0e-4a72-96cf-46fac3cf00bf","ios":"levelo://app?vid=8f958795-1d0e-4a72-96cf-46fac3cf00bf"},"vehicle_type_id":"4","last_reported":1739340786,"current_range_meters":24800,"station_id":"","pricing_plan_id":"cebpf4jnsgd1na2vs0mg"},{"bike_id":"da3cce48-300e-4c15-b1e5-3b3c17a5c1a4","system_id":"levelo_inurba_marseille","lat":43.2957,"lon":5.39971,"is_reserved":false,"is_disabled":false,"rental_uris":{"android":"levelo://app?vid=da3cce48-300e-4c15-b1e5-3b3c17a5c1a4","ios":"levelo://app?vid=da3cce48-300e-4c15-b1e5-3b3c17a5c1a4"},"vehicle_type_id":"4","last_reported":1739340786,"current_range_meters":38000,"station_id":"ce4bh312rcd13ifvqdj0","pricing_plan_id":"cebpf4jnsgd1na2vs0mg"},{"bike_id":"7d53cd04-03c8-428a-b4fb-0e771333a4f5","system_id":"levelo_inurba_marseille","lat":43.24811,"lon":5.37463,"is_reserved":false,"is_disabled":false,"rental_uris":{"android":"levelo://app?vid=7d53cd04-03c8-428a-b4fb-0e771333a4f5","ios":"levelo://app?vid=7d53cd04-03c8-428a-b4fb-0e771333a4f5"},"vehicle_type_id":"4","last_reported":1739340786,"current_range_meters":38000,"station_id":"ce4bhgh2rcd13ifvqfb0","pricing_plan_id":"cebpf4jnsgd1na2vs0mg"},{"bike_id":"04d4b8ab-1d4d-44ab-9d49-e10f569c0553","system_id":"levelo_inurba_marseille","lat":43.2984,"lon":5.36262,"is_reserved":false,"is_disabled":false,"rental_uris":{"android":"levelo://app?vid=04d4b8ab-1d4d-44ab-9d49-e10f569c0553","ios":"levelo://app?vid=04d4b8ab-1d4d-44ab-9d49-e10f569c0553"},"vehicle_type_id":"4","last_reported":1739340786,"current_range_meters":35600,"station_id":"ce4bgpp2rcd13ifvqc3g","pricing_plan_id":"cebpf4jnsgd1na2vs0mg"},{"bike_id":"1aa20f28-8d10-4408-8fc5-fd6e535e6f55","system_id":"levelo_inurba_marseille","lat":43.30792,"lon":5.43516,"is_reserved":false,"is_disabled":false,"rental_uris":{"android":"levelo://app?vid=1aa20f28-8d10-4408-8fc5-fd6e535e6f55","ios":"levelo://app?vid=1aa20f28-8d10-4408-8fc5-fd6e535e6f55"},"vehicle_type_id":"4","last_reported":1739340786,"current_range_meters":38800,"station_id":"ce4bhph2rcd13ifvqheg","pricing_plan_id":"cebpf4jnsgd1na2vs0mg"},{"bike_id":"31ef7217-bcfe-43ce-b994-2ac5b1fe87c2","system_id":"levelo_inurba_marseille","lat":43.25735,"lon":5.41068,"is_reserved":false,"is_disabled":true,"rental_uris":{"android":"levelo://app?vid=31ef7217-bcfe-43ce-b994-2ac5b1fe87c2","ios":"levelo://app?vid=31ef7217-bcfe-43ce-b994-2ac5b1fe87c2"},"vehicle_type_id":"4","last_reported":1739340786,"current_range_meters":37600,"station_id":"ce4bhkp2rcd13ifvqgd0","pricing_plan_id":"cebpf4jnsgd1na2vs0mg"},{"bike_id":"90037e4a-a934-46fa-8514-6ab0532a1c0b","system_id":"levelo_inurba_marseille","lat":43.279342,"lon":5.411958,"is_reserved":false,"is_disabled":false,"rental_uris":{"android":"levelo://app?vid=90037e4a-a934-46fa-8514-6ab0532a1c0b","ios":"levelo://app?vid=90037e4a-a934-46fa-8514-6ab0532a1c0b"},"vehicle_type_id":"4","last_reported":1739340786,"current_range_meters":37600,"station_id":"","pricing_plan_id":"cebpf4jnsgd1na2vs0mg"},{"bike_id":"efbc2d24-a630-407b-a70e-aa5f9f781e8b","system_id":"levelo_inurba_marseille","lat":43.32047,"lon":5.41554,"is_reserved":false,"is_disabled":false,"rental_uris":{"android":"levelo://app?vid=efbc2d24-a630-407b-a70e-aa5f9f781e8b","ios":"levelo://app?vid=efbc2d24-a630-407b-a70e-aa5f9f781e8b"},"vehicle_type_id":"4","last_reported":1739340786,"current_range_meters":37600,"station_id":"ce4bhq92rcd13ifvqhkg","pricing_plan_id":"cebpf4jnsgd1na2vs0mg"},{"bike_id":"c4813b27-4250-43ea-8be5-ccd7321d2af3","system_id":"levelo_inurba_marseille","lat":43.2822,"lon":5.36967,"is_reserved":false,"is_disabled":false,"rental_uris":{"android":"levelo://app?vid=c4813b27-4250-43ea-8be5-ccd7321d2af3","ios":"levelo://app?vid=c4813b27-4250-43ea-8be5-ccd7321d2af3"},"vehicle_type_id":"4","last_reported":1739340786,"current_range_meters":18800,"station_id":"","pricing_plan_id":"cebpf4jnsgd1na2vs0mg"},{"bike_id":"7f7dd517-7cf5-41d9-92b7-ff4d18b1b1c0","system_id":"levelo_inurba_marseille","lat":43.24054,"lon":5.37773,"is_reserved":false,"is_disabled":false,"rental_uris":{"android":"levelo://app?vid=7f7dd517-7cf5-41d9-92b7-ff4d18b1b1c0","ios":"levelo://app?vid=7f7dd517-7cf5-41d9-92b7-ff4d18b1b1c0"},"vehicle_type_id":"4","last_reported":1739340786,"current_range_meters":17200,"station_id":"ce4bhnp2rcd13ifvqgvg","pricing_plan_id":"cebpf4jnsgd1na2vs0mg"},{"bike_id":"336a8004-bc8a-4425-9029-c2c7e82e23ba","system_id":"levelo_inurba_marseille","lat":43.28705,"lon":5.37396,"is_reserved":false,"is_disabled":false,"rental_uris":{"android":"levelo://app?vid=336a8004-bc8a-4425-9029-c2c7e82e23ba","ios":"levelo://app?vid=336a8004-bc8a-4425-9029-c2c7e82e23ba"},"vehicle_type_id":"4","last_reported":1739340786,"current_range_meters":39200,"station_id":"ce4bh3p2rcd13ifvqdq0","pricing_plan_id":"cebpf4jnsgd1na2vs0mg"},{"bike_id":"42f49824-5dbd-4245-b0ef-e9b83256b3c9","system_id":"levelo_inurba_marseille","lat":43.279464,"lon":5.410509,"is_reserved":false,"is_disabled":true,"rental_uris":{"android":"levelo://app?vid=42f49824-5dbd-4245-b0ef-e9b83256b3c9","ios":"levelo://app?vid=42f49824-5dbd-4245-b0ef-e9b83256b3c9"},"vehicle_type_id":"4","last_reported":1739340786,"current_range_meters":20000,"station_id":"ce4bhnp2rcd13ifvqh0g","pricing_plan_id":"cebpf4jnsgd1na2vs0mg"},{"bike_id":"5004b4eb-4e57-42dc-89c6-50e19d917c35","system_id":"levelo_inurba_marseille","lat":43.30801,"lon":5.38149,"is_reserved":false,"is_disabled":false,"rental_uris":{"android":"levelo://app?vid=5004b4eb-4e57-42dc-89c6-50e19d917c35","ios":"levelo://app?vid=5004b4eb-4e57-42dc-89c6-50e19d917c35"},"vehicle_type_id":"4","last_reported":1739340786,"current_range_meters":3200,"station_id":"ce4bgt12rcd13ifvqce0","pricing_plan_id":"cebpf4jnsgd1na2vs0mg"},{"bike_id":"36ff92ad-ebc1-4fd8-8dd7-e924b8bea389","system_id":"levelo_inurba_marseille","lat":43.30461,"lon":5.37899,"is_reserved":false,"is_disabled":true,"rental_uris":{"android":"levelo://app?vid=36ff92ad-ebc1-4fd8-8dd7-e924b8bea389","ios":"levelo://app?vid=36ff92ad-ebc1-4fd8-8dd7-e924b8bea389"},"vehicle_type_id":"4","last_reported":1739340786,"current_range_meters":19200,"station_id":"ce4bho92rcd13ifvqh3g","pricing_plan_id":"cebpf4jnsgd1na2vs0mg"},{"bike_id":"59051ceb-e601-4745-afeb-6a750b9c3c71","system_id":"levelo_inurba_marseille","lat":43.289618,"lon":5.397042,"is_reserved":false,"is_disabled":false,"rental_uris":{"android":"levelo://app?vid=59051ceb-e601-4745-afeb-6a750b9c3c71","ios":"levelo://app?vid=59051ceb-e601-4745-afeb-6a750b9c3c71"},"vehicle_type_id":"4","last_reported":1739340786,"current_range_meters":37600,"station_id":"ce4bh3h2rcd13ifvqdn0","pricing_plan_id":"cebpf4jnsgd1na2vs0mg"},{"bike_id":"c6e9e330-1aab-422c-8245-ce8d62525fd3","system_id":"levelo_inurba_marseille","lat":43.289224,"lon":5.384008,"is_reserved":false,"is_disabled":false,"rental_uris":{"android":"levelo://app?vid=c6e9e330-1aab-422c-8245-ce8d62525fd3","ios":"levelo://app?vid=c6e9e330-1aab-422c-8245-ce8d62525fd3"},"vehicle_type_id":"4","last_reported":1739340786,"current_range_meters":38400,"station_id":"ce4bh612rcd13ifvqe6g","pricing_plan_id":"cebpf4jnsgd1na2vs0mg"},{"bike_id":"84d7bb12-e4ae-4f43-9da9-f0fd5e7e3cf0","system_id":"levelo_inurba_marseille","lat":43.299768,"lon":5.38489,"is_reserved":false,"is_disabled":false,"rental_uris":{"android":"levelo://app?vid=84d7bb12-e4ae-4f43-9da9-f0fd5e7e3cf0","ios":"levelo://app?vid=84d7bb12-e4ae-4f43-9da9-f0fd5e7e3cf0"},"vehicle_type_id":"4","last_reported":1739340786,"current_range_meters":17200,"station_id":"ce4bgj92rcd13ifvqbd0","pricing_plan_id":"cebpf4jnsgd1na2vs0mg"},{"bike_id":"3fe74fa0-7e2d-4997-b43d-14f090e78b72","system_id":"levelo_inurba_marseille","lat":43.311723,"lon":5.387176,"is_reserved":false,"is_disabled":false,"rental_uris":{"android":"levelo://app?vid=3fe74fa0-7e2d-4997-b43d-14f090e78b72","ios":"levelo://app?vid=3fe74fa0-7e2d-4997-b43d-14f090e78b72"},"vehicle_type_id":"4","last_reported":1739340786,"current_range_meters":38800,"station_id":"ce4bgv12rcd13ifvqcp0","pricing_plan_id":"cebpf4jnsgd1na2vs0mg"},{"bike_id":"ec51a9f1-f61f-485d-bb7d-c6488e79e667","system_id":"levelo_inurba_marseille","lat":43.2894,"lon":5.36391,"is_reserved":false,"is_disabled":false,"rental_uris":{"android":"levelo://app?vid=ec51a9f1-f61f-485d-bb7d-c6488e79e667","ios":"levelo://app?vid=ec51a9f1-f61f-485d-bb7d-c6488e79e667"},"vehicle_type_id":"4","last_reported":1739340786,"current_range_meters":11600,"station_id":"ce4bhc92rcd13ifvqetg","pricing_plan_id":"cebpf4jnsgd1na2vs0mg"},{"bike_id":"260c9b34-4667-48ca-978a-f657f4740738","system_id":"levelo_inurba_marseille","lat":43.281531,"lon":5.426505,"is_reserved":false,"is_disabled":false,"rental_uris":{"android":"levelo://app?vid=260c9b34-4667-48ca-978a-f657f4740738","ios":"levelo://app?vid=260c9b34-4667-48ca-978a-f657f4740738"},"vehicle_type_id":"4","last_reported":1739340786,"current_range_meters":10000,"station_id":"ce4bhnh2rcd13ifvqgug","pricing_plan_id":"cebpf4jnsgd1na2vs0mg"},{"bike_id":"ddab53af-5db0-4aea-b239-596cbb71b92d","system_id":"levelo_inurba_marseille","lat":43.28716,"lon":5.39971,"is_reserved":false,"is_disabled":false,"rental_uris":{"android":"levelo://app?vid=ddab53af-5db0-4aea-b239-596cbb71b92d","ios":"levelo://app?vid=ddab53af-5db0-4aea-b239-596cbb71b92d"},"vehicle_type_id":"4","last_reported":1739340786,"current_range_meters":20000,"station_id":"ce4bho92rcd13ifvqh3g","pricing_plan_id":"cebpf4jnsgd1na2vs0mg"},{"bike_id":"30c0885a-ee3f-424b-8753-d2f0c1a6c3c4","system_id":"levelo_inurba_marseille","lat":43.3168,"lon":5.37815,"is_reserved":false,"is_disabled":false,"rental_uris":{"android":"levelo://app?vid=30c0885a-ee3f-424b-8753-d2f0c1a6c3c4","ios":"levelo://app?vid=30c0885a-ee3f-424b-8753-d2f0c1a6c3c4"},"vehicle_type_id":"4","last_reported":1739340786,"current_range_meters":38800,"station_id":"ce4bgth2rcd13ifvqch0","pricing_plan_id":"cebpf4jnsgd1na2vs0mg"},{"bike_id":"9861732d-be12-4148-a3d2-52bb547f5eef","system_id":"levelo_inurba_marseille","lat":43.31762,"lon":5.39007,"is_reserved":false,"is_disabled":false,"rental_uris":{"android":"levelo://app?vid=9861732d-be12-4148-a3d2-52bb547f5eef","ios":"levelo://app?vid=9861732d-be12-4148-a3d2-52bb547f5eef"},"vehicle_type_id":"4","last_reported":1739340786,"current_range_meters":36000,"station_id":"ce4bhqp2rcd13ifvqhng","pricing_plan_id":"cebpf4jnsgd1na2vs0mg"},{"bike_id":"c302a417-cf1e-421f-a1f9-6f52c2dcd81e","system_id":"levelo_inurba_marseille","lat":43.30657,"lon":5.37333,"is_reserved":false,"is_disabled":false,"rental_uris":{"android":"levelo://app?vid=c302a417-cf1e-421f-a1f9-6f52c2dcd81e","ios":"levelo://app?vid=c302a417-cf1e-421f-a1f9-6f52c2dcd81e"},"vehicle_type_id":"4","last_reported":1739340786,"current_range_meters":36800,"station_id":"","pricing_plan_id":"cebpf4jnsgd1na2vs0mg"},{"bike_id":"bc992cde-f8bf-4786-a4be-324661e4add3","system_id":"levelo_inurba_marseille","lat":43.28101,"lon":5.37845,"is_reserved":false,"is_disabled":false,"rental_uris":{"android":"levelo://app?vid=bc992cde-f8bf-4786-a4be-324661e4add3","ios":"levelo://app?vid=bc992cde-f8bf-4786-a4be-324661e4add3"},"vehicle_type_id":"4","last_reported":1739340786,"current_range_meters":36400,"station_id":"ce4bha12rcd13ifvqee0","pricing_plan_id":"cebpf4jnsgd1na2vs0mg"},{"bike_id":"6164e2a4-a4f3-4822-a53e-f14ecefa128d","system_id":"levelo_inurba_marseille","lat":43.24683,"lon":5.38149,"is_reserved":false,"is_disabled":false,"rental_uris":{"android":"levelo://app?vid=6164e2a4-a4f3-4822-a53e-f14ecefa128d","ios":"levelo://app?vid=6164e2a4-a4f3-4822-a53e-f14ecefa128d"},"vehicle_type_id":"4","last_reported":1739340786,"current_range_meters":9200,"station_id":"ce4bhih2rcd13ifvqfr0","pricing_plan_id":"cebpf4jnsgd1na2vs0mg"},{"bike_id":"1ec14052-2d33-4aa1-9ab8-58cc71db74d1","system_id":"levelo_inurba_marseille","lat":43.24167,"lon":5.36396,"is_reserved":false,"is_disabled":false,"rental_uris":{"android":"levelo://app?vid=1ec14052-2d33-4aa1-9ab8-58cc71db74d1","ios":"levelo://app?vid=1ec14052-2d33-4aa1-9ab8-58cc71db74d1"},"vehicle_type_id":"4","last_reported":1739340786,"current_range_meters":10800,"station_id":"cpo36qri1sfpv3e86is0","pricing_plan_id":"cebpf4jnsgd1na2vs0mg"},{"bike_id":"cc9863f8-1a05-4208-b84e-7b349cd299f2","system_id":"levelo_inurba_marseille","lat":43.26729,"lon":5.39466,"is_reserved":false,"is_disabled":false,"rental_uris":{"android":"levelo://app?vid=cc9863f8-1a05-4208-b84e-7b349cd299f2","ios":"levelo://app?vid=cc9863f8-1a05-4208-b84e-7b349cd299f2"},"vehicle_type_id":"4","last_reported":1739340786,"current_range_meters":37600,"station_id":"ce4bhh12rcd13ifvqfg0","pricing_plan_id":"cebpf4jnsgd1na2vs0mg"},{"bike_id":"b3b45130-4456-4f49-a726-9923bcb61db7","system_id":"levelo_inurba_marseille","lat":43.26933,"lon":5.38653,"is_reserved":false,"is_disabled":false,"rental_uris":{"android":"levelo://app?vid=b3b45130-4456-4f49-a726-9923bcb61db7","ios":"levelo://app?vid=b3b45130-4456-4f49-a726-9923bcb61db7"},"vehicle_type_id":"4","last_reported":1739340786,"current_range_meters":39200,"station_id":"ce4bhh92rcd13ifvqfh0","pricing_plan_id":"cebpf4jnsgd1na2vs0mg"},{"bike_id":"48ff1adf-3b7c-409e-b8e1-d9c9704f851d","system_id":"levelo_inurba_marseille","lat":43.28419,"lon":5.37496,"is_reserved":false,"is_disabled":false,"rental_uris":{"android":"levelo://app?vid=48ff1adf-3b7c-409e-b8e1-d9c9704f851d","ios":"levelo://app?vid=48ff1adf-3b7c-409e-b8e1-d9c9704f851d"},"vehicle_type_id":"4","last_reported":1739340786,"current_range_meters":15200,"station_id":"ce4bh412rcd13ifvqds0","pricing_plan_id":"cebpf4jnsgd1na2vs0mg"},{"bike_id":"a8fc6373-236b-4c06-9d3b-2a6dce076200","system_id":"levelo_inurba_marseille","lat":43.336061,"lon":5.410085,"is_reserved":false,"is_disabled":false,"rental_uris":{"android":"levelo://app?vid=a8fc6373-236b-4c06-9d3b-2a6dce076200","ios":"levelo://app?vid=a8fc6373-236b-4c06-9d3b-2a6dce076200"},"vehicle_type_id":"4","last_reported":1739340786,"current_range_meters":11600,"station_id":"ce4bhqh2rcd13ifvqhmg","pricing_plan_id":"cebpf4jnsgd1na2vs0mg"},{"bike_id":"e859d2f4-21a5-41bf-aa12-2604d8d6afc4","system_id":"levelo_inurba_marseille","lat":43.29994,"lon":5.38487,"is_reserved":false,"is_disabled":false,"rental_uris":{"android":"levelo://app?vid=e859d2f4-21a5-41bf-aa12-2604d8d6afc4","ios":"levelo://app?vid=e859d2f4-21a5-41bf-aa12-2604d8d6afc4"},"vehicle_type_id":"4","last_reported":1739340786,"current_range_meters":27600,"station_id":"ce4bgj92rcd13ifvqbd0","pricing_plan_id":"cebpf4jnsgd1na2vs0mg"},{"bike_id":"fc855d4e-cf92-48ad-b751-57eb2469a89a","system_id":"levelo_inurba_marseille","lat":43.32479,"lon":5.365665,"is_reserved":false,"is_disabled":false,"rental_uris":{"android":"levelo://app?vid=fc855d4e-cf92-48ad-b751-57eb2469a89a","ios":"levelo://app?vid=fc855d4e-cf92-48ad-b751-57eb2469a89a"},"vehicle_type_id":"4","last_reported":1739340786,"current_range_meters":38400,"station_id":"ce4bhs12rcd13ifvqhvg","pricing_plan_id":"cebpf4jnsgd1na2vs0mg"},{"bike_id":"79df8d93-a019-4f4d-ad9b-607d770a7910","system_id":"levelo_inurba_marseille","lat":43.29393,"lon":5.38886,"is_reserved":false,"is_disabled":false,"rental_uris":{"android":"levelo://app?vid=79df8d93-a019-4f4d-ad9b-607d770a7910","ios":"levelo://app?vid=79df8d93-a019-4f4d-ad9b-607d770a7910"},"vehicle_type_id":"4","last_reported":1739340786,"current_range_meters":23200,"station_id":"","pricing_plan_id":"cebpf4jnsgd1na2vs0mg"},{"bike_id":"fbb98623-bd6f-4427-9463-8f7fc3b3bd20","system_id":"levelo_inurba_marseille","lat":43.28034,"lon":5.36943,"is_reserved":false,"is_disabled":false,"rental_uris":{"android":"levelo://app?vid=fbb98623-bd6f-4427-9463-8f7fc3b3bd20","ios":"levelo://app?vid=fbb98623-bd6f-4427-9463-8f7fc3b3bd20"},"vehicle_type_id":"4","last_reported":1739340786,"current_range_meters":25600,"station_id":"ce4bha12rcd13ifvqef0","pricing_plan_id":"cebpf4jnsgd1na2vs0mg"},{"bike_id":"10a8a33b-62d6-4137-a5b2-ed208638ca88","system_id":"levelo_inurba_marseille","lat":43.29709,"lon":5.36626,"is_reserved":false,"is_disabled":false,"rental_uris":{"android":"levelo://app?vid=10a8a33b-62d6-4137-a5b2-ed208638ca88","ios":"levelo://app?vid=10a8a33b-62d6-4137-a5b2-ed208638ca88"},"vehicle_type_id":"4","last_reported":1739340786,"current_range_meters":38800,"station_id":"ce4bgn12rcd13ifvqbt0","pricing_plan_id":"cebpf4jnsgd1na2vs0mg"},{"bike_id":"ad795876-c2a2-448f-b4ea-65cb85d1df8a","system_id":"levelo_inurba_marseille","lat":43.28953,"lon":5.36617,"is_reserved":false,"is_disabled":false,"rental_uris":{"android":"levelo://app?vid=ad795876-c2a2-448f-b4ea-65cb85d1df8a","ios":"levelo://app?vid=ad795876-c2a2-448f-b4ea-65cb85d1df8a"},"vehicle_type_id":"4","last_reported":1739340786,"current_range_meters":37600,"station_id":"ce4bhap2rcd13ifvqek0","pricing_plan_id":"cebpf4jnsgd1na2vs0mg"},{"bike_id":"edf99232-73e2-43a9-8757-ece396e4e4d6","system_id":"levelo_inurba_marseille","lat":43.28948,"lon":5.36626,"is_reserved":false,"is_disabled":false,"rental_uris":{"android":"levelo://app?vid=edf99232-73e2-43a9-8757-ece396e4e4d6","ios":"levelo://app?vid=edf99232-73e2-43a9-8757-ece396e4e4d6"},"vehicle_type_id":"4","last_reported":1739340786,"current_range_meters":38000,"station_id":"ce4bhap2rcd13ifvqek0","pricing_plan_id":"cebpf4jnsgd1na2vs0mg"},{"bike_id":"29c3ac46-78a2-45ae-8d8f-cdd8abdf7857","system_id":"levelo_inurba_marseille","lat":43.284551,"lon":5.358858,"is_reserved":false,"is_disabled":false,"rental_uris":{"android":"levelo://app?vid=29c3ac46-78a2-45ae-8d8f-cdd8abdf7857","ios":"levelo://app?vid=29c3ac46-78a2-45ae-8d8f-cdd8abdf7857"},"vehicle_type_id":"4","last_reported":1739340786,"current_range_meters":38800,"station_id":"ce4bhah2rcd13ifvqei0","pricing_plan_id":"cebpf4jnsgd1na2vs0mg"},{"bike_id":"3072c860-6a06-4429-8629-72daeba313c2","system_id":"levelo_inurba_marseille","lat":43.29896,"lon":5.39694,"is_reserved":false,"is_disabled":false,"rental_uris":{"android":"levelo://app?vid=3072c860-6a06-4429-8629-72daeba313c2","ios":"levelo://app?vid=3072c860-6a06-4429-8629-72daeba313c2"},"vehicle_type_id":"4","last_reported":1739340786,"current_range_meters":38800,"station_id":"ce4bh0h2rcd13ifvqd50","pricing_plan_id":"cebpf4jnsgd1na2vs0mg"},{"bike_id":"e74edd37-0ec7-4f56-b77f-e7249fd01314","system_id":"levelo_inurba_marseille","lat":43.305406,"lon":5.365154,"is_reserved":false,"is_disabled":false,"rental_uris":{"android":"levelo://app?vid=e74edd37-0ec7-4f56-b77f-e7249fd01314","ios":"levelo://app?vid=e74edd37-0ec7-4f56-b77f-e7249fd01314"},"vehicle_type_id":"4","last_reported":1739340786,"current_range_meters":9600,"station_id":"ce4bgs12rcd13ifvqcag","pricing_plan_id":"cebpf4jnsgd1na2vs0mg"},{"bike_id":"ea825ccc-4862-4dce-aa23-071f2b90643e","system_id":"levelo_inurba_marseille","lat":43.27996,"lon":5.41667,"is_reserved":false,"is_disabled":false,"rental_uris":{"android":"levelo://app?vid=ea825ccc-4862-4dce-aa23-071f2b90643e","ios":"levelo://app?vid=ea825ccc-4862-4dce-aa23-071f2b90643e"},"vehicle_type_id":"4","last_reported":1739340786,"current_range_meters":38800,"station_id":"ce4bho12rcd13ifvqh1g","pricing_plan_id":"cebpf4jnsgd1na2vs0mg"},{"bike_id":"4594b7e8-d14d-4409-9cc2-cb9b6a731a93","system_id":"levelo_inurba_marseille","lat":43.29584,"lon":5.39943,"is_reserved":false,"is_disabled":false,"rental_uris":{"android":"levelo://app?vid=4594b7e8-d14d-4409-9cc2-cb9b6a731a93","ios":"levelo://app?vid=4594b7e8-d14d-4409-9cc2-cb9b6a731a93"},"vehicle_type_id":"4","last_reported":1739340786,"current_range_meters":27200,"station_id":"ce4bh312rcd13ifvqdj0","pricing_plan_id":"cebpf4jnsgd1na2vs0mg"},{"bike_id":"ca63d75f-d551-49cb-bec7-e060cadddd73","system_id":"levelo_inurba_marseille","lat":43.281,"lon":5.44186,"is_reserved":false,"is_disabled":false,"rental_uris":{"android":"levelo://app?vid=ca63d75f-d551-49cb-bec7-e060cadddd73","ios":"levelo://app?vid=ca63d75f-d551-49cb-bec7-e060cadddd73"},"vehicle_type_id":"4","last_reported":1739340786,"current_range_meters":11200,"station_id":"","pricing_plan_id":"cebpf4jnsgd1na2vs0mg"},{"bike_id":"f7ae9a97-641a-4598-bcd7-5d3ae922b145","system_id":"levelo_inurba_marseille","lat":43.30425,"lon":5.39744,"is_reserved":false,"is_disabled":false,"rental_uris":{"android":"levelo://app?vid=f7ae9a97-641a-4598-bcd7-5d3ae922b145","ios":"levelo://app?vid=f7ae9a97-641a-4598-bcd7-5d3ae922b145"},"vehicle_type_id":"4","last_reported":1739340786,"current_range_meters":38800,"station_id":"ce4bh092rcd13ifvqd20","pricing_plan_id":"cebpf4jnsgd1na2vs0mg"},{"bike_id":"36ec0d9a-1bf5-4c23-96f6-19f00c6c3f19","system_id":"levelo_inurba_marseille","lat":43.30931,"lon":5.40148,"is_reserved":false,"is_disabled":false,"rental_uris":{"android":"levelo://app?vid=36ec0d9a-1bf5-4c23-96f6-19f00c6c3f19","ios":"levelo://app?vid=36ec0d9a-1bf5-4c23-96f6-19f00c6c3f19"},"vehicle_type_id":"4","last_reported":1739340786,"current_range_meters":28000,"station_id":"ce4bgvp2rcd13ifvqct0","pricing_plan_id":"cebpf4jnsgd1na2vs0mg"},{"bike_id":"dd7e4e2f-f2db-4c41-9b95-8e20b6da1267","system_id":"levelo_inurba_marseille","lat":43.32479,"lon":5.36565,"is_reserved":false,"is_disabled":false,"rental_uris":{"android":"levelo://app?vid=dd7e4e2f-f2db-4c41-9b95-8e20b6da1267","ios":"levelo://app?vid=dd7e4e2f-f2db-4c41-9b95-8e20b6da1267"},"vehicle_type_id":"4","last_reported":1739340786,"current_range_meters":14000,"station_id":"ce4bhs12rcd13ifvqhvg","pricing_plan_id":"cebpf4jnsgd1na2vs0mg"},{"bike_id":"d06b3b54-dc24-493e-97db-e54b37ab5416","system_id":"levelo_inurba_marseille","lat":43.305304,"lon":5.365341,"is_reserved":false,"is_disabled":false,"rental_uris":{"android":"levelo://app?vid=d06b3b54-dc24-493e-97db-e54b37ab5416","ios":"levelo://app?vid=d06b3b54-dc24-493e-97db-e54b37ab5416"},"vehicle_type_id":"4","last_reported":1739340786,"current_range_meters":27600,"station_id":"ce4bgs12rcd13ifvqcag","pricing_plan_id":"cebpf4jnsgd1na2vs0mg"},{"bike_id":"91f8274d-f215-4cef-97ab-b8259e58eb3d","system_id":"levelo_inurba_marseille","lat":43.30423,"lon":5.39751,"is_reserved":false,"is_disabled":false,"rental_uris":{"android":"levelo://app?vid=91f8274d-f215-4cef-97ab-b8259e58eb3d","ios":"levelo://app?vid=91f8274d-f215-4cef-97ab-b8259e58eb3d"},"vehicle_type_id":"4","last_reported":1739340786,"current_range_meters":38800,"station_id":"ce4bh092rcd13ifvqd20","pricing_plan_id":"cebpf4jnsgd1na2vs0mg"},{"bike_id":"69feaf72-26cf-4f4b-a85f-35d62adee41c","system_id":"levelo_inurba_marseille","lat":43.27059,"lon":5.40256,"is_reserved":false,"is_disabled":false,"rental_uris":{"android":"levelo://app?vid=69feaf72-26cf-4f4b-a85f-35d62adee41c","ios":"levelo://app?vid=69feaf72-26cf-4f4b-a85f-35d62adee41c"},"vehicle_type_id":"4","last_reported":1739340786,"current_range_meters":25200,"station_id":"ce4bhk92rcd13ifvqgc0","pricing_plan_id":"cebpf4jnsgd1na2vs0mg"},{"bike_id":"87cd53b6-f477-4e34-8761-0df0bf0ec21b","system_id":"levelo_inurba_marseille","lat":43.312273,"lon":5.368573,"is_reserved":false,"is_disabled":false,"rental_uris":{"android":"levelo://app?vid=87cd53b6-f477-4e34-8761-0df0bf0ec21b","ios":"levelo://app?vid=87cd53b6-f477-4e34-8761-0df0bf0ec21b"},"vehicle_type_id":"4","last_reported":1739340786,"current_range_meters":36800,"station_id":"ce4bgl92rcd13ifvqbq0","pricing_plan_id":"cebpf4jnsgd1na2vs0mg"},{"bike_id":"15ee7139-10dc-4fac-a480-f569a3ba5357","system_id":"levelo_inurba_marseille","lat":43.30169,"lon":5.38088,"is_reserved":false,"is_disabled":false,"rental_uris":{"android":"levelo://app?vid=15ee7139-10dc-4fac-a480-f569a3ba5357","ios":"levelo://app?vid=15ee7139-10dc-4fac-a480-f569a3ba5357"},"vehicle_type_id":"4","last_reported":1739340786,"current_range_meters":38400,"station_id":"ce4bgjp2rcd13ifvqbh0","pricing_plan_id":"cebpf4jnsgd1na2vs0mg"},{"bike_id":"118acaa8-c377-4759-a8f9-c3303973ef34","system_id":"levelo_inurba_marseille","lat":43.29876,"lon":5.38916,"is_reserved":false,"is_disabled":false,"rental_uris":{"android":"levelo://app?vid=118acaa8-c377-4759-a8f9-c3303973ef34","ios":"levelo://app?vid=118acaa8-c377-4759-a8f9-c3303973ef34"},"vehicle_type_id":"4","last_reported":1739340786,"current_range_meters":20000,"station_id":"ce4bh392rcd13ifvqdl0","pricing_plan_id":"cebpf4jnsgd1na2vs0mg"},{"bike_id":"44860f8c-298d-457c-82f6-0ccd9b1c385a","system_id":"levelo_inurba_marseille","lat":43.30657,"lon":5.40059,"is_reserved":false,"is_disabled":false,"rental_uris":{"android":"levelo://app?vid=44860f8c-298d-457c-82f6-0ccd9b1c385a","ios":"levelo://app?vid=44860f8c-298d-457c-82f6-0ccd9b1c385a"},"vehicle_type_id":"4","last_reported":1739340786,"current_range_meters":8400,"station_id":"ce4bh112rcd13ifvqda0","pricing_plan_id":"cebpf4jnsgd1na2vs0mg"},{"bike_id":"fe13a370-c3c1-4b94-b07d-037e05cb1b29","system_id":"levelo_inurba_marseille","lat":43.310707,"lon":5.383546,"is_reserved":false,"is_disabled":false,"rental_uris":{"android":"levelo://app?vid=fe13a370-c3c1-4b94-b07d-037e05cb1b29","ios":"levelo://app?vid=fe13a370-c3c1-4b94-b07d-037e05cb1b29"},"vehicle_type_id":"4","last_reported":1739340786,"current_range_meters":38400,"station_id":"ce4bgv92rcd13ifvqcr0","pricing_plan_id":"cebpf4jnsgd1na2vs0mg"},{"bike_id":"b27654d1-08a6-46d1-bfeb-4870217845b7","system_id":"levelo_inurba_marseille","lat":43.28346,"lon":5.38113,"is_reserved":false,"is_disabled":false,"rental_uris":{"android":"levelo://app?vid=b27654d1-08a6-46d1-bfeb-4870217845b7","ios":"levelo://app?vid=b27654d1-08a6-46d1-bfeb-4870217845b7"},"vehicle_type_id":"4","last_reported":1739340786,"current_range_meters":38800,"station_id":"ce4bh412rcd13ifvqdr0","pricing_plan_id":"cebpf4jnsgd1na2vs0mg"},{"bike_id":"ceaa3ec4-806b-4000-92b4-e283e12b5282","system_id":"levelo_inurba_marseille","lat":43.24543,"lon":5.39509,"is_reserved":false,"is_disabled":false,"rental_uris":{"android":"levelo://app?vid=ceaa3ec4-806b-4000-92b4-e283e12b5282","ios":"levelo://app?vid=ceaa3ec4-806b-4000-92b4-e283e12b5282"},"vehicle_type_id":"4","last_reported":1739340786,"current_range_meters":38800,"station_id":"ce4bhlp2rcd13ifvqgjg","pricing_plan_id":"cebpf4jnsgd1na2vs0mg"},{"bike_id":"b0f70249-6360-4dc3-a83a-fd73a6b534c8","system_id":"levelo_inurba_marseille","lat":43.32154,"lon":5.38413,"is_reserved":false,"is_disabled":false,"rental_uris":{"android":"levelo://app?vid=b0f70249-6360-4dc3-a83a-fd73a6b534c8","ios":"levelo://app?vid=b0f70249-6360-4dc3-a83a-fd73a6b534c8"},"vehicle_type_id":"4","last_reported":1739340786,"current_range_meters":35200,"station_id":"","pricing_plan_id":"cebpf4jnsgd1na2vs0mg"},{"bike_id":"54ce597b-1ca1-4d62-923d-d4b29eec04b3","system_id":"levelo_inurba_marseille","lat":43.31131,"lon":5.38261,"is_reserved":false,"is_disabled":false,"rental_uris":{"android":"levelo://app?vid=54ce597b-1ca1-4d62-923d-d4b29eec04b3","ios":"levelo://app?vid=54ce597b-1ca1-4d62-923d-d4b29eec04b3"},"vehicle_type_id":"4","last_reported":1739340786,"current_range_meters":16800,"station_id":"","pricing_plan_id":"cebpf4jnsgd1na2vs0mg"},