{"last_updated":1702757238,"ttl":30,"version":"2.2","data":{"bikes":[{"bike_id":"cc3abdbc-914b-4138-bb33-5fa5c51dc825","system_id":"levelo_inurba_marseille","lat":43.313391,"lon":5.36706,"is_reserved":false,"is_disabled":false,"rental_uris":{"android":"levelo://app?vid=cc3abdbc-914b-4138-bb33-5fa5c51dc825","ios":"levelo://app?vid=cc3abdbc-914b-4138-bb33-5fa5c51dc825"},"vehicle_type_id":"4","last_reported":1702757238,"current_range_meters":18000,"station_id":"ce4bgr92rcd13ifvqc6g","pricing_plan_id":"free"},{"bike_id":"b446ea97-68c3-4b76-a3d0-a9a8c94cb963","system_id":"levelo_inurba_marseille","lat":43.313391,"lon":5.36706,"is_reserved":false,"is_disabled":false,"rental_uris":{"android":"levelo://app?vid=b446ea97-68c3-4b76-a3d0-a9a8c94cb963","ios":"levelo://app?vid=b446ea97-68c3-4b76-a3d0-a9a8c94cb963"},"vehicle_type_id":"4","last_reported":1702757238,"current_range_meters":17600,"station_id":"ce4bgr92rcd13ifvqc6g","pricing_plan_id":"free"},{"bike_id":"b5def8b8-5606-446f-aecd-fc36342b4a63","system_id":"levelo_inurba_marseille","lat":43.312239,"lon":5.368562,"is_reserved":false,"is_disabled":false,"rental_uris":{"android":"levelo://app?vid=b5def8b8-5606-446f-aecd-fc36342b4a63","ios":"levelo://app?vid=b5def8b8-5606-446f-aecd-fc36342b4a63"},"vehicle_type_id":"4","last_reported":1702757238,"current_range_meters":1200,"station_id":"ce4bgl92rcd13ifvqbq0","pricing_plan_id":"free"},{"bike_id":"1f03b538-3dd7-4492-8867-c88c798800e7","system_id":"levelo_inurba_marseille","lat":43.312239,"lon":5.368562,"is_reserved":false,"is_disabled":false,"rental_uris":{"android":"levelo://app?vid=1f03b538-3dd7-4492-8867-c88c798800e7","ios":"levelo://app?vid=1f03b538-3dd7-4492-8867-c88c798800e7"},"vehicle_type_id":"4","last_reported":1702757238,"current_range_meters":6800,"station_id":"ce4bgl92rcd13ifvqbq0","pricing_plan_id":"free"},{"bike_id":"ad46abcd-79fc-4f47-8d62-d8c0a5f09860","system_id":"levelo_inurba_marseille","lat":43.312239,"lon":5.368562,"is_reserved":false,"is_disabled":false,"rental_uris":{"android":"levelo://app?vid=ad46abcd-79fc-4f47-8d62-d8c0a5f09860","ios":"levelo://app?vid=ad46abcd-79fc-4f47-8d62-d8c0a5f09860"},"vehicle_type_id":"4","last_reported":1702757238,"current_range_meters":4000,"station_id":"ce4bgl92rcd13ifvqbq0","pricing_plan_id":"free"},{"bike_id":"aa32ebec-8eee-4e3e-8d36-9a78f02a5d21","system_id":"levelo_inurba_marseille","lat":43.312239,"lon":5.368562,"is_reserved":false,"is_disabled":false,"rental_uris":{"android":"levelo://app?vid=aa32ebec-8eee-4e3e-8d36-9a78f02a5d21","ios":"levelo://app?vid=aa32ebec-8eee-4e3e-8d36-9a78f02a5d21"},"vehicle_type_id":"4","last_reported":1702757238,"current_range_meters":18400,"station_id":"ce4bgl92rcd13ifvqbq0","pricing_plan_id":"free"},{"bike_id":"ba51453c-9c33-4e83-a727-07c748613b89","system_id":"levelo_inurba_marseille","lat":43.309076,"lon":5.368465,"is_reserved":false,"is_disabled":false,"rental_uris":{"android":"levelo://app?vid=ba51453c-9c33-4e83-a727-07c748613b89","ios":"levelo://app?vid=ba51453c-9c33-4e83-a727-07c748613b89"},"vehicle_type_id":"4","last_reported":1702757238,"current_range_meters":0,"station_id":"ce4bgn92rcd13ifvqbvg","pricing_plan_id":"free"},{"bike_id":"b8eb7ef1-12b6-40f2-b85c-0cc144df6514","system_id":"levelo_inurba_marseille","lat":43.309076,"lon":5.368465,"is_reserved":false,"is_disabled":false,"rental_uris":{"android":"levelo://app?vid=b8eb7ef1-12b6-40f2-b85c-0cc144df6514","ios":"levelo://app?vid=b8eb7ef1-12b6-40f2-b85c-0cc144df6514"},"vehicle_type_id":"4","last_reported":1702757238,"current_range_meters":4400,"station_id":"ce4bgn92rcd13ifvqbvg","pricing_plan_id":"free"},{"bike_id":"e3f496d6-13b6-4264-a6dc-d95817d286b7","system_id":"levelo_inurba_marseille","lat":43.314811,"lon":5.373103,"is_reserved":false,"is_disabled":false,"rental_uris":{"android":"levelo://app?vid=e3f496d6-13b6-4264-a6dc-d95817d286b7","ios":"levelo://app?vid=e3f496d6-13b6-4264-a6dc-d95817d286b7"},"vehicle_type_id":"4","last_reported":1702757238,"current_range_meters":10400,"station_id":"ce4bgt12rcd13ifvqcd0","pricing_plan_id":"free"},{"bike_id":"a3b4cc6b-cd88-4a2e-9d8d-d9f1bb3327fc","system_id":"levelo_inurba_marseille","lat":43.314811,"lon":5.373104,"is_reserved":false,"is_disabled":false,"rental_uris":{"android":"levelo://app?vid=a3b4cc6b-cd88-4a2e-9d8d-d9f1bb3327fc","ios":"levelo://app?vid=a3b4cc6b-cd88-4a2e-9d8d-d9f1bb3327fc"},"vehicle_type_id":"4","last_reported":1702757238,"current_range_meters":0,"station_id":"ce4bgt12rcd13ifvqcd0","pricing_plan_id":"free"},{"bike_id":"6c7489ec-e28c-4480-a91d-8a27fb9acfff","system_id":"levelo_inurba_marseille","lat":43.314811,"lon":5.373103,"is_reserved":false,"is_disabled":false,"rental_uris":{"android":"levelo://app?vid=6c7489ec-e28c-4480-a91d-8a27fb9acfff","ios":"levelo://app?vid=6c7489ec-e28c-4480-a91d-8a27fb9acfff"},"vehicle_type_id":"4","last_reported":1702757238,"current_range_meters":14000,"station_id":"ce4bgt12rcd13ifvqcd0","pricing_plan_id":"free"},{"bike_id":"3f8b821f-e430-4a35-bf14-f8b6e777ea11","system_id":"levelo_inurba_marseille","lat":43.313939,"lon":5.375306,"is_reserved":false,"is_disabled":false,"rental_uris":{"android":"levelo://app?vid=3f8b821f-e430-4a35-bf14-f8b6e777ea11","ios":"levelo://app?vid=3f8b821f-e430-4a35-bf14-f8b6e777ea11"},"vehicle_type_id":"4","last_reported":1702757238,"current_range_meters":0,"station_id":"","pricing_plan_id":"free"},{"bike_id":"955e4ab2-16e5-44e8-a986-a2f50ff96c06","system_id":"levelo_inurba_marseille","lat":43.305382,"lon":5.365389,"is_reserved":false,"is_disabled":false,"rental_uris":{"android":"levelo://app?vid=955e4ab2-16e5-44e8-a986-a2f50ff96c06","ios":"levelo://app?vid=955e4ab2-16e5-44e8-a986-a2f50ff96c06"},"vehicle_type_id":"4","last_reported":1702757238,"current_range_meters":14400,"station_id":"","pricing_plan_id":"free"},{"bike_id":"6d8ca85a-cd72-4f6c-b8c0-cab90596f0d0","system_id":"levelo_inurba_marseille","lat":43.305989,"lon":5.37225,"is_reserved":false,"is_disabled":false,"rental_uris":{"android":"levelo://app?vid=6d8ca85a-cd72-4f6c-b8c0-cab90596f0d0","ios":"levelo://app?vid=6d8ca85a-cd72-4f6c-b8c0-cab90596f0d0"},"vehicle_type_id":"4","last_reported":1702757238,"current_range_meters":14000,"station_id":"ce4bgqh2rcd13ifvqc4g","pricing_plan_id":"free"},{"bike_id":"9616949a-45ac-45be-a508-98dd80f6820a","system_id":"levelo_inurba_marseille","lat":43.31529,"lon":5.38037,"is_reserved":false,"is_disabled":false,"rental_uris":{"android":"levelo://app?vid=9616949a-45ac-45be-a508-98dd80f6820a","ios":"levelo://app?vid=9616949a-45ac-45be-a508-98dd80f6820a"},"vehicle_type_id":"4","last_reported":1702757238,"current_range_meters":800,"station_id":"ce4bhsp2rcd13ifvqi50","pricing_plan_id":"free"},{"bike_id":"28cf85cc-ff99-462e-9ac2-3c6ff89be243","system_id":"levelo_inurba_marseille","lat":43.30803,"lon":5.38156,"is_reserved":false,"is_disabled":false,"rental_uris":{"android":"levelo://app?vid=28cf85cc-ff99-462e-9ac2-3c6ff89be243","ios":"levelo://app?vid=28cf85cc-ff99-462e-9ac2-3c6ff89be243"},"vehicle_type_id":"4","last_reported":1702757238,"current_range_meters":0,"station_id":"ce4bgt12rcd13ifvqce0","pricing_plan_id":"free"},{"bike_id":"a113a412-b8af-4df5-9700-8be6b2cf8388","system_id":"levelo_inurba_marseille","lat":43.324771,"lon":5.36557,"is_reserved":false,"is_disabled":false,"rental_uris":{"android":"levelo://app?vid=a113a412-b8af-4df5-9700-8be6b2cf8388","ios":"levelo://app?vid=a113a412-b8af-4df5-9700-8be6b2cf8388"},"vehicle_type_id":"4","last_reported":1702757238,"current_range_meters":16400,"station_id":"ce4bhs12rcd13ifvqhvg","pricing_plan_id":"free"},{"bike_id":"44c8b40c-0afe-48d3-8480-d4dfd6b81af3","system_id":"levelo_inurba_marseille","lat":43.324771,"lon":5.36557,"is_reserved":false,"is_disabled":false,"rental_uris":{"android":"levelo://app?vid=44c8b40c-0afe-48d3-8480-d4dfd6b81af3","ios":"levelo://app?vid=44c8b40c-0afe-48d3-8480-d4dfd6b81af3"},"vehicle_type_id":"4","last_reported":1702757238,"current_range_meters":25600,"station_id":"ce4bhs12rcd13ifvqhvg","pricing_plan_id":"free"},{"bike_id":"dfe62985-6f65-471f-8bdb-4e96693a7937","system_id":"levelo_inurba_marseille","lat":43.324833,"lon":5.365664,"is_reserved":false,"is_disabled":false,"rental_uris":{"android":"levelo://app?vid=dfe62985-6f65-471f-8bdb-4e96693a7937","ios":"levelo://app?vid=dfe62985-6f65-471f-8bdb-4e96693a7937"},"vehicle_type_id":"4","last_reported":1702757238,"current_range_meters":16800,"station_id":"ce4bhs12rcd13ifvqhvg","pricing_plan_id":"free"},{"bike_id":"88f7ea2a-62f7-4a88-9e9d-900940b4d7e5","system_id":"levelo_inurba_marseille","lat":43.324771,"lon":5.36557,"is_reserved":false,"is_disabled":false,"rental_uris":{"android":"levelo://app?vid=88f7ea2a-62f7-4a88-9e9d-900940b4d7e5","ios":"levelo://app?vid=88f7ea2a-62f7-4a88-9e9d-900940b4d7e5"},"vehicle_type_id":"4","last_reported":1702757238,"current_range_meters":14000,"station_id":"ce4bhs12rcd13ifvqhvg","pricing_plan_id":"free"},{"bike_id":"a9f45fe2-2985-4da3-aa04-9cc2afc2e715","system_id":"levelo_inurba_marseille","lat":43.30143,"lon":5.37413,"is_reserved":false,"is_disabled":false,"rental_uris":{"android":"levelo://app?vid=a9f45fe2-2985-4da3-aa04-9cc2afc2e715","ios":"levelo://app?vid=a9f45fe2-2985-4da3-aa04-9cc2afc2e715"},"vehicle_type_id":"4","last_reported":1702757238,"current_range_meters":6000,"station_id":"ce4bgs92rcd13ifvqcc0","pricing_plan_id":"free"},{"bike_id":"311528e5-55dd-4c70-9824-356ebe6ce8af","system_id":"levelo_inurba_marseille","lat":43.301429,"lon":5.37413,"is_reserved":false,"is_disabled":false,"rental_uris":{"android":"levelo://app?vid=311528e5-55dd-4c70-9824-356ebe6ce8af","ios":"levelo://app?vid=311528e5-55dd-4c70-9824-356ebe6ce8af"},"vehicle_type_id":"4","last_reported":1702757238,"current_range_meters":10000,"station_id":"ce4bgs92rcd13ifvqcc0","pricing_plan_id":"free"},{"bike_id":"b0ffd24e-9df0-4ac0-af12-9b17518df388","system_id":"levelo_inurba_marseille","lat":43.301429,"lon":5.37413,"is_reserved":false,"is_disabled":false,"rental_uris":{"android":"levelo://app?vid=b0ffd24e-9df0-4ac0-af12-9b17518df388","ios":"levelo://app?vid=b0ffd24e-9df0-4ac0-af12-9b17518df388"},"vehicle_type_id":"4","last_reported":1702757238,"current_range_meters":0,"station_id":"ce4bgs92rcd13ifvqcc0","pricing_plan_id":"free"},{"bike_id":"2fcf6758-da44-4c88-81d6-654983e89bcf","system_id":"levelo_inurba_marseille","lat":43.301429,"lon":5.37413,"is_reserved":false,"is_disabled":false,"rental_uris":{"android":"levelo://app?vid=2fcf6758-da44-4c88-81d6-654983e89bcf","ios":"levelo://app?vid=2fcf6758-da44-4c88-81d6-654983e89bcf"},"vehicle_type_id":"4","last_reported":1702757238,"current_range_meters":14000,"station_id":"ce4bgs92rcd13ifvqcc0","pricing_plan_id":"free"},{"bike_id":"dd62cb3a-3f08-44cf-8561-0c89ff17ac35","system_id":"levelo_inurba_marseille","lat":43.31359,"lon":5.384631,"is_reserved":false,"is_disabled":false,"rental_uris":{"android":"levelo://app?vid=dd62cb3a-3f08-44cf-8561-0c89ff17ac35","ios":"levelo://app?vid=dd62cb3a-3f08-44cf-8561-0c89ff17ac35"},"vehicle_type_id":"4","last_reported":1702757238,"current_range_meters":20000,"station_id":"ce4bgt92rcd13ifvqcf0","pricing_plan_id":"free"},{"bike_id":"761ad6bc-05a2-4119-8e85-70c04e962c4f","system_id":"levelo_inurba_marseille","lat":43.313571,"lon":5.384829,"is_reserved":false,"is_disabled":false,"rental_uris":{"android":"levelo://app?vid=761ad6bc-05a2-4119-8e85-70c04e962c4f","ios":"levelo://app?vid=761ad6bc-05a2-4119-8e85-70c04e962c4f"},"vehicle_type_id":"4","last_reported":1702757238,"current_range_meters":1200,"station_id":"ce4bgt92rcd13ifvqcf0","pricing_plan_id":"free"},{"bike_id":"9e54f617-59c1-4a05-8749-d630996dcc0c","system_id":"levelo_inurba_marseille","lat":43.299724,"lon":5.371829,"is_reserved":false,"is_disabled":false,"rental_uris":{"android":"levelo://app?vid=9e54f617-59c1-4a05-8749-d630996dcc0c","ios":"levelo://app?vid=9e54f617-59c1-4a05-8749-d630996dcc0c"},"vehicle_type_id":"4","last_reported":1702757238,"current_range_meters":15200,"station_id":"ce4bgr92rcd13ifvqc7g","pricing_plan_id":"free"},{"bike_id":"c4e77394-aef9-4077-b745-e99148625344","system_id":"levelo_inurba_marseille","lat":43.32733,"lon":5.36707,"is_reserved":false,"is_disabled":false,"rental_uris":{"android":"levelo://app?vid=c4e77394-aef9-4077-b745-e99148625344","ios":"levelo://app?vid=c4e77394-aef9-4077-b745-e99148625344"},"vehicle_type_id":"4","last_reported":1702757238,"current_range_meters":21600,"station_id":"","pricing_plan_id":"free"},{"bike_id":"ce670179-7d56-40a0-9298-bb63a217e8ff","system_id":"levelo_inurba_marseille","lat":43.299243,"lon":5.37481,"is_reserved":false,"is_disabled":false,"rental_uris":{"android":"levelo://app?vid=ce670179-7d56-40a0-9298-bb63a217e8ff","ios":"levelo://app?vid=ce670179-7d56-40a0-9298-bb63a217e8ff"},"vehicle_type_id":"4","last_reported":1702757238,"current_range_meters":1200,"station_id":"ce4bgjh2rcd13ifvqbg0","pricing_plan_id":"free"},{"bike_id":"819cb438-2e9c-4e0b-902b-5e19ef554d5c","system_id":"levelo_inurba_marseille","lat":43.305453,"lon":5.384484,"is_reserved":false,"is_disabled":false,"rental_uris":{"android":"levelo://app?vid=819cb438-2e9c-4e0b-902b-5e19ef554d5c","ios":"levelo://app?vid=819cb438-2e9c-4e0b-902b-5e19ef554d5c"},"vehicle_type_id":"4","last_reported":1702757238,"current_range_meters":14800,"station_id":"ce4bgg92rcd13ifvqb30","pricing_plan_id":"free"},{"bike_id":"21c8a895-06f3-48aa-99fa-b97b4695075c","system_id":"levelo_inurba_marseille","lat":43.299243,"lon":5.37481,"is_reserved":false,"is_disabled":false,"rental_uris":{"android":"levelo://app?vid=21c8a895-06f3-48aa-99fa-b97b4695075c","ios":"levelo://app?vid=21c8a895-06f3-48aa-99fa-b97b4695075c"},"vehicle_type_id":"4","last_reported":1702757238,"current_range_meters":12000,"station_id":"ce4bgjh2rcd13ifvqbg0","pricing_plan_id":"free"},{"bike_id":"91813f54-3be9-44f0-a4ec-56c3563e3ca0","system_id":"levelo_inurba_marseille","lat":43.311722,"lon":5.387247,"is_reserved":false,"is_disabled":false,"rental_uris":{"android":"levelo://app?vid=91813f54-3be9-44f0-a4ec-56c3563e3ca0","ios":"levelo://app?vid=91813f54-3be9-44f0-a4ec-56c3563e3ca0"},"vehicle_type_id":"4","last_reported":1702757238,"current_range_meters":8400,"station_id":"ce4bgv12rcd13ifvqcp0","pricing_plan_id":"free"},{"bike_id":"08178002-36bd-43c0-89d2-cf0ba9233ce6","system_id":"levelo_inurba_marseille","lat":43.299243,"lon":5.374807,"is_reserved":false,"is_disabled":false,"rental_uris":{"android":"levelo://app?vid=08178002-36bd-43c0-89d2-cf0ba9233ce6","ios":"levelo://app?vid=08178002-36bd-43c0-89d2-cf0ba9233ce6"},"vehicle_type_id":"4","last_reported":1702757238,"current_range_meters":7600,"station_id":"ce4bgjh2rcd13ifvqbg0","pricing_plan_id":"free"},{"bike_id":"27108763-f337-4255-935a-f9673a3e91b2","system_id":"levelo_inurba_marseille","lat":43.299243,"lon":5.37481,"is_reserved":false,"is_disabled":false,"rental_uris":{"android":"levelo://app?vid=27108763-f337-4255-935a-f9673a3e91b2","ios":"levelo://app?vid=27108763-f337-4255-935a-f9673a3e91b2"},"vehicle_type_id":"4","last_reported":1702757238,"current_range_meters":2400,"station_id":"ce4bgjh2rcd13ifvqbg0","pricing_plan_id":"free"},{"bike_id":"2ce9a21d-cd41-4039-8e48-4e16315d7056","system_id":"levelo_inurba_marseille","lat":43.298433,"lon":5.362774,"is_reserved":false,"is_disabled":false,"rental_uris":{"android":"levelo://app?vid=2ce9a21d-cd41-4039-8e48-4e16315d7056","ios":"levelo://app?vid=2ce9a21d-cd41-4039-8e48-4e16315d7056"},"vehicle_type_id":"4","last_reported":1702757238,"current_range_meters":30000,"station_id":"ce4bgpp2rcd13ifvqc3g","pricing_plan_id":"free"},{"bike_id":"cda01da0-451b-47f7-b179-593aa22623bd","system_id":"levelo_inurba_marseille","lat":43.299243,"lon":5.37481,"is_reserved":false,"is_disabled":false,"rental_uris":{"android":"levelo://app?vid=cda01da0-451b-47f7-b179-593aa22623bd","ios":"levelo://app?vid=cda01da0-451b-47f7-b179-593aa22623bd"},"vehicle_type_id":"4","last_reported":1702757238,"current_range_meters":0,"station_id":"ce4bgjh2rcd13ifvqbg0","pricing_plan_id":"free"},{"bike_id":"a6a40609-fcbf-4a81-ad30-d3348257e8a2","system_id":"levelo_inurba_marseille","lat":43.29573,"lon":5.367355,"is_reserved":false,"is_disabled":false,"rental_uris":{"android":"levelo://app?vid=a6a40609-fcbf-4a81-ad30-d3348257e8a2","ios":"levelo://app?vid=a6a40609-fcbf-4a81-ad30-d3348257e8a2"},"vehicle_type_id":"4","last_reported":1702757238,"current_range_meters":29200,"station_id":"ce4bgph2rcd13ifvqc2g","pricing_plan_id":"free"},{"bike_id":"88eaad2f-8682-4d26-90e1-01d424664f2c","system_id":"levelo_inurba_marseille","lat":43.29573,"lon":5.367355,"is_reserved":false,"is_disabled":false,"rental_uris":{"android":"levelo://app?vid=88eaad2f-8682-4d26-90e1-01d424664f2c","ios":"levelo://app?vid=88eaad2f-8682-4d26-90e1-01d424664f2c"},"vehicle_type_id":"4","last_reported":1702757238,"current_range_meters":0,"station_id":"ce4bgph2rcd13ifvqc2g","pricing_plan_id":"free"},{"bike_id":"6a567fce-80ad-42f4-8448-8504b2e68a05","system_id":"levelo_inurba_marseille","lat":43.296921,"lon":5.376579,"is_reserved":false,"is_disabled":false,"rental_uris":{"android":"levelo://app?vid=6a567fce-80ad-42f4-8448-8504b2e68a05","ios":"levelo://app?vid=6a567fce-80ad-42f4-8448-8504b2e68a05"},"vehicle_type_id":"4","last_reported":1702757238,"current_range_meters":4000,"station_id":"ce4bgkh2rcd13ifvqbl0","pricing_plan_id":"free"},{"bike_id":"2e4327a4-5c68-42c9-a75e-2a5f9b2ba77b","system_id":"levelo_inurba_marseille","lat":43.317557,"lon":5.390173,"is_reserved":false,"is_disabled":false,"rental_uris":{"android":"levelo://app?vid=2e4327a4-5c68-42c9-a75e-2a5f9b2ba77b","ios":"levelo://app?vid=2e4327a4-5c68-42c9-a75e-2a5f9b2ba77b"},"vehicle_type_id":"4","last_reported":1702757238,"current_range_meters":19600,"station_id":"ce4bhqp2rcd13ifvqhng","pricing_plan_id":"free"},{"bike_id":"8b990761-3717-4b31-9e09-22c0e6f10fb8","system_id":"levelo_inurba_marseille","lat":43.317557,"lon":5.390173,"is_reserved":false,"is_disabled":false,"rental_uris":{"android":"levelo://app?vid=8b990761-3717-4b31-9e09-22c0e6f10fb8","ios":"levelo://app?vid=8b990761-3717-4b31-9e09-22c0e6f10fb8"},"vehicle_type_id":"4","last_reported":1702757238,"current_range_meters":11200,"station_id":"ce4bhqp2rcd13ifvqhng","pricing_plan_id":"free"},{"bike_id":"4fe68cb0-ef05-4f1c-919b-7a2b0e3c1f89","system_id":"levelo_inurba_marseille","lat":43.317557,"lon":5.390173,"is_reserved":false,"is_disabled":false,"rental_uris":{"android":"levelo://app?vid=4fe68cb0-ef05-4f1c-919b-7a2b0e3c1f89","ios":"levelo://app?vid=4fe68cb0-ef05-4f1c-919b-7a2b0e3c1f89"},"vehicle_type_id":"4","last_reported":1702757238,"current_range_meters":31200,"station_id":"ce4bhqp2rcd13ifvqhng","pricing_plan_id":"free"},{"bike_id":"689941d4-9baa-45a7-9a05-8f9b441b60ae","system_id":"levelo_inurba_marseille","lat":43.29794,"lon":5.38086,"is_reserved":false,"is_disabled":false,"rental_uris":{"android":"levelo://app?vid=689941d4-9baa-45a7-9a05-8f9b441b60ae","ios":"levelo://app?vid=689941d4-9baa-45a7-9a05-8f9b441b60ae"},"vehicle_type_id":"4","last_reported":1702757238,"current_range_meters":0,"station_id":"","pricing_plan_id":"free"},{"bike_id":"4298476e-ae55-4e53-87f8-c27998f77594","system_id":"levelo_inurba_marseille","lat":43.295748,"lon":5.37522,"is_reserved":false,"is_disabled":false,"rental_uris":{"android":"levelo://app?vid=4298476e-ae55-4e53-87f8-c27998f77594","ios":"levelo://app?vid=4298476e-ae55-4e53-87f8-c27998f77594"},"vehicle_type_id":"4","last_reported":1702757238,"current_range_meters":16000,"station_id":"ce4bgh92rcd13ifvqb50","pricing_plan_id":"free"},{"bike_id":"9bfcc65c-c515-4b86-be9d-090501427171","system_id":"levelo_inurba_marseille","lat":43.299724,"lon":5.384848,"is_reserved":false,"is_disabled":false,"rental_uris":{"android":"levelo://app?vid=9bfcc65c-c515-4b86-be9d-090501427171","ios":"levelo://app?vid=9bfcc65c-c515-4b86-be9d-090501427171"},"vehicle_type_id":"4","last_reported":1702757238,"current_range_meters":0,"station_id":"ce4bgj92rcd13ifvqbd0","pricing_plan_id":"free"},{"bike_id":"fabbc543-bd76-4562-a2e2-bb440e06507f","system_id":"levelo_inurba_marseille","lat":43.29945,"lon":5.385314,"is_reserved":false,"is_disabled":false,"rental_uris":{"android":"levelo://app?vid=fabbc543-bd76-4562-a2e2-bb440e06507f","ios":"levelo://app?vid=fabbc543-bd76-4562-a2e2-bb440e06507f"},"vehicle_type_id":"4","last_reported":1702757238,"current_range_meters":0,"station_id":"ce4bgj92rcd13ifvqbd0","pricing_plan_id":"free"},{"bike_id":"2d339ccb-9fe7-4132-b39e-b9bd4a932749","system_id":"levelo_inurba_marseille","lat":43.32364,"lon":5.38879,"is_reserved":false,"is_disabled":false,"rental_uris":{"android":"levelo://app?vid=2d339ccb-9fe7-4132-b39e-b9bd4a932749","ios":"levelo://app?vid=2d339ccb-9fe7-4132-b39e-b9bd4a932749"},"vehicle_type_id":"4","last_reported":1702757238,"current_range_meters":15200,"station_id":"ce4bhqp2rcd13ifvqhog","pricing_plan_id":"free"},{"bike_id":"31954c81-37ea-46a3-a087-7d824ac76191","system_id":"levelo_inurba_marseille","lat":43.32367,"lon":5.388836,"is_reserved":false,"is_disabled":false,"rental_uris":{"android":"levelo://app?vid=31954c81-37ea-46a3-a087-7d824ac76191","ios":"levelo://app?vid=31954c81-37ea-46a3-a087-7d824ac76191"},"vehicle_type_id":"4","last_reported":1702757238,"current_range_meters":5600,"station_id":"ce4bhqp2rcd13ifvqhog","pricing_plan_id":"free"},{"bike_id":"7404bbf8-9e07-4b29-b584-ec01b8ca945c","system_id":"levelo_inurba_marseille","lat":43.29601,"lon":5.381084,"is_reserved":false,"is_disabled":false,"rental_uris":{"android":"levelo://app?vid=7404bbf8-9e07-4b29-b584-ec01b8ca945c","ios":"levelo://app?vid=7404bbf8-9e07-4b29-b584-ec01b8ca945c"},"vehicle_type_id":"4","last_reported":1702757238,"current_range_meters":9200,"station_id":"ce4bgl12rcd13ifvqbo0","pricing_plan_id":"free"},{"bike_id":"ffe31f42-549c-44d3-91a7-457fbbf98df8","system_id":"levelo_inurba_marseille","lat":43.292749,"lon":5.368398,"is_reserved":false,"is_disabled":false,"rental_uris":{"android":"levelo://app?vid=ffe31f42-549c-44d3-91a7-457fbbf98df8","ios":"levelo://app?vid=ffe31f42-549c-44d3-91a7-457fbbf98df8"},"vehicle_type_id":"4","last_reported":1702757238,"current_range_meters":12000,"station_id":"ce4bhbp2rcd13ifvqesg","pricing_plan_id":"free"},{"bike_id":"c4499257-e1b4-4958-b945-6490224ab63c","system_id":"levelo_inurba_marseille","lat":43.293024,"lon":5.371629,"is_reserved":false,"is_disabled":false,"rental_uris":{"android":"levelo://app?vid=c4499257-e1b4-4958-b945-6490224ab63c","ios":"levelo://app?vid=c4499257-e1b4-4958-b945-6490224ab63c"},"vehicle_type_id":"4","last_reported":1702757238,"current_range_meters":12400,"station_id":"","pricing_plan_id":"free"},{"bike_id":"9cc37766-55b5-49b1-abc1-884a7475158e","system_id":"levelo_inurba_marseille","lat":43.293009,"lon":5.374584,"is_reserved":false,"is_disabled":false,"rental_uris":{"android":"levelo://app?vid=9cc37766-55b5-49b1-abc1-884a7475158e","ios":"levelo://app?vid=9cc37766-55b5-49b1-abc1-884a7475158e"},"vehicle_type_id":"4","last_reported":1702757238,"current_range_meters":9200,"station_id":"ce4bgi12rcd13ifvqb70","pricing_plan_id":"free"},{"bike_id":"ce0b6f16-8989-4188-8289-44b0e23fd660","system_id":"levelo_inurba_marseille","lat":43.293009,"lon":5.374584,"is_reserved":false,"is_disabled":false,"rental_uris":{"android":"levelo://app?vid=ce0b6f16-8989-4188-8289-44b0e23fd660","ios":"levelo://app?vid=ce0b6f16-8989-4188-8289-44b0e23fd660"},"vehicle_type_id":"4","last_reported":1702757238,"current_range_meters":8800,"station_id":"ce4bgi12rcd13ifvqb70","pricing_plan_id":"free"},{"bike_id":"b5287c20-c7b3-441d-a68b-4cfcb4360e6b","system_id":"levelo_inurba_marseille","lat":43.293009,"lon":5.374584,"is_reserved":false,"is_disabled":false,"rental_uris":{"android":"levelo://app?vid=b5287c20-c7b3-441d-a68b-4cfcb4360e6b","ios":"levelo://app?vid=b5287c20-c7b3-441d-a68b-4cfcb4360e6b"},"vehicle_type_id":"4","last_reported":1702757238,"current_range_meters":20800,"station_id":"ce4bgi12rcd13ifvqb70","pricing_plan_id":"free"},{"bike_id":"00cadfa8-8a9f-44dd-9fcd-28ab82fa151b","system_id":"levelo_inurba_marseille","lat":43.293009,"lon":5.374584,"is_reserved":false,"is_disabled":false,"rental_uris":{"android":"levelo://app?vid=00cadfa8-8a9f-44dd-9fcd-28ab82fa151b","ios":"levelo://app?vid=00cadfa8-8a9f-44dd-9fcd-28ab82fa151b"},"vehicle_type_id":"4","last_reported":1702757238,"current_range_meters":15600,"station_id":"ce4bgi12rcd13ifvqb70","pricing_plan_id":"free"},{"bike_id":"a284e4e1-0b6b-4e7c-9797-018d00a4adbe","system_id":"levelo_inurba_marseille","lat":43.29271,"lon":5.3763,"is_reserved":false,"is_disabled":false,"rental_uris":{"android":"levelo://app?vid=a284e4e1-0b6b-4e7c-9797-018d00a4adbe","ios":"levelo://app?vid=a284e4e1-0b6b-4e7c-9797-018d00a4adbe"},"vehicle_type_id":"4","last_reported":1702757238,"current_range_meters":18800,"station_id":"","pricing_plan_id":"free"},{"bike_id":"309c51f6-c02c-4e0f-9ad2-760d02b9271f","system_id":"levelo_inurba_marseille","lat":43.29169,"lon":5.371617,"is_reserved":false,"is_disabled":false,"rental_uris":{"android":"levelo://app?vid=309c51f6-c02c-4e0f-9ad2-760d02b9271f","ios":"levelo://app?vid=309c51f6-c02c-4e0f-9ad2-760d02b9271f"},"vehicle_type_id":"4","last_reported":1702757238,"current_range_meters":0,"station_id":"ce4bha92rcd13ifvqeh0","pricing_plan_id":"free"},{"bike_id":"511d8fab-0b94-457d-9dbf-388819972050","system_id":"levelo_inurba_marseille","lat":43.29169,"lon":5.37163,"is_reserved":false,"is_disabled":false,"rental_uris":{"android":"levelo://app?vid=511d8fab-0b94-457d-9dbf-388819972050","ios":"levelo://app?vid=511d8fab-0b94-457d-9dbf-388819972050"},"vehicle_type_id":"4","last_reported":1702757238,"current_range_meters":0,"station_id":"ce4bha92rcd13ifvqeh0","pricing_plan_id":"free"},{"bike_id":"6f24406c-63f1-4135-8271-085c92be2711","system_id":"levelo_inurba_marseille","lat":43.291994,"lon":5.357886,"is_reserved":false,"is_disabled":false,"rental_uris":{"android":"levelo://app?vid=6f24406c-63f1-4135-8271-085c92be2711","ios":"levelo://app?vid=6f24406c-63f1-4135-8271-085c92be2711"},"vehicle_type_id":"4","last_reported":1702757238,"current_range_meters":15200,"station_id":"ce4bhb12rcd13ifvqel0","pricing_plan_id":"free"},{"bike_id":"0e1fbbd3-0f6e-4fa3-9051-5e12e645ebdb","system_id":"levelo_inurba_marseille","lat":43.29193,"lon":5.35806,"is_reserved":false,"is_disabled":false,"rental_uris":{"android":"levelo://app?vid=0e1fbbd3-0f6e-4fa3-9051-5e12e645ebdb","ios":"levelo://app?vid=0e1fbbd3-0f6e-4fa3-9051-5e12e645ebdb"},"vehicle_type_id":"4","last_reported":1702757238,"current_range_meters":18800,"station_id":"ce4bhb12rcd13ifvqel0","pricing_plan_id":"free"},{"bike_id":"54521fa5-ca51-484e-8e80-a6651b78538c","system_id":"levelo_inurba_marseille","lat":43.29189,"lon":5.35802,"is_reserved":false,"is_disabled":false,"rental_uris":{"android":"levelo://app?vid=54521fa5-ca51-484e-8e80-a6651b78538c","ios":"levelo://app?vid=54521fa5-ca51-484e-8e80-a6651b78538c"},"vehicle_type_id":"4","last_reported":1702757238,"current_range_meters":0,"station_id":"ce4bhb12rcd13ifvqel0","pricing_plan_id":"free"},{"bike_id":"e46fe3e7-284e-4668-b267-4906d4ebc434","system_id":"levelo_inurba_marseille","lat":43.309038,"lon":5.396546,"is_reserved":false,"is_disabled":false,"rental_uris":{"android":"levelo://app?vid=e46fe3e7-284e-4668-b267-4906d4ebc434","ios":"levelo://app?vid=e46fe3e7-284e-4668-b267-4906d4ebc434"},"vehicle_type_id":"4","last_reported":1702757238,"current_range_meters":8000,"station_id":"ce4bh012rcd13ifvqcv0","pricing_plan_id":"free"},{"bike_id":"2c430061-2168-4119-a131-c485f2e2e597","system_id":"levelo_inurba_marseille","lat":43.29529,"lon":5.385581,"is_reserved":false,"is_disabled":false,"rental_uris":{"android":"levelo://app?vid=2c430061-2168-4119-a131-c485f2e2e597","ios":"levelo://app?vid=2c430061-2168-4119-a131-c485f2e2e597"},"vehicle_type_id":"4","last_reported":1702757238,"current_range_meters":16000,"station_id":"ce4bgih2rcd13ifvqba0","pricing_plan_id":"free"},{"bike_id":"64e200d6-a82c-4b4c-96fa-5a9ac0fafe7b","system_id":"levelo_inurba_marseille","lat":43.28942,"lon":5.36401,"is_reserved":false,"is_disabled":false,"rental_uris":{"android":"levelo://app?vid=64e200d6-a82c-4b4c-96fa-5a9ac0fafe7b","ios":"levelo://app?vid=64e200d6-a82c-4b4c-96fa-5a9ac0fafe7b"},"vehicle_type_id":"4","last_reported":1702757238,"current_range_meters":3200,"station_id":"ce4bhc92rcd13ifvqetg","pricing_plan_id":"free"},{"bike_id":"c03de9a9-a64f-4238-b642-536ff6e2c6f7","system_id":"levelo_inurba_marseille","lat":43.304274,"lon":5.397513,"is_reserved":false,"is_disabled":false,"rental_uris":{"android":"levelo://app?vid=c03de9a9-a64f-4238-b642-536ff6e2c6f7","ios":"levelo://app?vid=c03de9a9-a64f-4238-b642-536ff6e2c6f7"},"vehicle_type_id":"4","last_reported":1702757238,"current_range_meters":7600,"station_id":"ce4bh092rcd13ifvqd20","pricing_plan_id":"free"},{"bike_id":"c0cb9f0e-d425-4794-bdd1-bf133b4e731d","system_id":"levelo_inurba_marseille","lat":43.292644,"lon":5.384257,"is_reserved":false,"is_disabled":false,"rental_uris":{"android":"levelo://app?vid=c0cb9f0e-d425-4794-bdd1-bf133b4e731d","ios":"levelo://app?vid=c0cb9f0e-d425-4794-bdd1-bf133b4e731d"},"vehicle_type_id":"4","last_reported":1702757238,"current_range_meters":10800,"station_id":"ce4bh692rcd13ifvqea0","pricing_plan_id":"free"},{"bike_id":"f4c5e5ae-00f1-41f6-a9af-ca30eeb05792","system_id":"levelo_inurba_marseille","lat":43.304274,"lon":5.397513,"is_reserved":false,"is_disabled":false,"rental_uris":{"android":"levelo://app?vid=f4c5e5ae-00f1-41f6-a9af-ca30eeb05792","ios":"levelo://app?vid=f4c5e5ae-00f1-41f6-a9af-ca30eeb05792"},"vehicle_type_id":"4","last_reported":1702757238,"current_range_meters":14000,"station_id":"ce4bh092rcd13ifvqd20","pricing_plan_id":"free"},{"bike_id":"02274e67-d288-4865-b3b1-ea3adc93ab7a","system_id":"levelo_inurba_marseille","lat":43.292644,"lon":5.384257,"is_reserved":false,"is_disabled":false,"rental_uris":{"android":"levelo://app?vid=02274e67-d288-4865-b3b1-ea3adc93ab7a","ios":"levelo://app?vid=02274e67-d288-4865-b3b1-ea3adc93ab7a"},"vehicle_type_id":"4","last_reported":1702757238,"current_range_meters":3200,"station_id":"ce4bh692rcd13ifvqea0","pricing_plan_id":"free"},{"bike_id":"7869065b-ba9c-4e14-a6e0-075a72b86610","system_id":"levelo_inurba_marseille","lat":43.33043,"lon":5.38919,"is_reserved":false,"is_disabled":false,"rental_uris":{"android":"levelo://app?vid=7869065b-ba9c-4e14-a6e0-075a72b86610","ios":"levelo://app?vid=7869065b-ba9c-4e14-a6e0-075a72b86610"},"vehicle_type_id":"4","last_reported":1702757238,"current_range_meters":7200,"station_id":"ce4bhr92rcd13ifvqhrg","pricing_plan_id":"free"},{"bike_id":"0019cc72-50a3-4298-937a-c3025a814462","system_id":"levelo_inurba_marseille","lat":43.33042,"lon":5.38922,"is_reserved":false,"is_disabled":false,"rental_uris":{"android":"levelo://app?vid=0019cc72-50a3-4298-937a-c3025a814462","ios":"levelo://app?vid=0019cc72-50a3-4298-937a-c3025a814462"},"vehicle_type_id":"4","last_reported":1702757238,"current_range_meters":6400,"station_id":"ce4bhr92rcd13ifvqhrg","pricing_plan_id":"free"},{"bike_id":"15a6441b-0657-44ad-8981-1aa17e628ff2","system_id":"levelo_inurba_marseille","lat":43.29781,"lon":5.39322,"is_reserved":false,"is_disabled":false,"rental_uris":{"android":"levelo://app?vid=15a6441b-0657-44ad-8981-1aa17e628ff2","ios":"levelo://app?vid=15a6441b-0657-44ad-8981-1aa17e628ff2"},"vehicle_type_id":"4","last_reported":1702757238,"current_range_meters":400,"station_id":"chh1huq6cuj3fo74tm60","pricing_plan_id":"free"},{"bike_id":"c96215fa-bfa1-49c6-964f-4e368def558f","system_id":"levelo_inurba_marseille","lat":43.29774,"lon":5.39329,"is_reserved":false,"is_disabled":false,"rental_uris":{"android":"levelo://app?vid=c96215fa-bfa1-49c6-964f-4e368def558f","ios":"levelo://app?vid=c96215fa-bfa1-49c6-964f-4e368def558f"},"vehicle_type_id":"4","last_reported":1702757238,"current_range_meters":4800,"station_id":"chh1huq6cuj3fo74tm60","pricing_plan_id":"free"},{"bike_id":"3f7c8774-22b5-45cd-a908-8539bd306a92","system_id":"levelo_inurba_marseille","lat":43.2901,"lon":5.381269,"is_reserved":false,"is_disabled":false,"rental_uris":{"android":"levelo://app?vid=3f7c8774-22b5-45cd-a908-8539bd306a92","ios":"levelo://app?vid=3f7c8774-22b5-45cd-a908-8539bd306a92"},"vehicle_type_id":"4","last_reported":1702757238,"current_range_meters":0,"station_id":"ce4bh4p2rcd13ifvqe1g","pricing_plan_id":"free"},{"bike_id":"ee79ee7c-9c0a-4098-856e-c0e6db130c63","system_id":"levelo_inurba_marseille","lat":43.28849,"lon":5.35861,"is_reserved":false,"is_disabled":false,"rental_uris":{"android":"levelo://app?vid=ee79ee7c-9c0a-4098-856e-c0e6db130c63","ios":"levelo://app?vid=ee79ee7c-9c0a-4098-856e-c0e6db130c63"},"vehicle_type_id":"4","last_reported":1702757238,"current_range_meters":3200,"station_id":"ce4bhb12rcd13ifvqem0","pricing_plan_id":"free"},{"bike_id":"00b03398-02e4-43de-81f5-2e39f59a9974","system_id":"levelo_inurba_marseille","lat":43.3093,"lon":5.40141,"is_reserved":false,"is_disabled":false,"rental_uris":{"android":"levelo://app?vid=00b03398-02e4-43de-81f5-2e39f59a9974","ios":"levelo://app?vid=00b03398-02e4-43de-81f5-2e39f59a9974"},"vehicle_type_id":"4","last_reported":1702757238,"current_range_meters":24000,"station_id":"ce4bgvp2rcd13ifvqct0","pricing_plan_id":"free"},{"bike_id":"f0cd831c-cfb9-44c7-9487-103b6df223ca","system_id":"levelo_inurba_marseille","lat":43.337445,"lon":5.374592,"is_reserved":false,"is_disabled":false,"rental_uris":{"android":"levelo://app?vid=f0cd831c-cfb9-44c7-9487-103b6df223ca","ios":"levelo://app?vid=f0cd831c-cfb9-44c7-9487-103b6df223ca"},"vehicle_type_id":"4","last_reported":1702757238,"current_range_meters":28000,"station_id":"","pricing_plan_id":"free"},{"bike_id":"c09af213-e683-42c6-8ff6-d3ce431cb608","system_id":"levelo_inurba_marseille","lat":43.30936,"lon":5.40143,"is_reserved":false,"is_disabled":false,"rental_uris":{"android":"levelo://app?vid=c09af213-e683-42c6-8ff6-d3ce431cb608","ios":"levelo://app?vid=c09af213-e683-42c6-8ff6-d3ce431cb608"},"vehicle_type_id":"4","last_reported":1702757238,"current_range_meters":2400,"station_id":"ce4bgvp2rcd13ifvqct0","pricing_plan_id":"free"},{"bike_id":"ef80ceab-dc9f-4b6c-8f52-707d5177f481","system_id":"levelo_inurba_marseille","lat":43.33752,"lon":5.37466,"is_reserved":false,"is_disabled":false,"rental_uris":{"android":"levelo://app?vid=ef80ceab-dc9f-4b6c-8f52-707d5177f481","ios":"levelo://app?vid=ef80ceab-dc9f-4b6c-8f52-707d5177f481"},"vehicle_type_id":"4","last_reported":1702757238,"current_range_meters":27600,"station_id":"","pricing_plan_id":"free"},{"bike_id":"e6af06d4-189e-4654-9261-bca3be684dc8","system_id":"levelo_inurba_marseille","lat":43.306412,"lon":5.401035,"is_reserved":false,"is_disabled":false,"rental_uris":{"android":"levelo://app?vid=e6af06d4-189e-4654-9261-bca3be684dc8","ios":"levelo://app?vid=e6af06d4-189e-4654-9261-bca3be684dc8"},"vehicle_type_id":"4","last_reported":1702757238,"current_range_meters":18000,"station_id":"ce4bh112rcd13ifvqda0","pricing_plan_id":"free"},{"bike_id":"8695155b-2160-4e46-b056-1b515354c556","system_id":"levelo_inurba_marseille","lat":43.298681,"lon":5.397225,"is_reserved":false,"is_disabled":false,"rental_uris":{"android":"levelo://app?vid=8695155b-2160-4e46-b056-1b515354c556","ios":"levelo://app?vid=8695155b-2160-4e46-b056-1b515354c556"},"vehicle_type_id":"4","last_reported":1702757238,"current_range_meters":10800,"station_id":"ce4bh0h2rcd13ifvqd50","pricing_plan_id":"free"},{"bike_id":"778c2bcd-36ba-438d-8bf0-59b8c071f642","system_id":"levelo_inurba_marseille","lat":43.30134,"lon":5.39878,"is_reserved":false,"is_disabled":false,"rental_uris":{"android":"levelo://app?vid=778c2bcd-36ba-438d-8bf0-59b8c071f642","ios":"levelo://app?vid=778c2bcd-36ba-438d-8bf0-59b8c071f642"},"vehicle_type_id":"4","last_reported":1702757238,"current_range_meters":12000,"station_id":"ce4bh0h2rcd13ifvqd40","pricing_plan_id":"free"},{"bike_id":"0a6347a3-6aed-4591-ba89-15a27aa3668c","system_id":"levelo_inurba_marseille","lat":43.287033,"lon":5.37393,"is_reserved":false,"is_disabled":false,"rental_uris":{"android":"levelo://app?vid=0a6347a3-6aed-4591-ba89-15a27aa3668c","ios":"levelo://app?vid=0a6347a3-6aed-4591-ba89-15a27aa3668c"},"vehicle_type_id":"4","last_reported":1702757238,"current_range_meters":3600,"station_id":"ce4bh3p2rcd13ifvqdq0","pricing_plan_id":"free"},{"bike_id":"00b97157-02f8-45b3-93c2-935025046f5c","system_id":"levelo_inurba_marseille","lat":43.286593,"lon":5.363346,"is_reserved":false,"is_disabled":false,"rental_uris":{"android":"levelo://app?vid=00b97157-02f8-45b3-93c2-935025046f5c","ios":"levelo://app?vid=00b97157-02f8-45b3-93c2-935025046f5c"},"vehicle_type_id":"4","last_reported":1702757238,"current_range_meters":10800,"station_id":"ce4bhah2rcd13ifvqej0","pricing_plan_id":"free"},{"bike_id":"f6153353-8f14-430c-8916-212553c23a94","system_id":"levelo_inurba_marseille","lat":43.290345,"lon":5.38646,"is_reserved":false,"is_disabled":false,"rental_uris":{"android":"levelo://app?vid=f6153353-8f14-430c-8916-212553c23a94","ios":"levelo://app?vid=f6153353-8f14-430c-8916-212553c23a94"},"vehicle_type_id":"4","last_reported":1702757238,"current_range_meters":24400,"station_id":"ce4bh4p2rcd13ifvqe0g","pricing_plan_id":"free"},{"bike_id":"cb13dbf0-fc63-4c67-8dbb-012e03e207e8","system_id":"levelo_inurba_marseille","lat":43.290345,"lon":5.38646,"is_reserved":false,"is_disabled":false,"rental_uris":{"android":"levelo://app?vid=cb13dbf0-fc63-4c67-8dbb-012e03e207e8","ios":"levelo://app?vid=cb13dbf0-fc63-4c67-8dbb-012e03e207e8"},"vehicle_type_id":"4","last_reported":1702757238,"current_range_meters":18800,"station_id":"ce4bh4p2rcd13ifvqe0g","pricing_plan_id":"free"},{"bike_id":"99eeac8e-7741-4429-8756-3c5a64a2a4ef","system_id":"levelo_inurba_marseille","lat":43.290345,"lon":5.38646,"is_reserved":false,"is_disabled":false,"rental_uris":{"android":"levelo://app?vid=99eeac8e-7741-4429-8756-3c5a64a2a4ef","ios":"levelo://app?vid=99eeac8e-7741-4429-8756-3c5a64a2a4ef"},"vehicle_type_id":"4","last_reported":1702757238,"current_range_meters":4000,"station_id":"ce4bh4p2rcd13ifvqe0g","pricing_plan_id":"free"},{"bike_id":"c8d03b9c-e93e-4a33-bcbb-76c7f9db2f57","system_id":"levelo_inurba_marseille","lat":43.290345,"lon":5.38646,"is_reserved":false,"is_disabled":false,"rental_uris":{"android":"levelo://app?vid=c8d03b9c-e93e-4a33-bcbb-76c7f9db2f57","ios":"levelo://app?vid=c8d03b9c-e93e-4a33-bcbb-76c7f9db2f57"},"vehicle_type_id":"4","last_reported":1702757238,"current_range_meters":7200,"station_id":"ce4bh4p2rcd13ifvqe0g","pricing_plan_id":"free"},{"bike_id":"d2374ddb-c34d-4fda-86b1-554f6f50859a","system_id":"levelo_inurba_marseille","lat":43.290345,"lon":5.38646,"is_reserved":false,"is_disabled":false,"rental_uris":{"android":"levelo://app?vid=d2374ddb-c34d-4fda-86b1-554f6f50859a","ios":"levelo://app?vid=d2374ddb-c34d-4fda-86b1-554f6f50859a"},"vehicle_type_id":"4","last_reported":1702757238,"current_range_meters":24400,"station_id":"ce4bh4p2rcd13ifvqe0g","pricing_plan_id":"free"},{"bike_id":"5c8a7aaa-a85b-4f42-ad13-53fcfcdd6410","system_id":"levelo_inurba_marseille","lat":43.290225,"lon":5.38644,"is_reserved":false,"is_disabled":false,"rental_uris":{"android":"levelo://app?vid=5c8a7aaa-a85b-4f42-ad13-53fcfcdd6410","ios":"levelo://app?vid=5c8a7aaa-a85b-4f42-ad13-53fcfcdd6410"},"vehicle_type_id":"4","last_reported":1702757238,"current_range_meters":0,"station_id":"ce4bh4p2rcd13ifvqe0g","pricing_plan_id":"free"},{"bike_id":"920a2a36-453c-48fa-aab6-a4b0e10df01d","system_id":"levelo_inurba_marseille","lat":43.286039,"lon":5.370679,"is_reserved":false,"is_disabled":false,"rental_uris":{"android":"levelo://app?vid=920a2a36-453c-48fa-aab6-a4b0e10df01d","ios":"levelo://app?vid=920a2a36-453c-48fa-aab6-a4b0e10df01d"},"vehicle_type_id":"4","last_reported":1702757238,"current_range_meters":27200,"station_id":"ce4bht12rcd13ifvqi60","pricing_plan_id":"free"},{"bike_id":"2ac4b2b6-3659-48ec-862d-ee41f05d0091","system_id":"levelo_inurba_marseille","lat":43.287184,"lon":5.37937,"is_reserved":false,"is_disabled":false,"rental_uris":{"android":"levelo://app?vid=2ac4b2b6-3659-48ec-862d-ee41f05d0091","ios":"levelo://app?vid=2ac4b2b6-3659-48ec-862d-ee41f05d0091"},"vehicle_type_id":"4","last_reported":1702757238,"current_range_meters":11200,"station_id":"ce4bh9p2rcd13ifvqec0","pricing_plan_id":"free"},{"bike_id":"83e09cc9-a291-4e56-99a3-a36cb7a7072c","system_id":"levelo_inurba_marseille","lat":43.287184,"lon":5.37937,"is_reserved":false,"is_disabled":false,"rental_uris":{"android":"levelo://app?vid=83e09cc9-a291-4e56-99a3-a36cb7a7072c","ios":"levelo://app?vid=83e09cc9-a291-4e56-99a3-a36cb7a7072c"},"vehicle_type_id":"4","last_reported":1702757238,"current_range_meters":2800,"station_id":"ce4bh9p2rcd13ifvqec0","pricing_plan_id":"free"},{"bike_id":"451b6bab-0444-4e4b-b949-5e6ff1258e86","system_id":"levelo_inurba_marseille","lat":43.31686,"lon":5.40472,"is_reserved":false,"is_disabled":false,"rental_uris":{"android":"levelo://app?vid=451b6bab-0444-4e4b-b949-5e6ff1258e86","ios":"levelo://app?vid=451b6bab-0444-4e4b-b949-5e6ff1258e86"},"vehicle_type_id":"4","last_reported":1702757238,"current_range_meters":6400,"station_id":"ce4bh012rcd13ifvqd00","pricing_plan_id":"free"},{"bike_id":"0651dd5f-7899-41ac-a62e-971de9f6b389","system_id":"levelo_inurba_marseille","lat":43.29191,"lon":5.39322,"is_reserved":false,"is_disabled":false,"rental_uris":{"android":"levelo://app?vid=0651dd5f-7899-41ac-a62e-971de9f6b389","ios":"levelo://app?vid=0651dd5f-7899-41ac-a62e-971de9f6b389"},"vehicle_type_id":"4","last_reported":1702757238,"current_range_meters":0,"station_id":"ce4bh192rcd13ifvqdd0","pricing_plan_id":"free"},{"bike_id":"f242a942-61a1-4b14-92e0-1cf7b79fab3f","system_id":"levelo_inurba_marseille","lat":43.283998,"lon":5.375062,"is_reserved":false,"is_disabled":false,"rental_uris":{"android":"levelo://app?vid=f242a942-61a1-4b14-92e0-1cf7b79fab3f","ios":"levelo://app?vid=f242a942-61a1-4b14-92e0-1cf7b79fab3f"},"vehicle_type_id":"4","last_reported":1702757238,"current_range_meters":0,"station_id":"ce4bh412rcd13ifvqds0","pricing_plan_id":"free"},{"bike_id":"9c8fa921-268c-4599-8221-b18b7a92a828","system_id":"levelo_inurba_marseille","lat":43.283998,"lon":5.375062,"is_reserved":false,"is_disabled":false,"rental_uris":{"android":"levelo://app?vid=9c8fa921-268c-4599-8221-b18b7a92a828","ios":"levelo://app?vid=9c8fa921-268c-4599-8221-b18b7a92a828"},"vehicle_type_id":"4","last_reported":1702757238,"current_range_meters":23600,"station_id":"ce4bh412rcd13ifvqds0","pricing_plan_id":"free"},{"bike_id":"c57f44dc-9618-462d-a7f9-ac6c488f2527","system_id":"levelo_inurba_marseille","lat":43.295713,"lon":5.399639,"is_reserved":false,"is_disabled":false,"rental_uris":{"android":"levelo://app?vid=c57f44dc-9618-462d-a7f9-ac6c488f2527","ios":"levelo://app?vid=c57f44dc-9618-462d-a7f9-ac6c488f2527"},"vehicle_type_id":"4","last_reported":1702757238,"current_range_meters":8000,"station_id":"ce4bh312rcd13ifvqdj0","pricing_plan_id":"free"},{"bike_id":"e8476ed0-291b-4207-b97f-23b9a118aa73","system_id":"levelo_inurba_marseille","lat":43.295713,"lon":5.399639,"is_reserved":false,"is_disabled":false,"rental_uris":{"android":"levelo://app?vid=e8476ed0-291b-4207-b97f-23b9a118aa73","ios":"levelo://app?vid=e8476ed0-291b-4207-b97f-23b9a118aa73"},"vehicle_type_id":"4","last_reported":1702757238,"current_range_meters":6800,"station_id":"ce4bh312rcd13ifvqdj0","pricing_plan_id":"free"},{"bike_id":"2dfa5049-0e1b-4839-b5c3-156910a65dbd","system_id":"levelo_inurba_marseille","lat":43.33177,"lon":5.39828,"is_reserved":false,"is_disabled":false,"rental_uris":{"android":"levelo://app?vid=2dfa5049-0e1b-4839-b5c3-156910a65dbd","ios":"levelo://app?vid=2dfa5049-0e1b-4839-b5c3-156910a65dbd"},"vehicle_type_id":"4","last_reported":1702757238,"current_range_meters":7600,"station_id":"","pricing_plan_id":"free"},{"bike_id":"8bb21817-6600-4c0a-bda6-cbb1f8dc1949","system_id":"levelo_inurba_marseille","lat":43.286595,"lon":5.386795,"is_reserved":false,"is_disabled":false,"rental_uris":{"android":"levelo://app?vid=8bb21817-6600-4c0a-bda6-cbb1f8dc1949","ios":"levelo://app?vid=8bb21817-6600-4c0a-bda6-cbb1f8dc1949"},"vehicle_type_id":"4","last_reported":1702757238,"current_range_meters":19200,"station_id":"ce4bh492rcd13ifvqdug","pricing_plan_id":"free"},{"bike_id":"e21d132f-5186-4c3c-b623-c8888cfe7b64","system_id":"levelo_inurba_marseille","lat":43.319179,"lon":5.407725,"is_reserved":false,"is_disabled":false,"rental_uris":{"android":"levelo://app?vid=e21d132f-5186-4c3c-b623-c8888cfe7b64","ios":"levelo://app?vid=e21d132f-5186-4c3c-b623-c8888cfe7b64"},"vehicle_type_id":"4","last_reported":1702757238,"current_range_meters":28000,"station_id":"ce4bhq12rcd13ifvqhig","pricing_plan_id":"free"},{"bike_id":"74c5cf30-49f6-42f3-835f-9c531e7566b4","system_id":"levelo_inurba_marseille","lat":43.319179,"lon":5.407725,"is_reserved":false,"is_disabled":false,"rental_uris":{"android":"levelo://app?vid=74c5cf30-49f6-42f3-835f-9c531e7566b4","ios":"levelo://app?vid=74c5cf30-49f6-42f3-835f-9c531e7566b4"},"vehicle_type_id":"4","last_reported":1702757238,"current_range_meters":28400,"station_id":"ce4bhq12rcd13ifvqhig","pricing_plan_id":"free"},{"bike_id":"a8c4246c-8b22-44a6-af13-0443491dc2b7","system_id":"levelo_inurba_marseille","lat":43.323464,"lon":5.406297,"is_reserved":false,"is_disabled":false,"rental_uris":{"android":"levelo://app?vid=a8c4246c-8b22-44a6-af13-0443491dc2b7","ios":"levelo://app?vid=a8c4246c-8b22-44a6-af13-0443491dc2b7"},"vehicle_type_id":"4","last_reported":1702757238,"current_range_meters":9200,"station_id":"ce4bhq92rcd13ifvqhjg","pricing_plan_id":"free"},{"bike_id":"3cccad1c-7f70-4571-a4d1-80a646560df5","system_id":"levelo_inurba_marseille","lat":43.2837,"lon":5.386283,"is_reserved":false,"is_disabled":false,"rental_uris":{"android":"levelo://app?vid=3cccad1c-7f70-4571-a4d1-80a646560df5","ios":"levelo://app?vid=3cccad1c-7f70-4571-a4d1-80a646560df5"},"vehicle_type_id":"4","last_reported":1702757238,"current_range_meters":6400,"station_id":"ce4bh492rcd13ifvqdvg","pricing_plan_id":"free"},{"bike_id":"a7fb6422-9e7c-4abc-a63e-732d7ca66506","system_id":"levelo_inurba_marseille","lat":43.282754,"lon":5.350519,"is_reserved":false,"is_disabled":false,"rental_uris":{"android":"levelo://app?vid=a7fb6422-9e7c-4abc-a63e-732d7ca66506","ios":"levelo://app?vid=a7fb6422-9e7c-4abc-a63e-732d7ca66506"},"vehicle_type_id":"4","last_reported":1702757238,"current_range_meters":5200,"station_id":"ce4bhbp2rcd13ifvqerg","pricing_plan_id":"free"},{"bike_id":"efb473ef-e94e-4f42-807c-90b4ed9e5373","system_id":"levelo_inurba_marseille","lat":43.282754,"lon":5.350519,"is_reserved":false,"is_disabled":false,"rental_uris":{"android":"levelo://app?vid=efb473ef-e94e-4f42-807c-90b4ed9e5373","ios":"levelo://app?vid=efb473ef-e94e-4f42-807c-90b4ed9e5373"},"vehicle_type_id":"4","last_reported":1702757238,"current_range_meters":11200,"station_id":"ce4bhbp2rcd13ifvqerg","pricing_plan_id":"free"},{"bike_id":"6aa0b3ec-4795-4b4a-a368-2907ce21686b","system_id":"levelo_inurba_marseille","lat":43.280382,"lon":5.369291,"is_reserved":false,"is_disabled":false,"rental_uris":{"android":"levelo://app?vid=6aa0b3ec-4795-4b4a-a368-2907ce21686b","ios":"levelo://app?vid=6aa0b3ec-4795-4b4a-a368-2907ce21686b"},"vehicle_type_id":"4","last_reported":1702757238,"current_range_meters":5600,"station_id":"ce4bha12rcd13ifvqef0","pricing_plan_id":"free"},{"bike_id":"9b5c1629-2fa4-494a-9185-69df038f9043","system_id":"levelo_inurba_marseille","lat":43.280382,"lon":5.369291,"is_reserved":false,"is_disabled":false,"rental_uris":{"android":"levelo://app?vid=9b5c1629-2fa4-494a-9185-69df038f9043","ios":"levelo://app?vid=9b5c1629-2fa4-494a-9185-69df038f9043"},"vehicle_type_id":"4","last_reported":1702757238,"current_range_meters":7600,"station_id":"ce4bha12rcd13ifvqef0","pricing_plan_id":"free"},{"bike_id":"cc41ff2b-f5f0-4406-9181-4ed8087eaf55","system_id":"levelo_inurba_marseille","lat":43.284475,"lon":5.391962,"is_reserved":false,"is_disabled":false,"rental_uris":{"android":"levelo://app?vid=cc41ff2b-f5f0-4406-9181-4ed8087eaf55","ios":"levelo://app?vid=cc41ff2b-f5f0-4406-9181-4ed8087eaf55"},"vehicle_type_id":"4","last_reported":1702757238,"current_range_meters":0,"station_id":"ce4bhoh2rcd13ifvqh5g","pricing_plan_id":"free"},{"bike_id":"182b8ee0-30ee-48b6-b736-9b3caa1b1d1c","system_id":"levelo_inurba_marseille","lat":43.284462,"lon":5.392121,"is_reserved":false,"is_disabled":false,"rental_uris":{"android":"levelo://app?vid=182b8ee0-30ee-48b6-b736-9b3caa1b1d1c","ios":"levelo://app?vid=182b8ee0-30ee-48b6-b736-9b3caa1b1d1c"},"vehicle_type_id":"4","last_reported":1702757238,"current_range_meters":12000,"station_id":"ce4bhoh2rcd13ifvqh5g","pricing_plan_id":"free"},{"bike_id":"8fb63668-ff69-4d51-84d6-5fbb318bec16","system_id":"levelo_inurba_marseille","lat":43.284462,"lon":5.392121,"is_reserved":false,"is_disabled":false,"rental_uris":{"android":"levelo://app?vid=8fb63668-ff69-4d51-84d6-5fbb318bec16","ios":"levelo://app?vid=8fb63668-ff69-4d51-84d6-5fbb318bec16"},"vehicle_type_id":"4","last_reported":1702757238,"current_range_meters":31200,"station_id":"ce4bhoh2rcd13ifvqh5g","pricing_plan_id":"free"},{"bike_id":"74b52c15-4480-43c6-a067-186556153de1","system_id":"levelo_inurba_marseille","lat":43.285742,"lon":5.395004,"is_reserved":false,"is_disabled":false,"rental_uris":{"android":"levelo://app?vid=74b52c15-4480-43c6-a067-186556153de1","ios":"levelo://app?vid=74b52c15-4480-43c6-a067-186556153de1"},"vehicle_type_id":"4","last_reported":1702757238,"current_range_meters":31200,"station_id":"ce4bh292rcd13ifvqdg0","pricing_plan_id":"free"},{"bike_id":"855f32d5-2a27-4b36-857f-9d1bb5dfcebd","system_id":"levelo_inurba_marseille","lat":43.28573,"lon":5.394992,"is_reserved":false,"is_disabled":false,"rental_uris":{"android":"levelo://app?vid=855f32d5-2a27-4b36-857f-9d1bb5dfcebd","ios":"levelo://app?vid=855f32d5-2a27-4b36-857f-9d1bb5dfcebd"},"vehicle_type_id":"4","last_reported":1702757238,"current_range_meters":18000,"station_id":"ce4bh292rcd13ifvqdg0","pricing_plan_id":"free"},{"bike_id":"ac05eec3-6dd4-4e50-ab24-45f354a74562","system_id":"levelo_inurba_marseille","lat":43.326605,"lon":5.409903,"is_reserved":false,"is_disabled":false,"rental_uris":{"android":"levelo://app?vid=ac05eec3-6dd4-4e50-ab24-45f354a74562","ios":"levelo://app?vid=ac05eec3-6dd4-4e50-ab24-45f354a74562"},"vehicle_type_id":"4","last_reported":1702757238,"current_range_meters":28000,"station_id":"ce4bhpp2rcd13ifvqhgg","pricing_plan_id":"free"},{"bike_id":"b0c41b6f-d450-44c8-a10d-476ec0080f6a","system_id":"levelo_inurba_marseille","lat":43.304188,"lon":5.412904,"is_reserved":false,"is_disabled":false,"rental_uris":{"android":"levelo://app?vid=b0c41b6f-d450-44c8-a10d-476ec0080f6a","ios":"levelo://app?vid=b0c41b6f-d450-44c8-a10d-476ec0080f6a"},"vehicle_type_id":"4","last_reported":1702757238,"current_range_meters":10400,"station_id":"ce4bhop2rcd13ifvqh8g","pricing_plan_id":"free"},{"bike_id":"8c53da4c-26d5-41a3-ad4d-884692197f05","system_id":"levelo_inurba_marseille","lat":43.279087,"lon":5.380114,"is_reserved":false,"is_disabled":false,"rental_uris":{"android":"levelo://app?vid=8c53da4c-26d5-41a3-ad4d-884692197f05","ios":"levelo://app?vid=8c53da4c-26d5-41a3-ad4d-884692197f05"},"vehicle_type_id":"4","last_reported":1702757238,"current_range_meters":6000,"station_id":"ce4bhf92rcd13ifvqf50","pricing_plan_id":"free"},{"bike_id":"52b3070a-f8dc-4ce0-bb0f-cd5abfd8243a","system_id":"levelo_inurba_marseille","lat":43.320045,"lon":5.415048,"is_reserved":false,"is_disabled":false,"rental_uris":{"android":"levelo://app?vid=52b3070a-f8dc-4ce0-bb0f-cd5abfd8243a","ios":"levelo://app?vid=52b3070a-f8dc-4ce0-bb0f-cd5abfd8243a"},"vehicle_type_id":"4","last_reported":1702757238,"current_range_meters":28400,"station_id":"ce4bhq92rcd13ifvqhkg","pricing_plan_id":"free"},{"bike_id":"b20b997c-e71c-4908-ab85-2e82e1ac7d9c","system_id":"levelo_inurba_marseille","lat":43.299579,"lon":5.413255,"is_reserved":false,"is_disabled":false,"rental_uris":{"android":"levelo://app?vid=b20b997c-e71c-4908-ab85-2e82e1ac7d9c","ios":"levelo://app?vid=b20b997c-e71c-4908-ab85-2e82e1ac7d9c"},"vehicle_type_id":"4","last_reported":1702757238,"current_range_meters":25200,"station_id":"ce4bhp12rcd13ifvqh9g","pricing_plan_id":"free"},{"bike_id":"3762a536-dff4-4153-bec4-07c97465e326","system_id":"levelo_inurba_marseille","lat":43.279742,"lon":5.38744,"is_reserved":false,"is_disabled":false,"rental_uris":{"android":"levelo://app?vid=3762a536-dff4-4153-bec4-07c97465e326","ios":"levelo://app?vid=3762a536-dff4-4153-bec4-07c97465e326"},"vehicle_type_id":"4","last_reported":1702757238,"current_range_meters":26000,"station_id":"ce4bhg12rcd13ifvqf80","pricing_plan_id":"free"},{"bike_id":"afe69227-7a3c-48cd-ad3c-a17e4e74446c","system_id":"levelo_inurba_marseille","lat":43.320045,"lon":5.415048,"is_reserved":false,"is_disabled":false,"rental_uris":{"android":"levelo://app?vid=afe69227-7a3c-48cd-ad3c-a17e4e74446c","ios":"levelo://app?vid=afe69227-7a3c-48cd-ad3c-a17e4e74446c"},"vehicle_type_id":"4","last_reported":1702757238,"current_range_meters":11600,"station_id":"ce4bhq92rcd13ifvqhkg","pricing_plan_id":"free"},{"bike_id":"ba9daae8-d1bc-4bfa-81e3-85053a34791c","system_id":"levelo_inurba_marseille","lat":43.292569,"lon":5.409107,"is_reserved":false,"is_disabled":false,"rental_uris":{"android":"levelo://app?vid=ba9daae8-d1bc-4bfa-81e3-85053a34791c","ios":"levelo://app?vid=ba9daae8-d1bc-4bfa-81e3-85053a34791c"},"vehicle_type_id":"4","last_reported":1702757238,"current_range_meters":24400,"station_id":"ce4bh192rcd13ifvqdc0","pricing_plan_id":"free"},{"bike_id":"3ce965d1-e55d-4149-97d8-bc280e6391d6","system_id":"levelo_inurba_marseille","lat":43.27618,"lon":5.361009,"is_reserved":false,"is_disabled":false,"rental_uris":{"android":"levelo://app?vid=3ce965d1-e55d-4149-97d8-bc280e6391d6","ios":"levelo://app?vid=3ce965d1-e55d-4149-97d8-bc280e6391d6"},"vehicle_type_id":"4","last_reported":1702757238,"current_range_meters":17600,"station_id":"ce4bgj92rcd13ifvqbe0","pricing_plan_id":"free"},{"bike_id":"6babc2d3-8fc5-4e91-874f-efec5f87211f","system_id":"levelo_inurba_marseille","lat":43.27618,"lon":5.361009,"is_reserved":false,"is_disabled":false,"rental_uris":{"android":"levelo://app?vid=6babc2d3-8fc5-4e91-874f-efec5f87211f","ios":"levelo://app?vid=6babc2d3-8fc5-4e91-874f-efec5f87211f"},"vehicle_type_id":"4","last_reported":1702757238,"current_range_meters":0,"station_id":"ce4bgj92rcd13ifvqbe0","pricing_plan_id":"free"},{"bike_id":"f0639ed8-aab3-4499-901f-27b823c57390","system_id":"levelo_inurba_marseille","lat":43.27618,"lon":5.361009,"is_reserved":false,"is_disabled":false,"rental_uris":{"android":"levelo://app?vid=f0639ed8-aab3-4499-901f-27b823c57390","ios":"levelo://app?vid=f0639ed8-aab3-4499-901f-27b823c57390"},"vehicle_type_id":"4","last_reported":1702757238,"current_range_meters":0,"station_id":"ce4bgj92rcd13ifvqbe0","pricing_plan_id":"free"},{"bike_id":"7905dc6e-b2af-44e7-9f04-d54f13a39370","system_id":"levelo_inurba_marseille","lat":43.276179,"lon":5.361009,"is_reserved":false,"is_disabled":false,"rental_uris":{"android":"levelo://app?vid=7905dc6e-b2af-44e7-9f04-d54f13a39370","ios":"levelo://app?vid=7905dc6e-b2af-44e7-9f04-d54f13a39370"},"vehicle_type_id":"4","last_reported":1702757238,"current_range_meters":0,"station_id":"ce4bgj92rcd13ifvqbe0","pricing_plan_id":"free"},{"bike_id":"e7fcdeca-090d-491e-a8ea-4f6571be908d","system_id":"levelo_inurba_marseille","lat":43.280784,"lon":5.396622,"is_reserved":false,"is_disabled":false,"rental_uris":{"android":"levelo://app?vid=e7fcdeca-090d-491e-a8ea-4f6571be908d","ios":"levelo://app?vid=e7fcdeca-090d-491e-a8ea-4f6571be908d"},"vehicle_type_id":"4","last_reported":1702757238,"current_range_meters":25600,"station_id":"ce4bho12rcd13ifvqh2g","pricing_plan_id":"free"},{"bike_id":"13e02cb6-2e16-4c2c-9aca-b50d5f86bd74","system_id":"levelo_inurba_marseille","lat":43.27555,"lon":5.38423,"is_reserved":false,"is_disabled":false,"rental_uris":{"android":"levelo://app?vid=13e02cb6-2e16-4c2c-9aca-b50d5f86bd74","ios":"levelo://app?vid=13e02cb6-2e16-4c2c-9aca-b50d5f86bd74"},"vehicle_type_id":"4","last_reported":1702757238,"current_range_meters":24000,"station_id":"ce4bhh92rcd13ifvqfi0","pricing_plan_id":"free"},{"bike_id":"ea3d35f6-b07e-4308-ae51-5376e9d8e7cc","system_id":"levelo_inurba_marseille","lat":43.273494,"lon":5.364539,"is_reserved":false,"is_disabled":false,"rental_uris":{"android":"levelo://app?vid=ea3d35f6-b07e-4308-ae51-5376e9d8e7cc","ios":"levelo://app?vid=ea3d35f6-b07e-4308-ae51-5376e9d8e7cc"},"vehicle_type_id":"4","last_reported":1702757238,"current_range_meters":15200,"station_id":"","pricing_plan_id":"free"},{"bike_id":"6c6620ff-814e-4bac-9245-0bec887d2c5d","system_id":"levelo_inurba_marseille","lat":43.2755,"lon":5.38436,"is_reserved":false,"is_disabled":false,"rental_uris":{"android":"levelo://app?vid=6c6620ff-814e-4bac-9245-0bec887d2c5d","ios":"levelo://app?vid=6c6620ff-814e-4bac-9245-0bec887d2c5d"},"vehicle_type_id":"4","last_reported":1702757238,"current_range_meters":12800,"station_id":"ce4bhh92rcd13ifvqfi0","pricing_plan_id":"free"},{"bike_id":"12fe1f05-318a-4237-b44e-c7521e9a0831","system_id":"levelo_inurba_marseille","lat":43.279975,"lon":5.40009,"is_reserved":false,"is_disabled":false,"rental_uris":{"android":"levelo://app?vid=12fe1f05-318a-4237-b44e-c7521e9a0831","ios":"levelo://app?vid=12fe1f05-318a-4237-b44e-c7521e9a0831"},"vehicle_type_id":"4","last_reported":1702757238,"current_range_meters":28000,"station_id":"ce4bho92rcd13ifvqh4g","pricing_plan_id":"free"},{"bike_id":"ffae5481-5783-46ea-a981-12244fe52640","system_id":"levelo_inurba_marseille","lat":43.310785,"lon":5.424305,"is_reserved":false,"is_disabled":false,"rental_uris":{"android":"levelo://app?vid=ffae5481-5783-46ea-a981-12244fe52640","ios":"levelo://app?vid=ffae5481-5783-46ea-a981-12244fe52640"},"vehicle_type_id":"4","last_reported":1702757238,"current_range_meters":25200,"station_id":"ce4bhp92rcd13ifvqhag","pricing_plan_id":"free"},{"bike_id":"87cc8c4f-8ecf-420c-bac2-ed05f14f8c04","system_id":"levelo_inurba_marseille","lat":43.2761,"lon":5.39493,"is_reserved":false,"is_disabled":false,"rental_uris":{"android":"levelo://app?vid=87cc8c4f-8ecf-420c-bac2-ed05f14f8c04","ios":"levelo://app?vid=87cc8c4f-8ecf-420c-bac2-ed05f14f8c04"},"vehicle_type_id":"4","last_reported":1702757238,"current_range_meters":14800,"station_id":"","pricing_plan_id":"free"},{"bike_id":"3ca2c2d2-99b0-4aa6-a05d-e30f02e6a7fb","system_id":"levelo_inurba_marseille","lat":43.276092,"lon":5.395289,"is_reserved":false,"is_disabled":false,"rental_uris":{"android":"levelo://app?vid=3ca2c2d2-99b0-4aa6-a05d-e30f02e6a7fb","ios":"levelo://app?vid=3ca2c2d2-99b0-4aa6-a05d-e30f02e6a7fb"},"vehicle_type_id":"4","last_reported":1702757238,"current_range_meters":21200,"station_id":"","pricing_plan_id":"free"},{"bike_id":"6da64086-a15b-433f-8697-130099719fa3","system_id":"levelo_inurba_marseille","lat":43.274099,"lon":5.394019,"is_reserved":false,"is_disabled":false,"rental_uris":{"android":"levelo://app?vid=6da64086-a15b-433f-8697-130099719fa3","ios":"levelo://app?vid=6da64086-a15b-433f-8697-130099719fa3"},"vehicle_type_id":"4","last_reported":1702757238,"current_range_meters":8800,"station_id":"ce4bhdp2rcd13ifvqf20","pricing_plan_id":"free"},{"bike_id":"7c5e5a9a-9f39-4a14-9573-d5b8ab599dd5","system_id":"levelo_inurba_marseille","lat":43.27191,"lon":5.392298,"is_reserved":false,"is_disabled":false,"rental_uris":{"android":"levelo://app?vid=7c5e5a9a-9f39-4a14-9573-d5b8ab599dd5","ios":"levelo://app?vid=7c5e5a9a-9f39-4a14-9573-d5b8ab599dd5"},"vehicle_type_id":"4","last_reported":1702757238,"current_range_meters":17600,"station_id":"ce4bhhp2rcd13ifvqfm0","pricing_plan_id":"free"},{"bike_id":"ae5c92c7-d961-4538-b923-190ac473bbcd","system_id":"levelo_inurba_marseille","lat":43.278128,"lon":5.407195,"is_reserved":false,"is_disabled":false,"rental_uris":{"android":"levelo://app?vid=ae5c92c7-d961-4538-b923-190ac473bbcd","ios":"levelo://app?vid=ae5c92c7-d961-4538-b923-190ac473bbcd"},"vehicle_type_id":"4","last_reported":1702757238,"current_range_meters":10800,"station_id":"ce4bhnh2rcd13ifvqgtg","pricing_plan_id":"free"},{"bike_id":"88428d0c-37a1-4b74-9a91-c0ca76de4b38","system_id":"levelo_inurba_marseille","lat":43.269467,"lon":5.386439,"is_reserved":false,"is_disabled":false,"rental_uris":{"android":"levelo://app?vid=88428d0c-37a1-4b74-9a91-c0ca76de4b38","ios":"levelo://app?vid=88428d0c-37a1-4b74-9a91-c0ca76de4b38"},"vehicle_type_id":"4","last_reported":1702757238,"current_range_meters":16800,"station_id":"ce4bhh92rcd13ifvqfh0","pricing_plan_id":"free"},{"bike_id":"bb9fb611-a9a7-41a5-ab77-8f48e43869d4","system_id":"levelo_inurba_marseille","lat":43.269467,"lon":5.386439,"is_reserved":false,"is_disabled":false,"rental_uris":{"android":"levelo://app?vid=bb9fb611-a9a7-41a5-ab77-8f48e43869d4","ios":"levelo://app?vid=bb9fb611-a9a7-41a5-ab77-8f48e43869d4"},"vehicle_type_id":"4","last_reported":1702757238,"current_range_meters":12800,"station_id":"ce4bhh92rcd13ifvqfh0","pricing_plan_id":"free"},{"bike_id":"830395c7-d30f-49e5-9053-f5cc920eb1d8","system_id":"levelo_inurba_marseille","lat":43.279465,"lon":5.410561,"is_reserved":false,"is_disabled":false,"rental_uris":{"android":"levelo://app?vid=830395c7-d30f-49e5-9053-f5cc920eb1d8","ios":"levelo://app?vid=830395c7-d30f-49e5-9053-f5cc920eb1d8"},"vehicle_type_id":"4","last_reported":1702757238,"current_range_meters":400,"station_id":"ce4bhnp2rcd13ifvqh0g","pricing_plan_id":"free"},{"bike_id":"a17fc9fe-7174-423a-8aaa-16bad2bf985b","system_id":"levelo_inurba_marseille","lat":43.27945,"lon":5.41043,"is_reserved":false,"is_disabled":false,"rental_uris":{"android":"levelo://app?vid=a17fc9fe-7174-423a-8aaa-16bad2bf985b","ios":"levelo://app?vid=a17fc9fe-7174-423a-8aaa-16bad2bf985b"},"vehicle_type_id":"4","last_reported":1702757238,"current_range_meters":14800,"station_id":"ce4bhnp2rcd13ifvqh0g","pricing_plan_id":"free"},{"bike_id":"0dc51663-3148-4d86-9da8-3daef286ed56","system_id":"levelo_inurba_marseille","lat":43.269319,"lon":5.389397,"is_reserved":false,"is_disabled":false,"rental_uris":{"android":"levelo://app?vid=0dc51663-3148-4d86-9da8-3daef286ed56","ios":"levelo://app?vid=0dc51663-3148-4d86-9da8-3daef286ed56"},"vehicle_type_id":"4","last_reported":1702757238,"current_range_meters":25600,"station_id":"ce4bhhh2rcd13ifvqfl0","pricing_plan_id":"free"},{"bike_id":"db774753-4382-453e-a138-c32d538f9839","system_id":"levelo_inurba_marseille","lat":43.35867,"lon":5.35674,"is_reserved":false,"is_disabled":false,"rental_uris":{"android":"levelo://app?vid=db774753-4382-453e-a138-c32d538f9839","ios":"levelo://app?vid=db774753-4382-453e-a138-c32d538f9839"},"vehicle_type_id":"4","last_reported":1702757238,"current_range_meters":8800,"station_id":"","pricing_plan_id":"free"},{"bike_id":"3ec397f0-b8da-4e84-be43-f4abb20ebecf","system_id":"levelo_inurba_marseille","lat":43.27996,"lon":5.416624,"is_reserved":false,"is_disabled":false,"rental_uris":{"android":"levelo://app?vid=3ec397f0-b8da-4e84-be43-f4abb20ebecf","ios":"levelo://app?vid=3ec397f0-b8da-4e84-be43-f4abb20ebecf"},"vehicle_type_id":"4","last_reported":1702757238,"current_range_meters":4800,"station_id":"ce4bho12rcd13ifvqh1g","pricing_plan_id":"free"},{"bike_id":"8a74afc9-c8ee-428c-95f4-83fc1e519239","system_id":"levelo_inurba_marseille","lat":43.2799,"lon":5.41655,"is_reserved":false,"is_disabled":false,"rental_uris":{"android":"levelo://app?vid=8a74afc9-c8ee-428c-95f4-83fc1e519239","ios":"levelo://app?vid=8a74afc9-c8ee-428c-95f4-83fc1e519239"},"vehicle_type_id":"4","last_reported":1702757238,"current_range_meters":2400,"station_id":"ce4bho12rcd13ifvqh1g","pricing_plan_id":"free"},{"bike_id":"4315e947-7b95-4df7-96a4-ec5ce18dae92","system_id":"levelo_inurba_marseille","lat":43.267966,"lon":5.393976,"is_reserved":false,"is_disabled":false,"rental_uris":{"android":"levelo://app?vid=4315e947-7b95-4df7-96a4-ec5ce18dae92","ios":"levelo://app?vid=4315e947-7b95-4df7-96a4-ec5ce18dae92"},"vehicle_type_id":"4","last_reported":1702757238,"current_range_meters":15600,"station_id":"ce4bhh12rcd13ifvqfg0","pricing_plan_id":"free"},{"bike_id":"8bc7dca1-161a-4698-a7cf-1382dacd0f63","system_id":"levelo_inurba_marseille","lat":43.26563,"lon":5.39006,"is_reserved":false,"is_disabled":false,"rental_uris":{"android":"levelo://app?vid=8bc7dca1-161a-4698-a7cf-1382dacd0f63","ios":"levelo://app?vid=8bc7dca1-161a-4698-a7cf-1382dacd0f63"},"vehicle_type_id":"4","last_reported":1702757238,"current_range_meters":0,"station_id":"ce4bhe12rcd13ifvqf30","pricing_plan_id":"free"},{"bike_id":"e3bf1503-a1c1-40ae-98a0-98e61bc117ba","system_id":"levelo_inurba_marseille","lat":43.26949,"lon":5.40262,"is_reserved":false,"is_disabled":false,"rental_uris":{"android":"levelo://app?vid=e3bf1503-a1c1-40ae-98a0-98e61bc117ba","ios":"levelo://app?vid=e3bf1503-a1c1-40ae-98a0-98e61bc117ba"},"vehicle_type_id":"4","last_reported":1702757238,"current_range_meters":30000,"station_id":"cjm6bp8fraef2m0cb0m0","pricing_plan_id":"free"},{"bike_id":"6bca7f14-330c-412a-9432-6438f3451c27","system_id":"levelo_inurba_marseille","lat":43.317104,"lon":5.436818,"is_reserved":false,"is_disabled":false,"rental_uris":{"android":"levelo://app?vid=6bca7f14-330c-412a-9432-6438f3451c27","ios":"levelo://app?vid=6bca7f14-330c-412a-9432-6438f3451c27"},"vehicle_type_id":"4","last_reported":1702757238,"current_range_meters":19600,"station_id":"ce4bhp92rcd13ifvqhcg","pricing_plan_id":"free"},{"bike_id":"e9ceb9d1-3b7d-4adc-ad74-6784cba9f0aa","system_id":"levelo_inurba_marseille","lat":43.261782,"lon":5.374515,"is_reserved":false,"is_disabled":false,"rental_uris":{"android":"levelo://app?vid=e9ceb9d1-3b7d-4adc-ad74-6784cba9f0aa","ios":"levelo://app?vid=e9ceb9d1-3b7d-4adc-ad74-6784cba9f0aa"},"vehicle_type_id":"4","last_reported":1702757238,"current_range_meters":23600,"station_id":"ce4bhgp2rcd13ifvqfc0","pricing_plan_id":"free"},{"bike_id":"9b148fe7-0ffd-4931-8c29-6e6064af2347","system_id":"levelo_inurba_marseille","lat":43.317104,"lon":5.436818,"is_reserved":false,"is_disabled":false,"rental_uris":{"android":"levelo://app?vid=9b148fe7-0ffd-4931-8c29-6e6064af2347","ios":"levelo://app?vid=9b148fe7-0ffd-4931-8c29-6e6064af2347"},"vehicle_type_id":"4","last_reported":1702757238,"current_range_meters":18000,"station_id":"ce4bhp92rcd13ifvqhcg","pricing_plan_id":"free"},{"bike_id":"cd508d17-ee53-4f00-89f2-1854417d27a3","system_id":"levelo_inurba_marseille","lat":43.317104,"lon":5.436818,"is_reserved":false,"is_disabled":false,"rental_uris":{"android":"levelo://app?vid=cd508d17-ee53-4f00-89f2-1854417d27a3","ios":"levelo://app?vid=cd508d17-ee53-4f00-89f2-1854417d27a3"},"vehicle_type_id":"4","last_reported":1702757238,"current_range_meters":400,"station_id":"ce4bhp92rcd13ifvqhcg","pricing_plan_id":"free"},{"bike_id":"1178483c-0d1a-47b4-85ee-c550971cda20","system_id":"levelo_inurba_marseille","lat":43.317104,"lon":5.436818,"is_reserved":false,"is_disabled":false,"rental_uris":{"android":"levelo://app?vid=1178483c-0d1a-47b4-85ee-c550971cda20","ios":"levelo://app?vid=1178483c-0d1a-47b4-85ee-c550971cda20"},"vehicle_type_id":"4","last_reported":1702757238,"current_range_meters":23600,"station_id":"ce4bhp92rcd13ifvqhcg","pricing_plan_id":"free"},{"bike_id":"e3b9938b-39a5-4cb2-b320-b7d79eecd272","system_id":"levelo_inurba_marseille","lat":43.27172,"lon":5.40989,"is_reserved":false,"is_disabled":false,"rental_uris":{"android":"levelo://app?vid=e3b9938b-39a5-4cb2-b320-b7d79eecd272","ios":"levelo://app?vid=e3b9938b-39a5-4cb2-b320-b7d79eecd272"},"vehicle_type_id":"4","last_reported":1702757238,"current_range_meters":5600,"station_id":"ce4bhl12rcd13ifvqgf0","pricing_plan_id":"free"},{"bike_id":"760a757a-5fb8-4958-b892-d33306a07f6b","system_id":"levelo_inurba_marseille","lat":43.271388,"lon":5.409269,"is_reserved":false,"is_disabled":false,"rental_uris":{"android":"levelo://app?vid=760a757a-5fb8-4958-b892-d33306a07f6b","ios":"levelo://app?vid=760a757a-5fb8-4958-b892-d33306a07f6b"},"vehicle_type_id":"4","last_reported":1702757238,"current_range_meters":14800,"station_id":"ce4bhl12rcd13ifvqgf0","pricing_plan_id":"free"},{"bike_id":"fe1ec802-ae5b-406d-a6e5-80d478223c7d","system_id":"levelo_inurba_marseille","lat":43.27174,"lon":5.40994,"is_reserved":false,"is_disabled":false,"rental_uris":{"android":"levelo://app?vid=fe1ec802-ae5b-406d-a6e5-80d478223c7d","ios":"levelo://app?vid=fe1ec802-ae5b-406d-a6e5-80d478223c7d"},"vehicle_type_id":"4","last_reported":1702757238,"current_range_meters":18800,"station_id":"ce4bhl12rcd13ifvqgf0","pricing_plan_id":"free"},{"bike_id":"23548543-36f6-4965-81bf-9f36ee9d1298","system_id":"levelo_inurba_marseille","lat":43.267959,"lon":5.402687,"is_reserved":false,"is_disabled":false,"rental_uris":{"android":"levelo://app?vid=23548543-36f6-4965-81bf-9f36ee9d1298","ios":"levelo://app?vid=23548543-36f6-4965-81bf-9f36ee9d1298"},"vehicle_type_id":"4","last_reported":1702757238,"current_range_meters":24400,"station_id":"ce501612rcd8frsf0b60","pricing_plan_id":"free"},{"bike_id":"8edd52e8-28cf-4b63-b3f1-27d9aaf14520","system_id":"levelo_inurba_marseille","lat":43.264988,"lon":5.395391,"is_reserved":false,"is_disabled":false,"rental_uris":{"android":"levelo://app?vid=8edd52e8-28cf-4b63-b3f1-27d9aaf14520","ios":"levelo://app?vid=8edd52e8-28cf-4b63-b3f1-27d9aaf14520"},"vehicle_type_id":"4","last_reported":1702757238,"current_range_meters":800,"station_id":"","pricing_plan_id":"free"},{"bike_id":"d084d587-4b27-4e47-8734-14f6d302ab83","system_id":"levelo_inurba_marseille","lat":43.298768,"lon":5.43643,"is_reserved":false,"is_disabled":false,"rental_uris":{"android":"levelo://app?vid=d084d587-4b27-4e47-8734-14f6d302ab83","ios":"levelo://app?vid=d084d587-4b27-4e47-8734-14f6d302ab83"},"vehicle_type_id":"4","last_reported":1702757238,"current_range_meters":30000,"station_id":"ce4bhpp2rcd13ifvqhfg","pricing_plan_id":"free"},{"bike_id":"4dd764f6-774c-4512-8b0e-1beb34d8f863","system_id":"levelo_inurba_marseille","lat":43.281548,"lon":5.42643,"is_reserved":false,"is_disabled":false,"rental_uris":{"android":"levelo://app?vid=4dd764f6-774c-4512-8b0e-1beb34d8f863","ios":"levelo://app?vid=4dd764f6-774c-4512-8b0e-1beb34d8f863"},"vehicle_type_id":"4","last_reported":1702757238,"current_range_meters":14800,"station_id":"ce4bhnh2rcd13ifvqgug","pricing_plan_id":"free"},{"bike_id":"05e9a8db-94f6-45d6-92f2-2fefe3fabef8","system_id":"levelo_inurba_marseille","lat":43.281548,"lon":5.42643,"is_reserved":false,"is_disabled":false,"rental_uris":{"android":"levelo://app?vid=05e9a8db-94f6-45d6-92f2-2fefe3fabef8","ios":"levelo://app?vid=05e9a8db-94f6-45d6-92f2-2fefe3fabef8"},"vehicle_type_id":"4","last_reported":1702757238,"current_range_meters":24800,"station_id":"ce4bhnh2rcd13ifvqgug","pricing_plan_id":"free"},{"bike_id":"c6022e0d-d429-4a21-9eb9-10d07b3888ba","system_id":"levelo_inurba_marseille","lat":43.281548,"lon":5.42643,"is_reserved":false,"is_disabled":false,"rental_uris":{"android":"levelo://app?vid=c6022e0d-d429-4a21-9eb9-10d07b3888ba","ios":"levelo://app?vid=c6022e0d-d429-4a21-9eb9-10d07b3888ba"},"vehicle_type_id":"4","last_reported":1702757238,"current_range_meters":6000,"station_id":"ce4bhnh2rcd13ifvqgug","pricing_plan_id":"free"},{"bike_id":"eb72cf00-5b74-4aac-948c-e470339f3e4d","system_id":"levelo_inurba_marseille","lat":43.2607,"lon":5.393983,"is_reserved":false,"is_disabled":false,"rental_uris":{"android":"levelo://app?vid=eb72cf00-5b74-4aac-948c-e470339f3e4d","ios":"levelo://app?vid=eb72cf00-5b74-4aac-948c-e470339f3e4d"},"vehicle_type_id":"4","last_reported":1702757238,"current_range_meters":7200,"station_id":"ce4bhh92rcd13ifvqfj0","pricing_plan_id":"free"},{"bike_id":"db9d9aee-b6eb-44e3-9707-f193d311c7b0","system_id":"levelo_inurba_marseille","lat":43.2607,"lon":5.393983,"is_reserved":false,"is_disabled":false,"rental_uris":{"android":"levelo://app?vid=db9d9aee-b6eb-44e3-9707-f193d311c7b0","ios":"levelo://app?vid=db9d9aee-b6eb-44e3-9707-f193d311c7b0"},"vehicle_type_id":"4","last_reported":1702757238,"current_range_meters":16800,"station_id":"ce4bhh92rcd13ifvqfj0","pricing_plan_id":"free"},{"bike_id":"e67adb0b-4217-4b03-8657-2f9486792d7e","system_id":"levelo_inurba_marseille","lat":43.2607,"lon":5.393983,"is_reserved":false,"is_disabled":false,"rental_uris":{"android":"levelo://app?vid=e67adb0b-4217-4b03-8657-2f9486792d7e","ios":"levelo://app?vid=e67adb0b-4217-4b03-8657-2f9486792d7e"},"vehicle_type_id":"4","last_reported":1702757238,"current_range_meters":28800,"station_id":"ce4bhh92rcd13ifvqfj0","pricing_plan_id":"free"},{"bike_id":"6dbc8f93-6570-4633-897a-2b2a5f2a4aac","system_id":"levelo_inurba_marseille","lat":43.25826,"lon":5.39426,"is_reserved":false,"is_disabled":false,"rental_uris":{"android":"levelo://app?vid=6dbc8f93-6570-4633-897a-2b2a5f2a4aac","ios":"levelo://app?vid=6dbc8f93-6570-4633-897a-2b2a5f2a4aac"},"vehicle_type_id":"4","last_reported":1702757238,"current_range_meters":29200,"station_id":"ce4bhip2rcd13ifvqft0","pricing_plan_id":"free"},{"bike_id":"2b7cab0a-463b-4d1b-8ca7-f6f8d1e91967","system_id":"levelo_inurba_marseille","lat":43.258205,"lon":5.394369,"is_reserved":false,"is_disabled":false,"rental_uris":{"android":"levelo://app?vid=2b7cab0a-463b-4d1b-8ca7-f6f8d1e91967","ios":"levelo://app?vid=2b7cab0a-463b-4d1b-8ca7-f6f8d1e91967"},"vehicle_type_id":"4","last_reported":1702757238,"current_range_meters":17200,"station_id":"ce4bhip2rcd13ifvqft0","pricing_plan_id":"free"},{"bike_id":"82704199-e513-4e8c-9ddf-23c05d8262e3","system_id":"levelo_inurba_marseille","lat":43.25575,"lon":5.38228,"is_reserved":false,"is_disabled":false,"rental_uris":{"android":"levelo://app?vid=82704199-e513-4e8c-9ddf-23c05d8262e3","ios":"levelo://app?vid=82704199-e513-4e8c-9ddf-23c05d8262e3"},"vehicle_type_id":"4","last_reported":1702757238,"current_range_meters":6400,"station_id":"ce4bhih2rcd13ifvqfs0","pricing_plan_id":"free"},{"bike_id":"481dac0c-14a3-4594-b910-54e8fdc2ad6b","system_id":"levelo_inurba_marseille","lat":43.25491,"lon":5.37646,"is_reserved":false,"is_disabled":false,"rental_uris":{"android":"levelo://app?vid=481dac0c-14a3-4594-b910-54e8fdc2ad6b","ios":"levelo://app?vid=481dac0c-14a3-4594-b910-54e8fdc2ad6b"},"vehicle_type_id":"4","last_reported":1702757238,"current_range_meters":1200,"station_id":"ce4bhh12rcd13ifvqff0","pricing_plan_id":"free"},{"bike_id":"306e2c26-1ee8-4490-a80b-640eb04b74f0","system_id":"levelo_inurba_marseille","lat":43.270721,"lon":5.422764,"is_reserved":false,"is_disabled":false,"rental_uris":{"android":"levelo://app?vid=306e2c26-1ee8-4490-a80b-640eb04b74f0","ios":"levelo://app?vid=306e2c26-1ee8-4490-a80b-640eb04b74f0"},"vehicle_type_id":"4","last_reported":1702757238,"current_range_meters":22800,"station_id":"ce4bhk92rcd13ifvqgb0","pricing_plan_id":"free"},{"bike_id":"b056d56f-1a89-4623-b447-8344cbc1e796","system_id":"levelo_inurba_marseille","lat":43.258658,"lon":5.398935,"is_reserved":false,"is_disabled":false,"rental_uris":{"android":"levelo://app?vid=b056d56f-1a89-4623-b447-8344cbc1e796","ios":"levelo://app?vid=b056d56f-1a89-4623-b447-8344cbc1e796"},"vehicle_type_id":"4","last_reported":1702757238,"current_range_meters":15600,"station_id":"ce4bhl92rcd13ifvqghg","pricing_plan_id":"free"},{"bike_id":"9d894f5d-b2c4-48c0-a759-6ebef56aa7f9","system_id":"levelo_inurba_marseille","lat":43.257079,"lon":5.411051,"is_reserved":false,"is_disabled":false,"rental_uris":{"android":"levelo://app?vid=9d894f5d-b2c4-48c0-a759-6ebef56aa7f9","ios":"levelo://app?vid=9d894f5d-b2c4-48c0-a759-6ebef56aa7f9"},"vehicle_type_id":"4","last_reported":1702757238,"current_range_meters":16400,"station_id":"ce4bhkp2rcd13ifvqgd0","pricing_plan_id":"free"},{"bike_id":"448471ab-9356-485e-81ba-dceb5359d400","system_id":"levelo_inurba_marseille","lat":43.250009,"lon":5.389195,"is_reserved":false,"is_disabled":false,"rental_uris":{"android":"levelo://app?vid=448471ab-9356-485e-81ba-dceb5359d400","ios":"levelo://app?vid=448471ab-9356-485e-81ba-dceb5359d400"},"vehicle_type_id":"4","last_reported":1702757238,"current_range_meters":28400,"station_id":"ce4bhgp2rcd13ifvqfd0","pricing_plan_id":"free"},{"bike_id":"73dc0c23-1508-4216-add5-c7f8b361ab42","system_id":"levelo_inurba_marseille","lat":43.250023,"lon":5.38919,"is_reserved":false,"is_disabled":false,"rental_uris":{"android":"levelo://app?vid=73dc0c23-1508-4216-add5-c7f8b361ab42","ios":"levelo://app?vid=73dc0c23-1508-4216-add5-c7f8b361ab42"},"vehicle_type_id":"4","last_reported":1702757238,"current_range_meters":29600,"station_id":"ce4bhgp2rcd13ifvqfd0","pricing_plan_id":"free"},{"bike_id":"e0014b79-ba92-4000-8ace-b19001e260a7","system_id":"levelo_inurba_marseille","lat":43.2479,"lon":5.374457,"is_reserved":false,"is_disabled":false,"rental_uris":{"android":"levelo://app?vid=e0014b79-ba92-4000-8ace-b19001e260a7","ios":"levelo://app?vid=e0014b79-ba92-4000-8ace-b19001e260a7"},"vehicle_type_id":"4","last_reported":1702757238,"current_range_meters":3600,"station_id":"ce4bhgh2rcd13ifvqfb0","pricing_plan_id":"free"},{"bike_id":"3e2ec57e-15cb-4ced-9dd8-8ff57dfb141a","system_id":"levelo_inurba_marseille","lat":43.2479,"lon":5.374457,"is_reserved":false,"is_disabled":false,"rental_uris":{"android":"levelo://app?vid=3e2ec57e-15cb-4ced-9dd8-8ff57dfb141a","ios":"levelo://app?vid=3e2ec57e-15cb-4ced-9dd8-8ff57dfb141a"},"vehicle_type_id":"4","last_reported":1702757238,"current_range_meters":14800,"station_id":"ce4bhgh2rcd13ifvqfb0","pricing_plan_id":"free"},{"bike_id":"b17d28f6-fb9f-46be-8872-2057b0f340cb","system_id":"levelo_inurba_marseille","lat":43.24693,"lon":5.382096,"is_reserved":false,"is_disabled":false,"rental_uris":{"android":"levelo://app?vid=b17d28f6-fb9f-46be-8872-2057b0f340cb","ios":"levelo://app?vid=b17d28f6-fb9f-46be-8872-2057b0f340cb"},"vehicle_type_id":"4","last_reported":1702757238,"current_range_meters":24000,"station_id":"ce4bhih2rcd13ifvqfr0","pricing_plan_id":"free"},{"bike_id":"cda151f2-9ad2-46c9-9115-b73ba9a06619","system_id":"levelo_inurba_marseille","lat":43.25221,"lon":5.4064,"is_reserved":false,"is_disabled":false,"rental_uris":{"android":"levelo://app?vid=cda151f2-9ad2-46c9-9115-b73ba9a06619","ios":"levelo://app?vid=cda151f2-9ad2-46c9-9115-b73ba9a06619"},"vehicle_type_id":"4","last_reported":1702757238,"current_range_meters":2800,"station_id":"","pricing_plan_id":"free"},{"bike_id":"ac3ae90b-a8df-45fb-893e-31e581feae7e","system_id":"levelo_inurba_marseille","lat":43.24693,"lon":5.382096,"is_reserved":false,"is_disabled":false,"rental_uris":{"android":"levelo://app?vid=ac3ae90b-a8df-45fb-893e-31e581feae7e","ios":"levelo://app?vid=ac3ae90b-a8df-45fb-893e-31e581feae7e"},"vehicle_type_id":"4","last_reported":1702757238,"current_range_meters":20400,"station_id":"ce4bhih2rcd13ifvqfr0","pricing_plan_id":"free"},{"bike_id":"30e4f356-be62-4d6f-bb40-a262ac34c3ad","system_id":"levelo_inurba_marseille","lat":43.25102,"lon":5.403214,"is_reserved":false,"is_disabled":false,"rental_uris":{"android":"levelo://app?vid=30e4f356-be62-4d6f-bb40-a262ac34c3ad","ios":"levelo://app?vid=30e4f356-be62-4d6f-bb40-a262ac34c3ad"},"vehicle_type_id":"4","last_reported":1702757238,"current_range_meters":17600,"station_id":"ce4bhlh2rcd13ifvqgig","pricing_plan_id":"free"},{"bike_id":"ce8603f2-613d-4a49-b48e-937ea74704c0","system_id":"levelo_inurba_marseille","lat":43.2511,"lon":5.40321,"is_reserved":false,"is_disabled":false,"rental_uris":{"android":"levelo://app?vid=ce8603f2-613d-4a49-b48e-937ea74704c0","ios":"levelo://app?vid=ce8603f2-613d-4a49-b48e-937ea74704c0"},"vehicle_type_id":"4","last_reported":1702757238,"current_range_meters":1200,"station_id":"ce4bhlh2rcd13ifvqgig","pricing_plan_id":"free"},{"bike_id":"3626885e-e4a8-4b95-b95d-d8c15eee3c9b","system_id":"levelo_inurba_marseille","lat":43.2511,"lon":5.40323,"is_reserved":false,"is_disabled":false,"rental_uris":{"android":"levelo://app?vid=3626885e-e4a8-4b95-b95d-d8c15eee3c9b","ios":"levelo://app?vid=3626885e-e4a8-4b95-b95d-d8c15eee3c9b"},"vehicle_type_id":"4","last_reported":1702757238,"current_range_meters":4800,"station_id":"ce4bhlh2rcd13ifvqgig","pricing_plan_id":"free"},{"bike_id":"b35e49f7-2d7c-42c5-bdb1-1b9bc960b21b","system_id":"levelo_inurba_marseille","lat":43.24391,"lon":5.37069,"is_reserved":false,"is_disabled":false,"rental_uris":{"android":"levelo://app?vid=b35e49f7-2d7c-42c5-bdb1-1b9bc960b21b","ios":"levelo://app?vid=b35e49f7-2d7c-42c5-bdb1-1b9bc960b21b"},"vehicle_type_id":"4","last_reported":1702757238,"current_range_meters":0,"station_id":"ce4bhhh2rcd13ifvqfk0","pricing_plan_id":"free"},{"bike_id":"7d19f7da-698d-4d06-b5b8-bf679cb6f10c","system_id":"levelo_inurba_marseille","lat":43.245581,"lon":5.395069,"is_reserved":false,"is_disabled":false,"rental_uris":{"android":"levelo://app?vid=7d19f7da-698d-4d06-b5b8-bf679cb6f10c","ios":"levelo://app?vid=7d19f7da-698d-4d06-b5b8-bf679cb6f10c"},"vehicle_type_id":"4","last_reported":1702757238,"current_range_meters":10800,"station_id":"ce4bhlp2rcd13ifvqgjg","pricing_plan_id":"free"},{"bike_id":"caa721a2-073f-495d-bf48-33ef9a0dea81","system_id":"levelo_inurba_marseille","lat":43.245581,"lon":5.395069,"is_reserved":false,"is_disabled":false,"rental_uris":{"android":"levelo://app?vid=caa721a2-073f-495d-bf48-33ef9a0dea81","ios":"levelo://app?vid=caa721a2-073f-495d-bf48-33ef9a0dea81"},"vehicle_type_id":"4","last_reported":1702757238,"current_range_meters":5600,"station_id":"ce4bhlp2rcd13ifvqgjg","pricing_plan_id":"free"},{"bike_id":"2913b0e3-c44c-49f1-ba84-d9d46d3f68b0","system_id":"levelo_inurba_marseille","lat":43.24869,"lon":5.41,"is_reserved":false,"is_disabled":false,"rental_uris":{"android":"levelo://app?vid=2913b0e3-c44c-49f1-ba84-d9d46d3f68b0","ios":"levelo://app?vid=2913b0e3-c44c-49f1-ba84-d9d46d3f68b0"},"vehicle_type_id":"4","last_reported":1702757238,"current_range_meters":18000,"station_id":"","pricing_plan_id":"free"},{"bike_id":"ee83fd25-65b9-414e-935b-7e3d2531a0b9","system_id":"levelo_inurba_marseille","lat":43.241338,"lon":5.370274,"is_reserved":false,"is_disabled":false,"rental_uris":{"android":"levelo://app?vid=ee83fd25-65b9-414e-935b-7e3d2531a0b9","ios":"levelo://app?vid=ee83fd25-65b9-414e-935b-7e3d2531a0b9"},"vehicle_type_id":"4","last_reported":1702757238,"current_range_meters":400,"station_id":"","pricing_plan_id":"free"},{"bike_id":"2733402d-b8e7-464b-9f5b-f218e46416f2","system_id":"levelo_inurba_marseille","lat":43.241782,"lon":5.397261,"is_reserved":false,"is_disabled":false,"rental_uris":{"android":"levelo://app?vid=2733402d-b8e7-464b-9f5b-f218e46416f2","ios":"levelo://app?vid=2733402d-b8e7-464b-9f5b-f218e46416f2"},"vehicle_type_id":"4","last_reported":1702757238,"current_range_meters":400,"station_id":"ce4bhn12rcd13ifvqgpg","pricing_plan_id":"free"},{"bike_id":"760219ab-0887-48ce-b49e-5a40cc3afc6e","system_id":"levelo_inurba_marseille","lat":43.23196,"lon":5.35547,"is_reserved":false,"is_disabled":false,"rental_uris":{"android":"levelo://app?vid=760219ab-0887-48ce-b49e-5a40cc3afc6e","ios":"levelo://app?vid=760219ab-0887-48ce-b49e-5a40cc3afc6e"},"vehicle_type_id":"4","last_reported":1702757238,"current_range_meters":21200,"station_id":"ce4bhu92rcd13ifvqi70","pricing_plan_id":"free"},{"bike_id":"d3de5ca6-d559-43d0-8ed6-c46c756ed81c","system_id":"levelo_inurba_marseille","lat":43.23196,"lon":5.35544,"is_reserved":false,"is_disabled":false,"rental_uris":{"android":"levelo://app?vid=d3de5ca6-d559-43d0-8ed6-c46c756ed81c","ios":"levelo://app?vid=d3de5ca6-d559-43d0-8ed6-c46c756ed81c"},"vehicle_type_id":"4","last_reported":1702757238,"current_range_meters":1600,"station_id":"ce4bhu92rcd13ifvqi70","pricing_plan_id":"free"},{"bike_id":"90458881-97e2-4d19-a7dd-597c18dc1844","system_id":"levelo_inurba_marseille","lat":43.23195,"lon":5.35555,"is_reserved":false,"is_disabled":false,"rental_uris":{"android":"levelo://app?vid=90458881-97e2-4d19-a7dd-597c18dc1844","ios":"levelo://app?vid=90458881-97e2-4d19-a7dd-597c18dc1844"},"vehicle_type_id":"4","last_reported":1702757238,"current_range_meters":21600,"station_id":"ce4bhu92rcd13ifvqi70","pricing_plan_id":"free"},{"bike_id":"0914bc04-89c8-46f4-bf04-78aea5230869","system_id":"levelo_inurba_marseille","lat":43.23194,"lon":5.35549,"is_reserved":false,"is_disabled":false,"rental_uris":{"android":"levelo://app?vid=0914bc04-89c8-46f4-bf04-78aea5230869","ios":"levelo://app?vid=0914bc04-89c8-46f4-bf04-78aea5230869"},"vehicle_type_id":"4","last_reported":1702757238,"current_range_meters":29200,"station_id":"ce4bhu92rcd13ifvqi70","pricing_plan_id":"free"},{"bike_id":"c0509687-6622-44dd-a042-9b19ef27d0ea","system_id":"levelo_inurba_marseille","lat":43.231934,"lon":5.355554,"is_reserved":false,"is_disabled":false,"rental_uris":{"android":"levelo://app?vid=c0509687-6622-44dd-a042-9b19ef27d0ea","ios":"levelo://app?vid=c0509687-6622-44dd-a042-9b19ef27d0ea"},"vehicle_type_id":"4","last_reported":1702757238,"current_range_meters":30800,"station_id":"ce4bhu92rcd13ifvqi70","pricing_plan_id":"free"},{"bike_id":"c58c2105-152a-4be3-96b7-ef7d8114d5d4","system_id":"levelo_inurba_marseille","lat":43.23192,"lon":5.35554,"is_reserved":false,"is_disabled":false,"rental_uris":{"android":"levelo://app?vid=c58c2105-152a-4be3-96b7-ef7d8114d5d4","ios":"levelo://app?vid=c58c2105-152a-4be3-96b7-ef7d8114d5d4"},"vehicle_type_id":"4","last_reported":1702757238,"current_range_meters":16400,"station_id":"ce4bhu92rcd13ifvqi70","pricing_plan_id":"free"},{"bike_id":"9b13ea6e-561a-4716-a516-c5aead357a46","system_id":"levelo_inurba_marseille","lat":43.23191,"lon":5.35549,"is_reserved":false,"is_disabled":false,"rental_uris":{"android":"levelo://app?vid=9b13ea6e-561a-4716-a516-c5aead357a46","ios":"levelo://app?vid=9b13ea6e-561a-4716-a516-c5aead357a46"},"vehicle_type_id":"4","last_reported":1702757238,"current_range_meters":20400,"station_id":"ce4bhu92rcd13ifvqi70","pricing_plan_id":"free"},{"bike_id":"be641546-dcea-4309-ad5a-32c7507f146a","system_id":"levelo_inurba_marseille","lat":43.2319,"lon":5.35553,"is_reserved":false,"is_disabled":false,"rental_uris":{"android":"levelo://app?vid=be641546-dcea-4309-ad5a-32c7507f146a","ios":"levelo://app?vid=be641546-dcea-4309-ad5a-32c7507f146a"},"vehicle_type_id":"4","last_reported":1702757238,"current_range_meters":13600,"station_id":"ce4bhu92rcd13ifvqi70","pricing_plan_id":"free"},{"bike_id":"8bde1f20-3114-431c-b2df-22d6e7b7655a","system_id":"levelo_inurba_marseille","lat":43.2319,"lon":5.355509,"is_reserved":false,"is_disabled":false,"rental_uris":{"android":"levelo://app?vid=8bde1f20-3114-431c-b2df-22d6e7b7655a","ios":"levelo://app?vid=8bde1f20-3114-431c-b2df-22d6e7b7655a"},"vehicle_type_id":"4","last_reported":1702757238,"current_range_meters":8800,"station_id":"ce4bhu92rcd13ifvqi70","pricing_plan_id":"free"},{"bike_id":"e4f94050-aae1-4821-b78a-030e7070af2a","system_id":"levelo_inurba_marseille","lat":43.231875,"lon":5.355522,"is_reserved":false,"is_disabled":false,"rental_uris":{"android":"levelo://app?vid=e4f94050-aae1-4821-b78a-030e7070af2a","ios":"levelo://app?vid=e4f94050-aae1-4821-b78a-030e7070af2a"},"vehicle_type_id":"4","last_reported":1702757238,"current_range_meters":19200,"station_id":"ce4bhu92rcd13ifvqi70","pricing_plan_id":"free"}]}}