{"last_updated":1731449325,"ttl":60,"version":"2.2","data":{"bikes":[{"bike_id":"aa05ff5a-02ec-4030-a810-a7356a8b4f94","system_id":"levelo_inurba_marseille","lat":43.2408,"lon":5.37751,"is_reserved":false,"is_disabled":false,"rental_uris":{"android":"levelo://app?vid=aa05ff5a-02ec-4030-a810-a7356a8b4f94","ios":"levelo://app?vid=aa05ff5a-02ec-4030-a810-a7356a8b4f94"},"vehicle_type_id":"4","last_reported":1731449325,"current_range_meters":38800,"station_id":"ce4bhnp2rcd13ifvqgvg","pricing_plan_id":"cebpf4jnsgd1na2vs0mg"},{"bike_id":"4ecf88c0-77a6-4268-b158-1994aec5c096","system_id":"levelo_inurba_marseille","lat":43.31072,"lon":5.40092,"is_reserved":false,"is_disabled":false,"rental_uris":{"android":"levelo://app?vid=4ecf88c0-77a6-4268-b158-1994aec5c096","ios":"levelo://app?vid=4ecf88c0-77a6-4268-b158-1994aec5c096"},"vehicle_type_id":"4","last_reported":1731449325,"current_range_meters":3600,"station_id":"","pricing_plan_id":"cebpf4jnsgd1na2vs0mg"},{"bike_id":"32b9fb5c-72c7-40fa-b43d-660b6b2d8d9d","system_id":"levelo_inurba_marseille","lat":43.32338,"lon":5.40613,"is_reserved":false,"is_disabled":false,"rental_uris":{"android":"levelo://app?vid=32b9fb5c-72c7-40fa-b43d-660b6b2d8d9d","ios":"levelo://app?vid=32b9fb5c-72c7-40fa-b43d-660b6b2d8d9d"},"vehicle_type_id":"4","last_reported":1731449325,"current_range_meters":32800,"station_id":"ce4bhq92rcd13ifvqhjg","pricing_plan_id":"cebpf4jnsgd1na2vs0mg"},{"bike_id":"32ee9afe-a5d5-4cba-a51f-b239d357a25b","system_id":"levelo_inurba_marseille","lat":43.30131,"lon":5.39873,"is_reserved":false,"is_disabled":false,"rental_uris":{"android":"levelo://app?vid=32ee9afe-a5d5-4cba-a51f-b239d357a25b","ios":"levelo://app?vid=32ee9afe-a5d5-4cba-a51f-b239d357a25b"},"vehicle_type_id":"4","last_reported":1731449325,"current_range_meters":18800,"station_id":"ce4bh0h2rcd13ifvqd40","pricing_plan_id":"cebpf4jnsgd1na2vs0mg"},{"bike_id":"8b0e17cd-2b4c-4c87-bad2-440414a75083","system_id":"levelo_inurba_marseille","lat":43.29848,"lon":5.36271,"is_reserved":false,"is_disabled":false,"rental_uris":{"android":"levelo://app?vid=8b0e17cd-2b4c-4c87-bad2-440414a75083","ios":"levelo://app?vid=8b0e17cd-2b4c-4c87-bad2-440414a75083"},"vehicle_type_id":"4","last_reported":1731449325,"current_range_meters":38400,"station_id":"ce4bgpp2rcd13ifvqc3g","pricing_plan_id":"cebpf4jnsgd1na2vs0mg"},{"bike_id":"c4e00506-2f54-4afb-b23c-6fdb96d02c0e","system_id":"levelo_inurba_marseille","lat":43.23188,"lon":5.35561,"is_reserved":false,"is_disabled":false,"rental_uris":{"android":"levelo://app?vid=c4e00506-2f54-4afb-b23c-6fdb96d02c0e","ios":"levelo://app?vid=c4e00506-2f54-4afb-b23c-6fdb96d02c0e"},"vehicle_type_id":"4","last_reported":1731449325,"current_range_meters":24000,"station_id":"ce4bhu92rcd13ifvqi70","pricing_plan_id":"cebpf4jnsgd1na2vs0mg"},{"bike_id":"dd6f9bb7-4775-4e9e-9d5d-e853a06b449e","system_id":"levelo_inurba_marseille","lat":43.34139,"lon":5.40895,"is_reserved":false,"is_disabled":false,"rental_uris":{"android":"levelo://app?vid=dd6f9bb7-4775-4e9e-9d5d-e853a06b449e","ios":"levelo://app?vid=dd6f9bb7-4775-4e9e-9d5d-e853a06b449e"},"vehicle_type_id":"4","last_reported":1731449325,"current_range_meters":34000,"station_id":"ce4bhqh2rcd13ifvqhlg","pricing_plan_id":"cebpf4jnsgd1na2vs0mg"},{"bike_id":"aa9fd835-2ac6-452b-b66d-43dcc3911ff7","system_id":"levelo_inurba_marseille","lat":43.29522,"lon":5.37514,"is_reserved":false,"is_disabled":false,"rental_uris":{"android":"levelo://app?vid=aa9fd835-2ac6-452b-b66d-43dcc3911ff7","ios":"levelo://app?vid=aa9fd835-2ac6-452b-b66d-43dcc3911ff7"},"vehicle_type_id":"4","last_reported":1731449325,"current_range_meters":38000,"station_id":"ce4bgkp2rcd13ifvqbmg","pricing_plan_id":"cebpf4jnsgd1na2vs0mg"},{"bike_id":"0b785488-5f6f-4147-b7d5-50aff61b8478","system_id":"levelo_inurba_marseille","lat":43.31171,"lon":5.38712,"is_reserved":false,"is_disabled":false,"rental_uris":{"android":"levelo://app?vid=0b785488-5f6f-4147-b7d5-50aff61b8478","ios":"levelo://app?vid=0b785488-5f6f-4147-b7d5-50aff61b8478"},"vehicle_type_id":"4","last_reported":1731449325,"current_range_meters":30400,"station_id":"ce4bgv12rcd13ifvqcp0","pricing_plan_id":"cebpf4jnsgd1na2vs0mg"},{"bike_id":"89b1402b-47d4-48b8-a45b-f6604f95fe71","system_id":"levelo_inurba_marseille","lat":43.29028,"lon":5.38126,"is_reserved":false,"is_disabled":false,"rental_uris":{"android":"levelo://app?vid=89b1402b-47d4-48b8-a45b-f6604f95fe71","ios":"levelo://app?vid=89b1402b-47d4-48b8-a45b-f6604f95fe71"},"vehicle_type_id":"4","last_reported":1731449325,"current_range_meters":38800,"station_id":"ce4bh4p2rcd13ifvqe1g","pricing_plan_id":"cebpf4jnsgd1na2vs0mg"},{"bike_id":"18600b65-d922-4b26-8018-34b1e4d05724","system_id":"levelo_inurba_marseille","lat":43.27813,"lon":5.40715,"is_reserved":false,"is_disabled":false,"rental_uris":{"android":"levelo://app?vid=18600b65-d922-4b26-8018-34b1e4d05724","ios":"levelo://app?vid=18600b65-d922-4b26-8018-34b1e4d05724"},"vehicle_type_id":"4","last_reported":1731449325,"current_range_meters":39200,"station_id":"ce4bhnh2rcd13ifvqgtg","pricing_plan_id":"cebpf4jnsgd1na2vs0mg"},{"bike_id":"18df7c71-103d-4f7e-ac84-690ea0604d22","system_id":"levelo_inurba_marseille","lat":43.23196,"lon":5.35557,"is_reserved":false,"is_disabled":false,"rental_uris":{"android":"levelo://app?vid=18df7c71-103d-4f7e-ac84-690ea0604d22","ios":"levelo://app?vid=18df7c71-103d-4f7e-ac84-690ea0604d22"},"vehicle_type_id":"4","last_reported":1731449325,"current_range_meters":22000,"station_id":"ce4bhu92rcd13ifvqi70","pricing_plan_id":"cebpf4jnsgd1na2vs0mg"},{"bike_id":"08b576bb-db72-4765-beb3-6747da039575","system_id":"levelo_inurba_marseille","lat":43.28147,"lon":5.42637,"is_reserved":false,"is_disabled":false,"rental_uris":{"android":"levelo://app?vid=08b576bb-db72-4765-beb3-6747da039575","ios":"levelo://app?vid=08b576bb-db72-4765-beb3-6747da039575"},"vehicle_type_id":"4","last_reported":1731449325,"current_range_meters":9200,"station_id":"ce4bhnh2rcd13ifvqgug","pricing_plan_id":"cebpf4jnsgd1na2vs0mg"},{"bike_id":"55c4e55a-a8c4-404a-9911-b8710ca32662","system_id":"levelo_inurba_marseille","lat":43.297791,"lon":5.393401,"is_reserved":false,"is_disabled":false,"rental_uris":{"android":"levelo://app?vid=55c4e55a-a8c4-404a-9911-b8710ca32662","ios":"levelo://app?vid=55c4e55a-a8c4-404a-9911-b8710ca32662"},"vehicle_type_id":"4","last_reported":1731449325,"current_range_meters":38800,"station_id":"chh1huq6cuj3fo74tm60","pricing_plan_id":"cebpf4jnsgd1na2vs0mg"},{"bike_id":"7d87b85e-93cd-4582-82c9-874c09a2a874","system_id":"levelo_inurba_marseille","lat":43.27494,"lon":5.42451,"is_reserved":false,"is_disabled":false,"rental_uris":{"android":"levelo://app?vid=7d87b85e-93cd-4582-82c9-874c09a2a874","ios":"levelo://app?vid=7d87b85e-93cd-4582-82c9-874c09a2a874"},"vehicle_type_id":"4","last_reported":1731449325,"current_range_meters":9200,"station_id":"ce4bhn92rcd13ifvqgrg","pricing_plan_id":"cebpf4jnsgd1na2vs0mg"},{"bike_id":"ae7a1209-30cb-4adf-9682-f9a609b62c9b","system_id":"levelo_inurba_marseille","lat":43.32365,"lon":5.38883,"is_reserved":false,"is_disabled":false,"rental_uris":{"android":"levelo://app?vid=ae7a1209-30cb-4adf-9682-f9a609b62c9b","ios":"levelo://app?vid=ae7a1209-30cb-4adf-9682-f9a609b62c9b"},"vehicle_type_id":"4","last_reported":1731449325,"current_range_meters":17200,"station_id":"ce4bhqp2rcd13ifvqhog","pricing_plan_id":"cebpf4jnsgd1na2vs0mg"},{"bike_id":"92501b6a-7129-4fd6-b1c6-a0ff5a76a687","system_id":"levelo_inurba_marseille","lat":43.2509,"lon":5.39527,"is_reserved":false,"is_disabled":false,"rental_uris":{"android":"levelo://app?vid=92501b6a-7129-4fd6-b1c6-a0ff5a76a687","ios":"levelo://app?vid=92501b6a-7129-4fd6-b1c6-a0ff5a76a687"},"vehicle_type_id":"4","last_reported":1731449325,"current_range_meters":18800,"station_id":"ce4bhm12rcd13ifvqgkg","pricing_plan_id":"cebpf4jnsgd1na2vs0mg"},{"bike_id":"c6e0da8a-5266-4a63-8bc3-e159cee0e23a","system_id":"levelo_inurba_marseille","lat":43.31172,"lon":5.38715,"is_reserved":false,"is_disabled":false,"rental_uris":{"android":"levelo://app?vid=c6e0da8a-5266-4a63-8bc3-e159cee0e23a","ios":"levelo://app?vid=c6e0da8a-5266-4a63-8bc3-e159cee0e23a"},"vehicle_type_id":"4","last_reported":1731449325,"current_range_meters":32800,"station_id":"ce4bgv12rcd13ifvqcp0","pricing_plan_id":"cebpf4jnsgd1na2vs0mg"},{"bike_id":"ff902db7-4e4c-4f0c-80b7-906c4bc77a8d","system_id":"levelo_inurba_marseille","lat":43.2807,"lon":5.39661,"is_reserved":false,"is_disabled":false,"rental_uris":{"android":"levelo://app?vid=ff902db7-4e4c-4f0c-80b7-906c4bc77a8d","ios":"levelo://app?vid=ff902db7-4e4c-4f0c-80b7-906c4bc77a8d"},"vehicle_type_id":"4","last_reported":1731449325,"current_range_meters":8400,"station_id":"ce4bho12rcd13ifvqh2g","pricing_plan_id":"cebpf4jnsgd1na2vs0mg"},{"bike_id":"b4b0725b-f58b-4e0c-9961-5cb977872dd3","system_id":"levelo_inurba_marseille","lat":43.28461,"lon":5.35882,"is_reserved":false,"is_disabled":false,"rental_uris":{"android":"levelo://app?vid=b4b0725b-f58b-4e0c-9961-5cb977872dd3","ios":"levelo://app?vid=b4b0725b-f58b-4e0c-9961-5cb977872dd3"},"vehicle_type_id":"4","last_reported":1731449325,"current_range_meters":19600,"station_id":"ce4bhah2rcd13ifvqei0","pricing_plan_id":"cebpf4jnsgd1na2vs0mg"},{"bike_id":"be20a352-d29e-486c-abb5-801dbecf8199","system_id":"levelo_inurba_marseille","lat":43.28615,"lon":5.35103,"is_reserved":false,"is_disabled":false,"rental_uris":{"android":"levelo://app?vid=be20a352-d29e-486c-abb5-801dbecf8199","ios":"levelo://app?vid=be20a352-d29e-486c-abb5-801dbecf8199"},"vehicle_type_id":"4","last_reported":1731449325,"current_range_meters":22000,"station_id":"ce4bhch2rcd13ifvqeug","pricing_plan_id":"cebpf4jnsgd1na2vs0mg"},{"bike_id":"f313cd83-3b4d-439f-b288-fbed704bfde0","system_id":"levelo_inurba_marseille","lat":43.29869,"lon":5.38909,"is_reserved":false,"is_disabled":false,"rental_uris":{"android":"levelo://app?vid=f313cd83-3b4d-439f-b288-fbed704bfde0","ios":"levelo://app?vid=f313cd83-3b4d-439f-b288-fbed704bfde0"},"vehicle_type_id":"4","last_reported":1731449325,"current_range_meters":8400,"station_id":"ce4bh392rcd13ifvqdl0","pricing_plan_id":"cebpf4jnsgd1na2vs0mg"},{"bike_id":"d37f74a7-149e-49e5-b379-a3ebbc48b4ca","system_id":"levelo_inurba_marseille","lat":43.31759,"lon":5.39023,"is_reserved":false,"is_disabled":false,"rental_uris":{"android":"levelo://app?vid=d37f74a7-149e-49e5-b379-a3ebbc48b4ca","ios":"levelo://app?vid=d37f74a7-149e-49e5-b379-a3ebbc48b4ca"},"vehicle_type_id":"4","last_reported":1731449325,"current_range_meters":39200,"station_id":"ce4bhqp2rcd13ifvqhng","pricing_plan_id":"cebpf4jnsgd1na2vs0mg"},{"bike_id":"a63e0d9e-80f3-4f7f-8b6b-9d5ed0abcf99","system_id":"levelo_inurba_marseille","lat":43.29224,"lon":5.3606,"is_reserved":false,"is_disabled":false,"rental_uris":{"android":"levelo://app?vid=a63e0d9e-80f3-4f7f-8b6b-9d5ed0abcf99","ios":"levelo://app?vid=a63e0d9e-80f3-4f7f-8b6b-9d5ed0abcf99"},"vehicle_type_id":"4","last_reported":1731449325,"current_range_meters":38800,"station_id":"ce4bhbh2rcd13ifvqeqg","pricing_plan_id":"cebpf4jnsgd1na2vs0mg"},{"bike_id":"77a8d971-2f30-4a1d-8bad-2f755f82f9a7","system_id":"levelo_inurba_marseille","lat":43.28266,"lon":5.35075,"is_reserved":false,"is_disabled":false,"rental_uris":{"android":"levelo://app?vid=77a8d971-2f30-4a1d-8bad-2f755f82f9a7","ios":"levelo://app?vid=77a8d971-2f30-4a1d-8bad-2f755f82f9a7"},"vehicle_type_id":"4","last_reported":1731449325,"current_range_meters":39200,"station_id":"ce4bhbp2rcd13ifvqerg","pricing_plan_id":"cebpf4jnsgd1na2vs0mg"},{"bike_id":"1e6d59bd-28cd-4e09-b6e4-a60784365a06","system_id":"levelo_inurba_marseille","lat":43.2799,"lon":5.41662,"is_reserved":false,"is_disabled":false,"rental_uris":{"android":"levelo://app?vid=1e6d59bd-28cd-4e09-b6e4-a60784365a06","ios":"levelo://app?vid=1e6d59bd-28cd-4e09-b6e4-a60784365a06"},"vehicle_type_id":"4","last_reported":1731449325,"current_range_meters":39200,"station_id":"ce4bho12rcd13ifvqh1g","pricing_plan_id":"cebpf4jnsgd1na2vs0mg"},{"bike_id":"292043e7-1c9f-48a3-be8d-3823941207e3","system_id":"levelo_inurba_marseille","lat":43.28613,"lon":5.35104,"is_reserved":false,"is_disabled":false,"rental_uris":{"android":"levelo://app?vid=292043e7-1c9f-48a3-be8d-3823941207e3","ios":"levelo://app?vid=292043e7-1c9f-48a3-be8d-3823941207e3"},"vehicle_type_id":"4","last_reported":1731449325,"current_range_meters":8000,"station_id":"ce4bhch2rcd13ifvqeug","pricing_plan_id":"cebpf4jnsgd1na2vs0mg"},{"bike_id":"5770bbd9-2c6e-4691-a76b-306c0fdae32c","system_id":"levelo_inurba_marseille","lat":43.28841,"lon":5.35853,"is_reserved":false,"is_disabled":false,"rental_uris":{"android":"levelo://app?vid=5770bbd9-2c6e-4691-a76b-306c0fdae32c","ios":"levelo://app?vid=5770bbd9-2c6e-4691-a76b-306c0fdae32c"},"vehicle_type_id":"4","last_reported":1731449325,"current_range_meters":31200,"station_id":"ce4bhb12rcd13ifvqem0","pricing_plan_id":"cebpf4jnsgd1na2vs0mg"},{"bike_id":"507284d9-4009-457e-bfa1-5ddbf58c6240","system_id":"levelo_inurba_marseille","lat":43.27175,"lon":5.40988,"is_reserved":false,"is_disabled":false,"rental_uris":{"android":"levelo://app?vid=507284d9-4009-457e-bfa1-5ddbf58c6240","ios":"levelo://app?vid=507284d9-4009-457e-bfa1-5ddbf58c6240"},"vehicle_type_id":"4","last_reported":1731449325,"current_range_meters":39200,"station_id":"ce4bhl12rcd13ifvqgf0","pricing_plan_id":"cebpf4jnsgd1na2vs0mg"},{"bike_id":"5585f7df-260f-4763-a77b-cec71622b344","system_id":"levelo_inurba_marseille","lat":43.31991,"lon":5.38149,"is_reserved":false,"is_disabled":false,"rental_uris":{"android":"levelo://app?vid=5585f7df-260f-4763-a77b-cec71622b344","ios":"levelo://app?vid=5585f7df-260f-4763-a77b-cec71622b344"},"vehicle_type_id":"4","last_reported":1731449325,"current_range_meters":30800,"station_id":"ce4bhr12rcd13ifvqhpg","pricing_plan_id":"cebpf4jnsgd1na2vs0mg"},{"bike_id":"06d0fd84-eb40-465c-bd42-5964ff7bd91c","system_id":"levelo_inurba_marseille","lat":43.27993,"lon":5.40011,"is_reserved":false,"is_disabled":false,"rental_uris":{"android":"levelo://app?vid=06d0fd84-eb40-465c-bd42-5964ff7bd91c","ios":"levelo://app?vid=06d0fd84-eb40-465c-bd42-5964ff7bd91c"},"vehicle_type_id":"4","last_reported":1731449325,"current_range_meters":37600,"station_id":"ce4bho92rcd13ifvqh4g","pricing_plan_id":"cebpf4jnsgd1na2vs0mg"},{"bike_id":"477ac499-461c-4a23-8dfa-5e9d7eb9d95e","system_id":"levelo_inurba_marseille","lat":43.31175,"lon":5.38708,"is_reserved":false,"is_disabled":false,"rental_uris":{"android":"levelo://app?vid=477ac499-461c-4a23-8dfa-5e9d7eb9d95e","ios":"levelo://app?vid=477ac499-461c-4a23-8dfa-5e9d7eb9d95e"},"vehicle_type_id":"4","last_reported":1731449325,"current_range_meters":10000,"station_id":"ce4bgv12rcd13ifvqcp0","pricing_plan_id":"cebpf4jnsgd1na2vs0mg"},{"bike_id":"dbc4a587-0fc9-4e6b-bcff-acfb3feee328","system_id":"levelo_inurba_marseille","lat":43.29008,"lon":5.35614,"is_reserved":false,"is_disabled":false,"rental_uris":{"android":"levelo://app?vid=dbc4a587-0fc9-4e6b-bcff-acfb3feee328","ios":"levelo://app?vid=dbc4a587-0fc9-4e6b-bcff-acfb3feee328"},"vehicle_type_id":"4","last_reported":1731449325,"current_range_meters":40000,"station_id":"ce4bhb92rcd13ifvqen0","pricing_plan_id":"cebpf4jnsgd1na2vs0mg"},{"bike_id":"0c16ce1e-70c2-4d1f-b546-d3a2156323ff","system_id":"levelo_inurba_marseille","lat":43.27808,"lon":5.40702,"is_reserved":false,"is_disabled":false,"rental_uris":{"android":"levelo://app?vid=0c16ce1e-70c2-4d1f-b546-d3a2156323ff","ios":"levelo://app?vid=0c16ce1e-70c2-4d1f-b546-d3a2156323ff"},"vehicle_type_id":"4","last_reported":1731449325,"current_range_meters":32000,"station_id":"ce4bhnh2rcd13ifvqgtg","pricing_plan_id":"cebpf4jnsgd1na2vs0mg"},{"bike_id":"545b5284-2b5f-4c76-b6de-050eba91d10e","system_id":"levelo_inurba_marseille","lat":43.24802,"lon":5.37457,"is_reserved":false,"is_disabled":false,"rental_uris":{"android":"levelo://app?vid=545b5284-2b5f-4c76-b6de-050eba91d10e","ios":"levelo://app?vid=545b5284-2b5f-4c76-b6de-050eba91d10e"},"vehicle_type_id":"4","last_reported":1731449325,"current_range_meters":22000,"station_id":"ce4bhgh2rcd13ifvqfb0","pricing_plan_id":"cebpf4jnsgd1na2vs0mg"},{"bike_id":"fa42d5e4-72af-4228-990b-fcd520addeee","system_id":"levelo_inurba_marseille","lat":43.29276,"lon":5.40128,"is_reserved":false,"is_disabled":false,"rental_uris":{"android":"levelo://app?vid=fa42d5e4-72af-4228-990b-fcd520addeee","ios":"levelo://app?vid=fa42d5e4-72af-4228-990b-fcd520addeee"},"vehicle_type_id":"4","last_reported":1731449325,"current_range_meters":38800,"station_id":"ce4bh312rcd13ifvqdk0","pricing_plan_id":"cebpf4jnsgd1na2vs0mg"},{"bike_id":"d265751d-fa37-4729-b8e3-a5848e7e9d07","system_id":"levelo_inurba_marseille","lat":43.24804,"lon":5.37455,"is_reserved":false,"is_disabled":false,"rental_uris":{"android":"levelo://app?vid=d265751d-fa37-4729-b8e3-a5848e7e9d07","ios":"levelo://app?vid=d265751d-fa37-4729-b8e3-a5848e7e9d07"},"vehicle_type_id":"4","last_reported":1731449325,"current_range_meters":39200,"station_id":"ce4bhgh2rcd13ifvqfb0","pricing_plan_id":"cebpf4jnsgd1na2vs0mg"},{"bike_id":"e4557244-baef-4fb7-ae0e-00398e2706db","system_id":"levelo_inurba_marseille","lat":43.28457,"lon":5.35893,"is_reserved":false,"is_disabled":false,"rental_uris":{"android":"levelo://app?vid=e4557244-baef-4fb7-ae0e-00398e2706db","ios":"levelo://app?vid=e4557244-baef-4fb7-ae0e-00398e2706db"},"vehicle_type_id":"4","last_reported":1731449325,"current_range_meters":28000,"station_id":"ce4bhah2rcd13ifvqei0","pricing_plan_id":"cebpf4jnsgd1na2vs0mg"},{"bike_id":"1661b959-96a0-4bc6-9284-ecde42b3da08","system_id":"levelo_inurba_marseille","lat":43.30596,"lon":5.39377,"is_reserved":false,"is_disabled":false,"rental_uris":{"android":"levelo://app?vid=1661b959-96a0-4bc6-9284-ecde42b3da08","ios":"levelo://app?vid=1661b959-96a0-4bc6-9284-ecde42b3da08"},"vehicle_type_id":"4","last_reported":1731449325,"current_range_meters":36400,"station_id":"ce4bh0p2rcd13ifvqd80","pricing_plan_id":"cebpf4jnsgd1na2vs0mg"},{"bike_id":"988dae66-d4f2-4630-b149-879752fb79e7","system_id":"levelo_inurba_marseille","lat":43.25499,"lon":5.37649,"is_reserved":false,"is_disabled":false,"rental_uris":{"android":"levelo://app?vid=988dae66-d4f2-4630-b149-879752fb79e7","ios":"levelo://app?vid=988dae66-d4f2-4630-b149-879752fb79e7"},"vehicle_type_id":"4","last_reported":1731449325,"current_range_meters":20000,"station_id":"ce4bhh12rcd13ifvqff0","pricing_plan_id":"cebpf4jnsgd1na2vs0mg"},{"bike_id":"3922a5eb-6156-4c8a-a09b-14fee498ab0f","system_id":"levelo_inurba_marseille","lat":43.27069,"lon":5.42279,"is_reserved":false,"is_disabled":false,"rental_uris":{"android":"levelo://app?vid=3922a5eb-6156-4c8a-a09b-14fee498ab0f","ios":"levelo://app?vid=3922a5eb-6156-4c8a-a09b-14fee498ab0f"},"vehicle_type_id":"4","last_reported":1731449325,"current_range_meters":39200,"station_id":"ce4bhk92rcd13ifvqgb0","pricing_plan_id":"cebpf4jnsgd1na2vs0mg"},{"bike_id":"caff4725-598e-4e0b-becc-7117a918f639","system_id":"levelo_inurba_marseille","lat":43.30885,"lon":5.37195,"is_reserved":false,"is_disabled":false,"rental_uris":{"android":"levelo://app?vid=caff4725-598e-4e0b-becc-7117a918f639","ios":"levelo://app?vid=caff4725-598e-4e0b-becc-7117a918f639"},"vehicle_type_id":"4","last_reported":1731449325,"current_range_meters":22000,"station_id":"ce4bgv12rcd13ifvqcp0","pricing_plan_id":"cebpf4jnsgd1na2vs0mg"},{"bike_id":"9c6e8335-7b55-4c15-8665-29190ffcd09f","system_id":"levelo_inurba_marseille","lat":43.26564,"lon":5.38999,"is_reserved":false,"is_disabled":false,"rental_uris":{"android":"levelo://app?vid=9c6e8335-7b55-4c15-8665-29190ffcd09f","ios":"levelo://app?vid=9c6e8335-7b55-4c15-8665-29190ffcd09f"},"vehicle_type_id":"4","last_reported":1731449325,"current_range_meters":16000,"station_id":"ce4bhe12rcd13ifvqf30","pricing_plan_id":"cebpf4jnsgd1na2vs0mg"},{"bike_id":"643acdb3-4fdc-4eb0-be6f-5155ce023638","system_id":"levelo_inurba_marseille","lat":43.22933,"lon":5.35376,"is_reserved":false,"is_disabled":false,"rental_uris":{"android":"levelo://app?vid=643acdb3-4fdc-4eb0-be6f-5155ce023638","ios":"levelo://app?vid=643acdb3-4fdc-4eb0-be6f-5155ce023638"},"vehicle_type_id":"4","last_reported":1731449325,"current_range_meters":22400,"station_id":"cpo3532slgdg3j2ikp40","pricing_plan_id":"cebpf4jnsgd1na2vs0mg"},{"bike_id":"0adb12ab-145d-49b1-88c7-deba2d2aab14","system_id":"levelo_inurba_marseille","lat":43.31699,"lon":5.40467,"is_reserved":false,"is_disabled":false,"rental_uris":{"android":"levelo://app?vid=0adb12ab-145d-49b1-88c7-deba2d2aab14","ios":"levelo://app?vid=0adb12ab-145d-49b1-88c7-deba2d2aab14"},"vehicle_type_id":"4","last_reported":1731449325,"current_range_meters":5600,"station_id":"ce4bh012rcd13ifvqd00","pricing_plan_id":"cebpf4jnsgd1na2vs0mg"},{"bike_id":"0d88cfca-a79a-4db9-8b2c-b5cb1f2c1cd4","system_id":"levelo_inurba_marseille","lat":43.31371,"lon":5.38495,"is_reserved":false,"is_disabled":false,"rental_uris":{"android":"levelo://app?vid=0d88cfca-a79a-4db9-8b2c-b5cb1f2c1cd4","ios":"levelo://app?vid=0d88cfca-a79a-4db9-8b2c-b5cb1f2c1cd4"},"vehicle_type_id":"4","last_reported":1731449325,"current_range_meters":39200,"station_id":"ce4bgt92rcd13ifvqcf0","pricing_plan_id":"cebpf4jnsgd1na2vs0mg"},{"bike_id":"4ea09c0a-69d0-4a4b-ac6d-f8d9d70b9f13","system_id":"levelo_inurba_marseille","lat":43.28452,"lon":5.35891,"is_reserved":false,"is_disabled":false,"rental_uris":{"android":"levelo://app?vid=4ea09c0a-69d0-4a4b-ac6d-f8d9d70b9f13","ios":"levelo://app?vid=4ea09c0a-69d0-4a4b-ac6d-f8d9d70b9f13"},"vehicle_type_id":"4","last_reported":1731449325,"current_range_meters":33600,"station_id":"ce4bhah2rcd13ifvqei0","pricing_plan_id":"cebpf4jnsgd1na2vs0mg"},{"bike_id":"92e3955a-3d85-46b2-8ac9-7413ee7fcf68","system_id":"levelo_inurba_marseille","lat":43.25722,"lon":5.39426,"is_reserved":false,"is_disabled":false,"rental_uris":{"android":"levelo://app?vid=92e3955a-3d85-46b2-8ac9-7413ee7fcf68","ios":"levelo://app?vid=92e3955a-3d85-46b2-8ac9-7413ee7fcf68"},"vehicle_type_id":"4","last_reported":1731449325,"current_range_meters":17600,"station_id":"ce4bhgh2rcd13ifvqfb0","pricing_plan_id":"cebpf4jnsgd1na2vs0mg"},{"bike_id":"e3eec66d-93c1-47d6-8207-dd4e8e9fdef7","system_id":"levelo_inurba_marseille","lat":43.29571,"lon":5.39982,"is_reserved":false,"is_disabled":false,"rental_uris":{"android":"levelo://app?vid=e3eec66d-93c1-47d6-8207-dd4e8e9fdef7","ios":"levelo://app?vid=e3eec66d-93c1-47d6-8207-dd4e8e9fdef7"},"vehicle_type_id":"4","last_reported":1731449325,"current_range_meters":38800,"station_id":"ce4bh312rcd13ifvqdj0","pricing_plan_id":"cebpf4jnsgd1na2vs0mg"},{"bike_id":"d7ad06ec-6153-4f7f-a6e6-8b8e0d4e8fa7","system_id":"levelo_inurba_marseille","lat":43.31754,"lon":5.39025,"is_reserved":false,"is_disabled":false,"rental_uris":{"android":"levelo://app?vid=d7ad06ec-6153-4f7f-a6e6-8b8e0d4e8fa7","ios":"levelo://app?vid=d7ad06ec-6153-4f7f-a6e6-8b8e0d4e8fa7"},"vehicle_type_id":"4","last_reported":1731449325,"current_range_meters":35200,"station_id":"ce4bhqp2rcd13ifvqhng","pricing_plan_id":"cebpf4jnsgd1na2vs0mg"},{"bike_id":"96d2f104-c9ef-4a4c-99ea-d8fee576fe68","system_id":"levelo_inurba_marseille","lat":43.25085,"lon":5.39519,"is_reserved":false,"is_disabled":false,"rental_uris":{"android":"levelo://app?vid=96d2f104-c9ef-4a4c-99ea-d8fee576fe68","ios":"levelo://app?vid=96d2f104-c9ef-4a4c-99ea-d8fee576fe68"},"vehicle_type_id":"4","last_reported":1731449325,"current_range_meters":7200,"station_id":"ce4bhm12rcd13ifvqgkg","pricing_plan_id":"cebpf4jnsgd1na2vs0mg"},{"bike_id":"cc28e414-0047-4ae0-a828-6e21b2d2f7a4","system_id":"levelo_inurba_marseille","lat":43.2799,"lon":5.41665,"is_reserved":false,"is_disabled":false,"rental_uris":{"android":"levelo://app?vid=cc28e414-0047-4ae0-a828-6e21b2d2f7a4","ios":"levelo://app?vid=cc28e414-0047-4ae0-a828-6e21b2d2f7a4"},"vehicle_type_id":"4","last_reported":1731449325,"current_range_meters":7200,"station_id":"ce4bho12rcd13ifvqh1g","pricing_plan_id":"cebpf4jnsgd1na2vs0mg"},{"bike_id":"7d250492-b878-490b-8fb4-bee304bc7d48","system_id":"levelo_inurba_marseille","lat":43.29517,"lon":5.39046,"is_reserved":false,"is_disabled":false,"rental_uris":{"android":"levelo://app?vid=7d250492-b878-490b-8fb4-bee304bc7d48","ios":"levelo://app?vid=7d250492-b878-490b-8fb4-bee304bc7d48"},"vehicle_type_id":"4","last_reported":1731449325,"current_range_meters":32400,"station_id":"ce4bh3p2rcd13ifvqdp0","pricing_plan_id":"cebpf4jnsgd1na2vs0mg"},{"bike_id":"2f7c0ff4-f529-409a-83cd-35a4539bd82f","system_id":"levelo_inurba_marseille","lat":43.24071,"lon":5.37757,"is_reserved":false,"is_disabled":false,"rental_uris":{"android":"levelo://app?vid=2f7c0ff4-f529-409a-83cd-35a4539bd82f","ios":"levelo://app?vid=2f7c0ff4-f529-409a-83cd-35a4539bd82f"},"vehicle_type_id":"4","last_reported":1731449325,"current_range_meters":23200,"station_id":"ce4bhnp2rcd13ifvqgvg","pricing_plan_id":"cebpf4jnsgd1na2vs0mg"},{"bike_id":"38bf0ea6-6602-448e-873a-d412f2b6ea95","system_id":"levelo_inurba_marseille","lat":43.29045,"lon":5.359,"is_reserved":false,"is_disabled":false,"rental_uris":{"android":"levelo://app?vid=38bf0ea6-6602-448e-873a-d412f2b6ea95","ios":"levelo://app?vid=38bf0ea6-6602-448e-873a-d412f2b6ea95"},"vehicle_type_id":"4","last_reported":1731449325,"current_range_meters":24800,"station_id":"ce4bha92rcd13ifvqeg0","pricing_plan_id":"cebpf4jnsgd1na2vs0mg"},{"bike_id":"1c823daa-54e3-4fdc-ac69-748d400a7157","system_id":"levelo_inurba_marseille","lat":43.28108,"lon":5.37837,"is_reserved":false,"is_disabled":false,"rental_uris":{"android":"levelo://app?vid=1c823daa-54e3-4fdc-ac69-748d400a7157","ios":"levelo://app?vid=1c823daa-54e3-4fdc-ac69-748d400a7157"},"vehicle_type_id":"4","last_reported":1731449325,"current_range_meters":39200,"station_id":"ce4bha12rcd13ifvqee0","pricing_plan_id":"cebpf4jnsgd1na2vs0mg"},{"bike_id":"310bf956-2d0c-40fb-9411-0b80e8e2b383","system_id":"levelo_inurba_marseille","lat":43.30324,"lon":5.40442,"is_reserved":false,"is_disabled":false,"rental_uris":{"android":"levelo://app?vid=310bf956-2d0c-40fb-9411-0b80e8e2b383","ios":"levelo://app?vid=310bf956-2d0c-40fb-9411-0b80e8e2b383"},"vehicle_type_id":"4","last_reported":1731449325,"current_range_meters":38800,"station_id":"ce4bh012rcd13ifvqd10","pricing_plan_id":"cebpf4jnsgd1na2vs0mg"},{"bike_id":"e8e02d9c-9f18-44fb-893f-40424ddd086b","system_id":"levelo_inurba_marseille","lat":43.28454,"lon":5.35898,"is_reserved":false,"is_disabled":false,"rental_uris":{"android":"levelo://app?vid=e8e02d9c-9f18-44fb-893f-40424ddd086b","ios":"levelo://app?vid=e8e02d9c-9f18-44fb-893f-40424ddd086b"},"vehicle_type_id":"4","last_reported":1731449325,"current_range_meters":39200,"station_id":"ce4bhah2rcd13ifvqei0","pricing_plan_id":"cebpf4jnsgd1na2vs0mg"},{"bike_id":"82e98470-11c0-4399-ad83-59956d6b4baa","system_id":"levelo_inurba_marseille","lat":43.30592,"lon":5.39353,"is_reserved":false,"is_disabled":false,"rental_uris":{"android":"levelo://app?vid=82e98470-11c0-4399-ad83-59956d6b4baa","ios":"levelo://app?vid=82e98470-11c0-4399-ad83-59956d6b4baa"},"vehicle_type_id":"4","last_reported":1731449325,"current_range_meters":12400,"station_id":"ce4bh0p2rcd13ifvqd80","pricing_plan_id":"cebpf4jnsgd1na2vs0mg"},{"bike_id":"b0843d66-5916-4a06-86f1-73ac0aafef65","system_id":"levelo_inurba_marseille","lat":43.31756,"lon":5.39025,"is_reserved":false,"is_disabled":false,"rental_uris":{"android":"levelo://app?vid=b0843d66-5916-4a06-86f1-73ac0aafef65","ios":"levelo://app?vid=b0843d66-5916-4a06-86f1-73ac0aafef65"},"vehicle_type_id":"4","last_reported":1731449325,"current_range_meters":34000,"station_id":"ce4bhqp2rcd13ifvqhng","pricing_plan_id":"cebpf4jnsgd1na2vs0mg"},{"bike_id":"1740a8aa-c44f-4c36-a230-385a32395a5f","system_id":"levelo_inurba_marseille","lat":43.28718,"lon":5.36098,"is_reserved":false,"is_disabled":false,"rental_uris":{"android":"levelo://app?vid=1740a8aa-c44f-4c36-a230-385a32395a5f","ios":"levelo://app?vid=1740a8aa-c44f-4c36-a230-385a32395a5f"},"vehicle_type_id":"4","last_reported":1731449325,"current_range_meters":38800,"station_id":"cki0cbj6b192h4jlfktg","pricing_plan_id":"cebpf4jnsgd1na2vs0mg"},{"bike_id":"279e7387-2aa6-4fe0-952b-39bf3dc9e040","system_id":"levelo_inurba_marseille","lat":43.22932,"lon":5.35379,"is_reserved":false,"is_disabled":false,"rental_uris":{"android":"levelo://app?vid=279e7387-2aa6-4fe0-952b-39bf3dc9e040","ios":"levelo://app?vid=279e7387-2aa6-4fe0-952b-39bf3dc9e040"},"vehicle_type_id":"4","last_reported":1731449325,"current_range_meters":8400,"station_id":"cpo3532slgdg3j2ikp40","pricing_plan_id":"cebpf4jnsgd1na2vs0mg"},{"bike_id":"b4d06cbf-8815-4499-b365-3600d7830583","system_id":"levelo_inurba_marseille","lat":43.27913,"lon":5.39572,"is_reserved":false,"is_disabled":false,"rental_uris":{"android":"levelo://app?vid=b4d06cbf-8815-4499-b365-3600d7830583","ios":"levelo://app?vid=b4d06cbf-8815-4499-b365-3600d7830583"},"vehicle_type_id":"4","last_reported":1731449325,"current_range_meters":38800,"station_id":"ce4bhf92rcd13ifvqf40","pricing_plan_id":"cebpf4jnsgd1na2vs0mg"},{"bike_id":"eb75e699-4657-4297-8be7-49e5d5e000cf","system_id":"levelo_inurba_marseille","lat":43.29065,"lon":5.35937,"is_reserved":false,"is_disabled":false,"rental_uris":{"android":"levelo://app?vid=eb75e699-4657-4297-8be7-49e5d5e000cf","ios":"levelo://app?vid=eb75e699-4657-4297-8be7-49e5d5e000cf"},"vehicle_type_id":"4","last_reported":1731449325,"current_range_meters":11200,"station_id":"ce4bha92rcd13ifvqeg0","pricing_plan_id":"cebpf4jnsgd1na2vs0mg"},{"bike_id":"bffb9ad5-11f9-4ac1-bc93-daa95e4d74a2","system_id":"levelo_inurba_marseille","lat":43.23182,"lon":5.39979,"is_reserved":false,"is_disabled":false,"rental_uris":{"android":"levelo://app?vid=bffb9ad5-11f9-4ac1-bc93-daa95e4d74a2","ios":"levelo://app?vid=bffb9ad5-11f9-4ac1-bc93-daa95e4d74a2"},"vehicle_type_id":"4","last_reported":1731449325,"current_range_meters":39200,"station_id":"ce4bhn12rcd13ifvqgqg","pricing_plan_id":"cebpf4jnsgd1na2vs0mg"},{"bike_id":"0093f18b-32de-4441-a46c-60245df75d14","system_id":"levelo_inurba_marseille","lat":43.28569,"lon":5.39501,"is_reserved":false,"is_disabled":false,"rental_uris":{"android":"levelo://app?vid=0093f18b-32de-4441-a46c-60245df75d14","ios":"levelo://app?vid=0093f18b-32de-4441-a46c-60245df75d14"},"vehicle_type_id":"4","last_reported":1731449325,"current_range_meters":16800,"station_id":"ce4bh292rcd13ifvqdg0","pricing_plan_id":"cebpf4jnsgd1na2vs0mg"},{"bike_id":"9686312c-dfac-4840-b80b-c5ff4cc01644","system_id":"levelo_inurba_marseille","lat":43.28836,"lon":5.3931,"is_reserved":false,"is_disabled":false,"rental_uris":{"android":"levelo://app?vid=9686312c-dfac-4840-b80b-c5ff4cc01644","ios":"levelo://app?vid=9686312c-dfac-4840-b80b-c5ff4cc01644"},"vehicle_type_id":"4","last_reported":1731449325,"current_range_meters":39200,"station_id":"ce4bh2p2rcd13ifvqdi0","pricing_plan_id":"cebpf4jnsgd1na2vs0mg"},{"bike_id":"7de8e655-df9b-45fc-8982-9a2d00a0ff2b","system_id":"levelo_inurba_marseille","lat":43.24667,"lon":5.38164,"is_reserved":false,"is_disabled":false,"rental_uris":{"android":"levelo://app?vid=7de8e655-df9b-45fc-8982-9a2d00a0ff2b","ios":"levelo://app?vid=7de8e655-df9b-45fc-8982-9a2d00a0ff2b"},"vehicle_type_id":"4","last_reported":1731449325,"current_range_meters":34000,"station_id":"ce4bhih2rcd13ifvqfr0","pricing_plan_id":"cebpf4jnsgd1na2vs0mg"},{"bike_id":"6153d15b-a7a9-412b-9cf2-fc47239a6e56","system_id":"levelo_inurba_marseille","lat":43.28701,"lon":5.37398,"is_reserved":false,"is_disabled":false,"rental_uris":{"android":"levelo://app?vid=6153d15b-a7a9-412b-9cf2-fc47239a6e56","ios":"levelo://app?vid=6153d15b-a7a9-412b-9cf2-fc47239a6e56"},"vehicle_type_id":"4","last_reported":1731449325,"current_range_meters":38800,"station_id":"ce4bh3p2rcd13ifvqdq0","pricing_plan_id":"cebpf4jnsgd1na2vs0mg"},{"bike_id":"c513fbdc-e8eb-47df-818c-e5f9f8caf87e","system_id":"levelo_inurba_marseille","lat":43.31324,"lon":5.39694,"is_reserved":false,"is_disabled":false,"rental_uris":{"android":"levelo://app?vid=c513fbdc-e8eb-47df-818c-e5f9f8caf87e","ios":"levelo://app?vid=c513fbdc-e8eb-47df-818c-e5f9f8caf87e"},"vehicle_type_id":"4","last_reported":1731449325,"current_range_meters":13600,"station_id":"ce4bgvp2rcd13ifvqcu0","pricing_plan_id":"cebpf4jnsgd1na2vs0mg"},{"bike_id":"3343470a-f7e8-4b38-bae0-14b35040870e","system_id":"levelo_inurba_marseille","lat":43.31339,"lon":5.36711,"is_reserved":false,"is_disabled":false,"rental_uris":{"android":"levelo://app?vid=3343470a-f7e8-4b38-bae0-14b35040870e","ios":"levelo://app?vid=3343470a-f7e8-4b38-bae0-14b35040870e"},"vehicle_type_id":"4","last_reported":1731449325,"current_range_meters":31200,"station_id":"ce4bgr92rcd13ifvqc6g","pricing_plan_id":"cebpf4jnsgd1na2vs0mg"},{"bike_id":"47765a50-2b2f-4a20-9ee8-c77b7b635e8f","system_id":"levelo_inurba_marseille","lat":43.31321,"lon":5.39697,"is_reserved":false,"is_disabled":false,"rental_uris":{"android":"levelo://app?vid=47765a50-2b2f-4a20-9ee8-c77b7b635e8f","ios":"levelo://app?vid=47765a50-2b2f-4a20-9ee8-c77b7b635e8f"},"vehicle_type_id":"4","last_reported":1731449325,"current_range_meters":9200,"station_id":"ce4bgvp2rcd13ifvqcu0","pricing_plan_id":"cebpf4jnsgd1na2vs0mg"},{"bike_id":"0533d407-0885-441e-afcd-c99a726d8cbf","system_id":"levelo_inurba_marseille","lat":43.28846,"lon":5.35851,"is_reserved":false,"is_disabled":false,"rental_uris":{"android":"levelo://app?vid=0533d407-0885-441e-afcd-c99a726d8cbf","ios":"levelo://app?vid=0533d407-0885-441e-afcd-c99a726d8cbf"},"vehicle_type_id":"4","last_reported":1731449325,"current_range_meters":6400,"station_id":"ce4bhb12rcd13ifvqem0","pricing_plan_id":"cebpf4jnsgd1na2vs0mg"},{"bike_id":"6af85b63-eb6f-495b-9cce-d62cb4e5f26b","system_id":"levelo_inurba_marseille","lat":43.28153,"lon":5.42637,"is_reserved":false,"is_disabled":false,"rental_uris":{"android":"levelo://app?vid=6af85b63-eb6f-495b-9cce-d62cb4e5f26b","ios":"levelo://app?vid=6af85b63-eb6f-495b-9cce-d62cb4e5f26b"},"vehicle_type_id":"4","last_reported":1731449325,"current_range_meters":24400,"station_id":"ce4bhnh2rcd13ifvqgug","pricing_plan_id":"cebpf4jnsgd1na2vs0mg"},{"bike_id":"d7263090-4e41-407d-9271-2db32801f77e","system_id":"levelo_inurba_marseille","lat":43.27838,"lon":5.39208,"is_reserved":false,"is_disabled":false,"rental_uris":{"android":"levelo://app?vid=d7263090-4e41-407d-9271-2db32801f77e","ios":"levelo://app?vid=d7263090-4e41-407d-9271-2db32801f77e"},"vehicle_type_id":"4","last_reported":1731449325,"current_range_meters":39200,"station_id":"ce4bhjp2rcd13ifvqga0","pricing_plan_id":"cebpf4jnsgd1na2vs0mg"},{"bike_id":"6202c343-c23c-4a8a-85fc-54b819826d60","system_id":"levelo_inurba_marseille","lat":43.31075,"lon":5.40095,"is_reserved":false,"is_disabled":false,"rental_uris":{"android":"levelo://app?vid=6202c343-c23c-4a8a-85fc-54b819826d60","ios":"levelo://app?vid=6202c343-c23c-4a8a-85fc-54b819826d60"},"vehicle_type_id":"4","last_reported":1731449325,"current_range_meters":16800,"station_id":"","pricing_plan_id":"cebpf4jnsgd1na2vs0mg"},{"bike_id":"2836167b-5db5-4496-9e46-a29afd1a6d15","system_id":"levelo_inurba_marseille","lat":43.29051,"lon":5.35913,"is_reserved":false,"is_disabled":false,"rental_uris":{"android":"levelo://app?vid=2836167b-5db5-4496-9e46-a29afd1a6d15","ios":"levelo://app?vid=2836167b-5db5-4496-9e46-a29afd1a6d15"},"vehicle_type_id":"4","last_reported":1731449325,"current_range_meters":33600,"station_id":"ce4bha92rcd13ifvqeg0","pricing_plan_id":"cebpf4jnsgd1na2vs0mg"},{"bike_id":"b006f22f-269a-46a7-b220-e64237870ed6","system_id":"levelo_inurba_marseille","lat":43.27181,"lon":5.40989,"is_reserved":false,"is_disabled":false,"rental_uris":{"android":"levelo://app?vid=b006f22f-269a-46a7-b220-e64237870ed6","ios":"levelo://app?vid=b006f22f-269a-46a7-b220-e64237870ed6"},"vehicle_type_id":"4","last_reported":1731449325,"current_range_meters":6000,"station_id":"ce4bhl12rcd13ifvqgf0","pricing_plan_id":"cebpf4jnsgd1na2vs0mg"},{"bike_id":"a4b6d270-8a6e-4716-a83e-fe9575fea649","system_id":"levelo_inurba_marseille","lat":43.24075,"lon":5.37763,"is_reserved":false,"is_disabled":false,"rental_uris":{"android":"levelo://app?vid=a4b6d270-8a6e-4716-a83e-fe9575fea649","ios":"levelo://app?vid=a4b6d270-8a6e-4716-a83e-fe9575fea649"},"vehicle_type_id":"4","last_reported":1731449325,"current_range_meters":5600,"station_id":"ce4bhnp2rcd13ifvqgvg","pricing_plan_id":"cebpf4jnsgd1na2vs0mg"},{"bike_id":"ac5501a9-cd92-46be-9b01-66b8a10f5b68","system_id":"levelo_inurba_marseille","lat":43.28101,"lon":5.37841,"is_reserved":false,"is_disabled":false,"rental_uris":{"android":"levelo://app?vid=ac5501a9-cd92-46be-9b01-66b8a10f5b68","ios":"levelo://app?vid=ac5501a9-cd92-46be-9b01-66b8a10f5b68"},"vehicle_type_id":"4","last_reported":1731449325,"current_range_meters":39200,"station_id":"ce4bha12rcd13ifvqee0","pricing_plan_id":"cebpf4jnsgd1na2vs0mg"},{"bike_id":"a395d216-538f-45c7-8a2a-a35c24519384","system_id":"levelo_inurba_marseille","lat":43.268023,"lon":5.402643,"is_reserved":false,"is_disabled":false,"rental_uris":{"android":"levelo://app?vid=a395d216-538f-45c7-8a2a-a35c24519384","ios":"levelo://app?vid=a395d216-538f-45c7-8a2a-a35c24519384"},"vehicle_type_id":"4","last_reported":1731449325,"current_range_meters":38800,"station_id":"ce501612rcd8frsf0b60","pricing_plan_id":"cebpf4jnsgd1na2vs0mg"},{"bike_id":"2f7b9c8c-1fe0-4a67-b0e3-881190b6862f","system_id":"levelo_inurba_marseille","lat":43.25726,"lon":5.41109,"is_reserved":false,"is_disabled":false,"rental_uris":{"android":"levelo://app?vid=2f7b9c8c-1fe0-4a67-b0e3-881190b6862f","ios":"levelo://app?vid=2f7b9c8c-1fe0-4a67-b0e3-881190b6862f"},"vehicle_type_id":"4","last_reported":1731449325,"current_range_meters":8800,"station_id":"ce4bhkp2rcd13ifvqgd0","pricing_plan_id":"cebpf4jnsgd1na2vs0mg"},{"bike_id":"07b21832-7713-4564-8eca-1b04356a54ed","system_id":"levelo_inurba_marseille","lat":43.28572,"lon":5.39493,"is_reserved":false,"is_disabled":false,"rental_uris":{"android":"levelo://app?vid=07b21832-7713-4564-8eca-1b04356a54ed","ios":"levelo://app?vid=07b21832-7713-4564-8eca-1b04356a54ed"},"vehicle_type_id":"4","last_reported":1731449325,"current_range_meters":38000,"station_id":"ce4bh292rcd13ifvqdg0","pricing_plan_id":"cebpf4jnsgd1na2vs0mg"},{"bike_id":"25d4cae7-d5bc-48bf-9087-92d412dcc944","system_id":"levelo_inurba_marseille","lat":43.288505,"lon":5.35843,"is_reserved":false,"is_disabled":false,"rental_uris":{"android":"levelo://app?vid=25d4cae7-d5bc-48bf-9087-92d412dcc944","ios":"levelo://app?vid=25d4cae7-d5bc-48bf-9087-92d412dcc944"},"vehicle_type_id":"4","last_reported":1731449325,"current_range_meters":36000,"station_id":"ce4bhb12rcd13ifvqem0","pricing_plan_id":"cebpf4jnsgd1na2vs0mg"},{"bike_id":"65715c3f-614c-464f-af5f-e10124002dd8","system_id":"levelo_inurba_marseille","lat":43.31528,"lon":5.38029,"is_reserved":false,"is_disabled":false,"rental_uris":{"android":"levelo://app?vid=65715c3f-614c-464f-af5f-e10124002dd8","ios":"levelo://app?vid=65715c3f-614c-464f-af5f-e10124002dd8"},"vehicle_type_id":"4","last_reported":1731449325,"current_range_meters":39200,"station_id":"ce4bhsp2rcd13ifvqi50","pricing_plan_id":"cebpf4jnsgd1na2vs0mg"},{"bike_id":"22e180e6-24f2-4ab6-80da-3b2e910228b6","system_id":"levelo_inurba_marseille","lat":43.30101,"lon":5.39084,"is_reserved":false,"is_disabled":false,"rental_uris":{"android":"levelo://app?vid=22e180e6-24f2-4ab6-80da-3b2e910228b6","ios":"levelo://app?vid=22e180e6-24f2-4ab6-80da-3b2e910228b6"},"vehicle_type_id":"4","last_reported":1731449325,"current_range_meters":22800,"station_id":"ce4bh192rcd13ifvqdb0","pricing_plan_id":"cebpf4jnsgd1na2vs0mg"},{"bike_id":"774672eb-4393-47f1-bc59-019c2d13728f","system_id":"levelo_inurba_marseille","lat":43.28617,"lon":5.35099,"is_reserved":false,"is_disabled":false,"rental_uris":{"android":"levelo://app?vid=774672eb-4393-47f1-bc59-019c2d13728f","ios":"levelo://app?vid=774672eb-4393-47f1-bc59-019c2d13728f"},"vehicle_type_id":"4","last_reported":1731449325,"current_range_meters":7200,"station_id":"ce4bhch2rcd13ifvqeug","pricing_plan_id":"cebpf4jnsgd1na2vs0mg"},{"bike_id":"00090ebe-df58-4cfb-a1b3-37deebdb9913","system_id":"levelo_inurba_marseille","lat":43.28965,"lon":5.35777,"is_reserved":false,"is_disabled":false,"rental_uris":{"android":"levelo://app?vid=00090ebe-df58-4cfb-a1b3-37deebdb9913","ios":"levelo://app?vid=00090ebe-df58-4cfb-a1b3-37deebdb9913"},"vehicle_type_id":"4","last_reported":1731449325,"current_range_meters":28000,"station_id":"","pricing_plan_id":"cebpf4jnsgd1na2vs0mg"},{"bike_id":"66666f45-6562-4a25-905a-788c606fb154","system_id":"levelo_inurba_marseille","lat":43.27913,"lon":5.39585,"is_reserved":false,"is_disabled":false,"rental_uris":{"android":"levelo://app?vid=66666f45-6562-4a25-905a-788c606fb154","ios":"levelo://app?vid=66666f45-6562-4a25-905a-788c606fb154"},"vehicle_type_id":"4","last_reported":1731449325,"current_range_meters":16800,"station_id":"ce4bhf92rcd13ifvqf40","pricing_plan_id":"cebpf4jnsgd1na2vs0mg"},{"bike_id":"6c33d6fe-bec3-4f6f-b5ca-47ffb024b8ed","system_id":"levelo_inurba_marseille","lat":43.29518,"lon":5.39396,"is_reserved":false,"is_disabled":false,"rental_uris":{"android":"levelo://app?vid=6c33d6fe-bec3-4f6f-b5ca-47ffb024b8ed","ios":"levelo://app?vid=6c33d6fe-bec3-4f6f-b5ca-47ffb024b8ed"},"vehicle_type_id":"4","last_reported":1731449325,"current_range_meters":22000,"station_id":"ce4bh292rcd13ifvqdf0","pricing_plan_id":"cebpf4jnsgd1na2vs0mg"},{"bike_id":"02a3f1fa-1b00-4bb2-8845-d89d50875ff5","system_id":"levelo_inurba_marseille","lat":43.32368,"lon":5.38874,"is_reserved":false,"is_disabled":false,"rental_uris":{"android":"levelo://app?vid=02a3f1fa-1b00-4bb2-8845-d89d50875ff5","ios":"levelo://app?vid=02a3f1fa-1b00-4bb2-8845-d89d50875ff5"},"vehicle_type_id":"4","last_reported":1731449325,"current_range_meters":35600,"station_id":"ce4bhqp2rcd13ifvqhog","pricing_plan_id":"cebpf4jnsgd1na2vs0mg"},{"bike_id":"fa2fbfb0-8973-4136-96f6-f1390e896236","system_id":"levelo_inurba_marseille","lat":43.29523,"lon":5.39398,"is_reserved":false,"is_disabled":false,"rental_uris":{"android":"levelo://app?vid=fa2fbfb0-8973-4136-96f6-f1390e896236","ios":"levelo://app?vid=fa2fbfb0-8973-4136-96f6-f1390e896236"},"vehicle_type_id":"4","last_reported":1731449325,"current_range_meters":28000,"station_id":"ce4bh292rcd13ifvqdf0","pricing_plan_id":"cebpf4jnsgd1na2vs0mg"},{"bike_id":"91396e2c-9f64-4b07-9603-7237ff652da5","system_id":"levelo_inurba_marseille","lat":43.2815,"lon":5.42633,"is_reserved":false,"is_disabled":false,"rental_uris":{"android":"levelo://app?vid=91396e2c-9f64-4b07-9603-7237ff652da5","ios":"levelo://app?vid=91396e2c-9f64-4b07-9603-7237ff652da5"},"vehicle_type_id":"4","last_reported":1731449325,"current_range_meters":36400,"station_id":"ce4bhnh2rcd13ifvqgug","pricing_plan_id":"cebpf4jnsgd1na2vs0mg"},{"bike_id":"3fc8e131-ee97-4bd0-9956-4d476a1f6edb","system_id":"levelo_inurba_marseille","lat":43.27911,"lon":5.39576,"is_reserved":false,"is_disabled":false,"rental_uris":{"android":"levelo://app?vid=3fc8e131-ee97-4bd0-9956-4d476a1f6edb","ios":"levelo://app?vid=3fc8e131-ee97-4bd0-9956-4d476a1f6edb"},"vehicle_type_id":"4","last_reported":1731449325,"current_range_meters":19600,"station_id":"ce4bhf92rcd13ifvqf40","pricing_plan_id":"cebpf4jnsgd1na2vs0mg"},{"bike_id":"23371319-3326-4e94-b694-68f01aa3521f","system_id":"levelo_inurba_marseille","lat":43.337444,"lon":5.374475,"is_reserved":false,"is_disabled":false,"rental_uris":{"android":"levelo://app?vid=23371319-3326-4e94-b694-68f01aa3521f","ios":"levelo://app?vid=23371319-3326-4e94-b694-68f01aa3521f"},"vehicle_type_id":"4","last_reported":1731449325,"current_range_meters":36000,"station_id":"","pricing_plan_id":"cebpf4jnsgd1na2vs0mg"},{"bike_id":"e269129c-da8e-47c2-b65c-08eed86bffb7","system_id":"levelo_inurba_marseille","lat":43.32541,"lon":5.41439,"is_reserved":false,"is_disabled":false,"rental_uris":{"android":"levelo://app?vid=e269129c-da8e-47c2-b65c-08eed86bffb7","ios":"levelo://app?vid=e269129c-da8e-47c2-b65c-08eed86bffb7"},"vehicle_type_id":"4","last_reported":1731449325,"current_range_meters":38000,"station_id":"ce4bhq12rcd13ifvqhhg","pricing_plan_id":"cebpf4jnsgd1na2vs0mg"},{"bike_id":"08507303-2ffe-4e00-a78b-5980b62c7353","system_id":"levelo_inurba_marseille","lat":43.30547,"lon":5.38432,"is_reserved":false,"is_disabled":false,"rental_uris":{"android":"levelo://app?vid=08507303-2ffe-4e00-a78b-5980b62c7353","ios":"levelo://app?vid=08507303-2ffe-4e00-a78b-5980b62c7353"},"vehicle_type_id":"4","last_reported":1731449325,"current_range_meters":37600,"station_id":"ce4bgg92rcd13ifvqb30","pricing_plan_id":"cebpf4jnsgd1na2vs0mg"},{"bike_id":"a93d8b68-be2e-4d7d-bd53-815af0cfe36b","system_id":"levelo_inurba_marseille","lat":43.2718,"lon":5.40988,"is_reserved":false,"is_disabled":false,"rental_uris":{"android":"levelo://app?vid=a93d8b68-be2e-4d7d-bd53-815af0cfe36b","ios":"levelo://app?vid=a93d8b68-be2e-4d7d-bd53-815af0cfe36b"},"vehicle_type_id":"4","last_reported":1731449325,"current_range_meters":8800,"station_id":"ce4bhl12rcd13ifvqgf0","pricing_plan_id":"cebpf4jnsgd1na2vs0mg"},{"bike_id":"56413b8d-93b3-48ae-b61f-0009617aa94a","system_id":"levelo_inurba_marseille","lat":43.25725,"lon":5.4111,"is_reserved":false,"is_disabled":false,"rental_uris":{"android":"levelo://app?vid=56413b8d-93b3-48ae-b61f-0009617aa94a","ios":"levelo://app?vid=56413b8d-93b3-48ae-b61f-0009617aa94a"},"vehicle_type_id":"4","last_reported":1731449325,"current_range_meters":39200,"station_id":"ce4bhkp2rcd13ifvqgd0","pricing_plan_id":"cebpf4jnsgd1na2vs0mg"},{"bike_id":"f6ec8717-1c2c-4c9c-90c5-29827b3ed065","system_id":"levelo_inurba_marseille","lat":43.28851,"lon":5.35847,"is_reserved":false,"is_disabled":false,"rental_uris":{"android":"levelo://app?vid=f6ec8717-1c2c-4c9c-90c5-29827b3ed065","ios":"levelo://app?vid=f6ec8717-1c2c-4c9c-90c5-29827b3ed065"},"vehicle_type_id":"4","last_reported":1731449325,"current_range_meters":38000,"station_id":"ce4bhb12rcd13ifvqem0","pricing_plan_id":"cebpf4jnsgd1na2vs0mg"},{"bike_id":"6e44a983-c69e-4752-a7d6-8eff9ede73c4","system_id":"levelo_inurba_marseille","lat":43.29621,"lon":5.37153,"is_reserved":false,"is_disabled":false,"rental_uris":{"android":"levelo://app?vid=6e44a983-c69e-4752-a7d6-8eff9ede73c4","ios":"levelo://app?vid=6e44a983-c69e-4752-a7d6-8eff9ede73c4"},"vehicle_type_id":"4","last_reported":1731449325,"current_range_meters":17200,"station_id":"ce4bgnh2rcd13ifvqc0g","pricing_plan_id":"cebpf4jnsgd1na2vs0mg"},{"bike_id":"468eed61-26ce-4f5c-b6ba-6d4aa7a408b5","system_id":"levelo_inurba_marseille","lat":43.29228,"lon":5.36077,"is_reserved":false,"is_disabled":false,"rental_uris":{"android":"levelo://app?vid=468eed61-26ce-4f5c-b6ba-6d4aa7a408b5","ios":"levelo://app?vid=468eed61-26ce-4f5c-b6ba-6d4aa7a408b5"},"vehicle_type_id":"4","last_reported":1731449325,"current_range_meters":35600,"station_id":"ce4bhbh2rcd13ifvqeqg","pricing_plan_id":"cebpf4jnsgd1na2vs0mg"},{"bike_id":"09077a57-50a1-44fb-b69b-72cc0c96f899","system_id":"levelo_inurba_marseille","lat":43.30237,"lon":5.40057,"is_reserved":false,"is_disabled":false,"rental_uris":{"android":"levelo://app?vid=09077a57-50a1-44fb-b69b-72cc0c96f899","ios":"levelo://app?vid=09077a57-50a1-44fb-b69b-72cc0c96f899"},"vehicle_type_id":"4","last_reported":1731449325,"current_range_meters":6400,"station_id":"ce4bgvh2rcd13ifvqcs0","pricing_plan_id":"cebpf4jnsgd1na2vs0mg"},{"bike_id":"4abc47d7-7a2c-4582-8d48-8fc4ad8eb42d","system_id":"levelo_inurba_marseille","lat":43.23191,"lon":5.35547,"is_reserved":false,"is_disabled":false,"rental_uris":{"android":"levelo://app?vid=4abc47d7-7a2c-4582-8d48-8fc4ad8eb42d","ios":"levelo://app?vid=4abc47d7-7a2c-4582-8d48-8fc4ad8eb42d"},"vehicle_type_id":"4","last_reported":1731449325,"current_range_meters":26800,"station_id":"ce4bhu92rcd13ifvqi70","pricing_plan_id":"cebpf4jnsgd1na2vs0mg"},{"bike_id":"a44bcfe8-777d-45fe-a1bd-e3af260423ba","system_id":"levelo_inurba_marseille","lat":43.30354,"lon":5.41882,"is_reserved":false,"is_disabled":false,"rental_uris":{"android":"levelo://app?vid=a44bcfe8-777d-45fe-a1bd-e3af260423ba","ios":"levelo://app?vid=a44bcfe8-777d-45fe-a1bd-e3af260423ba"},"vehicle_type_id":"4","last_reported":1731449325,"current_range_meters":28000,"station_id":"ce4bhop2rcd13ifvqh7g","pricing_plan_id":"cebpf4jnsgd1na2vs0mg"},{"bike_id":"fec10551-f379-49ba-9ca2-8a635f99a617","system_id":"levelo_inurba_marseille","lat":43.337444,"lon":5.374475,"is_reserved":false,"is_disabled":false,"rental_uris":{"android":"levelo://app?vid=fec10551-f379-49ba-9ca2-8a635f99a617","ios":"levelo://app?vid=fec10551-f379-49ba-9ca2-8a635f99a617"},"vehicle_type_id":"4","last_reported":1731449325,"current_range_meters":37600,"station_id":"","pricing_plan_id":"cebpf4jnsgd1na2vs0mg"},{"bike_id":"979b0182-b0c0-414a-ac99-0bb48afc867b","system_id":"levelo_inurba_marseille","lat":43.27408,"lon":5.38951,"is_reserved":false,"is_disabled":false,"rental_uris":{"android":"levelo://app?vid=979b0182-b0c0-414a-ac99-0bb48afc867b","ios":"levelo://app?vid=979b0182-b0c0-414a-ac99-0bb48afc867b"},"vehicle_type_id":"4","last_reported":1731449325,"current_range_meters":12000,"station_id":"","pricing_plan_id":"cebpf4jnsgd1na2vs0mg"},{"bike_id":"318acf42-cb32-4925-bb0d-04bc5dbd792c","system_id":"levelo_inurba_marseille","lat":43.31721,"lon":5.42393,"is_reserved":false,"is_disabled":false,"rental_uris":{"android":"levelo://app?vid=318acf42-cb32-4925-bb0d-04bc5dbd792c","ios":"levelo://app?vid=318acf42-cb32-4925-bb0d-04bc5dbd792c"},"vehicle_type_id":"4","last_reported":1731449325,"current_range_meters":33600,"station_id":"ce4bhp92rcd13ifvqhbg","pricing_plan_id":"cebpf4jnsgd1na2vs0mg"},{"bike_id":"9bcabaea-e159-41bf-9c59-27112db6b98d","system_id":"levelo_inurba_marseille","lat":43.28938,"lon":5.36631,"is_reserved":false,"is_disabled":false,"rental_uris":{"android":"levelo://app?vid=9bcabaea-e159-41bf-9c59-27112db6b98d","ios":"levelo://app?vid=9bcabaea-e159-41bf-9c59-27112db6b98d"},"vehicle_type_id":"4","last_reported":1731449325,"current_range_meters":39200,"station_id":"ce4bhap2rcd13ifvqek0","pricing_plan_id":"cebpf4jnsgd1na2vs0mg"},{"bike_id":"4c5aaee5-daeb-4400-a387-93dc2eb5793d","system_id":"levelo_inurba_marseille","lat":43.308,"lon":5.38157,"is_reserved":false,"is_disabled":false,"rental_uris":{"android":"levelo://app?vid=4c5aaee5-daeb-4400-a387-93dc2eb5793d","ios":"levelo://app?vid=4c5aaee5-daeb-4400-a387-93dc2eb5793d"},"vehicle_type_id":"4","last_reported":1731449325,"current_range_meters":39200,"station_id":"ce4bgt12rcd13ifvqce0","pricing_plan_id":"cebpf4jnsgd1na2vs0mg"},{"bike_id":"9be58879-9b4f-48bf-864f-f319b0546a88","system_id":"levelo_inurba_marseille","lat":43.23967,"lon":5.36629,"is_reserved":false,"is_disabled":false,"rental_uris":{"android":"levelo://app?vid=9be58879-9b4f-48bf-864f-f319b0546a88","ios":"levelo://app?vid=9be58879-9b4f-48bf-864f-f319b0546a88"},"vehicle_type_id":"4","last_reported":1731449325,"current_range_meters":38400,"station_id":"ce4bhi12rcd13ifvqfp0","pricing_plan_id":"cebpf4jnsgd1na2vs0mg"},{"bike_id":"bd51d689-808b-448d-80ee-6cf31bc00c97","system_id":"levelo_inurba_marseille","lat":43.306946,"lon":5.382558,"is_reserved":false,"is_disabled":false,"rental_uris":{"android":"levelo://app?vid=bd51d689-808b-448d-80ee-6cf31bc00c97","ios":"levelo://app?vid=bd51d689-808b-448d-80ee-6cf31bc00c97"},"vehicle_type_id":"4","last_reported":1731449325,"current_range_meters":28000,"station_id":"ce4bgkh2rcd13ifvqbk0","pricing_plan_id":"cebpf4jnsgd1na2vs0mg"},{"bike_id":"997e8ac0-1d46-4817-95d5-b61546cadfd8","system_id":"levelo_inurba_marseille","lat":43.22934,"lon":5.35382,"is_reserved":false,"is_disabled":false,"rental_uris":{"android":"levelo://app?vid=997e8ac0-1d46-4817-95d5-b61546cadfd8","ios":"levelo://app?vid=997e8ac0-1d46-4817-95d5-b61546cadfd8"},"vehicle_type_id":"4","last_reported":1731449325,"current_range_meters":38000,"station_id":"cpo3532slgdg3j2ikp40","pricing_plan_id":"cebpf4jnsgd1na2vs0mg"},{"bike_id":"8d37a234-729d-41b4-af36-39effabcf73b","system_id":"levelo_inurba_marseille","lat":43.28665,"lon":5.36347,"is_reserved":false,"is_disabled":false,"rental_uris":{"android":"levelo://app?vid=8d37a234-729d-41b4-af36-39effabcf73b","ios":"levelo://app?vid=8d37a234-729d-41b4-af36-39effabcf73b"},"vehicle_type_id":"4","last_reported":1731449325,"current_range_meters":25200,"station_id":"ce4bhah2rcd13ifvqej0","pricing_plan_id":"cebpf4jnsgd1na2vs0mg"},{"bike_id":"1826be12-7e84-4d96-b7a3-56cbb24a0206","system_id":"levelo_inurba_marseille","lat":43.30249,"lon":5.40079,"is_reserved":false,"is_disabled":false,"rental_uris":{"android":"levelo://app?vid=1826be12-7e84-4d96-b7a3-56cbb24a0206","ios":"levelo://app?vid=1826be12-7e84-4d96-b7a3-56cbb24a0206"},"vehicle_type_id":"4","last_reported":1731449325,"current_range_meters":32000,"station_id":"ce4bgvh2rcd13ifvqcs0","pricing_plan_id":"cebpf4jnsgd1na2vs0mg"},{"bike_id":"05b0362e-d441-4e84-b276-7305f908b473","system_id":"levelo_inurba_marseille","lat":43.25502,"lon":5.3765,"is_reserved":false,"is_disabled":false,"rental_uris":{"android":"levelo://app?vid=05b0362e-d441-4e84-b276-7305f908b473","ios":"levelo://app?vid=05b0362e-d441-4e84-b276-7305f908b473"},"vehicle_type_id":"4","last_reported":1731449325,"current_range_meters":22800,"station_id":"ce4bhh12rcd13ifvqff0","pricing_plan_id":"cebpf4jnsgd1na2vs0mg"},{"bike_id":"9c297363-88e6-4271-a4fa-e7aca7f99792","system_id":"levelo_inurba_marseille","lat":43.25001,"lon":5.38921,"is_reserved":false,"is_disabled":false,"rental_uris":{"android":"levelo://app?vid=9c297363-88e6-4271-a4fa-e7aca7f99792","ios":"levelo://app?vid=9c297363-88e6-4271-a4fa-e7aca7f99792"},"vehicle_type_id":"4","last_reported":1731449325,"current_range_meters":39200,"station_id":"ce4bhgp2rcd13ifvqfd0","pricing_plan_id":"cebpf4jnsgd1na2vs0mg"},{"bike_id":"b8b354cb-22e5-4485-9c06-28e725ba2368","system_id":"levelo_inurba_marseille","lat":43.34142,"lon":5.40902,"is_reserved":false,"is_disabled":false,"rental_uris":{"android":"levelo://app?vid=b8b354cb-22e5-4485-9c06-28e725ba2368","ios":"levelo://app?vid=b8b354cb-22e5-4485-9c06-28e725ba2368"},"vehicle_type_id":"4","last_reported":1731449325,"current_range_meters":20400,"station_id":"ce4bhqh2rcd13ifvqhlg","pricing_plan_id":"cebpf4jnsgd1na2vs0mg"},{"bike_id":"56cd5555-5691-44a6-b515-7c9485fe6b17","system_id":"levelo_inurba_marseille","lat":43.29551,"lon":5.42288,"is_reserved":false,"is_disabled":false,"rental_uris":{"android":"levelo://app?vid=56cd5555-5691-44a6-b515-7c9485fe6b17","ios":"levelo://app?vid=56cd5555-5691-44a6-b515-7c9485fe6b17"},"vehicle_type_id":"4","last_reported":1731449325,"current_range_meters":38000,"station_id":"ce4bhph2rcd13ifvqhdg","pricing_plan_id":"cebpf4jnsgd1na2vs0mg"},{"bike_id":"fa6af7c8-ac01-422b-a4fb-fe688220bd82","system_id":"levelo_inurba_marseille","lat":43.291962,"lon":5.385193,"is_reserved":false,"is_disabled":false,"rental_uris":{"android":"levelo://app?vid=fa6af7c8-ac01-422b-a4fb-fe688220bd82","ios":"levelo://app?vid=fa6af7c8-ac01-422b-a4fb-fe688220bd82"},"vehicle_type_id":"4","last_reported":1731449325,"current_range_meters":32000,"station_id":"","pricing_plan_id":"cebpf4jnsgd1na2vs0mg"},{"bike_id":"eb4ec53d-9a3a-437f-9008-a7fe30c0512b","system_id":"levelo_inurba_marseille","lat":43.30888,"lon":5.39648,"is_reserved":false,"is_disabled":false,"rental_uris":{"android":"levelo://app?vid=eb4ec53d-9a3a-437f-9008-a7fe30c0512b","ios":"levelo://app?vid=eb4ec53d-9a3a-437f-9008-a7fe30c0512b"},"vehicle_type_id":"4","last_reported":1731449325,"current_range_meters":39200,"station_id":"ce4bh012rcd13ifvqcv0","pricing_plan_id":"cebpf4jnsgd1na2vs0mg"},{"bike_id":"b5ccbd96-aaea-451a-8037-751f3bf2316a","system_id":"levelo_inurba_marseille","lat":43.24649,"lon":5.38888,"is_reserved":false,"is_disabled":false,"rental_uris":{"android":"levelo://app?vid=b5ccbd96-aaea-451a-8037-751f3bf2316a","ios":"levelo://app?vid=b5ccbd96-aaea-451a-8037-751f3bf2316a"},"vehicle_type_id":"4","last_reported":1731449325,"current_range_meters":27600,"station_id":"ce4bhg12rcd13ifvqf60","pricing_plan_id":"cebpf4jnsgd1na2vs0mg"},{"bike_id":"0b73a88d-5384-4ff7-91ab-9490fe9c1ac5","system_id":"levelo_inurba_marseille","lat":43.29794,"lon":5.39341,"is_reserved":false,"is_disabled":false,"rental_uris":{"android":"levelo://app?vid=0b73a88d-5384-4ff7-91ab-9490fe9c1ac5","ios":"levelo://app?vid=0b73a88d-5384-4ff7-91ab-9490fe9c1ac5"},"vehicle_type_id":"4","last_reported":1731449325,"current_range_meters":23200,"station_id":"chh1huq6cuj3fo74tm60","pricing_plan_id":"cebpf4jnsgd1na2vs0mg"},{"bike_id":"e2aa0da9-7ac6-4373-872b-11ca3535b53f","system_id":"levelo_inurba_marseille","lat":43.29895,"lon":5.4367,"is_reserved":false,"is_disabled":false,"rental_uris":{"android":"levelo://app?vid=e2aa0da9-7ac6-4373-872b-11ca3535b53f","ios":"levelo://app?vid=e2aa0da9-7ac6-4373-872b-11ca3535b53f"},"vehicle_type_id":"4","last_reported":1731449325,"current_range_meters":20400,"station_id":"ce4bhpp2rcd13ifvqhfg","pricing_plan_id":"cebpf4jnsgd1na2vs0mg"},{"bike_id":"d8c7a123-f483-452f-a149-dd3e1c185dbb","system_id":"levelo_inurba_marseille","lat":43.29283,"lon":5.4011,"is_reserved":false,"is_disabled":false,"rental_uris":{"android":"levelo://app?vid=d8c7a123-f483-452f-a149-dd3e1c185dbb","ios":"levelo://app?vid=d8c7a123-f483-452f-a149-dd3e1c185dbb"},"vehicle_type_id":"4","last_reported":1731449325,"current_range_meters":12400,"station_id":"ce4bh312rcd13ifvqdk0","pricing_plan_id":"cebpf4jnsgd1na2vs0mg"},{"bike_id":"1d2fdf37-8550-4501-9665-b3a002de98ca","system_id":"levelo_inurba_marseille","lat":43.29789,"lon":5.39356,"is_reserved":false,"is_disabled":false,"rental_uris":{"android":"levelo://app?vid=1d2fdf37-8550-4501-9665-b3a002de98ca","ios":"levelo://app?vid=1d2fdf37-8550-4501-9665-b3a002de98ca"},"vehicle_type_id":"4","last_reported":1731449325,"current_range_meters":24400,"station_id":"chh1huq6cuj3fo74tm60","pricing_plan_id":"cebpf4jnsgd1na2vs0mg"},{"bike_id":"f7be93c3-e6a3-40ba-94d0-3df20ea7a045","system_id":"levelo_inurba_marseille","lat":43.23191,"lon":5.39983,"is_reserved":false,"is_disabled":false,"rental_uris":{"android":"levelo://app?vid=f7be93c3-e6a3-40ba-94d0-3df20ea7a045","ios":"levelo://app?vid=f7be93c3-e6a3-40ba-94d0-3df20ea7a045"},"vehicle_type_id":"4","last_reported":1731449325,"current_range_meters":18000,"station_id":"ce4bhn12rcd13ifvqgqg","pricing_plan_id":"cebpf4jnsgd1na2vs0mg"},{"bike_id":"68eed5be-5a40-40b8-a434-15f41c40e3e9","system_id":"levelo_inurba_marseille","lat":43.3149,"lon":5.37309,"is_reserved":false,"is_disabled":false,"rental_uris":{"android":"levelo://app?vid=68eed5be-5a40-40b8-a434-15f41c40e3e9","ios":"levelo://app?vid=68eed5be-5a40-40b8-a434-15f41c40e3e9"},"vehicle_type_id":"4","last_reported":1731449325,"current_range_meters":38800,"station_id":"ce4bgt12rcd13ifvqcd0","pricing_plan_id":"cebpf4jnsgd1na2vs0mg"},{"bike_id":"f1ec6dc1-c6ca-4f26-bab0-d55eeb58b26a","system_id":"levelo_inurba_marseille","lat":43.3371,"lon":5.39189,"is_reserved":false,"is_disabled":false,"rental_uris":{"android":"levelo://app?vid=f1ec6dc1-c6ca-4f26-bab0-d55eeb58b26a","ios":"levelo://app?vid=f1ec6dc1-c6ca-4f26-bab0-d55eeb58b26a"},"vehicle_type_id":"4","last_reported":1731449325,"current_range_meters":39200,"station_id":"ce4bhr92rcd13ifvqhsg","pricing_plan_id":"cebpf4jnsgd1na2vs0mg"},{"bike_id":"a0b547d7-3020-4967-89a5-6bd75b09c0cb","system_id":"levelo_inurba_marseille","lat":43.31371,"lon":5.38497,"is_reserved":false,"is_disabled":false,"rental_uris":{"android":"levelo://app?vid=a0b547d7-3020-4967-89a5-6bd75b09c0cb","ios":"levelo://app?vid=a0b547d7-3020-4967-89a5-6bd75b09c0cb"},"vehicle_type_id":"4","last_reported":1731449325,"current_range_meters":38400,"station_id":"ce4bgt92rcd13ifvqcf0","pricing_plan_id":"cebpf4jnsgd1na2vs0mg"},{"bike_id":"50ec9a72-2d48-4182-b452-21b17e2354cd","system_id":"levelo_inurba_marseille","lat":43.308,"lon":5.43524,"is_reserved":false,"is_disabled":false,"rental_uris":{"android":"levelo://app?vid=50ec9a72-2d48-4182-b452-21b17e2354cd","ios":"levelo://app?vid=50ec9a72-2d48-4182-b452-21b17e2354cd"},"vehicle_type_id":"4","last_reported":1731449325,"current_range_meters":4400,"station_id":"ce4bhph2rcd13ifvqheg","pricing_plan_id":"cebpf4jnsgd1na2vs0mg"},{"bike_id":"de654265-0d80-4f4f-9671-79f3c4312a80","system_id":"levelo_inurba_marseille","lat":43.30651,"lon":5.40089,"is_reserved":false,"is_disabled":false,"rental_uris":{"android":"levelo://app?vid=de654265-0d80-4f4f-9671-79f3c4312a80","ios":"levelo://app?vid=de654265-0d80-4f4f-9671-79f3c4312a80"},"vehicle_type_id":"4","last_reported":1731449325,"current_range_meters":33200,"station_id":"ce4bh112rcd13ifvqda0","pricing_plan_id":"cebpf4jnsgd1na2vs0mg"},{"bike_id":"449db091-0de4-40ee-9460-262ac1df43fb","system_id":"levelo_inurba_marseille","lat":43.28664,"lon":5.36351,"is_reserved":false,"is_disabled":false,"rental_uris":{"android":"levelo://app?vid=449db091-0de4-40ee-9460-262ac1df43fb","ios":"levelo://app?vid=449db091-0de4-40ee-9460-262ac1df43fb"},"vehicle_type_id":"4","last_reported":1731449325,"current_range_meters":25200,"station_id":"ce4bhah2rcd13ifvqej0","pricing_plan_id":"cebpf4jnsgd1na2vs0mg"},{"bike_id":"428f796d-85f5-406a-8832-33d370c96797","system_id":"levelo_inurba_marseille","lat":43.308833,"lon":5.3964,"is_reserved":false,"is_disabled":false,"rental_uris":{"android":"levelo://app?vid=428f796d-85f5-406a-8832-33d370c96797","ios":"levelo://app?vid=428f796d-85f5-406a-8832-33d370c96797"},"vehicle_type_id":"4","last_reported":1731449325,"current_range_meters":29600,"station_id":"ce4bh012rcd13ifvqcv0","pricing_plan_id":"cebpf4jnsgd1na2vs0mg"},{"bike_id":"9be06787-203e-47f2-9a11-b20300f2d806","system_id":"levelo_inurba_marseille","lat":43.27374,"lon":5.36259,"is_reserved":false,"is_disabled":false,"rental_uris":{"android":"levelo://app?vid=9be06787-203e-47f2-9a11-b20300f2d806","ios":"levelo://app?vid=9be06787-203e-47f2-9a11-b20300f2d806"},"vehicle_type_id":"4","last_reported":1731449325,"current_range_meters":38800,"station_id":"ce4bhbh2rcd13ifvqeo0","pricing_plan_id":"cebpf4jnsgd1na2vs0mg"},{"bike_id":"e20e371e-0ac8-4f8a-8e0a-12e9bf345f5e","system_id":"levelo_inurba_marseille","lat":43.27069,"lon":5.42281,"is_reserved":false,"is_disabled":false,"rental_uris":{"android":"levelo://app?vid=e20e371e-0ac8-4f8a-8e0a-12e9bf345f5e","ios":"levelo://app?vid=e20e371e-0ac8-4f8a-8e0a-12e9bf345f5e"},"vehicle_type_id":"4","last_reported":1731449325,"current_range_meters":29600,"station_id":"ce4bhk92rcd13ifvqgb0","pricing_plan_id":"cebpf4jnsgd1na2vs0mg"},{"bike_id":"9230f939-409f-42b5-a7a7-bcf8003da7db","system_id":"levelo_inurba_marseille","lat":43.29515,"lon":5.39032,"is_reserved":false,"is_disabled":false,"rental_uris":{"android":"levelo://app?vid=9230f939-409f-42b5-a7a7-bcf8003da7db","ios":"levelo://app?vid=9230f939-409f-42b5-a7a7-bcf8003da7db"},"vehicle_type_id":"4","last_reported":1731449325,"current_range_meters":31200,"station_id":"ce4bh3p2rcd13ifvqdp0","pricing_plan_id":"cebpf4jnsgd1na2vs0mg"},{"bike_id":"b1b0efcd-56c6-4c0d-9823-5e2861adb3b4","system_id":"levelo_inurba_marseille","lat":43.3266,"lon":5.40989,"is_reserved":false,"is_disabled":false,"rental_uris":{"android":"levelo://app?vid=b1b0efcd-56c6-4c0d-9823-5e2861adb3b4","ios":"levelo://app?vid=b1b0efcd-56c6-4c0d-9823-5e2861adb3b4"},"vehicle_type_id":"4","last_reported":1731449325,"current_range_meters":25200,"station_id":"ce4bhpp2rcd13ifvqhgg","pricing_plan_id":"cebpf4jnsgd1na2vs0mg"},{"bike_id":"a7fa391a-5e9a-4306-ab89-3411e5df4996","system_id":"levelo_inurba_marseille","lat":43.33014,"lon":5.39023,"is_reserved":false,"is_disabled":false,"rental_uris":{"android":"levelo://app?vid=a7fa391a-5e9a-4306-ab89-3411e5df4996","ios":"levelo://app?vid=a7fa391a-5e9a-4306-ab89-3411e5df4996"},"vehicle_type_id":"4","last_reported":1731449325,"current_range_meters":36800,"station_id":"ce4bhr92rcd13ifvqhrg","pricing_plan_id":"cebpf4jnsgd1na2vs0mg"},{"bike_id":"155e53fe-76ae-4323-9089-2d7346669afd","system_id":"levelo_inurba_marseille","lat":43.30133,"lon":5.39873,"is_reserved":false,"is_disabled":false,"rental_uris":{"android":"levelo://app?vid=155e53fe-76ae-4323-9089-2d7346669afd","ios":"levelo://app?vid=155e53fe-76ae-4323-9089-2d7346669afd"},"vehicle_type_id":"4","last_reported":1731449325,"current_range_meters":32000,"station_id":"ce4bh0h2rcd13ifvqd40","pricing_plan_id":"cebpf4jnsgd1na2vs0mg"},{"bike_id":"449d41c1-5821-44dc-accc-56f9fca288a5","system_id":"levelo_inurba_marseille","lat":43.30143,"lon":5.39868,"is_reserved":false,"is_disabled":false,"rental_uris":{"android":"levelo://app?vid=449d41c1-5821-44dc-accc-56f9fca288a5","ios":"levelo://app?vid=449d41c1-5821-44dc-accc-56f9fca288a5"},"vehicle_type_id":"4","last_reported":1731449325,"current_range_meters":25200,"station_id":"ce4bh0h2rcd13ifvqd40","pricing_plan_id":"cebpf4jnsgd1na2vs0mg"},{"bike_id":"990ab432-3f99-4afb-b75f-187c85146d5b","system_id":"levelo_inurba_marseille","lat":43.29933,"lon":5.36542,"is_reserved":false,"is_disabled":false,"rental_uris":{"android":"levelo://app?vid=990ab432-3f99-4afb-b75f-187c85146d5b","ios":"levelo://app?vid=990ab432-3f99-4afb-b75f-187c85146d5b"},"vehicle_type_id":"4","last_reported":1731449325,"current_range_meters":24400,"station_id":"ce4bgm92rcd13ifvqbr0","pricing_plan_id":"cebpf4jnsgd1na2vs0mg"},{"bike_id":"db011a98-5d5e-4b2c-b0fd-4b0f8f58bd17","system_id":"levelo_inurba_marseille","lat":43.23197,"lon":5.39963,"is_reserved":false,"is_disabled":false,"rental_uris":{"android":"levelo://app?vid=db011a98-5d5e-4b2c-b0fd-4b0f8f58bd17","ios":"levelo://app?vid=db011a98-5d5e-4b2c-b0fd-4b0f8f58bd17"},"vehicle_type_id":"4","last_reported":1731449325,"current_range_meters":26800,"station_id":"ce4bhn12rcd13ifvqgqg","pricing_plan_id":"cebpf4jnsgd1na2vs0mg"},{"bike_id":"51de079a-4713-4220-aef5-8906afb2ba42","system_id":"levelo_inurba_marseille","lat":43.28106,"lon":5.3784,"is_reserved":false,"is_disabled":false,"rental_uris":{"android":"levelo://app?vid=51de079a-4713-4220-aef5-8906afb2ba42","ios":"levelo://app?vid=51de079a-4713-4220-aef5-8906afb2ba42"},"vehicle_type_id":"4","last_reported":1731449325,"current_range_meters":35600,"station_id":"ce4bha12rcd13ifvqee0","pricing_plan_id":"cebpf4jnsgd1na2vs0mg"},{"bike_id":"a8343729-18b8-4712-ad1b-6b2c66827b16","system_id":"levelo_inurba_marseille","lat":43.30934,"lon":5.40144,"is_reserved":false,"is_disabled":false,"rental_uris":{"android":"levelo://app?vid=a8343729-18b8-4712-ad1b-6b2c66827b16","ios":"levelo://app?vid=a8343729-18b8-4712-ad1b-6b2c66827b16"},"vehicle_type_id":"4","last_reported":1731449325,"current_range_meters":38800,"station_id":"ce4bgvp2rcd13ifvqct0","pricing_plan_id":"cebpf4jnsgd1na2vs0mg"},{"bike_id":"d3d88389-bd60-4947-8db6-b3fd375e6183","system_id":"levelo_inurba_marseille","lat":43.23955,"lon":5.36626,"is_reserved":false,"is_disabled":false,"rental_uris":{"android":"levelo://app?vid=d3d88389-bd60-4947-8db6-b3fd375e6183","ios":"levelo://app?vid=d3d88389-bd60-4947-8db6-b3fd375e6183"},"vehicle_type_id":"4","last_reported":1731449325,"current_range_meters":36000,"station_id":"ce4bhi12rcd13ifvqfp0","pricing_plan_id":"cebpf4jnsgd1na2vs0mg"},{"bike_id":"78c3522d-5b6e-4e08-b566-8994a5485a38","system_id":"levelo_inurba_marseille","lat":43.2784,"lon":5.39209,"is_reserved":false,"is_disabled":false,"rental_uris":{"android":"levelo://app?vid=78c3522d-5b6e-4e08-b566-8994a5485a38","ios":"levelo://app?vid=78c3522d-5b6e-4e08-b566-8994a5485a38"},"vehicle_type_id":"4","last_reported":1731449325,"current_range_meters":30800,"station_id":"ce4bhjp2rcd13ifvqga0","pricing_plan_id":"cebpf4jnsgd1na2vs0mg"},{"bike_id":"0af8bd21-e00e-4d64-b71f-4124f7ac6c25","system_id":"levelo_inurba_marseille","lat":43.284576,"lon":5.358871,"is_reserved":false,"is_disabled":false,"rental_uris":{"android":"levelo://app?vid=0af8bd21-e00e-4d64-b71f-4124f7ac6c25","ios":"levelo://app?vid=0af8bd21-e00e-4d64-b71f-4124f7ac6c25"},"vehicle_type_id":"4","last_reported":1731449325,"current_range_meters":35600,"station_id":"ce4bhah2rcd13ifvqei0","pricing_plan_id":"cebpf4jnsgd1na2vs0mg"},{"bike_id":"6373b2ec-d5d0-4dc6-be95-a91e32029870","system_id":"levelo_inurba_marseille","lat":43.28107,"lon":5.37838,"is_reserved":false,"is_disabled":false,"rental_uris":{"android":"levelo://app?vid=6373b2ec-d5d0-4dc6-be95-a91e32029870","ios":"levelo://app?vid=6373b2ec-d5d0-4dc6-be95-a91e32029870"},"vehicle_type_id":"4","last_reported":1731449325,"current_range_meters":24800,"station_id":"ce4bha12rcd13ifvqee0","pricing_plan_id":"cebpf4jnsgd1na2vs0mg"},{"bike_id":"6a262d8c-b862-4636-a252-02099ef84214","system_id":"levelo_inurba_marseille","lat":43.33022,"lon":5.39044,"is_reserved":false,"is_disabled":false,"rental_uris":{"android":"levelo://app?vid=6a262d8c-b862-4636-a252-02099ef84214","ios":"levelo://app?vid=6a262d8c-b862-4636-a252-02099ef84214"},"vehicle_type_id":"4","last_reported":1731449325,"current_range_meters":17200,"station_id":"ce4bhr92rcd13ifvqhrg","pricing_plan_id":"cebpf4jnsgd1na2vs0mg"},{"bike_id":"0c903410-46b7-4746-8ed6-27dadde6a6a5","system_id":"levelo_inurba_marseille","lat":43.27891,"lon":5.38025,"is_reserved":false,"is_disabled":false,"rental_uris":{"android":"levelo://app?vid=0c903410-46b7-4746-8ed6-27dadde6a6a5","ios":"levelo://app?vid=0c903410-46b7-4746-8ed6-27dadde6a6a5"},"vehicle_type_id":"4","last_reported":1731449325,"current_range_meters":29600,"station_id":"ce4bhf92rcd13ifvqf50","pricing_plan_id":"cebpf4jnsgd1na2vs0mg"},{"bike_id":"6a7864c7-1043-407c-b1f5-95a83a37e67e","system_id":"levelo_inurba_marseille","lat":43.28405,"lon":5.37522,"is_reserved":false,"is_disabled":false,"rental_uris":{"android":"levelo://app?vid=6a7864c7-1043-407c-b1f5-95a83a37e67e","ios":"levelo://app?vid=6a7864c7-1043-407c-b1f5-95a83a37e67e"},"vehicle_type_id":"4","last_reported":1731449325,"current_range_meters":30400,"station_id":"ce4bh412rcd13ifvqds0","pricing_plan_id":"cebpf4jnsgd1na2vs0mg"},{"bike_id":"91526d85-6d2f-4b0d-b668-d1a556d90682","system_id":"levelo_inurba_marseille","lat":43.319985,"lon":5.381558,"is_reserved":false,"is_disabled":false,"rental_uris":{"android":"levelo://app?vid=91526d85-6d2f-4b0d-b668-d1a556d90682","ios":"levelo://app?vid=91526d85-6d2f-4b0d-b668-d1a556d90682"},"vehicle_type_id":"4","last_reported":1731449325,"current_range_meters":39200,"station_id":"ce4bhr12rcd13ifvqhpg","pricing_plan_id":"cebpf4jnsgd1na2vs0mg"},{"bike_id":"852f8b30-023f-44ea-a674-a7e86bbbc5e7","system_id":"levelo_inurba_marseille","lat":43.33604,"lon":5.41035,"is_reserved":false,"is_disabled":false,"rental_uris":{"android":"levelo://app?vid=852f8b30-023f-44ea-a674-a7e86bbbc5e7","ios":"levelo://app?vid=852f8b30-023f-44ea-a674-a7e86bbbc5e7"},"vehicle_type_id":"4","last_reported":1731449325,"current_range_meters":10000,"station_id":"ce4bhqh2rcd13ifvqhmg","pricing_plan_id":"cebpf4jnsgd1na2vs0mg"},{"bike_id":"385d91d5-d144-4838-b15f-8b4d784f8d86","system_id":"levelo_inurba_marseille","lat":43.31167,"lon":5.38708,"is_reserved":false,"is_disabled":false,"rental_uris":{"android":"levelo://app?vid=385d91d5-d144-4838-b15f-8b4d784f8d86","ios":"levelo://app?vid=385d91d5-d144-4838-b15f-8b4d784f8d86"},"vehicle_type_id":"4","last_reported":1731449325,"current_range_meters":39200,"station_id":"ce4bgv12rcd13ifvqcp0","pricing_plan_id":"cebpf4jnsgd1na2vs0mg"},{"bike_id":"63abf9fe-a99f-4865-bc93-51ad756a23d3","system_id":"levelo_inurba_marseille","lat":43.26682,"lon":5.3827,"is_reserved":false,"is_disabled":false,"rental_uris":{"android":"levelo://app?vid=63abf9fe-a99f-4865-bc93-51ad756a23d3","ios":"levelo://app?vid=63abf9fe-a99f-4865-bc93-51ad756a23d3"},"vehicle_type_id":"4","last_reported":1731449325,"current_range_meters":18800,"station_id":"ce4bhg92rcd13ifvqf90","pricing_plan_id":"cebpf4jnsgd1na2vs0mg"},{"bike_id":"f2e750d4-ad67-4776-8254-7be1a440c5fe","system_id":"levelo_inurba_marseille","lat":43.30803,"lon":5.38163,"is_reserved":false,"is_disabled":false,"rental_uris":{"android":"levelo://app?vid=f2e750d4-ad67-4776-8254-7be1a440c5fe","ios":"levelo://app?vid=f2e750d4-ad67-4776-8254-7be1a440c5fe"},"vehicle_type_id":"4","last_reported":1731449325,"current_range_meters":37600,"station_id":"ce4bgt12rcd13ifvqce0","pricing_plan_id":"cebpf4jnsgd1na2vs0mg"},{"bike_id":"d32cb781-3101-480c-93dd-503a994b5a91","system_id":"levelo_inurba_marseille","lat":43.24668,"lon":5.38153,"is_reserved":false,"is_disabled":false,"rental_uris":{"android":"levelo://app?vid=d32cb781-3101-480c-93dd-503a994b5a91","ios":"levelo://app?vid=d32cb781-3101-480c-93dd-503a994b5a91"},"vehicle_type_id":"4","last_reported":1731449325,"current_range_meters":24400,"station_id":"ce4bhih2rcd13ifvqfr0","pricing_plan_id":"cebpf4jnsgd1na2vs0mg"},{"bike_id":"8e74dac9-2ddd-462c-82f6-a2f7dee5cdbc","system_id":"levelo_inurba_marseille","lat":43.27835,"lon":5.39198,"is_reserved":false,"is_disabled":false,"rental_uris":{"android":"levelo://app?vid=8e74dac9-2ddd-462c-82f6-a2f7dee5cdbc","ios":"levelo://app?vid=8e74dac9-2ddd-462c-82f6-a2f7dee5cdbc"},"vehicle_type_id":"4","last_reported":1731449325,"current_range_meters":34800,"station_id":"ce4bhjp2rcd13ifvqga0","pricing_plan_id":"cebpf4jnsgd1na2vs0mg"},{"bike_id":"7438763c-b765-4d2b-b443-55070a986cbf","system_id":"levelo_inurba_marseille","lat":43.27811,"lon":5.40713,"is_reserved":false,"is_disabled":false,"rental_uris":{"android":"levelo://app?vid=7438763c-b765-4d2b-b443-55070a986cbf","ios":"levelo://app?vid=7438763c-b765-4d2b-b443-55070a986cbf"},"vehicle_type_id":"4","last_reported":1731449325,"current_range_meters":38800,"station_id":"ce4bhnh2rcd13ifvqgtg","pricing_plan_id":"cebpf4jnsgd1na2vs0mg"},{"bike_id":"690959e1-32d7-492f-a674-cbcd4a6a2909","system_id":"levelo_inurba_marseille","lat":43.27902,"lon":5.39588,"is_reserved":false,"is_disabled":false,"rental_uris":{"android":"levelo://app?vid=690959e1-32d7-492f-a674-cbcd4a6a2909","ios":"levelo://app?vid=690959e1-32d7-492f-a674-cbcd4a6a2909"},"vehicle_type_id":"4","last_reported":1731449325,"current_range_meters":34800,"station_id":"ce4bhf92rcd13ifvqf40","pricing_plan_id":"cebpf4jnsgd1na2vs0mg"},{"bike_id":"2d11c320-a81b-424e-80ce-d8ac1193642b","system_id":"levelo_inurba_marseille","lat":43.27813,"lon":5.40708,"is_reserved":false,"is_disabled":false,"rental_uris":{"android":"levelo://app?vid=2d11c320-a81b-424e-80ce-d8ac1193642b","ios":"levelo://app?vid=2d11c320-a81b-424e-80ce-d8ac1193642b"},"vehicle_type_id":"4","last_reported":1731449325,"current_range_meters":36800,"station_id":"ce4bhnh2rcd13ifvqgtg","pricing_plan_id":"cebpf4jnsgd1na2vs0mg"},{"bike_id":"d8e55ab8-cb91-4377-8ce4-cd78b3d1798f","system_id":"levelo_inurba_marseille","lat":43.29877,"lon":5.39766,"is_reserved":false,"is_disabled":false,"rental_uris":{"android":"levelo://app?vid=d8e55ab8-cb91-4377-8ce4-cd78b3d1798f","ios":"levelo://app?vid=d8e55ab8-cb91-4377-8ce4-cd78b3d1798f"},"vehicle_type_id":"4","last_reported":1731449325,"current_range_meters":39200,"station_id":"ce4bh0h2rcd13ifvqd50","pricing_plan_id":"cebpf4jnsgd1na2vs0mg"},{"bike_id":"ca3ec729-c559-4487-9094-901e9dbc66f2","system_id":"levelo_inurba_marseille","lat":43.30435,"lon":5.38885,"is_reserved":false,"is_disabled":false,"rental_uris":{"android":"levelo://app?vid=ca3ec729-c559-4487-9094-901e9dbc66f2","ios":"levelo://app?vid=ca3ec729-c559-4487-9094-901e9dbc66f2"},"vehicle_type_id":"4","last_reported":1731449325,"current_range_meters":33200,"station_id":"ce4bgk12rcd13ifvqbi0","pricing_plan_id":"cebpf4jnsgd1na2vs0mg"},{"bike_id":"e62bb96a-ded7-4199-85d5-f7da5543f92d","system_id":"levelo_inurba_marseille","lat":43.3024,"lon":5.40059,"is_reserved":false,"is_disabled":false,"rental_uris":{"android":"levelo://app?vid=e62bb96a-ded7-4199-85d5-f7da5543f92d","ios":"levelo://app?vid=e62bb96a-ded7-4199-85d5-f7da5543f92d"},"vehicle_type_id":"4","last_reported":1731449325,"current_range_meters":38800,"station_id":"ce4bgvh2rcd13ifvqcs0","pricing_plan_id":"cebpf4jnsgd1na2vs0mg"},{"bike_id":"8ef70561-fcee-40a4-b033-2b7fb95e2bd9","system_id":"levelo_inurba_marseille","lat":43.27832,"lon":5.39207,"is_reserved":false,"is_disabled":false,"rental_uris":{"android":"levelo://app?vid=8ef70561-fcee-40a4-b033-2b7fb95e2bd9","ios":"levelo://app?vid=8ef70561-fcee-40a4-b033-2b7fb95e2bd9"},"vehicle_type_id":"4","last_reported":1731449325,"current_range_meters":32000,"station_id":"ce4bhjp2rcd13ifvqga0","pricing_plan_id":"cebpf4jnsgd1na2vs0mg"},{"bike_id":"6e75ac19-0b66-4f41-b986-d04c81baf2a6","system_id":"levelo_inurba_marseille","lat":43.30588,"lon":5.39363,"is_reserved":false,"is_disabled":false,"rental_uris":{"android":"levelo://app?vid=6e75ac19-0b66-4f41-b986-d04c81baf2a6","ios":"levelo://app?vid=6e75ac19-0b66-4f41-b986-d04c81baf2a6"},"vehicle_type_id":"4","last_reported":1731449325,"current_range_meters":6000,"station_id":"ce4bh0p2rcd13ifvqd80","pricing_plan_id":"cebpf4jnsgd1na2vs0mg"},{"bike_id":"23bd2924-0acf-4f0e-a6f4-fa7bc784425a","system_id":"levelo_inurba_marseille","lat":43.2293,"lon":5.35376,"is_reserved":false,"is_disabled":false,"rental_uris":{"android":"levelo://app?vid=23bd2924-0acf-4f0e-a6f4-fa7bc784425a","ios":"levelo://app?vid=23bd2924-0acf-4f0e-a6f4-fa7bc784425a"},"vehicle_type_id":"4","last_reported":1731449325,"current_range_meters":30800,"station_id":"cpo3532slgdg3j2ikp40","pricing_plan_id":"cebpf4jnsgd1na2vs0mg"},{"bike_id":"6c239e2d-0fdd-409d-9be7-157e9b3e4806","system_id":"levelo_inurba_marseille","lat":43.32103,"lon":5.36763,"is_reserved":false,"is_disabled":false,"rental_uris":{"android":"levelo://app?vid=6c239e2d-0fdd-409d-9be7-157e9b3e4806","ios":"levelo://app?vid=6c239e2d-0fdd-409d-9be7-157e9b3e4806"},"vehicle_type_id":"4","last_reported":1731449325,"current_range_meters":30400,"station_id":"ce4bhrh2rcd13ifvqhug","pricing_plan_id":"cebpf4jnsgd1na2vs0mg"},{"bike_id":"28071f5e-223d-4fd3-b16c-5ef3c0211c4e","system_id":"levelo_inurba_marseille","lat":43.31523,"lon":5.38039,"is_reserved":false,"is_disabled":false,"rental_uris":{"android":"levelo://app?vid=28071f5e-223d-4fd3-b16c-5ef3c0211c4e","ios":"levelo://app?vid=28071f5e-223d-4fd3-b16c-5ef3c0211c4e"},"vehicle_type_id":"4","last_reported":1731449325,"current_range_meters":27200,"station_id":"ce4bhsp2rcd13ifvqi50","pricing_plan_id":"cebpf4jnsgd1na2vs0mg"},{"bike_id":"972d1d13-6d58-4c88-a331-c887e116d85e","system_id":"levelo_inurba_marseille","lat":43.31174,"lon":5.38703,"is_reserved":false,"is_disabled":false,"rental_uris":{"android":"levelo://app?vid=972d1d13-6d58-4c88-a331-c887e116d85e","ios":"levelo://app?vid=972d1d13-6d58-4c88-a331-c887e116d85e"},"vehicle_type_id":"4","last_reported":1731449325,"current_range_meters":28400,"station_id":"ce4bgv12rcd13ifvqcp0","pricing_plan_id":"cebpf4jnsgd1na2vs0mg"},{"bike_id":"30b4d1b4-b2f1-4f6e-aa22-a82631f0ed92","system_id":"levelo_inurba_marseille","lat":43.23068,"lon":5.35491,"is_reserved":false,"is_disabled":false,"rental_uris":{"android":"levelo://app?vid=30b4d1b4-b2f1-4f6e-aa22-a82631f0ed92","ios":"levelo://app?vid=30b4d1b4-b2f1-4f6e-aa22-a82631f0ed92"},"vehicle_type_id":"4","last_reported":1731449325,"current_range_meters":38800,"station_id":"cpo3342slgdg3j2ifvpg","pricing_plan_id":"cebpf4jnsgd1na2vs0mg"},{"bike_id":"bcd861b0-8eca-430f-8082-61adce7c6e7e","system_id":"levelo_inurba_marseille","lat":43.2582,"lon":5.39421,"is_reserved":false,"is_disabled":false,"rental_uris":{"android":"levelo://app?vid=bcd861b0-8eca-430f-8082-61adce7c6e7e","ios":"levelo://app?vid=bcd861b0-8eca-430f-8082-61adce7c6e7e"},"vehicle_type_id":"4","last_reported":1731449325,"current_range_meters":25200,"station_id":"ce4bhip2rcd13ifvqft0","pricing_plan_id":"cebpf4jnsgd1na2vs0mg"},{"bike_id":"08c76445-e866-48d4-8016-08d374541a1a","system_id":"levelo_inurba_marseille","lat":43.30886,"lon":5.39642,"is_reserved":false,"is_disabled":false,"rental_uris":{"android":"levelo://app?vid=08c76445-e866-48d4-8016-08d374541a1a","ios":"levelo://app?vid=08c76445-e866-48d4-8016-08d374541a1a"},"vehicle_type_id":"4","last_reported":1731449325,"current_range_meters":8800,"station_id":"ce4bh012rcd13ifvqcv0","pricing_plan_id":"cebpf4jnsgd1na2vs0mg"},{"bike_id":"0e171ddd-bcf2-4897-a3c5-4bcad6a3968d","system_id":"levelo_inurba_marseille","lat":43.2955,"lon":5.42283,"is_reserved":false,"is_disabled":false,"rental_uris":{"android":"levelo://app?vid=0e171ddd-bcf2-4897-a3c5-4bcad6a3968d","ios":"levelo://app?vid=0e171ddd-bcf2-4897-a3c5-4bcad6a3968d"},"vehicle_type_id":"4","last_reported":1731449325,"current_range_meters":26000,"station_id":"ce4bhph2rcd13ifvqhdg","pricing_plan_id":"cebpf4jnsgd1na2vs0mg"},{"bike_id":"6e3cbea6-cdce-4292-aa07-c7623f6f8ef0","system_id":"levelo_inurba_marseille","lat":43.3025,"lon":5.4008,"is_reserved":false,"is_disabled":false,"rental_uris":{"android":"levelo://app?vid=6e3cbea6-cdce-4292-aa07-c7623f6f8ef0","ios":"levelo://app?vid=6e3cbea6-cdce-4292-aa07-c7623f6f8ef0"},"vehicle_type_id":"4","last_reported":1731449325,"current_range_meters":28800,"station_id":"ce4bgvh2rcd13ifvqcs0","pricing_plan_id":"cebpf4jnsgd1na2vs0mg"},{"bike_id":"6b8f7736-5721-4913-aa90-fd587765e3da","system_id":"levelo_inurba_marseille","lat":43.32362,"lon":5.38907,"is_reserved":false,"is_disabled":false,"rental_uris":{"android":"levelo://app?vid=6b8f7736-5721-4913-aa90-fd587765e3da","ios":"levelo://app?vid=6b8f7736-5721-4913-aa90-fd587765e3da"},"vehicle_type_id":"4","last_reported":1731449325,"current_range_meters":8000,"station_id":"ce4bhqp2rcd13ifvqhog","pricing_plan_id":"cebpf4jnsgd1na2vs0mg"},{"bike_id":"90d50812-6458-4e6e-9237-5d3eeb6b3db3","system_id":"levelo_inurba_marseille","lat":43.31488,"lon":5.37303,"is_reserved":false,"is_disabled":false,"rental_uris":{"android":"levelo://app?vid=90d50812-6458-4e6e-9237-5d3eeb6b3db3","ios":"levelo://app?vid=90d50812-6458-4e6e-9237-5d3eeb6b3db3"},"vehicle_type_id":"4","last_reported":1731449325,"current_range_meters":38800,"station_id":"ce4bgt12rcd13ifvqcd0","pricing_plan_id":"cebpf4jnsgd1na2vs0mg"},{"bike_id":"e92c5947-6d80-41ba-aecc-06ded8281947","system_id":"levelo_inurba_marseille","lat":43.32482,"lon":5.36576,"is_reserved":false,"is_disabled":false,"rental_uris":{"android":"levelo://app?vid=e92c5947-6d80-41ba-aecc-06ded8281947","ios":"levelo://app?vid=e92c5947-6d80-41ba-aecc-06ded8281947"},"vehicle_type_id":"4","last_reported":1731449325,"current_range_meters":35600,"station_id":"ce4bhs12rcd13ifvqhvg","pricing_plan_id":"cebpf4jnsgd1na2vs0mg"},{"bike_id":"95a92208-fe5e-4560-85cb-1eeb02f67bdb","system_id":"levelo_inurba_marseille","lat":43.31324,"lon":5.39691,"is_reserved":false,"is_disabled":false,"rental_uris":{"android":"levelo://app?vid=95a92208-fe5e-4560-85cb-1eeb02f67bdb","ios":"levelo://app?vid=95a92208-fe5e-4560-85cb-1eeb02f67bdb"},"vehicle_type_id":"4","last_reported":1731449325,"current_range_meters":30400,"station_id":"ce4bgvp2rcd13ifvqcu0","pricing_plan_id":"cebpf4jnsgd1na2vs0mg"},{"bike_id":"49804bb0-be46-400c-ba91-27bb1d81b4e2","system_id":"levelo_inurba_marseille","lat":43.29617,"lon":5.37714,"is_reserved":false,"is_disabled":false,"rental_uris":{"android":"levelo://app?vid=49804bb0-be46-400c-ba91-27bb1d81b4e2","ios":"levelo://app?vid=49804bb0-be46-400c-ba91-27bb1d81b4e2"},"vehicle_type_id":"4","last_reported":1731449325,"current_range_meters":21600,"station_id":"ce4bgi92rcd13ifvqb90","pricing_plan_id":"cebpf4jnsgd1na2vs0mg"},{"bike_id":"3dd7abb3-8033-4f73-a36e-5cb5548f4c6b","system_id":"levelo_inurba_marseille","lat":43.28665,"lon":5.3635,"is_reserved":false,"is_disabled":false,"rental_uris":{"android":"levelo://app?vid=3dd7abb3-8033-4f73-a36e-5cb5548f4c6b","ios":"levelo://app?vid=3dd7abb3-8033-4f73-a36e-5cb5548f4c6b"},"vehicle_type_id":"4","last_reported":1731449325,"current_range_meters":17600,"station_id":"ce4bhah2rcd13ifvqej0","pricing_plan_id":"cebpf4jnsgd1na2vs0mg"},{"bike_id":"1fc072fe-65a6-4509-8c10-6f12eac57481","system_id":"levelo_inurba_marseille","lat":43.30209,"lon":5.39461,"is_reserved":false,"is_disabled":false,"rental_uris":{"android":"levelo://app?vid=1fc072fe-65a6-4509-8c10-6f12eac57481","ios":"levelo://app?vid=1fc072fe-65a6-4509-8c10-6f12eac57481"},"vehicle_type_id":"4","last_reported":1731449325,"current_range_meters":24000,"station_id":"ce4bh0p2rcd13ifvqd70","pricing_plan_id":"cebpf4jnsgd1na2vs0mg"},{"bike_id":"84815c8c-d9df-4fa2-8ab2-37024a802a5d","system_id":"levelo_inurba_marseille","lat":43.30777,"lon":5.37649,"is_reserved":false,"is_disabled":false,"rental_uris":{"android":"levelo://app?vid=84815c8c-d9df-4fa2-8ab2-37024a802a5d","ios":"levelo://app?vid=84815c8c-d9df-4fa2-8ab2-37024a802a5d"},"vehicle_type_id":"4","last_reported":1731449325,"current_range_meters":39200,"station_id":"ce4bgv92rcd13ifvqcq0","pricing_plan_id":"cebpf4jnsgd1na2vs0mg"},{"bike_id":"8f78c412-98db-4d29-8c22-3b9175c2738c","system_id":"levelo_inurba_marseille","lat":43.299316,"lon":5.365554,"is_reserved":false,"is_disabled":false,"rental_uris":{"android":"levelo://app?vid=8f78c412-98db-4d29-8c22-3b9175c2738c","ios":"levelo://app?vid=8f78c412-98db-4d29-8c22-3b9175c2738c"},"vehicle_type_id":"4","last_reported":1731449325,"current_range_meters":19200,"station_id":"ce4bgm92rcd13ifvqbr0","pricing_plan_id":"cebpf4jnsgd1na2vs0mg"},{"bike_id":"4560d80d-b770-46a9-8ac0-6fe10fc64b4e","system_id":"levelo_inurba_marseille","lat":43.28035,"lon":5.36949,"is_reserved":false,"is_disabled":false,"rental_uris":{"android":"levelo://app?vid=4560d80d-b770-46a9-8ac0-6fe10fc64b4e","ios":"levelo://app?vid=4560d80d-b770-46a9-8ac0-6fe10fc64b4e"},"vehicle_type_id":"4","last_reported":1731449325,"current_range_meters":32000,"station_id":"ce4bha12rcd13ifvqef0","pricing_plan_id":"cebpf4jnsgd1na2vs0mg"},{"bike_id":"676b2de0-ef38-498f-8ff1-4178e5d734b5","system_id":"levelo_inurba_marseille","lat":43.299074,"lon":5.381533,"is_reserved":false,"is_disabled":false,"rental_uris":{"android":"levelo://app?vid=676b2de0-ef38-498f-8ff1-4178e5d734b5","ios":"levelo://app?vid=676b2de0-ef38-498f-8ff1-4178e5d734b5"},"vehicle_type_id":"4","last_reported":1731449325,"current_range_meters":30800,"station_id":"ce4bho12rcd13ifvqh2g","pricing_plan_id":"cebpf4jnsgd1na2vs0mg"},{"bike_id":"08b12162-639b-42e6-b6d7-e289591b02ce","system_id":"levelo_inurba_marseille","lat":43.31756,"lon":5.39028,"is_reserved":false,"is_disabled":false,"rental_uris":{"android":"levelo://app?vid=08b12162-639b-42e6-b6d7-e289591b02ce","ios":"levelo://app?vid=08b12162-639b-42e6-b6d7-e289591b02ce"},"vehicle_type_id":"4","last_reported":1731449325,"current_range_meters":21600,"station_id":"ce4bhqp2rcd13ifvqhng","pricing_plan_id":"cebpf4jnsgd1na2vs0mg"},{"bike_id":"e60b42f2-a281-4419-a16c-efdb587b14b5","system_id":"levelo_inurba_marseille","lat":43.32284,"lon":5.38274,"is_reserved":false,"is_disabled":false,"rental_uris":{"android":"levelo://app?vid=e60b42f2-a281-4419-a16c-efdb587b14b5","ios":"levelo://app?vid=e60b42f2-a281-4419-a16c-efdb587b14b5"},"vehicle_type_id":"4","last_reported":1731449325,"current_range_meters":24800,"station_id":"ce4bhr12rcd13ifvqhqg","pricing_plan_id":"cebpf4jnsgd1na2vs0mg"},{"bike_id":"1657daa6-ee97-47ec-b057-5c10546ab8fb","system_id":"levelo_inurba_marseille","lat":43.25865,"lon":5.39899,"is_reserved":false,"is_disabled":false,"rental_uris":{"android":"levelo://app?vid=1657daa6-ee97-47ec-b057-5c10546ab8fb","ios":"levelo://app?vid=1657daa6-ee97-47ec-b057-5c10546ab8fb"},"vehicle_type_id":"4","last_reported":1731449325,"current_range_meters":37600,"station_id":"ce4bhl92rcd13ifvqghg","pricing_plan_id":"cebpf4jnsgd1na2vs0mg"},{"bike_id":"0a4189d5-e56b-4a49-a75b-035f42369ff2","system_id":"levelo_inurba_marseille","lat":43.30136,"lon":5.39888,"is_reserved":false,"is_disabled":false,"rental_uris":{"android":"levelo://app?vid=0a4189d5-e56b-4a49-a75b-035f42369ff2","ios":"levelo://app?vid=0a4189d5-e56b-4a49-a75b-035f42369ff2"},"vehicle_type_id":"4","last_reported":1731449325,"current_range_meters":10000,"station_id":"ce4bh0h2rcd13ifvqd40","pricing_plan_id":"cebpf4jnsgd1na2vs0mg"},{"bike_id":"7b1d3612-39cd-4cb3-9238-b7159cf9796b","system_id":"levelo_inurba_marseille","lat":43.28708,"lon":5.374,"is_reserved":false,"is_disabled":false,"rental_uris":{"android":"levelo://app?vid=7b1d3612-39cd-4cb3-9238-b7159cf9796b","ios":"levelo://app?vid=7b1d3612-39cd-4cb3-9238-b7159cf9796b"},"vehicle_type_id":"4","last_reported":1731449325,"current_range_meters":30800,"station_id":"ce4bh3p2rcd13ifvqdq0","pricing_plan_id":"cebpf4jnsgd1na2vs0mg"},{"bike_id":"593dd953-92e9-4448-9d82-ca754ac12605","system_id":"levelo_inurba_marseille","lat":43.25082,"lon":5.39515,"is_reserved":false,"is_disabled":false,"rental_uris":{"android":"levelo://app?vid=593dd953-92e9-4448-9d82-ca754ac12605","ios":"levelo://app?vid=593dd953-92e9-4448-9d82-ca754ac12605"},"vehicle_type_id":"4","last_reported":1731449325,"current_range_meters":16400,"station_id":"ce4bhm12rcd13ifvqgkg","pricing_plan_id":"cebpf4jnsgd1na2vs0mg"},{"bike_id":"98a41b55-783d-4a53-9a0a-09f9b47b2669","system_id":"levelo_inurba_marseille","lat":43.23195,"lon":5.35559,"is_reserved":false,"is_disabled":false,"rental_uris":{"android":"levelo://app?vid=98a41b55-783d-4a53-9a0a-09f9b47b2669","ios":"levelo://app?vid=98a41b55-783d-4a53-9a0a-09f9b47b2669"},"vehicle_type_id":"4","last_reported":1731449325,"current_range_meters":19600,"station_id":"ce4bhu92rcd13ifvqi70","pricing_plan_id":"cebpf4jnsgd1na2vs0mg"},{"bike_id":"9b899324-9bf0-4e7e-944b-128cdc9d3596","system_id":"levelo_inurba_marseille","lat":43.25576,"lon":5.38235,"is_reserved":false,"is_disabled":false,"rental_uris":{"android":"levelo://app?vid=9b899324-9bf0-4e7e-944b-128cdc9d3596","ios":"levelo://app?vid=9b899324-9bf0-4e7e-944b-128cdc9d3596"},"vehicle_type_id":"4","last_reported":1731449325,"current_range_meters":31200,"station_id":"ce4bhih2rcd13ifvqfs0","pricing_plan_id":"cebpf4jnsgd1na2vs0mg"},{"bike_id":"e968c95c-66c6-48a5-87f1-39947e0d3838","system_id":"levelo_inurba_marseille","lat":43.311678,"lon":5.387125,"is_reserved":false,"is_disabled":false,"rental_uris":{"android":"levelo://app?vid=e968c95c-66c6-48a5-87f1-39947e0d3838","ios":"levelo://app?vid=e968c95c-66c6-48a5-87f1-39947e0d3838"},"vehicle_type_id":"4","last_reported":1731449325,"current_range_meters":37600,"station_id":"ce4bgn92rcd13ifvqbvg","pricing_plan_id":"cebpf4jnsgd1na2vs0mg"},{"bike_id":"33982fe9-a903-40cd-a32c-32a0ffad344a","system_id":"levelo_inurba_marseille","lat":43.28455,"lon":5.35894,"is_reserved":false,"is_disabled":false,"rental_uris":{"android":"levelo://app?vid=33982fe9-a903-40cd-a32c-32a0ffad344a","ios":"levelo://app?vid=33982fe9-a903-40cd-a32c-32a0ffad344a"},"vehicle_type_id":"4","last_reported":1731449325,"current_range_meters":32400,"station_id":"ce4bhah2rcd13ifvqei0","pricing_plan_id":"cebpf4jnsgd1na2vs0mg"},{"bike_id":"230b6c77-b329-402c-a40c-b0b4a301a608","system_id":"levelo_inurba_marseille","lat":43.27568,"lon":5.38429,"is_reserved":false,"is_disabled":false,"rental_uris":{"android":"levelo://app?vid=230b6c77-b329-402c-a40c-b0b4a301a608","ios":"levelo://app?vid=230b6c77-b329-402c-a40c-b0b4a301a608"},"vehicle_type_id":"4","last_reported":1731449325,"current_range_meters":21600,"station_id":"ce4bhh92rcd13ifvqfi0","pricing_plan_id":"cebpf4jnsgd1na2vs0mg"},{"bike_id":"2202a904-a13c-4eda-9d49-23c5c6db8e84","system_id":"levelo_inurba_marseille","lat":43.28272,"lon":5.35084,"is_reserved":false,"is_disabled":false,"rental_uris":{"android":"levelo://app?vid=2202a904-a13c-4eda-9d49-23c5c6db8e84","ios":"levelo://app?vid=2202a904-a13c-4eda-9d49-23c5c6db8e84"},"vehicle_type_id":"4","last_reported":1731449325,"current_range_meters":39200,"station_id":"ce4bhbp2rcd13ifvqerg","pricing_plan_id":"cebpf4jnsgd1na2vs0mg"},{"bike_id":"692fb841-efd6-45f3-98d5-6b03df882962","system_id":"levelo_inurba_marseille","lat":43.27488,"lon":5.42458,"is_reserved":false,"is_disabled":false,"rental_uris":{"android":"levelo://app?vid=692fb841-efd6-45f3-98d5-6b03df882962","ios":"levelo://app?vid=692fb841-efd6-45f3-98d5-6b03df882962"},"vehicle_type_id":"4","last_reported":1731449325,"current_range_meters":39200,"station_id":"ce4bhn92rcd13ifvqgrg","pricing_plan_id":"cebpf4jnsgd1na2vs0mg"},{"bike_id":"f7dfe9d8-8b1c-44bd-9e07-3a51ca4750f2","system_id":"levelo_inurba_marseille","lat":43.26491,"lon":5.39555,"is_reserved":false,"is_disabled":false,"rental_uris":{"android":"levelo://app?vid=f7dfe9d8-8b1c-44bd-9e07-3a51ca4750f2","ios":"levelo://app?vid=f7dfe9d8-8b1c-44bd-9e07-3a51ca4750f2"},"vehicle_type_id":"4","last_reported":1731449325,"current_range_meters":32800,"station_id":"ce4bhi12rcd13ifvqfq0","pricing_plan_id":"cebpf4jnsgd1na2vs0mg"},{"bike_id":"5918f272-9be9-4fab-a76f-db071de18465","system_id":"levelo_inurba_marseille","lat":43.287,"lon":5.38656,"is_reserved":false,"is_disabled":false,"rental_uris":{"android":"levelo://app?vid=5918f272-9be9-4fab-a76f-db071de18465","ios":"levelo://app?vid=5918f272-9be9-4fab-a76f-db071de18465"},"vehicle_type_id":"4","last_reported":1731449325,"current_range_meters":39200,"station_id":"ce4bh492rcd13ifvqdug","pricing_plan_id":"cebpf4jnsgd1na2vs0mg"},{"bike_id":"bc61a3b9-3fb3-4296-853e-797c816f3109","system_id":"levelo_inurba_marseille","lat":43.28856,"lon":5.35858,"is_reserved":false,"is_disabled":false,"rental_uris":{"android":"levelo://app?vid=bc61a3b9-3fb3-4296-853e-797c816f3109","ios":"levelo://app?vid=bc61a3b9-3fb3-4296-853e-797c816f3109"},"vehicle_type_id":"4","last_reported":1731449325,"current_range_meters":20000,"station_id":"ce4bhb12rcd13ifvqem0","pricing_plan_id":"cebpf4jnsgd1na2vs0mg"},{"bike_id":"7b7f672e-657a-4cbe-b1c4-7972ae12c59f","system_id":"levelo_inurba_marseille","lat":43.28828,"lon":5.35854,"is_reserved":false,"is_disabled":false,"rental_uris":{"android":"levelo://app?vid=7b7f672e-657a-4cbe-b1c4-7972ae12c59f","ios":"levelo://app?vid=7b7f672e-657a-4cbe-b1c4-7972ae12c59f"},"vehicle_type_id":"4","last_reported":1731449325,"current_range_meters":32800,"station_id":"ce4bhb12rcd13ifvqem0","pricing_plan_id":"cebpf4jnsgd1na2vs0mg"},{"bike_id":"73586d51-a7db-4f37-8fd9-c683a07e913a","system_id":"levelo_inurba_marseille","lat":43.28657,"lon":5.36343,"is_reserved":false,"is_disabled":false,"rental_uris":{"android":"levelo://app?vid=73586d51-a7db-4f37-8fd9-c683a07e913a","ios":"levelo://app?vid=73586d51-a7db-4f37-8fd9-c683a07e913a"},"vehicle_type_id":"4","last_reported":1731449325,"current_range_meters":16400,"station_id":"ce4bhah2rcd13ifvqej0","pricing_plan_id":"cebpf4jnsgd1na2vs0mg"},{"bike_id":"0606443b-4369-42a4-bea1-57669a14e9a4","system_id":"levelo_inurba_marseille","lat":43.27815,"lon":5.40715,"is_reserved":false,"is_disabled":false,"rental_uris":{"android":"levelo://app?vid=0606443b-4369-42a4-bea1-57669a14e9a4","ios":"levelo://app?vid=0606443b-4369-42a4-bea1-57669a14e9a4"},"vehicle_type_id":"4","last_reported":1731449325,"current_range_meters":36800,"station_id":"ce4bhnh2rcd13ifvqgtg","pricing_plan_id":"cebpf4jnsgd1na2vs0mg"},{"bike_id":"0fb7af37-ed7e-4639-a28c-e6d4b52ce80c","system_id":"levelo_inurba_marseille","lat":43.30934,"lon":5.40156,"is_reserved":false,"is_disabled":false,"rental_uris":{"android":"levelo://app?vid=0fb7af37-ed7e-4639-a28c-e6d4b52ce80c","ios":"levelo://app?vid=0fb7af37-ed7e-4639-a28c-e6d4b52ce80c"},"vehicle_type_id":"4","last_reported":1731449325,"current_range_meters":36800,"station_id":"ce4bgvp2rcd13ifvqct0","pricing_plan_id":"cebpf4jnsgd1na2vs0mg"},{"bike_id":"03a59692-85a3-45c0-9151-a54628631a12","system_id":"levelo_inurba_marseille","lat":43.30136,"lon":5.38789,"is_reserved":false,"is_disabled":false,"rental_uris":{"android":"levelo://app?vid=03a59692-85a3-45c0-9151-a54628631a12","ios":"levelo://app?vid=03a59692-85a3-45c0-9151-a54628631a12"},"vehicle_type_id":"4","last_reported":1731449325,"current_range_meters":38800,"station_id":"ce4bghh2rcd13ifvqb60","pricing_plan_id":"cebpf4jnsgd1na2vs0mg"},{"bike_id":"d5b47975-7665-4836-8707-7a65639f0843","system_id":"levelo_inurba_marseille","lat":43.3024,"lon":5.40064,"is_reserved":false,"is_disabled":false,"rental_uris":{"android":"levelo://app?vid=d5b47975-7665-4836-8707-7a65639f0843","ios":"levelo://app?vid=d5b47975-7665-4836-8707-7a65639f0843"},"vehicle_type_id":"4","last_reported":1731449325,"current_range_meters":36800,"station_id":"ce4bgvh2rcd13ifvqcs0","pricing_plan_id":"cebpf4jnsgd1na2vs0mg"},{"bike_id":"4f02a6e2-a51d-401a-a45b-52bab86531cb","system_id":"levelo_inurba_marseille","lat":43.29521,"lon":5.39413,"is_reserved":false,"is_disabled":false,"rental_uris":{"android":"levelo://app?vid=4f02a6e2-a51d-401a-a45b-52bab86531cb","ios":"levelo://app?vid=4f02a6e2-a51d-401a-a45b-52bab86531cb"},"vehicle_type_id":"4","last_reported":1731449325,"current_range_meters":9600,"station_id":"ce4bh292rcd13ifvqdf0","pricing_plan_id":"cebpf4jnsgd1na2vs0mg"},{"bike_id":"09539a57-684d-447c-bc50-44d99b665999","system_id":"levelo_inurba_marseille","lat":43.30883,"lon":5.39642,"is_reserved":false,"is_disabled":false,"rental_uris":{"android":"levelo://app?vid=09539a57-684d-447c-bc50-44d99b665999","ios":"levelo://app?vid=09539a57-684d-447c-bc50-44d99b665999"},"vehicle_type_id":"4","last_reported":1731449325,"current_range_meters":23200,"station_id":"ce4bh012rcd13ifvqcv0","pricing_plan_id":"cebpf4jnsgd1na2vs0mg"},{"bike_id":"dcc65ef8-ba8f-4bd7-8a1a-6733f3cb3856","system_id":"levelo_inurba_marseille","lat":43.258972,"lon":5.398809,"is_reserved":false,"is_disabled":false,"rental_uris":{"android":"levelo://app?vid=dcc65ef8-ba8f-4bd7-8a1a-6733f3cb3856","ios":"levelo://app?vid=dcc65ef8-ba8f-4bd7-8a1a-6733f3cb3856"},"vehicle_type_id":"4","last_reported":1731449325,"current_range_meters":38800,"station_id":"ce4bhl92rcd13ifvqghg","pricing_plan_id":"cebpf4jnsgd1na2vs0mg"},{"bike_id":"f67f4316-3345-44cf-b08d-8bc4cb9f2a66","system_id":"levelo_inurba_marseille","lat":43.2925,"lon":5.40907,"is_reserved":false,"is_disabled":false,"rental_uris":{"android":"levelo://app?vid=f67f4316-3345-44cf-b08d-8bc4cb9f2a66","ios":"levelo://app?vid=f67f4316-3345-44cf-b08d-8bc4cb9f2a66"},"vehicle_type_id":"4","last_reported":1731449325,"current_range_meters":39200,"station_id":"ce4bh192rcd13ifvqdc0","pricing_plan_id":"cebpf4jnsgd1na2vs0mg"},{"bike_id":"d1637773-1cf9-455f-bb0f-cde84ed359c0","system_id":"levelo_inurba_marseille","lat":43.28454,"lon":5.35887,"is_reserved":false,"is_disabled":false,"rental_uris":{"android":"levelo://app?vid=d1637773-1cf9-455f-bb0f-cde84ed359c0","ios":"levelo://app?vid=d1637773-1cf9-455f-bb0f-cde84ed359c0"},"vehicle_type_id":"4","last_reported":1731449325,"current_range_meters":39200,"station_id":"ce4bhah2rcd13ifvqei0","pricing_plan_id":"cebpf4jnsgd1na2vs0mg"},{"bike_id":"ed2020d9-53c9-4082-9a6b-029c3dfcbe63","system_id":"levelo_inurba_marseille","lat":43.29286,"lon":5.3932,"is_reserved":false,"is_disabled":false,"rental_uris":{"android":"levelo://app?vid=ed2020d9-53c9-4082-9a6b-029c3dfcbe63","ios":"levelo://app?vid=ed2020d9-53c9-4082-9a6b-029c3dfcbe63"},"vehicle_type_id":"4","last_reported":1731449325,"current_range_meters":4000,"station_id":"","pricing_plan_id":"cebpf4jnsgd1na2vs0mg"},{"bike_id":"43488694-41b0-40fd-a881-b3754e16f72c","system_id":"levelo_inurba_marseille","lat":43.27568,"lon":5.38432,"is_reserved":false,"is_disabled":false,"rental_uris":{"android":"levelo://app?vid=43488694-41b0-40fd-a881-b3754e16f72c","ios":"levelo://app?vid=43488694-41b0-40fd-a881-b3754e16f72c"},"vehicle_type_id":"4","last_reported":1731449325,"current_range_meters":39200,"station_id":"ce4bhh92rcd13ifvqfi0","pricing_plan_id":"cebpf4jnsgd1na2vs0mg"},{"bike_id":"7ca33f6b-e349-49e0-8226-5b445a766323","system_id":"levelo_inurba_marseille","lat":43.32102,"lon":5.36777,"is_reserved":false,"is_disabled":false,"rental_uris":{"android":"levelo://app?vid=7ca33f6b-e349-49e0-8226-5b445a766323","ios":"levelo://app?vid=7ca33f6b-e349-49e0-8226-5b445a766323"},"vehicle_type_id":"4","last_reported":1731449325,"current_range_meters":22000,"station_id":"ce4bhrh2rcd13ifvqhug","pricing_plan_id":"cebpf4jnsgd1na2vs0mg"},{"bike_id":"7eefa272-3116-4b84-a466-6a64c9d9db4c","system_id":"levelo_inurba_marseille","lat":43.28843,"lon":5.35856,"is_reserved":false,"is_disabled":false,"rental_uris":{"android":"levelo://app?vid=7eefa272-3116-4b84-a466-6a64c9d9db4c","ios":"levelo://app?vid=7eefa272-3116-4b84-a466-6a64c9d9db4c"},"vehicle_type_id":"4","last_reported":1731449325,"current_range_meters":36800,"station_id":"ce4bhb12rcd13ifvqem0","pricing_plan_id":"cebpf4jnsgd1na2vs0mg"},{"bike_id":"9b6f4511-578c-42ab-81ac-bef492210160","system_id":"levelo_inurba_marseille","lat":43.31329,"lon":5.39696,"is_reserved":false,"is_disabled":false,"rental_uris":{"android":"levelo://app?vid=9b6f4511-578c-42ab-81ac-bef492210160","ios":"levelo://app?vid=9b6f4511-578c-42ab-81ac-bef492210160"},"vehicle_type_id":"4","last_reported":1731449325,"current_range_meters":39200,"station_id":"ce4bgvp2rcd13ifvqcu0","pricing_plan_id":"cebpf4jnsgd1na2vs0mg"},