{"last_updated":1738357633,"ttl":60,"version":"2.2","data":{"bikes":[{"bike_id":"99c8e731-f913-430f-a2bc-32d57a5fab53","system_id":"levelo_inurba_marseille","lat":43.28478,"lon":5.38424,"is_reserved":false,"is_disabled":true,"rental_uris":{"android":"levelo://app?vid=99c8e731-f913-430f-a2bc-32d57a5fab53","ios":"levelo://app?vid=99c8e731-f913-430f-a2bc-32d57a5fab53"},"vehicle_type_id":"4","last_reported":1738357634,"current_range_meters":27600,"station_id":"ce4bh512rcd13ifvqe3g","pricing_plan_id":"cebpf4jnsgd1na2vs0mg"},{"bike_id":"c504137f-ac89-4c5c-b85f-fd4388c88811","system_id":"levelo_inurba_marseille","lat":43.28106,"lon":5.37819,"is_reserved":false,"is_disabled":false,"rental_uris":{"android":"levelo://app?vid=c504137f-ac89-4c5c-b85f-fd4388c88811","ios":"levelo://app?vid=c504137f-ac89-4c5c-b85f-fd4388c88811"},"vehicle_type_id":"4","last_reported":1738357634,"current_range_meters":16000,"station_id":"ce4bha12rcd13ifvqee0","pricing_plan_id":"cebpf4jnsgd1na2vs0mg"},{"bike_id":"50dba4e6-d441-43cb-81b3-18b5b479c80a","system_id":"levelo_inurba_marseille","lat":43.27382,"lon":5.36254,"is_reserved":false,"is_disabled":false,"rental_uris":{"android":"levelo://app?vid=50dba4e6-d441-43cb-81b3-18b5b479c80a","ios":"levelo://app?vid=50dba4e6-d441-43cb-81b3-18b5b479c80a"},"vehicle_type_id":"4","last_reported":1738357634,"current_range_meters":30000,"station_id":"ce4bhbh2rcd13ifvqeo0","pricing_plan_id":"cebpf4jnsgd1na2vs0mg"},{"bike_id":"2bdb9a95-9fa1-4f10-9ec5-85be30eeb977","system_id":"levelo_inurba_marseille","lat":43.29298,"lon":5.37468,"is_reserved":false,"is_disabled":true,"rental_uris":{"android":"levelo://app?vid=2bdb9a95-9fa1-4f10-9ec5-85be30eeb977","ios":"levelo://app?vid=2bdb9a95-9fa1-4f10-9ec5-85be30eeb977"},"vehicle_type_id":"4","last_reported":1738357634,"current_range_meters":37600,"station_id":"ce4bgi12rcd13ifvqb70","pricing_plan_id":"cebpf4jnsgd1na2vs0mg"},{"bike_id":"68ec889f-fbad-4ec7-bbe1-dbda6b88a3f5","system_id":"levelo_inurba_marseille","lat":43.29021,"lon":5.38628,"is_reserved":false,"is_disabled":true,"rental_uris":{"android":"levelo://app?vid=68ec889f-fbad-4ec7-bbe1-dbda6b88a3f5","ios":"levelo://app?vid=68ec889f-fbad-4ec7-bbe1-dbda6b88a3f5"},"vehicle_type_id":"4","last_reported":1738357634,"current_range_meters":32800,"station_id":"ce4bh4p2rcd13ifvqe0g","pricing_plan_id":"cebpf4jnsgd1na2vs0mg"},{"bike_id":"ec8f6058-6100-4152-a231-a6e2b63a93a4","system_id":"levelo_inurba_marseille","lat":43.25829,"lon":5.39415,"is_reserved":false,"is_disabled":false,"rental_uris":{"android":"levelo://app?vid=ec8f6058-6100-4152-a231-a6e2b63a93a4","ios":"levelo://app?vid=ec8f6058-6100-4152-a231-a6e2b63a93a4"},"vehicle_type_id":"4","last_reported":1738357634,"current_range_meters":26800,"station_id":"ce4bhip2rcd13ifvqft0","pricing_plan_id":"cebpf4jnsgd1na2vs0mg"},{"bike_id":"81ea0d51-679e-4bcf-bef0-fe6a18cedd11","system_id":"levelo_inurba_marseille","lat":43.29418,"lon":5.3863,"is_reserved":false,"is_disabled":false,"rental_uris":{"android":"levelo://app?vid=81ea0d51-679e-4bcf-bef0-fe6a18cedd11","ios":"levelo://app?vid=81ea0d51-679e-4bcf-bef0-fe6a18cedd11"},"vehicle_type_id":"4","last_reported":1738357634,"current_range_meters":9200,"station_id":"ce4bh2h2rcd13ifvqdh0","pricing_plan_id":"cebpf4jnsgd1na2vs0mg"},{"bike_id":"775ea6c8-830e-43b4-8783-0f1b578a59f2","system_id":"levelo_inurba_marseille","lat":43.25872,"lon":5.39891,"is_reserved":false,"is_disabled":false,"rental_uris":{"android":"levelo://app?vid=775ea6c8-830e-43b4-8783-0f1b578a59f2","ios":"levelo://app?vid=775ea6c8-830e-43b4-8783-0f1b578a59f2"},"vehicle_type_id":"4","last_reported":1738357634,"current_range_meters":17600,"station_id":"ce4bhl92rcd13ifvqghg","pricing_plan_id":"cebpf4jnsgd1na2vs0mg"},{"bike_id":"ed3b7fbe-dd9d-4bab-8f42-a2405c5dd34c","system_id":"levelo_inurba_marseille","lat":43.26941,"lon":5.40247,"is_reserved":false,"is_disabled":false,"rental_uris":{"android":"levelo://app?vid=ed3b7fbe-dd9d-4bab-8f42-a2405c5dd34c","ios":"levelo://app?vid=ed3b7fbe-dd9d-4bab-8f42-a2405c5dd34c"},"vehicle_type_id":"4","last_reported":1738357634,"current_range_meters":38800,"station_id":"cjm6bp8fraef2m0cb0m0","pricing_plan_id":"cebpf4jnsgd1na2vs0mg"},{"bike_id":"3ee72586-d6c2-49b3-a6a9-6912148e2606","system_id":"levelo_inurba_marseille","lat":43.317558,"lon":5.390182,"is_reserved":false,"is_disabled":false,"rental_uris":{"android":"levelo://app?vid=3ee72586-d6c2-49b3-a6a9-6912148e2606","ios":"levelo://app?vid=3ee72586-d6c2-49b3-a6a9-6912148e2606"},"vehicle_type_id":"4","last_reported":1738357634,"current_range_meters":38000,"station_id":"ce4bhqp2rcd13ifvqhng","pricing_plan_id":"cebpf4jnsgd1na2vs0mg"},{"bike_id":"9589ffb9-c7bb-4b69-9093-3f10a1b7ad66","system_id":"levelo_inurba_marseille","lat":43.32039,"lon":5.41573,"is_reserved":false,"is_disabled":false,"rental_uris":{"android":"levelo://app?vid=9589ffb9-c7bb-4b69-9093-3f10a1b7ad66","ios":"levelo://app?vid=9589ffb9-c7bb-4b69-9093-3f10a1b7ad66"},"vehicle_type_id":"4","last_reported":1738357634,"current_range_meters":24000,"station_id":"ce4bhq92rcd13ifvqhkg","pricing_plan_id":"cebpf4jnsgd1na2vs0mg"},{"bike_id":"07cc68cc-8cb9-4fee-8c85-127697b4d1e3","system_id":"levelo_inurba_marseille","lat":43.29257,"lon":5.38445,"is_reserved":false,"is_disabled":false,"rental_uris":{"android":"levelo://app?vid=07cc68cc-8cb9-4fee-8c85-127697b4d1e3","ios":"levelo://app?vid=07cc68cc-8cb9-4fee-8c85-127697b4d1e3"},"vehicle_type_id":"4","last_reported":1738357634,"current_range_meters":32000,"station_id":"ce4bh692rcd13ifvqea0","pricing_plan_id":"cebpf4jnsgd1na2vs0mg"},{"bike_id":"d109cf92-aa1a-42ec-8f9c-6fdc8f44a522","system_id":"levelo_inurba_marseille","lat":43.29421,"lon":5.38617,"is_reserved":false,"is_disabled":false,"rental_uris":{"android":"levelo://app?vid=d109cf92-aa1a-42ec-8f9c-6fdc8f44a522","ios":"levelo://app?vid=d109cf92-aa1a-42ec-8f9c-6fdc8f44a522"},"vehicle_type_id":"4","last_reported":1738357634,"current_range_meters":13600,"station_id":"ce4bh2h2rcd13ifvqdh0","pricing_plan_id":"cebpf4jnsgd1na2vs0mg"},{"bike_id":"364eb652-69b2-4cd0-85cc-79efa41d2c35","system_id":"levelo_inurba_marseille","lat":43.26818,"lon":5.40252,"is_reserved":false,"is_disabled":false,"rental_uris":{"android":"levelo://app?vid=364eb652-69b2-4cd0-85cc-79efa41d2c35","ios":"levelo://app?vid=364eb652-69b2-4cd0-85cc-79efa41d2c35"},"vehicle_type_id":"4","last_reported":1738357634,"current_range_meters":8400,"station_id":"ce501612rcd8frsf0b60","pricing_plan_id":"cebpf4jnsgd1na2vs0mg"},{"bike_id":"8126c25c-c3a2-4cdd-a2e4-d380d215e724","system_id":"levelo_inurba_marseille","lat":43.26807,"lon":5.402619,"is_reserved":false,"is_disabled":false,"rental_uris":{"android":"levelo://app?vid=8126c25c-c3a2-4cdd-a2e4-d380d215e724","ios":"levelo://app?vid=8126c25c-c3a2-4cdd-a2e4-d380d215e724"},"vehicle_type_id":"4","last_reported":1738357634,"current_range_meters":37600,"station_id":"ce501612rcd8frsf0b60","pricing_plan_id":"cebpf4jnsgd1na2vs0mg"},{"bike_id":"2e717bd1-6f1e-4705-ac56-fd230708337b","system_id":"levelo_inurba_marseille","lat":43.23966,"lon":5.3663,"is_reserved":false,"is_disabled":false,"rental_uris":{"android":"levelo://app?vid=2e717bd1-6f1e-4705-ac56-fd230708337b","ios":"levelo://app?vid=2e717bd1-6f1e-4705-ac56-fd230708337b"},"vehicle_type_id":"4","last_reported":1738357634,"current_range_meters":8400,"station_id":"ce4bhi12rcd13ifvqfp0","pricing_plan_id":"cebpf4jnsgd1na2vs0mg"},{"bike_id":"f8284def-f46e-4261-b5b7-65a73beff522","system_id":"levelo_inurba_marseille","lat":43.33613,"lon":5.41031,"is_reserved":false,"is_disabled":false,"rental_uris":{"android":"levelo://app?vid=f8284def-f46e-4261-b5b7-65a73beff522","ios":"levelo://app?vid=f8284def-f46e-4261-b5b7-65a73beff522"},"vehicle_type_id":"4","last_reported":1738357634,"current_range_meters":7200,"station_id":"ce4bhqh2rcd13ifvqhmg","pricing_plan_id":"cebpf4jnsgd1na2vs0mg"},{"bike_id":"b128003f-52ff-4cd6-b985-fdc8dfb8deb5","system_id":"levelo_inurba_marseille","lat":43.31264,"lon":5.40167,"is_reserved":false,"is_disabled":false,"rental_uris":{"android":"levelo://app?vid=b128003f-52ff-4cd6-b985-fdc8dfb8deb5","ios":"levelo://app?vid=b128003f-52ff-4cd6-b985-fdc8dfb8deb5"},"vehicle_type_id":"4","last_reported":1738357634,"current_range_meters":22000,"station_id":"ce4bh092rcd13ifvqd30","pricing_plan_id":"cebpf4jnsgd1na2vs0mg"},{"bike_id":"661644af-f6d5-4e30-b98d-4cca5657f33b","system_id":"levelo_inurba_marseille","lat":43.32098,"lon":5.36784,"is_reserved":false,"is_disabled":false,"rental_uris":{"android":"levelo://app?vid=661644af-f6d5-4e30-b98d-4cca5657f33b","ios":"levelo://app?vid=661644af-f6d5-4e30-b98d-4cca5657f33b"},"vehicle_type_id":"4","last_reported":1738357634,"current_range_meters":8000,"station_id":"ce4bhrh2rcd13ifvqhug","pricing_plan_id":"cebpf4jnsgd1na2vs0mg"},{"bike_id":"1fbf3f20-0930-4b85-8900-561217e5a0eb","system_id":"levelo_inurba_marseille","lat":43.30427,"lon":5.41278,"is_reserved":false,"is_disabled":false,"rental_uris":{"android":"levelo://app?vid=1fbf3f20-0930-4b85-8900-561217e5a0eb","ios":"levelo://app?vid=1fbf3f20-0930-4b85-8900-561217e5a0eb"},"vehicle_type_id":"4","last_reported":1738357634,"current_range_meters":27200,"station_id":"ce4bhop2rcd13ifvqh8g","pricing_plan_id":"cebpf4jnsgd1na2vs0mg"},{"bike_id":"0ed8a6c6-eadb-4bd0-a58f-0b8be240ba0c","system_id":"levelo_inurba_marseille","lat":43.27799,"lon":5.40735,"is_reserved":false,"is_disabled":false,"rental_uris":{"android":"levelo://app?vid=0ed8a6c6-eadb-4bd0-a58f-0b8be240ba0c","ios":"levelo://app?vid=0ed8a6c6-eadb-4bd0-a58f-0b8be240ba0c"},"vehicle_type_id":"4","last_reported":1738357634,"current_range_meters":25200,"station_id":"ce4bhnh2rcd13ifvqgtg","pricing_plan_id":"cebpf4jnsgd1na2vs0mg"},{"bike_id":"5aa74a84-ccdf-4cdc-9dda-86dd0f463d96","system_id":"levelo_inurba_marseille","lat":43.29034,"lon":5.37568,"is_reserved":false,"is_disabled":false,"rental_uris":{"android":"levelo://app?vid=5aa74a84-ccdf-4cdc-9dda-86dd0f463d96","ios":"levelo://app?vid=5aa74a84-ccdf-4cdc-9dda-86dd0f463d96"},"vehicle_type_id":"4","last_reported":1738357634,"current_range_meters":35600,"station_id":"ce4bh692rcd13ifvqe90","pricing_plan_id":"cebpf4jnsgd1na2vs0mg"},{"bike_id":"b53cf432-0e47-4b61-a305-952377a64c88","system_id":"levelo_inurba_marseille","lat":43.30806,"lon":5.38155,"is_reserved":false,"is_disabled":true,"rental_uris":{"android":"levelo://app?vid=b53cf432-0e47-4b61-a305-952377a64c88","ios":"levelo://app?vid=b53cf432-0e47-4b61-a305-952377a64c88"},"vehicle_type_id":"4","last_reported":1738357634,"current_range_meters":0,"station_id":"ce4bgt12rcd13ifvqce0","pricing_plan_id":"cebpf4jnsgd1na2vs0mg"},{"bike_id":"7b3e02c5-0818-4fc4-813c-4a89f3c75475","system_id":"levelo_inurba_marseille","lat":43.28014,"lon":5.40006,"is_reserved":false,"is_disabled":false,"rental_uris":{"android":"levelo://app?vid=7b3e02c5-0818-4fc4-813c-4a89f3c75475","ios":"levelo://app?vid=7b3e02c5-0818-4fc4-813c-4a89f3c75475"},"vehicle_type_id":"4","last_reported":1738357634,"current_range_meters":28400,"station_id":"ce4bho92rcd13ifvqh4g","pricing_plan_id":"cebpf4jnsgd1na2vs0mg"},{"bike_id":"13a71ca0-af90-4e61-a6f2-18a028732efe","system_id":"levelo_inurba_marseille","lat":43.25097,"lon":5.39527,"is_reserved":false,"is_disabled":false,"rental_uris":{"android":"levelo://app?vid=13a71ca0-af90-4e61-a6f2-18a028732efe","ios":"levelo://app?vid=13a71ca0-af90-4e61-a6f2-18a028732efe"},"vehicle_type_id":"4","last_reported":1738357634,"current_range_meters":36800,"station_id":"ce4bhm12rcd13ifvqgkg","pricing_plan_id":"cebpf4jnsgd1na2vs0mg"},{"bike_id":"e5380715-5ad5-40ab-8b45-176c4ad14117","system_id":"levelo_inurba_marseille","lat":43.29421,"lon":5.38644,"is_reserved":false,"is_disabled":false,"rental_uris":{"android":"levelo://app?vid=e5380715-5ad5-40ab-8b45-176c4ad14117","ios":"levelo://app?vid=e5380715-5ad5-40ab-8b45-176c4ad14117"},"vehicle_type_id":"4","last_reported":1738357634,"current_range_meters":35200,"station_id":"ce4bh2h2rcd13ifvqdh0","pricing_plan_id":"cebpf4jnsgd1na2vs0mg"},{"bike_id":"586058d9-7368-4703-b568-7ebfb2000ee5","system_id":"levelo_inurba_marseille","lat":43.3228,"lon":5.38287,"is_reserved":false,"is_disabled":false,"rental_uris":{"android":"levelo://app?vid=586058d9-7368-4703-b568-7ebfb2000ee5","ios":"levelo://app?vid=586058d9-7368-4703-b568-7ebfb2000ee5"},"vehicle_type_id":"4","last_reported":1738357634,"current_range_meters":16400,"station_id":"ce4bhr12rcd13ifvqhqg","pricing_plan_id":"cebpf4jnsgd1na2vs0mg"},{"bike_id":"6b2f7924-572e-4d2d-a2f9-88a0a4666758","system_id":"levelo_inurba_marseille","lat":43.27929,"lon":5.39591,"is_reserved":false,"is_disabled":false,"rental_uris":{"android":"levelo://app?vid=6b2f7924-572e-4d2d-a2f9-88a0a4666758","ios":"levelo://app?vid=6b2f7924-572e-4d2d-a2f9-88a0a4666758"},"vehicle_type_id":"4","last_reported":1738357634,"current_range_meters":38800,"station_id":"ce4bhf92rcd13ifvqf40","pricing_plan_id":"cebpf4jnsgd1na2vs0mg"},{"bike_id":"b62c15b8-1724-4cf4-addc-7e8eea0a7cb3","system_id":"levelo_inurba_marseille","lat":43.298262,"lon":5.40311,"is_reserved":false,"is_disabled":false,"rental_uris":{"android":"levelo://app?vid=b62c15b8-1724-4cf4-addc-7e8eea0a7cb3","ios":"levelo://app?vid=b62c15b8-1724-4cf4-addc-7e8eea0a7cb3"},"vehicle_type_id":"4","last_reported":1738357634,"current_range_meters":28800,"station_id":"ce4bh112rcd13ifvqd90","pricing_plan_id":"cebpf4jnsgd1na2vs0mg"},{"bike_id":"887ee306-41a1-4a22-bc1f-16f99762f5ef","system_id":"levelo_inurba_marseille","lat":43.31538,"lon":5.38027,"is_reserved":false,"is_disabled":false,"rental_uris":{"android":"levelo://app?vid=887ee306-41a1-4a22-bc1f-16f99762f5ef","ios":"levelo://app?vid=887ee306-41a1-4a22-bc1f-16f99762f5ef"},"vehicle_type_id":"4","last_reported":1738357634,"current_range_meters":38000,"station_id":"ce4bhsp2rcd13ifvqi50","pricing_plan_id":"cebpf4jnsgd1na2vs0mg"},{"bike_id":"7b815dbb-6d20-4c0c-a806-acdee15492ff","system_id":"levelo_inurba_marseille","lat":43.29036,"lon":5.38652,"is_reserved":false,"is_disabled":false,"rental_uris":{"android":"levelo://app?vid=7b815dbb-6d20-4c0c-a806-acdee15492ff","ios":"levelo://app?vid=7b815dbb-6d20-4c0c-a806-acdee15492ff"},"vehicle_type_id":"4","last_reported":1738357634,"current_range_meters":8000,"station_id":"","pricing_plan_id":"cebpf4jnsgd1na2vs0mg"},{"bike_id":"cc47836a-b908-432f-8e0e-2f793407f141","system_id":"levelo_inurba_marseille","lat":43.22917,"lon":5.35373,"is_reserved":false,"is_disabled":false,"rental_uris":{"android":"levelo://app?vid=cc47836a-b908-432f-8e0e-2f793407f141","ios":"levelo://app?vid=cc47836a-b908-432f-8e0e-2f793407f141"},"vehicle_type_id":"4","last_reported":1738357634,"current_range_meters":8800,"station_id":"cpo3532slgdg3j2ikp40","pricing_plan_id":"cebpf4jnsgd1na2vs0mg"},{"bike_id":"b7b8b73a-0c1c-45e0-b545-54a4098ad50c","system_id":"levelo_inurba_marseille","lat":43.27562,"lon":5.3845,"is_reserved":false,"is_disabled":false,"rental_uris":{"android":"levelo://app?vid=b7b8b73a-0c1c-45e0-b545-54a4098ad50c","ios":"levelo://app?vid=b7b8b73a-0c1c-45e0-b545-54a4098ad50c"},"vehicle_type_id":"4","last_reported":1738357634,"current_range_meters":38000,"station_id":"ce4bhh92rcd13ifvqfi0","pricing_plan_id":"cebpf4jnsgd1na2vs0mg"},{"bike_id":"eccf3e1b-479c-430a-81d9-b77c081460ec","system_id":"levelo_inurba_marseille","lat":43.31761,"lon":5.39016,"is_reserved":false,"is_disabled":false,"rental_uris":{"android":"levelo://app?vid=eccf3e1b-479c-430a-81d9-b77c081460ec","ios":"levelo://app?vid=eccf3e1b-479c-430a-81d9-b77c081460ec"},"vehicle_type_id":"4","last_reported":1738357634,"current_range_meters":18800,"station_id":"ce4bhqp2rcd13ifvqhng","pricing_plan_id":"cebpf4jnsgd1na2vs0mg"},{"bike_id":"7a4d4c24-f9bc-4176-a692-2e39988dfc60","system_id":"levelo_inurba_marseille","lat":43.2869,"lon":5.38676,"is_reserved":false,"is_disabled":false,"rental_uris":{"android":"levelo://app?vid=7a4d4c24-f9bc-4176-a692-2e39988dfc60","ios":"levelo://app?vid=7a4d4c24-f9bc-4176-a692-2e39988dfc60"},"vehicle_type_id":"4","last_reported":1738357634,"current_range_meters":36000,"station_id":"ce4bh492rcd13ifvqdug","pricing_plan_id":"cebpf4jnsgd1na2vs0mg"},{"bike_id":"0c8187f5-988a-4457-bbb8-4cf908ac31d3","system_id":"levelo_inurba_marseille","lat":43.25827,"lon":5.39433,"is_reserved":false,"is_disabled":false,"rental_uris":{"android":"levelo://app?vid=0c8187f5-988a-4457-bbb8-4cf908ac31d3","ios":"levelo://app?vid=0c8187f5-988a-4457-bbb8-4cf908ac31d3"},"vehicle_type_id":"4","last_reported":1738357634,"current_range_meters":22800,"station_id":"ce4bhip2rcd13ifvqft0","pricing_plan_id":"cebpf4jnsgd1na2vs0mg"},{"bike_id":"c87afcac-bb1a-4536-ac4f-5cbee4b9a2fd","system_id":"levelo_inurba_marseille","lat":43.29624,"lon":5.40589,"is_reserved":false,"is_disabled":false,"rental_uris":{"android":"levelo://app?vid=c87afcac-bb1a-4536-ac4f-5cbee4b9a2fd","ios":"levelo://app?vid=c87afcac-bb1a-4536-ac4f-5cbee4b9a2fd"},"vehicle_type_id":"4","last_reported":1738357634,"current_range_meters":800,"station_id":"ce4bh0h2rcd13ifvqd60","pricing_plan_id":"cebpf4jnsgd1na2vs0mg"},{"bike_id":"7fbc607b-e12b-47bd-a53f-1c18ac62adfd","system_id":"levelo_inurba_marseille","lat":43.27801,"lon":5.40737,"is_reserved":false,"is_disabled":false,"rental_uris":{"android":"levelo://app?vid=7fbc607b-e12b-47bd-a53f-1c18ac62adfd","ios":"levelo://app?vid=7fbc607b-e12b-47bd-a53f-1c18ac62adfd"},"vehicle_type_id":"4","last_reported":1738357634,"current_range_meters":32000,"station_id":"ce4bhnh2rcd13ifvqgtg","pricing_plan_id":"cebpf4jnsgd1na2vs0mg"},{"bike_id":"fe7e180e-44b1-4eba-ad43-33e283a5c534","system_id":"levelo_inurba_marseille","lat":43.29002,"lon":5.35612,"is_reserved":false,"is_disabled":false,"rental_uris":{"android":"levelo://app?vid=fe7e180e-44b1-4eba-ad43-33e283a5c534","ios":"levelo://app?vid=fe7e180e-44b1-4eba-ad43-33e283a5c534"},"vehicle_type_id":"4","last_reported":1738357634,"current_range_meters":27600,"station_id":"ce4bhb92rcd13ifvqen0","pricing_plan_id":"cebpf4jnsgd1na2vs0mg"},{"bike_id":"918aa427-3122-40fb-aa6c-5bc193ff5e9d","system_id":"levelo_inurba_marseille","lat":43.27993,"lon":5.40004,"is_reserved":false,"is_disabled":true,"rental_uris":{"android":"levelo://app?vid=918aa427-3122-40fb-aa6c-5bc193ff5e9d","ios":"levelo://app?vid=918aa427-3122-40fb-aa6c-5bc193ff5e9d"},"vehicle_type_id":"4","last_reported":1738357634,"current_range_meters":0,"station_id":"ce4bho92rcd13ifvqh4g","pricing_plan_id":"cebpf4jnsgd1na2vs0mg"},{"bike_id":"db7f3b10-3249-4ef1-b2d2-417c75340e93","system_id":"levelo_inurba_marseille","lat":43.26826,"lon":5.40256,"is_reserved":false,"is_disabled":false,"rental_uris":{"android":"levelo://app?vid=db7f3b10-3249-4ef1-b2d2-417c75340e93","ios":"levelo://app?vid=db7f3b10-3249-4ef1-b2d2-417c75340e93"},"vehicle_type_id":"4","last_reported":1738357634,"current_range_meters":37600,"station_id":"ce501612rcd8frsf0b60","pricing_plan_id":"cebpf4jnsgd1na2vs0mg"},{"bike_id":"606053f9-3da2-4594-b4df-8e24b5fa812c","system_id":"levelo_inurba_marseille","lat":43.269337,"lon":5.402659,"is_reserved":false,"is_disabled":false,"rental_uris":{"android":"levelo://app?vid=606053f9-3da2-4594-b4df-8e24b5fa812c","ios":"levelo://app?vid=606053f9-3da2-4594-b4df-8e24b5fa812c"},"vehicle_type_id":"4","last_reported":1738357634,"current_range_meters":36800,"station_id":"cjm6bp8fraef2m0cb0m0","pricing_plan_id":"cebpf4jnsgd1na2vs0mg"},{"bike_id":"386de2ed-79d7-483f-aab9-de7573f3be92","system_id":"levelo_inurba_marseille","lat":43.31537,"lon":5.38042,"is_reserved":false,"is_disabled":false,"rental_uris":{"android":"levelo://app?vid=386de2ed-79d7-483f-aab9-de7573f3be92","ios":"levelo://app?vid=386de2ed-79d7-483f-aab9-de7573f3be92"},"vehicle_type_id":"4","last_reported":1738357634,"current_range_meters":32800,"station_id":"ce4bhsp2rcd13ifvqi50","pricing_plan_id":"cebpf4jnsgd1na2vs0mg"},{"bike_id":"c1dac6bc-1d5f-442d-823d-1945bf1b35b3","system_id":"levelo_inurba_marseille","lat":43.23197,"lon":5.3554,"is_reserved":false,"is_disabled":false,"rental_uris":{"android":"levelo://app?vid=c1dac6bc-1d5f-442d-823d-1945bf1b35b3","ios":"levelo://app?vid=c1dac6bc-1d5f-442d-823d-1945bf1b35b3"},"vehicle_type_id":"4","last_reported":1738357634,"current_range_meters":14400,"station_id":"ce4bhu92rcd13ifvqi70","pricing_plan_id":"cebpf4jnsgd1na2vs0mg"},{"bike_id":"25d1abb7-38f7-4aa9-b93a-52bf90780279","system_id":"levelo_inurba_marseille","lat":43.280738,"lon":5.396448,"is_reserved":false,"is_disabled":false,"rental_uris":{"android":"levelo://app?vid=25d1abb7-38f7-4aa9-b93a-52bf90780279","ios":"levelo://app?vid=25d1abb7-38f7-4aa9-b93a-52bf90780279"},"vehicle_type_id":"4","last_reported":1738357634,"current_range_meters":40000,"station_id":"ce4bho12rcd13ifvqh2g","pricing_plan_id":"cebpf4jnsgd1na2vs0mg"},{"bike_id":"5cd5a23a-ab00-4fbc-8a6c-45981dcdea3e","system_id":"levelo_inurba_marseille","lat":43.23961,"lon":5.36635,"is_reserved":false,"is_disabled":false,"rental_uris":{"android":"levelo://app?vid=5cd5a23a-ab00-4fbc-8a6c-45981dcdea3e","ios":"levelo://app?vid=5cd5a23a-ab00-4fbc-8a6c-45981dcdea3e"},"vehicle_type_id":"4","last_reported":1738357634,"current_range_meters":8800,"station_id":"ce4bhi12rcd13ifvqfp0","pricing_plan_id":"cebpf4jnsgd1na2vs0mg"},{"bike_id":"8ebe91d0-697d-48af-90f7-d4fc0e388068","system_id":"levelo_inurba_marseille","lat":43.2942,"lon":5.38633,"is_reserved":false,"is_disabled":false,"rental_uris":{"android":"levelo://app?vid=8ebe91d0-697d-48af-90f7-d4fc0e388068","ios":"levelo://app?vid=8ebe91d0-697d-48af-90f7-d4fc0e388068"},"vehicle_type_id":"4","last_reported":1738357634,"current_range_meters":36800,"station_id":"ce4bh2h2rcd13ifvqdh0","pricing_plan_id":"cebpf4jnsgd1na2vs0mg"},{"bike_id":"808232f1-e991-4dd8-8765-6f4f5aba4517","system_id":"levelo_inurba_marseille","lat":43.33605,"lon":5.41006,"is_reserved":false,"is_disabled":true,"rental_uris":{"android":"levelo://app?vid=808232f1-e991-4dd8-8765-6f4f5aba4517","ios":"levelo://app?vid=808232f1-e991-4dd8-8765-6f4f5aba4517"},"vehicle_type_id":"4","last_reported":1738357634,"current_range_meters":9600,"station_id":"ce4bhqh2rcd13ifvqhmg","pricing_plan_id":"cebpf4jnsgd1na2vs0mg"},{"bike_id":"e8613ecc-2500-4d5a-a3a3-f97dc50b3964","system_id":"levelo_inurba_marseille","lat":43.29917,"lon":5.3747,"is_reserved":false,"is_disabled":false,"rental_uris":{"android":"levelo://app?vid=e8613ecc-2500-4d5a-a3a3-f97dc50b3964","ios":"levelo://app?vid=e8613ecc-2500-4d5a-a3a3-f97dc50b3964"},"vehicle_type_id":"4","last_reported":1738357634,"current_range_meters":34800,"station_id":"ce4bgjh2rcd13ifvqbg0","pricing_plan_id":"cebpf4jnsgd1na2vs0mg"},{"bike_id":"9199bf8c-07d0-469c-977d-d5098d8aa34d","system_id":"levelo_inurba_marseille","lat":43.30279,"lon":5.37691,"is_reserved":false,"is_disabled":false,"rental_uris":{"android":"levelo://app?vid=9199bf8c-07d0-469c-977d-d5098d8aa34d","ios":"levelo://app?vid=9199bf8c-07d0-469c-977d-d5098d8aa34d"},"vehicle_type_id":"4","last_reported":1738357634,"current_range_meters":14400,"station_id":"ce4bguh2rcd13ifvqcj0","pricing_plan_id":"cebpf4jnsgd1na2vs0mg"},{"bike_id":"095e5291-f842-4478-bc34-3769cd441c0c","system_id":"levelo_inurba_marseille","lat":43.28165,"lon":5.42628,"is_reserved":false,"is_disabled":false,"rental_uris":{"android":"levelo://app?vid=095e5291-f842-4478-bc34-3769cd441c0c","ios":"levelo://app?vid=095e5291-f842-4478-bc34-3769cd441c0c"},"vehicle_type_id":"4","last_reported":1738357634,"current_range_meters":20800,"station_id":"ce4bhnh2rcd13ifvqgug","pricing_plan_id":"cebpf4jnsgd1na2vs0mg"},{"bike_id":"9f7cbc3c-6e0b-4442-8c70-64c0b2a1452e","system_id":"levelo_inurba_marseille","lat":43.23052,"lon":5.35488,"is_reserved":false,"is_disabled":false,"rental_uris":{"android":"levelo://app?vid=9f7cbc3c-6e0b-4442-8c70-64c0b2a1452e","ios":"levelo://app?vid=9f7cbc3c-6e0b-4442-8c70-64c0b2a1452e"},"vehicle_type_id":"4","last_reported":1738357634,"current_range_meters":38800,"station_id":"cpo3342slgdg3j2ifvpg","pricing_plan_id":"cebpf4jnsgd1na2vs0mg"},{"bike_id":"c8a3a0ed-dff2-4f3c-87dc-2e6b47b1ad28","system_id":"levelo_inurba_marseille","lat":43.337444,"lon":5.374475,"is_reserved":false,"is_disabled":true,"rental_uris":{"android":"levelo://app?vid=c8a3a0ed-dff2-4f3c-87dc-2e6b47b1ad28","ios":"levelo://app?vid=c8a3a0ed-dff2-4f3c-87dc-2e6b47b1ad28"},"vehicle_type_id":"4","last_reported":1738357634,"current_range_meters":0,"station_id":"","pricing_plan_id":"cebpf4jnsgd1na2vs0mg"},{"bike_id":"68124c8b-4eb9-4c96-af02-173092cd96c0","system_id":"levelo_inurba_marseille","lat":43.29417,"lon":5.38622,"is_reserved":false,"is_disabled":false,"rental_uris":{"android":"levelo://app?vid=68124c8b-4eb9-4c96-af02-173092cd96c0","ios":"levelo://app?vid=68124c8b-4eb9-4c96-af02-173092cd96c0"},"vehicle_type_id":"4","last_reported":1738357634,"current_range_meters":16000,"station_id":"ce4bh2h2rcd13ifvqdh0","pricing_plan_id":"cebpf4jnsgd1na2vs0mg"},{"bike_id":"1788d525-7a52-48ba-86a3-6ead3164d574","system_id":"levelo_inurba_marseille","lat":43.29874,"lon":5.39744,"is_reserved":false,"is_disabled":false,"rental_uris":{"android":"levelo://app?vid=1788d525-7a52-48ba-86a3-6ead3164d574","ios":"levelo://app?vid=1788d525-7a52-48ba-86a3-6ead3164d574"},"vehicle_type_id":"4","last_reported":1738357634,"current_range_meters":38800,"station_id":"ce4bh0h2rcd13ifvqd50","pricing_plan_id":"cebpf4jnsgd1na2vs0mg"},{"bike_id":"7247902a-635d-4f06-9cf7-f11e089c2d38","system_id":"levelo_inurba_marseille","lat":43.26931,"lon":5.40271,"is_reserved":false,"is_disabled":false,"rental_uris":{"android":"levelo://app?vid=7247902a-635d-4f06-9cf7-f11e089c2d38","ios":"levelo://app?vid=7247902a-635d-4f06-9cf7-f11e089c2d38"},"vehicle_type_id":"4","last_reported":1738357634,"current_range_meters":36800,"station_id":"cjm6bp8fraef2m0cb0m0","pricing_plan_id":"cebpf4jnsgd1na2vs0mg"},{"bike_id":"b9dfdd12-ed8d-4873-9fc8-0a1849f2020b","system_id":"levelo_inurba_marseille","lat":43.26797,"lon":5.40257,"is_reserved":false,"is_disabled":false,"rental_uris":{"android":"levelo://app?vid=b9dfdd12-ed8d-4873-9fc8-0a1849f2020b","ios":"levelo://app?vid=b9dfdd12-ed8d-4873-9fc8-0a1849f2020b"},"vehicle_type_id":"4","last_reported":1738357634,"current_range_meters":37600,"station_id":"ce501612rcd8frsf0b60","pricing_plan_id":"cebpf4jnsgd1na2vs0mg"},{"bike_id":"fc9a5632-1a23-49be-a9e8-dae5d6ebaa4f","system_id":"levelo_inurba_marseille","lat":43.29296,"lon":5.37443,"is_reserved":false,"is_disabled":false,"rental_uris":{"android":"levelo://app?vid=fc9a5632-1a23-49be-a9e8-dae5d6ebaa4f","ios":"levelo://app?vid=fc9a5632-1a23-49be-a9e8-dae5d6ebaa4f"},"vehicle_type_id":"4","last_reported":1738357634,"current_range_meters":30800,"station_id":"ce4bgi12rcd13ifvqb70","pricing_plan_id":"cebpf4jnsgd1na2vs0mg"},{"bike_id":"5e3b520f-d62c-4b62-8a56-6e20bab6654b","system_id":"levelo_inurba_marseille","lat":43.27809,"lon":5.40731,"is_reserved":false,"is_disabled":false,"rental_uris":{"android":"levelo://app?vid=5e3b520f-d62c-4b62-8a56-6e20bab6654b","ios":"levelo://app?vid=5e3b520f-d62c-4b62-8a56-6e20bab6654b"},"vehicle_type_id":"4","last_reported":1738357634,"current_range_meters":25200,"station_id":"ce4bhnh2rcd13ifvqgtg","pricing_plan_id":"cebpf4jnsgd1na2vs0mg"},{"bike_id":"32802d31-82e5-49aa-928e-45336ddb5e58","system_id":"levelo_inurba_marseille","lat":43.24986,"lon":5.38923,"is_reserved":false,"is_disabled":false,"rental_uris":{"android":"levelo://app?vid=32802d31-82e5-49aa-928e-45336ddb5e58","ios":"levelo://app?vid=32802d31-82e5-49aa-928e-45336ddb5e58"},"vehicle_type_id":"4","last_reported":1738357634,"current_range_meters":38800,"station_id":"ce4bhgp2rcd13ifvqfd0","pricing_plan_id":"cebpf4jnsgd1na2vs0mg"},{"bike_id":"d06240a3-8895-42e8-9212-5c068d44e9d2","system_id":"levelo_inurba_marseille","lat":43.28612,"lon":5.35084,"is_reserved":false,"is_disabled":false,"rental_uris":{"android":"levelo://app?vid=d06240a3-8895-42e8-9212-5c068d44e9d2","ios":"levelo://app?vid=d06240a3-8895-42e8-9212-5c068d44e9d2"},"vehicle_type_id":"4","last_reported":1738357634,"current_range_meters":25200,"station_id":"ce4bhch2rcd13ifvqeug","pricing_plan_id":"cebpf4jnsgd1na2vs0mg"},{"bike_id":"0a16e438-c121-4648-b565-5c50fb20c37c","system_id":"levelo_inurba_marseille","lat":43.28915,"lon":5.38392,"is_reserved":false,"is_disabled":false,"rental_uris":{"android":"levelo://app?vid=0a16e438-c121-4648-b565-5c50fb20c37c","ios":"levelo://app?vid=0a16e438-c121-4648-b565-5c50fb20c37c"},"vehicle_type_id":"4","last_reported":1738357634,"current_range_meters":23200,"station_id":"ce4bh612rcd13ifvqe6g","pricing_plan_id":"cebpf4jnsgd1na2vs0mg"},{"bike_id":"c6ad9228-2f33-41f3-a929-9e0a226fedef","system_id":"levelo_inurba_marseille","lat":43.24575,"lon":5.39532,"is_reserved":false,"is_disabled":false,"rental_uris":{"android":"levelo://app?vid=c6ad9228-2f33-41f3-a929-9e0a226fedef","ios":"levelo://app?vid=c6ad9228-2f33-41f3-a929-9e0a226fedef"},"vehicle_type_id":"4","last_reported":1738357634,"current_range_meters":38800,"station_id":"ce4bhlp2rcd13ifvqgjg","pricing_plan_id":"cebpf4jnsgd1na2vs0mg"},{"bike_id":"24d948d0-9354-4cf2-8a16-863ccb7ca3ad","system_id":"levelo_inurba_marseille","lat":43.27938,"lon":5.39587,"is_reserved":false,"is_disabled":false,"rental_uris":{"android":"levelo://app?vid=24d948d0-9354-4cf2-8a16-863ccb7ca3ad","ios":"levelo://app?vid=24d948d0-9354-4cf2-8a16-863ccb7ca3ad"},"vehicle_type_id":"4","last_reported":1738357634,"current_range_meters":32400,"station_id":"ce4bhf92rcd13ifvqf40","pricing_plan_id":"cebpf4jnsgd1na2vs0mg"},{"bike_id":"ab200900-d98d-4901-9c99-470a2fb8f643","system_id":"levelo_inurba_marseille","lat":43.29299,"lon":5.37153,"is_reserved":false,"is_disabled":false,"rental_uris":{"android":"levelo://app?vid=ab200900-d98d-4901-9c99-470a2fb8f643","ios":"levelo://app?vid=ab200900-d98d-4901-9c99-470a2fb8f643"},"vehicle_type_id":"4","last_reported":1738357634,"current_range_meters":38800,"station_id":"ce4bgh92rcd13ifvqb40","pricing_plan_id":"cebpf4jnsgd1na2vs0mg"},{"bike_id":"43590453-7b0e-4ab1-a755-01f76b33a504","system_id":"levelo_inurba_marseille","lat":43.29968,"lon":5.38498,"is_reserved":false,"is_disabled":false,"rental_uris":{"android":"levelo://app?vid=43590453-7b0e-4ab1-a755-01f76b33a504","ios":"levelo://app?vid=43590453-7b0e-4ab1-a755-01f76b33a504"},"vehicle_type_id":"4","last_reported":1738357634,"current_range_meters":6400,"station_id":"ce4bgj92rcd13ifvqbd0","pricing_plan_id":"cebpf4jnsgd1na2vs0mg"},{"bike_id":"e30ef50d-892f-4fe0-938d-57369caf2166","system_id":"levelo_inurba_marseille","lat":43.22921,"lon":5.35394,"is_reserved":false,"is_disabled":false,"rental_uris":{"android":"levelo://app?vid=e30ef50d-892f-4fe0-938d-57369caf2166","ios":"levelo://app?vid=e30ef50d-892f-4fe0-938d-57369caf2166"},"vehicle_type_id":"4","last_reported":1738357634,"current_range_meters":18000,"station_id":"cpo3532slgdg3j2ikp40","pricing_plan_id":"cebpf4jnsgd1na2vs0mg"},{"bike_id":"f0d2a1e7-017a-4664-ae4e-69b94748bc9f","system_id":"levelo_inurba_marseille","lat":43.28271,"lon":5.35076,"is_reserved":false,"is_disabled":false,"rental_uris":{"android":"levelo://app?vid=f0d2a1e7-017a-4664-ae4e-69b94748bc9f","ios":"levelo://app?vid=f0d2a1e7-017a-4664-ae4e-69b94748bc9f"},"vehicle_type_id":"4","last_reported":1738357634,"current_range_meters":39200,"station_id":"ce4bhbp2rcd13ifvqerg","pricing_plan_id":"cebpf4jnsgd1na2vs0mg"},{"bike_id":"9838cc78-2b53-49d3-ae13-82df62c4fd64","system_id":"levelo_inurba_marseille","lat":43.28412,"lon":5.40934,"is_reserved":false,"is_disabled":true,"rental_uris":{"android":"levelo://app?vid=9838cc78-2b53-49d3-ae13-82df62c4fd64","ios":"levelo://app?vid=9838cc78-2b53-49d3-ae13-82df62c4fd64"},"vehicle_type_id":"4","last_reported":1738357634,"current_range_meters":0,"station_id":"","pricing_plan_id":"cebpf4jnsgd1na2vs0mg"},{"bike_id":"05ff5d7f-477f-4560-9868-c7b3d23f1691","system_id":"levelo_inurba_marseille","lat":43.30892,"lon":5.39646,"is_reserved":false,"is_disabled":false,"rental_uris":{"android":"levelo://app?vid=05ff5d7f-477f-4560-9868-c7b3d23f1691","ios":"levelo://app?vid=05ff5d7f-477f-4560-9868-c7b3d23f1691"},"vehicle_type_id":"4","last_reported":1738357634,"current_range_meters":39200,"station_id":"ce4bh012rcd13ifvqcv0","pricing_plan_id":"cebpf4jnsgd1na2vs0mg"},{"bike_id":"7263b244-c488-4a98-b264-4ca2fd7528c4","system_id":"levelo_inurba_marseille","lat":43.25495,"lon":5.37643,"is_reserved":false,"is_disabled":false,"rental_uris":{"android":"levelo://app?vid=7263b244-c488-4a98-b264-4ca2fd7528c4","ios":"levelo://app?vid=7263b244-c488-4a98-b264-4ca2fd7528c4"},"vehicle_type_id":"4","last_reported":1738357634,"current_range_meters":38800,"station_id":"ce4bhh12rcd13ifvqff0","pricing_plan_id":"cebpf4jnsgd1na2vs0mg"},{"bike_id":"06977de7-ec00-4430-96f6-8e5173f30305","system_id":"levelo_inurba_marseille","lat":43.31086,"lon":5.42433,"is_reserved":false,"is_disabled":false,"rental_uris":{"android":"levelo://app?vid=06977de7-ec00-4430-96f6-8e5173f30305","ios":"levelo://app?vid=06977de7-ec00-4430-96f6-8e5173f30305"},"vehicle_type_id":"4","last_reported":1738357634,"current_range_meters":36000,"station_id":"ce4bhp92rcd13ifvqhag","pricing_plan_id":"cebpf4jnsgd1na2vs0mg"},{"bike_id":"78b43ac5-e91a-459f-a654-a1d5375a0672","system_id":"levelo_inurba_marseille","lat":43.29892,"lon":5.43656,"is_reserved":false,"is_disabled":false,"rental_uris":{"android":"levelo://app?vid=78b43ac5-e91a-459f-a654-a1d5375a0672","ios":"levelo://app?vid=78b43ac5-e91a-459f-a654-a1d5375a0672"},"vehicle_type_id":"4","last_reported":1738357634,"current_range_meters":11200,"station_id":"ce4bhpp2rcd13ifvqhfg","pricing_plan_id":"cebpf4jnsgd1na2vs0mg"},{"bike_id":"471c74b1-ee56-488e-a2bb-4b047e8b2688","system_id":"levelo_inurba_marseille","lat":43.28344,"lon":5.38101,"is_reserved":false,"is_disabled":false,"rental_uris":{"android":"levelo://app?vid=471c74b1-ee56-488e-a2bb-4b047e8b2688","ios":"levelo://app?vid=471c74b1-ee56-488e-a2bb-4b047e8b2688"},"vehicle_type_id":"4","last_reported":1738357634,"current_range_meters":38400,"station_id":"ce4bh412rcd13ifvqdr0","pricing_plan_id":"cebpf4jnsgd1na2vs0mg"},{"bike_id":"c4d179c7-038a-4c7d-b1eb-446ce5de79c4","system_id":"levelo_inurba_marseille","lat":43.29026,"lon":5.38639,"is_reserved":false,"is_disabled":false,"rental_uris":{"android":"levelo://app?vid=c4d179c7-038a-4c7d-b1eb-446ce5de79c4","ios":"levelo://app?vid=c4d179c7-038a-4c7d-b1eb-446ce5de79c4"},"vehicle_type_id":"4","last_reported":1738357634,"current_range_meters":28400,"station_id":"ce4bh4p2rcd13ifvqe0g","pricing_plan_id":"cebpf4jnsgd1na2vs0mg"},{"bike_id":"3d3683d0-6fa2-4625-8b79-882bbb185c30","system_id":"levelo_inurba_marseille","lat":43.32274,"lon":5.38273,"is_reserved":false,"is_disabled":false,"rental_uris":{"android":"levelo://app?vid=3d3683d0-6fa2-4625-8b79-882bbb185c30","ios":"levelo://app?vid=3d3683d0-6fa2-4625-8b79-882bbb185c30"},"vehicle_type_id":"4","last_reported":1738357634,"current_range_meters":27200,"station_id":"ce4bhr12rcd13ifvqhqg","pricing_plan_id":"cebpf4jnsgd1na2vs0mg"},{"bike_id":"49ec1a60-c709-436e-9451-39667baa706d","system_id":"levelo_inurba_marseille","lat":43.25105,"lon":5.40324,"is_reserved":false,"is_disabled":false,"rental_uris":{"android":"levelo://app?vid=49ec1a60-c709-436e-9451-39667baa706d","ios":"levelo://app?vid=49ec1a60-c709-436e-9451-39667baa706d"},"vehicle_type_id":"4","last_reported":1738357634,"current_range_meters":8000,"station_id":"ce4bhlh2rcd13ifvqgig","pricing_plan_id":"cebpf4jnsgd1na2vs0mg"},{"bike_id":"be028522-0808-40e9-a8ef-6997c8d3bea4","system_id":"levelo_inurba_marseille","lat":43.29415,"lon":5.38636,"is_reserved":false,"is_disabled":false,"rental_uris":{"android":"levelo://app?vid=be028522-0808-40e9-a8ef-6997c8d3bea4","ios":"levelo://app?vid=be028522-0808-40e9-a8ef-6997c8d3bea4"},"vehicle_type_id":"4","last_reported":1738357634,"current_range_meters":16400,"station_id":"ce4bh2h2rcd13ifvqdh0","pricing_plan_id":"cebpf4jnsgd1na2vs0mg"},{"bike_id":"f7724904-e6a0-475a-94dc-eb5a2aaba110","system_id":"levelo_inurba_marseille","lat":43.279959,"lon":5.400175,"is_reserved":false,"is_disabled":false,"rental_uris":{"android":"levelo://app?vid=f7724904-e6a0-475a-94dc-eb5a2aaba110","ios":"levelo://app?vid=f7724904-e6a0-475a-94dc-eb5a2aaba110"},"vehicle_type_id":"4","last_reported":1738357634,"current_range_meters":38800,"station_id":"ce4bho92rcd13ifvqh4g","pricing_plan_id":"cebpf4jnsgd1na2vs0mg"},{"bike_id":"a5536eb2-7c9b-4d87-87fa-195cc64f7ed9","system_id":"levelo_inurba_marseille","lat":43.30889,"lon":5.39647,"is_reserved":false,"is_disabled":false,"rental_uris":{"android":"levelo://app?vid=a5536eb2-7c9b-4d87-87fa-195cc64f7ed9","ios":"levelo://app?vid=a5536eb2-7c9b-4d87-87fa-195cc64f7ed9"},"vehicle_type_id":"4","last_reported":1738357634,"current_range_meters":32800,"station_id":"ce4bh012rcd13ifvqcv0","pricing_plan_id":"cebpf4jnsgd1na2vs0mg"},{"bike_id":"e2c49145-d80d-4c68-8184-02b30e52c755","system_id":"levelo_inurba_marseille","lat":43.308,"lon":5.43516,"is_reserved":false,"is_disabled":false,"rental_uris":{"android":"levelo://app?vid=e2c49145-d80d-4c68-8184-02b30e52c755","ios":"levelo://app?vid=e2c49145-d80d-4c68-8184-02b30e52c755"},"vehicle_type_id":"4","last_reported":1738357634,"current_range_meters":28000,"station_id":"ce4bhph2rcd13ifvqheg","pricing_plan_id":"cebpf4jnsgd1na2vs0mg"},{"bike_id":"e6b7ae72-14fe-4521-a3b1-f38c27fdd8c0","system_id":"levelo_inurba_marseille","lat":43.2501,"lon":5.38916,"is_reserved":false,"is_disabled":false,"rental_uris":{"android":"levelo://app?vid=e6b7ae72-14fe-4521-a3b1-f38c27fdd8c0","ios":"levelo://app?vid=e6b7ae72-14fe-4521-a3b1-f38c27fdd8c0"},"vehicle_type_id":"4","last_reported":1738357634,"current_range_meters":8000,"station_id":"ce4bhgp2rcd13ifvqfd0","pricing_plan_id":"cebpf4jnsgd1na2vs0mg"},{"bike_id":"d979d8d2-ec65-47af-9229-e4270aab279a","system_id":"levelo_inurba_marseille","lat":43.23077,"lon":5.35482,"is_reserved":false,"is_disabled":false,"rental_uris":{"android":"levelo://app?vid=d979d8d2-ec65-47af-9229-e4270aab279a","ios":"levelo://app?vid=d979d8d2-ec65-47af-9229-e4270aab279a"},"vehicle_type_id":"4","last_reported":1738357634,"current_range_meters":8400,"station_id":"cpo3342slgdg3j2ifvpg","pricing_plan_id":"cebpf4jnsgd1na2vs0mg"},{"bike_id":"d98563e5-2f34-48e4-8a4a-f5b9ec72e6d9","system_id":"levelo_inurba_marseille","lat":43.27995,"lon":5.39996,"is_reserved":false,"is_disabled":false,"rental_uris":{"android":"levelo://app?vid=d98563e5-2f34-48e4-8a4a-f5b9ec72e6d9","ios":"levelo://app?vid=d98563e5-2f34-48e4-8a4a-f5b9ec72e6d9"},"vehicle_type_id":"4","last_reported":1738357634,"current_range_meters":25600,"station_id":"ce4bho92rcd13ifvqh4g","pricing_plan_id":"cebpf4jnsgd1na2vs0mg"},{"bike_id":"f10d9b40-8520-41ee-b039-cd6e7d066065","system_id":"levelo_inurba_marseille","lat":43.26218,"lon":5.37437,"is_reserved":false,"is_disabled":false,"rental_uris":{"android":"levelo://app?vid=f10d9b40-8520-41ee-b039-cd6e7d066065","ios":"levelo://app?vid=f10d9b40-8520-41ee-b039-cd6e7d066065"},"vehicle_type_id":"4","last_reported":1738357634,"current_range_meters":32000,"station_id":"ce4bhgp2rcd13ifvqfc0","pricing_plan_id":"cebpf4jnsgd1na2vs0mg"},{"bike_id":"22b8fd42-3f77-413c-83e6-c52221eb4cd7","system_id":"levelo_inurba_marseille","lat":43.30952,"lon":5.39031,"is_reserved":false,"is_disabled":false,"rental_uris":{"android":"levelo://app?vid=22b8fd42-3f77-413c-83e6-c52221eb4cd7","ios":"levelo://app?vid=22b8fd42-3f77-413c-83e6-c52221eb4cd7"},"vehicle_type_id":"4","last_reported":1738357634,"current_range_meters":39200,"station_id":"ce4bgup2rcd13ifvqco0","pricing_plan_id":"cebpf4jnsgd1na2vs0mg"},{"bike_id":"f35c5707-b892-43a1-9b0f-bbdf61bc2676","system_id":"levelo_inurba_marseille","lat":43.31168,"lon":5.38717,"is_reserved":false,"is_disabled":false,"rental_uris":{"android":"levelo://app?vid=f35c5707-b892-43a1-9b0f-bbdf61bc2676","ios":"levelo://app?vid=f35c5707-b892-43a1-9b0f-bbdf61bc2676"},"vehicle_type_id":"4","last_reported":1738357634,"current_range_meters":36000,"station_id":"ce4bgv12rcd13ifvqcp0","pricing_plan_id":"cebpf4jnsgd1na2vs0mg"},{"bike_id":"f58ce7d6-074e-40a4-a249-d049275f7993","system_id":"levelo_inurba_marseille","lat":43.26497,"lon":5.39557,"is_reserved":false,"is_disabled":false,"rental_uris":{"android":"levelo://app?vid=f58ce7d6-074e-40a4-a249-d049275f7993","ios":"levelo://app?vid=f58ce7d6-074e-40a4-a249-d049275f7993"},"vehicle_type_id":"4","last_reported":1738357634,"current_range_meters":11600,"station_id":"ce4bhi12rcd13ifvqfq0","pricing_plan_id":"cebpf4jnsgd1na2vs0mg"},{"bike_id":"5f54821c-0fbe-49b4-9faa-b664d07c2b1a","system_id":"levelo_inurba_marseille","lat":43.244,"lon":5.37069,"is_reserved":false,"is_disabled":true,"rental_uris":{"android":"levelo://app?vid=5f54821c-0fbe-49b4-9faa-b664d07c2b1a","ios":"levelo://app?vid=5f54821c-0fbe-49b4-9faa-b664d07c2b1a"},"vehicle_type_id":"4","last_reported":1738357634,"current_range_meters":800,"station_id":"ce4bhhh2rcd13ifvqfk0","pricing_plan_id":"cebpf4jnsgd1na2vs0mg"},{"bike_id":"6951eebc-7f6d-4e4a-9f3f-5b0ee979e759","system_id":"levelo_inurba_marseille","lat":43.29916,"lon":5.43653,"is_reserved":false,"is_disabled":false,"rental_uris":{"android":"levelo://app?vid=6951eebc-7f6d-4e4a-9f3f-5b0ee979e759","ios":"levelo://app?vid=6951eebc-7f6d-4e4a-9f3f-5b0ee979e759"},"vehicle_type_id":"4","last_reported":1738357634,"current_range_meters":8800,"station_id":"ce4bhpp2rcd13ifvqhfg","pricing_plan_id":"cebpf4jnsgd1na2vs0mg"},{"bike_id":"7d6260ec-6d8c-4d5b-8950-1a493871014c","system_id":"levelo_inurba_marseille","lat":43.29906,"lon":5.43691,"is_reserved":false,"is_disabled":false,"rental_uris":{"android":"levelo://app?vid=7d6260ec-6d8c-4d5b-8950-1a493871014c","ios":"levelo://app?vid=7d6260ec-6d8c-4d5b-8950-1a493871014c"},"vehicle_type_id":"4","last_reported":1738357634,"current_range_meters":28800,"station_id":"ce4bhpp2rcd13ifvqhfg","pricing_plan_id":"cebpf4jnsgd1na2vs0mg"},{"bike_id":"8fb87a43-4f30-4949-ae1e-488e0b8d4739","system_id":"levelo_inurba_marseille","lat":43.29422,"lon":5.38641,"is_reserved":false,"is_disabled":false,"rental_uris":{"android":"levelo://app?vid=8fb87a43-4f30-4949-ae1e-488e0b8d4739","ios":"levelo://app?vid=8fb87a43-4f30-4949-ae1e-488e0b8d4739"},"vehicle_type_id":"4","last_reported":1738357634,"current_range_meters":38800,"station_id":"ce4bh2h2rcd13ifvqdh0","pricing_plan_id":"cebpf4jnsgd1na2vs0mg"},{"bike_id":"d1f63a56-0785-4338-a045-3368781b9441","system_id":"levelo_inurba_marseille","lat":43.28001,"lon":5.40004,"is_reserved":false,"is_disabled":false,"rental_uris":{"android":"levelo://app?vid=d1f63a56-0785-4338-a045-3368781b9441","ios":"levelo://app?vid=d1f63a56-0785-4338-a045-3368781b9441"},"vehicle_type_id":"4","last_reported":1738357634,"current_range_meters":25200,"station_id":"ce4bho92rcd13ifvqh4g","pricing_plan_id":"cebpf4jnsgd1na2vs0mg"},{"bike_id":"f99e91c4-2330-4795-bfe7-3495ca9ba92c","system_id":"levelo_inurba_marseille","lat":43.28937,"lon":5.36627,"is_reserved":false,"is_disabled":true,"rental_uris":{"android":"levelo://app?vid=f99e91c4-2330-4795-bfe7-3495ca9ba92c","ios":"levelo://app?vid=f99e91c4-2330-4795-bfe7-3495ca9ba92c"},"vehicle_type_id":"4","last_reported":1738357634,"current_range_meters":36400,"station_id":"ce4bhap2rcd13ifvqek0","pricing_plan_id":"cebpf4jnsgd1na2vs0mg"},{"bike_id":"682a9e54-ecb8-495c-88d2-a74ee011243f","system_id":"levelo_inurba_marseille","lat":43.23225,"lon":5.35568,"is_reserved":false,"is_disabled":false,"rental_uris":{"android":"levelo://app?vid=682a9e54-ecb8-495c-88d2-a74ee011243f","ios":"levelo://app?vid=682a9e54-ecb8-495c-88d2-a74ee011243f"},"vehicle_type_id":"4","last_reported":1738357634,"current_range_meters":39200,"station_id":"ce4bhu92rcd13ifvqi70","pricing_plan_id":"cebpf4jnsgd1na2vs0mg"},{"bike_id":"396d2bf0-6b5f-403b-bacf-9deaab552e51","system_id":"levelo_inurba_marseille","lat":43.23962,"lon":5.36625,"is_reserved":false,"is_disabled":false,"rental_uris":{"android":"levelo://app?vid=396d2bf0-6b5f-403b-bacf-9deaab552e51","ios":"levelo://app?vid=396d2bf0-6b5f-403b-bacf-9deaab552e51"},"vehicle_type_id":"4","last_reported":1738357634,"current_range_meters":10800,"station_id":"ce4bhi12rcd13ifvqfp0","pricing_plan_id":"cebpf4jnsgd1na2vs0mg"},{"bike_id":"d8b1c3f9-ff6e-4179-8423-4ba0d2a2af0e","system_id":"levelo_inurba_marseille","lat":43.33757,"lon":5.39186,"is_reserved":false,"is_disabled":false,"rental_uris":{"android":"levelo://app?vid=d8b1c3f9-ff6e-4179-8423-4ba0d2a2af0e","ios":"levelo://app?vid=d8b1c3f9-ff6e-4179-8423-4ba0d2a2af0e"},"vehicle_type_id":"4","last_reported":1738357634,"current_range_meters":38800,"station_id":"ce4bhr92rcd13ifvqhsg","pricing_plan_id":"cebpf4jnsgd1na2vs0mg"},{"bike_id":"bf3c1712-16f8-417b-93f5-b2dc857fa88d","system_id":"levelo_inurba_marseille","lat":43.291,"lon":5.38138,"is_reserved":false,"is_disabled":false,"rental_uris":{"android":"levelo://app?vid=bf3c1712-16f8-417b-93f5-b2dc857fa88d","ios":"levelo://app?vid=bf3c1712-16f8-417b-93f5-b2dc857fa88d"},"vehicle_type_id":"4","last_reported":1738357634,"current_range_meters":15200,"station_id":"ce4bh512rcd13ifvqe2g","pricing_plan_id":"cebpf4jnsgd1na2vs0mg"},{"bike_id":"42a9e3d0-b5f9-40a4-bbd4-19695b9a6333","system_id":"levelo_inurba_marseille","lat":43.33015,"lon":5.39042,"is_reserved":false,"is_disabled":false,"rental_uris":{"android":"levelo://app?vid=42a9e3d0-b5f9-40a4-bbd4-19695b9a6333","ios":"levelo://app?vid=42a9e3d0-b5f9-40a4-bbd4-19695b9a6333"},"vehicle_type_id":"4","last_reported":1738357634,"current_range_meters":38800,"station_id":"ce4bhr92rcd13ifvqhrg","pricing_plan_id":"cebpf4jnsgd1na2vs0mg"},{"bike_id":"23d607b4-9cdd-4843-8952-4da90f95e291","system_id":"levelo_inurba_marseille","lat":43.23194,"lon":5.39985,"is_reserved":false,"is_disabled":false,"rental_uris":{"android":"levelo://app?vid=23d607b4-9cdd-4843-8952-4da90f95e291","ios":"levelo://app?vid=23d607b4-9cdd-4843-8952-4da90f95e291"},"vehicle_type_id":"4","last_reported":1738357634,"current_range_meters":32400,"station_id":"ce4bhn12rcd13ifvqgqg","pricing_plan_id":"cebpf4jnsgd1na2vs0mg"},{"bike_id":"37a316fb-b3fd-47c4-b337-ae3ed2613770","system_id":"levelo_inurba_marseille","lat":43.25861,"lon":5.39908,"is_reserved":false,"is_disabled":false,"rental_uris":{"android":"levelo://app?vid=37a316fb-b3fd-47c4-b337-ae3ed2613770","ios":"levelo://app?vid=37a316fb-b3fd-47c4-b337-ae3ed2613770"},"vehicle_type_id":"4","last_reported":1738357634,"current_range_meters":38000,"station_id":"ce4bhl92rcd13ifvqghg","pricing_plan_id":"cebpf4jnsgd1na2vs0mg"},{"bike_id":"f086b070-9af2-4a12-baa6-4f5148d2f614","system_id":"levelo_inurba_marseille","lat":43.27817,"lon":5.40728,"is_reserved":false,"is_disabled":false,"rental_uris":{"android":"levelo://app?vid=f086b070-9af2-4a12-baa6-4f5148d2f614","ios":"levelo://app?vid=f086b070-9af2-4a12-baa6-4f5148d2f614"},"vehicle_type_id":"4","last_reported":1738357634,"current_range_meters":18000,"station_id":"ce4bhnh2rcd13ifvqgtg","pricing_plan_id":"cebpf4jnsgd1na2vs0mg"},{"bike_id":"f1531728-b8ea-45f6-b10e-94dd52db4db3","system_id":"levelo_inurba_marseille","lat":43.31324,"lon":5.397,"is_reserved":false,"is_disabled":false,"rental_uris":{"android":"levelo://app?vid=f1531728-b8ea-45f6-b10e-94dd52db4db3","ios":"levelo://app?vid=f1531728-b8ea-45f6-b10e-94dd52db4db3"},"vehicle_type_id":"4","last_reported":1738357634,"current_range_meters":38800,"station_id":"ce4bgvp2rcd13ifvqcu0","pricing_plan_id":"cebpf4jnsgd1na2vs0mg"},{"bike_id":"8abe3673-7e2e-4cbe-a62f-ade4f7ff6e78","system_id":"levelo_inurba_marseille","lat":43.29018,"lon":5.35927,"is_reserved":false,"is_disabled":false,"rental_uris":{"android":"levelo://app?vid=8abe3673-7e2e-4cbe-a62f-ade4f7ff6e78","ios":"levelo://app?vid=8abe3673-7e2e-4cbe-a62f-ade4f7ff6e78"},"vehicle_type_id":"4","last_reported":1738357634,"current_range_meters":39200,"station_id":"ce4bha92rcd13ifvqeg0","pricing_plan_id":"cebpf4jnsgd1na2vs0mg"},{"bike_id":"bff992ad-b2cb-4dea-89a2-1c1ff4d2b655","system_id":"levelo_inurba_marseille","lat":43.27995,"lon":5.40022,"is_reserved":false,"is_disabled":false,"rental_uris":{"android":"levelo://app?vid=bff992ad-b2cb-4dea-89a2-1c1ff4d2b655","ios":"levelo://app?vid=bff992ad-b2cb-4dea-89a2-1c1ff4d2b655"},"vehicle_type_id":"4","last_reported":1738357634,"current_range_meters":28000,"station_id":"ce4bho92rcd13ifvqh4g","pricing_plan_id":"cebpf4jnsgd1na2vs0mg"},{"bike_id":"2047e938-57e3-4375-958a-69a4e97a2c7d","system_id":"levelo_inurba_marseille","lat":43.23188,"lon":5.39988,"is_reserved":false,"is_disabled":false,"rental_uris":{"android":"levelo://app?vid=2047e938-57e3-4375-958a-69a4e97a2c7d","ios":"levelo://app?vid=2047e938-57e3-4375-958a-69a4e97a2c7d"},"vehicle_type_id":"4","last_reported":1738357634,"current_range_meters":11600,"station_id":"ce4bhn12rcd13ifvqgqg","pricing_plan_id":"cebpf4jnsgd1na2vs0mg"},{"bike_id":"013bfe64-6314-4103-8753-ed1e453c4bb8","system_id":"levelo_inurba_marseille","lat":43.28071,"lon":5.36913,"is_reserved":false,"is_disabled":false,"rental_uris":{"android":"levelo://app?vid=013bfe64-6314-4103-8753-ed1e453c4bb8","ios":"levelo://app?vid=013bfe64-6314-4103-8753-ed1e453c4bb8"},"vehicle_type_id":"4","last_reported":1738357634,"current_range_meters":38400,"station_id":"ce4bha12rcd13ifvqef0","pricing_plan_id":"cebpf4jnsgd1na2vs0mg"},{"bike_id":"a73f9b97-22c5-4325-8124-13e52333d434","system_id":"levelo_inurba_marseille","lat":43.31707,"lon":5.40461,"is_reserved":false,"is_disabled":false,"rental_uris":{"android":"levelo://app?vid=a73f9b97-22c5-4325-8124-13e52333d434","ios":"levelo://app?vid=a73f9b97-22c5-4325-8124-13e52333d434"},"vehicle_type_id":"4","last_reported":1738357634,"current_range_meters":32000,"station_id":"ce4bh012rcd13ifvqd00","pricing_plan_id":"cebpf4jnsgd1na2vs0mg"},{"bike_id":"84092c01-502f-4324-b503-b39b88c1d336","system_id":"levelo_inurba_marseille","lat":43.29305,"lon":5.37144,"is_reserved":false,"is_disabled":false,"rental_uris":{"android":"levelo://app?vid=84092c01-502f-4324-b503-b39b88c1d336","ios":"levelo://app?vid=84092c01-502f-4324-b503-b39b88c1d336"},"vehicle_type_id":"4","last_reported":1738357634,"current_range_meters":18800,"station_id":"ce4bgh92rcd13ifvqb40","pricing_plan_id":"cebpf4jnsgd1na2vs0mg"},{"bike_id":"1c5f32a5-3fae-4ceb-8b01-7113aed4134b","system_id":"levelo_inurba_marseille","lat":43.25579,"lon":5.38232,"is_reserved":false,"is_disabled":false,"rental_uris":{"android":"levelo://app?vid=1c5f32a5-3fae-4ceb-8b01-7113aed4134b","ios":"levelo://app?vid=1c5f32a5-3fae-4ceb-8b01-7113aed4134b"},"vehicle_type_id":"4","last_reported":1738357634,"current_range_meters":10000,"station_id":"ce4bhih2rcd13ifvqfs0","pricing_plan_id":"cebpf4jnsgd1na2vs0mg"},{"bike_id":"fa007fe0-3dc1-405c-9d10-9879e2200643","system_id":"levelo_inurba_marseille","lat":43.323396,"lon":5.40627,"is_reserved":false,"is_disabled":false,"rental_uris":{"android":"levelo://app?vid=fa007fe0-3dc1-405c-9d10-9879e2200643","ios":"levelo://app?vid=fa007fe0-3dc1-405c-9d10-9879e2200643"},"vehicle_type_id":"4","last_reported":1738357634,"current_range_meters":22800,"station_id":"ce4bhq92rcd13ifvqhjg","pricing_plan_id":"cebpf4jnsgd1na2vs0mg"},{"bike_id":"220143ae-4642-4efa-98c2-ad308a1a9de7","system_id":"levelo_inurba_marseille","lat":43.29263,"lon":5.38458,"is_reserved":false,"is_disabled":false,"rental_uris":{"android":"levelo://app?vid=220143ae-4642-4efa-98c2-ad308a1a9de7","ios":"levelo://app?vid=220143ae-4642-4efa-98c2-ad308a1a9de7"},"vehicle_type_id":"4","last_reported":1738357634,"current_range_meters":6000,"station_id":"ce4bh692rcd13ifvqea0","pricing_plan_id":"cebpf4jnsgd1na2vs0mg"},{"bike_id":"e88eb1f3-8ae0-45d5-b478-7fa0e88e8228","system_id":"levelo_inurba_marseille","lat":43.32293,"lon":5.38244,"is_reserved":false,"is_disabled":false,"rental_uris":{"android":"levelo://app?vid=e88eb1f3-8ae0-45d5-b478-7fa0e88e8228","ios":"levelo://app?vid=e88eb1f3-8ae0-45d5-b478-7fa0e88e8228"},"vehicle_type_id":"4","last_reported":1738357634,"current_range_meters":36800,"station_id":"ce4bhr12rcd13ifvqhqg","pricing_plan_id":"cebpf4jnsgd1na2vs0mg"},{"bike_id":"ea8d3c0c-adb0-4133-9cbe-887f2199de61","system_id":"levelo_inurba_marseille","lat":43.27993,"lon":5.40011,"is_reserved":false,"is_disabled":false,"rental_uris":{"android":"levelo://app?vid=ea8d3c0c-adb0-4133-9cbe-887f2199de61","ios":"levelo://app?vid=ea8d3c0c-adb0-4133-9cbe-887f2199de61"},"vehicle_type_id":"4","last_reported":1738357634,"current_range_meters":14400,"station_id":"ce4bho92rcd13ifvqh4g","pricing_plan_id":"cebpf4jnsgd1na2vs0mg"},{"bike_id":"0fc8ef95-5e15-4825-b91c-cf0a986a3e9e","system_id":"levelo_inurba_marseille","lat":43.23194,"lon":5.39997,"is_reserved":false,"is_disabled":false,"rental_uris":{"android":"levelo://app?vid=0fc8ef95-5e15-4825-b91c-cf0a986a3e9e","ios":"levelo://app?vid=0fc8ef95-5e15-4825-b91c-cf0a986a3e9e"},"vehicle_type_id":"4","last_reported":1738357634,"current_range_meters":24400,"station_id":"ce4bhn12rcd13ifvqgqg","pricing_plan_id":"cebpf4jnsgd1na2vs0mg"},{"bike_id":"1dcb01b3-7d81-4df1-a354-a6092757b80d","system_id":"levelo_inurba_marseille","lat":43.28692,"lon":5.37401,"is_reserved":false,"is_disabled":true,"rental_uris":{"android":"levelo://app?vid=1dcb01b3-7d81-4df1-a354-a6092757b80d","ios":"levelo://app?vid=1dcb01b3-7d81-4df1-a354-a6092757b80d"},"vehicle_type_id":"4","last_reported":1738357634,"current_range_meters":1600,"station_id":"ce4bh3p2rcd13ifvqdq0","pricing_plan_id":"cebpf4jnsgd1na2vs0mg"},{"bike_id":"581e7ab9-83b8-4702-83ae-b08dbfb984aa","system_id":"levelo_inurba_marseille","lat":43.29573,"lon":5.37522,"is_reserved":false,"is_disabled":false,"rental_uris":{"android":"levelo://app?vid=581e7ab9-83b8-4702-83ae-b08dbfb984aa","ios":"levelo://app?vid=581e7ab9-83b8-4702-83ae-b08dbfb984aa"},"vehicle_type_id":"4","last_reported":1738357634,"current_range_meters":7200,"station_id":"ce4bgh92rcd13ifvqb50","pricing_plan_id":"cebpf4jnsgd1na2vs0mg"},{"bike_id":"021fce12-ccb6-40f5-815b-8297c4620c5a","system_id":"levelo_inurba_marseille","lat":43.27995,"lon":5.40002,"is_reserved":false,"is_disabled":false,"rental_uris":{"android":"levelo://app?vid=021fce12-ccb6-40f5-815b-8297c4620c5a","ios":"levelo://app?vid=021fce12-ccb6-40f5-815b-8297c4620c5a"},"vehicle_type_id":"4","last_reported":1738357634,"current_range_meters":31200,"station_id":"ce4bho92rcd13ifvqh4g","pricing_plan_id":"cebpf4jnsgd1na2vs0mg"},{"bike_id":"3346a419-be0e-4728-b7ad-e82cc807d372","system_id":"levelo_inurba_marseille","lat":43.2954,"lon":5.38543,"is_reserved":false,"is_disabled":false,"rental_uris":{"android":"levelo://app?vid=3346a419-be0e-4728-b7ad-e82cc807d372","ios":"levelo://app?vid=3346a419-be0e-4728-b7ad-e82cc807d372"},"vehicle_type_id":"4","last_reported":1738357634,"current_range_meters":38000,"station_id":"ce4bgih2rcd13ifvqba0","pricing_plan_id":"cebpf4jnsgd1na2vs0mg"},{"bike_id":"39c5a16d-0c0c-4cb6-8b0d-712e14d9d25d","system_id":"levelo_inurba_marseille","lat":43.2927,"lon":5.36843,"is_reserved":false,"is_disabled":false,"rental_uris":{"android":"levelo://app?vid=39c5a16d-0c0c-4cb6-8b0d-712e14d9d25d","ios":"levelo://app?vid=39c5a16d-0c0c-4cb6-8b0d-712e14d9d25d"},"vehicle_type_id":"4","last_reported":1738357634,"current_range_meters":38800,"station_id":"ce4bhbp2rcd13ifvqesg","pricing_plan_id":"cebpf4jnsgd1na2vs0mg"},{"bike_id":"2dce20e6-863a-4441-8b12-34c7c91f2b10","system_id":"levelo_inurba_marseille","lat":43.29562,"lon":5.39761,"is_reserved":false,"is_disabled":false,"rental_uris":{"android":"levelo://app?vid=2dce20e6-863a-4441-8b12-34c7c91f2b10","ios":"levelo://app?vid=2dce20e6-863a-4441-8b12-34c7c91f2b10"},"vehicle_type_id":"4","last_reported":1738357634,"current_range_meters":38400,"station_id":"ce4bh3p2rcd13ifvqdp0","pricing_plan_id":"cebpf4jnsgd1na2vs0mg"},{"bike_id":"df992793-2c1e-4a77-bff3-45b59f606f19","system_id":"levelo_inurba_marseille","lat":43.30884,"lon":5.37197,"is_reserved":false,"is_disabled":true,"rental_uris":{"android":"levelo://app?vid=df992793-2c1e-4a77-bff3-45b59f606f19","ios":"levelo://app?vid=df992793-2c1e-4a77-bff3-45b59f606f19"},"vehicle_type_id":"4","last_reported":1738357634,"current_range_meters":37600,"station_id":"ce4bguh2rcd13ifvqckg","pricing_plan_id":"cebpf4jnsgd1na2vs0mg"},{"bike_id":"e76772ad-4d7b-4743-aa72-133535f3d9df","system_id":"levelo_inurba_marseille","lat":43.296239,"lon":5.377045,"is_reserved":false,"is_disabled":true,"rental_uris":{"android":"levelo://app?vid=e76772ad-4d7b-4743-aa72-133535f3d9df","ios":"levelo://app?vid=e76772ad-4d7b-4743-aa72-133535f3d9df"},"vehicle_type_id":"4","last_reported":1738357634,"current_range_meters":0,"station_id":"","pricing_plan_id":"cebpf4jnsgd1na2vs0mg"},{"bike_id":"9aee4606-c150-4ae9-8663-a503bb7126aa","system_id":"levelo_inurba_marseille","lat":43.32366,"lon":5.38881,"is_reserved":false,"is_disabled":false,"rental_uris":{"android":"levelo://app?vid=9aee4606-c150-4ae9-8663-a503bb7126aa","ios":"levelo://app?vid=9aee4606-c150-4ae9-8663-a503bb7126aa"},"vehicle_type_id":"4","last_reported":1738357634,"current_range_meters":28000,"station_id":"ce4bhqp2rcd13ifvqhog","pricing_plan_id":"cebpf4jnsgd1na2vs0mg"},{"bike_id":"ab2c796a-c23b-4a3a-9534-777b873d6a05","system_id":"levelo_inurba_marseille","lat":43.2415,"lon":5.36426,"is_reserved":false,"is_disabled":false,"rental_uris":{"android":"levelo://app?vid=ab2c796a-c23b-4a3a-9534-777b873d6a05","ios":"levelo://app?vid=ab2c796a-c23b-4a3a-9534-777b873d6a05"},"vehicle_type_id":"4","last_reported":1738357634,"current_range_meters":36000,"station_id":"cpo36qri1sfpv3e86is0","pricing_plan_id":"cebpf4jnsgd1na2vs0mg"},{"bike_id":"1b857ce7-a20c-4770-9790-7268dce5d355","system_id":"levelo_inurba_marseille","lat":43.28469,"lon":5.38429,"is_reserved":false,"is_disabled":true,"rental_uris":{"android":"levelo://app?vid=1b857ce7-a20c-4770-9790-7268dce5d355","ios":"levelo://app?vid=1b857ce7-a20c-4770-9790-7268dce5d355"},"vehicle_type_id":"4","last_reported":1738357634,"current_range_meters":0,"station_id":"ce4bh512rcd13ifvqe3g","pricing_plan_id":"cebpf4jnsgd1na2vs0mg"},{"bike_id":"f23288ee-b791-411e-a378-ca85264c7ecc","system_id":"levelo_inurba_marseille","lat":43.29274,"lon":5.38426,"is_reserved":false,"is_disabled":false,"rental_uris":{"android":"levelo://app?vid=f23288ee-b791-411e-a378-ca85264c7ecc","ios":"levelo://app?vid=f23288ee-b791-411e-a378-ca85264c7ecc"},"vehicle_type_id":"4","last_reported":1738357634,"current_range_meters":9600,"station_id":"ce4bh692rcd13ifvqea0","pricing_plan_id":"cebpf4jnsgd1na2vs0mg"},{"bike_id":"58feef8f-17b5-470d-8151-c7a13f0dbe24","system_id":"levelo_inurba_marseille","lat":43.284,"lon":5.37525,"is_reserved":false,"is_disabled":true,"rental_uris":{"android":"levelo://app?vid=58feef8f-17b5-470d-8151-c7a13f0dbe24","ios":"levelo://app?vid=58feef8f-17b5-470d-8151-c7a13f0dbe24"},"vehicle_type_id":"4","last_reported":1738357634,"current_range_meters":0,"station_id":"ce4bh412rcd13ifvqds0","pricing_plan_id":"cebpf4jnsgd1na2vs0mg"},{"bike_id":"6bbb4df2-5e2d-443c-8fc0-a17f75ca32a1","system_id":"levelo_inurba_marseille","lat":43.28356,"lon":5.38108,"is_reserved":false,"is_disabled":false,"rental_uris":{"android":"levelo://app?vid=6bbb4df2-5e2d-443c-8fc0-a17f75ca32a1","ios":"levelo://app?vid=6bbb4df2-5e2d-443c-8fc0-a17f75ca32a1"},"vehicle_type_id":"4","last_reported":1738357634,"current_range_meters":38800,"station_id":"ce4bh412rcd13ifvqdr0","pricing_plan_id":"cebpf4jnsgd1na2vs0mg"},{"bike_id":"7b1972b5-4724-4ee7-8ef3-3d52a3645f58","system_id":"levelo_inurba_marseille","lat":43.28144,"lon":5.42652,"is_reserved":false,"is_disabled":false,"rental_uris":{"android":"levelo://app?vid=7b1972b5-4724-4ee7-8ef3-3d52a3645f58","ios":"levelo://app?vid=7b1972b5-4724-4ee7-8ef3-3d52a3645f58"},"vehicle_type_id":"4","last_reported":1738357634,"current_range_meters":33600,"station_id":"ce4bhnh2rcd13ifvqgug","pricing_plan_id":"cebpf4jnsgd1na2vs0mg"},{"bike_id":"eb9b244a-2de9-4cf6-bd6a-cc51a5bd14ac","system_id":"levelo_inurba_marseille","lat":43.29267,"lon":5.38445,"is_reserved":false,"is_disabled":false,"rental_uris":{"android":"levelo://app?vid=eb9b244a-2de9-4cf6-bd6a-cc51a5bd14ac","ios":"levelo://app?vid=eb9b244a-2de9-4cf6-bd6a-cc51a5bd14ac"},"vehicle_type_id":"4","last_reported":1738357634,"current_range_meters":34000,"station_id":"ce4bh692rcd13ifvqea0","pricing_plan_id":"cebpf4jnsgd1na2vs0mg"},{"bike_id":"4f13d5e8-cc52-496c-94e9-dbe2280a4f56","system_id":"levelo_inurba_marseille","lat":43.29263,"lon":5.3842,"is_reserved":false,"is_disabled":false,"rental_uris":{"android":"levelo://app?vid=4f13d5e8-cc52-496c-94e9-dbe2280a4f56","ios":"levelo://app?vid=4f13d5e8-cc52-496c-94e9-dbe2280a4f56"},"vehicle_type_id":"4","last_reported":1738357634,"current_range_meters":32000,"station_id":"ce4bh692rcd13ifvqea0","pricing_plan_id":"cebpf4jnsgd1na2vs0mg"},{"bike_id":"3756559a-a7d3-4a43-beb0-74f82626ccce","system_id":"levelo_inurba_marseille","lat":43.23957,"lon":5.36627,"is_reserved":false,"is_disabled":false,"rental_uris":{"android":"levelo://app?vid=3756559a-a7d3-4a43-beb0-74f82626ccce","ios":"levelo://app?vid=3756559a-a7d3-4a43-beb0-74f82626ccce"},"vehicle_type_id":"4","last_reported":1738357634,"current_range_meters":28800,"station_id":"ce4bhi12rcd13ifvqfp0","pricing_plan_id":"cebpf4jnsgd1na2vs0mg"},{"bike_id":"2820cc3e-95d3-4398-b190-0af04e9ca66c","system_id":"levelo_inurba_marseille","lat":43.29015,"lon":5.35631,"is_reserved":false,"is_disabled":false,"rental_uris":{"android":"levelo://app?vid=2820cc3e-95d3-4398-b190-0af04e9ca66c","ios":"levelo://app?vid=2820cc3e-95d3-4398-b190-0af04e9ca66c"},"vehicle_type_id":"4","last_reported":1738357634,"current_range_meters":37600,"station_id":"ce4bhb92rcd13ifvqen0","pricing_plan_id":"cebpf4jnsgd1na2vs0mg"},{"bike_id":"e1b31333-6406-4e07-8486-4e0b5ea5a099","system_id":"levelo_inurba_marseille","lat":43.26551,"lon":5.37287,"is_reserved":false,"is_disabled":false,"rental_uris":{"android":"levelo://app?vid=e1b31333-6406-4e07-8486-4e0b5ea5a099","ios":"levelo://app?vid=e1b31333-6406-4e07-8486-4e0b5ea5a099"},"vehicle_type_id":"4","last_reported":1738357634,"current_range_meters":11600,"station_id":"ce4bhg12rcd13ifvqf70","pricing_plan_id":"cebpf4jnsgd1na2vs0mg"},{"bike_id":"5661415a-366d-4887-ae48-48bf79cfc938","system_id":"levelo_inurba_marseille","lat":43.29263,"lon":5.40901,"is_reserved":false,"is_disabled":false,"rental_uris":{"android":"levelo://app?vid=5661415a-366d-4887-ae48-48bf79cfc938","ios":"levelo://app?vid=5661415a-366d-4887-ae48-48bf79cfc938"},"vehicle_type_id":"4","last_reported":1738357634,"current_range_meters":35600,"station_id":"ce4bh192rcd13ifvqdc0","pricing_plan_id":"cebpf4jnsgd1na2vs0mg"},{"bike_id":"8c9e0675-ea74-4941-810e-5056c66ada74","system_id":"levelo_inurba_marseille","lat":43.29023,"lon":5.38645,"is_reserved":false,"is_disabled":false,"rental_uris":{"android":"levelo://app?vid=8c9e0675-ea74-4941-810e-5056c66ada74","ios":"levelo://app?vid=8c9e0675-ea74-4941-810e-5056c66ada74"},"vehicle_type_id":"4","last_reported":1738357634,"current_range_meters":24000,"station_id":"ce4bh4p2rcd13ifvqe0g","pricing_plan_id":"cebpf4jnsgd1na2vs0mg"},{"bike_id":"808e14b4-fd74-47ba-b4df-bdbdfaaddf1d","system_id":"levelo_inurba_marseille","lat":43.29285,"lon":5.37421,"is_reserved":false,"is_disabled":true,"rental_uris":{"android":"levelo://app?vid=808e14b4-fd74-47ba-b4df-bdbdfaaddf1d","ios":"levelo://app?vid=808e14b4-fd74-47ba-b4df-bdbdfaaddf1d"},"vehicle_type_id":"4","last_reported":1738357634,"current_range_meters":35600,"station_id":"ce4bgi12rcd13ifvqb70","pricing_plan_id":"cebpf4jnsgd1na2vs0mg"},{"bike_id":"f5192a48-f127-416f-ac25-5dcd6cb43014","system_id":"levelo_inurba_marseille","lat":43.31075,"lon":5.42427,"is_reserved":false,"is_disabled":true,"rental_uris":{"android":"levelo://app?vid=f5192a48-f127-416f-ac25-5dcd6cb43014","ios":"levelo://app?vid=f5192a48-f127-416f-ac25-5dcd6cb43014"},"vehicle_type_id":"4","last_reported":1738357634,"current_range_meters":0,"station_id":"ce4bhp92rcd13ifvqhag","pricing_plan_id":"cebpf4jnsgd1na2vs0mg"},{"bike_id":"e8e1f7c6-d773-4c38-bfcc-4a6d773355ce","system_id":"levelo_inurba_marseille","lat":43.22932,"lon":5.35369,"is_reserved":false,"is_disabled":false,"rental_uris":{"android":"levelo://app?vid=e8e1f7c6-d773-4c38-bfcc-4a6d773355ce","ios":"levelo://app?vid=e8e1f7c6-d773-4c38-bfcc-4a6d773355ce"},"vehicle_type_id":"4","last_reported":1738357634,"current_range_meters":38800,"station_id":"cpo3532slgdg3j2ikp40","pricing_plan_id":"cebpf4jnsgd1na2vs0mg"},{"bike_id":"99c279ec-caff-4b56-b1ed-2826f234635b","system_id":"levelo_inurba_marseille","lat":43.29263,"lon":5.38438,"is_reserved":false,"is_disabled":false,"rental_uris":{"android":"levelo://app?vid=99c279ec-caff-4b56-b1ed-2826f234635b","ios":"levelo://app?vid=99c279ec-caff-4b56-b1ed-2826f234635b"},"vehicle_type_id":"4","last_reported":1738357634,"current_range_meters":16400,"station_id":"ce4bh692rcd13ifvqea0","pricing_plan_id":"cebpf4jnsgd1na2vs0mg"},{"bike_id":"d85a6e09-0217-43ff-9dc5-94ff68be4e98","system_id":"levelo_inurba_marseille","lat":43.27377,"lon":5.36253,"is_reserved":false,"is_disabled":false,"rental_uris":{"android":"levelo://app?vid=d85a6e09-0217-43ff-9dc5-94ff68be4e98","ios":"levelo://app?vid=d85a6e09-0217-43ff-9dc5-94ff68be4e98"},"vehicle_type_id":"4","last_reported":1738357634,"current_range_meters":38800,"station_id":"ce4bhbh2rcd13ifvqeo0","pricing_plan_id":"cebpf4jnsgd1na2vs0mg"},{"bike_id":"eb0c902b-685e-469c-b96f-57a4d12f9b56","system_id":"levelo_inurba_marseille","lat":43.31121,"lon":5.37772,"is_reserved":false,"is_disabled":false,"rental_uris":{"android":"levelo://app?vid=eb0c902b-685e-469c-b96f-57a4d12f9b56","ios":"levelo://app?vid=eb0c902b-685e-469c-b96f-57a4d12f9b56"},"vehicle_type_id":"4","last_reported":1738357634,"current_range_meters":17200,"station_id":"ce4bgt92rcd13ifvqcg0","pricing_plan_id":"cebpf4jnsgd1na2vs0mg"},{"bike_id":"59aae4db-1c07-44b7-8db1-4c95279c96e1","system_id":"levelo_inurba_marseille","lat":43.27987,"lon":5.40024,"is_reserved":false,"is_disabled":false,"rental_uris":{"android":"levelo://app?vid=59aae4db-1c07-44b7-8db1-4c95279c96e1","ios":"levelo://app?vid=59aae4db-1c07-44b7-8db1-4c95279c96e1"},"vehicle_type_id":"4","last_reported":1738357634,"current_range_meters":29600,"station_id":"ce4bho92rcd13ifvqh4g","pricing_plan_id":"cebpf4jnsgd1na2vs0mg"},{"bike_id":"e3d8a223-fb6b-449d-8e45-ad3295748cda","system_id":"levelo_inurba_marseille","lat":43.29581,"lon":5.38133,"is_reserved":false,"is_disabled":false,"rental_uris":{"android":"levelo://app?vid=e3d8a223-fb6b-449d-8e45-ad3295748cda","ios":"levelo://app?vid=e3d8a223-fb6b-449d-8e45-ad3295748cda"},"vehicle_type_id":"4","last_reported":1738357634,"current_range_meters":32000,"station_id":"ce4bgl12rcd13ifvqbo0","pricing_plan_id":"cebpf4jnsgd1na2vs0mg"},{"bike_id":"dfaf4812-b6ba-4547-bb9f-c78b0f79302b","system_id":"levelo_inurba_marseille","lat":43.29971,"lon":5.37175,"is_reserved":false,"is_disabled":false,"rental_uris":{"android":"levelo://app?vid=dfaf4812-b6ba-4547-bb9f-c78b0f79302b","ios":"levelo://app?vid=dfaf4812-b6ba-4547-bb9f-c78b0f79302b"},"vehicle_type_id":"4","last_reported":1738357634,"current_range_meters":38800,"station_id":"ce4bgr92rcd13ifvqc7g","pricing_plan_id":"cebpf4jnsgd1na2vs0mg"},{"bike_id":"446cfbd8-380d-483d-82ba-61ff47e31d05","system_id":"levelo_inurba_marseille","lat":43.29252,"lon":5.384347,"is_reserved":false,"is_disabled":true,"rental_uris":{"android":"levelo://app?vid=446cfbd8-380d-483d-82ba-61ff47e31d05","ios":"levelo://app?vid=446cfbd8-380d-483d-82ba-61ff47e31d05"},"vehicle_type_id":"4","last_reported":1738357634,"current_range_meters":2800,"station_id":"ce4bh692rcd13ifvqea0","pricing_plan_id":"cebpf4jnsgd1na2vs0mg"},{"bike_id":"4ec76568-f8af-4b06-b651-04fbe6e9efa7","system_id":"levelo_inurba_marseille","lat":43.279988,"lon":5.416635,"is_reserved":false,"is_disabled":false,"rental_uris":{"android":"levelo://app?vid=4ec76568-f8af-4b06-b651-04fbe6e9efa7","ios":"levelo://app?vid=4ec76568-f8af-4b06-b651-04fbe6e9efa7"},"vehicle_type_id":"4","last_reported":1738357634,"current_range_meters":35600,"station_id":"ce4bho12rcd13ifvqh1g","pricing_plan_id":"cebpf4jnsgd1na2vs0mg"},{"bike_id":"1cbabb59-9607-4cc5-9e08-3a8c13660399","system_id":"levelo_inurba_marseille","lat":43.27903,"lon":5.3802,"is_reserved":false,"is_disabled":false,"rental_uris":{"android":"levelo://app?vid=1cbabb59-9607-4cc5-9e08-3a8c13660399","ios":"levelo://app?vid=1cbabb59-9607-4cc5-9e08-3a8c13660399"},"vehicle_type_id":"4","last_reported":1738357634,"current_range_meters":24800,"station_id":"ce4bhf92rcd13ifvqf50","pricing_plan_id":"cebpf4jnsgd1na2vs0mg"},{"bike_id":"60911234-26e8-4f42-acbb-88b4c360ca2e","system_id":"levelo_inurba_marseille","lat":43.24997,"lon":5.38922,"is_reserved":false,"is_disabled":false,"rental_uris":{"android":"levelo://app?vid=60911234-26e8-4f42-acbb-88b4c360ca2e","ios":"levelo://app?vid=60911234-26e8-4f42-acbb-88b4c360ca2e"},"vehicle_type_id":"4","last_reported":1738357634,"current_range_meters":30000,"station_id":"ce4bhgp2rcd13ifvqfd0","pricing_plan_id":"cebpf4jnsgd1na2vs0mg"},{"bike_id":"7065fb4a-d753-492b-9d3f-ea5c7b4f08a7","system_id":"levelo_inurba_marseille","lat":43.25506,"lon":5.37654,"is_reserved":false,"is_disabled":false,"rental_uris":{"android":"levelo://app?vid=7065fb4a-d753-492b-9d3f-ea5c7b4f08a7","ios":"levelo://app?vid=7065fb4a-d753-492b-9d3f-ea5c7b4f08a7"},"vehicle_type_id":"4","last_reported":1738357634,"current_range_meters":24400,"station_id":"ce4bhh12rcd13ifvqff0","pricing_plan_id":"cebpf4jnsgd1na2vs0mg"},{"bike_id":"6e7e4681-5b46-407f-b99f-4ca691ecec1a","system_id":"levelo_inurba_marseille","lat":43.24667,"lon":5.38163,"is_reserved":false,"is_disabled":false,"rental_uris":{"android":"levelo://app?vid=6e7e4681-5b46-407f-b99f-4ca691ecec1a","ios":"levelo://app?vid=6e7e4681-5b46-407f-b99f-4ca691ecec1a"},"vehicle_type_id":"4","last_reported":1738357634,"current_range_meters":38000,"station_id":"ce4bhih2rcd13ifvqfr0","pricing_plan_id":"cebpf4jnsgd1na2vs0mg"},{"bike_id":"c6c2d669-6efa-4cf8-b793-5c09e9379cce","system_id":"levelo_inurba_marseille","lat":43.28698,"lon":5.39983,"is_reserved":false,"is_disabled":false,"rental_uris":{"android":"levelo://app?vid=c6c2d669-6efa-4cf8-b793-5c09e9379cce","ios":"levelo://app?vid=c6c2d669-6efa-4cf8-b793-5c09e9379cce"},"vehicle_type_id":"4","last_reported":1738357634,"current_range_meters":28400,"station_id":"ce4bho92rcd13ifvqh3g","pricing_plan_id":"cebpf4jnsgd1na2vs0mg"},{"bike_id":"0a13b4dc-5af9-498e-a6eb-f4bde643bf18","system_id":"levelo_inurba_marseille","lat":43.313306,"lon":5.39703,"is_reserved":false,"is_disabled":false,"rental_uris":{"android":"levelo://app?vid=0a13b4dc-5af9-498e-a6eb-f4bde643bf18","ios":"levelo://app?vid=0a13b4dc-5af9-498e-a6eb-f4bde643bf18"},"vehicle_type_id":"4","last_reported":1738357634,"current_range_meters":28000,"station_id":"ce4bgvp2rcd13ifvqcu0","pricing_plan_id":"cebpf4jnsgd1na2vs0mg"},{"bike_id":"71f34f72-d3b7-46a5-9bd4-1fe057b3152f","system_id":"levelo_inurba_marseille","lat":43.22936,"lon":5.35377,"is_reserved":false,"is_disabled":false,"rental_uris":{"android":"levelo://app?vid=71f34f72-d3b7-46a5-9bd4-1fe057b3152f","ios":"levelo://app?vid=71f34f72-d3b7-46a5-9bd4-1fe057b3152f"},"vehicle_type_id":"4","last_reported":1738357634,"current_range_meters":38800,"station_id":"cpo3532slgdg3j2ikp40","pricing_plan_id":"cebpf4jnsgd1na2vs0mg"},{"bike_id":"9f543eda-d136-485d-830b-81ee0cc1134a","system_id":"levelo_inurba_marseille","lat":43.27778,"lon":5.40722,"is_reserved":false,"is_disabled":false,"rental_uris":{"android":"levelo://app?vid=9f543eda-d136-485d-830b-81ee0cc1134a","ios":"levelo://app?vid=9f543eda-d136-485d-830b-81ee0cc1134a"},"vehicle_type_id":"4","last_reported":1738357634,"current_range_meters":3600,"station_id":"ce4bhnh2rcd13ifvqgtg","pricing_plan_id":"cebpf4jnsgd1na2vs0mg"},{"bike_id":"20029bdd-9f9c-4ff9-86e4-5ba6ed30f46a","system_id":"levelo_inurba_marseille","lat":43.23148,"lon":5.43705,"is_reserved":false,"is_disabled":true,"rental_uris":{"android":"levelo://app?vid=20029bdd-9f9c-4ff9-86e4-5ba6ed30f46a","ios":"levelo://app?vid=20029bdd-9f9c-4ff9-86e4-5ba6ed30f46a"},"vehicle_type_id":"4","last_reported":1738357634,"current_range_meters":0,"station_id":"ce4bhmp2rcd13ifvqgog","pricing_plan_id":"cebpf4jnsgd1na2vs0mg"},{"bike_id":"3d4b3e0a-4326-4344-bb72-09251a157a11","system_id":"levelo_inurba_marseille","lat":43.30533,"lon":5.36542,"is_reserved":false,"is_disabled":true,"rental_uris":{"android":"levelo://app?vid=3d4b3e0a-4326-4344-bb72-09251a157a11","ios":"levelo://app?vid=3d4b3e0a-4326-4344-bb72-09251a157a11"},"vehicle_type_id":"4","last_reported":1738357634,"current_range_meters":32000,"station_id":"ce4bgs12rcd13ifvqcag","pricing_plan_id":"cebpf4jnsgd1na2vs0mg"},{"bike_id":"9bdbd848-9ef2-485f-ae00-8ac70ab1745f","system_id":"levelo_inurba_marseille","lat":43.29616,"lon":5.37158,"is_reserved":false,"is_disabled":true,"rental_uris":{"android":"levelo://app?vid=9bdbd848-9ef2-485f-ae00-8ac70ab1745f","ios":"levelo://app?vid=9bdbd848-9ef2-485f-ae00-8ac70ab1745f"},"vehicle_type_id":"4","last_reported":1738357634,"current_range_meters":800,"station_id":"ce4bgnh2rcd13ifvqc0g","pricing_plan_id":"cebpf4jnsgd1na2vs0mg"},{"bike_id":"678f5edd-1b4b-476c-bbd1-1e851715e509","system_id":"levelo_inurba_marseille","lat":43.28466,"lon":5.35894,"is_reserved":false,"is_disabled":false,"rental_uris":{"android":"levelo://app?vid=678f5edd-1b4b-476c-bbd1-1e851715e509","ios":"levelo://app?vid=678f5edd-1b4b-476c-bbd1-1e851715e509"},"vehicle_type_id":"4","last_reported":1738357634,"current_range_meters":28400,"station_id":"ce4bhah2rcd13ifvqei0","pricing_plan_id":"cebpf4jnsgd1na2vs0mg"},{"bike_id":"2f868fc4-d1bd-453c-a9f7-2cc089b2bbe5","system_id":"levelo_inurba_marseille","lat":43.28404,"lon":5.37509,"is_reserved":false,"is_disabled":false,"rental_uris":{"android":"levelo://app?vid=2f868fc4-d1bd-453c-a9f7-2cc089b2bbe5","ios":"levelo://app?vid=2f868fc4-d1bd-453c-a9f7-2cc089b2bbe5"},"vehicle_type_id":"4","last_reported":1738357634,"current_range_meters":10800,"station_id":"ce4bh412rcd13ifvqds0","pricing_plan_id":"cebpf4jnsgd1na2vs0mg"},{"bike_id":"ffbe2ac5-1135-48e1-a6e0-38cbbdf275c7","system_id":"levelo_inurba_marseille","lat":43.28466,"lon":5.35886,"is_reserved":false,"is_disabled":false,"rental_uris":{"android":"levelo://app?vid=ffbe2ac5-1135-48e1-a6e0-38cbbdf275c7","ios":"levelo://app?vid=ffbe2ac5-1135-48e1-a6e0-38cbbdf275c7"},"vehicle_type_id":"4","last_reported":1738357634,"current_range_meters":22800,"station_id":"ce4bhah2rcd13ifvqei0","pricing_plan_id":"cebpf4jnsgd1na2vs0mg"},{"bike_id":"39296b41-744d-45af-a92f-d1175e5a1845","system_id":"levelo_inurba_marseille","lat":43.29273,"lon":5.36849,"is_reserved":false,"is_disabled":false,"rental_uris":{"android":"levelo://app?vid=39296b41-744d-45af-a92f-d1175e5a1845","ios":"levelo://app?vid=39296b41-744d-45af-a92f-d1175e5a1845"},"vehicle_type_id":"4","last_reported":1738357634,"current_range_meters":24400,"station_id":"ce4bhbp2rcd13ifvqesg","pricing_plan_id":"cebpf4jnsgd1na2vs0mg"},{"bike_id":"491407c5-a175-44f0-86fc-0f4ccadf82e3","system_id":"levelo_inurba_marseille","lat":43.337444,"lon":5.374475,"is_reserved":false,"is_disabled":true,"rental_uris":{"android":"levelo://app?vid=491407c5-a175-44f0-86fc-0f4ccadf82e3","ios":"levelo://app?vid=491407c5-a175-44f0-86fc-0f4ccadf82e3"},"vehicle_type_id":"4","last_reported":1738357634,"current_range_meters":0,"station_id":"","pricing_plan_id":"cebpf4jnsgd1na2vs0mg"},{"bike_id":"ce7e4316-25a0-41be-9671-330b181493fd","system_id":"levelo_inurba_marseille","lat":43.26806,"lon":5.40262,"is_reserved":false,"is_disabled":false,"rental_uris":{"android":"levelo://app?vid=ce7e4316-25a0-41be-9671-330b181493fd","ios":"levelo://app?vid=ce7e4316-25a0-41be-9671-330b181493fd"},"vehicle_type_id":"4","last_reported":1738357634,"current_range_meters":35200,"station_id":"ce501612rcd8frsf0b60","pricing_plan_id":"cebpf4jnsgd1na2vs0mg"},{"bike_id":"688174c0-8396-4258-af29-88acda4312e3","system_id":"levelo_inurba_marseille","lat":43.32542,"lon":5.41426,"is_reserved":false,"is_disabled":false,"rental_uris":{"android":"levelo://app?vid=688174c0-8396-4258-af29-88acda4312e3","ios":"levelo://app?vid=688174c0-8396-4258-af29-88acda4312e3"},"vehicle_type_id":"4","last_reported":1738357634,"current_range_meters":36400,"station_id":"ce4bhq12rcd13ifvqhhg","pricing_plan_id":"cebpf4jnsgd1na2vs0mg"},{"bike_id":"b28d7184-1266-4471-abe6-13723f5fd964","system_id":"levelo_inurba_marseille","lat":43.32722,"lon":5.39261,"is_reserved":false,"is_disabled":false,"rental_uris":{"android":"levelo://app?vid=b28d7184-1266-4471-abe6-13723f5fd964","ios":"levelo://app?vid=b28d7184-1266-4471-abe6-13723f5fd964"},"vehicle_type_id":"4","last_reported":1738357634,"current_range_meters":4800,"station_id":"","pricing_plan_id":"cebpf4jnsgd1na2vs0mg"},{"bike_id":"3cfad15a-5695-48fb-ad0d-d89c5e7c2c57","system_id":"levelo_inurba_marseille","lat":43.29601,"lon":5.36757,"is_reserved":false,"is_disabled":false,"rental_uris":{"android":"levelo://app?vid=3cfad15a-5695-48fb-ad0d-d89c5e7c2c57","ios":"levelo://app?vid=3cfad15a-5695-48fb-ad0d-d89c5e7c2c57"},"vehicle_type_id":"4","last_reported":1738357634,"current_range_meters":38800,"station_id":"ce4bgph2rcd13ifvqc2g","pricing_plan_id":"cebpf4jnsgd1na2vs0mg"},{"bike_id":"584bfd92-62b5-44ff-a6a2-f5c35e7f6c23","system_id":"levelo_inurba_marseille","lat":43.29547,"lon":5.38544,"is_reserved":false,"is_disabled":false,"rental_uris":{"android":"levelo://app?vid=584bfd92-62b5-44ff-a6a2-f5c35e7f6c23","ios":"levelo://app?vid=584bfd92-62b5-44ff-a6a2-f5c35e7f6c23"},"vehicle_type_id":"4","last_reported":1738357634,"current_range_meters":37600,"station_id":"ce4bgih2rcd13ifvqba0","pricing_plan_id":"cebpf4jnsgd1na2vs0mg"},{"bike_id":"95aee25f-5c57-4ea4-ae9b-fd75ffb2acea","system_id":"levelo_inurba_marseille","lat":43.23193,"lon":5.39982,"is_reserved":false,"is_disabled":false,"rental_uris":{"android":"levelo://app?vid=95aee25f-5c57-4ea4-ae9b-fd75ffb2acea","ios":"levelo://app?vid=95aee25f-5c57-4ea4-ae9b-fd75ffb2acea"},"vehicle_type_id":"4","last_reported":1738357634,"current_range_meters":26800,"station_id":"ce4bhn12rcd13ifvqgqg","pricing_plan_id":"cebpf4jnsgd1na2vs0mg"},{"bike_id":"0b439ceb-bbef-470b-b522-3e20f798d948","system_id":"levelo_inurba_marseille","lat":43.29093,"lon":5.38149,"is_reserved":false,"is_disabled":true,"rental_uris":{"android":"levelo://app?vid=0b439ceb-bbef-470b-b522-3e20f798d948","ios":"levelo://app?vid=0b439ceb-bbef-470b-b522-3e20f798d948"},"vehicle_type_id":"4","last_reported":1738357634,"current_range_meters":25200,"station_id":"ce4bh512rcd13ifvqe2g","pricing_plan_id":"cebpf4jnsgd1na2vs0mg"},{"bike_id":"528fe304-774b-4f5e-99b0-3a6df52f7bd5","system_id":"levelo_inurba_marseille","lat":43.26955,"lon":5.40243,"is_reserved":false,"is_disabled":false,"rental_uris":{"android":"levelo://app?vid=528fe304-774b-4f5e-99b0-3a6df52f7bd5","ios":"levelo://app?vid=528fe304-774b-4f5e-99b0-3a6df52f7bd5"},"vehicle_type_id":"4","last_reported":1738357634,"current_range_meters":24000,"station_id":"cjm6bp8fraef2m0cb0m0","pricing_plan_id":"cebpf4jnsgd1na2vs0mg"},{"bike_id":"d44e054d-2877-4dfc-9c5b-35e2c1432a9b","system_id":"levelo_inurba_marseille","lat":43.26204,"lon":5.37928,"is_reserved":false,"is_disabled":false,"rental_uris":{"android":"levelo://app?vid=d44e054d-2877-4dfc-9c5b-35e2c1432a9b","ios":"levelo://app?vid=d44e054d-2877-4dfc-9c5b-35e2c1432a9b"},"vehicle_type_id":"4","last_reported":1738357634,"current_range_meters":32800,"station_id":"ce4bhjp2rcd13ifvqg90","pricing_plan_id":"cebpf4jnsgd1na2vs0mg"},{"bike_id":"79007731-40b9-4886-bf24-3a38eed6be0d","system_id":"levelo_inurba_marseille","lat":43.29266,"lon":5.3845,"is_reserved":false,"is_disabled":false,"rental_uris":{"android":"levelo://app?vid=79007731-40b9-4886-bf24-3a38eed6be0d","ios":"levelo://app?vid=79007731-40b9-4886-bf24-3a38eed6be0d"},"vehicle_type_id":"4","last_reported":1738357634,"current_range_meters":24800,"station_id":"ce4bh692rcd13ifvqea0","pricing_plan_id":"cebpf4jnsgd1na2vs0mg"},{"bike_id":"f38a9b51-7bc8-4445-89b3-2095fb6b771f","system_id":"levelo_inurba_marseille","lat":43.28683,"lon":5.37366,"is_reserved":false,"is_disabled":true,"rental_uris":{"android":"levelo://app?vid=f38a9b51-7bc8-4445-89b3-2095fb6b771f","ios":"levelo://app?vid=f38a9b51-7bc8-4445-89b3-2095fb6b771f"},"vehicle_type_id":"4","last_reported":1738357634,"current_range_meters":30400,"station_id":"ce4bh3p2rcd13ifvqdq0","pricing_plan_id":"cebpf4jnsgd1na2vs0mg"},{"bike_id":"d21f4eb1-35d3-4c05-975d-4acb646fe622","system_id":"levelo_inurba_marseille","lat":43.29179,"lon":5.3716,"is_reserved":false,"is_disabled":false,"rental_uris":{"android":"levelo://app?vid=d21f4eb1-35d3-4c05-975d-4acb646fe622","ios":"levelo://app?vid=d21f4eb1-35d3-4c05-975d-4acb646fe622"},"vehicle_type_id":"4","last_reported":1738357634,"current_range_meters":37600,"station_id":"ce4bha92rcd13ifvqeh0","pricing_plan_id":"cebpf4jnsgd1na2vs0mg"},{"bike_id":"1930de34-95cc-48d5-8e42-fc7b612229f8","system_id":"levelo_inurba_marseille","lat":43.29301,"lon":5.37162,"is_reserved":false,"is_disabled":false,"rental_uris":{"android":"levelo://app?vid=1930de34-95cc-48d5-8e42-fc7b612229f8","ios":"levelo://app?vid=1930de34-95cc-48d5-8e42-fc7b612229f8"},"vehicle_type_id":"4","last_reported":1738357634,"current_range_meters":11600,"station_id":"ce4bgh92rcd13ifvqb40","pricing_plan_id":"cebpf4jnsgd1na2vs0mg"},{"bike_id":"c5bc8319-ffb7-4125-9e65-642650b2ee6d","system_id":"levelo_inurba_marseille","lat":43.27992,"lon":5.40013,"is_reserved":false,"is_disabled":true,"rental_uris":{"android":"levelo://app?vid=c5bc8319-ffb7-4125-9e65-642650b2ee6d","ios":"levelo://app?vid=c5bc8319-ffb7-4125-9e65-642650b2ee6d"},"vehicle_type_id":"4","last_reported":1738357634,"current_range_meters":0,"station_id":"ce4bho92rcd13ifvqh4g","pricing_plan_id":"cebpf4jnsgd1na2vs0mg"},{"bike_id":"bc5f577f-f29e-47ca-8e5a-af19737e67dd","system_id":"levelo_inurba_marseille","lat":43.25498,"lon":5.37643,"is_reserved":false,"is_disabled":false,"rental_uris":{"android":"levelo://app?vid=bc5f577f-f29e-47ca-8e5a-af19737e67dd","ios":"levelo://app?vid=bc5f577f-f29e-47ca-8e5a-af19737e67dd"},"vehicle_type_id":"4","last_reported":1738357634,"current_range_meters":24400,"station_id":"ce4bhh12rcd13ifvqff0","pricing_plan_id":"cebpf4jnsgd1na2vs0mg"},{"bike_id":"6725a974-636a-4cad-bf4d-273395199ad4","system_id":"levelo_inurba_marseille","lat":43.337219,"lon":5.391779,"is_reserved":false,"is_disabled":false,"rental_uris":{"android":"levelo://app?vid=6725a974-636a-4cad-bf4d-273395199ad4","ios":"levelo://app?vid=6725a974-636a-4cad-bf4d-273395199ad4"},"vehicle_type_id":"4","last_reported":1738357634,"current_range_meters":20800,"station_id":"ce4bhr92rcd13ifvqhsg","pricing_plan_id":"cebpf4jnsgd1na2vs0mg"},{"bike_id":"8d8545fe-b565-43ee-a059-fa0dcd94d7c0","system_id":"levelo_inurba_marseille","lat":43.23961,"lon":5.36632,"is_reserved":false,"is_disabled":false,"rental_uris":{"android":"levelo://app?vid=8d8545fe-b565-43ee-a059-fa0dcd94d7c0","ios":"levelo://app?vid=8d8545fe-b565-43ee-a059-fa0dcd94d7c0"},"vehicle_type_id":"4","last_reported":1738357634,"current_range_meters":18000,"station_id":"ce4bhi12rcd13ifvqfp0","pricing_plan_id":"cebpf4jnsgd1na2vs0mg"},{"bike_id":"bd8a828d-e634-4034-9cac-55889d5bbfa5","system_id":"levelo_inurba_marseille","lat":43.2816,"lon":5.42658,"is_reserved":false,"is_disabled":false,"rental_uris":{"android":"levelo://app?vid=bd8a828d-e634-4034-9cac-55889d5bbfa5","ios":"levelo://app?vid=bd8a828d-e634-4034-9cac-55889d5bbfa5"},"vehicle_type_id":"4","last_reported":1738357634,"current_range_meters":24800,"station_id":"ce4bhnh2rcd13ifvqgug","pricing_plan_id":"cebpf4jnsgd1na2vs0mg"},{"bike_id":"25bb9a7a-12ad-467c-a077-ab6fde9d7601","system_id":"levelo_inurba_marseille","lat":43.29527,"lon":5.38544,"is_reserved":false,"is_disabled":false,"rental_uris":{"android":"levelo://app?vid=25bb9a7a-12ad-467c-a077-ab6fde9d7601","ios":"levelo://app?vid=25bb9a7a-12ad-467c-a077-ab6fde9d7601"},"vehicle_type_id":"4","last_reported":1738357634,"current_range_meters":31200,"station_id":"ce4bgih2rcd13ifvqba0","pricing_plan_id":"cebpf4jnsgd1na2vs0mg"},{"bike_id":"2daf2393-9efc-40d7-b5a7-2809ff7ea4f3","system_id":"levelo_inurba_marseille","lat":43.30956,"lon":5.39045,"is_reserved":false,"is_disabled":false,"rental_uris":{"android":"levelo://app?vid=2daf2393-9efc-40d7-b5a7-2809ff7ea4f3","ios":"levelo://app?vid=2daf2393-9efc-40d7-b5a7-2809ff7ea4f3"},"vehicle_type_id":"4","last_reported":1738357634,"current_range_meters":28000,"station_id":"ce4bgup2rcd13ifvqco0","pricing_plan_id":"cebpf4jnsgd1na2vs0mg"},{"bike_id":"f9d35a32-65b2-4842-bd83-8cbe10324274","system_id":"levelo_inurba_marseille","lat":43.28624,"lon":5.35101,"is_reserved":false,"is_disabled":false,"rental_uris":{"android":"levelo://app?vid=f9d35a32-65b2-4842-bd83-8cbe10324274","ios":"levelo://app?vid=f9d35a32-65b2-4842-bd83-8cbe10324274"},"vehicle_type_id":"4","last_reported":1738357634,"current_range_meters":10800,"station_id":"ce4bhch2rcd13ifvqeug","pricing_plan_id":"cebpf4jnsgd1na2vs0mg"},{"bike_id":"e737d6b4-980a-4244-b0b6-85b0751595d1","system_id":"levelo_inurba_marseille","lat":43.3204,"lon":5.4152,"is_reserved":false,"is_disabled":false,"rental_uris":{"android":"levelo://app?vid=e737d6b4-980a-4244-b0b6-85b0751595d1","ios":"levelo://app?vid=e737d6b4-980a-4244-b0b6-85b0751595d1"},"vehicle_type_id":"4","last_reported":1738357634,"current_range_meters":36800,"station_id":"ce4bhq92rcd13ifvqhkg","pricing_plan_id":"cebpf4jnsgd1na2vs0mg"},{"bike_id":"514c2f5a-7564-49c2-b4e5-8195b1295471","system_id":"levelo_inurba_marseille","lat":43.31329,"lon":5.39688,"is_reserved":false,"is_disabled":false,"rental_uris":{"android":"levelo://app?vid=514c2f5a-7564-49c2-b4e5-8195b1295471","ios":"levelo://app?vid=514c2f5a-7564-49c2-b4e5-8195b1295471"},"vehicle_type_id":"4","last_reported":1738357634,"current_range_meters":16000,"station_id":"ce4bgvp2rcd13ifvqcu0","pricing_plan_id":"cebpf4jnsgd1na2vs0mg"},{"bike_id":"66aaa9bc-948e-4cac-9b6b-c7c693277311","system_id":"levelo_inurba_marseille","lat":43.28368,"lon":5.38622,"is_reserved":false,"is_disabled":false,"rental_uris":{"android":"levelo://app?vid=66aaa9bc-948e-4cac-9b6b-c7c693277311","ios":"levelo://app?vid=66aaa9bc-948e-4cac-9b6b-c7c693277311"},"vehicle_type_id":"4","last_reported":1738357634,"current_range_meters":38800,"station_id":"ce4bh492rcd13ifvqdvg","pricing_plan_id":"cebpf4jnsgd1na2vs0mg"},{"bike_id":"d9e3fda0-1d69-4f52-aa52-081f14989c88","system_id":"levelo_inurba_marseille","lat":43.30957,"lon":5.39037,"is_reserved":false,"is_disabled":false,"rental_uris":{"android":"levelo://app?vid=d9e3fda0-1d69-4f52-aa52-081f14989c88","ios":"levelo://app?vid=d9e3fda0-1d69-4f52-aa52-081f14989c88"},"vehicle_type_id":"4","last_reported":1738357634,"current_range_meters":27600,"station_id":"ce4bgup2rcd13ifvqco0","pricing_plan_id":"cebpf4jnsgd1na2vs0mg"},{"bike_id":"1f4e4183-ba38-4674-b19d-0c758736fe8e","system_id":"levelo_inurba_marseille","lat":43.25089,"lon":5.39493,"is_reserved":false,"is_disabled":false,"rental_uris":{"android":"levelo://app?vid=1f4e4183-ba38-4674-b19d-0c758736fe8e","ios":"levelo://app?vid=1f4e4183-ba38-4674-b19d-0c758736fe8e"},"vehicle_type_id":"4","last_reported":1738357634,"current_range_meters":31200,"station_id":"ce4bhm12rcd13ifvqgkg","pricing_plan_id":"cebpf4jnsgd1na2vs0mg"},{"bike_id":"04507cab-e055-4f4d-bd41-920db9df1237","system_id":"levelo_inurba_marseille","lat":43.279449,"lon":5.410325,"is_reserved":false,"is_disabled":false,"rental_uris":{"android":"levelo://app?vid=04507cab-e055-4f4d-bd41-920db9df1237","ios":"levelo://app?vid=04507cab-e055-4f4d-bd41-920db9df1237"},"vehicle_type_id":"4","last_reported":1738357634,"current_range_meters":38800,"station_id":"ce4bhnp2rcd13ifvqh0g","pricing_plan_id":"cebpf4jnsgd1na2vs0mg"},{"bike_id":"46b43093-b875-4b52-a6ea-76dd9dc96ba1","system_id":"levelo_inurba_marseille","lat":43.30514,"lon":5.36513,"is_reserved":false,"is_disabled":true,"rental_uris":{"android":"levelo://app?vid=46b43093-b875-4b52-a6ea-76dd9dc96ba1","ios":"levelo://app?vid=46b43093-b875-4b52-a6ea-76dd9dc96ba1"},"vehicle_type_id":"4","last_reported":1738357634,"current_range_meters":37600,"station_id":"ce4bgs12rcd13ifvqcag","pricing_plan_id":"cebpf4jnsgd1na2vs0mg"},{"bike_id":"56d6b97f-30a2-4c2a-8be6-a12a9fc19507","system_id":"levelo_inurba_marseille","lat":43.31752,"lon":5.39024,"is_reserved":false,"is_disabled":false,"rental_uris":{"android":"levelo://app?vid=56d6b97f-30a2-4c2a-8be6-a12a9fc19507","ios":"levelo://app?vid=56d6b97f-30a2-4c2a-8be6-a12a9fc19507"},"vehicle_type_id":"4","last_reported":1738357634,"current_range_meters":12000,"station_id":"ce4bhqp2rcd13ifvqhng","pricing_plan_id":"cebpf4jnsgd1na2vs0mg"},{"bike_id":"d2a61873-58f7-4bc8-abeb-3ce8c1c55c8d","system_id":"levelo_inurba_marseille","lat":43.27185,"lon":5.40994,"is_reserved":false,"is_disabled":false,"rental_uris":{"android":"levelo://app?vid=d2a61873-58f7-4bc8-abeb-3ce8c1c55c8d","ios":"levelo://app?vid=d2a61873-58f7-4bc8-abeb-3ce8c1c55c8d"},"vehicle_type_id":"4","last_reported":1738357634,"current_range_meters":11200,"station_id":"ce4bhl12rcd13ifvqgf0","pricing_plan_id":"cebpf4jnsgd1na2vs0mg"},{"bike_id":"bdd69864-b6d1-4dd7-a226-98d87191c0c2","system_id":"levelo_inurba_marseille","lat":43.28686,"lon":5.37411,"is_reserved":false,"is_disabled":false,"rental_uris":{"android":"levelo://app?vid=bdd69864-b6d1-4dd7-a226-98d87191c0c2","ios":"levelo://app?vid=bdd69864-b6d1-4dd7-a226-98d87191c0c2"},"vehicle_type_id":"4","last_reported":1738357634,"current_range_meters":28000,"station_id":"ce4bh3p2rcd13ifvqdq0","pricing_plan_id":"cebpf4jnsgd1na2vs0mg"},{"bike_id":"b366b5d2-c30a-4dd4-8d76-470d493b83c7","system_id":"levelo_inurba_marseille","lat":43.29219,"lon":5.3607,"is_reserved":false,"is_disabled":false,"rental_uris":{"android":"levelo://app?vid=b366b5d2-c30a-4dd4-8d76-470d493b83c7","ios":"levelo://app?vid=b366b5d2-c30a-4dd4-8d76-470d493b83c7"},"vehicle_type_id":"4","last_reported":1738357634,"current_range_meters":27200,"station_id":"ce4bhbh2rcd13ifvqeqg","pricing_plan_id":"cebpf4jnsgd1na2vs0mg"},{"bike_id":"021d0ac6-2762-4b44-b055-3fcbc4c356a7","system_id":"levelo_inurba_marseille","lat":43.31715,"lon":5.40447,"is_reserved":false,"is_disabled":false,"rental_uris":{"android":"levelo://app?vid=021d0ac6-2762-4b44-b055-3fcbc4c356a7","ios":"levelo://app?vid=021d0ac6-2762-4b44-b055-3fcbc4c356a7"},"vehicle_type_id":"4","last_reported":1738357634,"current_range_meters":8400,"station_id":"ce4bh012rcd13ifvqd00","pricing_plan_id":"cebpf4jnsgd1na2vs0mg"},{"bike_id":"f0fc0587-c4ca-446e-89ea-9495e306cea7","system_id":"levelo_inurba_marseille","lat":43.29424,"lon":5.38624,"is_reserved":false,"is_disabled":false,"rental_uris":{"android":"levelo://app?vid=f0fc0587-c4ca-446e-89ea-9495e306cea7","ios":"levelo://app?vid=f0fc0587-c4ca-446e-89ea-9495e306cea7"},"vehicle_type_id":"4","last_reported":1738357634,"current_range_meters":25200,"station_id":"ce4bh2h2rcd13ifvqdh0","pricing_plan_id":"cebpf4jnsgd1na2vs0mg"},{"bike_id":"a4de92dc-253d-46bf-adef-5af1a9c1b2f0","system_id":"levelo_inurba_marseille","lat":43.29253,"lon":5.38449,"is_reserved":false,"is_disabled":false,"rental_uris":{"android":"levelo://app?vid=a4de92dc-253d-46bf-adef-5af1a9c1b2f0","ios":"levelo://app?vid=a4de92dc-253d-46bf-adef-5af1a9c1b2f0"},"vehicle_type_id":"4","last_reported":1738357634,"current_range_meters":24800,"station_id":"ce4bh692rcd13ifvqea0","pricing_plan_id":"cebpf4jnsgd1na2vs0mg"},{"bike_id":"e94a0ca2-2a60-46ae-94b0-5d650de2746e","system_id":"levelo_inurba_marseille","lat":43.31696,"lon":5.37794,"is_reserved":false,"is_disabled":false,"rental_uris":{"android":"levelo://app?vid=e94a0ca2-2a60-46ae-94b0-5d650de2746e","ios":"levelo://app?vid=e94a0ca2-2a60-46ae-94b0-5d650de2746e"},"vehicle_type_id":"4","last_reported":1738357634,"current_range_meters":8000,"station_id":"ce4bgth2rcd13ifvqch0","pricing_plan_id":"cebpf4jnsgd1na2vs0mg"},{"bike_id":"eb5b8a32-3c81-455d-9724-d39a180adffa","system_id":"levelo_inurba_marseille","lat":43.29417,"lon":5.3863,"is_reserved":false,"is_disabled":false,"rental_uris":{"android":"levelo://app?vid=eb5b8a32-3c81-455d-9724-d39a180adffa","ios":"levelo://app?vid=eb5b8a32-3c81-455d-9724-d39a180adffa"},"vehicle_type_id":"4","last_reported":1738357634,"current_range_meters":33600,"station_id":"ce4bh2h2rcd13ifvqdh0","pricing_plan_id":"cebpf4jnsgd1na2vs0mg"},{"bike_id":"f04e8920-dca2-4b31-8fdd-b71208b121e7","system_id":"levelo_inurba_marseille","lat":43.26215,"lon":5.37446,"is_reserved":false,"is_disabled":false,"rental_uris":{"android":"levelo://app?vid=f04e8920-dca2-4b31-8fdd-b71208b121e7","ios":"levelo://app?vid=f04e8920-dca2-4b31-8fdd-b71208b121e7"},"vehicle_type_id":"4","last_reported":1738357634,"current_range_meters":29600,"station_id":"ce4bhgp2rcd13ifvqfc0","pricing_plan_id":"cebpf4jnsgd1na2vs0mg"},{"bike_id":"44a782ab-11ef-4b68-9510-f8cd4da76815","system_id":"levelo_inurba_marseille","lat":43.24182,"lon":5.39738,"is_reserved":false,"is_disabled":false,"rental_uris":{"android":"levelo://app?vid=44a782ab-11ef-4b68-9510-f8cd4da76815","ios":"levelo://app?vid=44a782ab-11ef-4b68-9510-f8cd4da76815"},"vehicle_type_id":"4","last_reported":1738357634,"current_range_meters":17200,"station_id":"ce4bhn12rcd13ifvqgpg","pricing_plan_id":"cebpf4jnsgd1na2vs0mg"},{"bike_id":"8949aaa9-8c9b-4225-a8e6-9ae66077d0d6","system_id":"levelo_inurba_marseille","lat":43.28692,"lon":5.37381,"is_reserved":false,"is_disabled":false,"rental_uris":{"android":"levelo://app?vid=8949aaa9-8c9b-4225-a8e6-9ae66077d0d6","ios":"levelo://app?vid=8949aaa9-8c9b-4225-a8e6-9ae66077d0d6"},"vehicle_type_id":"4","last_reported":1738357634,"current_range_meters":18800,"station_id":"ce4bh3p2rcd13ifvqdq0","pricing_plan_id":"cebpf4jnsgd1na2vs0mg"},{"bike_id":"a081aba4-4592-4e96-9ae7-bba2eae829d5","system_id":"levelo_inurba_marseille","lat":43.29314,"lon":5.3717,"is_reserved":false,"is_disabled":false,"rental_uris":{"android":"levelo://app?vid=a081aba4-4592-4e96-9ae7-bba2eae829d5","ios":"levelo://app?vid=a081aba4-4592-4e96-9ae7-bba2eae829d5"},"vehicle_type_id":"4","last_reported":1738357634,"current_range_meters":17600,"station_id":"ce4bgh92rcd13ifvqb40","pricing_plan_id":"cebpf4jnsgd1na2vs0mg"},{"bike_id":"30451fa0-2fb1-48a5-a7dd-fa62854fb2a6","system_id":"levelo_inurba_marseille","lat":43.2696,"lon":5.38633,"is_reserved":false,"is_disabled":false,"rental_uris":{"android":"levelo://app?vid=30451fa0-2fb1-48a5-a7dd-fa62854fb2a6","ios":"levelo://app?vid=30451fa0-2fb1-48a5-a7dd-fa62854fb2a6"},"vehicle_type_id":"4","last_reported":1738357634,"current_range_meters":12000,"station_id":"ce4bhh92rcd13ifvqfh0","pricing_plan_id":"cebpf4jnsgd1na2vs0mg"},{"bike_id":"32d9a329-7366-4eb8-8d55-73b5c99c70c3","system_id":"levelo_inurba_marseille","lat":43.23203,"lon":5.35545,"is_reserved":false,"is_disabled":false,"rental_uris":{"android":"levelo://app?vid=32d9a329-7366-4eb8-8d55-73b5c99c70c3","ios":"levelo://app?vid=32d9a329-7366-4eb8-8d55-73b5c99c70c3"},"vehicle_type_id":"4","last_reported":1738357634,"current_range_meters":38800,"station_id":"ce4bhu92rcd13ifvqi70","pricing_plan_id":"cebpf4jnsgd1na2vs0mg"},{"bike_id":"e21a7987-4d7b-4189-bbf2-8f09bad879d5","system_id":"levelo_inurba_marseille","lat":43.29539,"lon":5.38542,"is_reserved":false,"is_disabled":false,"rental_uris":{"android":"levelo://app?vid=e21a7987-4d7b-4189-bbf2-8f09bad879d5","ios":"levelo://app?vid=e21a7987-4d7b-4189-bbf2-8f09bad879d5"},"vehicle_type_id":"4","last_reported":1738357634,"current_range_meters":12400,"station_id":"ce4bgih2rcd13ifvqba0","pricing_plan_id":"cebpf4jnsgd1na2vs0mg"},{"bike_id":"0a2fd205-d616-4064-aa75-d4d529957d90","system_id":"levelo_inurba_marseille","lat":43.230662,"lon":5.354875,"is_reserved":false,"is_disabled":false,"rental_uris":{"android":"levelo://app?vid=0a2fd205-d616-4064-aa75-d4d529957d90","ios":"levelo://app?vid=0a2fd205-d616-4064-aa75-d4d529957d90"},"vehicle_type_id":"4","last_reported":1738357634,"current_range_meters":19200,"station_id":"cpo3342slgdg3j2ifvpg","pricing_plan_id":"cebpf4jnsgd1na2vs0mg"},{"bike_id":"23bfbbee-71ea-4d77-976c-19c528e92b6c","system_id":"levelo_inurba_marseille","lat":43.29376,"lon":5.37846,"is_reserved":false,"is_disabled":false,"rental_uris":{"android":"levelo://app?vid=23bfbbee-71ea-4d77-976c-19c528e92b6c","ios":"levelo://app?vid=23bfbbee-71ea-4d77-976c-19c528e92b6c"},"vehicle_type_id":"4","last_reported":1738357634,"current_range_meters":38400,"station_id":"ce4bgjh2rcd13ifvqbf0","pricing_plan_id":"cebpf4jnsgd1na2vs0mg"},{"bike_id":"bb2aef28-868f-472a-be51-2c9f404ed1f7","system_id":"levelo_inurba_marseille","lat":43.29031,"lon":5.38645,"is_reserved":false,"is_disabled":false,"rental_uris":{"android":"levelo://app?vid=bb2aef28-868f-472a-be51-2c9f404ed1f7","ios":"levelo://app?vid=bb2aef28-868f-472a-be51-2c9f404ed1f7"},"vehicle_type_id":"4","last_reported":1738357634,"current_range_meters":14400,"station_id":"ce4bh4p2rcd13ifvqe0g","pricing_plan_id":"cebpf4jnsgd1na2vs0mg"},{"bike_id":"36e3a682-dd00-4474-89d9-bbaf36706a41","system_id":"levelo_inurba_marseille","lat":43.27987,"lon":5.40001,"is_reserved":false,"is_disabled":false,"rental_uris":{"android":"levelo://app?vid=36e3a682-dd00-4474-89d9-bbaf36706a41","ios":"levelo://app?vid=36e3a682-dd00-4474-89d9-bbaf36706a41"},"vehicle_type_id":"4","last_reported":1738357634,"current_range_meters":38400,"station_id":"ce4bho92rcd13ifvqh4g","pricing_plan_id":"cebpf4jnsgd1na2vs0mg"},{"bike_id":"008170be-a628-4cdd-9f2e-059331c09114","system_id":"levelo_inurba_marseille","lat":43.29425,"lon":5.38605,"is_reserved":false,"is_disabled":false,"rental_uris":{"android":"levelo://app?vid=008170be-a628-4cdd-9f2e-059331c09114","ios":"levelo://app?vid=008170be-a628-4cdd-9f2e-059331c09114"},"vehicle_type_id":"4","last_reported":1738357634,"current_range_meters":28800,"station_id":"ce4bh2h2rcd13ifvqdh0","pricing_plan_id":"cebpf4jnsgd1na2vs0mg"},{"bike_id":"c170e454-abc9-490f-b2fd-841eed439663","system_id":"levelo_inurba_marseille","lat":43.26943,"lon":5.38913,"is_reserved":false,"is_disabled":false,"rental_uris":{"android":"levelo://app?vid=c170e454-abc9-490f-b2fd-841eed439663","ios":"levelo://app?vid=c170e454-abc9-490f-b2fd-841eed439663"},"vehicle_type_id":"4","last_reported":1738357634,"current_range_meters":38800,"station_id":"ce4bhhh2rcd13ifvqfl0","pricing_plan_id":"cebpf4jnsgd1na2vs0mg"},{"bike_id":"803e03d8-7d2e-4feb-ac46-774902d16dee","system_id":"levelo_inurba_marseille","lat":43.33759,"lon":5.37451,"is_reserved":false,"is_disabled":true,"rental_uris":{"android":"levelo://app?vid=803e03d8-7d2e-4feb-ac46-774902d16dee","ios":"levelo://app?vid=803e03d8-7d2e-4feb-ac46-774902d16dee"},"vehicle_type_id":"4","last_reported":1738357634,"current_range_meters":36000,"station_id":"","pricing_plan_id":"cebpf4jnsgd1na2vs0mg"},{"bike_id":"751a6904-a495-407a-96bd-84f6d6232ca6","system_id":"levelo_inurba_marseille","lat":43.23931,"lon":5.43859,"is_reserved":false,"is_disabled":true,"rental_uris":{"android":"levelo://app?vid=751a6904-a495-407a-96bd-84f6d6232ca6","ios":"levelo://app?vid=751a6904-a495-407a-96bd-84f6d6232ca6"},"vehicle_type_id":"4","last_reported":1738357634,"current_range_meters":0,"station_id":"","pricing_plan_id":"cebpf4jnsgd1na2vs0mg"},{"bike_id":"787cc70c-db25-42d8-bba7-585654938087","system_id":"levelo_inurba_marseille","lat":43.28382,"lon":5.34989,"is_reserved":false,"is_disabled":true,"rental_uris":{"android":"levelo://app?vid=787cc70c-db25-42d8-bba7-585654938087","ios":"levelo://app?vid=787cc70c-db25-42d8-bba7-585654938087"},"vehicle_type_id":"4","last_reported":1738357634,"current_range_meters":0,"station_id":"ce4bhbh2rcd13ifvqepg","pricing_plan_id":"cebpf4jnsgd1na2vs0mg"},{"bike_id":"3c78e651-8d1f-4cab-b2a2-f6ae3f30bc1c","system_id":"levelo_inurba_marseille","lat":43.29539,"lon":5.38538,"is_reserved":false,"is_disabled":false,"rental_uris":{"android":"levelo://app?vid=3c78e651-8d1f-4cab-b2a2-f6ae3f30bc1c","ios":"levelo://app?vid=3c78e651-8d1f-4cab-b2a2-f6ae3f30bc1c"},"vehicle_type_id":"4","last_reported":1738357634,"current_range_meters":32800,"station_id":"ce4bgih2rcd13ifvqba0","pricing_plan_id":"cebpf4jnsgd1na2vs0mg"},{"bike_id":"90ec68d9-f1e9-4cfa-8e90-35c17ab03bc3","system_id":"levelo_inurba_marseille","lat":43.29514,"lon":5.3943,"is_reserved":false,"is_disabled":true,"rental_uris":{"android":"levelo://app?vid=90ec68d9-f1e9-4cfa-8e90-35c17ab03bc3","ios":"levelo://app?vid=90ec68d9-f1e9-4cfa-8e90-35c17ab03bc3"},"vehicle_type_id":"4","last_reported":1738357634,"current_range_meters":10800,"station_id":"ce4bh292rcd13ifvqdf0","pricing_plan_id":"cebpf4jnsgd1na2vs0mg"},