{"last_updated":1769066350,"ttl":60,"version":"2.2","data":{"bikes":[{"bike_id":"92627d90-ac48-4227-8b3f-dad6aa59d4b3","system_id":"levelo_inurba_marseille","lat":43.21196,"lon":5.35084,"is_reserved":false,"is_disabled":false,"rental_uris":{"android":"levelo://app?vid=92627d90-ac48-4227-8b3f-dad6aa59d4b3","ios":"levelo://app?vid=92627d90-ac48-4227-8b3f-dad6aa59d4b3"},"vehicle_type_id":"4","last_reported":1769066351,"current_range_meters":2800,"station_id":"st_cvj6sg6p6f1abm77japg","pricing_plan_id":"cebpf4jnsgd1na2vs0mg"},{"bike_id":"639e6571-e898-4bec-b037-657ed309103d","system_id":"levelo_inurba_marseille","lat":43.24651,"lon":5.38914,"is_reserved":false,"is_disabled":false,"rental_uris":{"android":"levelo://app?vid=639e6571-e898-4bec-b037-657ed309103d","ios":"levelo://app?vid=639e6571-e898-4bec-b037-657ed309103d"},"vehicle_type_id":"4","last_reported":1769066351,"current_range_meters":2800,"station_id":"ce4bhg12rcd13ifvqf60","pricing_plan_id":"cebpf4jnsgd1na2vs0mg"},{"bike_id":"1e9683fd-3419-4707-ab97-e3b80d5f4bea","system_id":"levelo_inurba_marseille","lat":43.27158,"lon":5.40458,"is_reserved":false,"is_disabled":false,"rental_uris":{"android":"levelo://app?vid=1e9683fd-3419-4707-ab97-e3b80d5f4bea","ios":"levelo://app?vid=1e9683fd-3419-4707-ab97-e3b80d5f4bea"},"vehicle_type_id":"4","last_reported":1769066351,"current_range_meters":2800,"station_id":"","pricing_plan_id":"cebpf4jnsgd1na2vs0mg"},{"bike_id":"1c9f2e94-25b8-432d-aac8-42f703544d49","system_id":"levelo_inurba_marseille","lat":43.225325,"lon":5.34829,"is_reserved":false,"is_disabled":false,"rental_uris":{"android":"levelo://app?vid=1c9f2e94-25b8-432d-aac8-42f703544d49","ios":"levelo://app?vid=1c9f2e94-25b8-432d-aac8-42f703544d49"},"vehicle_type_id":"4","last_reported":1769066351,"current_range_meters":2800,"station_id":"","pricing_plan_id":"cebpf4jnsgd1na2vs0mg"},{"bike_id":"d60d69f0-11b1-4196-a1a6-b500cf4e2e4c","system_id":"levelo_inurba_marseille","lat":43.28948,"lon":5.36625,"is_reserved":false,"is_disabled":false,"rental_uris":{"android":"levelo://app?vid=d60d69f0-11b1-4196-a1a6-b500cf4e2e4c","ios":"levelo://app?vid=d60d69f0-11b1-4196-a1a6-b500cf4e2e4c"},"vehicle_type_id":"4","last_reported":1769066351,"current_range_meters":2800,"station_id":"ce4bhap2rcd13ifvqek0","pricing_plan_id":"cebpf4jnsgd1na2vs0mg"},{"bike_id":"7d45a1e5-d7df-44cd-98e9-6f96e773ab9b","system_id":"levelo_inurba_marseille","lat":43.28116,"lon":5.42634,"is_reserved":false,"is_disabled":false,"rental_uris":{"android":"levelo://app?vid=7d45a1e5-d7df-44cd-98e9-6f96e773ab9b","ios":"levelo://app?vid=7d45a1e5-d7df-44cd-98e9-6f96e773ab9b"},"vehicle_type_id":"4","last_reported":1769066351,"current_range_meters":2800,"station_id":"ce4bhnh2rcd13ifvqgug","pricing_plan_id":"cebpf4jnsgd1na2vs0mg"},{"bike_id":"64562a8f-fe86-4a1b-b14c-4a382af5be03","system_id":"levelo_inurba_marseille","lat":43.29012,"lon":5.38654,"is_reserved":false,"is_disabled":false,"rental_uris":{"android":"levelo://app?vid=64562a8f-fe86-4a1b-b14c-4a382af5be03","ios":"levelo://app?vid=64562a8f-fe86-4a1b-b14c-4a382af5be03"},"vehicle_type_id":"4","last_reported":1769066351,"current_range_meters":3200,"station_id":"ce4bh4p2rcd13ifvqe0g","pricing_plan_id":"cebpf4jnsgd1na2vs0mg"},{"bike_id":"c04e4d62-6c27-4f6c-abd3-a24ebb249ccf","system_id":"levelo_inurba_marseille","lat":43.274935,"lon":5.424524,"is_reserved":false,"is_disabled":false,"rental_uris":{"android":"levelo://app?vid=c04e4d62-6c27-4f6c-abd3-a24ebb249ccf","ios":"levelo://app?vid=c04e4d62-6c27-4f6c-abd3-a24ebb249ccf"},"vehicle_type_id":"4","last_reported":1769066351,"current_range_meters":3200,"station_id":"ce4bhn92rcd13ifvqgrg","pricing_plan_id":"cebpf4jnsgd1na2vs0mg"},{"bike_id":"5bdad711-817a-42cc-84b1-10d4beae812a","system_id":"levelo_inurba_marseille","lat":43.22559,"lon":5.41635,"is_reserved":false,"is_disabled":false,"rental_uris":{"android":"levelo://app?vid=5bdad711-817a-42cc-84b1-10d4beae812a","ios":"levelo://app?vid=5bdad711-817a-42cc-84b1-10d4beae812a"},"vehicle_type_id":"4","last_reported":1769066351,"current_range_meters":3200,"station_id":"st_d2o4gvlbi1j2169b742g","pricing_plan_id":"cebpf4jnsgd1na2vs0mg"},{"bike_id":"e30e5038-133a-4941-915f-3668f86c0d23","system_id":"levelo_inurba_marseille","lat":43.31075,"lon":5.37177,"is_reserved":false,"is_disabled":false,"rental_uris":{"android":"levelo://app?vid=e30e5038-133a-4941-915f-3668f86c0d23","ios":"levelo://app?vid=e30e5038-133a-4941-915f-3668f86c0d23"},"vehicle_type_id":"4","last_reported":1769066351,"current_range_meters":3200,"station_id":"st_d4kl2rp97mjs73e7tdfg","pricing_plan_id":"cebpf4jnsgd1na2vs0mg"},{"bike_id":"a7e9b8ed-c7df-433f-8227-179c9a0fe5a2","system_id":"levelo_inurba_marseille","lat":43.22491,"lon":5.34796,"is_reserved":false,"is_disabled":false,"rental_uris":{"android":"levelo://app?vid=a7e9b8ed-c7df-433f-8227-179c9a0fe5a2","ios":"levelo://app?vid=a7e9b8ed-c7df-433f-8227-179c9a0fe5a2"},"vehicle_type_id":"4","last_reported":1769066351,"current_range_meters":3200,"station_id":"","pricing_plan_id":"cebpf4jnsgd1na2vs0mg"},{"bike_id":"23a4afae-de50-43f1-9f93-9e3fdc29e476","system_id":"levelo_inurba_marseille","lat":43.31366,"lon":5.38496,"is_reserved":false,"is_disabled":false,"rental_uris":{"android":"levelo://app?vid=23a4afae-de50-43f1-9f93-9e3fdc29e476","ios":"levelo://app?vid=23a4afae-de50-43f1-9f93-9e3fdc29e476"},"vehicle_type_id":"4","last_reported":1769066351,"current_range_meters":3200,"station_id":"ce4bgt92rcd13ifvqcf0","pricing_plan_id":"cebpf4jnsgd1na2vs0mg"},{"bike_id":"cf24cae7-0d85-41ce-87e8-83f3ee818c2c","system_id":"levelo_inurba_marseille","lat":43.32368,"lon":5.38932,"is_reserved":false,"is_disabled":false,"rental_uris":{"android":"levelo://app?vid=cf24cae7-0d85-41ce-87e8-83f3ee818c2c","ios":"levelo://app?vid=cf24cae7-0d85-41ce-87e8-83f3ee818c2c"},"vehicle_type_id":"4","last_reported":1769066351,"current_range_meters":3200,"station_id":"ce4bhqp2rcd13ifvqhog","pricing_plan_id":"cebpf4jnsgd1na2vs0mg"},{"bike_id":"31c21be6-18ca-494d-8d01-2f205767068d","system_id":"levelo_inurba_marseille","lat":43.31872,"lon":5.37471,"is_reserved":false,"is_disabled":false,"rental_uris":{"android":"levelo://app?vid=31c21be6-18ca-494d-8d01-2f205767068d","ios":"levelo://app?vid=31c21be6-18ca-494d-8d01-2f205767068d"},"vehicle_type_id":"4","last_reported":1769066351,"current_range_meters":3200,"station_id":"","pricing_plan_id":"cebpf4jnsgd1na2vs0mg"},{"bike_id":"bc53fded-5652-4ab5-920f-ec142a69c388","system_id":"levelo_inurba_marseille","lat":43.29784,"lon":5.39355,"is_reserved":false,"is_disabled":false,"rental_uris":{"android":"levelo://app?vid=bc53fded-5652-4ab5-920f-ec142a69c388","ios":"levelo://app?vid=bc53fded-5652-4ab5-920f-ec142a69c388"},"vehicle_type_id":"4","last_reported":1769066351,"current_range_meters":3200,"station_id":"chh1huq6cuj3fo74tm60","pricing_plan_id":"cebpf4jnsgd1na2vs0mg"},{"bike_id":"09708090-eb01-48c4-a317-0b7bbbd48bc6","system_id":"levelo_inurba_marseille","lat":43.27687,"lon":5.36162,"is_reserved":false,"is_disabled":false,"rental_uris":{"android":"levelo://app?vid=09708090-eb01-48c4-a317-0b7bbbd48bc6","ios":"levelo://app?vid=09708090-eb01-48c4-a317-0b7bbbd48bc6"},"vehicle_type_id":"4","last_reported":1769066351,"current_range_meters":3200,"station_id":"","pricing_plan_id":"cebpf4jnsgd1na2vs0mg"},{"bike_id":"4c50fafa-34d1-40d1-afd4-1321c9262efd","system_id":"levelo_inurba_marseille","lat":43.3254,"lon":5.41438,"is_reserved":false,"is_disabled":false,"rental_uris":{"android":"levelo://app?vid=4c50fafa-34d1-40d1-afd4-1321c9262efd","ios":"levelo://app?vid=4c50fafa-34d1-40d1-afd4-1321c9262efd"},"vehicle_type_id":"4","last_reported":1769066351,"current_range_meters":3200,"station_id":"ce4bhq12rcd13ifvqhhg","pricing_plan_id":"cebpf4jnsgd1na2vs0mg"},{"bike_id":"aaac608a-0e4d-4a83-94bd-7a1924af0522","system_id":"levelo_inurba_marseille","lat":43.274875,"lon":5.424549,"is_reserved":false,"is_disabled":false,"rental_uris":{"android":"levelo://app?vid=aaac608a-0e4d-4a83-94bd-7a1924af0522","ios":"levelo://app?vid=aaac608a-0e4d-4a83-94bd-7a1924af0522"},"vehicle_type_id":"4","last_reported":1769066351,"current_range_meters":3200,"station_id":"ce4bhn92rcd13ifvqgrg","pricing_plan_id":"cebpf4jnsgd1na2vs0mg"},{"bike_id":"4bf1987e-5794-49a0-8f69-b4544a7b7092","system_id":"levelo_inurba_marseille","lat":43.29759,"lon":5.42779,"is_reserved":false,"is_disabled":false,"rental_uris":{"android":"levelo://app?vid=4bf1987e-5794-49a0-8f69-b4544a7b7092","ios":"levelo://app?vid=4bf1987e-5794-49a0-8f69-b4544a7b7092"},"vehicle_type_id":"4","last_reported":1769066351,"current_range_meters":3600,"station_id":"st_d3md5207bmas73dh9klg","pricing_plan_id":"cebpf4jnsgd1na2vs0mg"},{"bike_id":"8a5611cd-1f80-47d8-afd9-8c6cbd7ed55d","system_id":"levelo_inurba_marseille","lat":43.29898,"lon":5.37484,"is_reserved":false,"is_disabled":false,"rental_uris":{"android":"levelo://app?vid=8a5611cd-1f80-47d8-afd9-8c6cbd7ed55d","ios":"levelo://app?vid=8a5611cd-1f80-47d8-afd9-8c6cbd7ed55d"},"vehicle_type_id":"4","last_reported":1769066351,"current_range_meters":3600,"station_id":"ce4bgjh2rcd13ifvqbg0","pricing_plan_id":"cebpf4jnsgd1na2vs0mg"},{"bike_id":"f73788f7-dec5-4308-a431-6e346b811946","system_id":"levelo_inurba_marseille","lat":43.30194,"lon":5.38092,"is_reserved":false,"is_disabled":false,"rental_uris":{"android":"levelo://app?vid=f73788f7-dec5-4308-a431-6e346b811946","ios":"levelo://app?vid=f73788f7-dec5-4308-a431-6e346b811946"},"vehicle_type_id":"4","last_reported":1769066351,"current_range_meters":3600,"station_id":"","pricing_plan_id":"cebpf4jnsgd1na2vs0mg"},{"bike_id":"99d65f09-c0e6-4f0f-b72f-6e110c0f1bd4","system_id":"levelo_inurba_marseille","lat":43.2899,"lon":5.37621,"is_reserved":false,"is_disabled":false,"rental_uris":{"android":"levelo://app?vid=99d65f09-c0e6-4f0f-b72f-6e110c0f1bd4","ios":"levelo://app?vid=99d65f09-c0e6-4f0f-b72f-6e110c0f1bd4"},"vehicle_type_id":"4","last_reported":1769066351,"current_range_meters":3600,"station_id":"","pricing_plan_id":"cebpf4jnsgd1na2vs0mg"},{"bike_id":"9fe9b7fa-bf5e-456b-b148-d56a572e2392","system_id":"levelo_inurba_marseille","lat":43.22569,"lon":5.41632,"is_reserved":false,"is_disabled":false,"rental_uris":{"android":"levelo://app?vid=9fe9b7fa-bf5e-456b-b148-d56a572e2392","ios":"levelo://app?vid=9fe9b7fa-bf5e-456b-b148-d56a572e2392"},"vehicle_type_id":"4","last_reported":1769066351,"current_range_meters":3600,"station_id":"st_d2o4gvlbi1j2169b742g","pricing_plan_id":"cebpf4jnsgd1na2vs0mg"},{"bike_id":"a113d258-e6cb-4585-b0d3-c9e692e1abc8","system_id":"levelo_inurba_marseille","lat":43.27195,"lon":5.39133,"is_reserved":false,"is_disabled":false,"rental_uris":{"android":"levelo://app?vid=a113d258-e6cb-4585-b0d3-c9e692e1abc8","ios":"levelo://app?vid=a113d258-e6cb-4585-b0d3-c9e692e1abc8"},"vehicle_type_id":"4","last_reported":1769066351,"current_range_meters":3600,"station_id":"ce4bhhp2rcd13ifvqfm0","pricing_plan_id":"cebpf4jnsgd1na2vs0mg"},{"bike_id":"75bfb367-9da9-4453-b251-0936b17613e6","system_id":"levelo_inurba_marseille","lat":43.2993,"lon":5.36552,"is_reserved":false,"is_disabled":false,"rental_uris":{"android":"levelo://app?vid=75bfb367-9da9-4453-b251-0936b17613e6","ios":"levelo://app?vid=75bfb367-9da9-4453-b251-0936b17613e6"},"vehicle_type_id":"4","last_reported":1769066351,"current_range_meters":3600,"station_id":"ce4bgm92rcd13ifvqbr0","pricing_plan_id":"cebpf4jnsgd1na2vs0mg"},{"bike_id":"524d578e-a05d-4e3b-a710-025f60cee79e","system_id":"levelo_inurba_marseille","lat":43.30769,"lon":5.37639,"is_reserved":false,"is_disabled":false,"rental_uris":{"android":"levelo://app?vid=524d578e-a05d-4e3b-a710-025f60cee79e","ios":"levelo://app?vid=524d578e-a05d-4e3b-a710-025f60cee79e"},"vehicle_type_id":"4","last_reported":1769066351,"current_range_meters":3600,"station_id":"ce4bgv92rcd13ifvqcq0","pricing_plan_id":"cebpf4jnsgd1na2vs0mg"},{"bike_id":"16061caf-50a1-476b-9d36-08030a74b633","system_id":"levelo_inurba_marseille","lat":43.31075,"lon":5.38354,"is_reserved":false,"is_disabled":false,"rental_uris":{"android":"levelo://app?vid=16061caf-50a1-476b-9d36-08030a74b633","ios":"levelo://app?vid=16061caf-50a1-476b-9d36-08030a74b633"},"vehicle_type_id":"4","last_reported":1769066351,"current_range_meters":3600,"station_id":"ce4bgv92rcd13ifvqcr0","pricing_plan_id":"cebpf4jnsgd1na2vs0mg"},{"bike_id":"bd38cb65-5e9c-433e-b8e1-8b4de48f35c1","system_id":"levelo_inurba_marseille","lat":43.29605,"lon":5.38094,"is_reserved":false,"is_disabled":false,"rental_uris":{"android":"levelo://app?vid=bd38cb65-5e9c-433e-b8e1-8b4de48f35c1","ios":"levelo://app?vid=bd38cb65-5e9c-433e-b8e1-8b4de48f35c1"},"vehicle_type_id":"4","last_reported":1769066351,"current_range_meters":3600,"station_id":"ce4bgl12rcd13ifvqbo0","pricing_plan_id":"cebpf4jnsgd1na2vs0mg"},{"bike_id":"19e8b27e-132e-46a2-acc6-21e8f573234b","system_id":"levelo_inurba_marseille","lat":43.25682,"lon":5.41122,"is_reserved":false,"is_disabled":false,"rental_uris":{"android":"levelo://app?vid=19e8b27e-132e-46a2-acc6-21e8f573234b","ios":"levelo://app?vid=19e8b27e-132e-46a2-acc6-21e8f573234b"},"vehicle_type_id":"4","last_reported":1769066351,"current_range_meters":3600,"station_id":"ce4bhkp2rcd13ifvqgd0","pricing_plan_id":"cebpf4jnsgd1na2vs0mg"},{"bike_id":"e6df6fb7-994b-4037-99d6-76175fe9a7d0","system_id":"levelo_inurba_marseille","lat":43.23183,"lon":5.39991,"is_reserved":false,"is_disabled":false,"rental_uris":{"android":"levelo://app?vid=e6df6fb7-994b-4037-99d6-76175fe9a7d0","ios":"levelo://app?vid=e6df6fb7-994b-4037-99d6-76175fe9a7d0"},"vehicle_type_id":"4","last_reported":1769066351,"current_range_meters":3600,"station_id":"ce4bhn12rcd13ifvqgqg","pricing_plan_id":"cebpf4jnsgd1na2vs0mg"},{"bike_id":"d9d259ef-225c-4373-ba75-518a5c906d5f","system_id":"levelo_inurba_marseille","lat":43.29232,"lon":5.36071,"is_reserved":false,"is_disabled":false,"rental_uris":{"android":"levelo://app?vid=d9d259ef-225c-4373-ba75-518a5c906d5f","ios":"levelo://app?vid=d9d259ef-225c-4373-ba75-518a5c906d5f"},"vehicle_type_id":"4","last_reported":1769066351,"current_range_meters":3600,"station_id":"ce4bhbh2rcd13ifvqeqg","pricing_plan_id":"cebpf4jnsgd1na2vs0mg"},{"bike_id":"cf1cdb90-2109-42b9-8ee2-b0a8db40d40b","system_id":"levelo_inurba_marseille","lat":43.272121,"lon":5.391813,"is_reserved":false,"is_disabled":false,"rental_uris":{"android":"levelo://app?vid=cf1cdb90-2109-42b9-8ee2-b0a8db40d40b","ios":"levelo://app?vid=cf1cdb90-2109-42b9-8ee2-b0a8db40d40b"},"vehicle_type_id":"4","last_reported":1769066351,"current_range_meters":3600,"station_id":"ce4bhhp2rcd13ifvqfm0","pricing_plan_id":"cebpf4jnsgd1na2vs0mg"},{"bike_id":"416786c9-5441-4ae2-97be-8dd18ff4a833","system_id":"levelo_inurba_marseille","lat":43.265646,"lon":5.403218,"is_reserved":false,"is_disabled":false,"rental_uris":{"android":"levelo://app?vid=416786c9-5441-4ae2-97be-8dd18ff4a833","ios":"levelo://app?vid=416786c9-5441-4ae2-97be-8dd18ff4a833"},"vehicle_type_id":"4","last_reported":1769066351,"current_range_meters":3600,"station_id":"ce4bhmp2rcd13ifvqgng","pricing_plan_id":"cebpf4jnsgd1na2vs0mg"},{"bike_id":"36379ecc-f580-4cc3-ac28-1068980e3530","system_id":"levelo_inurba_marseille","lat":43.29024,"lon":5.38631,"is_reserved":false,"is_disabled":false,"rental_uris":{"android":"levelo://app?vid=36379ecc-f580-4cc3-ac28-1068980e3530","ios":"levelo://app?vid=36379ecc-f580-4cc3-ac28-1068980e3530"},"vehicle_type_id":"4","last_reported":1769066351,"current_range_meters":3600,"station_id":"ce4bh4p2rcd13ifvqe0g","pricing_plan_id":"cebpf4jnsgd1na2vs0mg"},{"bike_id":"f09c06aa-a05d-4b00-b228-d8bee2b62b4f","system_id":"levelo_inurba_marseille","lat":43.3235,"lon":5.36737,"is_reserved":false,"is_disabled":false,"rental_uris":{"android":"levelo://app?vid=f09c06aa-a05d-4b00-b228-d8bee2b62b4f","ios":"levelo://app?vid=f09c06aa-a05d-4b00-b228-d8bee2b62b4f"},"vehicle_type_id":"4","last_reported":1769066351,"current_range_meters":4000,"station_id":"ce4bhsh2rcd13ifvqi2g","pricing_plan_id":"cebpf4jnsgd1na2vs0mg"},{"bike_id":"cd656310-4221-426f-b1a2-42610d0b025b","system_id":"levelo_inurba_marseille","lat":43.23756,"lon":5.36616,"is_reserved":false,"is_disabled":false,"rental_uris":{"android":"levelo://app?vid=cd656310-4221-426f-b1a2-42610d0b025b","ios":"levelo://app?vid=cd656310-4221-426f-b1a2-42610d0b025b"},"vehicle_type_id":"4","last_reported":1769066351,"current_range_meters":4000,"station_id":"st_d3nk18o9ro0c73en2l3g","pricing_plan_id":"cebpf4jnsgd1na2vs0mg"},{"bike_id":"5f477738-733e-4c98-961a-33429c5938fd","system_id":"levelo_inurba_marseille","lat":43.260586,"lon":5.393984,"is_reserved":false,"is_disabled":false,"rental_uris":{"android":"levelo://app?vid=5f477738-733e-4c98-961a-33429c5938fd","ios":"levelo://app?vid=5f477738-733e-4c98-961a-33429c5938fd"},"vehicle_type_id":"4","last_reported":1769066351,"current_range_meters":4000,"station_id":"ce4bhh92rcd13ifvqfj0","pricing_plan_id":"cebpf4jnsgd1na2vs0mg"},{"bike_id":"054e163b-1e47-4a0a-a038-a7939885860e","system_id":"levelo_inurba_marseille","lat":43.32346,"lon":5.36733,"is_reserved":false,"is_disabled":false,"rental_uris":{"android":"levelo://app?vid=054e163b-1e47-4a0a-a038-a7939885860e","ios":"levelo://app?vid=054e163b-1e47-4a0a-a038-a7939885860e"},"vehicle_type_id":"4","last_reported":1769066351,"current_range_meters":4000,"station_id":"ce4bhsh2rcd13ifvqi2g","pricing_plan_id":"cebpf4jnsgd1na2vs0mg"},{"bike_id":"b178fe28-787e-4cf2-8e9f-53564dafc878","system_id":"levelo_inurba_marseille","lat":43.29023,"lon":5.3864,"is_reserved":false,"is_disabled":false,"rental_uris":{"android":"levelo://app?vid=b178fe28-787e-4cf2-8e9f-53564dafc878","ios":"levelo://app?vid=b178fe28-787e-4cf2-8e9f-53564dafc878"},"vehicle_type_id":"4","last_reported":1769066351,"current_range_meters":4000,"station_id":"ce4bh4p2rcd13ifvqe0g","pricing_plan_id":"cebpf4jnsgd1na2vs0mg"},{"bike_id":"bee591a7-c5f4-42da-8ab0-cc3c18c01229","system_id":"levelo_inurba_marseille","lat":43.2902,"lon":5.38662,"is_reserved":false,"is_disabled":false,"rental_uris":{"android":"levelo://app?vid=bee591a7-c5f4-42da-8ab0-cc3c18c01229","ios":"levelo://app?vid=bee591a7-c5f4-42da-8ab0-cc3c18c01229"},"vehicle_type_id":"4","last_reported":1769066351,"current_range_meters":4000,"station_id":"ce4bh4p2rcd13ifvqe0g","pricing_plan_id":"cebpf4jnsgd1na2vs0mg"},{"bike_id":"64089e70-95ae-4ee4-8be8-a9da03038877","system_id":"levelo_inurba_marseille","lat":43.31363,"lon":5.36712,"is_reserved":false,"is_disabled":false,"rental_uris":{"android":"levelo://app?vid=64089e70-95ae-4ee4-8be8-a9da03038877","ios":"levelo://app?vid=64089e70-95ae-4ee4-8be8-a9da03038877"},"vehicle_type_id":"4","last_reported":1769066351,"current_range_meters":4000,"station_id":"ce4bgr92rcd13ifvqc6g","pricing_plan_id":"cebpf4jnsgd1na2vs0mg"},{"bike_id":"9e69d33f-047a-4afd-8d3e-c5c47b9e4903","system_id":"levelo_inurba_marseille","lat":43.304326,"lon":5.397362,"is_reserved":false,"is_disabled":false,"rental_uris":{"android":"levelo://app?vid=9e69d33f-047a-4afd-8d3e-c5c47b9e4903","ios":"levelo://app?vid=9e69d33f-047a-4afd-8d3e-c5c47b9e4903"},"vehicle_type_id":"4","last_reported":1769066351,"current_range_meters":4000,"station_id":"ce4bh092rcd13ifvqd20","pricing_plan_id":"cebpf4jnsgd1na2vs0mg"},{"bike_id":"87376c51-7b52-4611-acd2-49441baafe3f","system_id":"levelo_inurba_marseille","lat":43.24625,"lon":5.4022,"is_reserved":false,"is_disabled":false,"rental_uris":{"android":"levelo://app?vid=87376c51-7b52-4611-acd2-49441baafe3f","ios":"levelo://app?vid=87376c51-7b52-4611-acd2-49441baafe3f"},"vehicle_type_id":"4","last_reported":1769066351,"current_range_meters":4000,"station_id":"","pricing_plan_id":"cebpf4jnsgd1na2vs0mg"},{"bike_id":"8e733cd9-6316-4596-8c6d-1ade935f0d35","system_id":"levelo_inurba_marseille","lat":43.27207,"lon":5.3918,"is_reserved":false,"is_disabled":false,"rental_uris":{"android":"levelo://app?vid=8e733cd9-6316-4596-8c6d-1ade935f0d35","ios":"levelo://app?vid=8e733cd9-6316-4596-8c6d-1ade935f0d35"},"vehicle_type_id":"4","last_reported":1769066351,"current_range_meters":4000,"station_id":"ce4bhhp2rcd13ifvqfm0","pricing_plan_id":"cebpf4jnsgd1na2vs0mg"},{"bike_id":"4c7ae057-d306-4108-a109-f703240d1f82","system_id":"levelo_inurba_marseille","lat":43.25922,"lon":5.40886,"is_reserved":false,"is_disabled":false,"rental_uris":{"android":"levelo://app?vid=4c7ae057-d306-4108-a109-f703240d1f82","ios":"levelo://app?vid=4c7ae057-d306-4108-a109-f703240d1f82"},"vehicle_type_id":"4","last_reported":1769066351,"current_range_meters":4000,"station_id":"ce4bhm92rcd13ifvqglg","pricing_plan_id":"cebpf4jnsgd1na2vs0mg"},{"bike_id":"766e8458-e5e2-4568-94e9-ff33362d88b9","system_id":"levelo_inurba_marseille","lat":43.25099,"lon":5.39514,"is_reserved":false,"is_disabled":false,"rental_uris":{"android":"levelo://app?vid=766e8458-e5e2-4568-94e9-ff33362d88b9","ios":"levelo://app?vid=766e8458-e5e2-4568-94e9-ff33362d88b9"},"vehicle_type_id":"4","last_reported":1769066351,"current_range_meters":4000,"station_id":"ce4bhm12rcd13ifvqgkg","pricing_plan_id":"cebpf4jnsgd1na2vs0mg"},{"bike_id":"3ee27529-c0a3-4b7f-9802-31b60bb1fd7b","system_id":"levelo_inurba_marseille","lat":43.27492,"lon":5.42453,"is_reserved":false,"is_disabled":false,"rental_uris":{"android":"levelo://app?vid=3ee27529-c0a3-4b7f-9802-31b60bb1fd7b","ios":"levelo://app?vid=3ee27529-c0a3-4b7f-9802-31b60bb1fd7b"},"vehicle_type_id":"4","last_reported":1769066351,"current_range_meters":4400,"station_id":"ce4bhn92rcd13ifvqgrg","pricing_plan_id":"cebpf4jnsgd1na2vs0mg"},{"bike_id":"3239dd1f-ff09-437a-94a0-c270cccdbbd9","system_id":"levelo_inurba_marseille","lat":43.31772,"lon":5.38998,"is_reserved":false,"is_disabled":true,"rental_uris":{"android":"levelo://app?vid=3239dd1f-ff09-437a-94a0-c270cccdbbd9","ios":"levelo://app?vid=3239dd1f-ff09-437a-94a0-c270cccdbbd9"},"vehicle_type_id":"4","last_reported":1769066351,"current_range_meters":4400,"station_id":"ce4bhqp2rcd13ifvqhng","pricing_plan_id":"cebpf4jnsgd1na2vs0mg"},{"bike_id":"dedd883c-ff49-46e7-a27b-31461077bfed","system_id":"levelo_inurba_marseille","lat":43.29269,"lon":5.40166,"is_reserved":false,"is_disabled":false,"rental_uris":{"android":"levelo://app?vid=dedd883c-ff49-46e7-a27b-31461077bfed","ios":"levelo://app?vid=dedd883c-ff49-46e7-a27b-31461077bfed"},"vehicle_type_id":"4","last_reported":1769066351,"current_range_meters":4400,"station_id":"ce4bh312rcd13ifvqdk0","pricing_plan_id":"cebpf4jnsgd1na2vs0mg"},{"bike_id":"8dd5e1ae-27b7-4b13-84ee-a9d2cf511ca0","system_id":"levelo_inurba_marseille","lat":43.27869,"lon":5.38021,"is_reserved":false,"is_disabled":false,"rental_uris":{"android":"levelo://app?vid=8dd5e1ae-27b7-4b13-84ee-a9d2cf511ca0","ios":"levelo://app?vid=8dd5e1ae-27b7-4b13-84ee-a9d2cf511ca0"},"vehicle_type_id":"4","last_reported":1769066351,"current_range_meters":4400,"station_id":"ce4bhf92rcd13ifvqf50","pricing_plan_id":"cebpf4jnsgd1na2vs0mg"},{"bike_id":"0d073dc4-e542-4a37-9edb-04c8262d5066","system_id":"levelo_inurba_marseille","lat":43.285276,"lon":5.44104,"is_reserved":false,"is_disabled":false,"rental_uris":{"android":"levelo://app?vid=0d073dc4-e542-4a37-9edb-04c8262d5066","ios":"levelo://app?vid=0d073dc4-e542-4a37-9edb-04c8262d5066"},"vehicle_type_id":"4","last_reported":1769066351,"current_range_meters":4400,"station_id":"st_d3j3df2ikq2c7380ej80","pricing_plan_id":"cebpf4jnsgd1na2vs0mg"},{"bike_id":"ffabd398-f54b-45bd-9851-1b3115defcf6","system_id":"levelo_inurba_marseille","lat":43.24229,"lon":5.39711,"is_reserved":false,"is_disabled":false,"rental_uris":{"android":"levelo://app?vid=ffabd398-f54b-45bd-9851-1b3115defcf6","ios":"levelo://app?vid=ffabd398-f54b-45bd-9851-1b3115defcf6"},"vehicle_type_id":"4","last_reported":1769066351,"current_range_meters":4400,"station_id":"ce4bhn12rcd13ifvqgpg","pricing_plan_id":"cebpf4jnsgd1na2vs0mg"},{"bike_id":"e3006b68-2895-43e3-a6a3-f525aa75c699","system_id":"levelo_inurba_marseille","lat":43.24072,"lon":5.37756,"is_reserved":false,"is_disabled":false,"rental_uris":{"android":"levelo://app?vid=e3006b68-2895-43e3-a6a3-f525aa75c699","ios":"levelo://app?vid=e3006b68-2895-43e3-a6a3-f525aa75c699"},"vehicle_type_id":"4","last_reported":1769066351,"current_range_meters":4400,"station_id":"ce4bhnp2rcd13ifvqgvg","pricing_plan_id":"cebpf4jnsgd1na2vs0mg"},{"bike_id":"e26301b9-2ba6-4110-823c-43c3e31eef15","system_id":"levelo_inurba_marseille","lat":43.30664,"lon":5.3934,"is_reserved":false,"is_disabled":false,"rental_uris":{"android":"levelo://app?vid=e26301b9-2ba6-4110-823c-43c3e31eef15","ios":"levelo://app?vid=e26301b9-2ba6-4110-823c-43c3e31eef15"},"vehicle_type_id":"4","last_reported":1769066351,"current_range_meters":4400,"station_id":"","pricing_plan_id":"cebpf4jnsgd1na2vs0mg"},{"bike_id":"c26d1c7c-53c3-4112-8409-0e791990759e","system_id":"levelo_inurba_marseille","lat":43.27056,"lon":5.40256,"is_reserved":false,"is_disabled":false,"rental_uris":{"android":"levelo://app?vid=c26d1c7c-53c3-4112-8409-0e791990759e","ios":"levelo://app?vid=c26d1c7c-53c3-4112-8409-0e791990759e"},"vehicle_type_id":"4","last_reported":1769066351,"current_range_meters":4400,"station_id":"ce4bhk92rcd13ifvqgc0","pricing_plan_id":"cebpf4jnsgd1na2vs0mg"},{"bike_id":"50790d1b-fc12-48e3-b8b8-2d803eb411a9","system_id":"levelo_inurba_marseille","lat":43.30349,"lon":5.4188,"is_reserved":false,"is_disabled":false,"rental_uris":{"android":"levelo://app?vid=50790d1b-fc12-48e3-b8b8-2d803eb411a9","ios":"levelo://app?vid=50790d1b-fc12-48e3-b8b8-2d803eb411a9"},"vehicle_type_id":"4","last_reported":1769066351,"current_range_meters":4400,"station_id":"ce4bhop2rcd13ifvqh7g","pricing_plan_id":"cebpf4jnsgd1na2vs0mg"},{"bike_id":"13c816e9-5043-41d0-a44f-0b67121a9c07","system_id":"levelo_inurba_marseille","lat":43.27944,"lon":5.39162,"is_reserved":false,"is_disabled":false,"rental_uris":{"android":"levelo://app?vid=13c816e9-5043-41d0-a44f-0b67121a9c07","ios":"levelo://app?vid=13c816e9-5043-41d0-a44f-0b67121a9c07"},"vehicle_type_id":"4","last_reported":1769066351,"current_range_meters":4400,"station_id":"ce4bhjp2rcd13ifvqga0","pricing_plan_id":"cebpf4jnsgd1na2vs0mg"},{"bike_id":"72e1655d-aec3-4349-93c1-06571442ed3a","system_id":"levelo_inurba_marseille","lat":43.246661,"lon":5.381536,"is_reserved":false,"is_disabled":false,"rental_uris":{"android":"levelo://app?vid=72e1655d-aec3-4349-93c1-06571442ed3a","ios":"levelo://app?vid=72e1655d-aec3-4349-93c1-06571442ed3a"},"vehicle_type_id":"4","last_reported":1769066351,"current_range_meters":4400,"station_id":"ce4bhih2rcd13ifvqfr0","pricing_plan_id":"cebpf4jnsgd1na2vs0mg"},{"bike_id":"8f37b858-03c9-4dc4-9353-016aa6a18d48","system_id":"levelo_inurba_marseille","lat":43.29055,"lon":5.3717,"is_reserved":false,"is_disabled":false,"rental_uris":{"android":"levelo://app?vid=8f37b858-03c9-4dc4-9353-016aa6a18d48","ios":"levelo://app?vid=8f37b858-03c9-4dc4-9353-016aa6a18d48"},"vehicle_type_id":"4","last_reported":1769066351,"current_range_meters":4800,"station_id":"ce4bh5p2rcd13ifvqe4g","pricing_plan_id":"cebpf4jnsgd1na2vs0mg"},{"bike_id":"70e34699-a9a6-4179-abe0-d187d3cf013c","system_id":"levelo_inurba_marseille","lat":43.29061,"lon":5.37218,"is_reserved":false,"is_disabled":false,"rental_uris":{"android":"levelo://app?vid=70e34699-a9a6-4179-abe0-d187d3cf013c","ios":"levelo://app?vid=70e34699-a9a6-4179-abe0-d187d3cf013c"},"vehicle_type_id":"4","last_reported":1769066351,"current_range_meters":4800,"station_id":"","pricing_plan_id":"cebpf4jnsgd1na2vs0mg"},{"bike_id":"9398d7c5-0457-4c0a-afbe-4f9142d9186a","system_id":"levelo_inurba_marseille","lat":43.25578,"lon":5.38234,"is_reserved":false,"is_disabled":false,"rental_uris":{"android":"levelo://app?vid=9398d7c5-0457-4c0a-afbe-4f9142d9186a","ios":"levelo://app?vid=9398d7c5-0457-4c0a-afbe-4f9142d9186a"},"vehicle_type_id":"4","last_reported":1769066351,"current_range_meters":4800,"station_id":"ce4bhih2rcd13ifvqfs0","pricing_plan_id":"cebpf4jnsgd1na2vs0mg"},{"bike_id":"dec14663-355f-4430-91e3-30b3715f1bd1","system_id":"levelo_inurba_marseille","lat":43.27215,"lon":5.39178,"is_reserved":false,"is_disabled":false,"rental_uris":{"android":"levelo://app?vid=dec14663-355f-4430-91e3-30b3715f1bd1","ios":"levelo://app?vid=dec14663-355f-4430-91e3-30b3715f1bd1"},"vehicle_type_id":"4","last_reported":1769066351,"current_range_meters":4800,"station_id":"ce4bhhp2rcd13ifvqfm0","pricing_plan_id":"cebpf4jnsgd1na2vs0mg"},{"bike_id":"ddac16df-da7b-4c1e-8c96-25bd2dbc1226","system_id":"levelo_inurba_marseille","lat":43.323587,"lon":5.367412,"is_reserved":false,"is_disabled":false,"rental_uris":{"android":"levelo://app?vid=ddac16df-da7b-4c1e-8c96-25bd2dbc1226","ios":"levelo://app?vid=ddac16df-da7b-4c1e-8c96-25bd2dbc1226"},"vehicle_type_id":"4","last_reported":1769066351,"current_range_meters":4800,"station_id":"ce4bhsh2rcd13ifvqi2g","pricing_plan_id":"cebpf4jnsgd1na2vs0mg"},{"bike_id":"8ca2a582-f5c7-4166-bf7f-aef021cd9b70","system_id":"levelo_inurba_marseille","lat":43.31702,"lon":5.37743,"is_reserved":false,"is_disabled":false,"rental_uris":{"android":"levelo://app?vid=8ca2a582-f5c7-4166-bf7f-aef021cd9b70","ios":"levelo://app?vid=8ca2a582-f5c7-4166-bf7f-aef021cd9b70"},"vehicle_type_id":"4","last_reported":1769066351,"current_range_meters":4800,"station_id":"ce4bgth2rcd13ifvqch0","pricing_plan_id":"cebpf4jnsgd1na2vs0mg"},{"bike_id":"39cc60a8-36c4-442c-af28-e03b009c216a","system_id":"levelo_inurba_marseille","lat":43.26359,"lon":5.41074,"is_reserved":false,"is_disabled":false,"rental_uris":{"android":"levelo://app?vid=39cc60a8-36c4-442c-af28-e03b009c216a","ios":"levelo://app?vid=39cc60a8-36c4-442c-af28-e03b009c216a"},"vehicle_type_id":"4","last_reported":1769066351,"current_range_meters":4800,"station_id":"st_d4e5ca6na9uc73bfl5fg","pricing_plan_id":"cebpf4jnsgd1na2vs0mg"},{"bike_id":"e7798dc0-d97c-4c66-a831-3e826d38f02f","system_id":"levelo_inurba_marseille","lat":43.2928,"lon":5.37639,"is_reserved":false,"is_disabled":false,"rental_uris":{"android":"levelo://app?vid=e7798dc0-d97c-4c66-a831-3e826d38f02f","ios":"levelo://app?vid=e7798dc0-d97c-4c66-a831-3e826d38f02f"},"vehicle_type_id":"4","last_reported":1769066351,"current_range_meters":4800,"station_id":"ce4bgi12rcd13ifvqb80","pricing_plan_id":"cebpf4jnsgd1na2vs0mg"},{"bike_id":"c70e0bb4-fab0-4654-bdca-7c1110702f66","system_id":"levelo_inurba_marseille","lat":43.23968,"lon":5.36622,"is_reserved":false,"is_disabled":false,"rental_uris":{"android":"levelo://app?vid=c70e0bb4-fab0-4654-bdca-7c1110702f66","ios":"levelo://app?vid=c70e0bb4-fab0-4654-bdca-7c1110702f66"},"vehicle_type_id":"4","last_reported":1769066351,"current_range_meters":4800,"station_id":"ce4bhi12rcd13ifvqfp0","pricing_plan_id":"cebpf4jnsgd1na2vs0mg"},{"bike_id":"d55b9c36-ecd6-45bc-8445-469fff93718f","system_id":"levelo_inurba_marseille","lat":43.2466,"lon":5.3817,"is_reserved":false,"is_disabled":false,"rental_uris":{"android":"levelo://app?vid=d55b9c36-ecd6-45bc-8445-469fff93718f","ios":"levelo://app?vid=d55b9c36-ecd6-45bc-8445-469fff93718f"},"vehicle_type_id":"4","last_reported":1769066351,"current_range_meters":4800,"station_id":"ce4bhih2rcd13ifvqfr0","pricing_plan_id":"cebpf4jnsgd1na2vs0mg"},{"bike_id":"43448dd5-9537-449d-8160-6a955b585b98","system_id":"levelo_inurba_marseille","lat":43.25589,"lon":5.38233,"is_reserved":false,"is_disabled":false,"rental_uris":{"android":"levelo://app?vid=43448dd5-9537-449d-8160-6a955b585b98","ios":"levelo://app?vid=43448dd5-9537-449d-8160-6a955b585b98"},"vehicle_type_id":"4","last_reported":1769066351,"current_range_meters":4800,"station_id":"ce4bhih2rcd13ifvqfs0","pricing_plan_id":"cebpf4jnsgd1na2vs0mg"},{"bike_id":"94e447ef-188e-4e98-a497-4fbe709caccf","system_id":"levelo_inurba_marseille","lat":43.23973,"lon":5.36622,"is_reserved":false,"is_disabled":false,"rental_uris":{"android":"levelo://app?vid=94e447ef-188e-4e98-a497-4fbe709caccf","ios":"levelo://app?vid=94e447ef-188e-4e98-a497-4fbe709caccf"},"vehicle_type_id":"4","last_reported":1769066351,"current_range_meters":5600,"station_id":"ce4bhi12rcd13ifvqfp0","pricing_plan_id":"cebpf4jnsgd1na2vs0mg"},{"bike_id":"19c9b524-76f1-4e5d-8be9-000b11a19079","system_id":"levelo_inurba_marseille","lat":43.25023,"lon":5.38916,"is_reserved":false,"is_disabled":false,"rental_uris":{"android":"levelo://app?vid=19c9b524-76f1-4e5d-8be9-000b11a19079","ios":"levelo://app?vid=19c9b524-76f1-4e5d-8be9-000b11a19079"},"vehicle_type_id":"4","last_reported":1769066351,"current_range_meters":5600,"station_id":"ce4bhgp2rcd13ifvqfd0","pricing_plan_id":"cebpf4jnsgd1na2vs0mg"},{"bike_id":"8874bf8b-6ad0-4eec-9cb1-cd588fda0c4c","system_id":"levelo_inurba_marseille","lat":43.30544,"lon":5.38422,"is_reserved":false,"is_disabled":false,"rental_uris":{"android":"levelo://app?vid=8874bf8b-6ad0-4eec-9cb1-cd588fda0c4c","ios":"levelo://app?vid=8874bf8b-6ad0-4eec-9cb1-cd588fda0c4c"},"vehicle_type_id":"4","last_reported":1769066351,"current_range_meters":5600,"station_id":"ce4bgg92rcd13ifvqb30","pricing_plan_id":"cebpf4jnsgd1na2vs0mg"},{"bike_id":"ae227eb2-1fdf-4e8d-a590-394b7c8c9569","system_id":"levelo_inurba_marseille","lat":43.29039,"lon":5.39962,"is_reserved":false,"is_disabled":true,"rental_uris":{"android":"levelo://app?vid=ae227eb2-1fdf-4e8d-a590-394b7c8c9569","ios":"levelo://app?vid=ae227eb2-1fdf-4e8d-a590-394b7c8c9569"},"vehicle_type_id":"4","last_reported":1769066351,"current_range_meters":5600,"station_id":"ce4bh392rcd13ifvqdm0","pricing_plan_id":"cebpf4jnsgd1na2vs0mg"},{"bike_id":"0b64e895-792b-4498-9172-5f40249c5668","system_id":"levelo_inurba_marseille","lat":43.26047,"lon":5.39402,"is_reserved":false,"is_disabled":false,"rental_uris":{"android":"levelo://app?vid=0b64e895-792b-4498-9172-5f40249c5668","ios":"levelo://app?vid=0b64e895-792b-4498-9172-5f40249c5668"},"vehicle_type_id":"4","last_reported":1769066351,"current_range_meters":5600,"station_id":"ce4bhh92rcd13ifvqfj0","pricing_plan_id":"cebpf4jnsgd1na2vs0mg"},{"bike_id":"bf9df301-dc0d-41cc-96a1-27301e9f819b","system_id":"levelo_inurba_marseille","lat":43.28473,"lon":5.48392,"is_reserved":false,"is_disabled":false,"rental_uris":{"android":"levelo://app?vid=bf9df301-dc0d-41cc-96a1-27301e9f819b","ios":"levelo://app?vid=bf9df301-dc0d-41cc-96a1-27301e9f819b"},"vehicle_type_id":"4","last_reported":1769066351,"current_range_meters":5600,"station_id":"st_d3svhcjqgbts73a3dn0g","pricing_plan_id":"cebpf4jnsgd1na2vs0mg"},{"bike_id":"c410668a-fb9f-4d89-8357-51bcc7148eda","system_id":"levelo_inurba_marseille","lat":43.24179,"lon":5.39727,"is_reserved":false,"is_disabled":false,"rental_uris":{"android":"levelo://app?vid=c410668a-fb9f-4d89-8357-51bcc7148eda","ios":"levelo://app?vid=c410668a-fb9f-4d89-8357-51bcc7148eda"},"vehicle_type_id":"4","last_reported":1769066351,"current_range_meters":5600,"station_id":"ce4bhn12rcd13ifvqgpg","pricing_plan_id":"cebpf4jnsgd1na2vs0mg"},{"bike_id":"605a4694-a373-4951-8629-da7134a21925","system_id":"levelo_inurba_marseille","lat":43.2991,"lon":5.38138,"is_reserved":false,"is_disabled":false,"rental_uris":{"android":"levelo://app?vid=605a4694-a373-4951-8629-da7134a21925","ios":"levelo://app?vid=605a4694-a373-4951-8629-da7134a21925"},"vehicle_type_id":"4","last_reported":1769066351,"current_range_meters":5600,"station_id":"ce4bgj12rcd13ifvqbc0","pricing_plan_id":"cebpf4jnsgd1na2vs0mg"},{"bike_id":"db5c533d-ad6a-4cca-9da6-b7b91ac05bc1","system_id":"levelo_inurba_marseille","lat":43.21753,"lon":5.34589,"is_reserved":false,"is_disabled":false,"rental_uris":{"android":"levelo://app?vid=db5c533d-ad6a-4cca-9da6-b7b91ac05bc1","ios":"levelo://app?vid=db5c533d-ad6a-4cca-9da6-b7b91ac05bc1"},"vehicle_type_id":"4","last_reported":1769066351,"current_range_meters":5600,"station_id":"st_cvj6r9ubvosntc0bgbag","pricing_plan_id":"cebpf4jnsgd1na2vs0mg"},{"bike_id":"1109f40b-1ed5-44e9-85e1-06f5ce6341e4","system_id":"levelo_inurba_marseille","lat":43.28442,"lon":5.39203,"is_reserved":false,"is_disabled":false,"rental_uris":{"android":"levelo://app?vid=1109f40b-1ed5-44e9-85e1-06f5ce6341e4","ios":"levelo://app?vid=1109f40b-1ed5-44e9-85e1-06f5ce6341e4"},"vehicle_type_id":"4","last_reported":1769066351,"current_range_meters":6000,"station_id":"ce4bhoh2rcd13ifvqh5g","pricing_plan_id":"cebpf4jnsgd1na2vs0mg"},{"bike_id":"db3f14e4-220b-415c-9e28-2fe041e49f9a","system_id":"levelo_inurba_marseille","lat":43.260679,"lon":5.393753,"is_reserved":false,"is_disabled":false,"rental_uris":{"android":"levelo://app?vid=db3f14e4-220b-415c-9e28-2fe041e49f9a","ios":"levelo://app?vid=db3f14e4-220b-415c-9e28-2fe041e49f9a"},"vehicle_type_id":"4","last_reported":1769066351,"current_range_meters":6000,"station_id":"","pricing_plan_id":"cebpf4jnsgd1na2vs0mg"},{"bike_id":"58cd0546-ee0c-4f92-ba44-6393bfd47c70","system_id":"levelo_inurba_marseille","lat":43.26559,"lon":5.39007,"is_reserved":false,"is_disabled":false,"rental_uris":{"android":"levelo://app?vid=58cd0546-ee0c-4f92-ba44-6393bfd47c70","ios":"levelo://app?vid=58cd0546-ee0c-4f92-ba44-6393bfd47c70"},"vehicle_type_id":"4","last_reported":1769066351,"current_range_meters":6000,"station_id":"ce4bhe12rcd13ifvqf30","pricing_plan_id":"cebpf4jnsgd1na2vs0mg"},{"bike_id":"206441f8-aeae-4f5a-aba6-5de70a26d57c","system_id":"levelo_inurba_marseille","lat":43.26558,"lon":5.37314,"is_reserved":false,"is_disabled":false,"rental_uris":{"android":"levelo://app?vid=206441f8-aeae-4f5a-aba6-5de70a26d57c","ios":"levelo://app?vid=206441f8-aeae-4f5a-aba6-5de70a26d57c"},"vehicle_type_id":"4","last_reported":1769066351,"current_range_meters":6000,"station_id":"ce4bhg12rcd13ifvqf70","pricing_plan_id":"cebpf4jnsgd1na2vs0mg"},{"bike_id":"fe2a828f-710f-491e-b529-f22ca09a8365","system_id":"levelo_inurba_marseille","lat":43.30742,"lon":5.40943,"is_reserved":false,"is_disabled":false,"rental_uris":{"android":"levelo://app?vid=fe2a828f-710f-491e-b529-f22ca09a8365","ios":"levelo://app?vid=fe2a828f-710f-491e-b529-f22ca09a8365"},"vehicle_type_id":"4","last_reported":1769066351,"current_range_meters":6000,"station_id":"","pricing_plan_id":"cebpf4jnsgd1na2vs0mg"},{"bike_id":"f3a01c85-86e9-4a7c-837b-602faf4bbfde","system_id":"levelo_inurba_marseille","lat":43.28005,"lon":5.38746,"is_reserved":false,"is_disabled":false,"rental_uris":{"android":"levelo://app?vid=f3a01c85-86e9-4a7c-837b-602faf4bbfde","ios":"levelo://app?vid=f3a01c85-86e9-4a7c-837b-602faf4bbfde"},"vehicle_type_id":"4","last_reported":1769066351,"current_range_meters":6000,"station_id":"ce4bhg12rcd13ifvqf80","pricing_plan_id":"cebpf4jnsgd1na2vs0mg"},{"bike_id":"dde7b0e0-bbd1-44de-82f6-999f8e69694c","system_id":"levelo_inurba_marseille","lat":43.25499,"lon":5.37688,"is_reserved":false,"is_disabled":false,"rental_uris":{"android":"levelo://app?vid=dde7b0e0-bbd1-44de-82f6-999f8e69694c","ios":"levelo://app?vid=dde7b0e0-bbd1-44de-82f6-999f8e69694c"},"vehicle_type_id":"4","last_reported":1769066351,"current_range_meters":6000,"station_id":"ce4bhh12rcd13ifvqff0","pricing_plan_id":"cebpf4jnsgd1na2vs0mg"},{"bike_id":"983d8bb6-b24b-4c8f-81bc-d9c74c3f861a","system_id":"levelo_inurba_marseille","lat":43.28998,"lon":5.37853,"is_reserved":false,"is_disabled":false,"rental_uris":{"android":"levelo://app?vid=983d8bb6-b24b-4c8f-81bc-d9c74c3f861a","ios":"levelo://app?vid=983d8bb6-b24b-4c8f-81bc-d9c74c3f861a"},"vehicle_type_id":"4","last_reported":1769066351,"current_range_meters":6000,"station_id":"ce4bh9p2rcd13ifvqed0","pricing_plan_id":"cebpf4jnsgd1na2vs0mg"},{"bike_id":"f3278938-5f8c-430e-ab54-56167d0e88d0","system_id":"levelo_inurba_marseille","lat":43.28933,"lon":5.36639,"is_reserved":false,"is_disabled":false,"rental_uris":{"android":"levelo://app?vid=f3278938-5f8c-430e-ab54-56167d0e88d0","ios":"levelo://app?vid=f3278938-5f8c-430e-ab54-56167d0e88d0"},"vehicle_type_id":"4","last_reported":1769066351,"current_range_meters":6000,"station_id":"ce4bhap2rcd13ifvqek0","pricing_plan_id":"cebpf4jnsgd1na2vs0mg"},{"bike_id":"488d3d36-c3f0-4390-80be-f0194a76248a","system_id":"levelo_inurba_marseille","lat":43.25593,"lon":5.40429,"is_reserved":false,"is_disabled":false,"rental_uris":{"android":"levelo://app?vid=488d3d36-c3f0-4390-80be-f0194a76248a","ios":"levelo://app?vid=488d3d36-c3f0-4390-80be-f0194a76248a"},"vehicle_type_id":"4","last_reported":1769066351,"current_range_meters":6000,"station_id":"","pricing_plan_id":"cebpf4jnsgd1na2vs0mg"},{"bike_id":"f612a985-4aae-41b1-9ce5-b57dbe41e736","system_id":"levelo_inurba_marseille","lat":43.26937,"lon":5.40254,"is_reserved":false,"is_disabled":false,"rental_uris":{"android":"levelo://app?vid=f612a985-4aae-41b1-9ce5-b57dbe41e736","ios":"levelo://app?vid=f612a985-4aae-41b1-9ce5-b57dbe41e736"},"vehicle_type_id":"4","last_reported":1769066351,"current_range_meters":6000,"station_id":"cjm6bp8fraef2m0cb0m0","pricing_plan_id":"cebpf4jnsgd1na2vs0mg"},{"bike_id":"a2424baa-0e5e-4ed2-9ae6-78591e46955c","system_id":"levelo_inurba_marseille","lat":43.28493,"lon":5.4845,"is_reserved":false,"is_disabled":false,"rental_uris":{"android":"levelo://app?vid=a2424baa-0e5e-4ed2-9ae6-78591e46955c","ios":"levelo://app?vid=a2424baa-0e5e-4ed2-9ae6-78591e46955c"},"vehicle_type_id":"4","last_reported":1769066351,"current_range_meters":6000,"station_id":"st_d3svhcjqgbts73a3dn0g","pricing_plan_id":"cebpf4jnsgd1na2vs0mg"},{"bike_id":"91c6b80f-ebf8-40dd-9043-2f1efcca7d75","system_id":"levelo_inurba_marseille","lat":43.2954,"lon":5.385504,"is_reserved":false,"is_disabled":true,"rental_uris":{"android":"levelo://app?vid=91c6b80f-ebf8-40dd-9043-2f1efcca7d75","ios":"levelo://app?vid=91c6b80f-ebf8-40dd-9043-2f1efcca7d75"},"vehicle_type_id":"4","last_reported":1769066351,"current_range_meters":6000,"station_id":"ce4bgih2rcd13ifvqba0","pricing_plan_id":"cebpf4jnsgd1na2vs0mg"},{"bike_id":"1a51d8bc-7768-4763-99da-7f61046d3cc5","system_id":"levelo_inurba_marseille","lat":43.27054,"lon":5.40262,"is_reserved":false,"is_disabled":false,"rental_uris":{"android":"levelo://app?vid=1a51d8bc-7768-4763-99da-7f61046d3cc5","ios":"levelo://app?vid=1a51d8bc-7768-4763-99da-7f61046d3cc5"},"vehicle_type_id":"4","last_reported":1769066351,"current_range_meters":6400,"station_id":"ce4bhk92rcd13ifvqgc0","pricing_plan_id":"cebpf4jnsgd1na2vs0mg"},{"bike_id":"6bfbb2b6-3853-4567-b94a-4e6d4c529633","system_id":"levelo_inurba_marseille","lat":43.28526,"lon":5.44127,"is_reserved":false,"is_disabled":false,"rental_uris":{"android":"levelo://app?vid=6bfbb2b6-3853-4567-b94a-4e6d4c529633","ios":"levelo://app?vid=6bfbb2b6-3853-4567-b94a-4e6d4c529633"},"vehicle_type_id":"4","last_reported":1769066351,"current_range_meters":6400,"station_id":"st_d3j3df2ikq2c7380ej80","pricing_plan_id":"cebpf4jnsgd1na2vs0mg"},{"bike_id":"ebc59118-e1a4-482d-84d0-eafb34b0b9ea","system_id":"levelo_inurba_marseille","lat":43.2378,"lon":5.36633,"is_reserved":false,"is_disabled":false,"rental_uris":{"android":"levelo://app?vid=ebc59118-e1a4-482d-84d0-eafb34b0b9ea","ios":"levelo://app?vid=ebc59118-e1a4-482d-84d0-eafb34b0b9ea"},"vehicle_type_id":"4","last_reported":1769066351,"current_range_meters":6400,"station_id":"st_d3nk18o9ro0c73en2l3g","pricing_plan_id":"cebpf4jnsgd1na2vs0mg"},{"bike_id":"fca00d5f-2997-436f-ba8d-58032d11c09e","system_id":"levelo_inurba_marseille","lat":43.27924,"lon":5.38732,"is_reserved":false,"is_disabled":true,"rental_uris":{"android":"levelo://app?vid=fca00d5f-2997-436f-ba8d-58032d11c09e","ios":"levelo://app?vid=fca00d5f-2997-436f-ba8d-58032d11c09e"},"vehicle_type_id":"4","last_reported":1769066351,"current_range_meters":6400,"station_id":"","pricing_plan_id":"cebpf4jnsgd1na2vs0mg"},{"bike_id":"abb88afc-d82b-4ba7-ab70-224a7abe4dfa","system_id":"levelo_inurba_marseille","lat":43.32505,"lon":5.38303,"is_reserved":false,"is_disabled":false,"rental_uris":{"android":"levelo://app?vid=abb88afc-d82b-4ba7-ab70-224a7abe4dfa","ios":"levelo://app?vid=abb88afc-d82b-4ba7-ab70-224a7abe4dfa"},"vehicle_type_id":"4","last_reported":1769066351,"current_range_meters":6400,"station_id":"st_d4asgbiv49dc73anf9m0","pricing_plan_id":"cebpf4jnsgd1na2vs0mg"},{"bike_id":"f0b5af23-64f9-4722-94fd-534c20a23d7b","system_id":"levelo_inurba_marseille","lat":43.28656,"lon":5.36355,"is_reserved":false,"is_disabled":false,"rental_uris":{"android":"levelo://app?vid=f0b5af23-64f9-4722-94fd-534c20a23d7b","ios":"levelo://app?vid=f0b5af23-64f9-4722-94fd-534c20a23d7b"},"vehicle_type_id":"4","last_reported":1769066351,"current_range_meters":6400,"station_id":"ce4bhah2rcd13ifvqej0","pricing_plan_id":"cebpf4jnsgd1na2vs0mg"},{"bike_id":"607c435d-5fb0-4f63-b221-a58bdcfdc9c2","system_id":"levelo_inurba_marseille","lat":43.25,"lon":5.38919,"is_reserved":false,"is_disabled":false,"rental_uris":{"android":"levelo://app?vid=607c435d-5fb0-4f63-b221-a58bdcfdc9c2","ios":"levelo://app?vid=607c435d-5fb0-4f63-b221-a58bdcfdc9c2"},"vehicle_type_id":"4","last_reported":1769066351,"current_range_meters":6400,"station_id":"ce4bhgp2rcd13ifvqfd0","pricing_plan_id":"cebpf4jnsgd1na2vs0mg"},{"bike_id":"1043358a-6540-44be-a175-76e81d531b51","system_id":"levelo_inurba_marseille","lat":43.27874,"lon":5.38023,"is_reserved":false,"is_disabled":true,"rental_uris":{"android":"levelo://app?vid=1043358a-6540-44be-a175-76e81d531b51","ios":"levelo://app?vid=1043358a-6540-44be-a175-76e81d531b51"},"vehicle_type_id":"4","last_reported":1769066351,"current_range_meters":6400,"station_id":"ce4bhf92rcd13ifvqf50","pricing_plan_id":"cebpf4jnsgd1na2vs0mg"},{"bike_id":"370a6405-fdf1-423e-a465-6cdd23b50ee2","system_id":"levelo_inurba_marseille","lat":43.29028,"lon":5.38646,"is_reserved":false,"is_disabled":true,"rental_uris":{"android":"levelo://app?vid=370a6405-fdf1-423e-a465-6cdd23b50ee2","ios":"levelo://app?vid=370a6405-fdf1-423e-a465-6cdd23b50ee2"},"vehicle_type_id":"4","last_reported":1769066351,"current_range_meters":6400,"station_id":"ce4bh4p2rcd13ifvqe0g","pricing_plan_id":"cebpf4jnsgd1na2vs0mg"},{"bike_id":"fddbb7cb-a21d-46ff-8d07-df9eecd44019","system_id":"levelo_inurba_marseille","lat":43.32088,"lon":5.36768,"is_reserved":false,"is_disabled":false,"rental_uris":{"android":"levelo://app?vid=fddbb7cb-a21d-46ff-8d07-df9eecd44019","ios":"levelo://app?vid=fddbb7cb-a21d-46ff-8d07-df9eecd44019"},"vehicle_type_id":"4","last_reported":1769066351,"current_range_meters":6400,"station_id":"ce4bhrh2rcd13ifvqhug","pricing_plan_id":"cebpf4jnsgd1na2vs0mg"},{"bike_id":"42ad3ecc-0a5c-4850-9931-a019c27979e1","system_id":"levelo_inurba_marseille","lat":43.2861,"lon":5.35089,"is_reserved":false,"is_disabled":false,"rental_uris":{"android":"levelo://app?vid=42ad3ecc-0a5c-4850-9931-a019c27979e1","ios":"levelo://app?vid=42ad3ecc-0a5c-4850-9931-a019c27979e1"},"vehicle_type_id":"4","last_reported":1769066351,"current_range_meters":6400,"station_id":"ce4bhch2rcd13ifvqeug","pricing_plan_id":"cebpf4jnsgd1na2vs0mg"},{"bike_id":"d597174d-2fcb-403a-9360-b570ae6807fc","system_id":"levelo_inurba_marseille","lat":43.27815,"lon":5.40714,"is_reserved":false,"is_disabled":false,"rental_uris":{"android":"levelo://app?vid=d597174d-2fcb-403a-9360-b570ae6807fc","ios":"levelo://app?vid=d597174d-2fcb-403a-9360-b570ae6807fc"},"vehicle_type_id":"4","last_reported":1769066351,"current_range_meters":6400,"station_id":"ce4bhnh2rcd13ifvqgtg","pricing_plan_id":"cebpf4jnsgd1na2vs0mg"},{"bike_id":"898d867e-99fa-44b5-b6b4-03f25b2ef6d2","system_id":"levelo_inurba_marseille","lat":43.240715,"lon":5.37758,"is_reserved":false,"is_disabled":false,"rental_uris":{"android":"levelo://app?vid=898d867e-99fa-44b5-b6b4-03f25b2ef6d2","ios":"levelo://app?vid=898d867e-99fa-44b5-b6b4-03f25b2ef6d2"},"vehicle_type_id":"4","last_reported":1769066351,"current_range_meters":6400,"station_id":"ce4bhnp2rcd13ifvqgvg","pricing_plan_id":"cebpf4jnsgd1na2vs0mg"},{"bike_id":"4b195d17-8f9a-4766-b481-11c55110895a","system_id":"levelo_inurba_marseille","lat":43.274935,"lon":5.42449,"is_reserved":false,"is_disabled":false,"rental_uris":{"android":"levelo://app?vid=4b195d17-8f9a-4766-b481-11c55110895a","ios":"levelo://app?vid=4b195d17-8f9a-4766-b481-11c55110895a"},"vehicle_type_id":"4","last_reported":1769066351,"current_range_meters":6400,"station_id":"ce4bhn92rcd13ifvqgrg","pricing_plan_id":"cebpf4jnsgd1na2vs0mg"},{"bike_id":"a7dca984-2a89-4f7d-a4b2-c4b75083a65d","system_id":"levelo_inurba_marseille","lat":43.2466,"lon":5.3887,"is_reserved":false,"is_disabled":false,"rental_uris":{"android":"levelo://app?vid=a7dca984-2a89-4f7d-a4b2-c4b75083a65d","ios":"levelo://app?vid=a7dca984-2a89-4f7d-a4b2-c4b75083a65d"},"vehicle_type_id":"4","last_reported":1769066351,"current_range_meters":6400,"station_id":"ce4bh392rcd13ifvqdl0","pricing_plan_id":"cebpf4jnsgd1na2vs0mg"},{"bike_id":"94d782ce-d646-4a15-909c-4c48f4840c8d","system_id":"levelo_inurba_marseille","lat":43.25818,"lon":5.394257,"is_reserved":false,"is_disabled":false,"rental_uris":{"android":"levelo://app?vid=94d782ce-d646-4a15-909c-4c48f4840c8d","ios":"levelo://app?vid=94d782ce-d646-4a15-909c-4c48f4840c8d"},"vehicle_type_id":"4","last_reported":1769066351,"current_range_meters":6400,"station_id":"ce4bhip2rcd13ifvqft0","pricing_plan_id":"cebpf4jnsgd1na2vs0mg"},{"bike_id":"20deef10-ed33-4ec9-9903-ad6ab49b17b3","system_id":"levelo_inurba_marseille","lat":43.24463,"lon":5.42545,"is_reserved":false,"is_disabled":false,"rental_uris":{"android":"levelo://app?vid=20deef10-ed33-4ec9-9903-ad6ab49b17b3","ios":"levelo://app?vid=20deef10-ed33-4ec9-9903-ad6ab49b17b3"},"vehicle_type_id":"4","last_reported":1769066351,"current_range_meters":6400,"station_id":"st_d4a3vfp97mjs738cd8kg","pricing_plan_id":"cebpf4jnsgd1na2vs0mg"},{"bike_id":"30471bf1-4e97-480f-9e18-3f7a93804303","system_id":"levelo_inurba_marseille","lat":43.24063,"lon":5.37769,"is_reserved":false,"is_disabled":false,"rental_uris":{"android":"levelo://app?vid=30471bf1-4e97-480f-9e18-3f7a93804303","ios":"levelo://app?vid=30471bf1-4e97-480f-9e18-3f7a93804303"},"vehicle_type_id":"4","last_reported":1769066351,"current_range_meters":6400,"station_id":"ce4bhnp2rcd13ifvqgvg","pricing_plan_id":"cebpf4jnsgd1na2vs0mg"},{"bike_id":"fd603ab1-7fba-4f8b-9938-c63d3924c1a0","system_id":"levelo_inurba_marseille","lat":43.27626,"lon":5.36118,"is_reserved":false,"is_disabled":false,"rental_uris":{"android":"levelo://app?vid=fd603ab1-7fba-4f8b-9938-c63d3924c1a0","ios":"levelo://app?vid=fd603ab1-7fba-4f8b-9938-c63d3924c1a0"},"vehicle_type_id":"4","last_reported":1769066351,"current_range_meters":6400,"station_id":"ce4bgj92rcd13ifvqbe0","pricing_plan_id":"cebpf4jnsgd1na2vs0mg"},{"bike_id":"d4007a2e-c3f6-4374-ae39-00ad54c85eaa","system_id":"levelo_inurba_marseille","lat":43.24624,"lon":5.38167,"is_reserved":false,"is_disabled":false,"rental_uris":{"android":"levelo://app?vid=d4007a2e-c3f6-4374-ae39-00ad54c85eaa","ios":"levelo://app?vid=d4007a2e-c3f6-4374-ae39-00ad54c85eaa"},"vehicle_type_id":"4","last_reported":1769066351,"current_range_meters":6400,"station_id":"ce4bhih2rcd13ifvqfr0","pricing_plan_id":"cebpf4jnsgd1na2vs0mg"},{"bike_id":"167e377c-f378-4dba-9ba2-181b0f029d09","system_id":"levelo_inurba_marseille","lat":43.30149,"lon":5.38089,"is_reserved":false,"is_disabled":false,"rental_uris":{"android":"levelo://app?vid=167e377c-f378-4dba-9ba2-181b0f029d09","ios":"levelo://app?vid=167e377c-f378-4dba-9ba2-181b0f029d09"},"vehicle_type_id":"4","last_reported":1769066351,"current_range_meters":6800,"station_id":"ce4bgjp2rcd13ifvqbh0","pricing_plan_id":"cebpf4jnsgd1na2vs0mg"},{"bike_id":"af0a3e3f-9d3a-4dab-b0c6-596d0f48c390","system_id":"levelo_inurba_marseille","lat":43.314987,"lon":5.373168,"is_reserved":false,"is_disabled":false,"rental_uris":{"android":"levelo://app?vid=af0a3e3f-9d3a-4dab-b0c6-596d0f48c390","ios":"levelo://app?vid=af0a3e3f-9d3a-4dab-b0c6-596d0f48c390"},"vehicle_type_id":"4","last_reported":1769066351,"current_range_meters":6800,"station_id":"","pricing_plan_id":"cebpf4jnsgd1na2vs0mg"},{"bike_id":"fc5d102e-6a36-4a5b-99d5-23cf30eec9b5","system_id":"levelo_inurba_marseille","lat":43.23196,"lon":5.35552,"is_reserved":false,"is_disabled":false,"rental_uris":{"android":"levelo://app?vid=fc5d102e-6a36-4a5b-99d5-23cf30eec9b5","ios":"levelo://app?vid=fc5d102e-6a36-4a5b-99d5-23cf30eec9b5"},"vehicle_type_id":"4","last_reported":1769066351,"current_range_meters":6800,"station_id":"ce4bhu92rcd13ifvqi70","pricing_plan_id":"cebpf4jnsgd1na2vs0mg"},{"bike_id":"37a6ba89-0d66-46be-ad14-7de2d3d5b58b","system_id":"levelo_inurba_marseille","lat":43.27052,"lon":5.40269,"is_reserved":false,"is_disabled":false,"rental_uris":{"android":"levelo://app?vid=37a6ba89-0d66-46be-ad14-7de2d3d5b58b","ios":"levelo://app?vid=37a6ba89-0d66-46be-ad14-7de2d3d5b58b"},"vehicle_type_id":"4","last_reported":1769066351,"current_range_meters":6800,"station_id":"ce4bhk92rcd13ifvqgc0","pricing_plan_id":"cebpf4jnsgd1na2vs0mg"},{"bike_id":"bd3222b3-dffe-4214-a25c-da1b23e1c71b","system_id":"levelo_inurba_marseille","lat":43.32361,"lon":5.36732,"is_reserved":false,"is_disabled":false,"rental_uris":{"android":"levelo://app?vid=bd3222b3-dffe-4214-a25c-da1b23e1c71b","ios":"levelo://app?vid=bd3222b3-dffe-4214-a25c-da1b23e1c71b"},"vehicle_type_id":"4","last_reported":1769066351,"current_range_meters":6800,"station_id":"ce4bhsh2rcd13ifvqi2g","pricing_plan_id":"cebpf4jnsgd1na2vs0mg"},{"bike_id":"19f5d50a-5811-41c7-a08a-c10ffe5c6f50","system_id":"levelo_inurba_marseille","lat":43.28615,"lon":5.39867,"is_reserved":false,"is_disabled":false,"rental_uris":{"android":"levelo://app?vid=19f5d50a-5811-41c7-a08a-c10ffe5c6f50","ios":"levelo://app?vid=19f5d50a-5811-41c7-a08a-c10ffe5c6f50"},"vehicle_type_id":"4","last_reported":1769066351,"current_range_meters":6800,"station_id":"st_d4a7ka997mjs738ck50g","pricing_plan_id":"cebpf4jnsgd1na2vs0mg"},{"bike_id":"24e434d6-5269-40f3-a129-cc854cf59923","system_id":"levelo_inurba_marseille","lat":43.290384,"lon":5.399666,"is_reserved":false,"is_disabled":false,"rental_uris":{"android":"levelo://app?vid=24e434d6-5269-40f3-a129-cc854cf59923","ios":"levelo://app?vid=24e434d6-5269-40f3-a129-cc854cf59923"},"vehicle_type_id":"4","last_reported":1769066351,"current_range_meters":6800,"station_id":"","pricing_plan_id":"cebpf4jnsgd1na2vs0mg"},{"bike_id":"9ec6d099-156e-46cf-95b4-7eae8c9f5917","system_id":"levelo_inurba_marseille","lat":43.29031,"lon":5.37578,"is_reserved":false,"is_disabled":false,"rental_uris":{"android":"levelo://app?vid=9ec6d099-156e-46cf-95b4-7eae8c9f5917","ios":"levelo://app?vid=9ec6d099-156e-46cf-95b4-7eae8c9f5917"},"vehicle_type_id":"4","last_reported":1769066351,"current_range_meters":6800,"station_id":"ce4bh692rcd13ifvqe90","pricing_plan_id":"cebpf4jnsgd1na2vs0mg"},{"bike_id":"2275571d-7014-4cc7-9743-13fb9301ea8f","system_id":"levelo_inurba_marseille","lat":43.21734,"lon":5.34601,"is_reserved":false,"is_disabled":false,"rental_uris":{"android":"levelo://app?vid=2275571d-7014-4cc7-9743-13fb9301ea8f","ios":"levelo://app?vid=2275571d-7014-4cc7-9743-13fb9301ea8f"},"vehicle_type_id":"4","last_reported":1769066351,"current_range_meters":6800,"station_id":"st_cvj6r9ubvosntc0bgbag","pricing_plan_id":"cebpf4jnsgd1na2vs0mg"},{"bike_id":"d8f34b5e-d831-4a3d-8643-93f2f2dfecae","system_id":"levelo_inurba_marseille","lat":43.241653,"lon":5.363945,"is_reserved":false,"is_disabled":false,"rental_uris":{"android":"levelo://app?vid=d8f34b5e-d831-4a3d-8643-93f2f2dfecae","ios":"levelo://app?vid=d8f34b5e-d831-4a3d-8643-93f2f2dfecae"},"vehicle_type_id":"4","last_reported":1769066351,"current_range_meters":6800,"station_id":"cpo36qri1sfpv3e86is0","pricing_plan_id":"cebpf4jnsgd1na2vs0mg"},{"bike_id":"bebe4129-004a-433e-a12d-632fd13bec31","system_id":"levelo_inurba_marseille","lat":43.3016,"lon":5.38095,"is_reserved":false,"is_disabled":false,"rental_uris":{"android":"levelo://app?vid=bebe4129-004a-433e-a12d-632fd13bec31","ios":"levelo://app?vid=bebe4129-004a-433e-a12d-632fd13bec31"},"vehicle_type_id":"4","last_reported":1769066351,"current_range_meters":6800,"station_id":"ce4bgjp2rcd13ifvqbh0","pricing_plan_id":"cebpf4jnsgd1na2vs0mg"},{"bike_id":"aec5c08c-9f05-47e9-bb02-2d63b83fc483","system_id":"levelo_inurba_marseille","lat":43.26735,"lon":5.39251,"is_reserved":false,"is_disabled":false,"rental_uris":{"android":"levelo://app?vid=aec5c08c-9f05-47e9-bb02-2d63b83fc483","ios":"levelo://app?vid=aec5c08c-9f05-47e9-bb02-2d63b83fc483"},"vehicle_type_id":"4","last_reported":1769066351,"current_range_meters":6800,"station_id":"","pricing_plan_id":"cebpf4jnsgd1na2vs0mg"},{"bike_id":"33299776-2c9b-4959-8c33-6a412a8deb29","system_id":"levelo_inurba_marseille","lat":43.23137,"lon":5.43721,"is_reserved":false,"is_disabled":false,"rental_uris":{"android":"levelo://app?vid=33299776-2c9b-4959-8c33-6a412a8deb29","ios":"levelo://app?vid=33299776-2c9b-4959-8c33-6a412a8deb29"},"vehicle_type_id":"4","last_reported":1769066351,"current_range_meters":6800,"station_id":"ce4bhmp2rcd13ifvqgog","pricing_plan_id":"cebpf4jnsgd1na2vs0mg"},{"bike_id":"61044dd1-fb06-4150-a7c6-457e1c0d2b88","system_id":"levelo_inurba_marseille","lat":43.23174,"lon":5.39986,"is_reserved":false,"is_disabled":false,"rental_uris":{"android":"levelo://app?vid=61044dd1-fb06-4150-a7c6-457e1c0d2b88","ios":"levelo://app?vid=61044dd1-fb06-4150-a7c6-457e1c0d2b88"},"vehicle_type_id":"4","last_reported":1769066351,"current_range_meters":6800,"station_id":"ce4bhn12rcd13ifvqgqg","pricing_plan_id":"cebpf4jnsgd1na2vs0mg"},{"bike_id":"97118eba-6714-4914-a9c7-d47e699161e0","system_id":"levelo_inurba_marseille","lat":43.30147,"lon":5.38081,"is_reserved":false,"is_disabled":false,"rental_uris":{"android":"levelo://app?vid=97118eba-6714-4914-a9c7-d47e699161e0","ios":"levelo://app?vid=97118eba-6714-4914-a9c7-d47e699161e0"},"vehicle_type_id":"4","last_reported":1769066351,"current_range_meters":6800,"station_id":"ce4bgjp2rcd13ifvqbh0","pricing_plan_id":"cebpf4jnsgd1na2vs0mg"},{"bike_id":"b14b7864-c78c-4d3b-8985-7705cba3866f","system_id":"levelo_inurba_marseille","lat":43.229287,"lon":5.353812,"is_reserved":false,"is_disabled":false,"rental_uris":{"android":"levelo://app?vid=b14b7864-c78c-4d3b-8985-7705cba3866f","ios":"levelo://app?vid=b14b7864-c78c-4d3b-8985-7705cba3866f"},"vehicle_type_id":"4","last_reported":1769066351,"current_range_meters":6800,"station_id":"cpo3532slgdg3j2ikp40","pricing_plan_id":"cebpf4jnsgd1na2vs0mg"},{"bike_id":"045ed642-6db7-4cdb-b82a-b42842149edd","system_id":"levelo_inurba_marseille","lat":43.25939,"lon":5.40903,"is_reserved":false,"is_disabled":false,"rental_uris":{"android":"levelo://app?vid=045ed642-6db7-4cdb-b82a-b42842149edd","ios":"levelo://app?vid=045ed642-6db7-4cdb-b82a-b42842149edd"},"vehicle_type_id":"4","last_reported":1769066351,"current_range_meters":6800,"station_id":"ce4bhm92rcd13ifvqglg","pricing_plan_id":"cebpf4jnsgd1na2vs0mg"},{"bike_id":"d68cd528-87dc-4a28-8471-721b0cea6df0","system_id":"levelo_inurba_marseille","lat":43.28186,"lon":5.39205,"is_reserved":false,"is_disabled":false,"rental_uris":{"android":"levelo://app?vid=d68cd528-87dc-4a28-8471-721b0cea6df0","ios":"levelo://app?vid=d68cd528-87dc-4a28-8471-721b0cea6df0"},"vehicle_type_id":"4","last_reported":1769066351,"current_range_meters":6800,"station_id":"","pricing_plan_id":"cebpf4jnsgd1na2vs0mg"},{"bike_id":"64b675d2-8f39-49db-b5f8-df84c9cc5f52","system_id":"levelo_inurba_marseille","lat":43.29066,"lon":5.39984,"is_reserved":false,"is_disabled":false,"rental_uris":{"android":"levelo://app?vid=64b675d2-8f39-49db-b5f8-df84c9cc5f52","ios":"levelo://app?vid=64b675d2-8f39-49db-b5f8-df84c9cc5f52"},"vehicle_type_id":"4","last_reported":1769066351,"current_range_meters":6800,"station_id":"ce4bh392rcd13ifvqdm0","pricing_plan_id":"cebpf4jnsgd1na2vs0mg"},{"bike_id":"780bf7aa-2c48-435d-b9ed-471c251c7b75","system_id":"levelo_inurba_marseille","lat":43.30606,"lon":5.39358,"is_reserved":false,"is_disabled":false,"rental_uris":{"android":"levelo://app?vid=780bf7aa-2c48-435d-b9ed-471c251c7b75","ios":"levelo://app?vid=780bf7aa-2c48-435d-b9ed-471c251c7b75"},"vehicle_type_id":"4","last_reported":1769066351,"current_range_meters":6800,"station_id":"ce4bh0p2rcd13ifvqd80","pricing_plan_id":"cebpf4jnsgd1na2vs0mg"},{"bike_id":"a90e698a-0a16-4897-915b-3dd50ff66627","system_id":"levelo_inurba_marseille","lat":43.24657,"lon":5.38154,"is_reserved":false,"is_disabled":false,"rental_uris":{"android":"levelo://app?vid=a90e698a-0a16-4897-915b-3dd50ff66627","ios":"levelo://app?vid=a90e698a-0a16-4897-915b-3dd50ff66627"},"vehicle_type_id":"4","last_reported":1769066351,"current_range_meters":6800,"station_id":"ce4bhih2rcd13ifvqfr0","pricing_plan_id":"cebpf4jnsgd1na2vs0mg"},{"bike_id":"737cdf6e-8c2e-4b43-8e7d-478c69e4c6a4","system_id":"levelo_inurba_marseille","lat":43.33051,"lon":5.38977,"is_reserved":false,"is_disabled":false,"rental_uris":{"android":"levelo://app?vid=737cdf6e-8c2e-4b43-8e7d-478c69e4c6a4","ios":"levelo://app?vid=737cdf6e-8c2e-4b43-8e7d-478c69e4c6a4"},"vehicle_type_id":"4","last_reported":1769066351,"current_range_meters":6800,"station_id":"","pricing_plan_id":"cebpf4jnsgd1na2vs0mg"},{"bike_id":"a9d2cbb9-b682-43b1-9072-2e382fcdc0f1","system_id":"levelo_inurba_marseille","lat":43.24466,"lon":5.42561,"is_reserved":false,"is_disabled":false,"rental_uris":{"android":"levelo://app?vid=a9d2cbb9-b682-43b1-9072-2e382fcdc0f1","ios":"levelo://app?vid=a9d2cbb9-b682-43b1-9072-2e382fcdc0f1"},"vehicle_type_id":"4","last_reported":1769066351,"current_range_meters":7200,"station_id":"st_d4a3vfp97mjs738cd8kg","pricing_plan_id":"cebpf4jnsgd1na2vs0mg"},{"bike_id":"e1d92850-29c3-40c0-b200-c6d64c6e686a","system_id":"levelo_inurba_marseille","lat":43.28996,"lon":5.35613,"is_reserved":false,"is_disabled":false,"rental_uris":{"android":"levelo://app?vid=e1d92850-29c3-40c0-b200-c6d64c6e686a","ios":"levelo://app?vid=e1d92850-29c3-40c0-b200-c6d64c6e686a"},"vehicle_type_id":"4","last_reported":1769066351,"current_range_meters":7200,"station_id":"ce4bhb92rcd13ifvqen0","pricing_plan_id":"cebpf4jnsgd1na2vs0mg"},{"bike_id":"5b5444c9-62cf-4182-a267-b561e9fb807b","system_id":"levelo_inurba_marseille","lat":43.27947,"lon":5.38673,"is_reserved":false,"is_disabled":false,"rental_uris":{"android":"levelo://app?vid=5b5444c9-62cf-4182-a267-b561e9fb807b","ios":"levelo://app?vid=5b5444c9-62cf-4182-a267-b561e9fb807b"},"vehicle_type_id":"4","last_reported":1769066351,"current_range_meters":7200,"station_id":"","pricing_plan_id":"cebpf4jnsgd1na2vs0mg"},{"bike_id":"70ec0511-e52a-49ea-be05-4a133e84b443","system_id":"levelo_inurba_marseille","lat":43.31068,"lon":5.38373,"is_reserved":false,"is_disabled":false,"rental_uris":{"android":"levelo://app?vid=70ec0511-e52a-49ea-be05-4a133e84b443","ios":"levelo://app?vid=70ec0511-e52a-49ea-be05-4a133e84b443"},"vehicle_type_id":"4","last_reported":1769066351,"current_range_meters":7200,"station_id":"ce4bgv92rcd13ifvqcr0","pricing_plan_id":"cebpf4jnsgd1na2vs0mg"},{"bike_id":"a30bb37c-c9d7-4ff5-8cd7-ce92b271a203","system_id":"levelo_inurba_marseille","lat":43.27211,"lon":5.39185,"is_reserved":false,"is_disabled":false,"rental_uris":{"android":"levelo://app?vid=a30bb37c-c9d7-4ff5-8cd7-ce92b271a203","ios":"levelo://app?vid=a30bb37c-c9d7-4ff5-8cd7-ce92b271a203"},"vehicle_type_id":"4","last_reported":1769066351,"current_range_meters":7200,"station_id":"ce4bhhp2rcd13ifvqfm0","pricing_plan_id":"cebpf4jnsgd1na2vs0mg"},{"bike_id":"ef98f7f5-20f4-4ce3-b656-6b2383d969b9","system_id":"levelo_inurba_marseille","lat":43.28938,"lon":5.39629,"is_reserved":false,"is_disabled":false,"rental_uris":{"android":"levelo://app?vid=ef98f7f5-20f4-4ce3-b656-6b2383d969b9","ios":"levelo://app?vid=ef98f7f5-20f4-4ce3-b656-6b2383d969b9"},"vehicle_type_id":"4","last_reported":1769066351,"current_range_meters":7200,"station_id":"ce4bh3h2rcd13ifvqdn0","pricing_plan_id":"cebpf4jnsgd1na2vs0mg"},{"bike_id":"f6eb85c1-f53f-4dc1-8797-0471cff4e32e","system_id":"levelo_inurba_marseille","lat":43.28574,"lon":5.39127,"is_reserved":false,"is_disabled":false,"rental_uris":{"android":"levelo://app?vid=f6eb85c1-f53f-4dc1-8797-0471cff4e32e","ios":"levelo://app?vid=f6eb85c1-f53f-4dc1-8797-0471cff4e32e"},"vehicle_type_id":"4","last_reported":1769066351,"current_range_meters":7200,"station_id":"","pricing_plan_id":"cebpf4jnsgd1na2vs0mg"},{"bike_id":"55a93059-46da-4326-b3f6-eca54949cf8d","system_id":"levelo_inurba_marseille","lat":43.278158,"lon":5.407113,"is_reserved":false,"is_disabled":false,"rental_uris":{"android":"levelo://app?vid=55a93059-46da-4326-b3f6-eca54949cf8d","ios":"levelo://app?vid=55a93059-46da-4326-b3f6-eca54949cf8d"},"vehicle_type_id":"4","last_reported":1769066351,"current_range_meters":7200,"station_id":"ce4bhnh2rcd13ifvqgtg","pricing_plan_id":"cebpf4jnsgd1na2vs0mg"},{"bike_id":"726a51fc-0a09-4cbc-b7f9-a781c5312559","system_id":"levelo_inurba_marseille","lat":43.24764,"lon":5.37437,"is_reserved":false,"is_disabled":false,"rental_uris":{"android":"levelo://app?vid=726a51fc-0a09-4cbc-b7f9-a781c5312559","ios":"levelo://app?vid=726a51fc-0a09-4cbc-b7f9-a781c5312559"},"vehicle_type_id":"4","last_reported":1769066351,"current_range_meters":7200,"station_id":"ce4bhgh2rcd13ifvqfb0","pricing_plan_id":"cebpf4jnsgd1na2vs0mg"},{"bike_id":"7e2d216f-d980-49a3-abe7-a0678bd2dc77","system_id":"levelo_inurba_marseille","lat":43.26678,"lon":5.38272,"is_reserved":false,"is_disabled":false,"rental_uris":{"android":"levelo://app?vid=7e2d216f-d980-49a3-abe7-a0678bd2dc77","ios":"levelo://app?vid=7e2d216f-d980-49a3-abe7-a0678bd2dc77"},"vehicle_type_id":"4","last_reported":1769066351,"current_range_meters":7200,"station_id":"ce4bhg92rcd13ifvqf90","pricing_plan_id":"cebpf4jnsgd1na2vs0mg"},{"bike_id":"7928751b-7d0a-4f6c-819a-c0dfa040f775","system_id":"levelo_inurba_marseille","lat":43.30597,"lon":5.39372,"is_reserved":false,"is_disabled":false,"rental_uris":{"android":"levelo://app?vid=7928751b-7d0a-4f6c-819a-c0dfa040f775","ios":"levelo://app?vid=7928751b-7d0a-4f6c-819a-c0dfa040f775"},"vehicle_type_id":"4","last_reported":1769066351,"current_range_meters":7200,"station_id":"ce4bh0p2rcd13ifvqd80","pricing_plan_id":"cebpf4jnsgd1na2vs0mg"},{"bike_id":"23a23738-f469-4294-be91-c2a4ed45354c","system_id":"levelo_inurba_marseille","lat":43.28938,"lon":5.36635,"is_reserved":false,"is_disabled":false,"rental_uris":{"android":"levelo://app?vid=23a23738-f469-4294-be91-c2a4ed45354c","ios":"levelo://app?vid=23a23738-f469-4294-be91-c2a4ed45354c"},"vehicle_type_id":"4","last_reported":1769066351,"current_range_meters":7200,"station_id":"ce4bhap2rcd13ifvqek0","pricing_plan_id":"cebpf4jnsgd1na2vs0mg"},{"bike_id":"335edeba-2b7a-4263-a365-447bf1330f05","system_id":"levelo_inurba_marseille","lat":43.32363,"lon":5.38888,"is_reserved":false,"is_disabled":false,"rental_uris":{"android":"levelo://app?vid=335edeba-2b7a-4263-a365-447bf1330f05","ios":"levelo://app?vid=335edeba-2b7a-4263-a365-447bf1330f05"},"vehicle_type_id":"4","last_reported":1769066351,"current_range_meters":7200,"station_id":"ce4bhqp2rcd13ifvqhog","pricing_plan_id":"cebpf4jnsgd1na2vs0mg"},{"bike_id":"1b34fb2f-f1c3-4d6b-9009-cec8a5d58d5b","system_id":"levelo_inurba_marseille","lat":43.25084,"lon":5.39544,"is_reserved":false,"is_disabled":false,"rental_uris":{"android":"levelo://app?vid=1b34fb2f-f1c3-4d6b-9009-cec8a5d58d5b","ios":"levelo://app?vid=1b34fb2f-f1c3-4d6b-9009-cec8a5d58d5b"},"vehicle_type_id":"4","last_reported":1769066351,"current_range_meters":7200,"station_id":"ce4bhm12rcd13ifvqgkg","pricing_plan_id":"cebpf4jnsgd1na2vs0mg"},{"bike_id":"ff0d8d4c-6b71-481b-a037-c53564fa23dc","system_id":"levelo_inurba_marseille","lat":43.27944,"lon":5.41047,"is_reserved":false,"is_disabled":false,"rental_uris":{"android":"levelo://app?vid=ff0d8d4c-6b71-481b-a037-c53564fa23dc","ios":"levelo://app?vid=ff0d8d4c-6b71-481b-a037-c53564fa23dc"},"vehicle_type_id":"4","last_reported":1769066351,"current_range_meters":7200,"station_id":"ce4bhnp2rcd13ifvqh0g","pricing_plan_id":"cebpf4jnsgd1na2vs0mg"},{"bike_id":"3b96c203-7692-4715-8948-6ddb49dba384","system_id":"levelo_inurba_marseille","lat":43.31051,"lon":5.37183,"is_reserved":false,"is_disabled":false,"rental_uris":{"android":"levelo://app?vid=3b96c203-7692-4715-8948-6ddb49dba384","ios":"levelo://app?vid=3b96c203-7692-4715-8948-6ddb49dba384"},"vehicle_type_id":"4","last_reported":1769066351,"current_range_meters":7200,"station_id":"st_d4kl2rp97mjs73e7tdfg","pricing_plan_id":"cebpf4jnsgd1na2vs0mg"},{"bike_id":"63550df3-d87e-4087-bfb2-31599e2ca646","system_id":"levelo_inurba_marseille","lat":43.25822,"lon":5.39426,"is_reserved":false,"is_disabled":false,"rental_uris":{"android":"levelo://app?vid=63550df3-d87e-4087-bfb2-31599e2ca646","ios":"levelo://app?vid=63550df3-d87e-4087-bfb2-31599e2ca646"},"vehicle_type_id":"4","last_reported":1769066351,"current_range_meters":7200,"station_id":"ce4bhip2rcd13ifvqft0","pricing_plan_id":"cebpf4jnsgd1na2vs0mg"},{"bike_id":"b05d35a6-a4b1-4f68-ab22-eac501a6370f","system_id":"levelo_inurba_marseille","lat":43.32353,"lon":5.36693,"is_reserved":false,"is_disabled":false,"rental_uris":{"android":"levelo://app?vid=b05d35a6-a4b1-4f68-ab22-eac501a6370f","ios":"levelo://app?vid=b05d35a6-a4b1-4f68-ab22-eac501a6370f"},"vehicle_type_id":"4","last_reported":1769066351,"current_range_meters":7200,"station_id":"","pricing_plan_id":"cebpf4jnsgd1na2vs0mg"},{"bike_id":"fcfb709a-1234-4839-b74a-ca52e386bd98","system_id":"levelo_inurba_marseille","lat":43.30155,"lon":5.38097,"is_reserved":false,"is_disabled":false,"rental_uris":{"android":"levelo://app?vid=fcfb709a-1234-4839-b74a-ca52e386bd98","ios":"levelo://app?vid=fcfb709a-1234-4839-b74a-ca52e386bd98"},"vehicle_type_id":"4","last_reported":1769066351,"current_range_meters":7200,"station_id":"ce4bgjp2rcd13ifvqbh0","pricing_plan_id":"cebpf4jnsgd1na2vs0mg"},{"bike_id":"ab9499b3-abff-4421-b1a9-c82468c64280","system_id":"levelo_inurba_marseille","lat":43.26945,"lon":5.38637,"is_reserved":false,"is_disabled":false,"rental_uris":{"android":"levelo://app?vid=ab9499b3-abff-4421-b1a9-c82468c64280","ios":"levelo://app?vid=ab9499b3-abff-4421-b1a9-c82468c64280"},"vehicle_type_id":"4","last_reported":1769066351,"current_range_meters":7200,"station_id":"ce4bhh92rcd13ifvqfh0","pricing_plan_id":"cebpf4jnsgd1na2vs0mg"},{"bike_id":"62931247-4aff-4f68-9011-cb1aa7863151","system_id":"levelo_inurba_marseille","lat":43.25583,"lon":5.38212,"is_reserved":false,"is_disabled":false,"rental_uris":{"android":"levelo://app?vid=62931247-4aff-4f68-9011-cb1aa7863151","ios":"levelo://app?vid=62931247-4aff-4f68-9011-cb1aa7863151"},"vehicle_type_id":"4","last_reported":1769066351,"current_range_meters":7200,"station_id":"ce4bhih2rcd13ifvqfs0","pricing_plan_id":"cebpf4jnsgd1na2vs0mg"},{"bike_id":"3206456b-45fe-4b57-ad6e-10515c2f78b7","system_id":"levelo_inurba_marseille","lat":43.24463,"lon":5.42565,"is_reserved":false,"is_disabled":false,"rental_uris":{"android":"levelo://app?vid=3206456b-45fe-4b57-ad6e-10515c2f78b7","ios":"levelo://app?vid=3206456b-45fe-4b57-ad6e-10515c2f78b7"},"vehicle_type_id":"4","last_reported":1769066351,"current_range_meters":7200,"station_id":"st_d4a3vfp97mjs738cd8kg","pricing_plan_id":"cebpf4jnsgd1na2vs0mg"},{"bike_id":"f9b45641-d46a-472e-b590-8990f107d655","system_id":"levelo_inurba_marseille","lat":43.33155,"lon":5.37701,"is_reserved":false,"is_disabled":false,"rental_uris":{"android":"levelo://app?vid=f9b45641-d46a-472e-b590-8990f107d655","ios":"levelo://app?vid=f9b45641-d46a-472e-b590-8990f107d655"},"vehicle_type_id":"4","last_reported":1769066351,"current_range_meters":7200,"station_id":"st_d46cu089ee8s73dldbu0","pricing_plan_id":"cebpf4jnsgd1na2vs0mg"},{"bike_id":"854dd992-d916-4ea6-a9c3-dc655df53744","system_id":"levelo_inurba_marseille","lat":43.23201,"lon":5.35561,"is_reserved":false,"is_disabled":false,"rental_uris":{"android":"levelo://app?vid=854dd992-d916-4ea6-a9c3-dc655df53744","ios":"levelo://app?vid=854dd992-d916-4ea6-a9c3-dc655df53744"},"vehicle_type_id":"4","last_reported":1769066351,"current_range_meters":7200,"station_id":"ce4bhu92rcd13ifvqi70","pricing_plan_id":"cebpf4jnsgd1na2vs0mg"},{"bike_id":"756842e0-b53e-46c2-a183-413f67f1a28f","system_id":"levelo_inurba_marseille","lat":43.30467,"lon":5.37916,"is_reserved":false,"is_disabled":false,"rental_uris":{"android":"levelo://app?vid=756842e0-b53e-46c2-a183-413f67f1a28f","ios":"levelo://app?vid=756842e0-b53e-46c2-a183-413f67f1a28f"},"vehicle_type_id":"4","last_reported":1769066351,"current_range_meters":8000,"station_id":"ce4bgup2rcd13ifvqcn0","pricing_plan_id":"cebpf4jnsgd1na2vs0mg"},{"bike_id":"1ff481ee-1877-41a2-8db4-4b9c2b8eecbd","system_id":"levelo_inurba_marseille","lat":43.21189,"lon":5.35088,"is_reserved":false,"is_disabled":false,"rental_uris":{"android":"levelo://app?vid=1ff481ee-1877-41a2-8db4-4b9c2b8eecbd","ios":"levelo://app?vid=1ff481ee-1877-41a2-8db4-4b9c2b8eecbd"},"vehicle_type_id":"4","last_reported":1769066351,"current_range_meters":8000,"station_id":"","pricing_plan_id":"cebpf4jnsgd1na2vs0mg"},{"bike_id":"caf9ec5f-f3c2-4663-9d53-f1f9898e0f48","system_id":"levelo_inurba_marseille","lat":43.30608,"lon":5.39338,"is_reserved":false,"is_disabled":false,"rental_uris":{"android":"levelo://app?vid=caf9ec5f-f3c2-4663-9d53-f1f9898e0f48","ios":"levelo://app?vid=caf9ec5f-f3c2-4663-9d53-f1f9898e0f48"},"vehicle_type_id":"4","last_reported":1769066351,"current_range_meters":8000,"station_id":"ce4bh0p2rcd13ifvqd80","pricing_plan_id":"cebpf4jnsgd1na2vs0mg"},{"bike_id":"179728e1-ebd1-4cba-bc42-d252089670dc","system_id":"levelo_inurba_marseille","lat":43.27348,"lon":5.36211,"is_reserved":false,"is_disabled":false,"rental_uris":{"android":"levelo://app?vid=179728e1-ebd1-4cba-bc42-d252089670dc","ios":"levelo://app?vid=179728e1-ebd1-4cba-bc42-d252089670dc"},"vehicle_type_id":"4","last_reported":1769066351,"current_range_meters":8000,"station_id":"","pricing_plan_id":"cebpf4jnsgd1na2vs0mg"},{"bike_id":"d8344329-153b-4a08-9de8-fc84530e10b9","system_id":"levelo_inurba_marseille","lat":43.23757,"lon":5.36654,"is_reserved":false,"is_disabled":false,"rental_uris":{"android":"levelo://app?vid=d8344329-153b-4a08-9de8-fc84530e10b9","ios":"levelo://app?vid=d8344329-153b-4a08-9de8-fc84530e10b9"},"vehicle_type_id":"4","last_reported":1769066351,"current_range_meters":8000,"station_id":"st_d3nk18o9ro0c73en2l3g","pricing_plan_id":"cebpf4jnsgd1na2vs0mg"},{"bike_id":"b929e316-7daf-4ac5-b86c-52d93f79e2c6","system_id":"levelo_inurba_marseille","lat":43.285755,"lon":5.395094,"is_reserved":false,"is_disabled":false,"rental_uris":{"android":"levelo://app?vid=b929e316-7daf-4ac5-b86c-52d93f79e2c6","ios":"levelo://app?vid=b929e316-7daf-4ac5-b86c-52d93f79e2c6"},"vehicle_type_id":"4","last_reported":1769066351,"current_range_meters":8000,"station_id":"ce4bh292rcd13ifvqdg0","pricing_plan_id":"cebpf4jnsgd1na2vs0mg"},{"bike_id":"f98220fc-889d-44fd-83c4-b74d36c9d0de","system_id":"levelo_inurba_marseille","lat":43.30109,"lon":5.43128,"is_reserved":false,"is_disabled":false,"rental_uris":{"android":"levelo://app?vid=f98220fc-889d-44fd-83c4-b74d36c9d0de","ios":"levelo://app?vid=f98220fc-889d-44fd-83c4-b74d36c9d0de"},"vehicle_type_id":"4","last_reported":1769066351,"current_range_meters":8000,"station_id":"st_d3js3co5814s73ftftug","pricing_plan_id":"cebpf4jnsgd1na2vs0mg"},{"bike_id":"9d86a94f-f259-4bff-8fc3-bc1bf1b477e4","system_id":"levelo_inurba_marseille","lat":43.25859,"lon":5.41825,"is_reserved":false,"is_disabled":false,"rental_uris":{"android":"levelo://app?vid=9d86a94f-f259-4bff-8fc3-bc1bf1b477e4","ios":"levelo://app?vid=9d86a94f-f259-4bff-8fc3-bc1bf1b477e4"},"vehicle_type_id":"4","last_reported":1769066351,"current_range_meters":8000,"station_id":"","pricing_plan_id":"cebpf4jnsgd1na2vs0mg"},{"bike_id":"2b47c98c-a9ad-410d-8b92-4c784451245d","system_id":"levelo_inurba_marseille","lat":43.23962,"lon":5.36626,"is_reserved":false,"is_disabled":false,"rental_uris":{"android":"levelo://app?vid=2b47c98c-a9ad-410d-8b92-4c784451245d","ios":"levelo://app?vid=2b47c98c-a9ad-410d-8b92-4c784451245d"},"vehicle_type_id":"4","last_reported":1769066351,"current_range_meters":8000,"station_id":"ce4bhi12rcd13ifvqfp0","pricing_plan_id":"cebpf4jnsgd1na2vs0mg"},{"bike_id":"3998b630-1550-4129-b95e-2d12a38501a1","system_id":"levelo_inurba_marseille","lat":43.25571,"lon":5.3825,"is_reserved":false,"is_disabled":false,"rental_uris":{"android":"levelo://app?vid=3998b630-1550-4129-b95e-2d12a38501a1","ios":"levelo://app?vid=3998b630-1550-4129-b95e-2d12a38501a1"},"vehicle_type_id":"4","last_reported":1769066351,"current_range_meters":8000,"station_id":"ce4bhih2rcd13ifvqfs0","pricing_plan_id":"cebpf4jnsgd1na2vs0mg"},{"bike_id":"9442084c-3381-47e8-b2dc-95ca76f97342","system_id":"levelo_inurba_marseille","lat":43.24995,"lon":5.38941,"is_reserved":false,"is_disabled":false,"rental_uris":{"android":"levelo://app?vid=9442084c-3381-47e8-b2dc-95ca76f97342","ios":"levelo://app?vid=9442084c-3381-47e8-b2dc-95ca76f97342"},"vehicle_type_id":"4","last_reported":1769066351,"current_range_meters":8000,"station_id":"ce4bhgp2rcd13ifvqfd0","pricing_plan_id":"cebpf4jnsgd1na2vs0mg"},{"bike_id":"f39628e7-f451-4af8-80af-ee31b074b0b2","system_id":"levelo_inurba_marseille","lat":43.285337,"lon":5.440974,"is_reserved":false,"is_disabled":false,"rental_uris":{"android":"levelo://app?vid=f39628e7-f451-4af8-80af-ee31b074b0b2","ios":"levelo://app?vid=f39628e7-f451-4af8-80af-ee31b074b0b2"},"vehicle_type_id":"4","last_reported":1769066351,"current_range_meters":8000,"station_id":"st_d3j3df2ikq2c7380ej80","pricing_plan_id":"cebpf4jnsgd1na2vs0mg"},{"bike_id":"6fedd87d-43f4-49d4-8c29-92430be6252f","system_id":"levelo_inurba_marseille","lat":43.28077,"lon":5.36667,"is_reserved":false,"is_disabled":false,"rental_uris":{"android":"levelo://app?vid=6fedd87d-43f4-49d4-8c29-92430be6252f","ios":"levelo://app?vid=6fedd87d-43f4-49d4-8c29-92430be6252f"},"vehicle_type_id":"4","last_reported":1769066351,"current_range_meters":8000,"station_id":"","pricing_plan_id":"cebpf4jnsgd1na2vs0mg"},{"bike_id":"c9dee47c-00b4-4792-bb20-0e804a11ccd5","system_id":"levelo_inurba_marseille","lat":43.3015,"lon":5.3809,"is_reserved":false,"is_disabled":false,"rental_uris":{"android":"levelo://app?vid=c9dee47c-00b4-4792-bb20-0e804a11ccd5","ios":"levelo://app?vid=c9dee47c-00b4-4792-bb20-0e804a11ccd5"},"vehicle_type_id":"4","last_reported":1769066351,"current_range_meters":8000,"station_id":"ce4bgjp2rcd13ifvqbh0","pricing_plan_id":"cebpf4jnsgd1na2vs0mg"},{"bike_id":"6e714a71-c5a6-4d28-a347-ad98996c5474","system_id":"levelo_inurba_marseille","lat":43.25582,"lon":5.38231,"is_reserved":false,"is_disabled":false,"rental_uris":{"android":"levelo://app?vid=6e714a71-c5a6-4d28-a347-ad98996c5474","ios":"levelo://app?vid=6e714a71-c5a6-4d28-a347-ad98996c5474"},"vehicle_type_id":"4","last_reported":1769066351,"current_range_meters":8000,"station_id":"ce4bhih2rcd13ifvqfs0","pricing_plan_id":"cebpf4jnsgd1na2vs0mg"},{"bike_id":"7b0bfeb8-86f4-4a18-be21-374d7ab2fc0b","system_id":"levelo_inurba_marseille","lat":43.27941,"lon":5.41056,"is_reserved":false,"is_disabled":false,"rental_uris":{"android":"levelo://app?vid=7b0bfeb8-86f4-4a18-be21-374d7ab2fc0b","ios":"levelo://app?vid=7b0bfeb8-86f4-4a18-be21-374d7ab2fc0b"},"vehicle_type_id":"4","last_reported":1769066351,"current_range_meters":8000,"station_id":"ce4bhnp2rcd13ifvqh0g","pricing_plan_id":"cebpf4jnsgd1na2vs0mg"},{"bike_id":"22bc6d8e-7e0c-4234-afe0-c88e2589ac70","system_id":"levelo_inurba_marseille","lat":43.27035,"lon":5.39994,"is_reserved":false,"is_disabled":false,"rental_uris":{"android":"levelo://app?vid=22bc6d8e-7e0c-4234-afe0-c88e2589ac70","ios":"levelo://app?vid=22bc6d8e-7e0c-4234-afe0-c88e2589ac70"},"vehicle_type_id":"4","last_reported":1769066351,"current_range_meters":8000,"station_id":"","pricing_plan_id":"cebpf4jnsgd1na2vs0mg"},{"bike_id":"34870233-308b-4760-930c-f58e7898c637","system_id":"levelo_inurba_marseille","lat":43.21751,"lon":5.34604,"is_reserved":false,"is_disabled":false,"rental_uris":{"android":"levelo://app?vid=34870233-308b-4760-930c-f58e7898c637","ios":"levelo://app?vid=34870233-308b-4760-930c-f58e7898c637"},"vehicle_type_id":"4","last_reported":1769066351,"current_range_meters":8000,"station_id":"st_cvj6r9ubvosntc0bgbag","pricing_plan_id":"cebpf4jnsgd1na2vs0mg"},{"bike_id":"8a84d6ed-bf3e-44ad-ade6-8d8d49797cdd","system_id":"levelo_inurba_marseille","lat":43.24068,"lon":5.37761,"is_reserved":false,"is_disabled":false,"rental_uris":{"android":"levelo://app?vid=8a84d6ed-bf3e-44ad-ade6-8d8d49797cdd","ios":"levelo://app?vid=8a84d6ed-bf3e-44ad-ade6-8d8d49797cdd"},"vehicle_type_id":"4","last_reported":1769066351,"current_range_meters":8000,"station_id":"ce4bhnp2rcd13ifvqgvg","pricing_plan_id":"cebpf4jnsgd1na2vs0mg"},{"bike_id":"abe656ab-af64-407a-8751-7ec7c637c643","system_id":"levelo_inurba_marseille","lat":43.30431,"lon":5.39744,"is_reserved":false,"is_disabled":false,"rental_uris":{"android":"levelo://app?vid=abe656ab-af64-407a-8751-7ec7c637c643","ios":"levelo://app?vid=abe656ab-af64-407a-8751-7ec7c637c643"},"vehicle_type_id":"4","last_reported":1769066351,"current_range_meters":8000,"station_id":"ce4bh092rcd13ifvqd20","pricing_plan_id":"cebpf4jnsgd1na2vs0mg"},{"bike_id":"cfae56a6-591e-4e60-8521-c673c7406cd2","system_id":"levelo_inurba_marseille","lat":43.26362,"lon":5.41096,"is_reserved":false,"is_disabled":false,"rental_uris":{"android":"levelo://app?vid=cfae56a6-591e-4e60-8521-c673c7406cd2","ios":"levelo://app?vid=cfae56a6-591e-4e60-8521-c673c7406cd2"},"vehicle_type_id":"4","last_reported":1769066351,"current_range_meters":8000,"station_id":"st_d4e5ca6na9uc73bfl5fg","pricing_plan_id":"cebpf4jnsgd1na2vs0mg"},{"bike_id":"9602bfb2-a38b-4065-8c80-dc0f09d03485","system_id":"levelo_inurba_marseille","lat":43.23189,"lon":5.35545,"is_reserved":false,"is_disabled":false,"rental_uris":{"android":"levelo://app?vid=9602bfb2-a38b-4065-8c80-dc0f09d03485","ios":"levelo://app?vid=9602bfb2-a38b-4065-8c80-dc0f09d03485"},"vehicle_type_id":"4","last_reported":1769066351,"current_range_meters":8000,"station_id":"ce4bhu92rcd13ifvqi70","pricing_plan_id":"cebpf4jnsgd1na2vs0mg"},{"bike_id":"5d7c7859-ff96-4e9c-be77-fd7bfbaff711","system_id":"levelo_inurba_marseille","lat":43.2898,"lon":5.37836,"is_reserved":false,"is_disabled":false,"rental_uris":{"android":"levelo://app?vid=5d7c7859-ff96-4e9c-be77-fd7bfbaff711","ios":"levelo://app?vid=5d7c7859-ff96-4e9c-be77-fd7bfbaff711"},"vehicle_type_id":"4","last_reported":1769066351,"current_range_meters":8400,"station_id":"ce4bh9p2rcd13ifvqed0","pricing_plan_id":"cebpf4jnsgd1na2vs0mg"},{"bike_id":"96211231-e125-49f0-8cc9-82b3d3d6626e","system_id":"levelo_inurba_marseille","lat":43.25939,"lon":5.40904,"is_reserved":false,"is_disabled":false,"rental_uris":{"android":"levelo://app?vid=96211231-e125-49f0-8cc9-82b3d3d6626e","ios":"levelo://app?vid=96211231-e125-49f0-8cc9-82b3d3d6626e"},"vehicle_type_id":"4","last_reported":1769066351,"current_range_meters":8400,"station_id":"ce4bhm92rcd13ifvqglg","pricing_plan_id":"cebpf4jnsgd1na2vs0mg"},{"bike_id":"bfda8e78-c7ce-4568-9840-fab03b8754ed","system_id":"levelo_inurba_marseille","lat":43.29591,"lon":5.38106,"is_reserved":false,"is_disabled":false,"rental_uris":{"android":"levelo://app?vid=bfda8e78-c7ce-4568-9840-fab03b8754ed","ios":"levelo://app?vid=bfda8e78-c7ce-4568-9840-fab03b8754ed"},"vehicle_type_id":"4","last_reported":1769066351,"current_range_meters":8400,"station_id":"ce4bgl12rcd13ifvqbo0","pricing_plan_id":"cebpf4jnsgd1na2vs0mg"},{"bike_id":"53563e6b-7433-47cd-b7e5-a8b0077cc14f","system_id":"levelo_inurba_marseille","lat":43.2407,"lon":5.37762,"is_reserved":false,"is_disabled":false,"rental_uris":{"android":"levelo://app?vid=53563e6b-7433-47cd-b7e5-a8b0077cc14f","ios":"levelo://app?vid=53563e6b-7433-47cd-b7e5-a8b0077cc14f"},"vehicle_type_id":"4","last_reported":1769066351,"current_range_meters":8400,"station_id":"ce4bhnp2rcd13ifvqgvg","pricing_plan_id":"cebpf4jnsgd1na2vs0mg"},{"bike_id":"438eeedb-cdbb-4c29-baa2-7f69a5f3b07b","system_id":"levelo_inurba_marseille","lat":43.24381,"lon":5.37061,"is_reserved":false,"is_disabled":false,"rental_uris":{"android":"levelo://app?vid=438eeedb-cdbb-4c29-baa2-7f69a5f3b07b","ios":"levelo://app?vid=438eeedb-cdbb-4c29-baa2-7f69a5f3b07b"},"vehicle_type_id":"4","last_reported":1769066351,"current_range_meters":8400,"station_id":"ce4bhhh2rcd13ifvqfk0","pricing_plan_id":"cebpf4jnsgd1na2vs0mg"},{"bike_id":"5b5b19bd-fffc-4326-a613-1c568a226422","system_id":"levelo_inurba_marseille","lat":43.27818,"lon":5.40722,"is_reserved":false,"is_disabled":false,"rental_uris":{"android":"levelo://app?vid=5b5b19bd-fffc-4326-a613-1c568a226422","ios":"levelo://app?vid=5b5b19bd-fffc-4326-a613-1c568a226422"},"vehicle_type_id":"4","last_reported":1769066351,"current_range_meters":8400,"station_id":"ce4bhnh2rcd13ifvqgtg","pricing_plan_id":"cebpf4jnsgd1na2vs0mg"},{"bike_id":"0e7da989-bf09-4900-8747-fc51c0a98600","system_id":"levelo_inurba_marseille","lat":43.30882,"lon":5.37191,"is_reserved":false,"is_disabled":false,"rental_uris":{"android":"levelo://app?vid=0e7da989-bf09-4900-8747-fc51c0a98600","ios":"levelo://app?vid=0e7da989-bf09-4900-8747-fc51c0a98600"},"vehicle_type_id":"4","last_reported":1769066351,"current_range_meters":8400,"station_id":"ce4bguh2rcd13ifvqckg","pricing_plan_id":"cebpf4jnsgd1na2vs0mg"},{"bike_id":"f879e031-bc47-4d72-8f42-c1039a5ae647","system_id":"levelo_inurba_marseille","lat":43.299326,"lon":5.365331,"is_reserved":false,"is_disabled":false,"rental_uris":{"android":"levelo://app?vid=f879e031-bc47-4d72-8f42-c1039a5ae647","ios":"levelo://app?vid=f879e031-bc47-4d72-8f42-c1039a5ae647"},"vehicle_type_id":"4","last_reported":1769066351,"current_range_meters":8400,"station_id":"ce4bgm92rcd13ifvqbr0","pricing_plan_id":"cebpf4jnsgd1na2vs0mg"},{"bike_id":"4b5aa404-a223-4202-a9b4-4364010f0fb4","system_id":"levelo_inurba_marseille","lat":43.33763,"lon":5.37473,"is_reserved":false,"is_disabled":false,"rental_uris":{"android":"levelo://app?vid=4b5aa404-a223-4202-a9b4-4364010f0fb4","ios":"levelo://app?vid=4b5aa404-a223-4202-a9b4-4364010f0fb4"},"vehicle_type_id":"4","last_reported":1769066351,"current_range_meters":8400,"station_id":"","pricing_plan_id":"cebpf4jnsgd1na2vs0mg"},{"bike_id":"4fcdcf20-ed39-4e14-83c5-78636261a1da","system_id":"levelo_inurba_marseille","lat":43.27074,"lon":5.40244,"is_reserved":false,"is_disabled":false,"rental_uris":{"android":"levelo://app?vid=4fcdcf20-ed39-4e14-83c5-78636261a1da","ios":"levelo://app?vid=4fcdcf20-ed39-4e14-83c5-78636261a1da"},"vehicle_type_id":"4","last_reported":1769066351,"current_range_meters":8400,"station_id":"ce4bhk92rcd13ifvqgc0","pricing_plan_id":"cebpf4jnsgd1na2vs0mg"},{"bike_id":"38500cf7-d381-439e-970e-63b5ac41074b","system_id":"levelo_inurba_marseille","lat":43.24499,"lon":5.39524,"is_reserved":false,"is_disabled":false,"rental_uris":{"android":"levelo://app?vid=38500cf7-d381-439e-970e-63b5ac41074b","ios":"levelo://app?vid=38500cf7-d381-439e-970e-63b5ac41074b"},"vehicle_type_id":"4","last_reported":1769066351,"current_range_meters":8400,"station_id":"","pricing_plan_id":"cebpf4jnsgd1na2vs0mg"},{"bike_id":"8faea1bc-2bab-43f5-883d-baf4d0b180cc","system_id":"levelo_inurba_marseille","lat":43.3111,"lon":5.37769,"is_reserved":false,"is_disabled":false,"rental_uris":{"android":"levelo://app?vid=8faea1bc-2bab-43f5-883d-baf4d0b180cc","ios":"levelo://app?vid=8faea1bc-2bab-43f5-883d-baf4d0b180cc"},"vehicle_type_id":"4","last_reported":1769066351,"current_range_meters":8400,"station_id":"ce4bgt92rcd13ifvqcg0","pricing_plan_id":"cebpf4jnsgd1na2vs0mg"},{"bike_id":"c9567b8d-9225-4513-9381-5d71b8e6ec64","system_id":"levelo_inurba_marseille","lat":43.25338,"lon":5.42176,"is_reserved":false,"is_disabled":false,"rental_uris":{"android":"levelo://app?vid=c9567b8d-9225-4513-9381-5d71b8e6ec64","ios":"levelo://app?vid=c9567b8d-9225-4513-9381-5d71b8e6ec64"},"vehicle_type_id":"4","last_reported":1769066351,"current_range_meters":8400,"station_id":"st_d2m65c5bi1j21697t3ng","pricing_plan_id":"cebpf4jnsgd1na2vs0mg"},{"bike_id":"f9143ecb-aade-4bb9-990c-9859476787e9","system_id":"levelo_inurba_marseille","lat":43.23778,"lon":5.3663,"is_reserved":false,"is_disabled":false,"rental_uris":{"android":"levelo://app?vid=f9143ecb-aade-4bb9-990c-9859476787e9","ios":"levelo://app?vid=f9143ecb-aade-4bb9-990c-9859476787e9"},"vehicle_type_id":"4","last_reported":1769066351,"current_range_meters":8400,"station_id":"st_d3nk18o9ro0c73en2l3g","pricing_plan_id":"cebpf4jnsgd1na2vs0mg"},{"bike_id":"0415c496-20d0-4139-a2d3-2d5d5dc1bfee","system_id":"levelo_inurba_marseille","lat":43.271999,"lon":5.391892,"is_reserved":false,"is_disabled":true,"rental_uris":{"android":"levelo://app?vid=0415c496-20d0-4139-a2d3-2d5d5dc1bfee","ios":"levelo://app?vid=0415c496-20d0-4139-a2d3-2d5d5dc1bfee"},"vehicle_type_id":"4","last_reported":1769066351,"current_range_meters":8400,"station_id":"ce4bhg92rcd13ifvqf90","pricing_plan_id":"cebpf4jnsgd1na2vs0mg"},{"bike_id":"35fcabca-8c83-47ba-83f2-aeb68eaa1753","system_id":"levelo_inurba_marseille","lat":43.295686,"lon":5.399582,"is_reserved":false,"is_disabled":false,"rental_uris":{"android":"levelo://app?vid=35fcabca-8c83-47ba-83f2-aeb68eaa1753","ios":"levelo://app?vid=35fcabca-8c83-47ba-83f2-aeb68eaa1753"},"vehicle_type_id":"4","last_reported":1769066351,"current_range_meters":8400,"station_id":"ce4bh312rcd13ifvqdj0","pricing_plan_id":"cebpf4jnsgd1na2vs0mg"},{"bike_id":"279c3d61-f90c-4131-bc6c-2747911e68df","system_id":"levelo_inurba_marseille","lat":43.21164,"lon":5.35091,"is_reserved":false,"is_disabled":false,"rental_uris":{"android":"levelo://app?vid=279c3d61-f90c-4131-bc6c-2747911e68df","ios":"levelo://app?vid=279c3d61-f90c-4131-bc6c-2747911e68df"},"vehicle_type_id":"4","last_reported":1769066351,"current_range_meters":8400,"station_id":"","pricing_plan_id":"cebpf4jnsgd1na2vs0mg"},{"bike_id":"a19e5af3-dcf0-4b9a-a774-a84f15eb08df","system_id":"levelo_inurba_marseille","lat":43.26185,"lon":5.37932,"is_reserved":false,"is_disabled":false,"rental_uris":{"android":"levelo://app?vid=a19e5af3-dcf0-4b9a-a774-a84f15eb08df","ios":"levelo://app?vid=a19e5af3-dcf0-4b9a-a774-a84f15eb08df"},"vehicle_type_id":"4","last_reported":1769066351,"current_range_meters":8400,"station_id":"ce4bhjp2rcd13ifvqg90","pricing_plan_id":"cebpf4jnsgd1na2vs0mg"},{"bike_id":"5e9d0935-8f7c-4576-9f06-d40b50358493","system_id":"levelo_inurba_marseille","lat":43.21186,"lon":5.35071,"is_reserved":false,"is_disabled":false,"rental_uris":{"android":"levelo://app?vid=5e9d0935-8f7c-4576-9f06-d40b50358493","ios":"levelo://app?vid=5e9d0935-8f7c-4576-9f06-d40b50358493"},"vehicle_type_id":"4","last_reported":1769066351,"current_range_meters":8400,"station_id":"st_cvj6sg6p6f1abm77japg","pricing_plan_id":"cebpf4jnsgd1na2vs0mg"},{"bike_id":"7a1d7172-fb7c-4e1e-9fa6-9c5ccc3ce82e","system_id":"levelo_inurba_marseille","lat":43.30145,"lon":5.38083,"is_reserved":false,"is_disabled":false,"rental_uris":{"android":"levelo://app?vid=7a1d7172-fb7c-4e1e-9fa6-9c5ccc3ce82e","ios":"levelo://app?vid=7a1d7172-fb7c-4e1e-9fa6-9c5ccc3ce82e"},"vehicle_type_id":"4","last_reported":1769066351,"current_range_meters":8400,"station_id":"ce4bgjp2rcd13ifvqbh0","pricing_plan_id":"cebpf4jnsgd1na2vs0mg"},{"bike_id":"d48a1789-e7ab-4fe5-b6cc-1646dfa0455e","system_id":"levelo_inurba_marseille","lat":43.28861,"lon":5.425,"is_reserved":false,"is_disabled":false,"rental_uris":{"android":"levelo://app?vid=d48a1789-e7ab-4fe5-b6cc-1646dfa0455e","ios":"levelo://app?vid=d48a1789-e7ab-4fe5-b6cc-1646dfa0455e"},"vehicle_type_id":"4","last_reported":1769066351,"current_range_meters":8400,"station_id":"st_d3b462108ojc7389ooeg","pricing_plan_id":"cebpf4jnsgd1na2vs0mg"},{"bike_id":"6cde08db-2d60-4fc0-a7d5-505f4f93c6d4","system_id":"levelo_inurba_marseille","lat":43.33579,"lon":5.37403,"is_reserved":false,"is_disabled":false,"rental_uris":{"android":"levelo://app?vid=6cde08db-2d60-4fc0-a7d5-505f4f93c6d4","ios":"levelo://app?vid=6cde08db-2d60-4fc0-a7d5-505f4f93c6d4"},"vehicle_type_id":"4","last_reported":1769066351,"current_range_meters":8400,"station_id":"","pricing_plan_id":"cebpf4jnsgd1na2vs0mg"},{"bike_id":"44d706f5-bd71-46e4-9c9e-61137a51da18","system_id":"levelo_inurba_marseille","lat":43.29075,"lon":5.37174,"is_reserved":false,"is_disabled":false,"rental_uris":{"android":"levelo://app?vid=44d706f5-bd71-46e4-9c9e-61137a51da18","ios":"levelo://app?vid=44d706f5-bd71-46e4-9c9e-61137a51da18"},"vehicle_type_id":"4","last_reported":1769066351,"current_range_meters":8400,"station_id":"ce4bh5p2rcd13ifvqe4g","pricing_plan_id":"cebpf4jnsgd1na2vs0mg"},{"bike_id":"bd6529f1-d9f2-4830-b959-1beae09197eb","system_id":"levelo_inurba_marseille","lat":43.28699,"lon":5.379424,"is_reserved":false,"is_disabled":false,"rental_uris":{"android":"levelo://app?vid=bd6529f1-d9f2-4830-b959-1beae09197eb","ios":"levelo://app?vid=bd6529f1-d9f2-4830-b959-1beae09197eb"},"vehicle_type_id":"4","last_reported":1769066351,"current_range_meters":8400,"station_id":"ce4bh9p2rcd13ifvqec0","pricing_plan_id":"cebpf4jnsgd1na2vs0mg"},{"bike_id":"ab074e7a-4ed7-4ff2-b2e5-99de98fef7cf","system_id":"levelo_inurba_marseille","lat":43.31068,"lon":5.38348,"is_reserved":false,"is_disabled":false,"rental_uris":{"android":"levelo://app?vid=ab074e7a-4ed7-4ff2-b2e5-99de98fef7cf","ios":"levelo://app?vid=ab074e7a-4ed7-4ff2-b2e5-99de98fef7cf"},"vehicle_type_id":"4","last_reported":1769066351,"current_range_meters":8400,"station_id":"ce4bgv92rcd13ifvqcr0","pricing_plan_id":"cebpf4jnsgd1na2vs0mg"},{"bike_id":"cbd6d55e-5809-4853-9878-dbbf6af6a148","system_id":"levelo_inurba_marseille","lat":43.288646,"lon":5.425227,"is_reserved":false,"is_disabled":false,"rental_uris":{"android":"levelo://app?vid=cbd6d55e-5809-4853-9878-dbbf6af6a148","ios":"levelo://app?vid=cbd6d55e-5809-4853-9878-dbbf6af6a148"},"vehicle_type_id":"4","last_reported":1769066351,"current_range_meters":8800,"station_id":"st_d3b462108ojc7389ooeg","pricing_plan_id":"cebpf4jnsgd1na2vs0mg"},{"bike_id":"ae5f1185-9752-4e53-bc6a-36fa3f58af5f","system_id":"levelo_inurba_marseille","lat":43.28943,"lon":5.39634,"is_reserved":false,"is_disabled":false,"rental_uris":{"android":"levelo://app?vid=ae5f1185-9752-4e53-bc6a-36fa3f58af5f","ios":"levelo://app?vid=ae5f1185-9752-4e53-bc6a-36fa3f58af5f"},"vehicle_type_id":"4","last_reported":1769066351,"current_range_meters":8800,"station_id":"ce4bh3h2rcd13ifvqdn0","pricing_plan_id":"cebpf4jnsgd1na2vs0mg"},{"bike_id":"13ca385c-a413-4986-a4a0-d03067293031","system_id":"levelo_inurba_marseille","lat":43.23246,"lon":5.35477,"is_reserved":false,"is_disabled":false,"rental_uris":{"android":"levelo://app?vid=13ca385c-a413-4986-a4a0-d03067293031","ios":"levelo://app?vid=13ca385c-a413-4986-a4a0-d03067293031"},"vehicle_type_id":"4","last_reported":1769066351,"current_range_meters":8800,"station_id":"","pricing_plan_id":"cebpf4jnsgd1na2vs0mg"},{"bike_id":"cc9f4717-497d-46b4-8770-89f5df0571cd","system_id":"levelo_inurba_marseille","lat":43.24393,"lon":5.37133,"is_reserved":false,"is_disabled":false,"rental_uris":{"android":"levelo://app?vid=cc9f4717-497d-46b4-8770-89f5df0571cd","ios":"levelo://app?vid=cc9f4717-497d-46b4-8770-89f5df0571cd"},"vehicle_type_id":"4","last_reported":1769066351,"current_range_meters":8800,"station_id":"ce4bhhh2rcd13ifvqfk0","pricing_plan_id":"cebpf4jnsgd1na2vs0mg"},{"bike_id":"ae72a7f7-0a78-43a1-a80c-a2893de3e9bb","system_id":"levelo_inurba_marseille","lat":43.24798,"lon":5.37466,"is_reserved":false,"is_disabled":false,"rental_uris":{"android":"levelo://app?vid=ae72a7f7-0a78-43a1-a80c-a2893de3e9bb","ios":"levelo://app?vid=ae72a7f7-0a78-43a1-a80c-a2893de3e9bb"},"vehicle_type_id":"4","last_reported":1769066351,"current_range_meters":8800,"station_id":"ce4bhgh2rcd13ifvqfb0","pricing_plan_id":"cebpf4jnsgd1na2vs0mg"},{"bike_id":"5d14e776-1d07-4b7f-b396-c836b99253da","system_id":"levelo_inurba_marseille","lat":43.2606,"lon":5.394,"is_reserved":false,"is_disabled":false,"rental_uris":{"android":"levelo://app?vid=5d14e776-1d07-4b7f-b396-c836b99253da","ios":"levelo://app?vid=5d14e776-1d07-4b7f-b396-c836b99253da"},"vehicle_type_id":"4","last_reported":1769066351,"current_range_meters":8800,"station_id":"","pricing_plan_id":"cebpf4jnsgd1na2vs0mg"},{"bike_id":"f3930ccb-7366-4820-9b16-8e40e47cf10f","system_id":"levelo_inurba_marseille","lat":43.24538,"lon":5.3953,"is_reserved":false,"is_disabled":false,"rental_uris":{"android":"levelo://app?vid=f3930ccb-7366-4820-9b16-8e40e47cf10f","ios":"levelo://app?vid=f3930ccb-7366-4820-9b16-8e40e47cf10f"},"vehicle_type_id":"4","last_reported":1769066351,"current_range_meters":8800,"station_id":"ce4bhlp2rcd13ifvqgjg","pricing_plan_id":"cebpf4jnsgd1na2vs0mg"},{"bike_id":"2403f0bf-de39-4f6c-b1d8-f725bb90dee3","system_id":"levelo_inurba_marseille","lat":43.24215,"lon":5.36374,"is_reserved":false,"is_disabled":false,"rental_uris":{"android":"levelo://app?vid=2403f0bf-de39-4f6c-b1d8-f725bb90dee3","ios":"levelo://app?vid=2403f0bf-de39-4f6c-b1d8-f725bb90dee3"},"vehicle_type_id":"4","last_reported":1769066351,"current_range_meters":8800,"station_id":"","pricing_plan_id":"cebpf4jnsgd1na2vs0mg"},{"bike_id":"249a4cf7-06f6-4fea-96cc-c9c6b750c37f","system_id":"levelo_inurba_marseille","lat":43.24147,"lon":5.36397,"is_reserved":false,"is_disabled":false,"rental_uris":{"android":"levelo://app?vid=249a4cf7-06f6-4fea-96cc-c9c6b750c37f","ios":"levelo://app?vid=249a4cf7-06f6-4fea-96cc-c9c6b750c37f"},"vehicle_type_id":"4","last_reported":1769066351,"current_range_meters":8800,"station_id":"cpo36qri1sfpv3e86is0","pricing_plan_id":"cebpf4jnsgd1na2vs0mg"},{"bike_id":"88300b54-0eb8-463f-a25a-0ec28840d11d","system_id":"levelo_inurba_marseille","lat":43.30477,"lon":5.37919,"is_reserved":false,"is_disabled":false,"rental_uris":{"android":"levelo://app?vid=88300b54-0eb8-463f-a25a-0ec28840d11d","ios":"levelo://app?vid=88300b54-0eb8-463f-a25a-0ec28840d11d"},"vehicle_type_id":"4","last_reported":1769066351,"current_range_meters":8800,"station_id":"ce4bgup2rcd13ifvqcn0","pricing_plan_id":"cebpf4jnsgd1na2vs0mg"},{"bike_id":"48a13fb2-aa96-4e6e-9601-12ca0a4fdb46","system_id":"levelo_inurba_marseille","lat":43.24633,"lon":5.38918,"is_reserved":false,"is_disabled":false,"rental_uris":{"android":"levelo://app?vid=48a13fb2-aa96-4e6e-9601-12ca0a4fdb46","ios":"levelo://app?vid=48a13fb2-aa96-4e6e-9601-12ca0a4fdb46"},"vehicle_type_id":"4","last_reported":1769066351,"current_range_meters":8800,"station_id":"ce4bhg12rcd13ifvqf60","pricing_plan_id":"cebpf4jnsgd1na2vs0mg"},{"bike_id":"05f056b8-27d4-4e4f-968c-abd25f080061","system_id":"levelo_inurba_marseille","lat":43.28571,"lon":5.39496,"is_reserved":false,"is_disabled":false,"rental_uris":{"android":"levelo://app?vid=05f056b8-27d4-4e4f-968c-abd25f080061","ios":"levelo://app?vid=05f056b8-27d4-4e4f-968c-abd25f080061"},"vehicle_type_id":"4","last_reported":1769066351,"current_range_meters":8800,"station_id":"ce4bh292rcd13ifvqdg0","pricing_plan_id":"cebpf4jnsgd1na2vs0mg"},{"bike_id":"3b364841-63d1-4d4f-bb34-83c89b251a49","system_id":"levelo_inurba_marseille","lat":43.308905,"lon":5.372013,"is_reserved":false,"is_disabled":false,"rental_uris":{"android":"levelo://app?vid=3b364841-63d1-4d4f-bb34-83c89b251a49","ios":"levelo://app?vid=3b364841-63d1-4d4f-bb34-83c89b251a49"},"vehicle_type_id":"4","last_reported":1769066351,"current_range_meters":8800,"station_id":"ce4bguh2rcd13ifvqckg","pricing_plan_id":"cebpf4jnsgd1na2vs0mg"},{"bike_id":"10c06bbf-afef-43b1-a44b-8c1a553386a0","system_id":"levelo_inurba_marseille","lat":43.23971,"lon":5.36624,"is_reserved":false,"is_disabled":false,"rental_uris":{"android":"levelo://app?vid=10c06bbf-afef-43b1-a44b-8c1a553386a0","ios":"levelo://app?vid=10c06bbf-afef-43b1-a44b-8c1a553386a0"},"vehicle_type_id":"4","last_reported":1769066351,"current_range_meters":8800,"station_id":"ce4bhi12rcd13ifvqfp0","pricing_plan_id":"cebpf4jnsgd1na2vs0mg"},{"bike_id":"dc13613e-8f03-4071-8bf4-40d63e73fb35","system_id":"levelo_inurba_marseille","lat":43.27897,"lon":5.38013,"is_reserved":false,"is_disabled":false,"rental_uris":{"android":"levelo://app?vid=dc13613e-8f03-4071-8bf4-40d63e73fb35","ios":"levelo://app?vid=dc13613e-8f03-4071-8bf4-40d63e73fb35"},"vehicle_type_id":"4","last_reported":1769066351,"current_range_meters":8800,"station_id":"ce4bhf92rcd13ifvqf50","pricing_plan_id":"cebpf4jnsgd1na2vs0mg"},{"bike_id":"04a29dd1-d434-4fee-9116-a5f61a8ec2b4","system_id":"levelo_inurba_marseille","lat":43.28403,"lon":5.34995,"is_reserved":false,"is_disabled":false,"rental_uris":{"android":"levelo://app?vid=04a29dd1-d434-4fee-9116-a5f61a8ec2b4","ios":"levelo://app?vid=04a29dd1-d434-4fee-9116-a5f61a8ec2b4"},"vehicle_type_id":"4","last_reported":1769066351,"current_range_meters":8800,"station_id":"ce4bhbh2rcd13ifvqepg","pricing_plan_id":"cebpf4jnsgd1na2vs0mg"},