{"last_updated":1777323040,"ttl":60,"version":"2.2","data":{"bikes":[{"bike_id":"2fef60ff-ac84-42ee-b964-c9c3134e0cef","system_id":"levelo_inurba_marseille","lat":43.25532,"lon":5.37631,"is_reserved":false,"is_disabled":false,"rental_uris":{"android":"levelo://app?vid=2fef60ff-ac84-42ee-b964-c9c3134e0cef","ios":"levelo://app?vid=2fef60ff-ac84-42ee-b964-c9c3134e0cef"},"vehicle_type_id":"4","last_reported":1777323040,"current_range_meters":400,"station_id":"ce4bhh12rcd13ifvqff0","pricing_plan_id":"cebpf4jnsgd1na2vs0mg"},{"bike_id":"494fd0fc-3b39-4504-a26b-321afbf22977","system_id":"levelo_inurba_marseille","lat":43.23856,"lon":5.38585,"is_reserved":false,"is_disabled":false,"rental_uris":{"android":"levelo://app?vid=494fd0fc-3b39-4504-a26b-321afbf22977","ios":"levelo://app?vid=494fd0fc-3b39-4504-a26b-321afbf22977"},"vehicle_type_id":"4","last_reported":1777323040,"current_range_meters":1600,"station_id":"","pricing_plan_id":"cebpf4jnsgd1na2vs0mg"},{"bike_id":"a12bff03-7417-452f-8acb-a1d3c1fe28e2","system_id":"levelo_inurba_marseille","lat":43.337444,"lon":5.374475,"is_reserved":false,"is_disabled":true,"rental_uris":{"android":"levelo://app?vid=a12bff03-7417-452f-8acb-a1d3c1fe28e2","ios":"levelo://app?vid=a12bff03-7417-452f-8acb-a1d3c1fe28e2"},"vehicle_type_id":"4","last_reported":1777323040,"current_range_meters":2800,"station_id":"","pricing_plan_id":"cebpf4jnsgd1na2vs0mg"},{"bike_id":"a5d1c5f8-e551-41de-b7f3-a52119a1050b","system_id":"levelo_inurba_marseille","lat":43.27805,"lon":5.37449,"is_reserved":false,"is_disabled":false,"rental_uris":{"android":"levelo://app?vid=a5d1c5f8-e551-41de-b7f3-a52119a1050b","ios":"levelo://app?vid=a5d1c5f8-e551-41de-b7f3-a52119a1050b"},"vehicle_type_id":"4","last_reported":1777323040,"current_range_meters":2800,"station_id":"","pricing_plan_id":"cebpf4jnsgd1na2vs0mg"},{"bike_id":"00cd18e1-c968-4207-a7f5-fcdbf83e7b49","system_id":"levelo_inurba_marseille","lat":43.28715,"lon":5.37929,"is_reserved":false,"is_disabled":false,"rental_uris":{"android":"levelo://app?vid=00cd18e1-c968-4207-a7f5-fcdbf83e7b49","ios":"levelo://app?vid=00cd18e1-c968-4207-a7f5-fcdbf83e7b49"},"vehicle_type_id":"4","last_reported":1777323040,"current_range_meters":2800,"station_id":"ce4bh9p2rcd13ifvqec0","pricing_plan_id":"cebpf4jnsgd1na2vs0mg"},{"bike_id":"0a1d2f65-9594-476d-b495-635131d518f1","system_id":"levelo_inurba_marseille","lat":43.3148,"lon":5.37305,"is_reserved":false,"is_disabled":false,"rental_uris":{"android":"levelo://app?vid=0a1d2f65-9594-476d-b495-635131d518f1","ios":"levelo://app?vid=0a1d2f65-9594-476d-b495-635131d518f1"},"vehicle_type_id":"4","last_reported":1777323040,"current_range_meters":3200,"station_id":"ce4bgt12rcd13ifvqcd0","pricing_plan_id":"cebpf4jnsgd1na2vs0mg"},{"bike_id":"2c5074ca-c137-4cbf-bb08-088c41bfffa2","system_id":"levelo_inurba_marseille","lat":43.28879,"lon":5.393,"is_reserved":false,"is_disabled":false,"rental_uris":{"android":"levelo://app?vid=2c5074ca-c137-4cbf-bb08-088c41bfffa2","ios":"levelo://app?vid=2c5074ca-c137-4cbf-bb08-088c41bfffa2"},"vehicle_type_id":"4","last_reported":1777323040,"current_range_meters":3200,"station_id":"ce4bh2p2rcd13ifvqdi0","pricing_plan_id":"cebpf4jnsgd1na2vs0mg"},{"bike_id":"12e76862-dee0-4267-bd69-a230b389b9d8","system_id":"levelo_inurba_marseille","lat":43.29528,"lon":5.37623,"is_reserved":false,"is_disabled":false,"rental_uris":{"android":"levelo://app?vid=12e76862-dee0-4267-bd69-a230b389b9d8","ios":"levelo://app?vid=12e76862-dee0-4267-bd69-a230b389b9d8"},"vehicle_type_id":"4","last_reported":1777323040,"current_range_meters":3200,"station_id":"","pricing_plan_id":"cebpf4jnsgd1na2vs0mg"},{"bike_id":"ba232b12-0530-4684-bdcc-232e54b7d12b","system_id":"levelo_inurba_marseille","lat":43.25012,"lon":5.38937,"is_reserved":false,"is_disabled":false,"rental_uris":{"android":"levelo://app?vid=ba232b12-0530-4684-bdcc-232e54b7d12b","ios":"levelo://app?vid=ba232b12-0530-4684-bdcc-232e54b7d12b"},"vehicle_type_id":"4","last_reported":1777323040,"current_range_meters":3200,"station_id":"ce4bhgp2rcd13ifvqfd0","pricing_plan_id":"cebpf4jnsgd1na2vs0mg"},{"bike_id":"1e467ca0-2768-4108-a598-baca0cc991f8","system_id":"levelo_inurba_marseille","lat":43.27499,"lon":5.41571,"is_reserved":false,"is_disabled":true,"rental_uris":{"android":"levelo://app?vid=1e467ca0-2768-4108-a598-baca0cc991f8","ios":"levelo://app?vid=1e467ca0-2768-4108-a598-baca0cc991f8"},"vehicle_type_id":"4","last_reported":1777323040,"current_range_meters":3200,"station_id":"st_d6im8g6chgec73a5pndg","pricing_plan_id":"cebpf4jnsgd1na2vs0mg"},{"bike_id":"50fcb081-4b05-4355-adf3-07f022c0399c","system_id":"levelo_inurba_marseille","lat":43.30993,"lon":5.37913,"is_reserved":false,"is_disabled":false,"rental_uris":{"android":"levelo://app?vid=50fcb081-4b05-4355-adf3-07f022c0399c","ios":"levelo://app?vid=50fcb081-4b05-4355-adf3-07f022c0399c"},"vehicle_type_id":"4","last_reported":1777323040,"current_range_meters":3200,"station_id":"","pricing_plan_id":"cebpf4jnsgd1na2vs0mg"},{"bike_id":"5676b1df-3102-49f0-94ea-6bd037dc90c9","system_id":"levelo_inurba_marseille","lat":43.31123,"lon":5.38056,"is_reserved":false,"is_disabled":false,"rental_uris":{"android":"levelo://app?vid=5676b1df-3102-49f0-94ea-6bd037dc90c9","ios":"levelo://app?vid=5676b1df-3102-49f0-94ea-6bd037dc90c9"},"vehicle_type_id":"4","last_reported":1777323040,"current_range_meters":3600,"station_id":"","pricing_plan_id":"cebpf4jnsgd1na2vs0mg"},{"bike_id":"30d902e6-ac27-4115-98fd-2af5e6512802","system_id":"levelo_inurba_marseille","lat":43.29726,"lon":5.37691,"is_reserved":false,"is_disabled":true,"rental_uris":{"android":"levelo://app?vid=30d902e6-ac27-4115-98fd-2af5e6512802","ios":"levelo://app?vid=30d902e6-ac27-4115-98fd-2af5e6512802"},"vehicle_type_id":"4","last_reported":1777323040,"current_range_meters":3600,"station_id":"ce4bgkh2rcd13ifvqbl0","pricing_plan_id":"cebpf4jnsgd1na2vs0mg"},{"bike_id":"1f13452b-ac27-48ca-bbd2-1255b0865067","system_id":"levelo_inurba_marseille","lat":43.27861,"lon":5.37919,"is_reserved":false,"is_disabled":false,"rental_uris":{"android":"levelo://app?vid=1f13452b-ac27-48ca-bbd2-1255b0865067","ios":"levelo://app?vid=1f13452b-ac27-48ca-bbd2-1255b0865067"},"vehicle_type_id":"4","last_reported":1777323040,"current_range_meters":3600,"station_id":"","pricing_plan_id":"cebpf4jnsgd1na2vs0mg"},{"bike_id":"fd583349-9e7d-4e5b-8155-1da1a7a44b99","system_id":"levelo_inurba_marseille","lat":43.27946,"lon":5.41049,"is_reserved":false,"is_disabled":false,"rental_uris":{"android":"levelo://app?vid=fd583349-9e7d-4e5b-8155-1da1a7a44b99","ios":"levelo://app?vid=fd583349-9e7d-4e5b-8155-1da1a7a44b99"},"vehicle_type_id":"4","last_reported":1777323040,"current_range_meters":3600,"station_id":"ce4bhnp2rcd13ifvqh0g","pricing_plan_id":"cebpf4jnsgd1na2vs0mg"},{"bike_id":"3fc702c2-db6d-48da-a95f-21336c67ebe1","system_id":"levelo_inurba_marseille","lat":43.28731,"lon":5.37932,"is_reserved":false,"is_disabled":false,"rental_uris":{"android":"levelo://app?vid=3fc702c2-db6d-48da-a95f-21336c67ebe1","ios":"levelo://app?vid=3fc702c2-db6d-48da-a95f-21336c67ebe1"},"vehicle_type_id":"4","last_reported":1777323040,"current_range_meters":3600,"station_id":"ce4bh9p2rcd13ifvqec0","pricing_plan_id":"cebpf4jnsgd1na2vs0mg"},{"bike_id":"35a6efba-6e56-4656-8dc6-121dcaca4930","system_id":"levelo_inurba_marseille","lat":43.25609,"lon":5.3862,"is_reserved":false,"is_disabled":false,"rental_uris":{"android":"levelo://app?vid=35a6efba-6e56-4656-8dc6-121dcaca4930","ios":"levelo://app?vid=35a6efba-6e56-4656-8dc6-121dcaca4930"},"vehicle_type_id":"4","last_reported":1777323040,"current_range_meters":3600,"station_id":"","pricing_plan_id":"cebpf4jnsgd1na2vs0mg"},{"bike_id":"a739cf0d-9d06-40f3-95cf-061905244262","system_id":"levelo_inurba_marseille","lat":43.29837,"lon":5.38891,"is_reserved":false,"is_disabled":true,"rental_uris":{"android":"levelo://app?vid=a739cf0d-9d06-40f3-95cf-061905244262","ios":"levelo://app?vid=a739cf0d-9d06-40f3-95cf-061905244262"},"vehicle_type_id":"4","last_reported":1777323040,"current_range_meters":3600,"station_id":"ce4bh392rcd13ifvqdl0","pricing_plan_id":"cebpf4jnsgd1na2vs0mg"},{"bike_id":"378a94bc-a2c0-4a91-808a-c1ba1a5473c2","system_id":"levelo_inurba_marseille","lat":43.307956,"lon":5.381486,"is_reserved":false,"is_disabled":false,"rental_uris":{"android":"levelo://app?vid=378a94bc-a2c0-4a91-808a-c1ba1a5473c2","ios":"levelo://app?vid=378a94bc-a2c0-4a91-808a-c1ba1a5473c2"},"vehicle_type_id":"4","last_reported":1777323040,"current_range_meters":3600,"station_id":"ce4bgt12rcd13ifvqce0","pricing_plan_id":"cebpf4jnsgd1na2vs0mg"},{"bike_id":"e2a3db73-500b-4326-a0e8-79d951dbfb5b","system_id":"levelo_inurba_marseille","lat":43.30039,"lon":5.37939,"is_reserved":false,"is_disabled":false,"rental_uris":{"android":"levelo://app?vid=e2a3db73-500b-4326-a0e8-79d951dbfb5b","ios":"levelo://app?vid=e2a3db73-500b-4326-a0e8-79d951dbfb5b"},"vehicle_type_id":"4","last_reported":1777323040,"current_range_meters":4000,"station_id":"","pricing_plan_id":"cebpf4jnsgd1na2vs0mg"},{"bike_id":"bdab1e31-d7ea-4c8e-b3d6-57aabe73b361","system_id":"levelo_inurba_marseille","lat":43.28541,"lon":5.39505,"is_reserved":false,"is_disabled":true,"rental_uris":{"android":"levelo://app?vid=bdab1e31-d7ea-4c8e-b3d6-57aabe73b361","ios":"levelo://app?vid=bdab1e31-d7ea-4c8e-b3d6-57aabe73b361"},"vehicle_type_id":"4","last_reported":1777323040,"current_range_meters":4000,"station_id":"ce4bh292rcd13ifvqdg0","pricing_plan_id":"cebpf4jnsgd1na2vs0mg"},{"bike_id":"3e34be22-8cba-4fde-b852-5eb604dfd620","system_id":"levelo_inurba_marseille","lat":43.31677,"lon":5.37318,"is_reserved":false,"is_disabled":false,"rental_uris":{"android":"levelo://app?vid=3e34be22-8cba-4fde-b852-5eb604dfd620","ios":"levelo://app?vid=3e34be22-8cba-4fde-b852-5eb604dfd620"},"vehicle_type_id":"4","last_reported":1777323040,"current_range_meters":4000,"station_id":"","pricing_plan_id":"cebpf4jnsgd1na2vs0mg"},{"bike_id":"207b6784-9c02-4b56-b01f-9fd989088a41","system_id":"levelo_inurba_marseille","lat":43.30247,"lon":5.40066,"is_reserved":false,"is_disabled":false,"rental_uris":{"android":"levelo://app?vid=207b6784-9c02-4b56-b01f-9fd989088a41","ios":"levelo://app?vid=207b6784-9c02-4b56-b01f-9fd989088a41"},"vehicle_type_id":"4","last_reported":1777323040,"current_range_meters":4000,"station_id":"ce4bgvh2rcd13ifvqcs0","pricing_plan_id":"cebpf4jnsgd1na2vs0mg"},{"bike_id":"744f1f86-7f3c-416c-9b9d-6ca073332199","system_id":"levelo_inurba_marseille","lat":43.26214,"lon":5.37439,"is_reserved":false,"is_disabled":false,"rental_uris":{"android":"levelo://app?vid=744f1f86-7f3c-416c-9b9d-6ca073332199","ios":"levelo://app?vid=744f1f86-7f3c-416c-9b9d-6ca073332199"},"vehicle_type_id":"4","last_reported":1777323040,"current_range_meters":4000,"station_id":"ce4bhgp2rcd13ifvqfc0","pricing_plan_id":"cebpf4jnsgd1na2vs0mg"},{"bike_id":"ad06fbeb-2893-47bd-9310-693ccba410e9","system_id":"levelo_inurba_marseille","lat":43.28763,"lon":5.46823,"is_reserved":false,"is_disabled":false,"rental_uris":{"android":"levelo://app?vid=ad06fbeb-2893-47bd-9310-693ccba410e9","ios":"levelo://app?vid=ad06fbeb-2893-47bd-9310-693ccba410e9"},"vehicle_type_id":"4","last_reported":1777323040,"current_range_meters":4400,"station_id":"","pricing_plan_id":"cebpf4jnsgd1na2vs0mg"},{"bike_id":"cf4537a9-051c-4080-9a3f-93f632ce0082","system_id":"levelo_inurba_marseille","lat":43.337444,"lon":5.374475,"is_reserved":false,"is_disabled":false,"rental_uris":{"android":"levelo://app?vid=cf4537a9-051c-4080-9a3f-93f632ce0082","ios":"levelo://app?vid=cf4537a9-051c-4080-9a3f-93f632ce0082"},"vehicle_type_id":"4","last_reported":1777323040,"current_range_meters":4400,"station_id":"","pricing_plan_id":"cebpf4jnsgd1na2vs0mg"},{"bike_id":"b21748b2-fb24-4ee6-8e6a-c7c61264faec","system_id":"levelo_inurba_marseille","lat":43.27379,"lon":5.42215,"is_reserved":false,"is_disabled":false,"rental_uris":{"android":"levelo://app?vid=b21748b2-fb24-4ee6-8e6a-c7c61264faec","ios":"levelo://app?vid=b21748b2-fb24-4ee6-8e6a-c7c61264faec"},"vehicle_type_id":"4","last_reported":1777323040,"current_range_meters":4400,"station_id":"","pricing_plan_id":"cebpf4jnsgd1na2vs0mg"},{"bike_id":"02eb0881-bbc3-44ce-bc97-73899e3e348f","system_id":"levelo_inurba_marseille","lat":43.29268,"lon":5.36848,"is_reserved":false,"is_disabled":false,"rental_uris":{"android":"levelo://app?vid=02eb0881-bbc3-44ce-bc97-73899e3e348f","ios":"levelo://app?vid=02eb0881-bbc3-44ce-bc97-73899e3e348f"},"vehicle_type_id":"4","last_reported":1777323040,"current_range_meters":4400,"station_id":"ce4bhbp2rcd13ifvqesg","pricing_plan_id":"cebpf4jnsgd1na2vs0mg"},{"bike_id":"6702339c-6bbd-44c0-bb90-353a1b7436d9","system_id":"levelo_inurba_marseille","lat":43.24634,"lon":5.43146,"is_reserved":false,"is_disabled":false,"rental_uris":{"android":"levelo://app?vid=6702339c-6bbd-44c0-bb90-353a1b7436d9","ios":"levelo://app?vid=6702339c-6bbd-44c0-bb90-353a1b7436d9"},"vehicle_type_id":"4","last_reported":1777323040,"current_range_meters":4400,"station_id":"st_d2m6c4gdas8pm72e190g","pricing_plan_id":"cebpf4jnsgd1na2vs0mg"},{"bike_id":"2faca86e-5660-4455-a7c3-4c262cced12e","system_id":"levelo_inurba_marseille","lat":43.30046,"lon":5.37799,"is_reserved":false,"is_disabled":false,"rental_uris":{"android":"levelo://app?vid=2faca86e-5660-4455-a7c3-4c262cced12e","ios":"levelo://app?vid=2faca86e-5660-4455-a7c3-4c262cced12e"},"vehicle_type_id":"4","last_reported":1777323040,"current_range_meters":4400,"station_id":"","pricing_plan_id":"cebpf4jnsgd1na2vs0mg"},{"bike_id":"91e4eed8-7aa0-4ca6-bc8b-33ffc5693469","system_id":"levelo_inurba_marseille","lat":43.31334,"lon":5.37908,"is_reserved":false,"is_disabled":false,"rental_uris":{"android":"levelo://app?vid=91e4eed8-7aa0-4ca6-bc8b-33ffc5693469","ios":"levelo://app?vid=91e4eed8-7aa0-4ca6-bc8b-33ffc5693469"},"vehicle_type_id":"4","last_reported":1777323040,"current_range_meters":4800,"station_id":"","pricing_plan_id":"cebpf4jnsgd1na2vs0mg"},{"bike_id":"d2a170e9-4683-45e4-8ad8-6a20e503868b","system_id":"levelo_inurba_marseille","lat":43.2551,"lon":5.37659,"is_reserved":false,"is_disabled":true,"rental_uris":{"android":"levelo://app?vid=d2a170e9-4683-45e4-8ad8-6a20e503868b","ios":"levelo://app?vid=d2a170e9-4683-45e4-8ad8-6a20e503868b"},"vehicle_type_id":"4","last_reported":1777323040,"current_range_meters":4800,"station_id":"ce4bhh12rcd13ifvqff0","pricing_plan_id":"cebpf4jnsgd1na2vs0mg"},{"bike_id":"7e17da21-de27-4e4b-9912-876e46bc8a36","system_id":"levelo_inurba_marseille","lat":43.32123,"lon":5.36788,"is_reserved":false,"is_disabled":false,"rental_uris":{"android":"levelo://app?vid=7e17da21-de27-4e4b-9912-876e46bc8a36","ios":"levelo://app?vid=7e17da21-de27-4e4b-9912-876e46bc8a36"},"vehicle_type_id":"4","last_reported":1777323040,"current_range_meters":4800,"station_id":"ce4bhrh2rcd13ifvqhug","pricing_plan_id":"cebpf4jnsgd1na2vs0mg"},{"bike_id":"ad26b8dc-edee-444c-8fc3-cb83169b331a","system_id":"levelo_inurba_marseille","lat":43.28156,"lon":5.42651,"is_reserved":false,"is_disabled":false,"rental_uris":{"android":"levelo://app?vid=ad26b8dc-edee-444c-8fc3-cb83169b331a","ios":"levelo://app?vid=ad26b8dc-edee-444c-8fc3-cb83169b331a"},"vehicle_type_id":"4","last_reported":1777323040,"current_range_meters":4800,"station_id":"ce4bhnh2rcd13ifvqgug","pricing_plan_id":"cebpf4jnsgd1na2vs0mg"},{"bike_id":"6272058f-0af5-4b45-980c-98e1b795b020","system_id":"levelo_inurba_marseille","lat":43.29265,"lon":5.40119,"is_reserved":false,"is_disabled":false,"rental_uris":{"android":"levelo://app?vid=6272058f-0af5-4b45-980c-98e1b795b020","ios":"levelo://app?vid=6272058f-0af5-4b45-980c-98e1b795b020"},"vehicle_type_id":"4","last_reported":1777323040,"current_range_meters":4800,"station_id":"ce4bh312rcd13ifvqdk0","pricing_plan_id":"cebpf4jnsgd1na2vs0mg"},{"bike_id":"70293194-d5cb-42ed-b8ce-7bdd782db57b","system_id":"levelo_inurba_marseille","lat":43.31203,"lon":5.36835,"is_reserved":false,"is_disabled":false,"rental_uris":{"android":"levelo://app?vid=70293194-d5cb-42ed-b8ce-7bdd782db57b","ios":"levelo://app?vid=70293194-d5cb-42ed-b8ce-7bdd782db57b"},"vehicle_type_id":"4","last_reported":1777323040,"current_range_meters":4800,"station_id":"ce4bgl92rcd13ifvqbq0","pricing_plan_id":"cebpf4jnsgd1na2vs0mg"},{"bike_id":"bc5d42a6-d71f-4eff-be5f-831d70a4a1a5","system_id":"levelo_inurba_marseille","lat":43.28036,"lon":5.36951,"is_reserved":false,"is_disabled":false,"rental_uris":{"android":"levelo://app?vid=bc5d42a6-d71f-4eff-be5f-831d70a4a1a5","ios":"levelo://app?vid=bc5d42a6-d71f-4eff-be5f-831d70a4a1a5"},"vehicle_type_id":"4","last_reported":1777323040,"current_range_meters":4800,"station_id":"ce4bha12rcd13ifvqef0","pricing_plan_id":"cebpf4jnsgd1na2vs0mg"},{"bike_id":"0738b116-46d6-4576-94a4-021d359c563e","system_id":"levelo_inurba_marseille","lat":43.28328,"lon":5.38098,"is_reserved":false,"is_disabled":false,"rental_uris":{"android":"levelo://app?vid=0738b116-46d6-4576-94a4-021d359c563e","ios":"levelo://app?vid=0738b116-46d6-4576-94a4-021d359c563e"},"vehicle_type_id":"4","last_reported":1777323040,"current_range_meters":4800,"station_id":"ce4bh412rcd13ifvqdr0","pricing_plan_id":"cebpf4jnsgd1na2vs0mg"},{"bike_id":"3c9ce41d-7d0e-4321-95b6-f75f0599af83","system_id":"levelo_inurba_marseille","lat":43.27989,"lon":5.41653,"is_reserved":false,"is_disabled":false,"rental_uris":{"android":"levelo://app?vid=3c9ce41d-7d0e-4321-95b6-f75f0599af83","ios":"levelo://app?vid=3c9ce41d-7d0e-4321-95b6-f75f0599af83"},"vehicle_type_id":"4","last_reported":1777323040,"current_range_meters":5600,"station_id":"ce4bho12rcd13ifvqh1g","pricing_plan_id":"cebpf4jnsgd1na2vs0mg"},{"bike_id":"10d2c39a-e24d-4c10-9b33-f3f6db153578","system_id":"levelo_inurba_marseille","lat":43.31756,"lon":5.43704,"is_reserved":false,"is_disabled":false,"rental_uris":{"android":"levelo://app?vid=10d2c39a-e24d-4c10-9b33-f3f6db153578","ios":"levelo://app?vid=10d2c39a-e24d-4c10-9b33-f3f6db153578"},"vehicle_type_id":"4","last_reported":1777323040,"current_range_meters":5600,"station_id":"","pricing_plan_id":"cebpf4jnsgd1na2vs0mg"},{"bike_id":"50f8bdff-b169-44f8-8920-840c94d5e30a","system_id":"levelo_inurba_marseille","lat":43.28473,"lon":5.48398,"is_reserved":false,"is_disabled":false,"rental_uris":{"android":"levelo://app?vid=50f8bdff-b169-44f8-8920-840c94d5e30a","ios":"levelo://app?vid=50f8bdff-b169-44f8-8920-840c94d5e30a"},"vehicle_type_id":"4","last_reported":1777323040,"current_range_meters":5600,"station_id":"","pricing_plan_id":"cebpf4jnsgd1na2vs0mg"},{"bike_id":"6b78c163-4287-4bf7-83fd-b36274d8288d","system_id":"levelo_inurba_marseille","lat":43.26762,"lon":5.39441,"is_reserved":false,"is_disabled":false,"rental_uris":{"android":"levelo://app?vid=6b78c163-4287-4bf7-83fd-b36274d8288d","ios":"levelo://app?vid=6b78c163-4287-4bf7-83fd-b36274d8288d"},"vehicle_type_id":"4","last_reported":1777323040,"current_range_meters":5600,"station_id":"","pricing_plan_id":"cebpf4jnsgd1na2vs0mg"},{"bike_id":"1c267b42-3346-4d3e-b54a-e87588a5d7e7","system_id":"levelo_inurba_marseille","lat":43.23162,"lon":5.43706,"is_reserved":false,"is_disabled":false,"rental_uris":{"android":"levelo://app?vid=1c267b42-3346-4d3e-b54a-e87588a5d7e7","ios":"levelo://app?vid=1c267b42-3346-4d3e-b54a-e87588a5d7e7"},"vehicle_type_id":"4","last_reported":1777323040,"current_range_meters":5600,"station_id":"ce4bhmp2rcd13ifvqgog","pricing_plan_id":"cebpf4jnsgd1na2vs0mg"},{"bike_id":"80b161cc-6e40-44e8-9454-73c670e460e2","system_id":"levelo_inurba_marseille","lat":43.28481,"lon":5.48389,"is_reserved":false,"is_disabled":false,"rental_uris":{"android":"levelo://app?vid=80b161cc-6e40-44e8-9454-73c670e460e2","ios":"levelo://app?vid=80b161cc-6e40-44e8-9454-73c670e460e2"},"vehicle_type_id":"4","last_reported":1777323040,"current_range_meters":5600,"station_id":"","pricing_plan_id":"cebpf4jnsgd1na2vs0mg"},{"bike_id":"127186fe-87fe-4347-8c14-2b72a4effa84","system_id":"levelo_inurba_marseille","lat":43.321045,"lon":5.367552,"is_reserved":false,"is_disabled":false,"rental_uris":{"android":"levelo://app?vid=127186fe-87fe-4347-8c14-2b72a4effa84","ios":"levelo://app?vid=127186fe-87fe-4347-8c14-2b72a4effa84"},"vehicle_type_id":"4","last_reported":1777323040,"current_range_meters":5600,"station_id":"ce4bhrh2rcd13ifvqhug","pricing_plan_id":"cebpf4jnsgd1na2vs0mg"},{"bike_id":"96664ea6-aa56-4a76-9a26-e509828ee890","system_id":"levelo_inurba_marseille","lat":43.30092,"lon":5.39079,"is_reserved":false,"is_disabled":false,"rental_uris":{"android":"levelo://app?vid=96664ea6-aa56-4a76-9a26-e509828ee890","ios":"levelo://app?vid=96664ea6-aa56-4a76-9a26-e509828ee890"},"vehicle_type_id":"4","last_reported":1777323040,"current_range_meters":6000,"station_id":"ce4bh192rcd13ifvqdb0","pricing_plan_id":"cebpf4jnsgd1na2vs0mg"},{"bike_id":"ce83843f-6d15-48f4-a0ee-0c7aa98f8faa","system_id":"levelo_inurba_marseille","lat":43.28626,"lon":5.35104,"is_reserved":false,"is_disabled":false,"rental_uris":{"android":"levelo://app?vid=ce83843f-6d15-48f4-a0ee-0c7aa98f8faa","ios":"levelo://app?vid=ce83843f-6d15-48f4-a0ee-0c7aa98f8faa"},"vehicle_type_id":"4","last_reported":1777323040,"current_range_meters":6000,"station_id":"ce4bhch2rcd13ifvqeug","pricing_plan_id":"cebpf4jnsgd1na2vs0mg"},{"bike_id":"31c1a3cc-0f52-470f-8ed5-7a0cd80e82fb","system_id":"levelo_inurba_marseille","lat":43.30536,"lon":5.38423,"is_reserved":false,"is_disabled":false,"rental_uris":{"android":"levelo://app?vid=31c1a3cc-0f52-470f-8ed5-7a0cd80e82fb","ios":"levelo://app?vid=31c1a3cc-0f52-470f-8ed5-7a0cd80e82fb"},"vehicle_type_id":"4","last_reported":1777323040,"current_range_meters":6000,"station_id":"ce4bgg92rcd13ifvqb30","pricing_plan_id":"cebpf4jnsgd1na2vs0mg"},{"bike_id":"95fcacf0-7086-4a79-916d-eb3549d744d3","system_id":"levelo_inurba_marseille","lat":43.337444,"lon":5.374475,"is_reserved":false,"is_disabled":false,"rental_uris":{"android":"levelo://app?vid=95fcacf0-7086-4a79-916d-eb3549d744d3","ios":"levelo://app?vid=95fcacf0-7086-4a79-916d-eb3549d744d3"},"vehicle_type_id":"4","last_reported":1777323040,"current_range_meters":6000,"station_id":"","pricing_plan_id":"cebpf4jnsgd1na2vs0mg"},{"bike_id":"2519ee8d-92c6-419f-941a-6566274d07bb","system_id":"levelo_inurba_marseille","lat":43.30892,"lon":5.39642,"is_reserved":false,"is_disabled":false,"rental_uris":{"android":"levelo://app?vid=2519ee8d-92c6-419f-941a-6566274d07bb","ios":"levelo://app?vid=2519ee8d-92c6-419f-941a-6566274d07bb"},"vehicle_type_id":"4","last_reported":1777323040,"current_range_meters":6000,"station_id":"ce4bh012rcd13ifvqcv0","pricing_plan_id":"cebpf4jnsgd1na2vs0mg"},{"bike_id":"ca59a5ac-a519-4833-a635-42a36071312a","system_id":"levelo_inurba_marseille","lat":43.2963,"lon":5.40594,"is_reserved":false,"is_disabled":false,"rental_uris":{"android":"levelo://app?vid=ca59a5ac-a519-4833-a635-42a36071312a","ios":"levelo://app?vid=ca59a5ac-a519-4833-a635-42a36071312a"},"vehicle_type_id":"4","last_reported":1777323040,"current_range_meters":6000,"station_id":"ce4bh0h2rcd13ifvqd60","pricing_plan_id":"cebpf4jnsgd1na2vs0mg"},{"bike_id":"18722071-dfac-4dc6-9d8b-a193493ec15d","system_id":"levelo_inurba_marseille","lat":43.28614,"lon":5.3988,"is_reserved":false,"is_disabled":false,"rental_uris":{"android":"levelo://app?vid=18722071-dfac-4dc6-9d8b-a193493ec15d","ios":"levelo://app?vid=18722071-dfac-4dc6-9d8b-a193493ec15d"},"vehicle_type_id":"4","last_reported":1777323040,"current_range_meters":6000,"station_id":"st_d4a7ka997mjs738ck50g","pricing_plan_id":"cebpf4jnsgd1na2vs0mg"},{"bike_id":"f0c74e8b-a798-4dae-9ccd-9d533f5a173e","system_id":"levelo_inurba_marseille","lat":43.31197,"lon":5.38698,"is_reserved":false,"is_disabled":true,"rental_uris":{"android":"levelo://app?vid=f0c74e8b-a798-4dae-9ccd-9d533f5a173e","ios":"levelo://app?vid=f0c74e8b-a798-4dae-9ccd-9d533f5a173e"},"vehicle_type_id":"4","last_reported":1777323040,"current_range_meters":6000,"station_id":"ce4bgv12rcd13ifvqcp0","pricing_plan_id":"cebpf4jnsgd1na2vs0mg"},{"bike_id":"dd1a46ba-8d11-4ca4-a48b-231b4cd1a3c5","system_id":"levelo_inurba_marseille","lat":43.28029,"lon":5.36929,"is_reserved":false,"is_disabled":false,"rental_uris":{"android":"levelo://app?vid=dd1a46ba-8d11-4ca4-a48b-231b4cd1a3c5","ios":"levelo://app?vid=dd1a46ba-8d11-4ca4-a48b-231b4cd1a3c5"},"vehicle_type_id":"4","last_reported":1777323040,"current_range_meters":6000,"station_id":"ce4bha12rcd13ifvqef0","pricing_plan_id":"cebpf4jnsgd1na2vs0mg"},{"bike_id":"69a2d223-bf66-4571-9613-79c65e1e1d32","system_id":"levelo_inurba_marseille","lat":43.2971,"lon":5.36596,"is_reserved":false,"is_disabled":false,"rental_uris":{"android":"levelo://app?vid=69a2d223-bf66-4571-9613-79c65e1e1d32","ios":"levelo://app?vid=69a2d223-bf66-4571-9613-79c65e1e1d32"},"vehicle_type_id":"4","last_reported":1777323040,"current_range_meters":6000,"station_id":"ce4bgn12rcd13ifvqbt0","pricing_plan_id":"cebpf4jnsgd1na2vs0mg"},{"bike_id":"fbb49548-0e6f-4f34-b4f9-7953d4130f20","system_id":"levelo_inurba_marseille","lat":43.30313,"lon":5.39178,"is_reserved":false,"is_disabled":false,"rental_uris":{"android":"levelo://app?vid=fbb49548-0e6f-4f34-b4f9-7953d4130f20","ios":"levelo://app?vid=fbb49548-0e6f-4f34-b4f9-7953d4130f20"},"vehicle_type_id":"4","last_reported":1777323040,"current_range_meters":6000,"station_id":"ce4bgkh2rcd13ifvqbk0","pricing_plan_id":"cebpf4jnsgd1na2vs0mg"},{"bike_id":"5367fafd-42a5-4c52-bd35-5d85953af91c","system_id":"levelo_inurba_marseille","lat":43.30938,"lon":5.38027,"is_reserved":false,"is_disabled":true,"rental_uris":{"android":"levelo://app?vid=5367fafd-42a5-4c52-bd35-5d85953af91c","ios":"levelo://app?vid=5367fafd-42a5-4c52-bd35-5d85953af91c"},"vehicle_type_id":"4","last_reported":1777323040,"current_range_meters":6400,"station_id":"","pricing_plan_id":"cebpf4jnsgd1na2vs0mg"},{"bike_id":"6b9ceb44-f98b-4474-bf14-5e53602be7a5","system_id":"levelo_inurba_marseille","lat":43.33544,"lon":5.37462,"is_reserved":false,"is_disabled":false,"rental_uris":{"android":"levelo://app?vid=6b9ceb44-f98b-4474-bf14-5e53602be7a5","ios":"levelo://app?vid=6b9ceb44-f98b-4474-bf14-5e53602be7a5"},"vehicle_type_id":"4","last_reported":1777323040,"current_range_meters":6400,"station_id":"st_d46tts09ee8s73dlu43g","pricing_plan_id":"cebpf4jnsgd1na2vs0mg"},{"bike_id":"55ffa9cb-0e63-4320-8c55-2d765a24cf5f","system_id":"levelo_inurba_marseille","lat":43.2417,"lon":5.36395,"is_reserved":false,"is_disabled":false,"rental_uris":{"android":"levelo://app?vid=55ffa9cb-0e63-4320-8c55-2d765a24cf5f","ios":"levelo://app?vid=55ffa9cb-0e63-4320-8c55-2d765a24cf5f"},"vehicle_type_id":"4","last_reported":1777323040,"current_range_meters":6400,"station_id":"cpo36qri1sfpv3e86is0","pricing_plan_id":"cebpf4jnsgd1na2vs0mg"},{"bike_id":"781d8d3d-fabf-4ca2-9f47-16929586692d","system_id":"levelo_inurba_marseille","lat":43.27516,"lon":5.43483,"is_reserved":false,"is_disabled":false,"rental_uris":{"android":"levelo://app?vid=781d8d3d-fabf-4ca2-9f47-16929586692d","ios":"levelo://app?vid=781d8d3d-fabf-4ca2-9f47-16929586692d"},"vehicle_type_id":"4","last_reported":1777323040,"current_range_meters":6400,"station_id":"","pricing_plan_id":"cebpf4jnsgd1na2vs0mg"},{"bike_id":"bc584a85-6741-4be7-9cde-555047be7d06","system_id":"levelo_inurba_marseille","lat":43.29266,"lon":5.36859,"is_reserved":false,"is_disabled":false,"rental_uris":{"android":"levelo://app?vid=bc584a85-6741-4be7-9cde-555047be7d06","ios":"levelo://app?vid=bc584a85-6741-4be7-9cde-555047be7d06"},"vehicle_type_id":"4","last_reported":1777323040,"current_range_meters":6400,"station_id":"ce4bhbp2rcd13ifvqesg","pricing_plan_id":"cebpf4jnsgd1na2vs0mg"},{"bike_id":"03c9cb36-982a-4f64-b63a-7e83eb3e7ce2","system_id":"levelo_inurba_marseille","lat":43.2903,"lon":5.38663,"is_reserved":false,"is_disabled":false,"rental_uris":{"android":"levelo://app?vid=03c9cb36-982a-4f64-b63a-7e83eb3e7ce2","ios":"levelo://app?vid=03c9cb36-982a-4f64-b63a-7e83eb3e7ce2"},"vehicle_type_id":"4","last_reported":1777323040,"current_range_meters":6400,"station_id":"ce4bh4p2rcd13ifvqe0g","pricing_plan_id":"cebpf4jnsgd1na2vs0mg"},{"bike_id":"f3887d6f-5f58-4650-a2da-9d2cb7467222","system_id":"levelo_inurba_marseille","lat":43.30239,"lon":5.40046,"is_reserved":false,"is_disabled":false,"rental_uris":{"android":"levelo://app?vid=f3887d6f-5f58-4650-a2da-9d2cb7467222","ios":"levelo://app?vid=f3887d6f-5f58-4650-a2da-9d2cb7467222"},"vehicle_type_id":"4","last_reported":1777323040,"current_range_meters":6400,"station_id":"ce4bgvh2rcd13ifvqcs0","pricing_plan_id":"cebpf4jnsgd1na2vs0mg"},{"bike_id":"db5f1b84-43d9-4c3e-87fe-c4a395815fa8","system_id":"levelo_inurba_marseille","lat":43.24945,"lon":5.40496,"is_reserved":false,"is_disabled":false,"rental_uris":{"android":"levelo://app?vid=db5f1b84-43d9-4c3e-87fe-c4a395815fa8","ios":"levelo://app?vid=db5f1b84-43d9-4c3e-87fe-c4a395815fa8"},"vehicle_type_id":"4","last_reported":1777323040,"current_range_meters":6400,"station_id":"st_d2ngiaodas8pm72gd1h0","pricing_plan_id":"cebpf4jnsgd1na2vs0mg"},{"bike_id":"b72807a8-bfdb-4a0b-9f79-6da63ffd78a5","system_id":"levelo_inurba_marseille","lat":43.2742,"lon":5.39418,"is_reserved":false,"is_disabled":false,"rental_uris":{"android":"levelo://app?vid=b72807a8-bfdb-4a0b-9f79-6da63ffd78a5","ios":"levelo://app?vid=b72807a8-bfdb-4a0b-9f79-6da63ffd78a5"},"vehicle_type_id":"4","last_reported":1777323040,"current_range_meters":6400,"station_id":"ce4bhdp2rcd13ifvqf20","pricing_plan_id":"cebpf4jnsgd1na2vs0mg"},{"bike_id":"6c0e44b5-b4c6-4989-a0ec-b3c6d257ac1d","system_id":"levelo_inurba_marseille","lat":43.33186,"lon":5.37828,"is_reserved":false,"is_disabled":false,"rental_uris":{"android":"levelo://app?vid=6c0e44b5-b4c6-4989-a0ec-b3c6d257ac1d","ios":"levelo://app?vid=6c0e44b5-b4c6-4989-a0ec-b3c6d257ac1d"},"vehicle_type_id":"4","last_reported":1777323040,"current_range_meters":6800,"station_id":"","pricing_plan_id":"cebpf4jnsgd1na2vs0mg"},{"bike_id":"64dd6e00-2ed1-401c-87c4-198d2b7f1546","system_id":"levelo_inurba_marseille","lat":43.31696,"lon":5.37735,"is_reserved":false,"is_disabled":false,"rental_uris":{"android":"levelo://app?vid=64dd6e00-2ed1-401c-87c4-198d2b7f1546","ios":"levelo://app?vid=64dd6e00-2ed1-401c-87c4-198d2b7f1546"},"vehicle_type_id":"4","last_reported":1777323040,"current_range_meters":6800,"station_id":"ce4bgth2rcd13ifvqch0","pricing_plan_id":"cebpf4jnsgd1na2vs0mg"},{"bike_id":"2f755aa1-105e-447f-807e-a8d37a45e600","system_id":"levelo_inurba_marseille","lat":43.28969,"lon":5.39303,"is_reserved":false,"is_disabled":false,"rental_uris":{"android":"levelo://app?vid=2f755aa1-105e-447f-807e-a8d37a45e600","ios":"levelo://app?vid=2f755aa1-105e-447f-807e-a8d37a45e600"},"vehicle_type_id":"4","last_reported":1777323040,"current_range_meters":6800,"station_id":"","pricing_plan_id":"cebpf4jnsgd1na2vs0mg"},{"bike_id":"7f38b18c-db7a-4a88-b3c0-50c9b9abb68d","system_id":"levelo_inurba_marseille","lat":43.29522,"lon":5.38548,"is_reserved":false,"is_disabled":false,"rental_uris":{"android":"levelo://app?vid=7f38b18c-db7a-4a88-b3c0-50c9b9abb68d","ios":"levelo://app?vid=7f38b18c-db7a-4a88-b3c0-50c9b9abb68d"},"vehicle_type_id":"4","last_reported":1777323040,"current_range_meters":6800,"station_id":"ce4bgih2rcd13ifvqba0","pricing_plan_id":"cebpf4jnsgd1na2vs0mg"},{"bike_id":"8f13b61e-8a25-4927-8213-0f8d3090195b","system_id":"levelo_inurba_marseille","lat":43.28473,"lon":5.48401,"is_reserved":false,"is_disabled":false,"rental_uris":{"android":"levelo://app?vid=8f13b61e-8a25-4927-8213-0f8d3090195b","ios":"levelo://app?vid=8f13b61e-8a25-4927-8213-0f8d3090195b"},"vehicle_type_id":"4","last_reported":1777323040,"current_range_meters":6800,"station_id":"","pricing_plan_id":"cebpf4jnsgd1na2vs0mg"},{"bike_id":"9f2fc3f7-556e-4c37-a225-50c0d5d924cd","system_id":"levelo_inurba_marseille","lat":43.24632,"lon":5.43161,"is_reserved":false,"is_disabled":false,"rental_uris":{"android":"levelo://app?vid=9f2fc3f7-556e-4c37-a225-50c0d5d924cd","ios":"levelo://app?vid=9f2fc3f7-556e-4c37-a225-50c0d5d924cd"},"vehicle_type_id":"4","last_reported":1777323040,"current_range_meters":6800,"station_id":"st_d2m6c4gdas8pm72e190g","pricing_plan_id":"cebpf4jnsgd1na2vs0mg"},{"bike_id":"d91a79ea-757d-4fb0-822d-efffb3df9a9a","system_id":"levelo_inurba_marseille","lat":43.24636,"lon":5.38885,"is_reserved":false,"is_disabled":false,"rental_uris":{"android":"levelo://app?vid=d91a79ea-757d-4fb0-822d-efffb3df9a9a","ios":"levelo://app?vid=d91a79ea-757d-4fb0-822d-efffb3df9a9a"},"vehicle_type_id":"4","last_reported":1777323040,"current_range_meters":6800,"station_id":"ce4bhg12rcd13ifvqf60","pricing_plan_id":"cebpf4jnsgd1na2vs0mg"},{"bike_id":"10a135a2-04a6-4d1e-81d9-5e55241e54f1","system_id":"levelo_inurba_marseille","lat":43.29527,"lon":5.394,"is_reserved":false,"is_disabled":false,"rental_uris":{"android":"levelo://app?vid=10a135a2-04a6-4d1e-81d9-5e55241e54f1","ios":"levelo://app?vid=10a135a2-04a6-4d1e-81d9-5e55241e54f1"},"vehicle_type_id":"4","last_reported":1777323040,"current_range_meters":6800,"station_id":"ce4bh292rcd13ifvqdf0","pricing_plan_id":"cebpf4jnsgd1na2vs0mg"},{"bike_id":"12811a9c-eb10-4b33-9d8f-ee152e8f6264","system_id":"levelo_inurba_marseille","lat":43.26061,"lon":5.39396,"is_reserved":false,"is_disabled":false,"rental_uris":{"android":"levelo://app?vid=12811a9c-eb10-4b33-9d8f-ee152e8f6264","ios":"levelo://app?vid=12811a9c-eb10-4b33-9d8f-ee152e8f6264"},"vehicle_type_id":"4","last_reported":1777323040,"current_range_meters":6800,"station_id":"ce4bhh92rcd13ifvqfj0","pricing_plan_id":"cebpf4jnsgd1na2vs0mg"},{"bike_id":"df328259-bad9-4e3d-bb17-d852955a2a91","system_id":"levelo_inurba_marseille","lat":43.29557,"lon":5.38544,"is_reserved":false,"is_disabled":false,"rental_uris":{"android":"levelo://app?vid=df328259-bad9-4e3d-bb17-d852955a2a91","ios":"levelo://app?vid=df328259-bad9-4e3d-bb17-d852955a2a91"},"vehicle_type_id":"4","last_reported":1777323040,"current_range_meters":6800,"station_id":"ce4bgih2rcd13ifvqba0","pricing_plan_id":"cebpf4jnsgd1na2vs0mg"},{"bike_id":"b06f20e2-7b40-4e46-b06e-55bc14e04088","system_id":"levelo_inurba_marseille","lat":43.24481,"lon":5.42711,"is_reserved":false,"is_disabled":false,"rental_uris":{"android":"levelo://app?vid=b06f20e2-7b40-4e46-b06e-55bc14e04088","ios":"levelo://app?vid=b06f20e2-7b40-4e46-b06e-55bc14e04088"},"vehicle_type_id":"4","last_reported":1777323040,"current_range_meters":6800,"station_id":"","pricing_plan_id":"cebpf4jnsgd1na2vs0mg"},{"bike_id":"77f1be50-d55c-4753-b02a-0b5e7117e7c7","system_id":"levelo_inurba_marseille","lat":43.31305,"lon":5.38194,"is_reserved":false,"is_disabled":false,"rental_uris":{"android":"levelo://app?vid=77f1be50-d55c-4753-b02a-0b5e7117e7c7","ios":"levelo://app?vid=77f1be50-d55c-4753-b02a-0b5e7117e7c7"},"vehicle_type_id":"4","last_reported":1777323040,"current_range_meters":6800,"station_id":"","pricing_plan_id":"cebpf4jnsgd1na2vs0mg"},{"bike_id":"2e013045-b635-4629-a87d-995ec1628a85","system_id":"levelo_inurba_marseille","lat":43.321,"lon":5.36759,"is_reserved":false,"is_disabled":false,"rental_uris":{"android":"levelo://app?vid=2e013045-b635-4629-a87d-995ec1628a85","ios":"levelo://app?vid=2e013045-b635-4629-a87d-995ec1628a85"},"vehicle_type_id":"4","last_reported":1777323040,"current_range_meters":6800,"station_id":"ce4bhrh2rcd13ifvqhug","pricing_plan_id":"cebpf4jnsgd1na2vs0mg"},{"bike_id":"dfd285f1-0a48-44f6-b0d7-8286d4981c32","system_id":"levelo_inurba_marseille","lat":43.25343,"lon":5.42167,"is_reserved":false,"is_disabled":false,"rental_uris":{"android":"levelo://app?vid=dfd285f1-0a48-44f6-b0d7-8286d4981c32","ios":"levelo://app?vid=dfd285f1-0a48-44f6-b0d7-8286d4981c32"},"vehicle_type_id":"4","last_reported":1777323040,"current_range_meters":6800,"station_id":"st_d2m65c5bi1j21697t3ng","pricing_plan_id":"cebpf4jnsgd1na2vs0mg"},{"bike_id":"6b8549bf-30d2-490f-8f61-d9ca43e4d06c","system_id":"levelo_inurba_marseille","lat":43.27021,"lon":5.40245,"is_reserved":false,"is_disabled":false,"rental_uris":{"android":"levelo://app?vid=6b8549bf-30d2-490f-8f61-d9ca43e4d06c","ios":"levelo://app?vid=6b8549bf-30d2-490f-8f61-d9ca43e4d06c"},"vehicle_type_id":"4","last_reported":1777323040,"current_range_meters":6800,"station_id":"ce4bhk92rcd13ifvqgc0","pricing_plan_id":"cebpf4jnsgd1na2vs0mg"},{"bike_id":"c39de570-e7a4-42a3-bc87-effa0cfb5c9c","system_id":"levelo_inurba_marseille","lat":43.31052,"lon":5.37187,"is_reserved":false,"is_disabled":false,"rental_uris":{"android":"levelo://app?vid=c39de570-e7a4-42a3-bc87-effa0cfb5c9c","ios":"levelo://app?vid=c39de570-e7a4-42a3-bc87-effa0cfb5c9c"},"vehicle_type_id":"4","last_reported":1777323040,"current_range_meters":6800,"station_id":"st_d4kl2rp97mjs73e7tdfg","pricing_plan_id":"cebpf4jnsgd1na2vs0mg"},{"bike_id":"bf755b54-9bfc-4f5a-b759-04d952b762e5","system_id":"levelo_inurba_marseille","lat":43.24397,"lon":5.3707,"is_reserved":false,"is_disabled":false,"rental_uris":{"android":"levelo://app?vid=bf755b54-9bfc-4f5a-b759-04d952b762e5","ios":"levelo://app?vid=bf755b54-9bfc-4f5a-b759-04d952b762e5"},"vehicle_type_id":"4","last_reported":1777323040,"current_range_meters":6800,"station_id":"ce4bhhh2rcd13ifvqfk0","pricing_plan_id":"cebpf4jnsgd1na2vs0mg"},{"bike_id":"d20ccda7-29ef-4aa5-bbf2-63f1e6c3dcf5","system_id":"levelo_inurba_marseille","lat":43.32115,"lon":5.36776,"is_reserved":false,"is_disabled":false,"rental_uris":{"android":"levelo://app?vid=d20ccda7-29ef-4aa5-bbf2-63f1e6c3dcf5","ios":"levelo://app?vid=d20ccda7-29ef-4aa5-bbf2-63f1e6c3dcf5"},"vehicle_type_id":"4","last_reported":1777323040,"current_range_meters":6800,"station_id":"ce4bhrh2rcd13ifvqhug","pricing_plan_id":"cebpf4jnsgd1na2vs0mg"},{"bike_id":"b43d6513-bdf2-4550-bf3c-68478e7a1416","system_id":"levelo_inurba_marseille","lat":43.30208,"lon":5.39467,"is_reserved":false,"is_disabled":false,"rental_uris":{"android":"levelo://app?vid=b43d6513-bdf2-4550-bf3c-68478e7a1416","ios":"levelo://app?vid=b43d6513-bdf2-4550-bf3c-68478e7a1416"},"vehicle_type_id":"4","last_reported":1777323040,"current_range_meters":6800,"station_id":"ce4bh0p2rcd13ifvqd70","pricing_plan_id":"cebpf4jnsgd1na2vs0mg"},{"bike_id":"4a4414d8-683e-4aa3-949c-5f2c0c55a886","system_id":"levelo_inurba_marseille","lat":43.29437,"lon":5.39762,"is_reserved":false,"is_disabled":false,"rental_uris":{"android":"levelo://app?vid=4a4414d8-683e-4aa3-949c-5f2c0c55a886","ios":"levelo://app?vid=4a4414d8-683e-4aa3-949c-5f2c0c55a886"},"vehicle_type_id":"4","last_reported":1777323040,"current_range_meters":6800,"station_id":"ce4bh3h2rcd13ifvqdo0","pricing_plan_id":"cebpf4jnsgd1na2vs0mg"},{"bike_id":"7d24a3ee-0eb9-47a1-8904-33af700bdc69","system_id":"levelo_inurba_marseille","lat":43.28473,"lon":5.48418,"is_reserved":false,"is_disabled":false,"rental_uris":{"android":"levelo://app?vid=7d24a3ee-0eb9-47a1-8904-33af700bdc69","ios":"levelo://app?vid=7d24a3ee-0eb9-47a1-8904-33af700bdc69"},"vehicle_type_id":"4","last_reported":1777323040,"current_range_meters":7200,"station_id":"st_d3svhcjqgbts73a3dn0g","pricing_plan_id":"cebpf4jnsgd1na2vs0mg"},{"bike_id":"27cd71a7-0940-4415-a67f-21597fbf1cd9","system_id":"levelo_inurba_marseille","lat":43.34534,"lon":5.37787,"is_reserved":false,"is_disabled":false,"rental_uris":{"android":"levelo://app?vid=27cd71a7-0940-4415-a67f-21597fbf1cd9","ios":"levelo://app?vid=27cd71a7-0940-4415-a67f-21597fbf1cd9"},"vehicle_type_id":"4","last_reported":1777323040,"current_range_meters":7200,"station_id":"","pricing_plan_id":"cebpf4jnsgd1na2vs0mg"},{"bike_id":"8e77f3ba-38f8-4add-b61b-b2f308d4dba7","system_id":"levelo_inurba_marseille","lat":43.24667,"lon":5.38155,"is_reserved":false,"is_disabled":false,"rental_uris":{"android":"levelo://app?vid=8e77f3ba-38f8-4add-b61b-b2f308d4dba7","ios":"levelo://app?vid=8e77f3ba-38f8-4add-b61b-b2f308d4dba7"},"vehicle_type_id":"4","last_reported":1777323040,"current_range_meters":7200,"station_id":"ce4bhih2rcd13ifvqfr0","pricing_plan_id":"cebpf4jnsgd1na2vs0mg"},{"bike_id":"4ba88d8e-2daa-44b9-94a7-860408423931","system_id":"levelo_inurba_marseille","lat":43.30467,"lon":5.38906,"is_reserved":false,"is_disabled":false,"rental_uris":{"android":"levelo://app?vid=4ba88d8e-2daa-44b9-94a7-860408423931","ios":"levelo://app?vid=4ba88d8e-2daa-44b9-94a7-860408423931"},"vehicle_type_id":"4","last_reported":1777323040,"current_range_meters":7200,"station_id":"ce4bgk12rcd13ifvqbi0","pricing_plan_id":"cebpf4jnsgd1na2vs0mg"},{"bike_id":"99b0db6f-dcff-4455-9282-a2a21a6ff5c6","system_id":"levelo_inurba_marseille","lat":43.29206,"lon":5.3931,"is_reserved":false,"is_disabled":false,"rental_uris":{"android":"levelo://app?vid=99b0db6f-dcff-4455-9282-a2a21a6ff5c6","ios":"levelo://app?vid=99b0db6f-dcff-4455-9282-a2a21a6ff5c6"},"vehicle_type_id":"4","last_reported":1777323040,"current_range_meters":7200,"station_id":"ce4bh192rcd13ifvqdd0","pricing_plan_id":"cebpf4jnsgd1na2vs0mg"},{"bike_id":"b504488c-4a5c-43df-b299-e768506d1980","system_id":"levelo_inurba_marseille","lat":43.29305,"lon":5.37192,"is_reserved":false,"is_disabled":true,"rental_uris":{"android":"levelo://app?vid=b504488c-4a5c-43df-b299-e768506d1980","ios":"levelo://app?vid=b504488c-4a5c-43df-b299-e768506d1980"},"vehicle_type_id":"4","last_reported":1777323040,"current_range_meters":7200,"station_id":"ce4bgh92rcd13ifvqb40","pricing_plan_id":"cebpf4jnsgd1na2vs0mg"},{"bike_id":"65be2cd8-ab0d-46ba-80d2-20d5752f09bd","system_id":"levelo_inurba_marseille","lat":43.33041,"lon":5.39053,"is_reserved":false,"is_disabled":false,"rental_uris":{"android":"levelo://app?vid=65be2cd8-ab0d-46ba-80d2-20d5752f09bd","ios":"levelo://app?vid=65be2cd8-ab0d-46ba-80d2-20d5752f09bd"},"vehicle_type_id":"4","last_reported":1777323040,"current_range_meters":7200,"station_id":"ce4bhr92rcd13ifvqhrg","pricing_plan_id":"cebpf4jnsgd1na2vs0mg"},{"bike_id":"9f9ab910-a023-4363-9524-c19e2f166cf1","system_id":"levelo_inurba_marseille","lat":43.31992,"lon":5.38152,"is_reserved":false,"is_disabled":false,"rental_uris":{"android":"levelo://app?vid=9f9ab910-a023-4363-9524-c19e2f166cf1","ios":"levelo://app?vid=9f9ab910-a023-4363-9524-c19e2f166cf1"},"vehicle_type_id":"4","last_reported":1777323040,"current_range_meters":7200,"station_id":"ce4bhr12rcd13ifvqhpg","pricing_plan_id":"cebpf4jnsgd1na2vs0mg"},{"bike_id":"64633d88-7e11-4956-bb07-afe41f84a160","system_id":"levelo_inurba_marseille","lat":43.31097,"lon":5.37787,"is_reserved":false,"is_disabled":false,"rental_uris":{"android":"levelo://app?vid=64633d88-7e11-4956-bb07-afe41f84a160","ios":"levelo://app?vid=64633d88-7e11-4956-bb07-afe41f84a160"},"vehicle_type_id":"4","last_reported":1777323040,"current_range_meters":7200,"station_id":"ce4bgt92rcd13ifvqcg0","pricing_plan_id":"cebpf4jnsgd1na2vs0mg"},{"bike_id":"336f5cbc-6c28-4ddb-88c7-6ffc052d9724","system_id":"levelo_inurba_marseille","lat":43.31722,"lon":5.42399,"is_reserved":false,"is_disabled":false,"rental_uris":{"android":"levelo://app?vid=336f5cbc-6c28-4ddb-88c7-6ffc052d9724","ios":"levelo://app?vid=336f5cbc-6c28-4ddb-88c7-6ffc052d9724"},"vehicle_type_id":"4","last_reported":1777323040,"current_range_meters":7200,"station_id":"ce4bhp92rcd13ifvqhbg","pricing_plan_id":"cebpf4jnsgd1na2vs0mg"},{"bike_id":"2e1487b5-ffbe-4174-a3cb-5f2ca03b60ce","system_id":"levelo_inurba_marseille","lat":43.28471,"lon":5.48395,"is_reserved":false,"is_disabled":false,"rental_uris":{"android":"levelo://app?vid=2e1487b5-ffbe-4174-a3cb-5f2ca03b60ce","ios":"levelo://app?vid=2e1487b5-ffbe-4174-a3cb-5f2ca03b60ce"},"vehicle_type_id":"4","last_reported":1777323040,"current_range_meters":7200,"station_id":"st_d3svhcjqgbts73a3dn0g","pricing_plan_id":"cebpf4jnsgd1na2vs0mg"},{"bike_id":"0f1d3d83-e8b0-4d8e-a0c9-aba4c5bbe46c","system_id":"levelo_inurba_marseille","lat":43.28934,"lon":5.36631,"is_reserved":false,"is_disabled":true,"rental_uris":{"android":"levelo://app?vid=0f1d3d83-e8b0-4d8e-a0c9-aba4c5bbe46c","ios":"levelo://app?vid=0f1d3d83-e8b0-4d8e-a0c9-aba4c5bbe46c"},"vehicle_type_id":"4","last_reported":1777323040,"current_range_meters":7200,"station_id":"ce4bhap2rcd13ifvqek0","pricing_plan_id":"cebpf4jnsgd1na2vs0mg"},{"bike_id":"58ed6a13-d208-4ebb-82ad-8708a5bbec55","system_id":"levelo_inurba_marseille","lat":43.32091,"lon":5.36782,"is_reserved":false,"is_disabled":false,"rental_uris":{"android":"levelo://app?vid=58ed6a13-d208-4ebb-82ad-8708a5bbec55","ios":"levelo://app?vid=58ed6a13-d208-4ebb-82ad-8708a5bbec55"},"vehicle_type_id":"4","last_reported":1777323040,"current_range_meters":7200,"station_id":"ce4bhrh2rcd13ifvqhug","pricing_plan_id":"cebpf4jnsgd1na2vs0mg"},{"bike_id":"f13fe151-afeb-4327-9952-17422c4d2706","system_id":"levelo_inurba_marseille","lat":43.25411,"lon":5.41892,"is_reserved":false,"is_disabled":false,"rental_uris":{"android":"levelo://app?vid=f13fe151-afeb-4327-9952-17422c4d2706","ios":"levelo://app?vid=f13fe151-afeb-4327-9952-17422c4d2706"},"vehicle_type_id":"4","last_reported":1777323040,"current_range_meters":7200,"station_id":"","pricing_plan_id":"cebpf4jnsgd1na2vs0mg"},{"bike_id":"1d51c702-75ba-494d-89c9-6b8c4379e860","system_id":"levelo_inurba_marseille","lat":43.3123,"lon":5.37805,"is_reserved":false,"is_disabled":false,"rental_uris":{"android":"levelo://app?vid=1d51c702-75ba-494d-89c9-6b8c4379e860","ios":"levelo://app?vid=1d51c702-75ba-494d-89c9-6b8c4379e860"},"vehicle_type_id":"4","last_reported":1777323040,"current_range_meters":7200,"station_id":"","pricing_plan_id":"cebpf4jnsgd1na2vs0mg"},{"bike_id":"6a0bc5c6-e1ef-4eb0-babb-772131768c32","system_id":"levelo_inurba_marseille","lat":43.30888,"lon":5.37192,"is_reserved":false,"is_disabled":false,"rental_uris":{"android":"levelo://app?vid=6a0bc5c6-e1ef-4eb0-babb-772131768c32","ios":"levelo://app?vid=6a0bc5c6-e1ef-4eb0-babb-772131768c32"},"vehicle_type_id":"4","last_reported":1777323040,"current_range_meters":7200,"station_id":"ce4bguh2rcd13ifvqckg","pricing_plan_id":"cebpf4jnsgd1na2vs0mg"},{"bike_id":"857afe8d-0afc-4ff7-bb19-627f3197cacc","system_id":"levelo_inurba_marseille","lat":43.26554,"lon":5.37307,"is_reserved":false,"is_disabled":false,"rental_uris":{"android":"levelo://app?vid=857afe8d-0afc-4ff7-bb19-627f3197cacc","ios":"levelo://app?vid=857afe8d-0afc-4ff7-bb19-627f3197cacc"},"vehicle_type_id":"4","last_reported":1777323040,"current_range_meters":8000,"station_id":"ce4bhg12rcd13ifvqf70","pricing_plan_id":"cebpf4jnsgd1na2vs0mg"},{"bike_id":"2207323a-44e2-4f1a-a95e-92cd1d0b6f9b","system_id":"levelo_inurba_marseille","lat":43.29179,"lon":5.35807,"is_reserved":false,"is_disabled":false,"rental_uris":{"android":"levelo://app?vid=2207323a-44e2-4f1a-a95e-92cd1d0b6f9b","ios":"levelo://app?vid=2207323a-44e2-4f1a-a95e-92cd1d0b6f9b"},"vehicle_type_id":"4","last_reported":1777323040,"current_range_meters":8000,"station_id":"ce4bhb12rcd13ifvqel0","pricing_plan_id":"cebpf4jnsgd1na2vs0mg"},{"bike_id":"76469572-77fb-432e-86fd-cc17bd3e6a98","system_id":"levelo_inurba_marseille","lat":43.29526,"lon":5.39403,"is_reserved":false,"is_disabled":false,"rental_uris":{"android":"levelo://app?vid=76469572-77fb-432e-86fd-cc17bd3e6a98","ios":"levelo://app?vid=76469572-77fb-432e-86fd-cc17bd3e6a98"},"vehicle_type_id":"4","last_reported":1777323040,"current_range_meters":8000,"station_id":"ce4bh292rcd13ifvqdf0","pricing_plan_id":"cebpf4jnsgd1na2vs0mg"},{"bike_id":"14869599-ab60-4e86-8f2c-d0b35d29b95e","system_id":"levelo_inurba_marseille","lat":43.25616,"lon":5.41867,"is_reserved":false,"is_disabled":false,"rental_uris":{"android":"levelo://app?vid=14869599-ab60-4e86-8f2c-d0b35d29b95e","ios":"levelo://app?vid=14869599-ab60-4e86-8f2c-d0b35d29b95e"},"vehicle_type_id":"4","last_reported":1777323040,"current_range_meters":8000,"station_id":"","pricing_plan_id":"cebpf4jnsgd1na2vs0mg"},{"bike_id":"e993cba1-46e4-4461-855f-3f2092ae4ac8","system_id":"levelo_inurba_marseille","lat":43.2843,"lon":5.35,"is_reserved":false,"is_disabled":true,"rental_uris":{"android":"levelo://app?vid=e993cba1-46e4-4461-855f-3f2092ae4ac8","ios":"levelo://app?vid=e993cba1-46e4-4461-855f-3f2092ae4ac8"},"vehicle_type_id":"4","last_reported":1777323040,"current_range_meters":8000,"station_id":"ce4bhbh2rcd13ifvqepg","pricing_plan_id":"cebpf4jnsgd1na2vs0mg"},{"bike_id":"ba620f84-46cc-4f3a-aef3-014ddc408667","system_id":"levelo_inurba_marseille","lat":43.3089,"lon":5.39628,"is_reserved":false,"is_disabled":false,"rental_uris":{"android":"levelo://app?vid=ba620f84-46cc-4f3a-aef3-014ddc408667","ios":"levelo://app?vid=ba620f84-46cc-4f3a-aef3-014ddc408667"},"vehicle_type_id":"4","last_reported":1777323040,"current_range_meters":8000,"station_id":"ce4bh012rcd13ifvqcv0","pricing_plan_id":"cebpf4jnsgd1na2vs0mg"},{"bike_id":"4d06cad1-2e4a-4159-99f3-38d6bcb9cc90","system_id":"levelo_inurba_marseille","lat":43.23197,"lon":5.35549,"is_reserved":false,"is_disabled":false,"rental_uris":{"android":"levelo://app?vid=4d06cad1-2e4a-4159-99f3-38d6bcb9cc90","ios":"levelo://app?vid=4d06cad1-2e4a-4159-99f3-38d6bcb9cc90"},"vehicle_type_id":"4","last_reported":1777323040,"current_range_meters":8000,"station_id":"ce4bhu92rcd13ifvqi70","pricing_plan_id":"cebpf4jnsgd1na2vs0mg"},{"bike_id":"c5eb2544-6363-4bb7-8f1a-002e9224c711","system_id":"levelo_inurba_marseille","lat":43.31166,"lon":5.38715,"is_reserved":false,"is_disabled":false,"rental_uris":{"android":"levelo://app?vid=c5eb2544-6363-4bb7-8f1a-002e9224c711","ios":"levelo://app?vid=c5eb2544-6363-4bb7-8f1a-002e9224c711"},"vehicle_type_id":"4","last_reported":1777323040,"current_range_meters":8000,"station_id":"ce4bgv12rcd13ifvqcp0","pricing_plan_id":"cebpf4jnsgd1na2vs0mg"},{"bike_id":"9ce63d40-6d31-4810-9d08-18099d265915","system_id":"levelo_inurba_marseille","lat":43.3013,"lon":5.39865,"is_reserved":false,"is_disabled":false,"rental_uris":{"android":"levelo://app?vid=9ce63d40-6d31-4810-9d08-18099d265915","ios":"levelo://app?vid=9ce63d40-6d31-4810-9d08-18099d265915"},"vehicle_type_id":"4","last_reported":1777323040,"current_range_meters":8000,"station_id":"ce4bh0h2rcd13ifvqd40","pricing_plan_id":"cebpf4jnsgd1na2vs0mg"},{"bike_id":"486a6bd7-6877-47a7-872d-b6d92138ce35","system_id":"levelo_inurba_marseille","lat":43.28166,"lon":5.42632,"is_reserved":false,"is_disabled":false,"rental_uris":{"android":"levelo://app?vid=486a6bd7-6877-47a7-872d-b6d92138ce35","ios":"levelo://app?vid=486a6bd7-6877-47a7-872d-b6d92138ce35"},"vehicle_type_id":"4","last_reported":1777323040,"current_range_meters":8000,"station_id":"ce4bhnh2rcd13ifvqgug","pricing_plan_id":"cebpf4jnsgd1na2vs0mg"},{"bike_id":"1b777b2a-868b-41f8-a934-5ffefe1d9742","system_id":"levelo_inurba_marseille","lat":43.28078,"lon":5.39651,"is_reserved":false,"is_disabled":false,"rental_uris":{"android":"levelo://app?vid=1b777b2a-868b-41f8-a934-5ffefe1d9742","ios":"levelo://app?vid=1b777b2a-868b-41f8-a934-5ffefe1d9742"},"vehicle_type_id":"4","last_reported":1777323040,"current_range_meters":8000,"station_id":"ce4bho12rcd13ifvqh2g","pricing_plan_id":"cebpf4jnsgd1na2vs0mg"},{"bike_id":"afd36c34-6084-49cf-9c01-70cd56abaa23","system_id":"levelo_inurba_marseille","lat":43.2927,"lon":5.3685,"is_reserved":false,"is_disabled":false,"rental_uris":{"android":"levelo://app?vid=afd36c34-6084-49cf-9c01-70cd56abaa23","ios":"levelo://app?vid=afd36c34-6084-49cf-9c01-70cd56abaa23"},"vehicle_type_id":"4","last_reported":1777323040,"current_range_meters":8000,"station_id":"ce4bhbp2rcd13ifvqesg","pricing_plan_id":"cebpf4jnsgd1na2vs0mg"},{"bike_id":"2bd163fc-38f0-45ea-a9a5-aeef2cac66b7","system_id":"levelo_inurba_marseille","lat":43.29618,"lon":5.38095,"is_reserved":false,"is_disabled":false,"rental_uris":{"android":"levelo://app?vid=2bd163fc-38f0-45ea-a9a5-aeef2cac66b7","ios":"levelo://app?vid=2bd163fc-38f0-45ea-a9a5-aeef2cac66b7"},"vehicle_type_id":"4","last_reported":1777323040,"current_range_meters":8000,"station_id":"ce4bgl12rcd13ifvqbo0","pricing_plan_id":"cebpf4jnsgd1na2vs0mg"},{"bike_id":"5966df63-83c6-4f34-ae95-a22fe39c03ab","system_id":"levelo_inurba_marseille","lat":43.26564,"lon":5.39032,"is_reserved":false,"is_disabled":true,"rental_uris":{"android":"levelo://app?vid=5966df63-83c6-4f34-ae95-a22fe39c03ab","ios":"levelo://app?vid=5966df63-83c6-4f34-ae95-a22fe39c03ab"},"vehicle_type_id":"4","last_reported":1777323040,"current_range_meters":8000,"station_id":"ce4bhe12rcd13ifvqf30","pricing_plan_id":"cebpf4jnsgd1na2vs0mg"},{"bike_id":"272adfe1-16c9-4d3d-bb04-2ed96330910c","system_id":"levelo_inurba_marseille","lat":43.28868,"lon":5.39303,"is_reserved":false,"is_disabled":false,"rental_uris":{"android":"levelo://app?vid=272adfe1-16c9-4d3d-bb04-2ed96330910c","ios":"levelo://app?vid=272adfe1-16c9-4d3d-bb04-2ed96330910c"},"vehicle_type_id":"4","last_reported":1777323040,"current_range_meters":8000,"station_id":"ce4bh2p2rcd13ifvqdi0","pricing_plan_id":"cebpf4jnsgd1na2vs0mg"},{"bike_id":"906bb9fa-4cee-445f-bfb8-ea0d07cc33ac","system_id":"levelo_inurba_marseille","lat":43.28392,"lon":5.38107,"is_reserved":false,"is_disabled":false,"rental_uris":{"android":"levelo://app?vid=906bb9fa-4cee-445f-bfb8-ea0d07cc33ac","ios":"levelo://app?vid=906bb9fa-4cee-445f-bfb8-ea0d07cc33ac"},"vehicle_type_id":"4","last_reported":1777323040,"current_range_meters":8400,"station_id":"ce4bh412rcd13ifvqdr0","pricing_plan_id":"cebpf4jnsgd1na2vs0mg"},{"bike_id":"0d4dfb01-63c5-4be7-bdb0-5163c6b2578c","system_id":"levelo_inurba_marseille","lat":43.31898,"lon":5.3682,"is_reserved":false,"is_disabled":false,"rental_uris":{"android":"levelo://app?vid=0d4dfb01-63c5-4be7-bdb0-5163c6b2578c","ios":"levelo://app?vid=0d4dfb01-63c5-4be7-bdb0-5163c6b2578c"},"vehicle_type_id":"4","last_reported":1777323040,"current_range_meters":8400,"station_id":"st_d6o2h0d0559c73evc1b0","pricing_plan_id":"cebpf4jnsgd1na2vs0mg"},{"bike_id":"f34173ba-e522-42fc-89f1-ad871c6b29c4","system_id":"levelo_inurba_marseille","lat":43.29489,"lon":5.43303,"is_reserved":false,"is_disabled":false,"rental_uris":{"android":"levelo://app?vid=f34173ba-e522-42fc-89f1-ad871c6b29c4","ios":"levelo://app?vid=f34173ba-e522-42fc-89f1-ad871c6b29c4"},"vehicle_type_id":"4","last_reported":1777323040,"current_range_meters":8400,"station_id":"st_d3j5ugp08ojc73fj9d10","pricing_plan_id":"cebpf4jnsgd1na2vs0mg"},{"bike_id":"f447fec5-f118-42c2-be2c-8ef32b6d20a2","system_id":"levelo_inurba_marseille","lat":43.25963,"lon":5.41685,"is_reserved":false,"is_disabled":false,"rental_uris":{"android":"levelo://app?vid=f447fec5-f118-42c2-be2c-8ef32b6d20a2","ios":"levelo://app?vid=f447fec5-f118-42c2-be2c-8ef32b6d20a2"},"vehicle_type_id":"4","last_reported":1777323040,"current_range_meters":8400,"station_id":"","pricing_plan_id":"cebpf4jnsgd1na2vs0mg"},{"bike_id":"ce68b828-fb91-43d4-ac0c-ceb9763b3f0b","system_id":"levelo_inurba_marseille","lat":43.29492,"lon":5.38553,"is_reserved":false,"is_disabled":false,"rental_uris":{"android":"levelo://app?vid=ce68b828-fb91-43d4-ac0c-ceb9763b3f0b","ios":"levelo://app?vid=ce68b828-fb91-43d4-ac0c-ceb9763b3f0b"},"vehicle_type_id":"4","last_reported":1777323040,"current_range_meters":8400,"station_id":"ce4bgih2rcd13ifvqba0","pricing_plan_id":"cebpf4jnsgd1na2vs0mg"},{"bike_id":"e593377f-0b04-468e-be39-461905e9f322","system_id":"levelo_inurba_marseille","lat":43.24658,"lon":5.389,"is_reserved":false,"is_disabled":false,"rental_uris":{"android":"levelo://app?vid=e593377f-0b04-468e-be39-461905e9f322","ios":"levelo://app?vid=e593377f-0b04-468e-be39-461905e9f322"},"vehicle_type_id":"4","last_reported":1777323040,"current_range_meters":8400,"station_id":"ce4bhg12rcd13ifvqf60","pricing_plan_id":"cebpf4jnsgd1na2vs0mg"},{"bike_id":"8ac0bd5f-2f2a-4833-ada5-2e9beded5ddb","system_id":"levelo_inurba_marseille","lat":43.31503,"lon":5.39136,"is_reserved":false,"is_disabled":false,"rental_uris":{"android":"levelo://app?vid=8ac0bd5f-2f2a-4833-ada5-2e9beded5ddb","ios":"levelo://app?vid=8ac0bd5f-2f2a-4833-ada5-2e9beded5ddb"},"vehicle_type_id":"4","last_reported":1777323040,"current_range_meters":8400,"station_id":"","pricing_plan_id":"cebpf4jnsgd1na2vs0mg"},{"bike_id":"16d472fe-eb19-4acc-8aa8-94088ad37de6","system_id":"levelo_inurba_marseille","lat":43.35174,"lon":5.36402,"is_reserved":false,"is_disabled":false,"rental_uris":{"android":"levelo://app?vid=16d472fe-eb19-4acc-8aa8-94088ad37de6","ios":"levelo://app?vid=16d472fe-eb19-4acc-8aa8-94088ad37de6"},"vehicle_type_id":"4","last_reported":1777323040,"current_range_meters":8400,"station_id":"","pricing_plan_id":"cebpf4jnsgd1na2vs0mg"},{"bike_id":"e5cd69c7-9379-4379-93b8-62cf25a54177","system_id":"levelo_inurba_marseille","lat":43.337497,"lon":5.374492,"is_reserved":false,"is_disabled":false,"rental_uris":{"android":"levelo://app?vid=e5cd69c7-9379-4379-93b8-62cf25a54177","ios":"levelo://app?vid=e5cd69c7-9379-4379-93b8-62cf25a54177"},"vehicle_type_id":"4","last_reported":1777323040,"current_range_meters":8400,"station_id":"","pricing_plan_id":"cebpf4jnsgd1na2vs0mg"},{"bike_id":"f9f92c5c-5f51-4e1c-a4a4-da02d7396e3a","system_id":"levelo_inurba_marseille","lat":43.21746,"lon":5.34609,"is_reserved":false,"is_disabled":false,"rental_uris":{"android":"levelo://app?vid=f9f92c5c-5f51-4e1c-a4a4-da02d7396e3a","ios":"levelo://app?vid=f9f92c5c-5f51-4e1c-a4a4-da02d7396e3a"},"vehicle_type_id":"4","last_reported":1777323040,"current_range_meters":8400,"station_id":"st_cvj6r9ubvosntc0bgbag","pricing_plan_id":"cebpf4jnsgd1na2vs0mg"},{"bike_id":"2b2662f1-d28b-44f2-b2c8-61c6569e4c3d","system_id":"levelo_inurba_marseille","lat":43.2927,"lon":5.40116,"is_reserved":false,"is_disabled":true,"rental_uris":{"android":"levelo://app?vid=2b2662f1-d28b-44f2-b2c8-61c6569e4c3d","ios":"levelo://app?vid=2b2662f1-d28b-44f2-b2c8-61c6569e4c3d"},"vehicle_type_id":"4","last_reported":1777323040,"current_range_meters":8400,"station_id":"ce4bh312rcd13ifvqdk0","pricing_plan_id":"cebpf4jnsgd1na2vs0mg"},{"bike_id":"3109b0e0-cfd8-4009-92c0-9fa7911dfae1","system_id":"levelo_inurba_marseille","lat":43.31325,"lon":5.39678,"is_reserved":false,"is_disabled":false,"rental_uris":{"android":"levelo://app?vid=3109b0e0-cfd8-4009-92c0-9fa7911dfae1","ios":"levelo://app?vid=3109b0e0-cfd8-4009-92c0-9fa7911dfae1"},"vehicle_type_id":"4","last_reported":1777323040,"current_range_meters":8400,"station_id":"ce4bgvp2rcd13ifvqcu0","pricing_plan_id":"cebpf4jnsgd1na2vs0mg"},{"bike_id":"369ccb57-d03b-41f4-a2b8-8a53088742e0","system_id":"levelo_inurba_marseille","lat":43.29764,"lon":5.39344,"is_reserved":false,"is_disabled":false,"rental_uris":{"android":"levelo://app?vid=369ccb57-d03b-41f4-a2b8-8a53088742e0","ios":"levelo://app?vid=369ccb57-d03b-41f4-a2b8-8a53088742e0"},"vehicle_type_id":"4","last_reported":1777323040,"current_range_meters":8400,"station_id":"chh1huq6cuj3fo74tm60","pricing_plan_id":"cebpf4jnsgd1na2vs0mg"},{"bike_id":"a7ef47ae-ac7a-4811-8371-2ebdbd6eea38","system_id":"levelo_inurba_marseille","lat":43.21751,"lon":5.34612,"is_reserved":false,"is_disabled":false,"rental_uris":{"android":"levelo://app?vid=a7ef47ae-ac7a-4811-8371-2ebdbd6eea38","ios":"levelo://app?vid=a7ef47ae-ac7a-4811-8371-2ebdbd6eea38"},"vehicle_type_id":"4","last_reported":1777323040,"current_range_meters":8400,"station_id":"st_cvj6r9ubvosntc0bgbag","pricing_plan_id":"cebpf4jnsgd1na2vs0mg"},{"bike_id":"d14de05e-8665-4c3d-949e-102c763303bf","system_id":"levelo_inurba_marseille","lat":43.2861,"lon":5.37056,"is_reserved":false,"is_disabled":false,"rental_uris":{"android":"levelo://app?vid=d14de05e-8665-4c3d-949e-102c763303bf","ios":"levelo://app?vid=d14de05e-8665-4c3d-949e-102c763303bf"},"vehicle_type_id":"4","last_reported":1777323040,"current_range_meters":8400,"station_id":"ce4bht12rcd13ifvqi60","pricing_plan_id":"cebpf4jnsgd1na2vs0mg"},{"bike_id":"f7cd50ab-86b6-4ec0-a44d-57bbb6fb2471","system_id":"levelo_inurba_marseille","lat":43.28852,"lon":5.39333,"is_reserved":false,"is_disabled":false,"rental_uris":{"android":"levelo://app?vid=f7cd50ab-86b6-4ec0-a44d-57bbb6fb2471","ios":"levelo://app?vid=f7cd50ab-86b6-4ec0-a44d-57bbb6fb2471"},"vehicle_type_id":"4","last_reported":1777323040,"current_range_meters":8400,"station_id":"ce4bh2p2rcd13ifvqdi0","pricing_plan_id":"cebpf4jnsgd1na2vs0mg"},{"bike_id":"b4d9b492-c746-46ed-bddf-343e9b749f81","system_id":"levelo_inurba_marseille","lat":43.337,"lon":5.36921,"is_reserved":false,"is_disabled":true,"rental_uris":{"android":"levelo://app?vid=b4d9b492-c746-46ed-bddf-343e9b749f81","ios":"levelo://app?vid=b4d9b492-c746-46ed-bddf-343e9b749f81"},"vehicle_type_id":"4","last_reported":1777323040,"current_range_meters":8400,"station_id":"","pricing_plan_id":"cebpf4jnsgd1na2vs0mg"},{"bike_id":"d0633771-e198-482e-aee8-099fb72776d5","system_id":"levelo_inurba_marseille","lat":43.23187,"lon":5.39996,"is_reserved":false,"is_disabled":true,"rental_uris":{"android":"levelo://app?vid=d0633771-e198-482e-aee8-099fb72776d5","ios":"levelo://app?vid=d0633771-e198-482e-aee8-099fb72776d5"},"vehicle_type_id":"4","last_reported":1777323040,"current_range_meters":8400,"station_id":"ce4bhn12rcd13ifvqgqg","pricing_plan_id":"cebpf4jnsgd1na2vs0mg"},{"bike_id":"9daae5fc-029a-4575-8080-71abfd7ee94e","system_id":"levelo_inurba_marseille","lat":43.2119,"lon":5.35078,"is_reserved":false,"is_disabled":false,"rental_uris":{"android":"levelo://app?vid=9daae5fc-029a-4575-8080-71abfd7ee94e","ios":"levelo://app?vid=9daae5fc-029a-4575-8080-71abfd7ee94e"},"vehicle_type_id":"4","last_reported":1777323040,"current_range_meters":8400,"station_id":"st_cvj6sg6p6f1abm77japg","pricing_plan_id":"cebpf4jnsgd1na2vs0mg"},{"bike_id":"f68f1035-28b2-4d29-bb46-2eba59d9dd05","system_id":"levelo_inurba_marseille","lat":43.2904,"lon":5.35921,"is_reserved":false,"is_disabled":false,"rental_uris":{"android":"levelo://app?vid=f68f1035-28b2-4d29-bb46-2eba59d9dd05","ios":"levelo://app?vid=f68f1035-28b2-4d29-bb46-2eba59d9dd05"},"vehicle_type_id":"4","last_reported":1777323040,"current_range_meters":8400,"station_id":"ce4bha92rcd13ifvqeg0","pricing_plan_id":"cebpf4jnsgd1na2vs0mg"},{"bike_id":"14015fc9-b839-4138-b4d5-9a2f5afbe521","system_id":"levelo_inurba_marseille","lat":43.30374,"lon":5.42489,"is_reserved":false,"is_disabled":false,"rental_uris":{"android":"levelo://app?vid=14015fc9-b839-4138-b4d5-9a2f5afbe521","ios":"levelo://app?vid=14015fc9-b839-4138-b4d5-9a2f5afbe521"},"vehicle_type_id":"4","last_reported":1777323040,"current_range_meters":8400,"station_id":"ce4bhoh2rcd13ifvqh6g","pricing_plan_id":"cebpf4jnsgd1na2vs0mg"},{"bike_id":"9fed3a5c-0aca-4ed1-86eb-2c9e50a3033f","system_id":"levelo_inurba_marseille","lat":43.30911,"lon":5.40151,"is_reserved":false,"is_disabled":false,"rental_uris":{"android":"levelo://app?vid=9fed3a5c-0aca-4ed1-86eb-2c9e50a3033f","ios":"levelo://app?vid=9fed3a5c-0aca-4ed1-86eb-2c9e50a3033f"},"vehicle_type_id":"4","last_reported":1777323040,"current_range_meters":8400,"station_id":"ce4bgvp2rcd13ifvqct0","pricing_plan_id":"cebpf4jnsgd1na2vs0mg"},{"bike_id":"dc4f256b-dad1-4b0e-b0aa-70815278bacb","system_id":"levelo_inurba_marseille","lat":43.28967,"lon":5.39318,"is_reserved":false,"is_disabled":false,"rental_uris":{"android":"levelo://app?vid=dc4f256b-dad1-4b0e-b0aa-70815278bacb","ios":"levelo://app?vid=dc4f256b-dad1-4b0e-b0aa-70815278bacb"},"vehicle_type_id":"4","last_reported":1777323040,"current_range_meters":8400,"station_id":"","pricing_plan_id":"cebpf4jnsgd1na2vs0mg"},{"bike_id":"52773601-2a24-4a86-9c82-463ed16cf75e","system_id":"levelo_inurba_marseille","lat":43.2623,"lon":5.3878,"is_reserved":false,"is_disabled":false,"rental_uris":{"android":"levelo://app?vid=52773601-2a24-4a86-9c82-463ed16cf75e","ios":"levelo://app?vid=52773601-2a24-4a86-9c82-463ed16cf75e"},"vehicle_type_id":"4","last_reported":1777323040,"current_range_meters":8400,"station_id":"","pricing_plan_id":"cebpf4jnsgd1na2vs0mg"},{"bike_id":"647c318a-9d6f-4d4d-954d-250588901504","system_id":"levelo_inurba_marseille","lat":43.2895,"lon":5.36401,"is_reserved":false,"is_disabled":false,"rental_uris":{"android":"levelo://app?vid=647c318a-9d6f-4d4d-954d-250588901504","ios":"levelo://app?vid=647c318a-9d6f-4d4d-954d-250588901504"},"vehicle_type_id":"4","last_reported":1777323040,"current_range_meters":8400,"station_id":"ce4bhc92rcd13ifvqetg","pricing_plan_id":"cebpf4jnsgd1na2vs0mg"},{"bike_id":"48567729-a37d-43a5-be29-532eb15e1964","system_id":"levelo_inurba_marseille","lat":43.28943,"lon":5.36409,"is_reserved":false,"is_disabled":false,"rental_uris":{"android":"levelo://app?vid=48567729-a37d-43a5-be29-532eb15e1964","ios":"levelo://app?vid=48567729-a37d-43a5-be29-532eb15e1964"},"vehicle_type_id":"4","last_reported":1777323040,"current_range_meters":8400,"station_id":"ce4bhc92rcd13ifvqetg","pricing_plan_id":"cebpf4jnsgd1na2vs0mg"},{"bike_id":"c04c42cf-36a4-4a3c-b656-dde2fe1bae7e","system_id":"levelo_inurba_marseille","lat":43.28574,"lon":5.40268,"is_reserved":false,"is_disabled":false,"rental_uris":{"android":"levelo://app?vid=c04c42cf-36a4-4a3c-b656-dde2fe1bae7e","ios":"levelo://app?vid=c04c42cf-36a4-4a3c-b656-dde2fe1bae7e"},"vehicle_type_id":"4","last_reported":1777323040,"current_range_meters":8400,"station_id":"","pricing_plan_id":"cebpf4jnsgd1na2vs0mg"},{"bike_id":"baa55d1a-8e1e-46c2-9459-c2953120d083","system_id":"levelo_inurba_marseille","lat":43.28406,"lon":5.34974,"is_reserved":false,"is_disabled":false,"rental_uris":{"android":"levelo://app?vid=baa55d1a-8e1e-46c2-9459-c2953120d083","ios":"levelo://app?vid=baa55d1a-8e1e-46c2-9459-c2953120d083"},"vehicle_type_id":"4","last_reported":1777323040,"current_range_meters":8800,"station_id":"ce4bhbh2rcd13ifvqepg","pricing_plan_id":"cebpf4jnsgd1na2vs0mg"},{"bike_id":"3462feaa-c9a2-441c-b3a1-f70058c367e6","system_id":"levelo_inurba_marseille","lat":43.24385,"lon":5.37076,"is_reserved":false,"is_disabled":false,"rental_uris":{"android":"levelo://app?vid=3462feaa-c9a2-441c-b3a1-f70058c367e6","ios":"levelo://app?vid=3462feaa-c9a2-441c-b3a1-f70058c367e6"},"vehicle_type_id":"4","last_reported":1777323040,"current_range_meters":8800,"station_id":"ce4bhhh2rcd13ifvqfk0","pricing_plan_id":"cebpf4jnsgd1na2vs0mg"},{"bike_id":"1bca0dbc-0d5b-4841-8651-434c9878a792","system_id":"levelo_inurba_marseille","lat":43.29263,"lon":5.36848,"is_reserved":false,"is_disabled":false,"rental_uris":{"android":"levelo://app?vid=1bca0dbc-0d5b-4841-8651-434c9878a792","ios":"levelo://app?vid=1bca0dbc-0d5b-4841-8651-434c9878a792"},"vehicle_type_id":"4","last_reported":1777323040,"current_range_meters":8800,"station_id":"ce4bhbp2rcd13ifvqesg","pricing_plan_id":"cebpf4jnsgd1na2vs0mg"},{"bike_id":"fd22e8ad-f64d-443a-8458-84fef3c805b5","system_id":"levelo_inurba_marseille","lat":43.2481,"lon":5.37467,"is_reserved":false,"is_disabled":false,"rental_uris":{"android":"levelo://app?vid=fd22e8ad-f64d-443a-8458-84fef3c805b5","ios":"levelo://app?vid=fd22e8ad-f64d-443a-8458-84fef3c805b5"},"vehicle_type_id":"4","last_reported":1777323040,"current_range_meters":8800,"station_id":"ce4bhgh2rcd13ifvqfb0","pricing_plan_id":"cebpf4jnsgd1na2vs0mg"},{"bike_id":"b5088cd7-5e45-457a-ae9f-32446d67355c","system_id":"levelo_inurba_marseille","lat":43.32469,"lon":5.36567,"is_reserved":false,"is_disabled":false,"rental_uris":{"android":"levelo://app?vid=b5088cd7-5e45-457a-ae9f-32446d67355c","ios":"levelo://app?vid=b5088cd7-5e45-457a-ae9f-32446d67355c"},"vehicle_type_id":"4","last_reported":1777323040,"current_range_meters":8800,"station_id":"ce4bhs12rcd13ifvqhvg","pricing_plan_id":"cebpf4jnsgd1na2vs0mg"},{"bike_id":"74929e98-c2e0-43cc-b447-0901251d01cb","system_id":"levelo_inurba_marseille","lat":43.2549,"lon":5.37677,"is_reserved":false,"is_disabled":false,"rental_uris":{"android":"levelo://app?vid=74929e98-c2e0-43cc-b447-0901251d01cb","ios":"levelo://app?vid=74929e98-c2e0-43cc-b447-0901251d01cb"},"vehicle_type_id":"4","last_reported":1777323040,"current_range_meters":8800,"station_id":"ce4bhh12rcd13ifvqff0","pricing_plan_id":"cebpf4jnsgd1na2vs0mg"},{"bike_id":"d2276d1c-4dd8-4805-b674-72347073e05f","system_id":"levelo_inurba_marseille","lat":43.28858,"lon":5.42518,"is_reserved":false,"is_disabled":false,"rental_uris":{"android":"levelo://app?vid=d2276d1c-4dd8-4805-b674-72347073e05f","ios":"levelo://app?vid=d2276d1c-4dd8-4805-b674-72347073e05f"},"vehicle_type_id":"4","last_reported":1777323040,"current_range_meters":8800,"station_id":"st_d3b462108ojc7389ooeg","pricing_plan_id":"cebpf4jnsgd1na2vs0mg"},{"bike_id":"e9e489ed-5efb-43d0-ac34-79efe72d0544","system_id":"levelo_inurba_marseille","lat":43.29267,"lon":5.38414,"is_reserved":false,"is_disabled":false,"rental_uris":{"android":"levelo://app?vid=e9e489ed-5efb-43d0-ac34-79efe72d0544","ios":"levelo://app?vid=e9e489ed-5efb-43d0-ac34-79efe72d0544"},"vehicle_type_id":"4","last_reported":1777323040,"current_range_meters":8800,"station_id":"ce4bh692rcd13ifvqea0","pricing_plan_id":"cebpf4jnsgd1na2vs0mg"},{"bike_id":"5c662a70-f877-4cbe-af80-f35ed97143d1","system_id":"levelo_inurba_marseille","lat":43.27808,"lon":5.40695,"is_reserved":false,"is_disabled":false,"rental_uris":{"android":"levelo://app?vid=5c662a70-f877-4cbe-af80-f35ed97143d1","ios":"levelo://app?vid=5c662a70-f877-4cbe-af80-f35ed97143d1"},"vehicle_type_id":"4","last_reported":1777323040,"current_range_meters":8800,"station_id":"ce4bhnh2rcd13ifvqgtg","pricing_plan_id":"cebpf4jnsgd1na2vs0mg"},{"bike_id":"1313d3cc-feb5-4a48-99b3-cb4d7635e1e9","system_id":"levelo_inurba_marseille","lat":43.32585,"lon":5.38011,"is_reserved":false,"is_disabled":false,"rental_uris":{"android":"levelo://app?vid=1313d3cc-feb5-4a48-99b3-cb4d7635e1e9","ios":"levelo://app?vid=1313d3cc-feb5-4a48-99b3-cb4d7635e1e9"},"vehicle_type_id":"4","last_reported":1777323040,"current_range_meters":8800,"station_id":"","pricing_plan_id":"cebpf4jnsgd1na2vs0mg"},{"bike_id":"76907408-a8ff-4688-9cbf-66e48bb415e8","system_id":"levelo_inurba_marseille","lat":43.28711,"lon":5.46693,"is_reserved":false,"is_disabled":false,"rental_uris":{"android":"levelo://app?vid=76907408-a8ff-4688-9cbf-66e48bb415e8","ios":"levelo://app?vid=76907408-a8ff-4688-9cbf-66e48bb415e8"},"vehicle_type_id":"4","last_reported":1777323040,"current_range_meters":8800,"station_id":"st_d6tc3vkotcvc738tfjhg","pricing_plan_id":"cebpf4jnsgd1na2vs0mg"},{"bike_id":"987eda33-b3ad-4fac-a63c-0e3ff496e921","system_id":"levelo_inurba_marseille","lat":43.32356,"lon":5.36752,"is_reserved":false,"is_disabled":false,"rental_uris":{"android":"levelo://app?vid=987eda33-b3ad-4fac-a63c-0e3ff496e921","ios":"levelo://app?vid=987eda33-b3ad-4fac-a63c-0e3ff496e921"},"vehicle_type_id":"4","last_reported":1777323040,"current_range_meters":8800,"station_id":"ce4bhsh2rcd13ifvqi2g","pricing_plan_id":"cebpf4jnsgd1na2vs0mg"},{"bike_id":"afde96ac-1493-4085-af72-e5da568a87fd","system_id":"levelo_inurba_marseille","lat":43.28476,"lon":5.48394,"is_reserved":false,"is_disabled":false,"rental_uris":{"android":"levelo://app?vid=afde96ac-1493-4085-af72-e5da568a87fd","ios":"levelo://app?vid=afde96ac-1493-4085-af72-e5da568a87fd"},"vehicle_type_id":"4","last_reported":1777323040,"current_range_meters":8800,"station_id":"st_d3svhcjqgbts73a3dn0g","pricing_plan_id":"cebpf4jnsgd1na2vs0mg"},{"bike_id":"f0139309-3da0-445b-ae20-7e213ec938ff","system_id":"levelo_inurba_marseille","lat":43.29041,"lon":5.35908,"is_reserved":false,"is_disabled":false,"rental_uris":{"android":"levelo://app?vid=f0139309-3da0-445b-ae20-7e213ec938ff","ios":"levelo://app?vid=f0139309-3da0-445b-ae20-7e213ec938ff"},"vehicle_type_id":"4","last_reported":1777323040,"current_range_meters":8800,"station_id":"ce4bha92rcd13ifvqeg0","pricing_plan_id":"cebpf4jnsgd1na2vs0mg"},{"bike_id":"24a8bbd8-14c9-4f18-8e3a-66cf13da1d52","system_id":"levelo_inurba_marseille","lat":43.2873,"lon":5.3608,"is_reserved":false,"is_disabled":false,"rental_uris":{"android":"levelo://app?vid=24a8bbd8-14c9-4f18-8e3a-66cf13da1d52","ios":"levelo://app?vid=24a8bbd8-14c9-4f18-8e3a-66cf13da1d52"},"vehicle_type_id":"4","last_reported":1777323040,"current_range_meters":8800,"station_id":"cki0cbj6b192h4jlfktg","pricing_plan_id":"cebpf4jnsgd1na2vs0mg"},{"bike_id":"c9d96168-62ed-48b6-9ada-758eb2a2d87a","system_id":"levelo_inurba_marseille","lat":43.28491,"lon":5.38415,"is_reserved":false,"is_disabled":false,"rental_uris":{"android":"levelo://app?vid=c9d96168-62ed-48b6-9ada-758eb2a2d87a","ios":"levelo://app?vid=c9d96168-62ed-48b6-9ada-758eb2a2d87a"},"vehicle_type_id":"4","last_reported":1777323040,"current_range_meters":8800,"station_id":"ce4bh512rcd13ifvqe3g","pricing_plan_id":"cebpf4jnsgd1na2vs0mg"},{"bike_id":"c4118d6e-3609-4ae2-8c49-d5d7613597bc","system_id":"levelo_inurba_marseille","lat":43.24169,"lon":5.36387,"is_reserved":false,"is_disabled":false,"rental_uris":{"android":"levelo://app?vid=c4118d6e-3609-4ae2-8c49-d5d7613597bc","ios":"levelo://app?vid=c4118d6e-3609-4ae2-8c49-d5d7613597bc"},"vehicle_type_id":"4","last_reported":1777323040,"current_range_meters":8800,"station_id":"cpo36qri1sfpv3e86is0","pricing_plan_id":"cebpf4jnsgd1na2vs0mg"},{"bike_id":"20111a87-41c4-4eaf-9fe8-f7469b02a4e4","system_id":"levelo_inurba_marseille","lat":43.30126,"lon":5.43154,"is_reserved":false,"is_disabled":false,"rental_uris":{"android":"levelo://app?vid=20111a87-41c4-4eaf-9fe8-f7469b02a4e4","ios":"levelo://app?vid=20111a87-41c4-4eaf-9fe8-f7469b02a4e4"},"vehicle_type_id":"4","last_reported":1777323040,"current_range_meters":8800,"station_id":"st_d3js3co5814s73ftftug","pricing_plan_id":"cebpf4jnsgd1na2vs0mg"},{"bike_id":"6b4aa15b-259f-4e69-9c10-9ad064f7be7c","system_id":"levelo_inurba_marseille","lat":43.2558,"lon":5.38227,"is_reserved":false,"is_disabled":false,"rental_uris":{"android":"levelo://app?vid=6b4aa15b-259f-4e69-9c10-9ad064f7be7c","ios":"levelo://app?vid=6b4aa15b-259f-4e69-9c10-9ad064f7be7c"},"vehicle_type_id":"4","last_reported":1777323040,"current_range_meters":8800,"station_id":"ce4bhih2rcd13ifvqfs0","pricing_plan_id":"cebpf4jnsgd1na2vs0mg"},{"bike_id":"ca3b76d7-a752-441d-b4b4-adb956ca361b","system_id":"levelo_inurba_marseille","lat":43.30203,"lon":5.39474,"is_reserved":false,"is_disabled":false,"rental_uris":{"android":"levelo://app?vid=ca3b76d7-a752-441d-b4b4-adb956ca361b","ios":"levelo://app?vid=ca3b76d7-a752-441d-b4b4-adb956ca361b"},"vehicle_type_id":"4","last_reported":1777323040,"current_range_meters":8800,"station_id":"ce4bh0p2rcd13ifvqd70","pricing_plan_id":"cebpf4jnsgd1na2vs0mg"},{"bike_id":"f5ac82a1-eeda-403a-8b8b-36b77199cda8","system_id":"levelo_inurba_marseille","lat":43.24975,"lon":5.39642,"is_reserved":false,"is_disabled":false,"rental_uris":{"android":"levelo://app?vid=f5ac82a1-eeda-403a-8b8b-36b77199cda8","ios":"levelo://app?vid=f5ac82a1-eeda-403a-8b8b-36b77199cda8"},"vehicle_type_id":"4","last_reported":1777323040,"current_range_meters":8800,"station_id":"","pricing_plan_id":"cebpf4jnsgd1na2vs0mg"},{"bike_id":"8b4e6bd3-1e82-4277-a45a-3a8abaa4e3ab","system_id":"levelo_inurba_marseille","lat":43.2847,"lon":5.48362,"is_reserved":false,"is_disabled":false,"rental_uris":{"android":"levelo://app?vid=8b4e6bd3-1e82-4277-a45a-3a8abaa4e3ab","ios":"levelo://app?vid=8b4e6bd3-1e82-4277-a45a-3a8abaa4e3ab"},"vehicle_type_id":"4","last_reported":1777323040,"current_range_meters":8800,"station_id":"","pricing_plan_id":"cebpf4jnsgd1na2vs0mg"},{"bike_id":"d0f47af9-a0f8-4d5f-a538-6d1c58e648fc","system_id":"levelo_inurba_marseille","lat":43.29275,"lon":5.36848,"is_reserved":false,"is_disabled":false,"rental_uris":{"android":"levelo://app?vid=d0f47af9-a0f8-4d5f-a538-6d1c58e648fc","ios":"levelo://app?vid=d0f47af9-a0f8-4d5f-a538-6d1c58e648fc"},"vehicle_type_id":"4","last_reported":1777323040,"current_range_meters":8800,"station_id":"ce4bhbp2rcd13ifvqesg","pricing_plan_id":"cebpf4jnsgd1na2vs0mg"},{"bike_id":"2eff1dd9-d761-4a06-9911-dba9f5666d04","system_id":"levelo_inurba_marseille","lat":43.28619,"lon":5.35105,"is_reserved":false,"is_disabled":false,"rental_uris":{"android":"levelo://app?vid=2eff1dd9-d761-4a06-9911-dba9f5666d04","ios":"levelo://app?vid=2eff1dd9-d761-4a06-9911-dba9f5666d04"},"vehicle_type_id":"4","last_reported":1777323040,"current_range_meters":8800,"station_id":"ce4bhch2rcd13ifvqeug","pricing_plan_id":"cebpf4jnsgd1na2vs0mg"},{"bike_id":"efbe742c-385a-4fcb-bad4-5e74e09fe9ac","system_id":"levelo_inurba_marseille","lat":43.30729,"lon":5.42431,"is_reserved":false,"is_disabled":false,"rental_uris":{"android":"levelo://app?vid=efbe742c-385a-4fcb-bad4-5e74e09fe9ac","ios":"levelo://app?vid=efbe742c-385a-4fcb-bad4-5e74e09fe9ac"},"vehicle_type_id":"4","last_reported":1777323040,"current_range_meters":8800,"station_id":"st_cvj6ca6bvosntc0bfgr0","pricing_plan_id":"cebpf4jnsgd1na2vs0mg"},{"bike_id":"a5c29ba6-9a3f-4a7f-8701-9a67e027726e","system_id":"levelo_inurba_marseille","lat":43.24799,"lon":5.37454,"is_reserved":false,"is_disabled":false,"rental_uris":{"android":"levelo://app?vid=a5c29ba6-9a3f-4a7f-8701-9a67e027726e","ios":"levelo://app?vid=a5c29ba6-9a3f-4a7f-8701-9a67e027726e"},"vehicle_type_id":"4","last_reported":1777323040,"current_range_meters":8800,"station_id":"ce4bhgh2rcd13ifvqfb0","pricing_plan_id":"cebpf4jnsgd1na2vs0mg"},{"bike_id":"ca970bed-dff0-40b1-aa6e-d0db5b10d8ee","system_id":"levelo_inurba_marseille","lat":43.27412,"lon":5.39394,"is_reserved":false,"is_disabled":true,"rental_uris":{"android":"levelo://app?vid=ca970bed-dff0-40b1-aa6e-d0db5b10d8ee","ios":"levelo://app?vid=ca970bed-dff0-40b1-aa6e-d0db5b10d8ee"},"vehicle_type_id":"4","last_reported":1777323040,"current_range_meters":9200,"station_id":"ce4bhdp2rcd13ifvqf20","pricing_plan_id":"cebpf4jnsgd1na2vs0mg"},{"bike_id":"fb55a29e-fc68-4bb3-9b50-a2d7150b05aa","system_id":"levelo_inurba_marseille","lat":43.30655,"lon":5.40072,"is_reserved":false,"is_disabled":false,"rental_uris":{"android":"levelo://app?vid=fb55a29e-fc68-4bb3-9b50-a2d7150b05aa","ios":"levelo://app?vid=fb55a29e-fc68-4bb3-9b50-a2d7150b05aa"},"vehicle_type_id":"4","last_reported":1777323040,"current_range_meters":9200,"station_id":"ce4bh112rcd13ifvqda0","pricing_plan_id":"cebpf4jnsgd1na2vs0mg"},{"bike_id":"dabc5e28-b9df-4b1a-affa-f2e365a8b45b","system_id":"levelo_inurba_marseille","lat":43.3209,"lon":5.36754,"is_reserved":false,"is_disabled":false,"rental_uris":{"android":"levelo://app?vid=dabc5e28-b9df-4b1a-affa-f2e365a8b45b","ios":"levelo://app?vid=dabc5e28-b9df-4b1a-affa-f2e365a8b45b"},"vehicle_type_id":"4","last_reported":1777323040,"current_range_meters":9200,"station_id":"ce4bhrh2rcd13ifvqhug","pricing_plan_id":"cebpf4jnsgd1na2vs0mg"},{"bike_id":"c1faf23e-4ef3-448a-b7dc-39526523d561","system_id":"levelo_inurba_marseille","lat":43.29255,"lon":5.36854,"is_reserved":false,"is_disabled":false,"rental_uris":{"android":"levelo://app?vid=c1faf23e-4ef3-448a-b7dc-39526523d561","ios":"levelo://app?vid=c1faf23e-4ef3-448a-b7dc-39526523d561"},"vehicle_type_id":"4","last_reported":1777323040,"current_range_meters":9200,"station_id":"ce4bhbp2rcd13ifvqesg","pricing_plan_id":"cebpf4jnsgd1na2vs0mg"},{"bike_id":"d128858b-bebf-45c5-838d-de7a7a289000","system_id":"levelo_inurba_marseille","lat":43.29783,"lon":5.39341,"is_reserved":false,"is_disabled":false,"rental_uris":{"android":"levelo://app?vid=d128858b-bebf-45c5-838d-de7a7a289000","ios":"levelo://app?vid=d128858b-bebf-45c5-838d-de7a7a289000"},"vehicle_type_id":"4","last_reported":1777323040,"current_range_meters":9200,"station_id":"chh1huq6cuj3fo74tm60","pricing_plan_id":"cebpf4jnsgd1na2vs0mg"},{"bike_id":"ea0e9f70-3cf6-4747-81ce-1d670e663ee1","system_id":"levelo_inurba_marseille","lat":43.29593,"lon":5.39988,"is_reserved":false,"is_disabled":false,"rental_uris":{"android":"levelo://app?vid=ea0e9f70-3cf6-4747-81ce-1d670e663ee1","ios":"levelo://app?vid=ea0e9f70-3cf6-4747-81ce-1d670e663ee1"},"vehicle_type_id":"4","last_reported":1777323040,"current_range_meters":9200,"station_id":"ce4bh312rcd13ifvqdj0","pricing_plan_id":"cebpf4jnsgd1na2vs0mg"},{"bike_id":"e67acc8f-2ca9-403b-9a72-d3f8278b7623","system_id":"levelo_inurba_marseille","lat":43.24795,"lon":5.37485,"is_reserved":false,"is_disabled":false,"rental_uris":{"android":"levelo://app?vid=e67acc8f-2ca9-403b-9a72-d3f8278b7623","ios":"levelo://app?vid=e67acc8f-2ca9-403b-9a72-d3f8278b7623"},"vehicle_type_id":"4","last_reported":1777323040,"current_range_meters":9200,"station_id":"ce4bhgh2rcd13ifvqfb0","pricing_plan_id":"cebpf4jnsgd1na2vs0mg"},{"bike_id":"81e52b6e-bff7-4875-a0d8-d533ea21c465","system_id":"levelo_inurba_marseille","lat":43.28164,"lon":5.42674,"is_reserved":false,"is_disabled":false,"rental_uris":{"android":"levelo://app?vid=81e52b6e-bff7-4875-a0d8-d533ea21c465","ios":"levelo://app?vid=81e52b6e-bff7-4875-a0d8-d533ea21c465"},"vehicle_type_id":"4","last_reported":1777323040,"current_range_meters":9200,"station_id":"ce4bhnh2rcd13ifvqgug","pricing_plan_id":"cebpf4jnsgd1na2vs0mg"},{"bike_id":"36574c3f-ff77-4aff-8d69-a4396f3350ac","system_id":"levelo_inurba_marseille","lat":43.31166,"lon":5.39473,"is_reserved":false,"is_disabled":false,"rental_uris":{"android":"levelo://app?vid=36574c3f-ff77-4aff-8d69-a4396f3350ac","ios":"levelo://app?vid=36574c3f-ff77-4aff-8d69-a4396f3350ac"},"vehicle_type_id":"4","last_reported":1777323040,"current_range_meters":9200,"station_id":"","pricing_plan_id":"cebpf4jnsgd1na2vs0mg"},{"bike_id":"d0a2cb9f-9b36-4682-bbf7-b97009d597b4","system_id":"levelo_inurba_marseille","lat":43.30585,"lon":5.37139,"is_reserved":false,"is_disabled":false,"rental_uris":{"android":"levelo://app?vid=d0a2cb9f-9b36-4682-bbf7-b97009d597b4","ios":"levelo://app?vid=d0a2cb9f-9b36-4682-bbf7-b97009d597b4"},"vehicle_type_id":"4","last_reported":1777323040,"current_range_meters":9200,"station_id":"ce4bgqh2rcd13ifvqc4g","pricing_plan_id":"cebpf4jnsgd1na2vs0mg"},{"bike_id":"7691273e-33d0-40e7-9122-ebb011af1b54","system_id":"levelo_inurba_marseille","lat":43.24665,"lon":5.38163,"is_reserved":false,"is_disabled":false,"rental_uris":{"android":"levelo://app?vid=7691273e-33d0-40e7-9122-ebb011af1b54","ios":"levelo://app?vid=7691273e-33d0-40e7-9122-ebb011af1b54"},"vehicle_type_id":"4","last_reported":1777323040,"current_range_meters":9200,"station_id":"ce4bhih2rcd13ifvqfr0","pricing_plan_id":"cebpf4jnsgd1na2vs0mg"},{"bike_id":"626afedd-d732-4bc8-be6f-6408a29380b2","system_id":"levelo_inurba_marseille","lat":43.21173,"lon":5.3508,"is_reserved":false,"is_disabled":false,"rental_uris":{"android":"levelo://app?vid=626afedd-d732-4bc8-be6f-6408a29380b2","ios":"levelo://app?vid=626afedd-d732-4bc8-be6f-6408a29380b2"},"vehicle_type_id":"4","last_reported":1777323040,"current_range_meters":9200,"station_id":"st_cvj6sg6p6f1abm77japg","pricing_plan_id":"cebpf4jnsgd1na2vs0mg"},{"bike_id":"73ff913d-1e29-4f14-8fe9-65748c25341c","system_id":"levelo_inurba_marseille","lat":43.27994,"lon":5.40025,"is_reserved":false,"is_disabled":false,"rental_uris":{"android":"levelo://app?vid=73ff913d-1e29-4f14-8fe9-65748c25341c","ios":"levelo://app?vid=73ff913d-1e29-4f14-8fe9-65748c25341c"},"vehicle_type_id":"4","last_reported":1777323040,"current_range_meters":9200,"station_id":"ce4bho92rcd13ifvqh4g","pricing_plan_id":"cebpf4jnsgd1na2vs0mg"},{"bike_id":"5592cac2-d291-4a2e-91f2-e7cd1a0da392","system_id":"levelo_inurba_marseille","lat":43.28725,"lon":5.36079,"is_reserved":false,"is_disabled":false,"rental_uris":{"android":"levelo://app?vid=5592cac2-d291-4a2e-91f2-e7cd1a0da392","ios":"levelo://app?vid=5592cac2-d291-4a2e-91f2-e7cd1a0da392"},"vehicle_type_id":"4","last_reported":1777323040,"current_range_meters":9200,"station_id":"cki0cbj6b192h4jlfktg","pricing_plan_id":"cebpf4jnsgd1na2vs0mg"},{"bike_id":"20f579e4-bb0c-44b0-8f96-d7af0d62c620","system_id":"levelo_inurba_marseille","lat":43.25099,"lon":5.39505,"is_reserved":false,"is_disabled":false,"rental_uris":{"android":"levelo://app?vid=20f579e4-bb0c-44b0-8f96-d7af0d62c620","ios":"levelo://app?vid=20f579e4-bb0c-44b0-8f96-d7af0d62c620"},"vehicle_type_id":"4","last_reported":1777323040,"current_range_meters":9200,"station_id":"ce4bhm12rcd13ifvqgkg","pricing_plan_id":"cebpf4jnsgd1na2vs0mg"},{"bike_id":"906f7108-febf-40ba-b432-178e412912d2","system_id":"levelo_inurba_marseille","lat":43.2837,"lon":5.38109,"is_reserved":false,"is_disabled":false,"rental_uris":{"android":"levelo://app?vid=906f7108-febf-40ba-b432-178e412912d2","ios":"levelo://app?vid=906f7108-febf-40ba-b432-178e412912d2"},"vehicle_type_id":"4","last_reported":1777323040,"current_range_meters":9200,"station_id":"ce4bh412rcd13ifvqdr0","pricing_plan_id":"cebpf4jnsgd1na2vs0mg"},{"bike_id":"07cb0064-932c-4cc0-8396-7f8ca84ae472","system_id":"levelo_inurba_marseille","lat":43.27904,"lon":5.38023,"is_reserved":false,"is_disabled":false,"rental_uris":{"android":"levelo://app?vid=07cb0064-932c-4cc0-8396-7f8ca84ae472","ios":"levelo://app?vid=07cb0064-932c-4cc0-8396-7f8ca84ae472"},"vehicle_type_id":"4","last_reported":1777323040,"current_range_meters":9200,"station_id":"ce4bhf92rcd13ifvqf50","pricing_plan_id":"cebpf4jnsgd1na2vs0mg"},{"bike_id":"ccc64b12-fba8-4953-9e4c-789c15629674","system_id":"levelo_inurba_marseille","lat":43.23213,"lon":5.35082,"is_reserved":false,"is_disabled":false,"rental_uris":{"android":"levelo://app?vid=ccc64b12-fba8-4953-9e4c-789c15629674","ios":"levelo://app?vid=ccc64b12-fba8-4953-9e4c-789c15629674"},"vehicle_type_id":"4","last_reported":1777323040,"current_range_meters":9200,"station_id":"","pricing_plan_id":"cebpf4jnsgd1na2vs0mg"},{"bike_id":"34a645a0-e072-4f54-91fc-dafd2f49cf7e","system_id":"levelo_inurba_marseille","lat":43.29936,"lon":5.36552,"is_reserved":false,"is_disabled":false,"rental_uris":{"android":"levelo://app?vid=34a645a0-e072-4f54-91fc-dafd2f49cf7e","ios":"levelo://app?vid=34a645a0-e072-4f54-91fc-dafd2f49cf7e"},"vehicle_type_id":"4","last_reported":1777323040,"current_range_meters":9200,"station_id":"ce4bgm92rcd13ifvqbr0","pricing_plan_id":"cebpf4jnsgd1na2vs0mg"},{"bike_id":"3912afd3-69f1-46cd-8106-0da40dafd094","system_id":"levelo_inurba_marseille","lat":43.28485,"lon":5.38418,"is_reserved":false,"is_disabled":false,"rental_uris":{"android":"levelo://app?vid=3912afd3-69f1-46cd-8106-0da40dafd094","ios":"levelo://app?vid=3912afd3-69f1-46cd-8106-0da40dafd094"},"vehicle_type_id":"4","last_reported":1777323040,"current_range_meters":9200,"station_id":"ce4bh512rcd13ifvqe3g","pricing_plan_id":"cebpf4jnsgd1na2vs0mg"},{"bike_id":"0c04dc5c-4ad7-4dcf-8291-8a64ac9feca1","system_id":"levelo_inurba_marseille","lat":43.29858,"lon":5.36269,"is_reserved":false,"is_disabled":false,"rental_uris":{"android":"levelo://app?vid=0c04dc5c-4ad7-4dcf-8291-8a64ac9feca1","ios":"levelo://app?vid=0c04dc5c-4ad7-4dcf-8291-8a64ac9feca1"},"vehicle_type_id":"4","last_reported":1777323040,"current_range_meters":9200,"station_id":"ce4bgpp2rcd13ifvqc3g","pricing_plan_id":"cebpf4jnsgd1na2vs0mg"},{"bike_id":"b46b3e1d-a31e-4b28-8bac-d8bdad15ef97","system_id":"levelo_inurba_marseille","lat":43.29166,"lon":5.3716,"is_reserved":false,"is_disabled":false,"rental_uris":{"android":"levelo://app?vid=b46b3e1d-a31e-4b28-8bac-d8bdad15ef97","ios":"levelo://app?vid=b46b3e1d-a31e-4b28-8bac-d8bdad15ef97"},"vehicle_type_id":"4","last_reported":1777323040,"current_range_meters":9200,"station_id":"ce4bha92rcd13ifvqeh0","pricing_plan_id":"cebpf4jnsgd1na2vs0mg"},{"bike_id":"9dbd9067-e6b1-43f7-b983-0204cab43d45","system_id":"levelo_inurba_marseille","lat":43.28362,"lon":5.38631,"is_reserved":false,"is_disabled":false,"rental_uris":{"android":"levelo://app?vid=9dbd9067-e6b1-43f7-b983-0204cab43d45","ios":"levelo://app?vid=9dbd9067-e6b1-43f7-b983-0204cab43d45"},"vehicle_type_id":"4","last_reported":1777323040,"current_range_meters":9200,"station_id":"ce4bh492rcd13ifvqdvg","pricing_plan_id":"cebpf4jnsgd1na2vs0mg"},{"bike_id":"b9885613-2ab7-4bfa-8e62-7d197a46e827","system_id":"levelo_inurba_marseille","lat":43.25104,"lon":5.39514,"is_reserved":false,"is_disabled":false,"rental_uris":{"android":"levelo://app?vid=b9885613-2ab7-4bfa-8e62-7d197a46e827","ios":"levelo://app?vid=b9885613-2ab7-4bfa-8e62-7d197a46e827"},"vehicle_type_id":"4","last_reported":1777323040,"current_range_meters":9200,"station_id":"ce4bhm12rcd13ifvqgkg","pricing_plan_id":"cebpf4jnsgd1na2vs0mg"},{"bike_id":"819f824d-530b-4c9e-adb7-e3b742a5d8c9","system_id":"levelo_inurba_marseille","lat":43.30889,"lon":5.39637,"is_reserved":false,"is_disabled":false,"rental_uris":{"android":"levelo://app?vid=819f824d-530b-4c9e-adb7-e3b742a5d8c9","ios":"levelo://app?vid=819f824d-530b-4c9e-adb7-e3b742a5d8c9"},"vehicle_type_id":"4","last_reported":1777323040,"current_range_meters":9200,"station_id":"ce4bh012rcd13ifvqcv0","pricing_plan_id":"cebpf4jnsgd1na2vs0mg"},{"bike_id":"3c37dbd8-05d1-42e0-9359-7f79e94a3922","system_id":"levelo_inurba_marseille","lat":43.26253,"lon":5.40444,"is_reserved":false,"is_disabled":false,"rental_uris":{"android":"levelo://app?vid=3c37dbd8-05d1-42e0-9359-7f79e94a3922","ios":"levelo://app?vid=3c37dbd8-05d1-42e0-9359-7f79e94a3922"},"vehicle_type_id":"4","last_reported":1777323040,"current_range_meters":9600,"station_id":"ce4bhmh2rcd13ifvqgmg","pricing_plan_id":"cebpf4jnsgd1na2vs0mg"},{"bike_id":"f8e44a3c-c653-40ee-b87d-9af094d24fac","system_id":"levelo_inurba_marseille","lat":43.30815,"lon":5.39987,"is_reserved":false,"is_disabled":false,"rental_uris":{"android":"levelo://app?vid=f8e44a3c-c653-40ee-b87d-9af094d24fac","ios":"levelo://app?vid=f8e44a3c-c653-40ee-b87d-9af094d24fac"},"vehicle_type_id":"4","last_reported":1777323040,"current_range_meters":9600,"station_id":"","pricing_plan_id":"cebpf4jnsgd1na2vs0mg"},{"bike_id":"fd1cd0d2-0b61-48a7-b8ac-5a43e93d2eaa","system_id":"levelo_inurba_marseille","lat":43.30107,"lon":5.39075,"is_reserved":false,"is_disabled":false,"rental_uris":{"android":"levelo://app?vid=fd1cd0d2-0b61-48a7-b8ac-5a43e93d2eaa","ios":"levelo://app?vid=fd1cd0d2-0b61-48a7-b8ac-5a43e93d2eaa"},"vehicle_type_id":"4","last_reported":1777323040,"current_range_meters":9600,"station_id":"ce4bh192rcd13ifvqdb0","pricing_plan_id":"cebpf4jnsgd1na2vs0mg"},{"bike_id":"60ae7bab-1a5c-4f05-9d31-31cb1f6608ec","system_id":"levelo_inurba_marseille","lat":43.25092,"lon":5.39513,"is_reserved":false,"is_disabled":false,"rental_uris":{"android":"levelo://app?vid=60ae7bab-1a5c-4f05-9d31-31cb1f6608ec","ios":"levelo://app?vid=60ae7bab-1a5c-4f05-9d31-31cb1f6608ec"},"vehicle_type_id":"4","last_reported":1777323040,"current_range_meters":9600,"station_id":"ce4bhm12rcd13ifvqgkg","pricing_plan_id":"cebpf4jnsgd1na2vs0mg"},{"bike_id":"152f6ba7-28ae-4b6f-adfb-15349721d471","system_id":"levelo_inurba_marseille","lat":43.29195,"lon":5.39326,"is_reserved":false,"is_disabled":false,"rental_uris":{"android":"levelo://app?vid=152f6ba7-28ae-4b6f-adfb-15349721d471","ios":"levelo://app?vid=152f6ba7-28ae-4b6f-adfb-15349721d471"},"vehicle_type_id":"4","last_reported":1777323040,"current_range_meters":9600,"station_id":"ce4bh192rcd13ifvqdd0","pricing_plan_id":"cebpf4jnsgd1na2vs0mg"},{"bike_id":"23b9edcd-305b-48b3-b42b-c5b2d1a2cdca","system_id":"levelo_inurba_marseille","lat":43.2706,"lon":5.38628,"is_reserved":false,"is_disabled":false,"rental_uris":{"android":"levelo://app?vid=23b9edcd-305b-48b3-b42b-c5b2d1a2cdca","ios":"levelo://app?vid=23b9edcd-305b-48b3-b42b-c5b2d1a2cdca"},"vehicle_type_id":"4","last_reported":1777323040,"current_range_meters":9600,"station_id":"","pricing_plan_id":"cebpf4jnsgd1na2vs0mg"},{"bike_id":"94b1d427-102e-4c64-aa76-0c93e226150f","system_id":"levelo_inurba_marseille","lat":43.28477,"lon":5.48403,"is_reserved":false,"is_disabled":false,"rental_uris":{"android":"levelo://app?vid=94b1d427-102e-4c64-aa76-0c93e226150f","ios":"levelo://app?vid=94b1d427-102e-4c64-aa76-0c93e226150f"},"vehicle_type_id":"4","last_reported":1777323040,"current_range_meters":9600,"station_id":"st_d3svhcjqgbts73a3dn0g","pricing_plan_id":"cebpf4jnsgd1na2vs0mg"},{"bike_id":"7db19171-5729-4c67-91fd-7ba01dabc5cd","system_id":"levelo_inurba_marseille","lat":43.28689,"lon":5.37404,"is_reserved":false,"is_disabled":false,"rental_uris":{"android":"levelo://app?vid=7db19171-5729-4c67-91fd-7ba01dabc5cd","ios":"levelo://app?vid=7db19171-5729-4c67-91fd-7ba01dabc5cd"},"vehicle_type_id":"4","last_reported":1777323040,"current_range_meters":9600,"station_id":"ce4bh3p2rcd13ifvqdq0","pricing_plan_id":"cebpf4jnsgd1na2vs0mg"},{"bike_id":"84b7cd77-f30f-4fac-b8ad-2b060a6cd19b","system_id":"levelo_inurba_marseille","lat":43.29873,"lon":5.39739,"is_reserved":false,"is_disabled":false,"rental_uris":{"android":"levelo://app?vid=84b7cd77-f30f-4fac-b8ad-2b060a6cd19b","ios":"levelo://app?vid=84b7cd77-f30f-4fac-b8ad-2b060a6cd19b"},"vehicle_type_id":"4","last_reported":1777323040,"current_range_meters":9600,"station_id":"ce4bh0h2rcd13ifvqd50","pricing_plan_id":"cebpf4jnsgd1na2vs0mg"},{"bike_id":"77b8dc02-51af-44fd-a00a-7f7f390da885","system_id":"levelo_inurba_marseille","lat":43.2798,"lon":5.41659,"is_reserved":false,"is_disabled":false,"rental_uris":{"android":"levelo://app?vid=77b8dc02-51af-44fd-a00a-7f7f390da885","ios":"levelo://app?vid=77b8dc02-51af-44fd-a00a-7f7f390da885"},"vehicle_type_id":"4","last_reported":1777323040,"current_range_meters":9600,"station_id":"ce4bho12rcd13ifvqh1g","pricing_plan_id":"cebpf4jnsgd1na2vs0mg"},{"bike_id":"e382ba24-bb4a-4069-862d-738585d83370","system_id":"levelo_inurba_marseille","lat":43.27824,"lon":5.40696,"is_reserved":false,"is_disabled":false,"rental_uris":{"android":"levelo://app?vid=e382ba24-bb4a-4069-862d-738585d83370","ios":"levelo://app?vid=e382ba24-bb4a-4069-862d-738585d83370"},"vehicle_type_id":"4","last_reported":1777323040,"current_range_meters":9600,"station_id":"ce4bhnh2rcd13ifvqgtg","pricing_plan_id":"cebpf4jnsgd1na2vs0mg"},{"bike_id":"58531717-4481-454d-8b8d-39158b11632d","system_id":"levelo_inurba_marseille","lat":43.29206,"lon":5.35801,"is_reserved":false,"is_disabled":false,"rental_uris":{"android":"levelo://app?vid=58531717-4481-454d-8b8d-39158b11632d","ios":"levelo://app?vid=58531717-4481-454d-8b8d-39158b11632d"},"vehicle_type_id":"4","last_reported":1777323040,"current_range_meters":9600,"station_id":"ce4bhb12rcd13ifvqel0","pricing_plan_id":"cebpf4jnsgd1na2vs0mg"},{"bike_id":"afa4e258-7028-4336-abc2-ac6b2f10f6cc","system_id":"levelo_inurba_marseille","lat":43.24813,"lon":5.37444,"is_reserved":false,"is_disabled":false,"rental_uris":{"android":"levelo://app?vid=afa4e258-7028-4336-abc2-ac6b2f10f6cc","ios":"levelo://app?vid=afa4e258-7028-4336-abc2-ac6b2f10f6cc"},"vehicle_type_id":"4","last_reported":1777323040,"current_range_meters":9600,"station_id":"ce4bhgh2rcd13ifvqfb0","pricing_plan_id":"cebpf4jnsgd1na2vs0mg"},{"bike_id":"68ecf2f6-4ac5-45b8-9640-383e9e07a83c","system_id":"levelo_inurba_marseille","lat":43.24552,"lon":5.41585,"is_reserved":false,"is_disabled":false,"rental_uris":{"android":"levelo://app?vid=68ecf2f6-4ac5-45b8-9640-383e9e07a83c","ios":"levelo://app?vid=68ecf2f6-4ac5-45b8-9640-383e9e07a83c"},"vehicle_type_id":"4","last_reported":1777323040,"current_range_meters":9600,"station_id":"","pricing_plan_id":"cebpf4jnsgd1na2vs0mg"},{"bike_id":"35a6cb4b-5d8c-4bef-b99f-fe238abc9fa9","system_id":"levelo_inurba_marseille","lat":43.21744,"lon":5.34603,"is_reserved":false,"is_disabled":false,"rental_uris":{"android":"levelo://app?vid=35a6cb4b-5d8c-4bef-b99f-fe238abc9fa9","ios":"levelo://app?vid=35a6cb4b-5d8c-4bef-b99f-fe238abc9fa9"},"vehicle_type_id":"4","last_reported":1777323040,"current_range_meters":9600,"station_id":"st_cvj6r9ubvosntc0bgbag","pricing_plan_id":"cebpf4jnsgd1na2vs0mg"},{"bike_id":"f13c1412-9987-4b53-aa5c-79a6ecb2ba2d","system_id":"levelo_inurba_marseille","lat":43.32355,"lon":5.36751,"is_reserved":false,"is_disabled":false,"rental_uris":{"android":"levelo://app?vid=f13c1412-9987-4b53-aa5c-79a6ecb2ba2d","ios":"levelo://app?vid=f13c1412-9987-4b53-aa5c-79a6ecb2ba2d"},"vehicle_type_id":"4","last_reported":1777323040,"current_range_meters":9600,"station_id":"ce4bhsh2rcd13ifvqi2g","pricing_plan_id":"cebpf4jnsgd1na2vs0mg"},{"bike_id":"a0306c08-5a06-4f9b-a597-306fad71f9a8","system_id":"levelo_inurba_marseille","lat":43.30867,"lon":5.39634,"is_reserved":false,"is_disabled":false,"rental_uris":{"android":"levelo://app?vid=a0306c08-5a06-4f9b-a597-306fad71f9a8","ios":"levelo://app?vid=a0306c08-5a06-4f9b-a597-306fad71f9a8"},"vehicle_type_id":"4","last_reported":1777323040,"current_range_meters":9600,"station_id":"ce4bh012rcd13ifvqcv0","pricing_plan_id":"cebpf4jnsgd1na2vs0mg"},{"bike_id":"8dc1ef37-abdf-464a-a2a5-8795c083c97b","system_id":"levelo_inurba_marseille","lat":43.27683,"lon":5.35833,"is_reserved":false,"is_disabled":false,"rental_uris":{"android":"levelo://app?vid=8dc1ef37-abdf-464a-a2a5-8795c083c97b","ios":"levelo://app?vid=8dc1ef37-abdf-464a-a2a5-8795c083c97b"},"vehicle_type_id":"4","last_reported":1777323040,"current_range_meters":9600,"station_id":"","pricing_plan_id":"cebpf4jnsgd1na2vs0mg"},{"bike_id":"6cbe1101-778b-4894-8107-24fb3b02355c","system_id":"levelo_inurba_marseille","lat":43.2898,"lon":5.37838,"is_reserved":false,"is_disabled":false,"rental_uris":{"android":"levelo://app?vid=6cbe1101-778b-4894-8107-24fb3b02355c","ios":"levelo://app?vid=6cbe1101-778b-4894-8107-24fb3b02355c"},"vehicle_type_id":"4","last_reported":1777323040,"current_range_meters":9600,"station_id":"ce4bh9p2rcd13ifvqed0","pricing_plan_id":"cebpf4jnsgd1na2vs0mg"},{"bike_id":"c85d9b34-5f64-47d6-a9bc-54c7eee87ca4","system_id":"levelo_inurba_marseille","lat":43.29871,"lon":5.38912,"is_reserved":false,"is_disabled":false,"rental_uris":{"android":"levelo://app?vid=c85d9b34-5f64-47d6-a9bc-54c7eee87ca4","ios":"levelo://app?vid=c85d9b34-5f64-47d6-a9bc-54c7eee87ca4"},"vehicle_type_id":"4","last_reported":1777323040,"current_range_meters":9600,"station_id":"ce4bh392rcd13ifvqdl0","pricing_plan_id":"cebpf4jnsgd1na2vs0mg"},{"bike_id":"ccb96936-2a43-4dc2-90f0-fc4c685ced15","system_id":"levelo_inurba_marseille","lat":43.29253,"lon":5.38444,"is_reserved":false,"is_disabled":false,"rental_uris":{"android":"levelo://app?vid=ccb96936-2a43-4dc2-90f0-fc4c685ced15","ios":"levelo://app?vid=ccb96936-2a43-4dc2-90f0-fc4c685ced15"},"vehicle_type_id":"4","last_reported":1777323040,"current_range_meters":9600,"station_id":"ce4bh692rcd13ifvqea0","pricing_plan_id":"cebpf4jnsgd1na2vs0mg"},{"bike_id":"0f1661df-6621-4c1d-8f40-2dddcdddf13f","system_id":"levelo_inurba_marseille","lat":43.27889,"lon":5.38012,"is_reserved":false,"is_disabled":false,"rental_uris":{"android":"levelo://app?vid=0f1661df-6621-4c1d-8f40-2dddcdddf13f","ios":"levelo://app?vid=0f1661df-6621-4c1d-8f40-2dddcdddf13f"},"vehicle_type_id":"4","last_reported":1777323040,"current_range_meters":9600,"station_id":"ce4bhf92rcd13ifvqf50","pricing_plan_id":"cebpf4jnsgd1na2vs0mg"},{"bike_id":"d11ac8aa-a8d0-422f-8800-c31ccad852c5","system_id":"levelo_inurba_marseille","lat":43.29031,"lon":5.39969,"is_reserved":false,"is_disabled":false,"rental_uris":{"android":"levelo://app?vid=d11ac8aa-a8d0-422f-8800-c31ccad852c5","ios":"levelo://app?vid=d11ac8aa-a8d0-422f-8800-c31ccad852c5"},"vehicle_type_id":"4","last_reported":1777323040,"current_range_meters":9600,"station_id":"ce4bh392rcd13ifvqdm0","pricing_plan_id":"cebpf4jnsgd1na2vs0mg"},{"bike_id":"04efbdb6-9a20-4be6-b9d8-337fb14f5357","system_id":"levelo_inurba_marseille","lat":43.2986,"lon":5.39737,"is_reserved":false,"is_disabled":false,"rental_uris":{"android":"levelo://app?vid=04efbdb6-9a20-4be6-b9d8-337fb14f5357","ios":"levelo://app?vid=04efbdb6-9a20-4be6-b9d8-337fb14f5357"},"vehicle_type_id":"4","last_reported":1777323040,"current_range_meters":9600,"station_id":"ce4bh0h2rcd13ifvqd50","pricing_plan_id":"cebpf4jnsgd1na2vs0mg"},{"bike_id":"3bb3e953-7b28-4b68-a5fa-b232ff0c32b8","system_id":"levelo_inurba_marseille","lat":43.28856,"lon":5.39313,"is_reserved":false,"is_disabled":false,"rental_uris":{"android":"levelo://app?vid=3bb3e953-7b28-4b68-a5fa-b232ff0c32b8","ios":"levelo://app?vid=3bb3e953-7b28-4b68-a5fa-b232ff0c32b8"},"vehicle_type_id":"4","last_reported":1777323040,"current_range_meters":9600,"station_id":"ce4bh2p2rcd13ifvqdi0","pricing_plan_id":"cebpf4jnsgd1na2vs0mg"},{"bike_id":"df152e23-5620-42f8-972c-983ed3c1dce7","system_id":"levelo_inurba_marseille","lat":43.2856,"lon":5.39505,"is_reserved":false,"is_disabled":false,"rental_uris":{"android":"levelo://app?vid=df152e23-5620-42f8-972c-983ed3c1dce7","ios":"levelo://app?vid=df152e23-5620-42f8-972c-983ed3c1dce7"},"vehicle_type_id":"4","last_reported":1777323040,"current_range_meters":9600,"station_id":"ce4bh292rcd13ifvqdg0","pricing_plan_id":"cebpf4jnsgd1na2vs0mg"},{"bike_id":"dbe62709-63cb-4ecb-b3bb-4e4694ad295e","system_id":"levelo_inurba_marseille","lat":43.31585,"lon":5.41936,"is_reserved":false,"is_disabled":false,"rental_uris":{"android":"levelo://app?vid=dbe62709-63cb-4ecb-b3bb-4e4694ad295e","ios":"levelo://app?vid=dbe62709-63cb-4ecb-b3bb-4e4694ad295e"},"vehicle_type_id":"4","last_reported":1777323040,"current_range_meters":10000,"station_id":"","pricing_plan_id":"cebpf4jnsgd1na2vs0mg"},