{"last_updated":1773679930,"ttl":60,"version":"2.2","data":{"bikes":[{"bike_id":"28108d5f-f5c6-437f-ba05-690931523ec3","system_id":"levelo_inurba_marseille","lat":43.25704,"lon":5.41153,"is_reserved":false,"is_disabled":false,"rental_uris":{"android":"levelo://app?vid=28108d5f-f5c6-437f-ba05-690931523ec3","ios":"levelo://app?vid=28108d5f-f5c6-437f-ba05-690931523ec3"},"vehicle_type_id":"4","last_reported":1773679931,"current_range_meters":28800,"station_id":"ce4bhkp2rcd13ifvqgd0","pricing_plan_id":"cebpf4jnsgd1na2vs0mg"},{"bike_id":"1581d05d-dbda-4af5-aa66-7d7515aaca7a","system_id":"levelo_inurba_marseille","lat":43.28671,"lon":5.38673,"is_reserved":false,"is_disabled":false,"rental_uris":{"android":"levelo://app?vid=1581d05d-dbda-4af5-aa66-7d7515aaca7a","ios":"levelo://app?vid=1581d05d-dbda-4af5-aa66-7d7515aaca7a"},"vehicle_type_id":"4","last_reported":1773679931,"current_range_meters":10800,"station_id":"ce4bh492rcd13ifvqdug","pricing_plan_id":"cebpf4jnsgd1na2vs0mg"},{"bike_id":"0112cc81-8438-4648-bea3-a8efd1c38e40","system_id":"levelo_inurba_marseille","lat":43.30886,"lon":5.39631,"is_reserved":false,"is_disabled":true,"rental_uris":{"android":"levelo://app?vid=0112cc81-8438-4648-bea3-a8efd1c38e40","ios":"levelo://app?vid=0112cc81-8438-4648-bea3-a8efd1c38e40"},"vehicle_type_id":"4","last_reported":1773679931,"current_range_meters":1600,"station_id":"ce4bh012rcd13ifvqcv0","pricing_plan_id":"cebpf4jnsgd1na2vs0mg"},{"bike_id":"a4ca7329-3ac2-44ac-9c8b-c3829e8c8f46","system_id":"levelo_inurba_marseille","lat":43.285,"lon":5.3901,"is_reserved":false,"is_disabled":true,"rental_uris":{"android":"levelo://app?vid=a4ca7329-3ac2-44ac-9c8b-c3829e8c8f46","ios":"levelo://app?vid=a4ca7329-3ac2-44ac-9c8b-c3829e8c8f46"},"vehicle_type_id":"4","last_reported":1773679931,"current_range_meters":4400,"station_id":"","pricing_plan_id":"cebpf4jnsgd1na2vs0mg"},{"bike_id":"79ee3a76-161d-42e4-b558-375f2cb1b0bb","system_id":"levelo_inurba_marseille","lat":43.28281,"lon":5.3508,"is_reserved":false,"is_disabled":false,"rental_uris":{"android":"levelo://app?vid=79ee3a76-161d-42e4-b558-375f2cb1b0bb","ios":"levelo://app?vid=79ee3a76-161d-42e4-b558-375f2cb1b0bb"},"vehicle_type_id":"4","last_reported":1773679931,"current_range_meters":8400,"station_id":"ce4bhbp2rcd13ifvqerg","pricing_plan_id":"cebpf4jnsgd1na2vs0mg"},{"bike_id":"3cde0991-c45c-4738-9884-025e377ba5b2","system_id":"levelo_inurba_marseille","lat":43.24065,"lon":5.37836,"is_reserved":false,"is_disabled":false,"rental_uris":{"android":"levelo://app?vid=3cde0991-c45c-4738-9884-025e377ba5b2","ios":"levelo://app?vid=3cde0991-c45c-4738-9884-025e377ba5b2"},"vehicle_type_id":"4","last_reported":1773679931,"current_range_meters":36000,"station_id":"","pricing_plan_id":"cebpf4jnsgd1na2vs0mg"},{"bike_id":"0af203fb-c1fe-4f43-a9a2-b6b372ffe20c","system_id":"levelo_inurba_marseille","lat":43.28442,"lon":5.48419,"is_reserved":false,"is_disabled":false,"rental_uris":{"android":"levelo://app?vid=0af203fb-c1fe-4f43-a9a2-b6b372ffe20c","ios":"levelo://app?vid=0af203fb-c1fe-4f43-a9a2-b6b372ffe20c"},"vehicle_type_id":"4","last_reported":1773679931,"current_range_meters":18000,"station_id":"","pricing_plan_id":"cebpf4jnsgd1na2vs0mg"},{"bike_id":"0ecd47cf-a7b9-4223-8093-c6087cb3bd4a","system_id":"levelo_inurba_marseille","lat":43.28417,"lon":5.34957,"is_reserved":false,"is_disabled":false,"rental_uris":{"android":"levelo://app?vid=0ecd47cf-a7b9-4223-8093-c6087cb3bd4a","ios":"levelo://app?vid=0ecd47cf-a7b9-4223-8093-c6087cb3bd4a"},"vehicle_type_id":"4","last_reported":1773679931,"current_range_meters":18800,"station_id":"ce4bhbh2rcd13ifvqepg","pricing_plan_id":"cebpf4jnsgd1na2vs0mg"},{"bike_id":"fa05944a-25c4-4c7a-aaf9-d8f832bd3a59","system_id":"levelo_inurba_marseille","lat":43.30732,"lon":5.42442,"is_reserved":false,"is_disabled":false,"rental_uris":{"android":"levelo://app?vid=fa05944a-25c4-4c7a-aaf9-d8f832bd3a59","ios":"levelo://app?vid=fa05944a-25c4-4c7a-aaf9-d8f832bd3a59"},"vehicle_type_id":"4","last_reported":1773679931,"current_range_meters":19200,"station_id":"st_cvj6ca6bvosntc0bfgr0","pricing_plan_id":"cebpf4jnsgd1na2vs0mg"},{"bike_id":"319b1581-475f-4797-be0a-0bd4a5861756","system_id":"levelo_inurba_marseille","lat":43.31373,"lon":5.36734,"is_reserved":false,"is_disabled":false,"rental_uris":{"android":"levelo://app?vid=319b1581-475f-4797-be0a-0bd4a5861756","ios":"levelo://app?vid=319b1581-475f-4797-be0a-0bd4a5861756"},"vehicle_type_id":"4","last_reported":1773679931,"current_range_meters":33200,"station_id":"ce4bgr92rcd13ifvqc6g","pricing_plan_id":"cebpf4jnsgd1na2vs0mg"},{"bike_id":"ee3a78bd-9b7f-41d0-9f1d-2dcc5ec6f6cf","system_id":"levelo_inurba_marseille","lat":43.27315,"lon":5.39138,"is_reserved":false,"is_disabled":false,"rental_uris":{"android":"levelo://app?vid=ee3a78bd-9b7f-41d0-9f1d-2dcc5ec6f6cf","ios":"levelo://app?vid=ee3a78bd-9b7f-41d0-9f1d-2dcc5ec6f6cf"},"vehicle_type_id":"4","last_reported":1773679931,"current_range_meters":38000,"station_id":"","pricing_plan_id":"cebpf4jnsgd1na2vs0mg"},{"bike_id":"7515e978-98b4-41e7-bf08-1fb6ad8edb5a","system_id":"levelo_inurba_marseille","lat":43.24383,"lon":5.37043,"is_reserved":false,"is_disabled":false,"rental_uris":{"android":"levelo://app?vid=7515e978-98b4-41e7-bf08-1fb6ad8edb5a","ios":"levelo://app?vid=7515e978-98b4-41e7-bf08-1fb6ad8edb5a"},"vehicle_type_id":"4","last_reported":1773679931,"current_range_meters":39200,"station_id":"ce4bhhh2rcd13ifvqfk0","pricing_plan_id":"cebpf4jnsgd1na2vs0mg"},{"bike_id":"e06b6f91-93be-4271-a893-ca5b609ebf7f","system_id":"levelo_inurba_marseille","lat":43.30541,"lon":5.36537,"is_reserved":false,"is_disabled":false,"rental_uris":{"android":"levelo://app?vid=e06b6f91-93be-4271-a893-ca5b609ebf7f","ios":"levelo://app?vid=e06b6f91-93be-4271-a893-ca5b609ebf7f"},"vehicle_type_id":"4","last_reported":1773679931,"current_range_meters":19200,"station_id":"ce4bgs12rcd13ifvqcag","pricing_plan_id":"cebpf4jnsgd1na2vs0mg"},{"bike_id":"7e113368-8b43-4dc9-a7d3-1b200ce7f912","system_id":"levelo_inurba_marseille","lat":43.27073,"lon":5.38305,"is_reserved":false,"is_disabled":false,"rental_uris":{"android":"levelo://app?vid=7e113368-8b43-4dc9-a7d3-1b200ce7f912","ios":"levelo://app?vid=7e113368-8b43-4dc9-a7d3-1b200ce7f912"},"vehicle_type_id":"4","last_reported":1773679931,"current_range_meters":28400,"station_id":"st_d3n2fo6cfp8s73cte1j0","pricing_plan_id":"cebpf4jnsgd1na2vs0mg"},{"bike_id":"b117ada9-6051-4ec8-af9c-fcb23f39ec91","system_id":"levelo_inurba_marseille","lat":43.292612,"lon":5.384387,"is_reserved":false,"is_disabled":false,"rental_uris":{"android":"levelo://app?vid=b117ada9-6051-4ec8-af9c-fcb23f39ec91","ios":"levelo://app?vid=b117ada9-6051-4ec8-af9c-fcb23f39ec91"},"vehicle_type_id":"4","last_reported":1773679931,"current_range_meters":12400,"station_id":"ce4bh692rcd13ifvqea0","pricing_plan_id":"cebpf4jnsgd1na2vs0mg"},{"bike_id":"6f7d91e0-d8ff-4289-b721-5ac744a4b9bc","system_id":"levelo_inurba_marseille","lat":43.25112,"lon":5.4033,"is_reserved":false,"is_disabled":false,"rental_uris":{"android":"levelo://app?vid=6f7d91e0-d8ff-4289-b721-5ac744a4b9bc","ios":"levelo://app?vid=6f7d91e0-d8ff-4289-b721-5ac744a4b9bc"},"vehicle_type_id":"4","last_reported":1773679931,"current_range_meters":30800,"station_id":"ce4bhlh2rcd13ifvqgig","pricing_plan_id":"cebpf4jnsgd1na2vs0mg"},{"bike_id":"9b90fc99-5ad3-4599-9271-4436dfc71249","system_id":"levelo_inurba_marseille","lat":43.33763,"lon":5.37445,"is_reserved":false,"is_disabled":true,"rental_uris":{"android":"levelo://app?vid=9b90fc99-5ad3-4599-9271-4436dfc71249","ios":"levelo://app?vid=9b90fc99-5ad3-4599-9271-4436dfc71249"},"vehicle_type_id":"4","last_reported":1773679931,"current_range_meters":0,"station_id":"","pricing_plan_id":"cebpf4jnsgd1na2vs0mg"},{"bike_id":"8d7cf5ec-0528-43de-81a1-a8dbb268923e","system_id":"levelo_inurba_marseille","lat":43.26953,"lon":5.38627,"is_reserved":false,"is_disabled":false,"rental_uris":{"android":"levelo://app?vid=8d7cf5ec-0528-43de-81a1-a8dbb268923e","ios":"levelo://app?vid=8d7cf5ec-0528-43de-81a1-a8dbb268923e"},"vehicle_type_id":"4","last_reported":1773679931,"current_range_meters":10000,"station_id":"ce4bhh92rcd13ifvqfh0","pricing_plan_id":"cebpf4jnsgd1na2vs0mg"},{"bike_id":"4a4664ab-f777-4ebc-8cd0-daa91faf6694","system_id":"levelo_inurba_marseille","lat":43.27357,"lon":5.36229,"is_reserved":false,"is_disabled":false,"rental_uris":{"android":"levelo://app?vid=4a4664ab-f777-4ebc-8cd0-daa91faf6694","ios":"levelo://app?vid=4a4664ab-f777-4ebc-8cd0-daa91faf6694"},"vehicle_type_id":"4","last_reported":1773679931,"current_range_meters":28800,"station_id":"ce4bhbh2rcd13ifvqeo0","pricing_plan_id":"cebpf4jnsgd1na2vs0mg"},{"bike_id":"978a4c15-7738-4ac7-b950-093dc28561d0","system_id":"levelo_inurba_marseille","lat":43.29827,"lon":5.37117,"is_reserved":false,"is_disabled":false,"rental_uris":{"android":"levelo://app?vid=978a4c15-7738-4ac7-b950-093dc28561d0","ios":"levelo://app?vid=978a4c15-7738-4ac7-b950-093dc28561d0"},"vehicle_type_id":"4","last_reported":1773679931,"current_range_meters":39200,"station_id":"","pricing_plan_id":"cebpf4jnsgd1na2vs0mg"},{"bike_id":"a67a9ceb-fc67-49ce-bd97-e7e139994680","system_id":"levelo_inurba_marseille","lat":43.29527,"lon":5.37501,"is_reserved":false,"is_disabled":false,"rental_uris":{"android":"levelo://app?vid=a67a9ceb-fc67-49ce-bd97-e7e139994680","ios":"levelo://app?vid=a67a9ceb-fc67-49ce-bd97-e7e139994680"},"vehicle_type_id":"4","last_reported":1773679931,"current_range_meters":21600,"station_id":"ce4bgkp2rcd13ifvqbmg","pricing_plan_id":"cebpf4jnsgd1na2vs0mg"},{"bike_id":"4a8d7a43-5dbb-42a2-b5ca-8c6627ac6666","system_id":"levelo_inurba_marseille","lat":43.30183,"lon":5.36613,"is_reserved":false,"is_disabled":false,"rental_uris":{"android":"levelo://app?vid=4a8d7a43-5dbb-42a2-b5ca-8c6627ac6666","ios":"levelo://app?vid=4a8d7a43-5dbb-42a2-b5ca-8c6627ac6666"},"vehicle_type_id":"4","last_reported":1773679931,"current_range_meters":39200,"station_id":"ce4bgrh2rcd13ifvqc8g","pricing_plan_id":"cebpf4jnsgd1na2vs0mg"},{"bike_id":"a64e132b-0d93-480b-bb63-37869c64fef3","system_id":"levelo_inurba_marseille","lat":43.286023,"lon":5.386071,"is_reserved":false,"is_disabled":false,"rental_uris":{"android":"levelo://app?vid=a64e132b-0d93-480b-bb63-37869c64fef3","ios":"levelo://app?vid=a64e132b-0d93-480b-bb63-37869c64fef3"},"vehicle_type_id":"4","last_reported":1773679931,"current_range_meters":22400,"station_id":"ce4bh8p2rcd13ifvqeb0","pricing_plan_id":"cebpf4jnsgd1na2vs0mg"},{"bike_id":"29e43977-ef6d-49b4-8dac-e1d069a3dbc6","system_id":"levelo_inurba_marseille","lat":43.30867,"lon":5.37188,"is_reserved":false,"is_disabled":false,"rental_uris":{"android":"levelo://app?vid=29e43977-ef6d-49b4-8dac-e1d069a3dbc6","ios":"levelo://app?vid=29e43977-ef6d-49b4-8dac-e1d069a3dbc6"},"vehicle_type_id":"4","last_reported":1773679931,"current_range_meters":24000,"station_id":"ce4bguh2rcd13ifvqckg","pricing_plan_id":"cebpf4jnsgd1na2vs0mg"},{"bike_id":"7d5b997f-5115-45cd-8ced-c8507a994f25","system_id":"levelo_inurba_marseille","lat":43.30296,"lon":5.36626,"is_reserved":false,"is_disabled":false,"rental_uris":{"android":"levelo://app?vid=7d5b997f-5115-45cd-8ced-c8507a994f25","ios":"levelo://app?vid=7d5b997f-5115-45cd-8ced-c8507a994f25"},"vehicle_type_id":"4","last_reported":1773679931,"current_range_meters":10000,"station_id":"","pricing_plan_id":"cebpf4jnsgd1na2vs0mg"},{"bike_id":"3acb816e-1f68-4780-8294-a90df833ac59","system_id":"levelo_inurba_marseille","lat":43.21742,"lon":5.34603,"is_reserved":false,"is_disabled":false,"rental_uris":{"android":"levelo://app?vid=3acb816e-1f68-4780-8294-a90df833ac59","ios":"levelo://app?vid=3acb816e-1f68-4780-8294-a90df833ac59"},"vehicle_type_id":"4","last_reported":1773679931,"current_range_meters":10800,"station_id":"st_cvj6r9ubvosntc0bgbag","pricing_plan_id":"cebpf4jnsgd1na2vs0mg"},{"bike_id":"f7b4a7b1-1af9-42f8-bfb3-60cc558d1746","system_id":"levelo_inurba_marseille","lat":43.25475,"lon":5.37979,"is_reserved":false,"is_disabled":false,"rental_uris":{"android":"levelo://app?vid=f7b4a7b1-1af9-42f8-bfb3-60cc558d1746","ios":"levelo://app?vid=f7b4a7b1-1af9-42f8-bfb3-60cc558d1746"},"vehicle_type_id":"4","last_reported":1773679931,"current_range_meters":39200,"station_id":"","pricing_plan_id":"cebpf4jnsgd1na2vs0mg"},{"bike_id":"3da27fab-f707-4d6f-8b10-883081079bc6","system_id":"levelo_inurba_marseille","lat":43.27363,"lon":5.36255,"is_reserved":false,"is_disabled":false,"rental_uris":{"android":"levelo://app?vid=3da27fab-f707-4d6f-8b10-883081079bc6","ios":"levelo://app?vid=3da27fab-f707-4d6f-8b10-883081079bc6"},"vehicle_type_id":"4","last_reported":1773679931,"current_range_meters":38800,"station_id":"ce4bhbh2rcd13ifvqeo0","pricing_plan_id":"cebpf4jnsgd1na2vs0mg"},{"bike_id":"db657f0a-2eb1-43fd-817e-df7c7be8fd2e","system_id":"levelo_inurba_marseille","lat":43.2657,"lon":5.4032,"is_reserved":false,"is_disabled":false,"rental_uris":{"android":"levelo://app?vid=db657f0a-2eb1-43fd-817e-df7c7be8fd2e","ios":"levelo://app?vid=db657f0a-2eb1-43fd-817e-df7c7be8fd2e"},"vehicle_type_id":"4","last_reported":1773679931,"current_range_meters":35600,"station_id":"ce4bhmp2rcd13ifvqgng","pricing_plan_id":"cebpf4jnsgd1na2vs0mg"},{"bike_id":"358f4fc3-d164-4b87-b69f-6a31956c07d5","system_id":"levelo_inurba_marseille","lat":43.29013,"lon":5.38638,"is_reserved":false,"is_disabled":false,"rental_uris":{"android":"levelo://app?vid=358f4fc3-d164-4b87-b69f-6a31956c07d5","ios":"levelo://app?vid=358f4fc3-d164-4b87-b69f-6a31956c07d5"},"vehicle_type_id":"4","last_reported":1773679931,"current_range_meters":12000,"station_id":"ce4bh4p2rcd13ifvqe0g","pricing_plan_id":"cebpf4jnsgd1na2vs0mg"},{"bike_id":"7e55300e-c6ce-4cea-b352-04866308b200","system_id":"levelo_inurba_marseille","lat":43.29547,"lon":5.42241,"is_reserved":false,"is_disabled":false,"rental_uris":{"android":"levelo://app?vid=7e55300e-c6ce-4cea-b352-04866308b200","ios":"levelo://app?vid=7e55300e-c6ce-4cea-b352-04866308b200"},"vehicle_type_id":"4","last_reported":1773679931,"current_range_meters":19600,"station_id":"ce4bhph2rcd13ifvqhdg","pricing_plan_id":"cebpf4jnsgd1na2vs0mg"},{"bike_id":"83749433-0a80-4c00-b712-c6dbf0d86014","system_id":"levelo_inurba_marseille","lat":43.3055,"lon":5.36532,"is_reserved":false,"is_disabled":false,"rental_uris":{"android":"levelo://app?vid=83749433-0a80-4c00-b712-c6dbf0d86014","ios":"levelo://app?vid=83749433-0a80-4c00-b712-c6dbf0d86014"},"vehicle_type_id":"4","last_reported":1773679931,"current_range_meters":25600,"station_id":"ce4bgs12rcd13ifvqcag","pricing_plan_id":"cebpf4jnsgd1na2vs0mg"},{"bike_id":"61810534-e31e-4a8c-be14-f067091c4302","system_id":"levelo_inurba_marseille","lat":43.28404,"lon":5.34983,"is_reserved":false,"is_disabled":false,"rental_uris":{"android":"levelo://app?vid=61810534-e31e-4a8c-be14-f067091c4302","ios":"levelo://app?vid=61810534-e31e-4a8c-be14-f067091c4302"},"vehicle_type_id":"4","last_reported":1773679931,"current_range_meters":39200,"station_id":"ce4bhbh2rcd13ifvqepg","pricing_plan_id":"cebpf4jnsgd1na2vs0mg"},{"bike_id":"396262c4-3c66-4f47-8080-cb1a5d1559a6","system_id":"levelo_inurba_marseille","lat":43.26193,"lon":5.37437,"is_reserved":false,"is_disabled":false,"rental_uris":{"android":"levelo://app?vid=396262c4-3c66-4f47-8080-cb1a5d1559a6","ios":"levelo://app?vid=396262c4-3c66-4f47-8080-cb1a5d1559a6"},"vehicle_type_id":"4","last_reported":1773679931,"current_range_meters":39200,"station_id":"ce4bhgp2rcd13ifvqfc0","pricing_plan_id":"cebpf4jnsgd1na2vs0mg"},{"bike_id":"5eaad388-2ccc-4bbb-9427-e42f493f2045","system_id":"levelo_inurba_marseille","lat":43.30588,"lon":5.37196,"is_reserved":false,"is_disabled":false,"rental_uris":{"android":"levelo://app?vid=5eaad388-2ccc-4bbb-9427-e42f493f2045","ios":"levelo://app?vid=5eaad388-2ccc-4bbb-9427-e42f493f2045"},"vehicle_type_id":"4","last_reported":1773679931,"current_range_meters":38000,"station_id":"ce4bgqh2rcd13ifvqc4g","pricing_plan_id":"cebpf4jnsgd1na2vs0mg"},{"bike_id":"8a39bd95-653a-47cf-989d-cd8f1fe2ee04","system_id":"levelo_inurba_marseille","lat":43.29848,"lon":5.3627,"is_reserved":false,"is_disabled":false,"rental_uris":{"android":"levelo://app?vid=8a39bd95-653a-47cf-989d-cd8f1fe2ee04","ios":"levelo://app?vid=8a39bd95-653a-47cf-989d-cd8f1fe2ee04"},"vehicle_type_id":"4","last_reported":1773679931,"current_range_meters":39200,"station_id":"ce4bgpp2rcd13ifvqc3g","pricing_plan_id":"cebpf4jnsgd1na2vs0mg"},{"bike_id":"b992d013-31c6-40e6-b76c-ffb49d136524","system_id":"levelo_inurba_marseille","lat":43.32364,"lon":5.38881,"is_reserved":false,"is_disabled":false,"rental_uris":{"android":"levelo://app?vid=b992d013-31c6-40e6-b76c-ffb49d136524","ios":"levelo://app?vid=b992d013-31c6-40e6-b76c-ffb49d136524"},"vehicle_type_id":"4","last_reported":1773679931,"current_range_meters":38000,"station_id":"ce4bhqp2rcd13ifvqhog","pricing_plan_id":"cebpf4jnsgd1na2vs0mg"},{"bike_id":"b443de2b-c1f0-4fc8-a79a-6fdeb838b6c0","system_id":"levelo_inurba_marseille","lat":43.31714,"lon":5.4371,"is_reserved":false,"is_disabled":false,"rental_uris":{"android":"levelo://app?vid=b443de2b-c1f0-4fc8-a79a-6fdeb838b6c0","ios":"levelo://app?vid=b443de2b-c1f0-4fc8-a79a-6fdeb838b6c0"},"vehicle_type_id":"4","last_reported":1773679931,"current_range_meters":34800,"station_id":"ce4bhp92rcd13ifvqhcg","pricing_plan_id":"cebpf4jnsgd1na2vs0mg"},{"bike_id":"95335745-9338-4a1d-a429-0f72ada4d5ca","system_id":"levelo_inurba_marseille","lat":43.26354,"lon":5.41033,"is_reserved":false,"is_disabled":false,"rental_uris":{"android":"levelo://app?vid=95335745-9338-4a1d-a429-0f72ada4d5ca","ios":"levelo://app?vid=95335745-9338-4a1d-a429-0f72ada4d5ca"},"vehicle_type_id":"4","last_reported":1773679931,"current_range_meters":25200,"station_id":"st_d4e5ca6na9uc73bfl5fg","pricing_plan_id":"cebpf4jnsgd1na2vs0mg"},{"bike_id":"f939eb21-ae6c-4e2f-a8f3-abc7407cdefe","system_id":"levelo_inurba_marseille","lat":43.257,"lon":5.41155,"is_reserved":false,"is_disabled":false,"rental_uris":{"android":"levelo://app?vid=f939eb21-ae6c-4e2f-a8f3-abc7407cdefe","ios":"levelo://app?vid=f939eb21-ae6c-4e2f-a8f3-abc7407cdefe"},"vehicle_type_id":"4","last_reported":1773679931,"current_range_meters":27600,"station_id":"ce4bhkp2rcd13ifvqgd0","pricing_plan_id":"cebpf4jnsgd1na2vs0mg"},{"bike_id":"014fbe6d-acef-4024-b919-caaae3fc7ea1","system_id":"levelo_inurba_marseille","lat":43.28621,"lon":5.35139,"is_reserved":false,"is_disabled":false,"rental_uris":{"android":"levelo://app?vid=014fbe6d-acef-4024-b919-caaae3fc7ea1","ios":"levelo://app?vid=014fbe6d-acef-4024-b919-caaae3fc7ea1"},"vehicle_type_id":"4","last_reported":1773679931,"current_range_meters":28400,"station_id":"ce4bhch2rcd13ifvqeug","pricing_plan_id":"cebpf4jnsgd1na2vs0mg"},{"bike_id":"c2c4fd3f-7ca0-4d16-8755-77f656f8e281","system_id":"levelo_inurba_marseille","lat":43.238958,"lon":5.374546,"is_reserved":false,"is_disabled":true,"rental_uris":{"android":"levelo://app?vid=c2c4fd3f-7ca0-4d16-8755-77f656f8e281","ios":"levelo://app?vid=c2c4fd3f-7ca0-4d16-8755-77f656f8e281"},"vehicle_type_id":"4","last_reported":1773679931,"current_range_meters":0,"station_id":"","pricing_plan_id":"cebpf4jnsgd1na2vs0mg"},{"bike_id":"50c7323a-e0d3-40d7-bb52-3835c1efc8eb","system_id":"levelo_inurba_marseille","lat":43.26209,"lon":5.37918,"is_reserved":false,"is_disabled":false,"rental_uris":{"android":"levelo://app?vid=50c7323a-e0d3-40d7-bb52-3835c1efc8eb","ios":"levelo://app?vid=50c7323a-e0d3-40d7-bb52-3835c1efc8eb"},"vehicle_type_id":"4","last_reported":1773679931,"current_range_meters":31200,"station_id":"ce4bhjp2rcd13ifvqg90","pricing_plan_id":"cebpf4jnsgd1na2vs0mg"},{"bike_id":"d0dab2fa-d617-4c19-a612-133b45b47130","system_id":"levelo_inurba_marseille","lat":43.23201,"lon":5.3555,"is_reserved":false,"is_disabled":false,"rental_uris":{"android":"levelo://app?vid=d0dab2fa-d617-4c19-a612-133b45b47130","ios":"levelo://app?vid=d0dab2fa-d617-4c19-a612-133b45b47130"},"vehicle_type_id":"4","last_reported":1773679931,"current_range_meters":20400,"station_id":"ce4bhu92rcd13ifvqi70","pricing_plan_id":"cebpf4jnsgd1na2vs0mg"},{"bike_id":"491ba74c-a458-433d-a534-dfa81b7720cd","system_id":"levelo_inurba_marseille","lat":43.21743,"lon":5.34606,"is_reserved":false,"is_disabled":false,"rental_uris":{"android":"levelo://app?vid=491ba74c-a458-433d-a534-dfa81b7720cd","ios":"levelo://app?vid=491ba74c-a458-433d-a534-dfa81b7720cd"},"vehicle_type_id":"4","last_reported":1773679931,"current_range_meters":9200,"station_id":"st_cvj6r9ubvosntc0bgbag","pricing_plan_id":"cebpf4jnsgd1na2vs0mg"},{"bike_id":"fdf866ca-9a01-40b6-8b5d-7ed716ee6f5e","system_id":"levelo_inurba_marseille","lat":43.30759,"lon":5.42422,"is_reserved":false,"is_disabled":false,"rental_uris":{"android":"levelo://app?vid=fdf866ca-9a01-40b6-8b5d-7ed716ee6f5e","ios":"levelo://app?vid=fdf866ca-9a01-40b6-8b5d-7ed716ee6f5e"},"vehicle_type_id":"4","last_reported":1773679931,"current_range_meters":38800,"station_id":"st_cvj6ca6bvosntc0bfgr0","pricing_plan_id":"cebpf4jnsgd1na2vs0mg"},{"bike_id":"6a66164b-9aa3-4c95-8e0d-43ad6a93591e","system_id":"levelo_inurba_marseille","lat":43.25501,"lon":5.37649,"is_reserved":false,"is_disabled":false,"rental_uris":{"android":"levelo://app?vid=6a66164b-9aa3-4c95-8e0d-43ad6a93591e","ios":"levelo://app?vid=6a66164b-9aa3-4c95-8e0d-43ad6a93591e"},"vehicle_type_id":"4","last_reported":1773679931,"current_range_meters":36400,"station_id":"ce4bhh12rcd13ifvqff0","pricing_plan_id":"cebpf4jnsgd1na2vs0mg"},{"bike_id":"c2d75a77-7dda-428e-bdbd-a97c9d7e2102","system_id":"levelo_inurba_marseille","lat":43.27076,"lon":5.38307,"is_reserved":false,"is_disabled":true,"rental_uris":{"android":"levelo://app?vid=c2d75a77-7dda-428e-bdbd-a97c9d7e2102","ios":"levelo://app?vid=c2d75a77-7dda-428e-bdbd-a97c9d7e2102"},"vehicle_type_id":"4","last_reported":1773679931,"current_range_meters":35200,"station_id":"st_d3n2fo6cfp8s73cte1j0","pricing_plan_id":"cebpf4jnsgd1na2vs0mg"},{"bike_id":"857b6928-ed90-4f6e-a6cf-93ba460b7680","system_id":"levelo_inurba_marseille","lat":43.32364,"lon":5.3897,"is_reserved":false,"is_disabled":false,"rental_uris":{"android":"levelo://app?vid=857b6928-ed90-4f6e-a6cf-93ba460b7680","ios":"levelo://app?vid=857b6928-ed90-4f6e-a6cf-93ba460b7680"},"vehicle_type_id":"4","last_reported":1773679931,"current_range_meters":39200,"station_id":"","pricing_plan_id":"cebpf4jnsgd1na2vs0mg"},{"bike_id":"e378ab9d-c754-4563-b960-fd5460f9bff6","system_id":"levelo_inurba_marseille","lat":43.29907,"lon":5.37571,"is_reserved":false,"is_disabled":false,"rental_uris":{"android":"levelo://app?vid=e378ab9d-c754-4563-b960-fd5460f9bff6","ios":"levelo://app?vid=e378ab9d-c754-4563-b960-fd5460f9bff6"},"vehicle_type_id":"4","last_reported":1773679931,"current_range_meters":38400,"station_id":"","pricing_plan_id":"cebpf4jnsgd1na2vs0mg"},{"bike_id":"dea631f7-42a0-4fc4-b750-984aa138e4f3","system_id":"levelo_inurba_marseille","lat":43.32358,"lon":5.38815,"is_reserved":false,"is_disabled":false,"rental_uris":{"android":"levelo://app?vid=dea631f7-42a0-4fc4-b750-984aa138e4f3","ios":"levelo://app?vid=dea631f7-42a0-4fc4-b750-984aa138e4f3"},"vehicle_type_id":"4","last_reported":1773679931,"current_range_meters":32800,"station_id":"","pricing_plan_id":"cebpf4jnsgd1na2vs0mg"},{"bike_id":"12bb0608-da9d-4e04-8f31-0e077a96fffb","system_id":"levelo_inurba_marseille","lat":43.25573,"lon":5.38252,"is_reserved":false,"is_disabled":false,"rental_uris":{"android":"levelo://app?vid=12bb0608-da9d-4e04-8f31-0e077a96fffb","ios":"levelo://app?vid=12bb0608-da9d-4e04-8f31-0e077a96fffb"},"vehicle_type_id":"4","last_reported":1773679931,"current_range_meters":28000,"station_id":"ce4bhih2rcd13ifvqfs0","pricing_plan_id":"cebpf4jnsgd1na2vs0mg"},{"bike_id":"ef124b6c-1864-4cf0-9457-14566d1138f0","system_id":"levelo_inurba_marseille","lat":43.26368,"lon":5.41056,"is_reserved":false,"is_disabled":false,"rental_uris":{"android":"levelo://app?vid=ef124b6c-1864-4cf0-9457-14566d1138f0","ios":"levelo://app?vid=ef124b6c-1864-4cf0-9457-14566d1138f0"},"vehicle_type_id":"4","last_reported":1773679931,"current_range_meters":26000,"station_id":"st_d4e5ca6na9uc73bfl5fg","pricing_plan_id":"cebpf4jnsgd1na2vs0mg"},{"bike_id":"87961bc8-b9ec-434a-9714-7ea7cf0235a9","system_id":"levelo_inurba_marseille","lat":43.33763,"lon":5.37451,"is_reserved":false,"is_disabled":false,"rental_uris":{"android":"levelo://app?vid=87961bc8-b9ec-434a-9714-7ea7cf0235a9","ios":"levelo://app?vid=87961bc8-b9ec-434a-9714-7ea7cf0235a9"},"vehicle_type_id":"4","last_reported":1773679931,"current_range_meters":12000,"station_id":"","pricing_plan_id":"cebpf4jnsgd1na2vs0mg"},{"bike_id":"1dbc2359-923d-4f88-a168-a5102060bfcb","system_id":"levelo_inurba_marseille","lat":43.28284,"lon":5.35084,"is_reserved":false,"is_disabled":false,"rental_uris":{"android":"levelo://app?vid=1dbc2359-923d-4f88-a168-a5102060bfcb","ios":"levelo://app?vid=1dbc2359-923d-4f88-a168-a5102060bfcb"},"vehicle_type_id":"4","last_reported":1773679931,"current_range_meters":14800,"station_id":"ce4bhbp2rcd13ifvqerg","pricing_plan_id":"cebpf4jnsgd1na2vs0mg"},{"bike_id":"e37be8f6-aeb4-43b7-8dd0-e63345507d14","system_id":"levelo_inurba_marseille","lat":43.30338,"lon":5.41879,"is_reserved":false,"is_disabled":false,"rental_uris":{"android":"levelo://app?vid=e37be8f6-aeb4-43b7-8dd0-e63345507d14","ios":"levelo://app?vid=e37be8f6-aeb4-43b7-8dd0-e63345507d14"},"vehicle_type_id":"4","last_reported":1773679931,"current_range_meters":35600,"station_id":"ce4bhop2rcd13ifvqh7g","pricing_plan_id":"cebpf4jnsgd1na2vs0mg"},{"bike_id":"5dedbb18-e988-4c62-a1b7-6082fc58ac3f","system_id":"levelo_inurba_marseille","lat":43.25079,"lon":5.39513,"is_reserved":false,"is_disabled":false,"rental_uris":{"android":"levelo://app?vid=5dedbb18-e988-4c62-a1b7-6082fc58ac3f","ios":"levelo://app?vid=5dedbb18-e988-4c62-a1b7-6082fc58ac3f"},"vehicle_type_id":"4","last_reported":1773679931,"current_range_meters":3600,"station_id":"ce4bhm12rcd13ifvqgkg","pricing_plan_id":"cebpf4jnsgd1na2vs0mg"},{"bike_id":"7d0d6579-73dd-45b7-81e1-90af3d6ef163","system_id":"levelo_inurba_marseille","lat":43.22567,"lon":5.41644,"is_reserved":false,"is_disabled":false,"rental_uris":{"android":"levelo://app?vid=7d0d6579-73dd-45b7-81e1-90af3d6ef163","ios":"levelo://app?vid=7d0d6579-73dd-45b7-81e1-90af3d6ef163"},"vehicle_type_id":"4","last_reported":1773679931,"current_range_meters":8800,"station_id":"st_d2o4gvlbi1j2169b742g","pricing_plan_id":"cebpf4jnsgd1na2vs0mg"},{"bike_id":"950b1b00-2f64-40ff-b5c3-a8bf83d1cec0","system_id":"levelo_inurba_marseille","lat":43.30812,"lon":5.38143,"is_reserved":false,"is_disabled":false,"rental_uris":{"android":"levelo://app?vid=950b1b00-2f64-40ff-b5c3-a8bf83d1cec0","ios":"levelo://app?vid=950b1b00-2f64-40ff-b5c3-a8bf83d1cec0"},"vehicle_type_id":"4","last_reported":1773679931,"current_range_meters":37600,"station_id":"ce4bgt12rcd13ifvqce0","pricing_plan_id":"cebpf4jnsgd1na2vs0mg"},{"bike_id":"2ab628f4-4cfd-478e-9f06-4eed69164c58","system_id":"levelo_inurba_marseille","lat":43.31373,"lon":5.36714,"is_reserved":false,"is_disabled":false,"rental_uris":{"android":"levelo://app?vid=2ab628f4-4cfd-478e-9f06-4eed69164c58","ios":"levelo://app?vid=2ab628f4-4cfd-478e-9f06-4eed69164c58"},"vehicle_type_id":"4","last_reported":1773679931,"current_range_meters":32400,"station_id":"ce4bgr92rcd13ifvqc6g","pricing_plan_id":"cebpf4jnsgd1na2vs0mg"},{"bike_id":"de3e3c75-ed7d-45f7-830a-1f53c5325eae","system_id":"levelo_inurba_marseille","lat":43.28132,"lon":5.42639,"is_reserved":false,"is_disabled":false,"rental_uris":{"android":"levelo://app?vid=de3e3c75-ed7d-45f7-830a-1f53c5325eae","ios":"levelo://app?vid=de3e3c75-ed7d-45f7-830a-1f53c5325eae"},"vehicle_type_id":"4","last_reported":1773679931,"current_range_meters":22400,"station_id":"ce4bhnh2rcd13ifvqgug","pricing_plan_id":"cebpf4jnsgd1na2vs0mg"},{"bike_id":"3d3afd54-1c51-4d77-8394-a33323eb7e6e","system_id":"levelo_inurba_marseille","lat":43.24945,"lon":5.40502,"is_reserved":false,"is_disabled":false,"rental_uris":{"android":"levelo://app?vid=3d3afd54-1c51-4d77-8394-a33323eb7e6e","ios":"levelo://app?vid=3d3afd54-1c51-4d77-8394-a33323eb7e6e"},"vehicle_type_id":"4","last_reported":1773679931,"current_range_meters":8800,"station_id":"st_d2ngiaodas8pm72gd1h0","pricing_plan_id":"cebpf4jnsgd1na2vs0mg"},{"bike_id":"6bd46585-7360-490f-b2a6-8e61e6304105","system_id":"levelo_inurba_marseille","lat":43.29728,"lon":5.42687,"is_reserved":false,"is_disabled":false,"rental_uris":{"android":"levelo://app?vid=6bd46585-7360-490f-b2a6-8e61e6304105","ios":"levelo://app?vid=6bd46585-7360-490f-b2a6-8e61e6304105"},"vehicle_type_id":"4","last_reported":1773679931,"current_range_meters":14000,"station_id":"","pricing_plan_id":"cebpf4jnsgd1na2vs0mg"},{"bike_id":"4c177e21-a8fe-4f57-a94f-d114f72249f7","system_id":"levelo_inurba_marseille","lat":43.31858,"lon":5.3697,"is_reserved":false,"is_disabled":false,"rental_uris":{"android":"levelo://app?vid=4c177e21-a8fe-4f57-a94f-d114f72249f7","ios":"levelo://app?vid=4c177e21-a8fe-4f57-a94f-d114f72249f7"},"vehicle_type_id":"4","last_reported":1773679931,"current_range_meters":35600,"station_id":"","pricing_plan_id":"cebpf4jnsgd1na2vs0mg"},{"bike_id":"022b5c41-0403-42dc-b165-343ac95ee5ad","system_id":"levelo_inurba_marseille","lat":43.33138,"lon":5.39246,"is_reserved":false,"is_disabled":false,"rental_uris":{"android":"levelo://app?vid=022b5c41-0403-42dc-b165-343ac95ee5ad","ios":"levelo://app?vid=022b5c41-0403-42dc-b165-343ac95ee5ad"},"vehicle_type_id":"4","last_reported":1773679931,"current_range_meters":34800,"station_id":"","pricing_plan_id":"cebpf4jnsgd1na2vs0mg"},{"bike_id":"48941040-0cfe-478f-969a-bd921eb3571e","system_id":"levelo_inurba_marseille","lat":43.29949,"lon":5.36545,"is_reserved":false,"is_disabled":false,"rental_uris":{"android":"levelo://app?vid=48941040-0cfe-478f-969a-bd921eb3571e","ios":"levelo://app?vid=48941040-0cfe-478f-969a-bd921eb3571e"},"vehicle_type_id":"4","last_reported":1773679931,"current_range_meters":3600,"station_id":"ce4bgm92rcd13ifvqbr0","pricing_plan_id":"cebpf4jnsgd1na2vs0mg"},{"bike_id":"03b1b92a-d21f-4b09-ad20-c80e5eee47a1","system_id":"levelo_inurba_marseille","lat":43.29849,"lon":5.36276,"is_reserved":false,"is_disabled":false,"rental_uris":{"android":"levelo://app?vid=03b1b92a-d21f-4b09-ad20-c80e5eee47a1","ios":"levelo://app?vid=03b1b92a-d21f-4b09-ad20-c80e5eee47a1"},"vehicle_type_id":"4","last_reported":1773679931,"current_range_meters":38400,"station_id":"ce4bgpp2rcd13ifvqc3g","pricing_plan_id":"cebpf4jnsgd1na2vs0mg"},{"bike_id":"90006b8d-6aa9-4ebe-9082-e177c10b421a","system_id":"levelo_inurba_marseille","lat":43.31151,"lon":5.36992,"is_reserved":false,"is_disabled":false,"rental_uris":{"android":"levelo://app?vid=90006b8d-6aa9-4ebe-9082-e177c10b421a","ios":"levelo://app?vid=90006b8d-6aa9-4ebe-9082-e177c10b421a"},"vehicle_type_id":"4","last_reported":1773679931,"current_range_meters":36000,"station_id":"","pricing_plan_id":"cebpf4jnsgd1na2vs0mg"},{"bike_id":"584f7aa0-b582-45fa-adcb-d34128f4ce54","system_id":"levelo_inurba_marseille","lat":43.28102,"lon":5.40634,"is_reserved":false,"is_disabled":true,"rental_uris":{"android":"levelo://app?vid=584f7aa0-b582-45fa-adcb-d34128f4ce54","ios":"levelo://app?vid=584f7aa0-b582-45fa-adcb-d34128f4ce54"},"vehicle_type_id":"4","last_reported":1773679931,"current_range_meters":7200,"station_id":"","pricing_plan_id":"cebpf4jnsgd1na2vs0mg"},{"bike_id":"7517fa86-d451-4907-a9dc-fc9996d36076","system_id":"levelo_inurba_marseille","lat":43.2657,"lon":5.39004,"is_reserved":false,"is_disabled":false,"rental_uris":{"android":"levelo://app?vid=7517fa86-d451-4907-a9dc-fc9996d36076","ios":"levelo://app?vid=7517fa86-d451-4907-a9dc-fc9996d36076"},"vehicle_type_id":"4","last_reported":1773679931,"current_range_meters":28400,"station_id":"ce4bhe12rcd13ifvqf30","pricing_plan_id":"cebpf4jnsgd1na2vs0mg"},{"bike_id":"8ae3cd93-1df5-4c86-a3cd-ea1407ea9258","system_id":"levelo_inurba_marseille","lat":43.3074,"lon":5.42456,"is_reserved":false,"is_disabled":false,"rental_uris":{"android":"levelo://app?vid=8ae3cd93-1df5-4c86-a3cd-ea1407ea9258","ios":"levelo://app?vid=8ae3cd93-1df5-4c86-a3cd-ea1407ea9258"},"vehicle_type_id":"4","last_reported":1773679931,"current_range_meters":31200,"station_id":"st_cvj6ca6bvosntc0bfgr0","pricing_plan_id":"cebpf4jnsgd1na2vs0mg"},{"bike_id":"0bd699b8-0f51-4e7d-b635-e29484ca415b","system_id":"levelo_inurba_marseille","lat":43.25574,"lon":5.38244,"is_reserved":false,"is_disabled":false,"rental_uris":{"android":"levelo://app?vid=0bd699b8-0f51-4e7d-b635-e29484ca415b","ios":"levelo://app?vid=0bd699b8-0f51-4e7d-b635-e29484ca415b"},"vehicle_type_id":"4","last_reported":1773679931,"current_range_meters":18800,"station_id":"ce4bhih2rcd13ifvqfs0","pricing_plan_id":"cebpf4jnsgd1na2vs0mg"},{"bike_id":"a1a487e0-263f-4bcb-a083-313a46d262d6","system_id":"levelo_inurba_marseille","lat":43.29116,"lon":5.43276,"is_reserved":false,"is_disabled":true,"rental_uris":{"android":"levelo://app?vid=a1a487e0-263f-4bcb-a083-313a46d262d6","ios":"levelo://app?vid=a1a487e0-263f-4bcb-a083-313a46d262d6"},"vehicle_type_id":"4","last_reported":1773679931,"current_range_meters":21600,"station_id":"","pricing_plan_id":"cebpf4jnsgd1na2vs0mg"},{"bike_id":"80349c10-4722-47ae-a549-f9c542386094","system_id":"levelo_inurba_marseille","lat":43.30523,"lon":5.36538,"is_reserved":false,"is_disabled":false,"rental_uris":{"android":"levelo://app?vid=80349c10-4722-47ae-a549-f9c542386094","ios":"levelo://app?vid=80349c10-4722-47ae-a549-f9c542386094"},"vehicle_type_id":"4","last_reported":1773679931,"current_range_meters":39200,"station_id":"ce4bgs12rcd13ifvqcag","pricing_plan_id":"cebpf4jnsgd1na2vs0mg"},{"bike_id":"2688bbc6-ab32-43f7-9e18-ec424eba3c9f","system_id":"levelo_inurba_marseille","lat":43.28343,"lon":5.38107,"is_reserved":false,"is_disabled":false,"rental_uris":{"android":"levelo://app?vid=2688bbc6-ab32-43f7-9e18-ec424eba3c9f","ios":"levelo://app?vid=2688bbc6-ab32-43f7-9e18-ec424eba3c9f"},"vehicle_type_id":"4","last_reported":1773679931,"current_range_meters":20400,"station_id":"ce4bh412rcd13ifvqdr0","pricing_plan_id":"cebpf4jnsgd1na2vs0mg"},{"bike_id":"ddd64a40-0275-4ca7-a97f-2eff5d3e514a","system_id":"levelo_inurba_marseille","lat":43.28477,"lon":5.48417,"is_reserved":false,"is_disabled":false,"rental_uris":{"android":"levelo://app?vid=ddd64a40-0275-4ca7-a97f-2eff5d3e514a","ios":"levelo://app?vid=ddd64a40-0275-4ca7-a97f-2eff5d3e514a"},"vehicle_type_id":"4","last_reported":1773679931,"current_range_meters":8400,"station_id":"","pricing_plan_id":"cebpf4jnsgd1na2vs0mg"},{"bike_id":"ab79c1b3-f149-4fe6-9f3d-e848c1ce8cbd","system_id":"levelo_inurba_marseille","lat":43.3056,"lon":5.36722,"is_reserved":false,"is_disabled":false,"rental_uris":{"android":"levelo://app?vid=ab79c1b3-f149-4fe6-9f3d-e848c1ce8cbd","ios":"levelo://app?vid=ab79c1b3-f149-4fe6-9f3d-e848c1ce8cbd"},"vehicle_type_id":"4","last_reported":1773679931,"current_range_meters":37600,"station_id":"ce4bgrp2rcd13ifvqc9g","pricing_plan_id":"cebpf4jnsgd1na2vs0mg"},{"bike_id":"efd782e1-6513-4ce4-b427-b483fcac5a55","system_id":"levelo_inurba_marseille","lat":43.30312,"lon":5.36898,"is_reserved":false,"is_disabled":false,"rental_uris":{"android":"levelo://app?vid=efd782e1-6513-4ce4-b427-b483fcac5a55","ios":"levelo://app?vid=efd782e1-6513-4ce4-b427-b483fcac5a55"},"vehicle_type_id":"4","last_reported":1773679931,"current_range_meters":22000,"station_id":"ce4bgqh2rcd13ifvqc5g","pricing_plan_id":"cebpf4jnsgd1na2vs0mg"},{"bike_id":"1a2ad8e0-25f4-4b1d-a268-792ddb756ae5","system_id":"levelo_inurba_marseille","lat":43.33543,"lon":5.37457,"is_reserved":false,"is_disabled":false,"rental_uris":{"android":"levelo://app?vid=1a2ad8e0-25f4-4b1d-a268-792ddb756ae5","ios":"levelo://app?vid=1a2ad8e0-25f4-4b1d-a268-792ddb756ae5"},"vehicle_type_id":"4","last_reported":1773679931,"current_range_meters":14400,"station_id":"st_d46tts09ee8s73dlu43g","pricing_plan_id":"cebpf4jnsgd1na2vs0mg"},{"bike_id":"5dea7ece-1d9b-471d-a08a-4a42d6f62761","system_id":"levelo_inurba_marseille","lat":43.28618,"lon":5.351,"is_reserved":false,"is_disabled":false,"rental_uris":{"android":"levelo://app?vid=5dea7ece-1d9b-471d-a08a-4a42d6f62761","ios":"levelo://app?vid=5dea7ece-1d9b-471d-a08a-4a42d6f62761"},"vehicle_type_id":"4","last_reported":1773679931,"current_range_meters":34000,"station_id":"ce4bhch2rcd13ifvqeug","pricing_plan_id":"cebpf4jnsgd1na2vs0mg"},{"bike_id":"a81cc48d-fcc5-49d9-a903-9e13600c09b8","system_id":"levelo_inurba_marseille","lat":43.23067,"lon":5.35484,"is_reserved":false,"is_disabled":false,"rental_uris":{"android":"levelo://app?vid=a81cc48d-fcc5-49d9-a903-9e13600c09b8","ios":"levelo://app?vid=a81cc48d-fcc5-49d9-a903-9e13600c09b8"},"vehicle_type_id":"4","last_reported":1773679931,"current_range_meters":16400,"station_id":"cpo3342slgdg3j2ifvpg","pricing_plan_id":"cebpf4jnsgd1na2vs0mg"},{"bike_id":"e5a797cb-e1fa-46f1-827d-4528129adf92","system_id":"levelo_inurba_marseille","lat":43.24639,"lon":5.3894,"is_reserved":false,"is_disabled":false,"rental_uris":{"android":"levelo://app?vid=e5a797cb-e1fa-46f1-827d-4528129adf92","ios":"levelo://app?vid=e5a797cb-e1fa-46f1-827d-4528129adf92"},"vehicle_type_id":"4","last_reported":1773679931,"current_range_meters":4400,"station_id":"ce4bhg12rcd13ifvqf60","pricing_plan_id":"cebpf4jnsgd1na2vs0mg"},{"bike_id":"d1141fb4-59b4-44f4-91cc-49a601f9de2f","system_id":"levelo_inurba_marseille","lat":43.25109,"lon":5.40313,"is_reserved":false,"is_disabled":false,"rental_uris":{"android":"levelo://app?vid=d1141fb4-59b4-44f4-91cc-49a601f9de2f","ios":"levelo://app?vid=d1141fb4-59b4-44f4-91cc-49a601f9de2f"},"vehicle_type_id":"4","last_reported":1773679931,"current_range_meters":14000,"station_id":"ce4bhlh2rcd13ifvqgig","pricing_plan_id":"cebpf4jnsgd1na2vs0mg"},{"bike_id":"d0a4ccca-bbc4-478a-a356-3a2283a6e360","system_id":"levelo_inurba_marseille","lat":43.25139,"lon":5.40318,"is_reserved":false,"is_disabled":false,"rental_uris":{"android":"levelo://app?vid=d0a4ccca-bbc4-478a-a356-3a2283a6e360","ios":"levelo://app?vid=d0a4ccca-bbc4-478a-a356-3a2283a6e360"},"vehicle_type_id":"4","last_reported":1773679931,"current_range_meters":20400,"station_id":"ce4bhlh2rcd13ifvqgig","pricing_plan_id":"cebpf4jnsgd1na2vs0mg"},{"bike_id":"fce7cbbb-7e40-4345-96fd-5af6a4f99936","system_id":"levelo_inurba_marseille","lat":43.23795,"lon":5.36636,"is_reserved":false,"is_disabled":false,"rental_uris":{"android":"levelo://app?vid=fce7cbbb-7e40-4345-96fd-5af6a4f99936","ios":"levelo://app?vid=fce7cbbb-7e40-4345-96fd-5af6a4f99936"},"vehicle_type_id":"4","last_reported":1773679931,"current_range_meters":12000,"station_id":"st_d3nk18o9ro0c73en2l3g","pricing_plan_id":"cebpf4jnsgd1na2vs0mg"},{"bike_id":"389fde50-a832-4ded-94d2-0e3862ffe9b2","system_id":"levelo_inurba_marseille","lat":43.29252,"lon":5.38412,"is_reserved":false,"is_disabled":false,"rental_uris":{"android":"levelo://app?vid=389fde50-a832-4ded-94d2-0e3862ffe9b2","ios":"levelo://app?vid=389fde50-a832-4ded-94d2-0e3862ffe9b2"},"vehicle_type_id":"4","last_reported":1773679931,"current_range_meters":24000,"station_id":"ce4bh692rcd13ifvqea0","pricing_plan_id":"cebpf4jnsgd1na2vs0mg"},{"bike_id":"66ac437c-5249-489b-971a-babc11e1ed35","system_id":"levelo_inurba_marseille","lat":43.284903,"lon":5.385802,"is_reserved":false,"is_disabled":true,"rental_uris":{"android":"levelo://app?vid=66ac437c-5249-489b-971a-babc11e1ed35","ios":"levelo://app?vid=66ac437c-5249-489b-971a-babc11e1ed35"},"vehicle_type_id":"4","last_reported":1773679931,"current_range_meters":1600,"station_id":"ce4bh8p2rcd13ifvqeb0","pricing_plan_id":"cebpf4jnsgd1na2vs0mg"},{"bike_id":"e842dc60-ab62-4379-a0ed-030031db5b1e","system_id":"levelo_inurba_marseille","lat":43.21188,"lon":5.3507,"is_reserved":false,"is_disabled":false,"rental_uris":{"android":"levelo://app?vid=e842dc60-ab62-4379-a0ed-030031db5b1e","ios":"levelo://app?vid=e842dc60-ab62-4379-a0ed-030031db5b1e"},"vehicle_type_id":"4","last_reported":1773679931,"current_range_meters":10000,"station_id":"st_cvj6sg6p6f1abm77japg","pricing_plan_id":"cebpf4jnsgd1na2vs0mg"},{"bike_id":"70014854-acff-49ca-9046-c49e81b9ca34","system_id":"levelo_inurba_marseille","lat":43.21755,"lon":5.34605,"is_reserved":false,"is_disabled":false,"rental_uris":{"android":"levelo://app?vid=70014854-acff-49ca-9046-c49e81b9ca34","ios":"levelo://app?vid=70014854-acff-49ca-9046-c49e81b9ca34"},"vehicle_type_id":"4","last_reported":1773679931,"current_range_meters":25600,"station_id":"st_cvj6r9ubvosntc0bgbag","pricing_plan_id":"cebpf4jnsgd1na2vs0mg"},{"bike_id":"6b58c736-8eab-4f3b-9ba9-b34b79d2fcdd","system_id":"levelo_inurba_marseille","lat":43.28278,"lon":5.35069,"is_reserved":false,"is_disabled":false,"rental_uris":{"android":"levelo://app?vid=6b58c736-8eab-4f3b-9ba9-b34b79d2fcdd","ios":"levelo://app?vid=6b58c736-8eab-4f3b-9ba9-b34b79d2fcdd"},"vehicle_type_id":"4","last_reported":1773679931,"current_range_meters":38000,"station_id":"ce4bhbp2rcd13ifvqerg","pricing_plan_id":"cebpf4jnsgd1na2vs0mg"},{"bike_id":"4761968d-8c7d-4a8f-9eb3-fe25d9573701","system_id":"levelo_inurba_marseille","lat":43.28674,"lon":5.36346,"is_reserved":false,"is_disabled":false,"rental_uris":{"android":"levelo://app?vid=4761968d-8c7d-4a8f-9eb3-fe25d9573701","ios":"levelo://app?vid=4761968d-8c7d-4a8f-9eb3-fe25d9573701"},"vehicle_type_id":"4","last_reported":1773679931,"current_range_meters":33600,"station_id":"ce4bhah2rcd13ifvqej0","pricing_plan_id":"cebpf4jnsgd1na2vs0mg"},{"bike_id":"dd262ad1-703d-4925-a9a5-ca312081395b","system_id":"levelo_inurba_marseille","lat":43.3151,"lon":5.37298,"is_reserved":false,"is_disabled":true,"rental_uris":{"android":"levelo://app?vid=dd262ad1-703d-4925-a9a5-ca312081395b","ios":"levelo://app?vid=dd262ad1-703d-4925-a9a5-ca312081395b"},"vehicle_type_id":"4","last_reported":1773679931,"current_range_meters":33600,"station_id":"ce4bgt12rcd13ifvqcd0","pricing_plan_id":"cebpf4jnsgd1na2vs0mg"},{"bike_id":"177dde7b-d2de-4c6f-a770-315c66758692","system_id":"levelo_inurba_marseille","lat":43.28475,"lon":5.48389,"is_reserved":false,"is_disabled":false,"rental_uris":{"android":"levelo://app?vid=177dde7b-d2de-4c6f-a770-315c66758692","ios":"levelo://app?vid=177dde7b-d2de-4c6f-a770-315c66758692"},"vehicle_type_id":"4","last_reported":1773679931,"current_range_meters":32000,"station_id":"","pricing_plan_id":"cebpf4jnsgd1na2vs0mg"},{"bike_id":"6f54e01c-8e88-4d8b-ae33-a3d8388a376b","system_id":"levelo_inurba_marseille","lat":43.24992,"lon":5.38929,"is_reserved":false,"is_disabled":false,"rental_uris":{"android":"levelo://app?vid=6f54e01c-8e88-4d8b-ae33-a3d8388a376b","ios":"levelo://app?vid=6f54e01c-8e88-4d8b-ae33-a3d8388a376b"},"vehicle_type_id":"4","last_reported":1773679931,"current_range_meters":24800,"station_id":"ce4bhgp2rcd13ifvqfd0","pricing_plan_id":"cebpf4jnsgd1na2vs0mg"},{"bike_id":"4e74ff44-c61b-4280-9c27-eafe44c60579","system_id":"levelo_inurba_marseille","lat":43.31355,"lon":5.38476,"is_reserved":false,"is_disabled":false,"rental_uris":{"android":"levelo://app?vid=4e74ff44-c61b-4280-9c27-eafe44c60579","ios":"levelo://app?vid=4e74ff44-c61b-4280-9c27-eafe44c60579"},"vehicle_type_id":"4","last_reported":1773679931,"current_range_meters":24400,"station_id":"ce4bgt92rcd13ifvqcf0","pricing_plan_id":"cebpf4jnsgd1na2vs0mg"},{"bike_id":"1698ed0c-acaa-4deb-b8bb-e68d5d5bdac3","system_id":"levelo_inurba_marseille","lat":43.27227,"lon":5.39199,"is_reserved":false,"is_disabled":false,"rental_uris":{"android":"levelo://app?vid=1698ed0c-acaa-4deb-b8bb-e68d5d5bdac3","ios":"levelo://app?vid=1698ed0c-acaa-4deb-b8bb-e68d5d5bdac3"},"vehicle_type_id":"4","last_reported":1773679931,"current_range_meters":17200,"station_id":"ce4bhhp2rcd13ifvqfm0","pricing_plan_id":"cebpf4jnsgd1na2vs0mg"},{"bike_id":"c78aba10-451a-4fdf-a6eb-44e505951594","system_id":"levelo_inurba_marseille","lat":43.2862,"lon":5.39875,"is_reserved":false,"is_disabled":false,"rental_uris":{"android":"levelo://app?vid=c78aba10-451a-4fdf-a6eb-44e505951594","ios":"levelo://app?vid=c78aba10-451a-4fdf-a6eb-44e505951594"},"vehicle_type_id":"4","last_reported":1773679931,"current_range_meters":30400,"station_id":"st_d4a7ka997mjs738ck50g","pricing_plan_id":"cebpf4jnsgd1na2vs0mg"},{"bike_id":"43918b9b-ff13-4bbb-ac03-aa8307d32985","system_id":"levelo_inurba_marseille","lat":43.2319,"lon":5.35563,"is_reserved":false,"is_disabled":false,"rental_uris":{"android":"levelo://app?vid=43918b9b-ff13-4bbb-ac03-aa8307d32985","ios":"levelo://app?vid=43918b9b-ff13-4bbb-ac03-aa8307d32985"},"vehicle_type_id":"4","last_reported":1773679931,"current_range_meters":28000,"station_id":"ce4bhu92rcd13ifvqi70","pricing_plan_id":"cebpf4jnsgd1na2vs0mg"},{"bike_id":"f4b7fd6d-fc43-40a0-9444-97cda83baecc","system_id":"levelo_inurba_marseille","lat":43.28476,"lon":5.48399,"is_reserved":false,"is_disabled":false,"rental_uris":{"android":"levelo://app?vid=f4b7fd6d-fc43-40a0-9444-97cda83baecc","ios":"levelo://app?vid=f4b7fd6d-fc43-40a0-9444-97cda83baecc"},"vehicle_type_id":"4","last_reported":1773679931,"current_range_meters":25200,"station_id":"","pricing_plan_id":"cebpf4jnsgd1na2vs0mg"},{"bike_id":"ad5d6575-373a-4626-b109-e5e54a834cdc","system_id":"levelo_inurba_marseille","lat":43.30918,"lon":5.40157,"is_reserved":false,"is_disabled":true,"rental_uris":{"android":"levelo://app?vid=ad5d6575-373a-4626-b109-e5e54a834cdc","ios":"levelo://app?vid=ad5d6575-373a-4626-b109-e5e54a834cdc"},"vehicle_type_id":"4","last_reported":1773679931,"current_range_meters":28000,"station_id":"ce4bgvp2rcd13ifvqct0","pricing_plan_id":"cebpf4jnsgd1na2vs0mg"},{"bike_id":"05a5bb77-5037-4830-9763-68fa9af8f814","system_id":"levelo_inurba_marseille","lat":43.3059,"lon":5.37263,"is_reserved":false,"is_disabled":false,"rental_uris":{"android":"levelo://app?vid=05a5bb77-5037-4830-9763-68fa9af8f814","ios":"levelo://app?vid=05a5bb77-5037-4830-9763-68fa9af8f814"},"vehicle_type_id":"4","last_reported":1773679931,"current_range_meters":38000,"station_id":"ce4bgqh2rcd13ifvqc4g","pricing_plan_id":"cebpf4jnsgd1na2vs0mg"},{"bike_id":"efe08920-6f77-485b-bae3-27346336ed7c","system_id":"levelo_inurba_marseille","lat":43.30531,"lon":5.38429,"is_reserved":false,"is_disabled":false,"rental_uris":{"android":"levelo://app?vid=efe08920-6f77-485b-bae3-27346336ed7c","ios":"levelo://app?vid=efe08920-6f77-485b-bae3-27346336ed7c"},"vehicle_type_id":"4","last_reported":1773679931,"current_range_meters":27200,"station_id":"ce4bgg92rcd13ifvqb30","pricing_plan_id":"cebpf4jnsgd1na2vs0mg"},{"bike_id":"6f87ccc0-baeb-4be2-a03f-79440d206c78","system_id":"levelo_inurba_marseille","lat":43.267849,"lon":5.394136,"is_reserved":false,"is_disabled":false,"rental_uris":{"android":"levelo://app?vid=6f87ccc0-baeb-4be2-a03f-79440d206c78","ios":"levelo://app?vid=6f87ccc0-baeb-4be2-a03f-79440d206c78"},"vehicle_type_id":"4","last_reported":1773679931,"current_range_meters":16800,"station_id":"ce4bhh12rcd13ifvqfg0","pricing_plan_id":"cebpf4jnsgd1na2vs0mg"},{"bike_id":"47437dbd-a43a-491e-9da9-be7faee139eb","system_id":"levelo_inurba_marseille","lat":43.3248,"lon":5.36569,"is_reserved":false,"is_disabled":false,"rental_uris":{"android":"levelo://app?vid=47437dbd-a43a-491e-9da9-be7faee139eb","ios":"levelo://app?vid=47437dbd-a43a-491e-9da9-be7faee139eb"},"vehicle_type_id":"4","last_reported":1773679931,"current_range_meters":39200,"station_id":"ce4bhs12rcd13ifvqhvg","pricing_plan_id":"cebpf4jnsgd1na2vs0mg"},{"bike_id":"9da53ada-b42c-4023-810e-049971ee9047","system_id":"levelo_inurba_marseille","lat":43.25339,"lon":5.42172,"is_reserved":false,"is_disabled":false,"rental_uris":{"android":"levelo://app?vid=9da53ada-b42c-4023-810e-049971ee9047","ios":"levelo://app?vid=9da53ada-b42c-4023-810e-049971ee9047"},"vehicle_type_id":"4","last_reported":1773679931,"current_range_meters":4800,"station_id":"st_d2m65c5bi1j21697t3ng","pricing_plan_id":"cebpf4jnsgd1na2vs0mg"},{"bike_id":"49fc7284-9e84-4e41-b11a-a6f445433570","system_id":"levelo_inurba_marseille","lat":43.28085,"lon":5.39659,"is_reserved":false,"is_disabled":true,"rental_uris":{"android":"levelo://app?vid=49fc7284-9e84-4e41-b11a-a6f445433570","ios":"levelo://app?vid=49fc7284-9e84-4e41-b11a-a6f445433570"},"vehicle_type_id":"4","last_reported":1773679931,"current_range_meters":30800,"station_id":"ce4bho12rcd13ifvqh2g","pricing_plan_id":"cebpf4jnsgd1na2vs0mg"},{"bike_id":"a11c83d3-be23-4aa8-80b1-b3062f82553c","system_id":"levelo_inurba_marseille","lat":43.29035,"lon":5.38647,"is_reserved":false,"is_disabled":false,"rental_uris":{"android":"levelo://app?vid=a11c83d3-be23-4aa8-80b1-b3062f82553c","ios":"levelo://app?vid=a11c83d3-be23-4aa8-80b1-b3062f82553c"},"vehicle_type_id":"4","last_reported":1773679931,"current_range_meters":14800,"station_id":"ce4bh4p2rcd13ifvqe0g","pricing_plan_id":"cebpf4jnsgd1na2vs0mg"},{"bike_id":"69a4e2c6-e554-480e-83a2-ef8949494013","system_id":"levelo_inurba_marseille","lat":43.28458,"lon":5.35901,"is_reserved":false,"is_disabled":false,"rental_uris":{"android":"levelo://app?vid=69a4e2c6-e554-480e-83a2-ef8949494013","ios":"levelo://app?vid=69a4e2c6-e554-480e-83a2-ef8949494013"},"vehicle_type_id":"4","last_reported":1773679931,"current_range_meters":39200,"station_id":"ce4bhah2rcd13ifvqei0","pricing_plan_id":"cebpf4jnsgd1na2vs0mg"},{"bike_id":"1f487b11-fe62-48c6-bc95-ef78a3a9fd4e","system_id":"levelo_inurba_marseille","lat":43.30786,"lon":5.42424,"is_reserved":false,"is_disabled":false,"rental_uris":{"android":"levelo://app?vid=1f487b11-fe62-48c6-bc95-ef78a3a9fd4e","ios":"levelo://app?vid=1f487b11-fe62-48c6-bc95-ef78a3a9fd4e"},"vehicle_type_id":"4","last_reported":1773679931,"current_range_meters":38800,"station_id":"","pricing_plan_id":"cebpf4jnsgd1na2vs0mg"},{"bike_id":"34257e2b-5da9-4af1-bdd7-664aa8db6834","system_id":"levelo_inurba_marseille","lat":43.23207,"lon":5.3556,"is_reserved":false,"is_disabled":false,"rental_uris":{"android":"levelo://app?vid=34257e2b-5da9-4af1-bdd7-664aa8db6834","ios":"levelo://app?vid=34257e2b-5da9-4af1-bdd7-664aa8db6834"},"vehicle_type_id":"4","last_reported":1773679931,"current_range_meters":34000,"station_id":"ce4bhu92rcd13ifvqi70","pricing_plan_id":"cebpf4jnsgd1na2vs0mg"},{"bike_id":"288bcbf7-3a52-4b2b-9af2-61f8cf367965","system_id":"levelo_inurba_marseille","lat":43.25654,"lon":5.411,"is_reserved":false,"is_disabled":false,"rental_uris":{"android":"levelo://app?vid=288bcbf7-3a52-4b2b-9af2-61f8cf367965","ios":"levelo://app?vid=288bcbf7-3a52-4b2b-9af2-61f8cf367965"},"vehicle_type_id":"4","last_reported":1773679931,"current_range_meters":33200,"station_id":"","pricing_plan_id":"cebpf4jnsgd1na2vs0mg"},{"bike_id":"fec66160-eca4-4055-a135-94a62af705e8","system_id":"levelo_inurba_marseille","lat":43.24999,"lon":5.38933,"is_reserved":false,"is_disabled":false,"rental_uris":{"android":"levelo://app?vid=fec66160-eca4-4055-a135-94a62af705e8","ios":"levelo://app?vid=fec66160-eca4-4055-a135-94a62af705e8"},"vehicle_type_id":"4","last_reported":1773679931,"current_range_meters":8400,"station_id":"ce4bhgp2rcd13ifvqfd0","pricing_plan_id":"cebpf4jnsgd1na2vs0mg"},{"bike_id":"491cd09c-e0c2-44f1-852f-8525d428457d","system_id":"levelo_inurba_marseille","lat":43.3109,"lon":5.42434,"is_reserved":false,"is_disabled":false,"rental_uris":{"android":"levelo://app?vid=491cd09c-e0c2-44f1-852f-8525d428457d","ios":"levelo://app?vid=491cd09c-e0c2-44f1-852f-8525d428457d"},"vehicle_type_id":"4","last_reported":1773679931,"current_range_meters":21600,"station_id":"ce4bhp92rcd13ifvqhag","pricing_plan_id":"cebpf4jnsgd1na2vs0mg"},{"bike_id":"981512e6-9fe4-4146-a781-1a20f2b592df","system_id":"levelo_inurba_marseille","lat":43.30146,"lon":5.39864,"is_reserved":false,"is_disabled":false,"rental_uris":{"android":"levelo://app?vid=981512e6-9fe4-4146-a781-1a20f2b592df","ios":"levelo://app?vid=981512e6-9fe4-4146-a781-1a20f2b592df"},"vehicle_type_id":"4","last_reported":1773679931,"current_range_meters":23200,"station_id":"ce4bh0h2rcd13ifvqd40","pricing_plan_id":"cebpf4jnsgd1na2vs0mg"},{"bike_id":"8efb579a-a563-4156-bc48-a4542721ceab","system_id":"levelo_inurba_marseille","lat":43.23201,"lon":5.3555,"is_reserved":false,"is_disabled":false,"rental_uris":{"android":"levelo://app?vid=8efb579a-a563-4156-bc48-a4542721ceab","ios":"levelo://app?vid=8efb579a-a563-4156-bc48-a4542721ceab"},"vehicle_type_id":"4","last_reported":1773679931,"current_range_meters":16800,"station_id":"ce4bhu92rcd13ifvqi70","pricing_plan_id":"cebpf4jnsgd1na2vs0mg"},{"bike_id":"067111e1-87af-4e75-b8ed-7f42a447af4d","system_id":"levelo_inurba_marseille","lat":43.26956,"lon":5.40246,"is_reserved":false,"is_disabled":false,"rental_uris":{"android":"levelo://app?vid=067111e1-87af-4e75-b8ed-7f42a447af4d","ios":"levelo://app?vid=067111e1-87af-4e75-b8ed-7f42a447af4d"},"vehicle_type_id":"4","last_reported":1773679931,"current_range_meters":39200,"station_id":"cjm6bp8fraef2m0cb0m0","pricing_plan_id":"cebpf4jnsgd1na2vs0mg"},{"bike_id":"c0b4aa80-9841-4bda-b5b2-d13b8bb7c50f","system_id":"levelo_inurba_marseille","lat":43.326341,"lon":5.410066,"is_reserved":false,"is_disabled":false,"rental_uris":{"android":"levelo://app?vid=c0b4aa80-9841-4bda-b5b2-d13b8bb7c50f","ios":"levelo://app?vid=c0b4aa80-9841-4bda-b5b2-d13b8bb7c50f"},"vehicle_type_id":"4","last_reported":1773679931,"current_range_meters":36400,"station_id":"ce4bhpp2rcd13ifvqhgg","pricing_plan_id":"cebpf4jnsgd1na2vs0mg"},{"bike_id":"9c528212-0db7-442e-98cb-d9233c05e6e1","system_id":"levelo_inurba_marseille","lat":43.29959,"lon":5.41327,"is_reserved":false,"is_disabled":false,"rental_uris":{"android":"levelo://app?vid=9c528212-0db7-442e-98cb-d9233c05e6e1","ios":"levelo://app?vid=9c528212-0db7-442e-98cb-d9233c05e6e1"},"vehicle_type_id":"4","last_reported":1773679931,"current_range_meters":38000,"station_id":"ce4bhp12rcd13ifvqh9g","pricing_plan_id":"cebpf4jnsgd1na2vs0mg"},{"bike_id":"e59ffb01-b028-44ab-a5e5-5d8f6dba3aee","system_id":"levelo_inurba_marseille","lat":43.29814,"lon":5.37102,"is_reserved":false,"is_disabled":false,"rental_uris":{"android":"levelo://app?vid=e59ffb01-b028-44ab-a5e5-5d8f6dba3aee","ios":"levelo://app?vid=e59ffb01-b028-44ab-a5e5-5d8f6dba3aee"},"vehicle_type_id":"4","last_reported":1773679931,"current_range_meters":37600,"station_id":"ce4bgop2rcd13ifvqc1g","pricing_plan_id":"cebpf4jnsgd1na2vs0mg"},{"bike_id":"f10523e5-8852-4b92-a3d2-5f484309f0c9","system_id":"levelo_inurba_marseille","lat":43.30379,"lon":5.42493,"is_reserved":false,"is_disabled":false,"rental_uris":{"android":"levelo://app?vid=f10523e5-8852-4b92-a3d2-5f484309f0c9","ios":"levelo://app?vid=f10523e5-8852-4b92-a3d2-5f484309f0c9"},"vehicle_type_id":"4","last_reported":1773679931,"current_range_meters":9600,"station_id":"ce4bhoh2rcd13ifvqh6g","pricing_plan_id":"cebpf4jnsgd1na2vs0mg"},{"bike_id":"73d4826f-170c-4f3a-a1fb-56e4f9c51b74","system_id":"levelo_inurba_marseille","lat":43.28685,"lon":5.38664,"is_reserved":false,"is_disabled":true,"rental_uris":{"android":"levelo://app?vid=73d4826f-170c-4f3a-a1fb-56e4f9c51b74","ios":"levelo://app?vid=73d4826f-170c-4f3a-a1fb-56e4f9c51b74"},"vehicle_type_id":"4","last_reported":1773679931,"current_range_meters":24800,"station_id":"ce4bh492rcd13ifvqdug","pricing_plan_id":"cebpf4jnsgd1na2vs0mg"},{"bike_id":"962c6d07-7867-4dac-95ad-de6bda73a8e0","system_id":"levelo_inurba_marseille","lat":43.2119,"lon":5.35076,"is_reserved":false,"is_disabled":true,"rental_uris":{"android":"levelo://app?vid=962c6d07-7867-4dac-95ad-de6bda73a8e0","ios":"levelo://app?vid=962c6d07-7867-4dac-95ad-de6bda73a8e0"},"vehicle_type_id":"4","last_reported":1773679931,"current_range_meters":0,"station_id":"st_cvj6sg6p6f1abm77japg","pricing_plan_id":"cebpf4jnsgd1na2vs0mg"},{"bike_id":"eb1d1e5d-c035-4be2-ab4f-714082cc667f","system_id":"levelo_inurba_marseille","lat":43.25089,"lon":5.39516,"is_reserved":false,"is_disabled":false,"rental_uris":{"android":"levelo://app?vid=eb1d1e5d-c035-4be2-ab4f-714082cc667f","ios":"levelo://app?vid=eb1d1e5d-c035-4be2-ab4f-714082cc667f"},"vehicle_type_id":"4","last_reported":1773679931,"current_range_meters":17200,"station_id":"ce4bhm12rcd13ifvqgkg","pricing_plan_id":"cebpf4jnsgd1na2vs0mg"},{"bike_id":"cf3d27ef-91c6-429a-962e-d10a32a01938","system_id":"levelo_inurba_marseille","lat":43.29821,"lon":5.43968,"is_reserved":false,"is_disabled":false,"rental_uris":{"android":"levelo://app?vid=cf3d27ef-91c6-429a-962e-d10a32a01938","ios":"levelo://app?vid=cf3d27ef-91c6-429a-962e-d10a32a01938"},"vehicle_type_id":"4","last_reported":1773679931,"current_range_meters":8400,"station_id":"st_d3jp68qikq2c7381ktn0","pricing_plan_id":"cebpf4jnsgd1na2vs0mg"},{"bike_id":"6d0a1d1d-62d9-4b05-b15c-9b1404f11361","system_id":"levelo_inurba_marseille","lat":43.25513,"lon":5.37648,"is_reserved":false,"is_disabled":false,"rental_uris":{"android":"levelo://app?vid=6d0a1d1d-62d9-4b05-b15c-9b1404f11361","ios":"levelo://app?vid=6d0a1d1d-62d9-4b05-b15c-9b1404f11361"},"vehicle_type_id":"4","last_reported":1773679931,"current_range_meters":36400,"station_id":"ce4bhh12rcd13ifvqff0","pricing_plan_id":"cebpf4jnsgd1na2vs0mg"},{"bike_id":"debaaf26-8574-4c03-a260-dff1f8a0f334","system_id":"levelo_inurba_marseille","lat":43.29932,"lon":5.37462,"is_reserved":false,"is_disabled":false,"rental_uris":{"android":"levelo://app?vid=debaaf26-8574-4c03-a260-dff1f8a0f334","ios":"levelo://app?vid=debaaf26-8574-4c03-a260-dff1f8a0f334"},"vehicle_type_id":"4","last_reported":1773679931,"current_range_meters":16000,"station_id":"ce4bgjh2rcd13ifvqbg0","pricing_plan_id":"cebpf4jnsgd1na2vs0mg"},{"bike_id":"ff3c80d4-6915-439d-8d4f-2189798176f6","system_id":"levelo_inurba_marseille","lat":43.29929,"lon":5.36542,"is_reserved":false,"is_disabled":false,"rental_uris":{"android":"levelo://app?vid=ff3c80d4-6915-439d-8d4f-2189798176f6","ios":"levelo://app?vid=ff3c80d4-6915-439d-8d4f-2189798176f6"},"vehicle_type_id":"4","last_reported":1773679931,"current_range_meters":6800,"station_id":"ce4bgm92rcd13ifvqbr0","pricing_plan_id":"cebpf4jnsgd1na2vs0mg"},{"bike_id":"1fc1c4a6-4b47-4a80-9c5a-da29ffdeeb8a","system_id":"levelo_inurba_marseille","lat":43.28268,"lon":5.35075,"is_reserved":false,"is_disabled":false,"rental_uris":{"android":"levelo://app?vid=1fc1c4a6-4b47-4a80-9c5a-da29ffdeeb8a","ios":"levelo://app?vid=1fc1c4a6-4b47-4a80-9c5a-da29ffdeeb8a"},"vehicle_type_id":"4","last_reported":1773679931,"current_range_meters":6400,"station_id":"ce4bhbp2rcd13ifvqerg","pricing_plan_id":"cebpf4jnsgd1na2vs0mg"},{"bike_id":"390d8baa-647f-4540-8e64-b64690eb893d","system_id":"levelo_inurba_marseille","lat":43.30305,"lon":5.36894,"is_reserved":false,"is_disabled":false,"rental_uris":{"android":"levelo://app?vid=390d8baa-647f-4540-8e64-b64690eb893d","ios":"levelo://app?vid=390d8baa-647f-4540-8e64-b64690eb893d"},"vehicle_type_id":"4","last_reported":1773679931,"current_range_meters":40000,"station_id":"ce4bgqh2rcd13ifvqc5g","pricing_plan_id":"cebpf4jnsgd1na2vs0mg"},{"bike_id":"274d9226-e4a6-4b9c-a0ed-ca25ec988c62","system_id":"levelo_inurba_marseille","lat":43.29014,"lon":5.38603,"is_reserved":false,"is_disabled":false,"rental_uris":{"android":"levelo://app?vid=274d9226-e4a6-4b9c-a0ed-ca25ec988c62","ios":"levelo://app?vid=274d9226-e4a6-4b9c-a0ed-ca25ec988c62"},"vehicle_type_id":"4","last_reported":1773679931,"current_range_meters":20400,"station_id":"ce4bh4p2rcd13ifvqe0g","pricing_plan_id":"cebpf4jnsgd1na2vs0mg"},{"bike_id":"88bd1de4-947e-43e7-996f-b3a6c434223c","system_id":"levelo_inurba_marseille","lat":43.25843,"lon":5.39441,"is_reserved":false,"is_disabled":true,"rental_uris":{"android":"levelo://app?vid=88bd1de4-947e-43e7-996f-b3a6c434223c","ios":"levelo://app?vid=88bd1de4-947e-43e7-996f-b3a6c434223c"},"vehicle_type_id":"4","last_reported":1773679931,"current_range_meters":32800,"station_id":"ce4bhip2rcd13ifvqft0","pricing_plan_id":"cebpf4jnsgd1na2vs0mg"},{"bike_id":"05f50eb5-8d59-44ce-ba20-2d5c1a8a4c7b","system_id":"levelo_inurba_marseille","lat":43.31738,"lon":5.42419,"is_reserved":false,"is_disabled":false,"rental_uris":{"android":"levelo://app?vid=05f50eb5-8d59-44ce-ba20-2d5c1a8a4c7b","ios":"levelo://app?vid=05f50eb5-8d59-44ce-ba20-2d5c1a8a4c7b"},"vehicle_type_id":"4","last_reported":1773679931,"current_range_meters":16800,"station_id":"ce4bhp92rcd13ifvqhbg","pricing_plan_id":"cebpf4jnsgd1na2vs0mg"},{"bike_id":"ea0e5359-ce2e-4f38-a9e6-8c91929ef70d","system_id":"levelo_inurba_marseille","lat":43.24953,"lon":5.40493,"is_reserved":false,"is_disabled":false,"rental_uris":{"android":"levelo://app?vid=ea0e5359-ce2e-4f38-a9e6-8c91929ef70d","ios":"levelo://app?vid=ea0e5359-ce2e-4f38-a9e6-8c91929ef70d"},"vehicle_type_id":"4","last_reported":1773679931,"current_range_meters":18800,"station_id":"st_d2ngiaodas8pm72gd1h0","pricing_plan_id":"cebpf4jnsgd1na2vs0mg"},{"bike_id":"fb32a1c0-e487-43ab-b761-dcce914aad54","system_id":"levelo_inurba_marseille","lat":43.25115,"lon":5.40362,"is_reserved":false,"is_disabled":false,"rental_uris":{"android":"levelo://app?vid=fb32a1c0-e487-43ab-b761-dcce914aad54","ios":"levelo://app?vid=fb32a1c0-e487-43ab-b761-dcce914aad54"},"vehicle_type_id":"4","last_reported":1773679931,"current_range_meters":39200,"station_id":"ce4bhlh2rcd13ifvqgig","pricing_plan_id":"cebpf4jnsgd1na2vs0mg"},{"bike_id":"c1038f7b-215f-4b37-885b-0b3bdb6dcab8","system_id":"levelo_inurba_marseille","lat":43.30529,"lon":5.36712,"is_reserved":false,"is_disabled":false,"rental_uris":{"android":"levelo://app?vid=c1038f7b-215f-4b37-885b-0b3bdb6dcab8","ios":"levelo://app?vid=c1038f7b-215f-4b37-885b-0b3bdb6dcab8"},"vehicle_type_id":"4","last_reported":1773679931,"current_range_meters":28400,"station_id":"ce4bgrp2rcd13ifvqc9g","pricing_plan_id":"cebpf4jnsgd1na2vs0mg"},{"bike_id":"7e8232c2-c30b-4a92-b828-0a4fe295cf10","system_id":"levelo_inurba_marseille","lat":43.30543,"lon":5.38433,"is_reserved":false,"is_disabled":false,"rental_uris":{"android":"levelo://app?vid=7e8232c2-c30b-4a92-b828-0a4fe295cf10","ios":"levelo://app?vid=7e8232c2-c30b-4a92-b828-0a4fe295cf10"},"vehicle_type_id":"4","last_reported":1773679931,"current_range_meters":40000,"station_id":"ce4bgg92rcd13ifvqb30","pricing_plan_id":"cebpf4jnsgd1na2vs0mg"},{"bike_id":"52b73382-91ce-45bb-9aca-7b5331ec1721","system_id":"levelo_inurba_marseille","lat":43.27918,"lon":5.39586,"is_reserved":false,"is_disabled":false,"rental_uris":{"android":"levelo://app?vid=52b73382-91ce-45bb-9aca-7b5331ec1721","ios":"levelo://app?vid=52b73382-91ce-45bb-9aca-7b5331ec1721"},"vehicle_type_id":"4","last_reported":1773679931,"current_range_meters":29600,"station_id":"ce4bhf92rcd13ifvqf40","pricing_plan_id":"cebpf4jnsgd1na2vs0mg"},{"bike_id":"e2098bbb-5ace-4a72-920f-fe2cf19bc462","system_id":"levelo_inurba_marseille","lat":43.2815,"lon":5.42644,"is_reserved":false,"is_disabled":false,"rental_uris":{"android":"levelo://app?vid=e2098bbb-5ace-4a72-920f-fe2cf19bc462","ios":"levelo://app?vid=e2098bbb-5ace-4a72-920f-fe2cf19bc462"},"vehicle_type_id":"4","last_reported":1773679931,"current_range_meters":39200,"station_id":"ce4bhnh2rcd13ifvqgug","pricing_plan_id":"cebpf4jnsgd1na2vs0mg"},{"bike_id":"58f111c3-d4d8-401b-b1de-be436e4b63d6","system_id":"levelo_inurba_marseille","lat":43.2319,"lon":5.39983,"is_reserved":false,"is_disabled":false,"rental_uris":{"android":"levelo://app?vid=58f111c3-d4d8-401b-b1de-be436e4b63d6","ios":"levelo://app?vid=58f111c3-d4d8-401b-b1de-be436e4b63d6"},"vehicle_type_id":"4","last_reported":1773679931,"current_range_meters":28400,"station_id":"ce4bhn12rcd13ifvqgqg","pricing_plan_id":"cebpf4jnsgd1na2vs0mg"},{"bike_id":"e6d9e185-de29-413a-8517-3942df1a652a","system_id":"levelo_inurba_marseille","lat":43.29841,"lon":5.36303,"is_reserved":false,"is_disabled":false,"rental_uris":{"android":"levelo://app?vid=e6d9e185-de29-413a-8517-3942df1a652a","ios":"levelo://app?vid=e6d9e185-de29-413a-8517-3942df1a652a"},"vehicle_type_id":"4","last_reported":1773679931,"current_range_meters":39200,"station_id":"ce4bgpp2rcd13ifvqc3g","pricing_plan_id":"cebpf4jnsgd1na2vs0mg"},{"bike_id":"41483cd8-6eff-42a2-9100-3d0c1cb29351","system_id":"levelo_inurba_marseille","lat":43.265,"lon":5.39549,"is_reserved":false,"is_disabled":false,"rental_uris":{"android":"levelo://app?vid=41483cd8-6eff-42a2-9100-3d0c1cb29351","ios":"levelo://app?vid=41483cd8-6eff-42a2-9100-3d0c1cb29351"},"vehicle_type_id":"4","last_reported":1773679931,"current_range_meters":8000,"station_id":"ce4bhi12rcd13ifvqfq0","pricing_plan_id":"cebpf4jnsgd1na2vs0mg"},{"bike_id":"74c7d16a-3108-4ed6-b3c2-5a7c2eaa7c43","system_id":"levelo_inurba_marseille","lat":43.28093,"lon":5.3785,"is_reserved":false,"is_disabled":false,"rental_uris":{"android":"levelo://app?vid=74c7d16a-3108-4ed6-b3c2-5a7c2eaa7c43","ios":"levelo://app?vid=74c7d16a-3108-4ed6-b3c2-5a7c2eaa7c43"},"vehicle_type_id":"4","last_reported":1773679931,"current_range_meters":26800,"station_id":"ce4bha12rcd13ifvqee0","pricing_plan_id":"cebpf4jnsgd1na2vs0mg"},{"bike_id":"ffd2aa79-124b-40e3-b74b-93a25fcdb83f","system_id":"levelo_inurba_marseille","lat":43.23198,"lon":5.39957,"is_reserved":false,"is_disabled":false,"rental_uris":{"android":"levelo://app?vid=ffd2aa79-124b-40e3-b74b-93a25fcdb83f","ios":"levelo://app?vid=ffd2aa79-124b-40e3-b74b-93a25fcdb83f"},"vehicle_type_id":"4","last_reported":1773679931,"current_range_meters":26000,"station_id":"ce4bhn12rcd13ifvqgqg","pricing_plan_id":"cebpf4jnsgd1na2vs0mg"},{"bike_id":"40450e44-cc9d-407c-957a-1aeb6f187932","system_id":"levelo_inurba_marseille","lat":43.22549,"lon":5.41629,"is_reserved":false,"is_disabled":false,"rental_uris":{"android":"levelo://app?vid=40450e44-cc9d-407c-957a-1aeb6f187932","ios":"levelo://app?vid=40450e44-cc9d-407c-957a-1aeb6f187932"},"vehicle_type_id":"4","last_reported":1773679931,"current_range_meters":7200,"station_id":"st_d2o4gvlbi1j2169b742g","pricing_plan_id":"cebpf4jnsgd1na2vs0mg"},{"bike_id":"e24aa91d-22b2-440b-bc6d-25ab2b336b7a","system_id":"levelo_inurba_marseille","lat":43.23201,"lon":5.35539,"is_reserved":false,"is_disabled":false,"rental_uris":{"android":"levelo://app?vid=e24aa91d-22b2-440b-bc6d-25ab2b336b7a","ios":"levelo://app?vid=e24aa91d-22b2-440b-bc6d-25ab2b336b7a"},"vehicle_type_id":"4","last_reported":1773679931,"current_range_meters":39200,"station_id":"ce4bhu92rcd13ifvqi70","pricing_plan_id":"cebpf4jnsgd1na2vs0mg"},{"bike_id":"bc4f7328-cab9-4fcd-8fd6-48b670075c96","system_id":"levelo_inurba_marseille","lat":43.30545,"lon":5.36564,"is_reserved":false,"is_disabled":false,"rental_uris":{"android":"levelo://app?vid=bc4f7328-cab9-4fcd-8fd6-48b670075c96","ios":"levelo://app?vid=bc4f7328-cab9-4fcd-8fd6-48b670075c96"},"vehicle_type_id":"4","last_reported":1773679931,"current_range_meters":39200,"station_id":"ce4bgs12rcd13ifvqcag","pricing_plan_id":"cebpf4jnsgd1na2vs0mg"},{"bike_id":"1534ddc0-79ef-417f-a4ac-118332b0b835","system_id":"levelo_inurba_marseille","lat":43.31123,"lon":5.37762,"is_reserved":false,"is_disabled":false,"rental_uris":{"android":"levelo://app?vid=1534ddc0-79ef-417f-a4ac-118332b0b835","ios":"levelo://app?vid=1534ddc0-79ef-417f-a4ac-118332b0b835"},"vehicle_type_id":"4","last_reported":1773679931,"current_range_meters":33200,"station_id":"ce4bgt92rcd13ifvqcg0","pricing_plan_id":"cebpf4jnsgd1na2vs0mg"},{"bike_id":"eaa5390d-2d68-4739-8254-52f983e127b1","system_id":"levelo_inurba_marseille","lat":43.28471,"lon":5.48397,"is_reserved":false,"is_disabled":false,"rental_uris":{"android":"levelo://app?vid=eaa5390d-2d68-4739-8254-52f983e127b1","ios":"levelo://app?vid=eaa5390d-2d68-4739-8254-52f983e127b1"},"vehicle_type_id":"4","last_reported":1773679931,"current_range_meters":20400,"station_id":"","pricing_plan_id":"cebpf4jnsgd1na2vs0mg"},{"bike_id":"f53ed231-3e48-421e-91cb-581c11eece38","system_id":"levelo_inurba_marseille","lat":43.24949,"lon":5.40474,"is_reserved":false,"is_disabled":false,"rental_uris":{"android":"levelo://app?vid=f53ed231-3e48-421e-91cb-581c11eece38","ios":"levelo://app?vid=f53ed231-3e48-421e-91cb-581c11eece38"},"vehicle_type_id":"4","last_reported":1773679931,"current_range_meters":8800,"station_id":"st_d2ngiaodas8pm72gd1h0","pricing_plan_id":"cebpf4jnsgd1na2vs0mg"},{"bike_id":"d668a14d-59f3-46e7-bdd6-66c2cfb5206f","system_id":"levelo_inurba_marseille","lat":43.26363,"lon":5.41075,"is_reserved":false,"is_disabled":false,"rental_uris":{"android":"levelo://app?vid=d668a14d-59f3-46e7-bdd6-66c2cfb5206f","ios":"levelo://app?vid=d668a14d-59f3-46e7-bdd6-66c2cfb5206f"},"vehicle_type_id":"4","last_reported":1773679931,"current_range_meters":39200,"station_id":"st_d4e5ca6na9uc73bfl5fg","pricing_plan_id":"cebpf4jnsgd1na2vs0mg"},{"bike_id":"4e782e5c-5180-4182-ba52-9bf450d3760d","system_id":"levelo_inurba_marseille","lat":43.31182,"lon":5.38727,"is_reserved":false,"is_disabled":false,"rental_uris":{"android":"levelo://app?vid=4e782e5c-5180-4182-ba52-9bf450d3760d","ios":"levelo://app?vid=4e782e5c-5180-4182-ba52-9bf450d3760d"},"vehicle_type_id":"4","last_reported":1773679931,"current_range_meters":28800,"station_id":"ce4bgv12rcd13ifvqcp0","pricing_plan_id":"cebpf4jnsgd1na2vs0mg"},{"bike_id":"eba7007a-22fe-4603-b600-e6d79c47801e","system_id":"levelo_inurba_marseille","lat":43.27165,"lon":5.41003,"is_reserved":false,"is_disabled":false,"rental_uris":{"android":"levelo://app?vid=eba7007a-22fe-4603-b600-e6d79c47801e","ios":"levelo://app?vid=eba7007a-22fe-4603-b600-e6d79c47801e"},"vehicle_type_id":"4","last_reported":1773679931,"current_range_meters":28000,"station_id":"ce4bhl12rcd13ifvqgf0","pricing_plan_id":"cebpf4jnsgd1na2vs0mg"},{"bike_id":"963aea0f-edfd-42fe-bb5c-9e3909fc1c6c","system_id":"levelo_inurba_marseille","lat":43.25577,"lon":5.3823,"is_reserved":false,"is_disabled":false,"rental_uris":{"android":"levelo://app?vid=963aea0f-edfd-42fe-bb5c-9e3909fc1c6c","ios":"levelo://app?vid=963aea0f-edfd-42fe-bb5c-9e3909fc1c6c"},"vehicle_type_id":"4","last_reported":1773679931,"current_range_meters":39200,"station_id":"ce4bhih2rcd13ifvqfs0","pricing_plan_id":"cebpf4jnsgd1na2vs0mg"},{"bike_id":"8aaf525a-2438-4977-86b2-70256683bfeb","system_id":"levelo_inurba_marseille","lat":43.2851,"lon":5.44113,"is_reserved":false,"is_disabled":false,"rental_uris":{"android":"levelo://app?vid=8aaf525a-2438-4977-86b2-70256683bfeb","ios":"levelo://app?vid=8aaf525a-2438-4977-86b2-70256683bfeb"},"vehicle_type_id":"4","last_reported":1773679931,"current_range_meters":31200,"station_id":"st_d3j3df2ikq2c7380ej80","pricing_plan_id":"cebpf4jnsgd1na2vs0mg"},{"bike_id":"85384336-ec8c-4d14-8cf7-dd1704f5ada9","system_id":"levelo_inurba_marseille","lat":43.28417,"lon":5.34989,"is_reserved":false,"is_disabled":false,"rental_uris":{"android":"levelo://app?vid=85384336-ec8c-4d14-8cf7-dd1704f5ada9","ios":"levelo://app?vid=85384336-ec8c-4d14-8cf7-dd1704f5ada9"},"vehicle_type_id":"4","last_reported":1773679931,"current_range_meters":35600,"station_id":"ce4bhbh2rcd13ifvqepg","pricing_plan_id":"cebpf4jnsgd1na2vs0mg"},{"bike_id":"af53ec2d-31b6-4c34-85cf-8b2b8e7d0298","system_id":"levelo_inurba_marseille","lat":43.28613,"lon":5.39872,"is_reserved":false,"is_disabled":false,"rental_uris":{"android":"levelo://app?vid=af53ec2d-31b6-4c34-85cf-8b2b8e7d0298","ios":"levelo://app?vid=af53ec2d-31b6-4c34-85cf-8b2b8e7d0298"},"vehicle_type_id":"4","last_reported":1773679931,"current_range_meters":27200,"station_id":"st_d4a7ka997mjs738ck50g","pricing_plan_id":"cebpf4jnsgd1na2vs0mg"},{"bike_id":"a49d2dd6-b197-4b63-9ef5-4a2d828cbf24","system_id":"levelo_inurba_marseille","lat":43.29756,"lon":5.42785,"is_reserved":false,"is_disabled":false,"rental_uris":{"android":"levelo://app?vid=a49d2dd6-b197-4b63-9ef5-4a2d828cbf24","ios":"levelo://app?vid=a49d2dd6-b197-4b63-9ef5-4a2d828cbf24"},"vehicle_type_id":"4","last_reported":1773679931,"current_range_meters":24800,"station_id":"st_d3md5207bmas73dh9klg","pricing_plan_id":"cebpf4jnsgd1na2vs0mg"},{"bike_id":"e3fbff3a-10a0-4a3b-99c5-5f6809545e95","system_id":"levelo_inurba_marseille","lat":43.21742,"lon":5.34608,"is_reserved":false,"is_disabled":false,"rental_uris":{"android":"levelo://app?vid=e3fbff3a-10a0-4a3b-99c5-5f6809545e95","ios":"levelo://app?vid=e3fbff3a-10a0-4a3b-99c5-5f6809545e95"},"vehicle_type_id":"4","last_reported":1773679931,"current_range_meters":27600,"station_id":"st_cvj6r9ubvosntc0bgbag","pricing_plan_id":"cebpf4jnsgd1na2vs0mg"},{"bike_id":"3ff4419b-d3aa-4c95-bb32-7fc0c761a832","system_id":"levelo_inurba_marseille","lat":43.30328,"lon":5.36897,"is_reserved":false,"is_disabled":false,"rental_uris":{"android":"levelo://app?vid=3ff4419b-d3aa-4c95-bb32-7fc0c761a832","ios":"levelo://app?vid=3ff4419b-d3aa-4c95-bb32-7fc0c761a832"},"vehicle_type_id":"4","last_reported":1773679931,"current_range_meters":11600,"station_id":"ce4bgqh2rcd13ifvqc5g","pricing_plan_id":"cebpf4jnsgd1na2vs0mg"},{"bike_id":"592a7547-d375-47f5-a92c-507aad4780b8","system_id":"levelo_inurba_marseille","lat":43.22566,"lon":5.41628,"is_reserved":false,"is_disabled":false,"rental_uris":{"android":"levelo://app?vid=592a7547-d375-47f5-a92c-507aad4780b8","ios":"levelo://app?vid=592a7547-d375-47f5-a92c-507aad4780b8"},"vehicle_type_id":"4","last_reported":1773679931,"current_range_meters":32800,"station_id":"st_d2o4gvlbi1j2169b742g","pricing_plan_id":"cebpf4jnsgd1na2vs0mg"},{"bike_id":"66238237-b0ff-4d4c-9fd0-1d54f6552b47","system_id":"levelo_inurba_marseille","lat":43.21748,"lon":5.34602,"is_reserved":false,"is_disabled":false,"rental_uris":{"android":"levelo://app?vid=66238237-b0ff-4d4c-9fd0-1d54f6552b47","ios":"levelo://app?vid=66238237-b0ff-4d4c-9fd0-1d54f6552b47"},"vehicle_type_id":"4","last_reported":1773679931,"current_range_meters":10000,"station_id":"st_cvj6r9ubvosntc0bgbag","pricing_plan_id":"cebpf4jnsgd1na2vs0mg"},{"bike_id":"4ce7e85d-2f41-47d0-a55a-10d1eb9f4142","system_id":"levelo_inurba_marseille","lat":43.24461,"lon":5.42535,"is_reserved":false,"is_disabled":false,"rental_uris":{"android":"levelo://app?vid=4ce7e85d-2f41-47d0-a55a-10d1eb9f4142","ios":"levelo://app?vid=4ce7e85d-2f41-47d0-a55a-10d1eb9f4142"},"vehicle_type_id":"4","last_reported":1773679931,"current_range_meters":6000,"station_id":"st_d4a3vfp97mjs738cd8kg","pricing_plan_id":"cebpf4jnsgd1na2vs0mg"},{"bike_id":"b75c0a62-59be-48f6-a973-d45b79b83d07","system_id":"levelo_inurba_marseille","lat":43.29605,"lon":5.38103,"is_reserved":false,"is_disabled":false,"rental_uris":{"android":"levelo://app?vid=b75c0a62-59be-48f6-a973-d45b79b83d07","ios":"levelo://app?vid=b75c0a62-59be-48f6-a973-d45b79b83d07"},"vehicle_type_id":"4","last_reported":1773679931,"current_range_meters":3600,"station_id":"ce4bgl12rcd13ifvqbo0","pricing_plan_id":"cebpf4jnsgd1na2vs0mg"},{"bike_id":"10815e11-61cb-415f-8a36-f29cace97448","system_id":"levelo_inurba_marseille","lat":43.30545,"lon":5.36727,"is_reserved":false,"is_disabled":false,"rental_uris":{"android":"levelo://app?vid=10815e11-61cb-415f-8a36-f29cace97448","ios":"levelo://app?vid=10815e11-61cb-415f-8a36-f29cace97448"},"vehicle_type_id":"4","last_reported":1773679931,"current_range_meters":30400,"station_id":"ce4bgrp2rcd13ifvqc9g","pricing_plan_id":"cebpf4jnsgd1na2vs0mg"},{"bike_id":"72e248b9-3433-4c84-9cdf-83a90cf0f4a9","system_id":"levelo_inurba_marseille","lat":43.29207,"lon":5.39328,"is_reserved":false,"is_disabled":true,"rental_uris":{"android":"levelo://app?vid=72e248b9-3433-4c84-9cdf-83a90cf0f4a9","ios":"levelo://app?vid=72e248b9-3433-4c84-9cdf-83a90cf0f4a9"},"vehicle_type_id":"4","last_reported":1773679931,"current_range_meters":11200,"station_id":"ce4bh192rcd13ifvqdd0","pricing_plan_id":"cebpf4jnsgd1na2vs0mg"},{"bike_id":"5b366ec3-1884-4d84-9856-1e157c559067","system_id":"levelo_inurba_marseille","lat":43.30138,"lon":5.38058,"is_reserved":false,"is_disabled":false,"rental_uris":{"android":"levelo://app?vid=5b366ec3-1884-4d84-9856-1e157c559067","ios":"levelo://app?vid=5b366ec3-1884-4d84-9856-1e157c559067"},"vehicle_type_id":"4","last_reported":1773679931,"current_range_meters":39200,"station_id":"ce4bgjp2rcd13ifvqbh0","pricing_plan_id":"cebpf4jnsgd1na2vs0mg"},{"bike_id":"52519249-3b0d-4202-8277-c4917b19c2d3","system_id":"levelo_inurba_marseille","lat":43.30951,"lon":5.39034,"is_reserved":false,"is_disabled":true,"rental_uris":{"android":"levelo://app?vid=52519249-3b0d-4202-8277-c4917b19c2d3","ios":"levelo://app?vid=52519249-3b0d-4202-8277-c4917b19c2d3"},"vehicle_type_id":"4","last_reported":1773679931,"current_range_meters":39200,"station_id":"ce4bgup2rcd13ifvqco0","pricing_plan_id":"cebpf4jnsgd1na2vs0mg"},{"bike_id":"8aafbcd1-e0fe-4ef4-b089-a98b4c86c0ee","system_id":"levelo_inurba_marseille","lat":43.26167,"lon":5.3748,"is_reserved":false,"is_disabled":true,"rental_uris":{"android":"levelo://app?vid=8aafbcd1-e0fe-4ef4-b089-a98b4c86c0ee","ios":"levelo://app?vid=8aafbcd1-e0fe-4ef4-b089-a98b4c86c0ee"},"vehicle_type_id":"4","last_reported":1773679931,"current_range_meters":25600,"station_id":"ce4bhgp2rcd13ifvqfc0","pricing_plan_id":"cebpf4jnsgd1na2vs0mg"},{"bike_id":"1d87baf7-4472-4b8a-8168-674f85eba66b","system_id":"levelo_inurba_marseille","lat":43.22784,"lon":5.43463,"is_reserved":false,"is_disabled":false,"rental_uris":{"android":"levelo://app?vid=1d87baf7-4472-4b8a-8168-674f85eba66b","ios":"levelo://app?vid=1d87baf7-4472-4b8a-8168-674f85eba66b"},"vehicle_type_id":"4","last_reported":1773679931,"current_range_meters":16400,"station_id":"","pricing_plan_id":"cebpf4jnsgd1na2vs0mg"},{"bike_id":"b3e8b3aa-26db-449c-8162-0ed85a2bc616","system_id":"levelo_inurba_marseille","lat":43.32017,"lon":5.41415,"is_reserved":false,"is_disabled":false,"rental_uris":{"android":"levelo://app?vid=b3e8b3aa-26db-449c-8162-0ed85a2bc616","ios":"levelo://app?vid=b3e8b3aa-26db-449c-8162-0ed85a2bc616"},"vehicle_type_id":"4","last_reported":1773679931,"current_range_meters":20800,"station_id":"","pricing_plan_id":"cebpf4jnsgd1na2vs0mg"},{"bike_id":"98e96bcf-b0d8-4db5-8263-21bc514e80fa","system_id":"levelo_inurba_marseille","lat":43.2928,"lon":5.37451,"is_reserved":false,"is_disabled":false,"rental_uris":{"android":"levelo://app?vid=98e96bcf-b0d8-4db5-8263-21bc514e80fa","ios":"levelo://app?vid=98e96bcf-b0d8-4db5-8263-21bc514e80fa"},"vehicle_type_id":"4","last_reported":1773679931,"current_range_meters":38000,"station_id":"ce4bgi12rcd13ifvqb70","pricing_plan_id":"cebpf4jnsgd1na2vs0mg"},{"bike_id":"7cf4be83-26ac-4c93-9356-1166c34c70ba","system_id":"levelo_inurba_marseille","lat":43.33011,"lon":5.41267,"is_reserved":false,"is_disabled":false,"rental_uris":{"android":"levelo://app?vid=7cf4be83-26ac-4c93-9356-1166c34c70ba","ios":"levelo://app?vid=7cf4be83-26ac-4c93-9356-1166c34c70ba"},"vehicle_type_id":"4","last_reported":1773679931,"current_range_meters":9600,"station_id":"","pricing_plan_id":"cebpf4jnsgd1na2vs0mg"},{"bike_id":"d03f9bdb-4ab4-4e1f-ae03-3cffd5c48c8d","system_id":"levelo_inurba_marseille","lat":43.22931,"lon":5.35384,"is_reserved":false,"is_disabled":false,"rental_uris":{"android":"levelo://app?vid=d03f9bdb-4ab4-4e1f-ae03-3cffd5c48c8d","ios":"levelo://app?vid=d03f9bdb-4ab4-4e1f-ae03-3cffd5c48c8d"},"vehicle_type_id":"4","last_reported":1773679931,"current_range_meters":39200,"station_id":"cpo3532slgdg3j2ikp40","pricing_plan_id":"cebpf4jnsgd1na2vs0mg"},{"bike_id":"2e660e13-ebfc-4778-8634-18e61b993917","system_id":"levelo_inurba_marseille","lat":43.2586,"lon":5.39907,"is_reserved":false,"is_disabled":false,"rental_uris":{"android":"levelo://app?vid=2e660e13-ebfc-4778-8634-18e61b993917","ios":"levelo://app?vid=2e660e13-ebfc-4778-8634-18e61b993917"},"vehicle_type_id":"4","last_reported":1773679931,"current_range_meters":38800,"station_id":"ce4bhl92rcd13ifvqghg","pricing_plan_id":"cebpf4jnsgd1na2vs0mg"},{"bike_id":"7959d8b2-dd5c-4664-a073-1e4ac4c555e4","system_id":"levelo_inurba_marseille","lat":43.29273,"lon":5.38453,"is_reserved":false,"is_disabled":false,"rental_uris":{"android":"levelo://app?vid=7959d8b2-dd5c-4664-a073-1e4ac4c555e4","ios":"levelo://app?vid=7959d8b2-dd5c-4664-a073-1e4ac4c555e4"},"vehicle_type_id":"4","last_reported":1773679931,"current_range_meters":17200,"station_id":"ce4bh692rcd13ifvqea0","pricing_plan_id":"cebpf4jnsgd1na2vs0mg"},{"bike_id":"ac32d1ce-eadb-41fb-af36-758f0f8d5898","system_id":"levelo_inurba_marseille","lat":43.29899,"lon":5.43669,"is_reserved":false,"is_disabled":false,"rental_uris":{"android":"levelo://app?vid=ac32d1ce-eadb-41fb-af36-758f0f8d5898","ios":"levelo://app?vid=ac32d1ce-eadb-41fb-af36-758f0f8d5898"},"vehicle_type_id":"4","last_reported":1773679931,"current_range_meters":19200,"station_id":"ce4bhpp2rcd13ifvqhfg","pricing_plan_id":"cebpf4jnsgd1na2vs0mg"},{"bike_id":"1198f1b9-8957-4684-bf55-f1a4bb0e08bb","system_id":"levelo_inurba_marseille","lat":43.29837,"lon":5.36268,"is_reserved":false,"is_disabled":false,"rental_uris":{"android":"levelo://app?vid=1198f1b9-8957-4684-bf55-f1a4bb0e08bb","ios":"levelo://app?vid=1198f1b9-8957-4684-bf55-f1a4bb0e08bb"},"vehicle_type_id":"4","last_reported":1773679931,"current_range_meters":39200,"station_id":"ce4bgpp2rcd13ifvqc3g","pricing_plan_id":"cebpf4jnsgd1na2vs0mg"},{"bike_id":"0aa11af6-4a66-4b65-b781-8959dd3e1b05","system_id":"levelo_inurba_marseille","lat":43.2991,"lon":5.38077,"is_reserved":false,"is_disabled":false,"rental_uris":{"android":"levelo://app?vid=0aa11af6-4a66-4b65-b781-8959dd3e1b05","ios":"levelo://app?vid=0aa11af6-4a66-4b65-b781-8959dd3e1b05"},"vehicle_type_id":"4","last_reported":1773679931,"current_range_meters":27600,"station_id":"","pricing_plan_id":"cebpf4jnsgd1na2vs0mg"},{"bike_id":"418580e6-fe33-4376-9e32-1b7fa7c3dab5","system_id":"levelo_inurba_marseille","lat":43.24626,"lon":5.38898,"is_reserved":false,"is_disabled":false,"rental_uris":{"android":"levelo://app?vid=418580e6-fe33-4376-9e32-1b7fa7c3dab5","ios":"levelo://app?vid=418580e6-fe33-4376-9e32-1b7fa7c3dab5"},"vehicle_type_id":"4","last_reported":1773679931,"current_range_meters":25200,"station_id":"ce4bhg12rcd13ifvqf60","pricing_plan_id":"cebpf4jnsgd1na2vs0mg"},{"bike_id":"3893f38a-c31c-4d59-9ae2-654c3c101610","system_id":"levelo_inurba_marseille","lat":43.24552,"lon":5.39522,"is_reserved":false,"is_disabled":false,"rental_uris":{"android":"levelo://app?vid=3893f38a-c31c-4d59-9ae2-654c3c101610","ios":"levelo://app?vid=3893f38a-c31c-4d59-9ae2-654c3c101610"},"vehicle_type_id":"4","last_reported":1773679931,"current_range_meters":24400,"station_id":"ce4bhlp2rcd13ifvqgjg","pricing_plan_id":"cebpf4jnsgd1na2vs0mg"},{"bike_id":"dc51a89d-2cba-4ff3-9819-af139d1514ee","system_id":"levelo_inurba_marseille","lat":43.26936,"lon":5.38915,"is_reserved":false,"is_disabled":false,"rental_uris":{"android":"levelo://app?vid=dc51a89d-2cba-4ff3-9819-af139d1514ee","ios":"levelo://app?vid=dc51a89d-2cba-4ff3-9819-af139d1514ee"},"vehicle_type_id":"4","last_reported":1773679931,"current_range_meters":39200,"station_id":"ce4bhhh2rcd13ifvqfl0","pricing_plan_id":"cebpf4jnsgd1na2vs0mg"},{"bike_id":"bfbe80a3-a9fa-4f26-beae-95a66601d71d","system_id":"levelo_inurba_marseille","lat":43.23194,"lon":5.35544,"is_reserved":false,"is_disabled":false,"rental_uris":{"android":"levelo://app?vid=bfbe80a3-a9fa-4f26-beae-95a66601d71d","ios":"levelo://app?vid=bfbe80a3-a9fa-4f26-beae-95a66601d71d"},"vehicle_type_id":"4","last_reported":1773679931,"current_range_meters":23200,"station_id":"ce4bhu92rcd13ifvqi70","pricing_plan_id":"cebpf4jnsgd1na2vs0mg"},{"bike_id":"070475bf-1a52-421a-820b-baec73f3c197","system_id":"levelo_inurba_marseille","lat":43.26587,"lon":5.39011,"is_reserved":false,"is_disabled":false,"rental_uris":{"android":"levelo://app?vid=070475bf-1a52-421a-820b-baec73f3c197","ios":"levelo://app?vid=070475bf-1a52-421a-820b-baec73f3c197"},"vehicle_type_id":"4","last_reported":1773679931,"current_range_meters":38800,"station_id":"ce4bhe12rcd13ifvqf30","pricing_plan_id":"cebpf4jnsgd1na2vs0mg"},{"bike_id":"c5301128-1c98-473f-b471-0306f238104d","system_id":"levelo_inurba_marseille","lat":43.25521,"lon":5.37646,"is_reserved":false,"is_disabled":false,"rental_uris":{"android":"levelo://app?vid=c5301128-1c98-473f-b471-0306f238104d","ios":"levelo://app?vid=c5301128-1c98-473f-b471-0306f238104d"},"vehicle_type_id":"4","last_reported":1773679931,"current_range_meters":36800,"station_id":"ce4bhh12rcd13ifvqff0","pricing_plan_id":"cebpf4jnsgd1na2vs0mg"},{"bike_id":"c8f5ec7e-ccc6-49f8-b39a-2f757784a180","system_id":"levelo_inurba_marseille","lat":43.31437,"lon":5.3734,"is_reserved":false,"is_disabled":false,"rental_uris":{"android":"levelo://app?vid=c8f5ec7e-ccc6-49f8-b39a-2f757784a180","ios":"levelo://app?vid=c8f5ec7e-ccc6-49f8-b39a-2f757784a180"},"vehicle_type_id":"4","last_reported":1773679931,"current_range_meters":8000,"station_id":"","pricing_plan_id":"cebpf4jnsgd1na2vs0mg"},{"bike_id":"358b5ee1-d13b-4c2d-b9f8-8ce3caf1ef2d","system_id":"levelo_inurba_marseille","lat":43.315311,"lon":5.380356,"is_reserved":false,"is_disabled":false,"rental_uris":{"android":"levelo://app?vid=358b5ee1-d13b-4c2d-b9f8-8ce3caf1ef2d","ios":"levelo://app?vid=358b5ee1-d13b-4c2d-b9f8-8ce3caf1ef2d"},"vehicle_type_id":"4","last_reported":1773679931,"current_range_meters":30800,"station_id":"ce4bhsp2rcd13ifvqi50","pricing_plan_id":"cebpf4jnsgd1na2vs0mg"},{"bike_id":"340c43c6-6a47-447c-ae70-ad9fd7b70c5f","system_id":"levelo_inurba_marseille","lat":43.24945,"lon":5.40504,"is_reserved":false,"is_disabled":false,"rental_uris":{"android":"levelo://app?vid=340c43c6-6a47-447c-ae70-ad9fd7b70c5f","ios":"levelo://app?vid=340c43c6-6a47-447c-ae70-ad9fd7b70c5f"},"vehicle_type_id":"4","last_reported":1773679931,"current_range_meters":28000,"station_id":"st_d2ngiaodas8pm72gd1h0","pricing_plan_id":"cebpf4jnsgd1na2vs0mg"},{"bike_id":"c4c6a35d-3c4f-4065-91e1-5115e8f7ec26","system_id":"levelo_inurba_marseille","lat":43.27567,"lon":5.38426,"is_reserved":false,"is_disabled":false,"rental_uris":{"android":"levelo://app?vid=c4c6a35d-3c4f-4065-91e1-5115e8f7ec26","ios":"levelo://app?vid=c4c6a35d-3c4f-4065-91e1-5115e8f7ec26"},"vehicle_type_id":"4","last_reported":1773679931,"current_range_meters":7200,"station_id":"ce4bhh92rcd13ifvqfi0","pricing_plan_id":"cebpf4jnsgd1na2vs0mg"},{"bike_id":"bcddf199-548b-4144-aa72-ca5b4d52d0b4","system_id":"levelo_inurba_marseille","lat":43.262091,"lon":5.379261,"is_reserved":false,"is_disabled":false,"rental_uris":{"android":"levelo://app?vid=bcddf199-548b-4144-aa72-ca5b4d52d0b4","ios":"levelo://app?vid=bcddf199-548b-4144-aa72-ca5b4d52d0b4"},"vehicle_type_id":"4","last_reported":1773679931,"current_range_meters":38800,"station_id":"ce4bhjp2rcd13ifvqg90","pricing_plan_id":"cebpf4jnsgd1na2vs0mg"},{"bike_id":"23e678b2-1f77-49cd-b6e6-b676bf50bd0d","system_id":"levelo_inurba_marseille","lat":43.28353,"lon":5.3812,"is_reserved":false,"is_disabled":true,"rental_uris":{"android":"levelo://app?vid=23e678b2-1f77-49cd-b6e6-b676bf50bd0d","ios":"levelo://app?vid=23e678b2-1f77-49cd-b6e6-b676bf50bd0d"},"vehicle_type_id":"4","last_reported":1773679931,"current_range_meters":38400,"station_id":"ce4bh412rcd13ifvqdr0","pricing_plan_id":"cebpf4jnsgd1na2vs0mg"},{"bike_id":"e2a03a7f-5648-4f9b-ac20-b0e493b7b350","system_id":"levelo_inurba_marseille","lat":43.32364,"lon":5.36758,"is_reserved":false,"is_disabled":false,"rental_uris":{"android":"levelo://app?vid=e2a03a7f-5648-4f9b-ac20-b0e493b7b350","ios":"levelo://app?vid=e2a03a7f-5648-4f9b-ac20-b0e493b7b350"},"vehicle_type_id":"4","last_reported":1773679931,"current_range_meters":40000,"station_id":"ce4bhsh2rcd13ifvqi2g","pricing_plan_id":"cebpf4jnsgd1na2vs0mg"},{"bike_id":"8a1d8a84-dedf-4250-ac8b-7e13c0e1c9b3","system_id":"levelo_inurba_marseille","lat":43.33722,"lon":5.39187,"is_reserved":false,"is_disabled":false,"rental_uris":{"android":"levelo://app?vid=8a1d8a84-dedf-4250-ac8b-7e13c0e1c9b3","ios":"levelo://app?vid=8a1d8a84-dedf-4250-ac8b-7e13c0e1c9b3"},"vehicle_type_id":"4","last_reported":1773679931,"current_range_meters":4400,"station_id":"ce4bhr92rcd13ifvqhsg","pricing_plan_id":"cebpf4jnsgd1na2vs0mg"},{"bike_id":"ddfa8bc2-a2ab-4f06-ba77-074bccd79449","system_id":"levelo_inurba_marseille","lat":43.27365,"lon":5.36246,"is_reserved":false,"is_disabled":false,"rental_uris":{"android":"levelo://app?vid=ddfa8bc2-a2ab-4f06-ba77-074bccd79449","ios":"levelo://app?vid=ddfa8bc2-a2ab-4f06-ba77-074bccd79449"},"vehicle_type_id":"4","last_reported":1773679931,"current_range_meters":9200,"station_id":"ce4bhbh2rcd13ifvqeo0","pricing_plan_id":"cebpf4jnsgd1na2vs0mg"},{"bike_id":"9c2486c2-e062-4581-a21f-f081ce0fb87f","system_id":"levelo_inurba_marseille","lat":43.29823,"lon":5.44066,"is_reserved":false,"is_disabled":false,"rental_uris":{"android":"levelo://app?vid=9c2486c2-e062-4581-a21f-f081ce0fb87f","ios":"levelo://app?vid=9c2486c2-e062-4581-a21f-f081ce0fb87f"},"vehicle_type_id":"4","last_reported":1773679931,"current_range_meters":16000,"station_id":"st_d3jp68qikq2c7381ktn0","pricing_plan_id":"cebpf4jnsgd1na2vs0mg"},{"bike_id":"3f484f2e-0b76-41f3-9fe3-3db907fd108c","system_id":"levelo_inurba_marseille","lat":43.24812,"lon":5.37445,"is_reserved":false,"is_disabled":false,"rental_uris":{"android":"levelo://app?vid=3f484f2e-0b76-41f3-9fe3-3db907fd108c","ios":"levelo://app?vid=3f484f2e-0b76-41f3-9fe3-3db907fd108c"},"vehicle_type_id":"4","last_reported":1773679931,"current_range_meters":26000,"station_id":"ce4bhgh2rcd13ifvqfb0","pricing_plan_id":"cebpf4jnsgd1na2vs0mg"},{"bike_id":"23b3ceea-b35b-49ab-abf8-9fe58e40bb2c","system_id":"levelo_inurba_marseille","lat":43.30597,"lon":5.37166,"is_reserved":false,"is_disabled":false,"rental_uris":{"android":"levelo://app?vid=23b3ceea-b35b-49ab-abf8-9fe58e40bb2c","ios":"levelo://app?vid=23b3ceea-b35b-49ab-abf8-9fe58e40bb2c"},"vehicle_type_id":"4","last_reported":1773679931,"current_range_meters":27600,"station_id":"ce4bgqh2rcd13ifvqc4g","pricing_plan_id":"cebpf4jnsgd1na2vs0mg"},{"bike_id":"562f5fad-0415-4624-809b-e3ec58367a83","system_id":"levelo_inurba_marseille","lat":43.30305,"lon":5.39217,"is_reserved":false,"is_disabled":false,"rental_uris":{"android":"levelo://app?vid=562f5fad-0415-4624-809b-e3ec58367a83","ios":"levelo://app?vid=562f5fad-0415-4624-809b-e3ec58367a83"},"vehicle_type_id":"4","last_reported":1773679931,"current_range_meters":11200,"station_id":"ce4bgkh2rcd13ifvqbk0","pricing_plan_id":"cebpf4jnsgd1na2vs0mg"},{"bike_id":"d16e763f-79d5-42e7-ba74-3980825e63fc","system_id":"levelo_inurba_marseille","lat":43.25079,"lon":5.39503,"is_reserved":false,"is_disabled":false,"rental_uris":{"android":"levelo://app?vid=d16e763f-79d5-42e7-ba74-3980825e63fc","ios":"levelo://app?vid=d16e763f-79d5-42e7-ba74-3980825e63fc"},"vehicle_type_id":"4","last_reported":1773679931,"current_range_meters":3200,"station_id":"ce4bhm12rcd13ifvqgkg","pricing_plan_id":"cebpf4jnsgd1na2vs0mg"},{"bike_id":"57a423db-8929-4509-ac08-b3b87a99ddd9","system_id":"levelo_inurba_marseille","lat":43.31719,"lon":5.4241,"is_reserved":false,"is_disabled":false,"rental_uris":{"android":"levelo://app?vid=57a423db-8929-4509-ac08-b3b87a99ddd9","ios":"levelo://app?vid=57a423db-8929-4509-ac08-b3b87a99ddd9"},"vehicle_type_id":"4","last_reported":1773679931,"current_range_meters":38800,"station_id":"ce4bhp92rcd13ifvqhbg","pricing_plan_id":"cebpf4jnsgd1na2vs0mg"},{"bike_id":"2549d3e1-f693-492a-81e4-d55cbdc452bd","system_id":"levelo_inurba_marseille","lat":43.27029,"lon":5.4007,"is_reserved":false,"is_disabled":false,"rental_uris":{"android":"levelo://app?vid=2549d3e1-f693-492a-81e4-d55cbdc452bd","ios":"levelo://app?vid=2549d3e1-f693-492a-81e4-d55cbdc452bd"},"vehicle_type_id":"4","last_reported":1773679931,"current_range_meters":33200,"station_id":"","pricing_plan_id":"cebpf4jnsgd1na2vs0mg"},{"bike_id":"f5c86632-be3f-4652-9027-ebaab93fb2e7","system_id":"levelo_inurba_marseille","lat":43.25581,"lon":5.38234,"is_reserved":false,"is_disabled":false,"rental_uris":{"android":"levelo://app?vid=f5c86632-be3f-4652-9027-ebaab93fb2e7","ios":"levelo://app?vid=f5c86632-be3f-4652-9027-ebaab93fb2e7"},"vehicle_type_id":"4","last_reported":1773679931,"current_range_meters":26000,"station_id":"ce4bhih2rcd13ifvqfs0","pricing_plan_id":"cebpf4jnsgd1na2vs0mg"},{"bike_id":"620a1eb6-8d2c-4229-b260-72570b6192b5","system_id":"levelo_inurba_marseille","lat":43.30648,"lon":5.40099,"is_reserved":false,"is_disabled":false,"rental_uris":{"android":"levelo://app?vid=620a1eb6-8d2c-4229-b260-72570b6192b5","ios":"levelo://app?vid=620a1eb6-8d2c-4229-b260-72570b6192b5"},"vehicle_type_id":"4","last_reported":1773679931,"current_range_meters":36000,"station_id":"ce4bh112rcd13ifvqda0","pricing_plan_id":"cebpf4jnsgd1na2vs0mg"},{"bike_id":"d7435bde-7ace-4f4f-88d3-08e0c5541bf5","system_id":"levelo_inurba_marseille","lat":43.298,"lon":5.38138,"is_reserved":false,"is_disabled":true,"rental_uris":{"android":"levelo://app?vid=d7435bde-7ace-4f4f-88d3-08e0c5541bf5","ios":"levelo://app?vid=d7435bde-7ace-4f4f-88d3-08e0c5541bf5"},"vehicle_type_id":"4","last_reported":1773679931,"current_range_meters":24000,"station_id":"ce4bgip2rcd13ifvqbb0","pricing_plan_id":"cebpf4jnsgd1na2vs0mg"},{"bike_id":"8ad87f05-a69d-4520-86d1-ec7e53219f7d","system_id":"levelo_inurba_marseille","lat":43.28013,"lon":5.41686,"is_reserved":false,"is_disabled":false,"rental_uris":{"android":"levelo://app?vid=8ad87f05-a69d-4520-86d1-ec7e53219f7d","ios":"levelo://app?vid=8ad87f05-a69d-4520-86d1-ec7e53219f7d"},"vehicle_type_id":"4","last_reported":1773679931,"current_range_meters":30400,"station_id":"ce4bho12rcd13ifvqh1g","pricing_plan_id":"cebpf4jnsgd1na2vs0mg"},{"bike_id":"0105f821-befb-4b88-877b-bfb9a09ae874","system_id":"levelo_inurba_marseille","lat":43.2927,"lon":5.38445,"is_reserved":false,"is_disabled":false,"rental_uris":{"android":"levelo://app?vid=0105f821-befb-4b88-877b-bfb9a09ae874","ios":"levelo://app?vid=0105f821-befb-4b88-877b-bfb9a09ae874"},"vehicle_type_id":"4","last_reported":1773679931,"current_range_meters":8400,"station_id":"ce4bh692rcd13ifvqea0","pricing_plan_id":"cebpf4jnsgd1na2vs0mg"},{"bike_id":"af302f6c-8c6f-4ace-b011-ac7f02160942","system_id":"levelo_inurba_marseille","lat":43.25016,"lon":5.38906,"is_reserved":false,"is_disabled":true,"rental_uris":{"android":"levelo://app?vid=af302f6c-8c6f-4ace-b011-ac7f02160942","ios":"levelo://app?vid=af302f6c-8c6f-4ace-b011-ac7f02160942"},"vehicle_type_id":"4","last_reported":1773679931,"current_range_meters":29600,"station_id":"ce4bhgp2rcd13ifvqfd0","pricing_plan_id":"cebpf4jnsgd1na2vs0mg"},{"bike_id":"7f22dd13-9c58-4cd6-91ef-21f6afafc313","system_id":"levelo_inurba_marseille","lat":43.29264,"lon":5.3845,"is_reserved":false,"is_disabled":false,"rental_uris":{"android":"levelo://app?vid=7f22dd13-9c58-4cd6-91ef-21f6afafc313","ios":"levelo://app?vid=7f22dd13-9c58-4cd6-91ef-21f6afafc313"},"vehicle_type_id":"4","last_reported":1773679931,"current_range_meters":32400,"station_id":"ce4bh692rcd13ifvqea0","pricing_plan_id":"cebpf4jnsgd1na2vs0mg"},{"bike_id":"b7d7dd75-3996-448a-8686-bbd99bb29353","system_id":"levelo_inurba_marseille","lat":43.2844,"lon":5.35023,"is_reserved":false,"is_disabled":false,"rental_uris":{"android":"levelo://app?vid=b7d7dd75-3996-448a-8686-bbd99bb29353","ios":"levelo://app?vid=b7d7dd75-3996-448a-8686-bbd99bb29353"},"vehicle_type_id":"4","last_reported":1773679931,"current_range_meters":26000,"station_id":"ce4bhbh2rcd13ifvqepg","pricing_plan_id":"cebpf4jnsgd1na2vs0mg"},{"bike_id":"63ac7fc0-00b3-4fb5-aba5-0afcd7429a92","system_id":"levelo_inurba_marseille","lat":43.31778,"lon":5.44416,"is_reserved":false,"is_disabled":false,"rental_uris":{"android":"levelo://app?vid=63ac7fc0-00b3-4fb5-aba5-0afcd7429a92","ios":"levelo://app?vid=63ac7fc0-00b3-4fb5-aba5-0afcd7429a92"},"vehicle_type_id":"4","last_reported":1773679931,"current_range_meters":25200,"station_id":"","pricing_plan_id":"cebpf4jnsgd1na2vs0mg"},{"bike_id":"a8ccaa89-c8ad-46e6-bf26-60f0ccbb81e1","system_id":"levelo_inurba_marseille","lat":43.31724,"lon":5.4241,"is_reserved":false,"is_disabled":false,"rental_uris":{"android":"levelo://app?vid=a8ccaa89-c8ad-46e6-bf26-60f0ccbb81e1","ios":"levelo://app?vid=a8ccaa89-c8ad-46e6-bf26-60f0ccbb81e1"},"vehicle_type_id":"4","last_reported":1773679931,"current_range_meters":34000,"station_id":"ce4bhp92rcd13ifvqhbg","pricing_plan_id":"cebpf4jnsgd1na2vs0mg"},{"bike_id":"cecc6ab6-baa9-4f04-8738-c14aac04a878","system_id":"levelo_inurba_marseille","lat":43.2639,"lon":5.41062,"is_reserved":false,"is_disabled":false,"rental_uris":{"android":"levelo://app?vid=cecc6ab6-baa9-4f04-8738-c14aac04a878","ios":"levelo://app?vid=cecc6ab6-baa9-4f04-8738-c14aac04a878"},"vehicle_type_id":"4","last_reported":1773679931,"current_range_meters":19200,"station_id":"st_d4e5ca6na9uc73bfl5fg","pricing_plan_id":"cebpf4jnsgd1na2vs0mg"},{"bike_id":"cf10c68a-abc6-4ef2-bb0a-33437b66cbf9","system_id":"levelo_inurba_marseille","lat":43.29703,"lon":5.36588,"is_reserved":false,"is_disabled":false,"rental_uris":{"android":"levelo://app?vid=cf10c68a-abc6-4ef2-bb0a-33437b66cbf9","ios":"levelo://app?vid=cf10c68a-abc6-4ef2-bb0a-33437b66cbf9"},"vehicle_type_id":"4","last_reported":1773679931,"current_range_meters":18800,"station_id":"ce4bgn12rcd13ifvqbt0","pricing_plan_id":"cebpf4jnsgd1na2vs0mg"},{"bike_id":"0b733207-6002-4d57-86ef-1b760243792a","system_id":"levelo_inurba_marseille","lat":43.2949,"lon":5.43304,"is_reserved":false,"is_disabled":false,"rental_uris":{"android":"levelo://app?vid=0b733207-6002-4d57-86ef-1b760243792a","ios":"levelo://app?vid=0b733207-6002-4d57-86ef-1b760243792a"},"vehicle_type_id":"4","last_reported":1773679931,"current_range_meters":22000,"station_id":"st_d3j5ugp08ojc73fj9d10","pricing_plan_id":"cebpf4jnsgd1na2vs0mg"},{"bike_id":"524b8939-b893-4d7c-9390-15f31467693d","system_id":"levelo_inurba_marseille","lat":43.27232,"lon":5.39211,"is_reserved":false,"is_disabled":true,"rental_uris":{"android":"levelo://app?vid=524b8939-b893-4d7c-9390-15f31467693d","ios":"levelo://app?vid=524b8939-b893-4d7c-9390-15f31467693d"},"vehicle_type_id":"4","last_reported":1773679931,"current_range_meters":32400,"station_id":"ce4bhhp2rcd13ifvqfm0","pricing_plan_id":"cebpf4jnsgd1na2vs0mg"},{"bike_id":"cf480f43-e654-4d78-a74d-bdba3101a09a","system_id":"levelo_inurba_marseille","lat":43.30152,"lon":5.381,"is_reserved":false,"is_disabled":true,"rental_uris":{"android":"levelo://app?vid=cf480f43-e654-4d78-a74d-bdba3101a09a","ios":"levelo://app?vid=cf480f43-e654-4d78-a74d-bdba3101a09a"},"vehicle_type_id":"4","last_reported":1773679931,"current_range_meters":0,"station_id":"ce4bgjp2rcd13ifvqbh0","pricing_plan_id":"cebpf4jnsgd1na2vs0mg"},{"bike_id":"6dc58443-ffb0-4107-a4e2-9c08ad9432d1","system_id":"levelo_inurba_marseille","lat":43.29696,"lon":5.37288,"is_reserved":false,"is_disabled":false,"rental_uris":{"android":"levelo://app?vid=6dc58443-ffb0-4107-a4e2-9c08ad9432d1","ios":"levelo://app?vid=6dc58443-ffb0-4107-a4e2-9c08ad9432d1"},"vehicle_type_id":"4","last_reported":1773679931,"current_range_meters":32000,"station_id":"ce4bgk12rcd13ifvqbj0","pricing_plan_id":"cebpf4jnsgd1na2vs0mg"},{"bike_id":"830e471c-a762-44ae-a1cb-7b16951aff80","system_id":"levelo_inurba_marseille","lat":43.31893,"lon":5.36815,"is_reserved":false,"is_disabled":false,"rental_uris":{"android":"levelo://app?vid=830e471c-a762-44ae-a1cb-7b16951aff80","ios":"levelo://app?vid=830e471c-a762-44ae-a1cb-7b16951aff80"},"vehicle_type_id":"4","last_reported":1773679931,"current_range_meters":30800,"station_id":"ce4bhrh2rcd13ifvqhug","pricing_plan_id":"cebpf4jnsgd1na2vs0mg"},{"bike_id":"f2848cf2-3575-4d15-8bc5-e4b8c35bc5e0","system_id":"levelo_inurba_marseille","lat":43.27896,"lon":5.35424,"is_reserved":false,"is_disabled":true,"rental_uris":{"android":"levelo://app?vid=f2848cf2-3575-4d15-8bc5-e4b8c35bc5e0","ios":"levelo://app?vid=f2848cf2-3575-4d15-8bc5-e4b8c35bc5e0"},"vehicle_type_id":"4","last_reported":1773679931,"current_range_meters":0,"station_id":"","pricing_plan_id":"cebpf4jnsgd1na2vs0mg"},{"bike_id":"cb59cd2d-cd04-4bbb-ba75-60bbb036df9c","system_id":"levelo_inurba_marseille","lat":43.24655,"lon":5.38889,"is_reserved":false,"is_disabled":false,"rental_uris":{"android":"levelo://app?vid=cb59cd2d-cd04-4bbb-ba75-60bbb036df9c","ios":"levelo://app?vid=cb59cd2d-cd04-4bbb-ba75-60bbb036df9c"},"vehicle_type_id":"4","last_reported":1773679931,"current_range_meters":20000,"station_id":"ce4bhg12rcd13ifvqf60","pricing_plan_id":"cebpf4jnsgd1na2vs0mg"},{"bike_id":"b4edc908-c4fb-4bee-a3fe-b137f18dfc3b","system_id":"levelo_inurba_marseille","lat":43.29838,"lon":5.36287,"is_reserved":false,"is_disabled":false,"rental_uris":{"android":"levelo://app?vid=b4edc908-c4fb-4bee-a3fe-b137f18dfc3b","ios":"levelo://app?vid=b4edc908-c4fb-4bee-a3fe-b137f18dfc3b"},"vehicle_type_id":"4","last_reported":1773679931,"current_range_meters":30400,"station_id":"ce4bgpp2rcd13ifvqc3g","pricing_plan_id":"cebpf4jnsgd1na2vs0mg"},