{"last_updated":1747548866,"ttl":60,"version":"2.2","data":{"bikes":[{"bike_id":"3193ad55-2474-4440-81b7-a1e4a46d043c","system_id":"levelo_inurba_marseille","lat":43.284581,"lon":5.358926,"is_reserved":false,"is_disabled":false,"rental_uris":{"android":"levelo://app?vid=3193ad55-2474-4440-81b7-a1e4a46d043c","ios":"levelo://app?vid=3193ad55-2474-4440-81b7-a1e4a46d043c"},"vehicle_type_id":"4","last_reported":1747548866,"current_range_meters":2800,"station_id":"ce4bhah2rcd13ifvqei0","pricing_plan_id":"cebpf4jnsgd1na2vs0mg"},{"bike_id":"9f0c1fb2-960c-4ed7-992e-e8d2729e9fd5","system_id":"levelo_inurba_marseille","lat":43.30808,"lon":5.38157,"is_reserved":false,"is_disabled":false,"rental_uris":{"android":"levelo://app?vid=9f0c1fb2-960c-4ed7-992e-e8d2729e9fd5","ios":"levelo://app?vid=9f0c1fb2-960c-4ed7-992e-e8d2729e9fd5"},"vehicle_type_id":"4","last_reported":1747548866,"current_range_meters":3200,"station_id":"ce4bgt12rcd13ifvqce0","pricing_plan_id":"cebpf4jnsgd1na2vs0mg"},{"bike_id":"acb27eee-7bb3-4cd3-af60-818cbc6ea373","system_id":"levelo_inurba_marseille","lat":43.30127,"lon":5.38778,"is_reserved":false,"is_disabled":false,"rental_uris":{"android":"levelo://app?vid=acb27eee-7bb3-4cd3-af60-818cbc6ea373","ios":"levelo://app?vid=acb27eee-7bb3-4cd3-af60-818cbc6ea373"},"vehicle_type_id":"4","last_reported":1747548866,"current_range_meters":2800,"station_id":"ce4bghh2rcd13ifvqb60","pricing_plan_id":"cebpf4jnsgd1na2vs0mg"},{"bike_id":"bd01d5e0-033a-4a78-9389-11d5ff0601a2","system_id":"levelo_inurba_marseille","lat":43.26027,"lon":5.37549,"is_reserved":false,"is_disabled":false,"rental_uris":{"android":"levelo://app?vid=bd01d5e0-033a-4a78-9389-11d5ff0601a2","ios":"levelo://app?vid=bd01d5e0-033a-4a78-9389-11d5ff0601a2"},"vehicle_type_id":"4","last_reported":1747548866,"current_range_meters":8000,"station_id":"ce4bhgh2rcd13ifvqfa0","pricing_plan_id":"cebpf4jnsgd1na2vs0mg"},{"bike_id":"6e612e7b-28be-478c-9618-97651a5de57b","system_id":"levelo_inurba_marseille","lat":43.246591,"lon":5.395786,"is_reserved":false,"is_disabled":false,"rental_uris":{"android":"levelo://app?vid=6e612e7b-28be-478c-9618-97651a5de57b","ios":"levelo://app?vid=6e612e7b-28be-478c-9618-97651a5de57b"},"vehicle_type_id":"4","last_reported":1747548866,"current_range_meters":3600,"station_id":"","pricing_plan_id":"cebpf4jnsgd1na2vs0mg"},{"bike_id":"247923c1-8cb9-486a-8e5a-c9b973edfdcc","system_id":"levelo_inurba_marseille","lat":43.284032,"lon":5.375235,"is_reserved":false,"is_disabled":false,"rental_uris":{"android":"levelo://app?vid=247923c1-8cb9-486a-8e5a-c9b973edfdcc","ios":"levelo://app?vid=247923c1-8cb9-486a-8e5a-c9b973edfdcc"},"vehicle_type_id":"4","last_reported":1747548866,"current_range_meters":3600,"station_id":"ce4bh412rcd13ifvqds0","pricing_plan_id":"cebpf4jnsgd1na2vs0mg"},{"bike_id":"44953568-b48b-4665-a85b-d42a09e1a988","system_id":"levelo_inurba_marseille","lat":43.26073,"lon":5.39405,"is_reserved":false,"is_disabled":false,"rental_uris":{"android":"levelo://app?vid=44953568-b48b-4665-a85b-d42a09e1a988","ios":"levelo://app?vid=44953568-b48b-4665-a85b-d42a09e1a988"},"vehicle_type_id":"4","last_reported":1747548866,"current_range_meters":3600,"station_id":"ce4bhh92rcd13ifvqfj0","pricing_plan_id":"cebpf4jnsgd1na2vs0mg"},{"bike_id":"c4842f2c-2caf-42cd-a69f-adb966206205","system_id":"levelo_inurba_marseille","lat":43.3043,"lon":5.38892,"is_reserved":false,"is_disabled":false,"rental_uris":{"android":"levelo://app?vid=c4842f2c-2caf-42cd-a69f-adb966206205","ios":"levelo://app?vid=c4842f2c-2caf-42cd-a69f-adb966206205"},"vehicle_type_id":"4","last_reported":1747548866,"current_range_meters":3600,"station_id":"ce4bgk12rcd13ifvqbi0","pricing_plan_id":"cebpf4jnsgd1na2vs0mg"},{"bike_id":"ab7c2cbf-d2a6-486b-adbe-731d3f7954f0","system_id":"levelo_inurba_marseille","lat":43.30297,"lon":5.39217,"is_reserved":false,"is_disabled":true,"rental_uris":{"android":"levelo://app?vid=ab7c2cbf-d2a6-486b-adbe-731d3f7954f0","ios":"levelo://app?vid=ab7c2cbf-d2a6-486b-adbe-731d3f7954f0"},"vehicle_type_id":"4","last_reported":1747548866,"current_range_meters":3600,"station_id":"ce4bgkh2rcd13ifvqbk0","pricing_plan_id":"cebpf4jnsgd1na2vs0mg"},{"bike_id":"3200028d-adb7-46d7-854a-0d16d1a6f998","system_id":"levelo_inurba_marseille","lat":43.2979,"lon":5.38104,"is_reserved":false,"is_disabled":true,"rental_uris":{"android":"levelo://app?vid=3200028d-adb7-46d7-854a-0d16d1a6f998","ios":"levelo://app?vid=3200028d-adb7-46d7-854a-0d16d1a6f998"},"vehicle_type_id":"4","last_reported":1747548866,"current_range_meters":4000,"station_id":"ce4bgip2rcd13ifvqbb0","pricing_plan_id":"cebpf4jnsgd1na2vs0mg"},{"bike_id":"c6af509c-e30d-4e63-9de6-6f238c80ed2c","system_id":"levelo_inurba_marseille","lat":43.31431,"lon":5.40815,"is_reserved":false,"is_disabled":false,"rental_uris":{"android":"levelo://app?vid=c6af509c-e30d-4e63-9de6-6f238c80ed2c","ios":"levelo://app?vid=c6af509c-e30d-4e63-9de6-6f238c80ed2c"},"vehicle_type_id":"4","last_reported":1747548866,"current_range_meters":4000,"station_id":"ce4bh012rcd13ifvqd00","pricing_plan_id":"cebpf4jnsgd1na2vs0mg"},{"bike_id":"5e16ea8f-95fb-446c-ab51-fae1112c0aff","system_id":"levelo_inurba_marseille","lat":43.25937,"lon":5.40866,"is_reserved":false,"is_disabled":false,"rental_uris":{"android":"levelo://app?vid=5e16ea8f-95fb-446c-ab51-fae1112c0aff","ios":"levelo://app?vid=5e16ea8f-95fb-446c-ab51-fae1112c0aff"},"vehicle_type_id":"4","last_reported":1747548866,"current_range_meters":4000,"station_id":"ce4bhm92rcd13ifvqglg","pricing_plan_id":"cebpf4jnsgd1na2vs0mg"},{"bike_id":"6658a317-2c85-4f72-b81a-fe1f5c7392e1","system_id":"levelo_inurba_marseille","lat":43.245423,"lon":5.395218,"is_reserved":false,"is_disabled":false,"rental_uris":{"android":"levelo://app?vid=6658a317-2c85-4f72-b81a-fe1f5c7392e1","ios":"levelo://app?vid=6658a317-2c85-4f72-b81a-fe1f5c7392e1"},"vehicle_type_id":"4","last_reported":1747548866,"current_range_meters":4000,"station_id":"ce4bhlp2rcd13ifvqgjg","pricing_plan_id":"cebpf4jnsgd1na2vs0mg"},{"bike_id":"a4063de7-3465-4b39-9bf8-ef1a75de7c2d","system_id":"levelo_inurba_marseille","lat":43.28597,"lon":5.46093,"is_reserved":false,"is_disabled":false,"rental_uris":{"android":"levelo://app?vid=a4063de7-3465-4b39-9bf8-ef1a75de7c2d","ios":"levelo://app?vid=a4063de7-3465-4b39-9bf8-ef1a75de7c2d"},"vehicle_type_id":"4","last_reported":1747548866,"current_range_meters":4000,"station_id":"","pricing_plan_id":"cebpf4jnsgd1na2vs0mg"},{"bike_id":"343caff8-66ae-48de-8ad2-12268cecda98","system_id":"levelo_inurba_marseille","lat":43.241708,"lon":5.364005,"is_reserved":false,"is_disabled":false,"rental_uris":{"android":"levelo://app?vid=343caff8-66ae-48de-8ad2-12268cecda98","ios":"levelo://app?vid=343caff8-66ae-48de-8ad2-12268cecda98"},"vehicle_type_id":"4","last_reported":1747548866,"current_range_meters":4000,"station_id":"cpo36qri1sfpv3e86is0","pricing_plan_id":"cebpf4jnsgd1na2vs0mg"},{"bike_id":"e5faa87c-800f-4c13-bb95-4090fd787427","system_id":"levelo_inurba_marseille","lat":43.23319,"lon":5.39984,"is_reserved":false,"is_disabled":false,"rental_uris":{"android":"levelo://app?vid=e5faa87c-800f-4c13-bb95-4090fd787427","ios":"levelo://app?vid=e5faa87c-800f-4c13-bb95-4090fd787427"},"vehicle_type_id":"4","last_reported":1747548866,"current_range_meters":4000,"station_id":"","pricing_plan_id":"cebpf4jnsgd1na2vs0mg"},{"bike_id":"61d97dca-c1b9-4058-b0f9-5c4be17ad254","system_id":"levelo_inurba_marseille","lat":43.26222,"lon":5.40463,"is_reserved":false,"is_disabled":false,"rental_uris":{"android":"levelo://app?vid=61d97dca-c1b9-4058-b0f9-5c4be17ad254","ios":"levelo://app?vid=61d97dca-c1b9-4058-b0f9-5c4be17ad254"},"vehicle_type_id":"4","last_reported":1747548866,"current_range_meters":4000,"station_id":"ce4bhmh2rcd13ifvqgmg","pricing_plan_id":"cebpf4jnsgd1na2vs0mg"},{"bike_id":"1676ddb4-29a5-4180-a7d8-067d530fbaf5","system_id":"levelo_inurba_marseille","lat":43.2885,"lon":5.35935,"is_reserved":false,"is_disabled":false,"rental_uris":{"android":"levelo://app?vid=1676ddb4-29a5-4180-a7d8-067d530fbaf5","ios":"levelo://app?vid=1676ddb4-29a5-4180-a7d8-067d530fbaf5"},"vehicle_type_id":"4","last_reported":1747548866,"current_range_meters":4000,"station_id":"","pricing_plan_id":"cebpf4jnsgd1na2vs0mg"},{"bike_id":"69aa41dd-00d4-4743-85c7-2382bfa71cba","system_id":"levelo_inurba_marseille","lat":43.28456,"lon":5.39227,"is_reserved":false,"is_disabled":false,"rental_uris":{"android":"levelo://app?vid=69aa41dd-00d4-4743-85c7-2382bfa71cba","ios":"levelo://app?vid=69aa41dd-00d4-4743-85c7-2382bfa71cba"},"vehicle_type_id":"4","last_reported":1747548866,"current_range_meters":4400,"station_id":"ce4bhoh2rcd13ifvqh5g","pricing_plan_id":"cebpf4jnsgd1na2vs0mg"},{"bike_id":"9dd0dc4e-2f10-4b94-9194-fefea78e6d31","system_id":"levelo_inurba_marseille","lat":43.29597,"lon":5.42246,"is_reserved":false,"is_disabled":false,"rental_uris":{"android":"levelo://app?vid=9dd0dc4e-2f10-4b94-9194-fefea78e6d31","ios":"levelo://app?vid=9dd0dc4e-2f10-4b94-9194-fefea78e6d31"},"vehicle_type_id":"4","last_reported":1747548866,"current_range_meters":4400,"station_id":"","pricing_plan_id":"cebpf4jnsgd1na2vs0mg"},{"bike_id":"3fa58c22-00c6-48db-914d-ec2861a3d890","system_id":"levelo_inurba_marseille","lat":43.31065,"lon":5.40237,"is_reserved":false,"is_disabled":false,"rental_uris":{"android":"levelo://app?vid=3fa58c22-00c6-48db-914d-ec2861a3d890","ios":"levelo://app?vid=3fa58c22-00c6-48db-914d-ec2861a3d890"},"vehicle_type_id":"4","last_reported":1747548866,"current_range_meters":4400,"station_id":"","pricing_plan_id":"cebpf4jnsgd1na2vs0mg"},{"bike_id":"6d500971-4353-4229-b3cf-3802b55a172e","system_id":"levelo_inurba_marseille","lat":43.25597,"lon":5.38296,"is_reserved":false,"is_disabled":false,"rental_uris":{"android":"levelo://app?vid=6d500971-4353-4229-b3cf-3802b55a172e","ios":"levelo://app?vid=6d500971-4353-4229-b3cf-3802b55a172e"},"vehicle_type_id":"4","last_reported":1747548866,"current_range_meters":4800,"station_id":"","pricing_plan_id":"cebpf4jnsgd1na2vs0mg"},{"bike_id":"394cadcc-3a78-4403-9bfc-1006acf0fb23","system_id":"levelo_inurba_marseille","lat":43.262026,"lon":5.37921,"is_reserved":false,"is_disabled":true,"rental_uris":{"android":"levelo://app?vid=394cadcc-3a78-4403-9bfc-1006acf0fb23","ios":"levelo://app?vid=394cadcc-3a78-4403-9bfc-1006acf0fb23"},"vehicle_type_id":"4","last_reported":1747548866,"current_range_meters":5600,"station_id":"ce4bhjp2rcd13ifvqg90","pricing_plan_id":"cebpf4jnsgd1na2vs0mg"},{"bike_id":"6cd5c425-f8ac-4068-b8ea-a8bfbef29ee5","system_id":"levelo_inurba_marseille","lat":43.2501,"lon":5.37965,"is_reserved":false,"is_disabled":false,"rental_uris":{"android":"levelo://app?vid=6cd5c425-f8ac-4068-b8ea-a8bfbef29ee5","ios":"levelo://app?vid=6cd5c425-f8ac-4068-b8ea-a8bfbef29ee5"},"vehicle_type_id":"4","last_reported":1747548866,"current_range_meters":5600,"station_id":"","pricing_plan_id":"cebpf4jnsgd1na2vs0mg"},{"bike_id":"4d8c250d-3928-4865-ae84-e1d02ffdbb75","system_id":"levelo_inurba_marseille","lat":43.286975,"lon":5.399848,"is_reserved":false,"is_disabled":false,"rental_uris":{"android":"levelo://app?vid=4d8c250d-3928-4865-ae84-e1d02ffdbb75","ios":"levelo://app?vid=4d8c250d-3928-4865-ae84-e1d02ffdbb75"},"vehicle_type_id":"4","last_reported":1747548866,"current_range_meters":5600,"station_id":"ce4bho92rcd13ifvqh3g","pricing_plan_id":"cebpf4jnsgd1na2vs0mg"},{"bike_id":"36b1745a-43fa-4776-bad2-1802bcb8f390","system_id":"levelo_inurba_marseille","lat":43.298008,"lon":5.404086,"is_reserved":false,"is_disabled":false,"rental_uris":{"android":"levelo://app?vid=36b1745a-43fa-4776-bad2-1802bcb8f390","ios":"levelo://app?vid=36b1745a-43fa-4776-bad2-1802bcb8f390"},"vehicle_type_id":"4","last_reported":1747548866,"current_range_meters":5600,"station_id":"ce4bh112rcd13ifvqd90","pricing_plan_id":"cebpf4jnsgd1na2vs0mg"},{"bike_id":"3b843dca-d67a-4b0e-916b-710ebb36ec6d","system_id":"levelo_inurba_marseille","lat":43.325105,"lon":5.4014,"is_reserved":false,"is_disabled":false,"rental_uris":{"android":"levelo://app?vid=3b843dca-d67a-4b0e-916b-710ebb36ec6d","ios":"levelo://app?vid=3b843dca-d67a-4b0e-916b-710ebb36ec6d"},"vehicle_type_id":"4","last_reported":1747548866,"current_range_meters":6000,"station_id":"","pricing_plan_id":"cebpf4jnsgd1na2vs0mg"},{"bike_id":"e2fc8af1-f5b5-4887-bcc2-61f17df64fdc","system_id":"levelo_inurba_marseille","lat":43.24661,"lon":5.38161,"is_reserved":false,"is_disabled":false,"rental_uris":{"android":"levelo://app?vid=e2fc8af1-f5b5-4887-bcc2-61f17df64fdc","ios":"levelo://app?vid=e2fc8af1-f5b5-4887-bcc2-61f17df64fdc"},"vehicle_type_id":"4","last_reported":1747548866,"current_range_meters":6000,"station_id":"ce4bhih2rcd13ifvqfr0","pricing_plan_id":"cebpf4jnsgd1na2vs0mg"},{"bike_id":"fd8cc24a-6707-458f-be40-b0fcf29dedae","system_id":"levelo_inurba_marseille","lat":43.285681,"lon":5.395068,"is_reserved":false,"is_disabled":false,"rental_uris":{"android":"levelo://app?vid=fd8cc24a-6707-458f-be40-b0fcf29dedae","ios":"levelo://app?vid=fd8cc24a-6707-458f-be40-b0fcf29dedae"},"vehicle_type_id":"4","last_reported":1747548866,"current_range_meters":6400,"station_id":"ce4bh292rcd13ifvqdg0","pricing_plan_id":"cebpf4jnsgd1na2vs0mg"},{"bike_id":"1e5a7839-d218-47a9-988d-f5fdcdfa5acb","system_id":"levelo_inurba_marseille","lat":43.25828,"lon":5.3944,"is_reserved":false,"is_disabled":false,"rental_uris":{"android":"levelo://app?vid=1e5a7839-d218-47a9-988d-f5fdcdfa5acb","ios":"levelo://app?vid=1e5a7839-d218-47a9-988d-f5fdcdfa5acb"},"vehicle_type_id":"4","last_reported":1747548866,"current_range_meters":6400,"station_id":"ce4bhip2rcd13ifvqft0","pricing_plan_id":"cebpf4jnsgd1na2vs0mg"},{"bike_id":"f422de0d-c618-4f7f-bb53-97f17150b375","system_id":"levelo_inurba_marseille","lat":43.28459,"lon":5.358838,"is_reserved":false,"is_disabled":false,"rental_uris":{"android":"levelo://app?vid=f422de0d-c618-4f7f-bb53-97f17150b375","ios":"levelo://app?vid=f422de0d-c618-4f7f-bb53-97f17150b375"},"vehicle_type_id":"4","last_reported":1747548866,"current_range_meters":6400,"station_id":"ce4bhah2rcd13ifvqei0","pricing_plan_id":"cebpf4jnsgd1na2vs0mg"},{"bike_id":"7711fff8-1c30-4c3a-aa27-6e5dbb51f698","system_id":"levelo_inurba_marseille","lat":43.25141,"lon":5.40331,"is_reserved":false,"is_disabled":false,"rental_uris":{"android":"levelo://app?vid=7711fff8-1c30-4c3a-aa27-6e5dbb51f698","ios":"levelo://app?vid=7711fff8-1c30-4c3a-aa27-6e5dbb51f698"},"vehicle_type_id":"4","last_reported":1747548866,"current_range_meters":6800,"station_id":"ce4bhlh2rcd13ifvqgig","pricing_plan_id":"cebpf4jnsgd1na2vs0mg"},{"bike_id":"83df6560-d839-4cc1-b9c4-6c477190f614","system_id":"levelo_inurba_marseille","lat":43.243916,"lon":5.370713,"is_reserved":false,"is_disabled":true,"rental_uris":{"android":"levelo://app?vid=83df6560-d839-4cc1-b9c4-6c477190f614","ios":"levelo://app?vid=83df6560-d839-4cc1-b9c4-6c477190f614"},"vehicle_type_id":"4","last_reported":1747548866,"current_range_meters":6800,"station_id":"ce4bhhh2rcd13ifvqfk0","pricing_plan_id":"cebpf4jnsgd1na2vs0mg"},{"bike_id":"872f7738-5e44-4ffb-a9c9-fd3653391711","system_id":"levelo_inurba_marseille","lat":43.28101,"lon":5.378393,"is_reserved":false,"is_disabled":true,"rental_uris":{"android":"levelo://app?vid=872f7738-5e44-4ffb-a9c9-fd3653391711","ios":"levelo://app?vid=872f7738-5e44-4ffb-a9c9-fd3653391711"},"vehicle_type_id":"4","last_reported":1747548866,"current_range_meters":6800,"station_id":"ce4bha12rcd13ifvqee0","pricing_plan_id":"cebpf4jnsgd1na2vs0mg"},{"bike_id":"123ae55b-6b07-49b7-90aa-71520b895cea","system_id":"levelo_inurba_marseille","lat":43.270553,"lon":5.402622,"is_reserved":false,"is_disabled":false,"rental_uris":{"android":"levelo://app?vid=123ae55b-6b07-49b7-90aa-71520b895cea","ios":"levelo://app?vid=123ae55b-6b07-49b7-90aa-71520b895cea"},"vehicle_type_id":"4","last_reported":1747548866,"current_range_meters":6800,"station_id":"ce4bhk92rcd13ifvqgc0","pricing_plan_id":"cebpf4jnsgd1na2vs0mg"},{"bike_id":"80ce8948-82cf-42c6-8ab6-4636b50ac5f8","system_id":"levelo_inurba_marseille","lat":43.315343,"lon":5.380271,"is_reserved":false,"is_disabled":false,"rental_uris":{"android":"levelo://app?vid=80ce8948-82cf-42c6-8ab6-4636b50ac5f8","ios":"levelo://app?vid=80ce8948-82cf-42c6-8ab6-4636b50ac5f8"},"vehicle_type_id":"4","last_reported":1747548866,"current_range_meters":6800,"station_id":"ce4bhsp2rcd13ifvqi50","pricing_plan_id":"cebpf4jnsgd1na2vs0mg"},{"bike_id":"093b888a-9c5d-4574-bb57-20f4bb5014c9","system_id":"levelo_inurba_marseille","lat":43.30651,"lon":5.40076,"is_reserved":false,"is_disabled":false,"rental_uris":{"android":"levelo://app?vid=093b888a-9c5d-4574-bb57-20f4bb5014c9","ios":"levelo://app?vid=093b888a-9c5d-4574-bb57-20f4bb5014c9"},"vehicle_type_id":"4","last_reported":1747548866,"current_range_meters":6800,"station_id":"ce4bh112rcd13ifvqda0","pricing_plan_id":"cebpf4jnsgd1na2vs0mg"},{"bike_id":"39295a67-818d-4c4b-acd8-ebcf53b310ba","system_id":"levelo_inurba_marseille","lat":43.309259,"lon":5.401529,"is_reserved":false,"is_disabled":false,"rental_uris":{"android":"levelo://app?vid=39295a67-818d-4c4b-acd8-ebcf53b310ba","ios":"levelo://app?vid=39295a67-818d-4c4b-acd8-ebcf53b310ba"},"vehicle_type_id":"4","last_reported":1747548866,"current_range_meters":6800,"station_id":"ce4bgvp2rcd13ifvqct0","pricing_plan_id":"cebpf4jnsgd1na2vs0mg"},{"bike_id":"456df13e-096a-4823-8eea-67f822f45ee6","system_id":"levelo_inurba_marseille","lat":43.25112,"lon":5.40311,"is_reserved":false,"is_disabled":false,"rental_uris":{"android":"levelo://app?vid=456df13e-096a-4823-8eea-67f822f45ee6","ios":"levelo://app?vid=456df13e-096a-4823-8eea-67f822f45ee6"},"vehicle_type_id":"4","last_reported":1747548866,"current_range_meters":7200,"station_id":"ce4bhlh2rcd13ifvqgig","pricing_plan_id":"cebpf4jnsgd1na2vs0mg"},{"bike_id":"fdb61a9e-b53b-48c4-b0cb-6db5c626390b","system_id":"levelo_inurba_marseille","lat":43.290481,"lon":5.399736,"is_reserved":false,"is_disabled":true,"rental_uris":{"android":"levelo://app?vid=fdb61a9e-b53b-48c4-b0cb-6db5c626390b","ios":"levelo://app?vid=fdb61a9e-b53b-48c4-b0cb-6db5c626390b"},"vehicle_type_id":"4","last_reported":1747548866,"current_range_meters":7200,"station_id":"ce4bh392rcd13ifvqdm0","pricing_plan_id":"cebpf4jnsgd1na2vs0mg"},{"bike_id":"55fb771a-6e76-45c4-a9b7-cda97a0011d0","system_id":"levelo_inurba_marseille","lat":43.28706,"lon":5.38175,"is_reserved":false,"is_disabled":false,"rental_uris":{"android":"levelo://app?vid=55fb771a-6e76-45c4-a9b7-cda97a0011d0","ios":"levelo://app?vid=55fb771a-6e76-45c4-a9b7-cda97a0011d0"},"vehicle_type_id":"4","last_reported":1747548866,"current_range_meters":7200,"station_id":"","pricing_plan_id":"cebpf4jnsgd1na2vs0mg"},{"bike_id":"8659cb80-f7b2-4f04-a88e-e3eb7e094f49","system_id":"levelo_inurba_marseille","lat":43.28447,"lon":5.39187,"is_reserved":false,"is_disabled":false,"rental_uris":{"android":"levelo://app?vid=8659cb80-f7b2-4f04-a88e-e3eb7e094f49","ios":"levelo://app?vid=8659cb80-f7b2-4f04-a88e-e3eb7e094f49"},"vehicle_type_id":"4","last_reported":1747548866,"current_range_meters":7200,"station_id":"ce4bhoh2rcd13ifvqh5g","pricing_plan_id":"cebpf4jnsgd1na2vs0mg"},{"bike_id":"c1d5f882-d71a-4c0b-b205-2bbfdb801b0f","system_id":"levelo_inurba_marseille","lat":43.32345,"lon":5.40615,"is_reserved":false,"is_disabled":false,"rental_uris":{"android":"levelo://app?vid=c1d5f882-d71a-4c0b-b205-2bbfdb801b0f","ios":"levelo://app?vid=c1d5f882-d71a-4c0b-b205-2bbfdb801b0f"},"vehicle_type_id":"4","last_reported":1747548866,"current_range_meters":7200,"station_id":"ce4bhq92rcd13ifvqhjg","pricing_plan_id":"cebpf4jnsgd1na2vs0mg"},{"bike_id":"3713df8b-43d5-4d70-91a2-ef15d7bcf40b","system_id":"levelo_inurba_marseille","lat":43.25113,"lon":5.40332,"is_reserved":false,"is_disabled":false,"rental_uris":{"android":"levelo://app?vid=3713df8b-43d5-4d70-91a2-ef15d7bcf40b","ios":"levelo://app?vid=3713df8b-43d5-4d70-91a2-ef15d7bcf40b"},"vehicle_type_id":"4","last_reported":1747548866,"current_range_meters":8000,"station_id":"ce4bhlh2rcd13ifvqgig","pricing_plan_id":"cebpf4jnsgd1na2vs0mg"},{"bike_id":"d0cc36ba-dea5-4301-b9bc-2db32098db5e","system_id":"levelo_inurba_marseille","lat":43.25085,"lon":5.39511,"is_reserved":false,"is_disabled":false,"rental_uris":{"android":"levelo://app?vid=d0cc36ba-dea5-4301-b9bc-2db32098db5e","ios":"levelo://app?vid=d0cc36ba-dea5-4301-b9bc-2db32098db5e"},"vehicle_type_id":"4","last_reported":1747548866,"current_range_meters":8000,"station_id":"ce4bhm12rcd13ifvqgkg","pricing_plan_id":"cebpf4jnsgd1na2vs0mg"},{"bike_id":"3a75c5f4-243e-4f18-b95d-8635947008bf","system_id":"levelo_inurba_marseille","lat":43.25109,"lon":5.40374,"is_reserved":false,"is_disabled":false,"rental_uris":{"android":"levelo://app?vid=3a75c5f4-243e-4f18-b95d-8635947008bf","ios":"levelo://app?vid=3a75c5f4-243e-4f18-b95d-8635947008bf"},"vehicle_type_id":"4","last_reported":1747548866,"current_range_meters":8000,"station_id":"ce4bhlh2rcd13ifvqgig","pricing_plan_id":"cebpf4jnsgd1na2vs0mg"},{"bike_id":"dd66c583-b2e5-4cd9-9895-0629d4af2cb2","system_id":"levelo_inurba_marseille","lat":43.288517,"lon":5.358616,"is_reserved":false,"is_disabled":false,"rental_uris":{"android":"levelo://app?vid=dd66c583-b2e5-4cd9-9895-0629d4af2cb2","ios":"levelo://app?vid=dd66c583-b2e5-4cd9-9895-0629d4af2cb2"},"vehicle_type_id":"4","last_reported":1747548866,"current_range_meters":8000,"station_id":"ce4bhb12rcd13ifvqem0","pricing_plan_id":"cebpf4jnsgd1na2vs0mg"},{"bike_id":"af2f3908-848e-4879-9c80-b3ddea1b7f0a","system_id":"levelo_inurba_marseille","lat":43.31181,"lon":5.387731,"is_reserved":false,"is_disabled":true,"rental_uris":{"android":"levelo://app?vid=af2f3908-848e-4879-9c80-b3ddea1b7f0a","ios":"levelo://app?vid=af2f3908-848e-4879-9c80-b3ddea1b7f0a"},"vehicle_type_id":"4","last_reported":1747548866,"current_range_meters":8000,"station_id":"ce4bgv12rcd13ifvqcp0","pricing_plan_id":"cebpf4jnsgd1na2vs0mg"},{"bike_id":"82862649-485d-4988-aeb2-e287bb522774","system_id":"levelo_inurba_marseille","lat":43.289383,"lon":5.364006,"is_reserved":false,"is_disabled":false,"rental_uris":{"android":"levelo://app?vid=82862649-485d-4988-aeb2-e287bb522774","ios":"levelo://app?vid=82862649-485d-4988-aeb2-e287bb522774"},"vehicle_type_id":"4","last_reported":1747548866,"current_range_meters":8400,"station_id":"ce4bhc92rcd13ifvqetg","pricing_plan_id":"cebpf4jnsgd1na2vs0mg"},{"bike_id":"b8e6468b-87db-4ff6-8122-ef13bf5b7c8c","system_id":"levelo_inurba_marseille","lat":43.31379,"lon":5.37916,"is_reserved":false,"is_disabled":false,"rental_uris":{"android":"levelo://app?vid=b8e6468b-87db-4ff6-8122-ef13bf5b7c8c","ios":"levelo://app?vid=b8e6468b-87db-4ff6-8122-ef13bf5b7c8c"},"vehicle_type_id":"4","last_reported":1747548866,"current_range_meters":8400,"station_id":"","pricing_plan_id":"cebpf4jnsgd1na2vs0mg"},{"bike_id":"a623400b-858e-4dda-8d34-d28c08c93a18","system_id":"levelo_inurba_marseille","lat":43.26197,"lon":5.37446,"is_reserved":false,"is_disabled":false,"rental_uris":{"android":"levelo://app?vid=a623400b-858e-4dda-8d34-d28c08c93a18","ios":"levelo://app?vid=a623400b-858e-4dda-8d34-d28c08c93a18"},"vehicle_type_id":"4","last_reported":1747548866,"current_range_meters":8400,"station_id":"ce4bhgp2rcd13ifvqfc0","pricing_plan_id":"cebpf4jnsgd1na2vs0mg"},{"bike_id":"81c659b6-3a02-46e7-a46f-d340746ad32e","system_id":"levelo_inurba_marseille","lat":43.27374,"lon":5.36251,"is_reserved":false,"is_disabled":true,"rental_uris":{"android":"levelo://app?vid=81c659b6-3a02-46e7-a46f-d340746ad32e","ios":"levelo://app?vid=81c659b6-3a02-46e7-a46f-d340746ad32e"},"vehicle_type_id":"4","last_reported":1747548866,"current_range_meters":8400,"station_id":"ce4bhbh2rcd13ifvqeo0","pricing_plan_id":"cebpf4jnsgd1na2vs0mg"},{"bike_id":"822dd0b4-7412-48bb-99dc-94cac0c42c1e","system_id":"levelo_inurba_marseille","lat":43.29392,"lon":5.39797,"is_reserved":false,"is_disabled":false,"rental_uris":{"android":"levelo://app?vid=822dd0b4-7412-48bb-99dc-94cac0c42c1e","ios":"levelo://app?vid=822dd0b4-7412-48bb-99dc-94cac0c42c1e"},"vehicle_type_id":"4","last_reported":1747548866,"current_range_meters":8400,"station_id":"","pricing_plan_id":"cebpf4jnsgd1na2vs0mg"},{"bike_id":"4fbb7b1b-7f23-47f7-80fe-a4e6f73e37a2","system_id":"levelo_inurba_marseille","lat":43.313586,"lon":5.385006,"is_reserved":false,"is_disabled":false,"rental_uris":{"android":"levelo://app?vid=4fbb7b1b-7f23-47f7-80fe-a4e6f73e37a2","ios":"levelo://app?vid=4fbb7b1b-7f23-47f7-80fe-a4e6f73e37a2"},"vehicle_type_id":"4","last_reported":1747548866,"current_range_meters":8400,"station_id":"ce4bgt92rcd13ifvqcf0","pricing_plan_id":"cebpf4jnsgd1na2vs0mg"},{"bike_id":"5ea6f467-857b-4ea7-a4b9-4a241fcc702a","system_id":"levelo_inurba_marseille","lat":43.24661,"lon":5.38177,"is_reserved":false,"is_disabled":false,"rental_uris":{"android":"levelo://app?vid=5ea6f467-857b-4ea7-a4b9-4a241fcc702a","ios":"levelo://app?vid=5ea6f467-857b-4ea7-a4b9-4a241fcc702a"},"vehicle_type_id":"4","last_reported":1747548866,"current_range_meters":8400,"station_id":"ce4bhih2rcd13ifvqfr0","pricing_plan_id":"cebpf4jnsgd1na2vs0mg"},{"bike_id":"9cad89f6-20ac-4a0d-8a49-e06f4ba590cf","system_id":"levelo_inurba_marseille","lat":43.321126,"lon":5.367793,"is_reserved":false,"is_disabled":false,"rental_uris":{"android":"levelo://app?vid=9cad89f6-20ac-4a0d-8a49-e06f4ba590cf","ios":"levelo://app?vid=9cad89f6-20ac-4a0d-8a49-e06f4ba590cf"},"vehicle_type_id":"4","last_reported":1747548866,"current_range_meters":8400,"station_id":"ce4bhrh2rcd13ifvqhug","pricing_plan_id":"cebpf4jnsgd1na2vs0mg"},{"bike_id":"0e643c49-55b7-4013-9035-8e29a4bbf97b","system_id":"levelo_inurba_marseille","lat":43.24676,"lon":5.38163,"is_reserved":false,"is_disabled":false,"rental_uris":{"android":"levelo://app?vid=0e643c49-55b7-4013-9035-8e29a4bbf97b","ios":"levelo://app?vid=0e643c49-55b7-4013-9035-8e29a4bbf97b"},"vehicle_type_id":"4","last_reported":1747548866,"current_range_meters":8400,"station_id":"ce4bhih2rcd13ifvqfr0","pricing_plan_id":"cebpf4jnsgd1na2vs0mg"},{"bike_id":"aa9446b4-e4c2-4e75-9648-971ccb772673","system_id":"levelo_inurba_marseille","lat":43.27511,"lon":5.42464,"is_reserved":false,"is_disabled":false,"rental_uris":{"android":"levelo://app?vid=aa9446b4-e4c2-4e75-9648-971ccb772673","ios":"levelo://app?vid=aa9446b4-e4c2-4e75-9648-971ccb772673"},"vehicle_type_id":"4","last_reported":1747548866,"current_range_meters":8800,"station_id":"ce4bhn92rcd13ifvqgrg","pricing_plan_id":"cebpf4jnsgd1na2vs0mg"},{"bike_id":"87b1d5a0-ca20-4099-8fc3-ab0909b77445","system_id":"levelo_inurba_marseille","lat":43.30982,"lon":5.40163,"is_reserved":false,"is_disabled":false,"rental_uris":{"android":"levelo://app?vid=87b1d5a0-ca20-4099-8fc3-ab0909b77445","ios":"levelo://app?vid=87b1d5a0-ca20-4099-8fc3-ab0909b77445"},"vehicle_type_id":"4","last_reported":1747548866,"current_range_meters":8800,"station_id":"ce4bgvp2rcd13ifvqct0","pricing_plan_id":"cebpf4jnsgd1na2vs0mg"},{"bike_id":"8f189487-f31d-4ca2-a926-e41f071bd7f5","system_id":"levelo_inurba_marseille","lat":43.24031,"lon":5.37729,"is_reserved":false,"is_disabled":false,"rental_uris":{"android":"levelo://app?vid=8f189487-f31d-4ca2-a926-e41f071bd7f5","ios":"levelo://app?vid=8f189487-f31d-4ca2-a926-e41f071bd7f5"},"vehicle_type_id":"4","last_reported":1747548866,"current_range_meters":8800,"station_id":"ce4bhnp2rcd13ifvqgvg","pricing_plan_id":"cebpf4jnsgd1na2vs0mg"},{"bike_id":"9edddd8d-d743-4631-997e-7bbefb54b44b","system_id":"levelo_inurba_marseille","lat":43.2847,"lon":5.35842,"is_reserved":false,"is_disabled":false,"rental_uris":{"android":"levelo://app?vid=9edddd8d-d743-4631-997e-7bbefb54b44b","ios":"levelo://app?vid=9edddd8d-d743-4631-997e-7bbefb54b44b"},"vehicle_type_id":"4","last_reported":1747548866,"current_range_meters":8800,"station_id":"ce4bhah2rcd13ifvqei0","pricing_plan_id":"cebpf4jnsgd1na2vs0mg"},{"bike_id":"9d205712-4faf-4521-a59b-52c8a122e1ca","system_id":"levelo_inurba_marseille","lat":43.307949,"lon":5.381575,"is_reserved":false,"is_disabled":true,"rental_uris":{"android":"levelo://app?vid=9d205712-4faf-4521-a59b-52c8a122e1ca","ios":"levelo://app?vid=9d205712-4faf-4521-a59b-52c8a122e1ca"},"vehicle_type_id":"4","last_reported":1747548866,"current_range_meters":8800,"station_id":"ce4bgt12rcd13ifvqce0","pricing_plan_id":"cebpf4jnsgd1na2vs0mg"},{"bike_id":"d0d75341-e711-479e-a99e-551c4a0bc057","system_id":"levelo_inurba_marseille","lat":43.26684,"lon":5.38269,"is_reserved":false,"is_disabled":false,"rental_uris":{"android":"levelo://app?vid=d0d75341-e711-479e-a99e-551c4a0bc057","ios":"levelo://app?vid=d0d75341-e711-479e-a99e-551c4a0bc057"},"vehicle_type_id":"4","last_reported":1747548866,"current_range_meters":8800,"station_id":"ce4bhg92rcd13ifvqf90","pricing_plan_id":"cebpf4jnsgd1na2vs0mg"},{"bike_id":"469b2637-3a55-4da5-8c17-69fb46d00262","system_id":"levelo_inurba_marseille","lat":43.285649,"lon":5.394999,"is_reserved":false,"is_disabled":false,"rental_uris":{"android":"levelo://app?vid=469b2637-3a55-4da5-8c17-69fb46d00262","ios":"levelo://app?vid=469b2637-3a55-4da5-8c17-69fb46d00262"},"vehicle_type_id":"4","last_reported":1747548866,"current_range_meters":8800,"station_id":"ce4bh292rcd13ifvqdg0","pricing_plan_id":"cebpf4jnsgd1na2vs0mg"},{"bike_id":"89b6e378-45a4-453c-b44a-d8e3186991b9","system_id":"levelo_inurba_marseille","lat":43.26222,"lon":5.3745,"is_reserved":false,"is_disabled":true,"rental_uris":{"android":"levelo://app?vid=89b6e378-45a4-453c-b44a-d8e3186991b9","ios":"levelo://app?vid=89b6e378-45a4-453c-b44a-d8e3186991b9"},"vehicle_type_id":"4","last_reported":1747548866,"current_range_meters":8800,"station_id":"ce4bhgp2rcd13ifvqfc0","pricing_plan_id":"cebpf4jnsgd1na2vs0mg"},{"bike_id":"b934e6da-efb5-4ac5-a51a-eb50220f6e1b","system_id":"levelo_inurba_marseille","lat":43.269784,"lon":5.405884,"is_reserved":false,"is_disabled":true,"rental_uris":{"android":"levelo://app?vid=b934e6da-efb5-4ac5-a51a-eb50220f6e1b","ios":"levelo://app?vid=b934e6da-efb5-4ac5-a51a-eb50220f6e1b"},"vehicle_type_id":"4","last_reported":1747548866,"current_range_meters":9200,"station_id":"","pricing_plan_id":"cebpf4jnsgd1na2vs0mg"},{"bike_id":"c0db4030-ef30-480b-a735-af5435a471ed","system_id":"levelo_inurba_marseille","lat":43.2773,"lon":5.42699,"is_reserved":false,"is_disabled":false,"rental_uris":{"android":"levelo://app?vid=c0db4030-ef30-480b-a735-af5435a471ed","ios":"levelo://app?vid=c0db4030-ef30-480b-a735-af5435a471ed"},"vehicle_type_id":"4","last_reported":1747548866,"current_range_meters":9200,"station_id":"","pricing_plan_id":"cebpf4jnsgd1na2vs0mg"},{"bike_id":"2013cd87-0d43-443c-a50a-2ae65b408add","system_id":"levelo_inurba_marseille","lat":43.32387,"lon":5.38863,"is_reserved":false,"is_disabled":false,"rental_uris":{"android":"levelo://app?vid=2013cd87-0d43-443c-a50a-2ae65b408add","ios":"levelo://app?vid=2013cd87-0d43-443c-a50a-2ae65b408add"},"vehicle_type_id":"4","last_reported":1747548866,"current_range_meters":9200,"station_id":"ce4bhqp2rcd13ifvqhog","pricing_plan_id":"cebpf4jnsgd1na2vs0mg"},{"bike_id":"6658c1d1-adea-40d7-894a-4e11aacc9416","system_id":"levelo_inurba_marseille","lat":43.32383,"lon":5.38872,"is_reserved":false,"is_disabled":false,"rental_uris":{"android":"levelo://app?vid=6658c1d1-adea-40d7-894a-4e11aacc9416","ios":"levelo://app?vid=6658c1d1-adea-40d7-894a-4e11aacc9416"},"vehicle_type_id":"4","last_reported":1747548866,"current_range_meters":9200,"station_id":"ce4bhqp2rcd13ifvqhog","pricing_plan_id":"cebpf4jnsgd1na2vs0mg"},{"bike_id":"db22b70b-7de1-403c-85af-ebb538cde99e","system_id":"levelo_inurba_marseille","lat":43.298699,"lon":5.397355,"is_reserved":false,"is_disabled":false,"rental_uris":{"android":"levelo://app?vid=db22b70b-7de1-403c-85af-ebb538cde99e","ios":"levelo://app?vid=db22b70b-7de1-403c-85af-ebb538cde99e"},"vehicle_type_id":"4","last_reported":1747548866,"current_range_meters":9600,"station_id":"ce4bh0h2rcd13ifvqd50","pricing_plan_id":"cebpf4jnsgd1na2vs0mg"},{"bike_id":"0fb02880-5c6e-4026-9e4a-07529c572b44","system_id":"levelo_inurba_marseille","lat":43.25487,"lon":5.37377,"is_reserved":false,"is_disabled":false,"rental_uris":{"android":"levelo://app?vid=0fb02880-5c6e-4026-9e4a-07529c572b44","ios":"levelo://app?vid=0fb02880-5c6e-4026-9e4a-07529c572b44"},"vehicle_type_id":"4","last_reported":1747548866,"current_range_meters":9600,"station_id":"","pricing_plan_id":"cebpf4jnsgd1na2vs0mg"},{"bike_id":"9174d559-4e85-42b4-a063-f2d23adfad9b","system_id":"levelo_inurba_marseille","lat":43.25132,"lon":5.40383,"is_reserved":false,"is_disabled":false,"rental_uris":{"android":"levelo://app?vid=9174d559-4e85-42b4-a063-f2d23adfad9b","ios":"levelo://app?vid=9174d559-4e85-42b4-a063-f2d23adfad9b"},"vehicle_type_id":"4","last_reported":1747548866,"current_range_meters":9600,"station_id":"","pricing_plan_id":"cebpf4jnsgd1na2vs0mg"},{"bike_id":"792c9dbd-158e-4661-91d4-2c1ed379e655","system_id":"levelo_inurba_marseille","lat":43.24637,"lon":5.38182,"is_reserved":false,"is_disabled":false,"rental_uris":{"android":"levelo://app?vid=792c9dbd-158e-4661-91d4-2c1ed379e655","ios":"levelo://app?vid=792c9dbd-158e-4661-91d4-2c1ed379e655"},"vehicle_type_id":"4","last_reported":1747548866,"current_range_meters":9600,"station_id":"ce4bhih2rcd13ifvqfr0","pricing_plan_id":"cebpf4jnsgd1na2vs0mg"},{"bike_id":"3812098f-f79e-4494-b092-9699fb507498","system_id":"levelo_inurba_marseille","lat":43.2905,"lon":5.37148,"is_reserved":false,"is_disabled":true,"rental_uris":{"android":"levelo://app?vid=3812098f-f79e-4494-b092-9699fb507498","ios":"levelo://app?vid=3812098f-f79e-4494-b092-9699fb507498"},"vehicle_type_id":"4","last_reported":1747548866,"current_range_meters":9600,"station_id":"ce4bh5p2rcd13ifvqe4g","pricing_plan_id":"cebpf4jnsgd1na2vs0mg"},{"bike_id":"9be12a09-efe5-495b-8ec3-e7e0d7473370","system_id":"levelo_inurba_marseille","lat":43.295989,"lon":5.380977,"is_reserved":false,"is_disabled":true,"rental_uris":{"android":"levelo://app?vid=9be12a09-efe5-495b-8ec3-e7e0d7473370","ios":"levelo://app?vid=9be12a09-efe5-495b-8ec3-e7e0d7473370"},"vehicle_type_id":"4","last_reported":1747548866,"current_range_meters":9600,"station_id":"ce4bgl12rcd13ifvqbo0","pricing_plan_id":"cebpf4jnsgd1na2vs0mg"},{"bike_id":"8b1b9fc8-2f5f-49e8-b567-ad39dc989cb7","system_id":"levelo_inurba_marseille","lat":43.29024,"lon":5.37555,"is_reserved":false,"is_disabled":true,"rental_uris":{"android":"levelo://app?vid=8b1b9fc8-2f5f-49e8-b567-ad39dc989cb7","ios":"levelo://app?vid=8b1b9fc8-2f5f-49e8-b567-ad39dc989cb7"},"vehicle_type_id":"4","last_reported":1747548866,"current_range_meters":9600,"station_id":"ce4bh692rcd13ifvqe90","pricing_plan_id":"cebpf4jnsgd1na2vs0mg"},{"bike_id":"4c33e9a2-0e5c-427f-a7cc-632c63a61d9d","system_id":"levelo_inurba_marseille","lat":43.28336,"lon":5.38127,"is_reserved":false,"is_disabled":true,"rental_uris":{"android":"levelo://app?vid=4c33e9a2-0e5c-427f-a7cc-632c63a61d9d","ios":"levelo://app?vid=4c33e9a2-0e5c-427f-a7cc-632c63a61d9d"},"vehicle_type_id":"4","last_reported":1747548866,"current_range_meters":9600,"station_id":"ce4bh412rcd13ifvqdr0","pricing_plan_id":"cebpf4jnsgd1na2vs0mg"},{"bike_id":"3980d76b-e904-45ba-9bbd-4ee10919b44c","system_id":"levelo_inurba_marseille","lat":43.31082,"lon":5.38164,"is_reserved":false,"is_disabled":false,"rental_uris":{"android":"levelo://app?vid=3980d76b-e904-45ba-9bbd-4ee10919b44c","ios":"levelo://app?vid=3980d76b-e904-45ba-9bbd-4ee10919b44c"},"vehicle_type_id":"4","last_reported":1747548866,"current_range_meters":9600,"station_id":"","pricing_plan_id":"cebpf4jnsgd1na2vs0mg"},{"bike_id":"cc565e0e-22c7-40fd-a032-f4a442efa9b8","system_id":"levelo_inurba_marseille","lat":43.29847,"lon":5.36272,"is_reserved":false,"is_disabled":false,"rental_uris":{"android":"levelo://app?vid=cc565e0e-22c7-40fd-a032-f4a442efa9b8","ios":"levelo://app?vid=cc565e0e-22c7-40fd-a032-f4a442efa9b8"},"vehicle_type_id":"4","last_reported":1747548866,"current_range_meters":9600,"station_id":"ce4bgpp2rcd13ifvqc3g","pricing_plan_id":"cebpf4jnsgd1na2vs0mg"},{"bike_id":"fbb9dc35-fa9d-42e4-9fd8-bc3154190a90","system_id":"levelo_inurba_marseille","lat":43.30927,"lon":5.40162,"is_reserved":false,"is_disabled":false,"rental_uris":{"android":"levelo://app?vid=fbb9dc35-fa9d-42e4-9fd8-bc3154190a90","ios":"levelo://app?vid=fbb9dc35-fa9d-42e4-9fd8-bc3154190a90"},"vehicle_type_id":"4","last_reported":1747548866,"current_range_meters":9600,"station_id":"ce4bgvp2rcd13ifvqct0","pricing_plan_id":"cebpf4jnsgd1na2vs0mg"},{"bike_id":"04caccac-fac0-4257-8dfe-104b91321d87","system_id":"levelo_inurba_marseille","lat":43.284119,"lon":5.375164,"is_reserved":false,"is_disabled":false,"rental_uris":{"android":"levelo://app?vid=04caccac-fac0-4257-8dfe-104b91321d87","ios":"levelo://app?vid=04caccac-fac0-4257-8dfe-104b91321d87"},"vehicle_type_id":"4","last_reported":1747548866,"current_range_meters":10000,"station_id":"ce4bh412rcd13ifvqds0","pricing_plan_id":"cebpf4jnsgd1na2vs0mg"},{"bike_id":"02259454-0373-4186-8615-7b4434f1449b","system_id":"levelo_inurba_marseille","lat":43.26213,"lon":5.37438,"is_reserved":false,"is_disabled":false,"rental_uris":{"android":"levelo://app?vid=02259454-0373-4186-8615-7b4434f1449b","ios":"levelo://app?vid=02259454-0373-4186-8615-7b4434f1449b"},"vehicle_type_id":"4","last_reported":1747548866,"current_range_meters":10000,"station_id":"ce4bhgp2rcd13ifvqfc0","pricing_plan_id":"cebpf4jnsgd1na2vs0mg"},{"bike_id":"7502aaf2-e0b6-4e59-86da-36975a13a9d8","system_id":"levelo_inurba_marseille","lat":43.29523,"lon":5.37502,"is_reserved":false,"is_disabled":true,"rental_uris":{"android":"levelo://app?vid=7502aaf2-e0b6-4e59-86da-36975a13a9d8","ios":"levelo://app?vid=7502aaf2-e0b6-4e59-86da-36975a13a9d8"},"vehicle_type_id":"4","last_reported":1747548866,"current_range_meters":10000,"station_id":"ce4bgkp2rcd13ifvqbmg","pricing_plan_id":"cebpf4jnsgd1na2vs0mg"},{"bike_id":"0f42c805-92e1-4274-b532-29e3edd02304","system_id":"levelo_inurba_marseille","lat":43.29307,"lon":5.40153,"is_reserved":false,"is_disabled":false,"rental_uris":{"android":"levelo://app?vid=0f42c805-92e1-4274-b532-29e3edd02304","ios":"levelo://app?vid=0f42c805-92e1-4274-b532-29e3edd02304"},"vehicle_type_id":"4","last_reported":1747548866,"current_range_meters":10000,"station_id":"","pricing_plan_id":"cebpf4jnsgd1na2vs0mg"},{"bike_id":"0c34b593-39af-4c0b-aef0-e25cd680f42b","system_id":"levelo_inurba_marseille","lat":43.23178,"lon":5.40005,"is_reserved":false,"is_disabled":false,"rental_uris":{"android":"levelo://app?vid=0c34b593-39af-4c0b-aef0-e25cd680f42b","ios":"levelo://app?vid=0c34b593-39af-4c0b-aef0-e25cd680f42b"},"vehicle_type_id":"4","last_reported":1747548866,"current_range_meters":10000,"station_id":"ce4bhn12rcd13ifvqgqg","pricing_plan_id":"cebpf4jnsgd1na2vs0mg"},{"bike_id":"caf4c81d-8b81-4d8d-a4f9-9d00bac7ad70","system_id":"levelo_inurba_marseille","lat":43.30783,"lon":5.42821,"is_reserved":false,"is_disabled":false,"rental_uris":{"android":"levelo://app?vid=caf4c81d-8b81-4d8d-a4f9-9d00bac7ad70","ios":"levelo://app?vid=caf4c81d-8b81-4d8d-a4f9-9d00bac7ad70"},"vehicle_type_id":"4","last_reported":1747548866,"current_range_meters":10000,"station_id":"","pricing_plan_id":"cebpf4jnsgd1na2vs0mg"},{"bike_id":"a6c1623a-3bd8-493e-8c3a-8bf160eeb1bb","system_id":"levelo_inurba_marseille","lat":43.26213,"lon":5.37439,"is_reserved":false,"is_disabled":false,"rental_uris":{"android":"levelo://app?vid=a6c1623a-3bd8-493e-8c3a-8bf160eeb1bb","ios":"levelo://app?vid=a6c1623a-3bd8-493e-8c3a-8bf160eeb1bb"},"vehicle_type_id":"4","last_reported":1747548866,"current_range_meters":10000,"station_id":"ce4bhgp2rcd13ifvqfc0","pricing_plan_id":"cebpf4jnsgd1na2vs0mg"},{"bike_id":"94cde674-815e-4ad1-b514-1d539d66a268","system_id":"levelo_inurba_marseille","lat":43.28459,"lon":5.35889,"is_reserved":false,"is_disabled":false,"rental_uris":{"android":"levelo://app?vid=94cde674-815e-4ad1-b514-1d539d66a268","ios":"levelo://app?vid=94cde674-815e-4ad1-b514-1d539d66a268"},"vehicle_type_id":"4","last_reported":1747548866,"current_range_meters":10000,"station_id":"ce4bhah2rcd13ifvqei0","pricing_plan_id":"cebpf4jnsgd1na2vs0mg"},{"bike_id":"0ca4de5a-0993-4801-ac55-3b5bfdb25137","system_id":"levelo_inurba_marseille","lat":43.27905,"lon":5.3801,"is_reserved":false,"is_disabled":false,"rental_uris":{"android":"levelo://app?vid=0ca4de5a-0993-4801-ac55-3b5bfdb25137","ios":"levelo://app?vid=0ca4de5a-0993-4801-ac55-3b5bfdb25137"},"vehicle_type_id":"4","last_reported":1747548866,"current_range_meters":10000,"station_id":"ce4bhf92rcd13ifvqf50","pricing_plan_id":"cebpf4jnsgd1na2vs0mg"},{"bike_id":"14603e41-b2dd-4757-a53c-2e366aa4f983","system_id":"levelo_inurba_marseille","lat":43.27,"lon":5.42812,"is_reserved":false,"is_disabled":false,"rental_uris":{"android":"levelo://app?vid=14603e41-b2dd-4757-a53c-2e366aa4f983","ios":"levelo://app?vid=14603e41-b2dd-4757-a53c-2e366aa4f983"},"vehicle_type_id":"4","last_reported":1747548866,"current_range_meters":10000,"station_id":"","pricing_plan_id":"cebpf4jnsgd1na2vs0mg"},{"bike_id":"5ea24bfb-43dc-45e3-8e0e-da5900ff3f5d","system_id":"levelo_inurba_marseille","lat":43.274927,"lon":5.424514,"is_reserved":false,"is_disabled":false,"rental_uris":{"android":"levelo://app?vid=5ea24bfb-43dc-45e3-8e0e-da5900ff3f5d","ios":"levelo://app?vid=5ea24bfb-43dc-45e3-8e0e-da5900ff3f5d"},"vehicle_type_id":"4","last_reported":1747548866,"current_range_meters":6800,"station_id":"ce4bhkp2rcd13ifvqgd0","pricing_plan_id":"cebpf4jnsgd1na2vs0mg"},{"bike_id":"3725928c-be3e-412e-a7ab-18d223db2dcb","system_id":"levelo_inurba_marseille","lat":43.28574,"lon":5.39479,"is_reserved":false,"is_disabled":false,"rental_uris":{"android":"levelo://app?vid=3725928c-be3e-412e-a7ab-18d223db2dcb","ios":"levelo://app?vid=3725928c-be3e-412e-a7ab-18d223db2dcb"},"vehicle_type_id":"4","last_reported":1747548866,"current_range_meters":10800,"station_id":"ce4bh292rcd13ifvqdg0","pricing_plan_id":"cebpf4jnsgd1na2vs0mg"},{"bike_id":"c6e9421a-fcb0-4b3e-9f1a-1fed1b35433a","system_id":"levelo_inurba_marseille","lat":43.23157,"lon":5.43704,"is_reserved":false,"is_disabled":false,"rental_uris":{"android":"levelo://app?vid=c6e9421a-fcb0-4b3e-9f1a-1fed1b35433a","ios":"levelo://app?vid=c6e9421a-fcb0-4b3e-9f1a-1fed1b35433a"},"vehicle_type_id":"4","last_reported":1747548866,"current_range_meters":10800,"station_id":"ce4bhmp2rcd13ifvqgog","pricing_plan_id":"cebpf4jnsgd1na2vs0mg"},{"bike_id":"7d9dd8c1-69f5-4957-8992-21b219e4420c","system_id":"levelo_inurba_marseille","lat":43.2468,"lon":5.38147,"is_reserved":false,"is_disabled":false,"rental_uris":{"android":"levelo://app?vid=7d9dd8c1-69f5-4957-8992-21b219e4420c","ios":"levelo://app?vid=7d9dd8c1-69f5-4957-8992-21b219e4420c"},"vehicle_type_id":"4","last_reported":1747548866,"current_range_meters":10800,"station_id":"ce4bhih2rcd13ifvqfr0","pricing_plan_id":"cebpf4jnsgd1na2vs0mg"},{"bike_id":"ffc3ddf2-0082-4578-9e25-c91f5b4279bc","system_id":"levelo_inurba_marseille","lat":43.28321,"lon":5.41121,"is_reserved":false,"is_disabled":false,"rental_uris":{"android":"levelo://app?vid=ffc3ddf2-0082-4578-9e25-c91f5b4279bc","ios":"levelo://app?vid=ffc3ddf2-0082-4578-9e25-c91f5b4279bc"},"vehicle_type_id":"4","last_reported":1747548866,"current_range_meters":10800,"station_id":"","pricing_plan_id":"cebpf4jnsgd1na2vs0mg"},{"bike_id":"0a9831e7-3d7e-4f0f-8fd1-a2b7691d85e1","system_id":"levelo_inurba_marseille","lat":43.28563,"lon":5.39496,"is_reserved":false,"is_disabled":false,"rental_uris":{"android":"levelo://app?vid=0a9831e7-3d7e-4f0f-8fd1-a2b7691d85e1","ios":"levelo://app?vid=0a9831e7-3d7e-4f0f-8fd1-a2b7691d85e1"},"vehicle_type_id":"4","last_reported":1747548866,"current_range_meters":10800,"station_id":"ce4bh292rcd13ifvqdg0","pricing_plan_id":"cebpf4jnsgd1na2vs0mg"},{"bike_id":"99aab1ac-0e74-4853-a5d5-d682d1f9422c","system_id":"levelo_inurba_marseille","lat":43.309315,"lon":5.401465,"is_reserved":false,"is_disabled":false,"rental_uris":{"android":"levelo://app?vid=99aab1ac-0e74-4853-a5d5-d682d1f9422c","ios":"levelo://app?vid=99aab1ac-0e74-4853-a5d5-d682d1f9422c"},"vehicle_type_id":"4","last_reported":1747548866,"current_range_meters":10800,"station_id":"ce4bgvp2rcd13ifvqct0","pricing_plan_id":"cebpf4jnsgd1na2vs0mg"},{"bike_id":"bbad5bf7-b54d-4284-aeee-744acb86bc7d","system_id":"levelo_inurba_marseille","lat":43.278074,"lon":5.40727,"is_reserved":false,"is_disabled":false,"rental_uris":{"android":"levelo://app?vid=bbad5bf7-b54d-4284-aeee-744acb86bc7d","ios":"levelo://app?vid=bbad5bf7-b54d-4284-aeee-744acb86bc7d"},"vehicle_type_id":"4","last_reported":1747548866,"current_range_meters":10800,"station_id":"ce4bhnh2rcd13ifvqgtg","pricing_plan_id":"cebpf4jnsgd1na2vs0mg"},{"bike_id":"88c266e6-7038-494f-b358-90ca603fb435","system_id":"levelo_inurba_marseille","lat":43.295727,"lon":5.374998,"is_reserved":false,"is_disabled":true,"rental_uris":{"android":"levelo://app?vid=88c266e6-7038-494f-b358-90ca603fb435","ios":"levelo://app?vid=88c266e6-7038-494f-b358-90ca603fb435"},"vehicle_type_id":"4","last_reported":1747548866,"current_range_meters":11200,"station_id":"ce4bgh92rcd13ifvqb50","pricing_plan_id":"cebpf4jnsgd1na2vs0mg"},{"bike_id":"c608898e-58b6-42f7-903a-6008119c7a64","system_id":"levelo_inurba_marseille","lat":43.24082,"lon":5.37777,"is_reserved":false,"is_disabled":false,"rental_uris":{"android":"levelo://app?vid=c608898e-58b6-42f7-903a-6008119c7a64","ios":"levelo://app?vid=c608898e-58b6-42f7-903a-6008119c7a64"},"vehicle_type_id":"4","last_reported":1747548866,"current_range_meters":11200,"station_id":"ce4bhnp2rcd13ifvqgvg","pricing_plan_id":"cebpf4jnsgd1na2vs0mg"},{"bike_id":"e70364cf-e3cc-4f7d-bb72-53979b280fcc","system_id":"levelo_inurba_marseille","lat":43.30258,"lon":5.40055,"is_reserved":false,"is_disabled":false,"rental_uris":{"android":"levelo://app?vid=e70364cf-e3cc-4f7d-bb72-53979b280fcc","ios":"levelo://app?vid=e70364cf-e3cc-4f7d-bb72-53979b280fcc"},"vehicle_type_id":"4","last_reported":1747548866,"current_range_meters":11600,"station_id":"ce4bgvh2rcd13ifvqcs0","pricing_plan_id":"cebpf4jnsgd1na2vs0mg"},{"bike_id":"8dfe3edc-82df-4b5a-a412-16963c595c57","system_id":"levelo_inurba_marseille","lat":43.30884,"lon":5.39662,"is_reserved":false,"is_disabled":false,"rental_uris":{"android":"levelo://app?vid=8dfe3edc-82df-4b5a-a412-16963c595c57","ios":"levelo://app?vid=8dfe3edc-82df-4b5a-a412-16963c595c57"},"vehicle_type_id":"4","last_reported":1747548866,"current_range_meters":11600,"station_id":"ce4bh012rcd13ifvqcv0","pricing_plan_id":"cebpf4jnsgd1na2vs0mg"},{"bike_id":"7d080336-5a2d-419d-8d50-e49d93450255","system_id":"levelo_inurba_marseille","lat":43.291705,"lon":5.371475,"is_reserved":false,"is_disabled":true,"rental_uris":{"android":"levelo://app?vid=7d080336-5a2d-419d-8d50-e49d93450255","ios":"levelo://app?vid=7d080336-5a2d-419d-8d50-e49d93450255"},"vehicle_type_id":"4","last_reported":1747548866,"current_range_meters":11600,"station_id":"ce4bha92rcd13ifvqeh0","pricing_plan_id":"cebpf4jnsgd1na2vs0mg"},{"bike_id":"56de12ec-c2b3-4960-90ca-a3bf7841338a","system_id":"levelo_inurba_marseille","lat":43.24666,"lon":5.38901,"is_reserved":false,"is_disabled":false,"rental_uris":{"android":"levelo://app?vid=56de12ec-c2b3-4960-90ca-a3bf7841338a","ios":"levelo://app?vid=56de12ec-c2b3-4960-90ca-a3bf7841338a"},"vehicle_type_id":"4","last_reported":1747548866,"current_range_meters":11600,"station_id":"ce4bhg12rcd13ifvqf60","pricing_plan_id":"cebpf4jnsgd1na2vs0mg"},{"bike_id":"eee74f2d-ed85-40ff-83e9-09c3b1e90d56","system_id":"levelo_inurba_marseille","lat":43.25108,"lon":5.40317,"is_reserved":false,"is_disabled":false,"rental_uris":{"android":"levelo://app?vid=eee74f2d-ed85-40ff-83e9-09c3b1e90d56","ios":"levelo://app?vid=eee74f2d-ed85-40ff-83e9-09c3b1e90d56"},"vehicle_type_id":"4","last_reported":1747548866,"current_range_meters":11600,"station_id":"ce4bhlh2rcd13ifvqgig","pricing_plan_id":"cebpf4jnsgd1na2vs0mg"},{"bike_id":"1b2f0e19-c9dc-4000-8367-67c619535c14","system_id":"levelo_inurba_marseille","lat":43.299435,"lon":5.365416,"is_reserved":false,"is_disabled":true,"rental_uris":{"android":"levelo://app?vid=1b2f0e19-c9dc-4000-8367-67c619535c14","ios":"levelo://app?vid=1b2f0e19-c9dc-4000-8367-67c619535c14"},"vehicle_type_id":"4","last_reported":1747548866,"current_range_meters":11600,"station_id":"ce4bgm92rcd13ifvqbr0","pricing_plan_id":"cebpf4jnsgd1na2vs0mg"},{"bike_id":"27f05115-decc-4fbb-b226-cbb837efe701","system_id":"levelo_inurba_marseille","lat":43.30251,"lon":5.4007,"is_reserved":false,"is_disabled":false,"rental_uris":{"android":"levelo://app?vid=27f05115-decc-4fbb-b226-cbb837efe701","ios":"levelo://app?vid=27f05115-decc-4fbb-b226-cbb837efe701"},"vehicle_type_id":"4","last_reported":1747548866,"current_range_meters":12000,"station_id":"ce4bgvh2rcd13ifvqcs0","pricing_plan_id":"cebpf4jnsgd1na2vs0mg"},{"bike_id":"0708e9ad-5eff-47eb-b55a-0d0952a60be3","system_id":"levelo_inurba_marseille","lat":43.30216,"lon":5.39472,"is_reserved":false,"is_disabled":false,"rental_uris":{"android":"levelo://app?vid=0708e9ad-5eff-47eb-b55a-0d0952a60be3","ios":"levelo://app?vid=0708e9ad-5eff-47eb-b55a-0d0952a60be3"},"vehicle_type_id":"4","last_reported":1747548866,"current_range_meters":12000,"station_id":"ce4bh0p2rcd13ifvqd70","pricing_plan_id":"cebpf4jnsgd1na2vs0mg"},{"bike_id":"f4422497-4aad-4e8b-bd52-83c14c78c01b","system_id":"levelo_inurba_marseille","lat":43.25113,"lon":5.40325,"is_reserved":false,"is_disabled":false,"rental_uris":{"android":"levelo://app?vid=f4422497-4aad-4e8b-bd52-83c14c78c01b","ios":"levelo://app?vid=f4422497-4aad-4e8b-bd52-83c14c78c01b"},"vehicle_type_id":"4","last_reported":1747548866,"current_range_meters":12000,"station_id":"ce4bhlh2rcd13ifvqgig","pricing_plan_id":"cebpf4jnsgd1na2vs0mg"},{"bike_id":"4739d0ee-0dbc-4b41-a171-18fe3d7e3cc9","system_id":"levelo_inurba_marseille","lat":43.2993,"lon":5.39791,"is_reserved":false,"is_disabled":false,"rental_uris":{"android":"levelo://app?vid=4739d0ee-0dbc-4b41-a171-18fe3d7e3cc9","ios":"levelo://app?vid=4739d0ee-0dbc-4b41-a171-18fe3d7e3cc9"},"vehicle_type_id":"4","last_reported":1747548866,"current_range_meters":12000,"station_id":"","pricing_plan_id":"cebpf4jnsgd1na2vs0mg"},{"bike_id":"0fff26c1-ee5a-45bd-8576-8f20831a7bcd","system_id":"levelo_inurba_marseille","lat":43.29988,"lon":5.38514,"is_reserved":false,"is_disabled":true,"rental_uris":{"android":"levelo://app?vid=0fff26c1-ee5a-45bd-8576-8f20831a7bcd","ios":"levelo://app?vid=0fff26c1-ee5a-45bd-8576-8f20831a7bcd"},"vehicle_type_id":"4","last_reported":1747548866,"current_range_meters":12000,"station_id":"ce4bgj92rcd13ifvqbd0","pricing_plan_id":"cebpf4jnsgd1na2vs0mg"},{"bike_id":"7397f859-19d4-4488-97f6-5802a7c7204f","system_id":"levelo_inurba_marseille","lat":43.290375,"lon":5.399597,"is_reserved":false,"is_disabled":false,"rental_uris":{"android":"levelo://app?vid=7397f859-19d4-4488-97f6-5802a7c7204f","ios":"levelo://app?vid=7397f859-19d4-4488-97f6-5802a7c7204f"},"vehicle_type_id":"4","last_reported":1747548866,"current_range_meters":12000,"station_id":"ce4bh392rcd13ifvqdm0","pricing_plan_id":"cebpf4jnsgd1na2vs0mg"},{"bike_id":"0e689d43-c17d-4781-a4d7-f7a5ff3e0dbd","system_id":"levelo_inurba_marseille","lat":43.30332,"lon":5.40441,"is_reserved":false,"is_disabled":false,"rental_uris":{"android":"levelo://app?vid=0e689d43-c17d-4781-a4d7-f7a5ff3e0dbd","ios":"levelo://app?vid=0e689d43-c17d-4781-a4d7-f7a5ff3e0dbd"},"vehicle_type_id":"4","last_reported":1747548866,"current_range_meters":12000,"station_id":"ce4bh012rcd13ifvqd10","pricing_plan_id":"cebpf4jnsgd1na2vs0mg"},{"bike_id":"6e1bd625-3ec1-43df-9657-36d71ae09f8d","system_id":"levelo_inurba_marseille","lat":43.337406,"lon":5.374911,"is_reserved":false,"is_disabled":false,"rental_uris":{"android":"levelo://app?vid=6e1bd625-3ec1-43df-9657-36d71ae09f8d","ios":"levelo://app?vid=6e1bd625-3ec1-43df-9657-36d71ae09f8d"},"vehicle_type_id":"4","last_reported":1747548866,"current_range_meters":12000,"station_id":"","pricing_plan_id":"cebpf4jnsgd1na2vs0mg"},{"bike_id":"4745dd8b-a0b2-49db-b417-8a28eecc51d4","system_id":"levelo_inurba_marseille","lat":43.24321,"lon":5.38019,"is_reserved":false,"is_disabled":false,"rental_uris":{"android":"levelo://app?vid=4745dd8b-a0b2-49db-b417-8a28eecc51d4","ios":"levelo://app?vid=4745dd8b-a0b2-49db-b417-8a28eecc51d4"},"vehicle_type_id":"4","last_reported":1747548866,"current_range_meters":12000,"station_id":"","pricing_plan_id":"cebpf4jnsgd1na2vs0mg"},{"bike_id":"98e134ff-6cb2-419d-a085-e204e5cdf7db","system_id":"levelo_inurba_marseille","lat":43.305422,"lon":5.384306,"is_reserved":false,"is_disabled":false,"rental_uris":{"android":"levelo://app?vid=98e134ff-6cb2-419d-a085-e204e5cdf7db","ios":"levelo://app?vid=98e134ff-6cb2-419d-a085-e204e5cdf7db"},"vehicle_type_id":"4","last_reported":1747548866,"current_range_meters":12400,"station_id":"ce4bgg92rcd13ifvqb30","pricing_plan_id":"cebpf4jnsgd1na2vs0mg"},{"bike_id":"7238b89e-2b97-4bc5-95ab-4759c70767ab","system_id":"levelo_inurba_marseille","lat":43.311093,"lon":5.377649,"is_reserved":false,"is_disabled":false,"rental_uris":{"android":"levelo://app?vid=7238b89e-2b97-4bc5-95ab-4759c70767ab","ios":"levelo://app?vid=7238b89e-2b97-4bc5-95ab-4759c70767ab"},"vehicle_type_id":"4","last_reported":1747548866,"current_range_meters":12400,"station_id":"ce4bgt92rcd13ifvqcg0","pricing_plan_id":"cebpf4jnsgd1na2vs0mg"},{"bike_id":"0d6bd5fa-51d7-4151-9de2-9db0d7b9364d","system_id":"levelo_inurba_marseille","lat":43.29045,"lon":5.39972,"is_reserved":false,"is_disabled":false,"rental_uris":{"android":"levelo://app?vid=0d6bd5fa-51d7-4151-9de2-9db0d7b9364d","ios":"levelo://app?vid=0d6bd5fa-51d7-4151-9de2-9db0d7b9364d"},"vehicle_type_id":"4","last_reported":1747548866,"current_range_meters":12400,"station_id":"ce4bh392rcd13ifvqdm0","pricing_plan_id":"cebpf4jnsgd1na2vs0mg"},{"bike_id":"1b9f2875-da91-4071-8abd-8fabb19331c9","system_id":"levelo_inurba_marseille","lat":43.28466,"lon":5.39201,"is_reserved":false,"is_disabled":false,"rental_uris":{"android":"levelo://app?vid=1b9f2875-da91-4071-8abd-8fabb19331c9","ios":"levelo://app?vid=1b9f2875-da91-4071-8abd-8fabb19331c9"},"vehicle_type_id":"4","last_reported":1747548866,"current_range_meters":12400,"station_id":"ce4bhoh2rcd13ifvqh5g","pricing_plan_id":"cebpf4jnsgd1na2vs0mg"},{"bike_id":"ac3834a9-965b-4a58-89b3-af339b7bb1c6","system_id":"levelo_inurba_marseille","lat":43.284161,"lon":5.375163,"is_reserved":false,"is_disabled":false,"rental_uris":{"android":"levelo://app?vid=ac3834a9-965b-4a58-89b3-af339b7bb1c6","ios":"levelo://app?vid=ac3834a9-965b-4a58-89b3-af339b7bb1c6"},"vehicle_type_id":"4","last_reported":1747548866,"current_range_meters":12400,"station_id":"ce4bh412rcd13ifvqds0","pricing_plan_id":"cebpf4jnsgd1na2vs0mg"},{"bike_id":"262036fe-d80c-4d06-a49b-dfb02bc52ea7","system_id":"levelo_inurba_marseille","lat":43.30915,"lon":5.40152,"is_reserved":false,"is_disabled":false,"rental_uris":{"android":"levelo://app?vid=262036fe-d80c-4d06-a49b-dfb02bc52ea7","ios":"levelo://app?vid=262036fe-d80c-4d06-a49b-dfb02bc52ea7"},"vehicle_type_id":"4","last_reported":1747548866,"current_range_meters":12800,"station_id":"ce4bgvp2rcd13ifvqct0","pricing_plan_id":"cebpf4jnsgd1na2vs0mg"},{"bike_id":"6ee7001e-07ad-49d2-9902-4e2095457f59","system_id":"levelo_inurba_marseille","lat":43.27068,"lon":5.42281,"is_reserved":false,"is_disabled":true,"rental_uris":{"android":"levelo://app?vid=6ee7001e-07ad-49d2-9902-4e2095457f59","ios":"levelo://app?vid=6ee7001e-07ad-49d2-9902-4e2095457f59"},"vehicle_type_id":"4","last_reported":1747548866,"current_range_meters":12800,"station_id":"ce4bhk92rcd13ifvqgb0","pricing_plan_id":"cebpf4jnsgd1na2vs0mg"},{"bike_id":"3845b92b-2215-4a79-be64-fa2b0d45d0ba","system_id":"levelo_inurba_marseille","lat":43.30254,"lon":5.40096,"is_reserved":false,"is_disabled":false,"rental_uris":{"android":"levelo://app?vid=3845b92b-2215-4a79-be64-fa2b0d45d0ba","ios":"levelo://app?vid=3845b92b-2215-4a79-be64-fa2b0d45d0ba"},"vehicle_type_id":"4","last_reported":1747548866,"current_range_meters":12800,"station_id":"ce4bgvh2rcd13ifvqcs0","pricing_plan_id":"cebpf4jnsgd1na2vs0mg"},{"bike_id":"d55f9225-e6ff-4e45-92e4-2cc2ba495a7c","system_id":"levelo_inurba_marseille","lat":43.308619,"lon":5.382691,"is_reserved":false,"is_disabled":false,"rental_uris":{"android":"levelo://app?vid=d55f9225-e6ff-4e45-92e4-2cc2ba495a7c","ios":"levelo://app?vid=d55f9225-e6ff-4e45-92e4-2cc2ba495a7c"},"vehicle_type_id":"4","last_reported":1747548866,"current_range_meters":12800,"station_id":"","pricing_plan_id":"cebpf4jnsgd1na2vs0mg"},{"bike_id":"584c70d0-0918-4aa0-b289-fcc6a9442003","system_id":"levelo_inurba_marseille","lat":43.25093,"lon":5.39535,"is_reserved":false,"is_disabled":false,"rental_uris":{"android":"levelo://app?vid=584c70d0-0918-4aa0-b289-fcc6a9442003","ios":"levelo://app?vid=584c70d0-0918-4aa0-b289-fcc6a9442003"},"vehicle_type_id":"4","last_reported":1747548866,"current_range_meters":12800,"station_id":"ce4bhm12rcd13ifvqgkg","pricing_plan_id":"cebpf4jnsgd1na2vs0mg"},{"bike_id":"a2e8ac07-c27d-4596-ac54-d8fb456abf0d","system_id":"levelo_inurba_marseille","lat":43.28256,"lon":5.42413,"is_reserved":false,"is_disabled":false,"rental_uris":{"android":"levelo://app?vid=a2e8ac07-c27d-4596-ac54-d8fb456abf0d","ios":"levelo://app?vid=a2e8ac07-c27d-4596-ac54-d8fb456abf0d"},"vehicle_type_id":"4","last_reported":1747548866,"current_range_meters":12800,"station_id":"","pricing_plan_id":"cebpf4jnsgd1na2vs0mg"},{"bike_id":"06fb6274-c887-4ce8-9273-400ecb3aef67","system_id":"levelo_inurba_marseille","lat":43.28411,"lon":5.4604,"is_reserved":false,"is_disabled":false,"rental_uris":{"android":"levelo://app?vid=06fb6274-c887-4ce8-9273-400ecb3aef67","ios":"levelo://app?vid=06fb6274-c887-4ce8-9273-400ecb3aef67"},"vehicle_type_id":"4","last_reported":1747548866,"current_range_meters":12800,"station_id":"","pricing_plan_id":"cebpf4jnsgd1na2vs0mg"},{"bike_id":"3ba7c2a7-41ec-4970-b2db-84b73b82b25a","system_id":"levelo_inurba_marseille","lat":43.30324,"lon":5.40446,"is_reserved":false,"is_disabled":false,"rental_uris":{"android":"levelo://app?vid=3ba7c2a7-41ec-4970-b2db-84b73b82b25a","ios":"levelo://app?vid=3ba7c2a7-41ec-4970-b2db-84b73b82b25a"},"vehicle_type_id":"4","last_reported":1747548866,"current_range_meters":12800,"station_id":"ce4bh012rcd13ifvqd10","pricing_plan_id":"cebpf4jnsgd1na2vs0mg"},{"bike_id":"07e76d55-d7b0-45c1-ba5a-51f83c06a785","system_id":"levelo_inurba_marseille","lat":43.2926,"lon":5.40919,"is_reserved":false,"is_disabled":false,"rental_uris":{"android":"levelo://app?vid=07e76d55-d7b0-45c1-ba5a-51f83c06a785","ios":"levelo://app?vid=07e76d55-d7b0-45c1-ba5a-51f83c06a785"},"vehicle_type_id":"4","last_reported":1747548866,"current_range_meters":13600,"station_id":"ce4bh192rcd13ifvqdc0","pricing_plan_id":"cebpf4jnsgd1na2vs0mg"},{"bike_id":"55982159-14b0-423d-a8c0-c157cf2770cd","system_id":"levelo_inurba_marseille","lat":43.27747,"lon":5.36224,"is_reserved":false,"is_disabled":false,"rental_uris":{"android":"levelo://app?vid=55982159-14b0-423d-a8c0-c157cf2770cd","ios":"levelo://app?vid=55982159-14b0-423d-a8c0-c157cf2770cd"},"vehicle_type_id":"4","last_reported":1747548866,"current_range_meters":13600,"station_id":"","pricing_plan_id":"cebpf4jnsgd1na2vs0mg"},{"bike_id":"a90d7a6e-371a-4adf-8fb3-51017cdf8c3a","system_id":"levelo_inurba_marseille","lat":43.231487,"lon":5.437262,"is_reserved":false,"is_disabled":false,"rental_uris":{"android":"levelo://app?vid=a90d7a6e-371a-4adf-8fb3-51017cdf8c3a","ios":"levelo://app?vid=a90d7a6e-371a-4adf-8fb3-51017cdf8c3a"},"vehicle_type_id":"4","last_reported":1747548866,"current_range_meters":13600,"station_id":"ce4bhmp2rcd13ifvqgog","pricing_plan_id":"cebpf4jnsgd1na2vs0mg"},{"bike_id":"413bef15-dfa5-4402-8f54-d43281332ab5","system_id":"levelo_inurba_marseille","lat":43.24068,"lon":5.37748,"is_reserved":false,"is_disabled":false,"rental_uris":{"android":"levelo://app?vid=413bef15-dfa5-4402-8f54-d43281332ab5","ios":"levelo://app?vid=413bef15-dfa5-4402-8f54-d43281332ab5"},"vehicle_type_id":"4","last_reported":1747548866,"current_range_meters":13600,"station_id":"ce4bhnp2rcd13ifvqgvg","pricing_plan_id":"cebpf4jnsgd1na2vs0mg"},{"bike_id":"d2e2c8dc-12a9-4d82-a79d-ae1717370632","system_id":"levelo_inurba_marseille","lat":43.31103,"lon":5.37787,"is_reserved":false,"is_disabled":false,"rental_uris":{"android":"levelo://app?vid=d2e2c8dc-12a9-4d82-a79d-ae1717370632","ios":"levelo://app?vid=d2e2c8dc-12a9-4d82-a79d-ae1717370632"},"vehicle_type_id":"4","last_reported":1747548866,"current_range_meters":14000,"station_id":"ce4bgt92rcd13ifvqcg0","pricing_plan_id":"cebpf4jnsgd1na2vs0mg"},{"bike_id":"5911af4c-0fec-4cf2-a307-b3bae3f3f5c8","system_id":"levelo_inurba_marseille","lat":43.31334,"lon":5.39696,"is_reserved":false,"is_disabled":false,"rental_uris":{"android":"levelo://app?vid=5911af4c-0fec-4cf2-a307-b3bae3f3f5c8","ios":"levelo://app?vid=5911af4c-0fec-4cf2-a307-b3bae3f3f5c8"},"vehicle_type_id":"4","last_reported":1747548866,"current_range_meters":14000,"station_id":"ce4bgvp2rcd13ifvqcu0","pricing_plan_id":"cebpf4jnsgd1na2vs0mg"},{"bike_id":"2f0cadb4-d32c-481d-b010-d7df56ff1e9c","system_id":"levelo_inurba_marseille","lat":43.2924,"lon":5.40934,"is_reserved":false,"is_disabled":false,"rental_uris":{"android":"levelo://app?vid=2f0cadb4-d32c-481d-b010-d7df56ff1e9c","ios":"levelo://app?vid=2f0cadb4-d32c-481d-b010-d7df56ff1e9c"},"vehicle_type_id":"4","last_reported":1747548866,"current_range_meters":14000,"station_id":"ce4bh192rcd13ifvqdc0","pricing_plan_id":"cebpf4jnsgd1na2vs0mg"},{"bike_id":"b26a0dd7-cbdc-4ab7-8def-31c4b88b224a","system_id":"levelo_inurba_marseille","lat":43.31198,"lon":5.39229,"is_reserved":false,"is_disabled":false,"rental_uris":{"android":"levelo://app?vid=b26a0dd7-cbdc-4ab7-8def-31c4b88b224a","ios":"levelo://app?vid=b26a0dd7-cbdc-4ab7-8def-31c4b88b224a"},"vehicle_type_id":"4","last_reported":1747548866,"current_range_meters":14000,"station_id":"","pricing_plan_id":"cebpf4jnsgd1na2vs0mg"},{"bike_id":"19a61da9-a97e-4007-8732-605f996b7778","system_id":"levelo_inurba_marseille","lat":43.28422,"lon":5.37535,"is_reserved":false,"is_disabled":false,"rental_uris":{"android":"levelo://app?vid=19a61da9-a97e-4007-8732-605f996b7778","ios":"levelo://app?vid=19a61da9-a97e-4007-8732-605f996b7778"},"vehicle_type_id":"4","last_reported":1747548866,"current_range_meters":14000,"station_id":"ce4bh412rcd13ifvqds0","pricing_plan_id":"cebpf4jnsgd1na2vs0mg"},{"bike_id":"4462e83f-f9da-46b7-b369-5dd2dc83114c","system_id":"levelo_inurba_marseille","lat":43.32332,"lon":5.40608,"is_reserved":false,"is_disabled":false,"rental_uris":{"android":"levelo://app?vid=4462e83f-f9da-46b7-b369-5dd2dc83114c","ios":"levelo://app?vid=4462e83f-f9da-46b7-b369-5dd2dc83114c"},"vehicle_type_id":"4","last_reported":1747548866,"current_range_meters":14000,"station_id":"ce4bhq92rcd13ifvqhjg","pricing_plan_id":"cebpf4jnsgd1na2vs0mg"},{"bike_id":"1df77482-56ed-43f0-a80c-7f28eed744f8","system_id":"levelo_inurba_marseille","lat":43.25113,"lon":5.40323,"is_reserved":false,"is_disabled":false,"rental_uris":{"android":"levelo://app?vid=1df77482-56ed-43f0-a80c-7f28eed744f8","ios":"levelo://app?vid=1df77482-56ed-43f0-a80c-7f28eed744f8"},"vehicle_type_id":"4","last_reported":1747548866,"current_range_meters":14000,"station_id":"ce4bhlh2rcd13ifvqgig","pricing_plan_id":"cebpf4jnsgd1na2vs0mg"},{"bike_id":"51a33848-f0f0-40ec-b6c6-8948c992d932","system_id":"levelo_inurba_marseille","lat":43.25081,"lon":5.39505,"is_reserved":false,"is_disabled":false,"rental_uris":{"android":"levelo://app?vid=51a33848-f0f0-40ec-b6c6-8948c992d932","ios":"levelo://app?vid=51a33848-f0f0-40ec-b6c6-8948c992d932"},"vehicle_type_id":"4","last_reported":1747548866,"current_range_meters":14000,"station_id":"ce4bhm12rcd13ifvqgkg","pricing_plan_id":"cebpf4jnsgd1na2vs0mg"},{"bike_id":"c35f5e51-b6fd-46c2-bae6-1e17a9fe7afb","system_id":"levelo_inurba_marseille","lat":43.26786,"lon":5.39411,"is_reserved":false,"is_disabled":false,"rental_uris":{"android":"levelo://app?vid=c35f5e51-b6fd-46c2-bae6-1e17a9fe7afb","ios":"levelo://app?vid=c35f5e51-b6fd-46c2-bae6-1e17a9fe7afb"},"vehicle_type_id":"4","last_reported":1747548866,"current_range_meters":14000,"station_id":"ce4bhh12rcd13ifvqfg0","pricing_plan_id":"cebpf4jnsgd1na2vs0mg"},{"bike_id":"e674cae6-f0c9-4f2a-8917-746a5700b149","system_id":"levelo_inurba_marseille","lat":43.27041,"lon":5.4028,"is_reserved":false,"is_disabled":false,"rental_uris":{"android":"levelo://app?vid=e674cae6-f0c9-4f2a-8917-746a5700b149","ios":"levelo://app?vid=e674cae6-f0c9-4f2a-8917-746a5700b149"},"vehicle_type_id":"4","last_reported":1747548866,"current_range_meters":14000,"station_id":"ce4bhk92rcd13ifvqgc0","pricing_plan_id":"cebpf4jnsgd1na2vs0mg"},{"bike_id":"6108af11-7c53-4634-92da-d3dcd6a2bc0a","system_id":"levelo_inurba_marseille","lat":43.26209,"lon":5.37444,"is_reserved":false,"is_disabled":false,"rental_uris":{"android":"levelo://app?vid=6108af11-7c53-4634-92da-d3dcd6a2bc0a","ios":"levelo://app?vid=6108af11-7c53-4634-92da-d3dcd6a2bc0a"},"vehicle_type_id":"4","last_reported":1747548866,"current_range_meters":14000,"station_id":"ce4bhgp2rcd13ifvqfc0","pricing_plan_id":"cebpf4jnsgd1na2vs0mg"},{"bike_id":"1cb8de45-6a2e-4eb3-9101-6ff953a05b07","system_id":"levelo_inurba_marseille","lat":43.28457,"lon":5.35882,"is_reserved":false,"is_disabled":false,"rental_uris":{"android":"levelo://app?vid=1cb8de45-6a2e-4eb3-9101-6ff953a05b07","ios":"levelo://app?vid=1cb8de45-6a2e-4eb3-9101-6ff953a05b07"},"vehicle_type_id":"4","last_reported":1747548866,"current_range_meters":14000,"station_id":"ce4bhah2rcd13ifvqei0","pricing_plan_id":"cebpf4jnsgd1na2vs0mg"},{"bike_id":"40aa43f6-ce93-43ee-b5dc-7d91f99956e0","system_id":"levelo_inurba_marseille","lat":43.2621,"lon":5.3745,"is_reserved":false,"is_disabled":false,"rental_uris":{"android":"levelo://app?vid=40aa43f6-ce93-43ee-b5dc-7d91f99956e0","ios":"levelo://app?vid=40aa43f6-ce93-43ee-b5dc-7d91f99956e0"},"vehicle_type_id":"4","last_reported":1747548866,"current_range_meters":14400,"station_id":"ce4bhgp2rcd13ifvqfc0","pricing_plan_id":"cebpf4jnsgd1na2vs0mg"},{"bike_id":"3e0a681c-1573-49b0-8a9e-93741014464c","system_id":"levelo_inurba_marseille","lat":43.31347,"lon":5.38485,"is_reserved":false,"is_disabled":false,"rental_uris":{"android":"levelo://app?vid=3e0a681c-1573-49b0-8a9e-93741014464c","ios":"levelo://app?vid=3e0a681c-1573-49b0-8a9e-93741014464c"},"vehicle_type_id":"4","last_reported":1747548866,"current_range_meters":14400,"station_id":"ce4bgt92rcd13ifvqcf0","pricing_plan_id":"cebpf4jnsgd1na2vs0mg"},{"bike_id":"6bc97e27-c5a1-4b41-a53f-b39682e4c4d8","system_id":"levelo_inurba_marseille","lat":43.314803,"lon":5.373101,"is_reserved":false,"is_disabled":false,"rental_uris":{"android":"levelo://app?vid=6bc97e27-c5a1-4b41-a53f-b39682e4c4d8","ios":"levelo://app?vid=6bc97e27-c5a1-4b41-a53f-b39682e4c4d8"},"vehicle_type_id":"4","last_reported":1747548866,"current_range_meters":14400,"station_id":"ce4bgt12rcd13ifvqcd0","pricing_plan_id":"cebpf4jnsgd1na2vs0mg"},{"bike_id":"0ae67a56-97a5-4634-9c6d-d0b84621d979","system_id":"levelo_inurba_marseille","lat":43.29864,"lon":5.39716,"is_reserved":false,"is_disabled":false,"rental_uris":{"android":"levelo://app?vid=0ae67a56-97a5-4634-9c6d-d0b84621d979","ios":"levelo://app?vid=0ae67a56-97a5-4634-9c6d-d0b84621d979"},"vehicle_type_id":"4","last_reported":1747548866,"current_range_meters":14400,"station_id":"ce4bh0h2rcd13ifvqd50","pricing_plan_id":"cebpf4jnsgd1na2vs0mg"},{"bike_id":"e8c092b6-ea1e-49b4-86f2-ae6140f06f6f","system_id":"levelo_inurba_marseille","lat":43.289192,"lon":5.383954,"is_reserved":false,"is_disabled":true,"rental_uris":{"android":"levelo://app?vid=e8c092b6-ea1e-49b4-86f2-ae6140f06f6f","ios":"levelo://app?vid=e8c092b6-ea1e-49b4-86f2-ae6140f06f6f"},"vehicle_type_id":"4","last_reported":1747548866,"current_range_meters":14400,"station_id":"","pricing_plan_id":"cebpf4jnsgd1na2vs0mg"},{"bike_id":"64b83d24-6479-4ee0-9806-380fb00f435f","system_id":"levelo_inurba_marseille","lat":43.306388,"lon":5.400733,"is_reserved":false,"is_disabled":false,"rental_uris":{"android":"levelo://app?vid=64b83d24-6479-4ee0-9806-380fb00f435f","ios":"levelo://app?vid=64b83d24-6479-4ee0-9806-380fb00f435f"},"vehicle_type_id":"4","last_reported":1747548866,"current_range_meters":14400,"station_id":"ce4bh112rcd13ifvqda0","pricing_plan_id":"cebpf4jnsgd1na2vs0mg"},{"bike_id":"8bed9aaa-52ac-4f5e-8bbb-515dc545319a","system_id":"levelo_inurba_marseille","lat":43.24656,"lon":5.38193,"is_reserved":false,"is_disabled":false,"rental_uris":{"android":"levelo://app?vid=8bed9aaa-52ac-4f5e-8bbb-515dc545319a","ios":"levelo://app?vid=8bed9aaa-52ac-4f5e-8bbb-515dc545319a"},"vehicle_type_id":"4","last_reported":1747548866,"current_range_meters":14400,"station_id":"","pricing_plan_id":"cebpf4jnsgd1na2vs0mg"},{"bike_id":"bd1589fc-912a-4341-8b2b-3e98f19f9576","system_id":"levelo_inurba_marseille","lat":43.25113,"lon":5.40328,"is_reserved":false,"is_disabled":false,"rental_uris":{"android":"levelo://app?vid=bd1589fc-912a-4341-8b2b-3e98f19f9576","ios":"levelo://app?vid=bd1589fc-912a-4341-8b2b-3e98f19f9576"},"vehicle_type_id":"4","last_reported":1747548866,"current_range_meters":14800,"station_id":"ce4bhlh2rcd13ifvqgig","pricing_plan_id":"cebpf4jnsgd1na2vs0mg"},{"bike_id":"7d24953f-02f5-4bab-90e0-a53990d7ca8d","system_id":"levelo_inurba_marseille","lat":43.3149,"lon":5.373,"is_reserved":false,"is_disabled":false,"rental_uris":{"android":"levelo://app?vid=7d24953f-02f5-4bab-90e0-a53990d7ca8d","ios":"levelo://app?vid=7d24953f-02f5-4bab-90e0-a53990d7ca8d"},"vehicle_type_id":"4","last_reported":1747548866,"current_range_meters":14800,"station_id":"ce4bgt12rcd13ifvqcd0","pricing_plan_id":"cebpf4jnsgd1na2vs0mg"},{"bike_id":"cbff0bd8-ab69-455f-978e-8e044433b1ea","system_id":"levelo_inurba_marseille","lat":43.30333,"lon":5.40453,"is_reserved":false,"is_disabled":false,"rental_uris":{"android":"levelo://app?vid=cbff0bd8-ab69-455f-978e-8e044433b1ea","ios":"levelo://app?vid=cbff0bd8-ab69-455f-978e-8e044433b1ea"},"vehicle_type_id":"4","last_reported":1747548866,"current_range_meters":14800,"station_id":"ce4bh012rcd13ifvqd10","pricing_plan_id":"cebpf4jnsgd1na2vs0mg"},{"bike_id":"eebd567d-2f71-46f2-a54f-625b45fe1b61","system_id":"levelo_inurba_marseille","lat":43.27955,"lon":5.4109,"is_reserved":false,"is_disabled":false,"rental_uris":{"android":"levelo://app?vid=eebd567d-2f71-46f2-a54f-625b45fe1b61","ios":"levelo://app?vid=eebd567d-2f71-46f2-a54f-625b45fe1b61"},"vehicle_type_id":"4","last_reported":1747548866,"current_range_meters":14800,"station_id":"ce4bhnp2rcd13ifvqh0g","pricing_plan_id":"cebpf4jnsgd1na2vs0mg"},{"bike_id":"942d70f0-6de3-463e-b885-a14fc7604da5","system_id":"levelo_inurba_marseille","lat":43.246749,"lon":5.381636,"is_reserved":false,"is_disabled":false,"rental_uris":{"android":"levelo://app?vid=942d70f0-6de3-463e-b885-a14fc7604da5","ios":"levelo://app?vid=942d70f0-6de3-463e-b885-a14fc7604da5"},"vehicle_type_id":"4","last_reported":1747548866,"current_range_meters":15200,"station_id":"ce4bhih2rcd13ifvqfr0","pricing_plan_id":"cebpf4jnsgd1na2vs0mg"},{"bike_id":"4ac4b699-5bef-4bc9-af79-9b6003d35a4d","system_id":"levelo_inurba_marseille","lat":43.29049,"lon":5.39957,"is_reserved":false,"is_disabled":false,"rental_uris":{"android":"levelo://app?vid=4ac4b699-5bef-4bc9-af79-9b6003d35a4d","ios":"levelo://app?vid=4ac4b699-5bef-4bc9-af79-9b6003d35a4d"},"vehicle_type_id":"4","last_reported":1747548866,"current_range_meters":14800,"station_id":"ce4bh392rcd13ifvqdm0","pricing_plan_id":"cebpf4jnsgd1na2vs0mg"},{"bike_id":"6b9d1959-c73c-4a15-873a-457207a64851","system_id":"levelo_inurba_marseille","lat":43.26956,"lon":5.38634,"is_reserved":false,"is_disabled":false,"rental_uris":{"android":"levelo://app?vid=6b9d1959-c73c-4a15-873a-457207a64851","ios":"levelo://app?vid=6b9d1959-c73c-4a15-873a-457207a64851"},"vehicle_type_id":"4","last_reported":1747548866,"current_range_meters":15200,"station_id":"ce4bhh92rcd13ifvqfh0","pricing_plan_id":"cebpf4jnsgd1na2vs0mg"},{"bike_id":"d8da70fb-a079-460a-9e23-65ed45fe0088","system_id":"levelo_inurba_marseille","lat":43.254861,"lon":5.376551,"is_reserved":false,"is_disabled":true,"rental_uris":{"android":"levelo://app?vid=d8da70fb-a079-460a-9e23-65ed45fe0088","ios":"levelo://app?vid=d8da70fb-a079-460a-9e23-65ed45fe0088"},"vehicle_type_id":"4","last_reported":1747548866,"current_range_meters":15200,"station_id":"ce4bhh12rcd13ifvqff0","pricing_plan_id":"cebpf4jnsgd1na2vs0mg"},{"bike_id":"cbf22af3-6c8f-4023-8971-3961263cafe8","system_id":"levelo_inurba_marseille","lat":43.28699,"lon":5.37386,"is_reserved":false,"is_disabled":true,"rental_uris":{"android":"levelo://app?vid=cbf22af3-6c8f-4023-8971-3961263cafe8","ios":"levelo://app?vid=cbf22af3-6c8f-4023-8971-3961263cafe8"},"vehicle_type_id":"4","last_reported":1747548866,"current_range_meters":15200,"station_id":"ce4bh3p2rcd13ifvqdq0","pricing_plan_id":"cebpf4jnsgd1na2vs0mg"},{"bike_id":"0a672e4f-4d62-47b0-88d5-45b4c1c6a08c","system_id":"levelo_inurba_marseille","lat":43.295569,"lon":5.422901,"is_reserved":false,"is_disabled":false,"rental_uris":{"android":"levelo://app?vid=0a672e4f-4d62-47b0-88d5-45b4c1c6a08c","ios":"levelo://app?vid=0a672e4f-4d62-47b0-88d5-45b4c1c6a08c"},"vehicle_type_id":"4","last_reported":1747548866,"current_range_meters":15200,"station_id":"ce4bhph2rcd13ifvqhdg","pricing_plan_id":"cebpf4jnsgd1na2vs0mg"},{"bike_id":"7a31f435-63bc-4ff6-838b-d79912959956","system_id":"levelo_inurba_marseille","lat":43.26223,"lon":5.40435,"is_reserved":false,"is_disabled":false,"rental_uris":{"android":"levelo://app?vid=7a31f435-63bc-4ff6-838b-d79912959956","ios":"levelo://app?vid=7a31f435-63bc-4ff6-838b-d79912959956"},"vehicle_type_id":"4","last_reported":1747548866,"current_range_meters":15200,"station_id":"ce4bhmh2rcd13ifvqgmg","pricing_plan_id":"cebpf4jnsgd1na2vs0mg"},{"bike_id":"b947e013-2e44-4d3f-95bd-7fde4f81ce7e","system_id":"levelo_inurba_marseille","lat":43.32333,"lon":5.40619,"is_reserved":false,"is_disabled":false,"rental_uris":{"android":"levelo://app?vid=b947e013-2e44-4d3f-95bd-7fde4f81ce7e","ios":"levelo://app?vid=b947e013-2e44-4d3f-95bd-7fde4f81ce7e"},"vehicle_type_id":"4","last_reported":1747548866,"current_range_meters":15200,"station_id":"ce4bhq92rcd13ifvqhjg","pricing_plan_id":"cebpf4jnsgd1na2vs0mg"},{"bike_id":"45a953fa-4b33-44a8-9ab1-561bf30f869f","system_id":"levelo_inurba_marseille","lat":43.30378,"lon":5.38878,"is_reserved":false,"is_disabled":false,"rental_uris":{"android":"levelo://app?vid=45a953fa-4b33-44a8-9ab1-561bf30f869f","ios":"levelo://app?vid=45a953fa-4b33-44a8-9ab1-561bf30f869f"},"vehicle_type_id":"4","last_reported":1747548866,"current_range_meters":15200,"station_id":"","pricing_plan_id":"cebpf4jnsgd1na2vs0mg"},{"bike_id":"7d2d7b5f-e811-498d-8f6b-400813d554e3","system_id":"levelo_inurba_marseille","lat":43.211911,"lon":5.350704,"is_reserved":false,"is_disabled":true,"rental_uris":{"android":"levelo://app?vid=7d2d7b5f-e811-498d-8f6b-400813d554e3","ios":"levelo://app?vid=7d2d7b5f-e811-498d-8f6b-400813d554e3"},"vehicle_type_id":"4","last_reported":1747548866,"current_range_meters":15200,"station_id":"st_cvj6sg6p6f1abm77japg","pricing_plan_id":"cebpf4jnsgd1na2vs0mg"},{"bike_id":"168ff632-117e-4c12-8961-89fb008f2faf","system_id":"levelo_inurba_marseille","lat":43.27216,"lon":5.39183,"is_reserved":false,"is_disabled":true,"rental_uris":{"android":"levelo://app?vid=168ff632-117e-4c12-8961-89fb008f2faf","ios":"levelo://app?vid=168ff632-117e-4c12-8961-89fb008f2faf"},"vehicle_type_id":"4","last_reported":1747548866,"current_range_meters":16000,"station_id":"ce4bhhp2rcd13ifvqfm0","pricing_plan_id":"cebpf4jnsgd1na2vs0mg"},{"bike_id":"58887f66-7108-4294-a00e-551c17af804a","system_id":"levelo_inurba_marseille","lat":43.26232,"lon":5.40444,"is_reserved":false,"is_disabled":false,"rental_uris":{"android":"levelo://app?vid=58887f66-7108-4294-a00e-551c17af804a","ios":"levelo://app?vid=58887f66-7108-4294-a00e-551c17af804a"},"vehicle_type_id":"4","last_reported":1747548866,"current_range_meters":16000,"station_id":"ce4bhmh2rcd13ifvqgmg","pricing_plan_id":"cebpf4jnsgd1na2vs0mg"},{"bike_id":"b41619e3-6dbe-49d7-baca-02ff8f7f1d54","system_id":"levelo_inurba_marseille","lat":43.30925,"lon":5.40146,"is_reserved":false,"is_disabled":false,"rental_uris":{"android":"levelo://app?vid=b41619e3-6dbe-49d7-baca-02ff8f7f1d54","ios":"levelo://app?vid=b41619e3-6dbe-49d7-baca-02ff8f7f1d54"},"vehicle_type_id":"4","last_reported":1747548866,"current_range_meters":16000,"station_id":"ce4bgvp2rcd13ifvqct0","pricing_plan_id":"cebpf4jnsgd1na2vs0mg"},{"bike_id":"1b586395-d7b7-480d-8921-ab9290352404","system_id":"levelo_inurba_marseille","lat":43.32358,"lon":5.36761,"is_reserved":false,"is_disabled":false,"rental_uris":{"android":"levelo://app?vid=1b586395-d7b7-480d-8921-ab9290352404","ios":"levelo://app?vid=1b586395-d7b7-480d-8921-ab9290352404"},"vehicle_type_id":"4","last_reported":1747548866,"current_range_meters":16000,"station_id":"ce4bhsh2rcd13ifvqi2g","pricing_plan_id":"cebpf4jnsgd1na2vs0mg"},{"bike_id":"74fbea3f-8a18-4fc8-8f56-6b744c75f57a","system_id":"levelo_inurba_marseille","lat":43.298747,"lon":5.397385,"is_reserved":false,"is_disabled":false,"rental_uris":{"android":"levelo://app?vid=74fbea3f-8a18-4fc8-8f56-6b744c75f57a","ios":"levelo://app?vid=74fbea3f-8a18-4fc8-8f56-6b744c75f57a"},"vehicle_type_id":"4","last_reported":1747548866,"current_range_meters":16000,"station_id":"ce4bh0h2rcd13ifvqd50","pricing_plan_id":"cebpf4jnsgd1na2vs0mg"},{"bike_id":"63ee7651-d7fc-446f-b34b-5f1be0f0febd","system_id":"levelo_inurba_marseille","lat":43.32337,"lon":5.40611,"is_reserved":false,"is_disabled":false,"rental_uris":{"android":"levelo://app?vid=63ee7651-d7fc-446f-b34b-5f1be0f0febd","ios":"levelo://app?vid=63ee7651-d7fc-446f-b34b-5f1be0f0febd"},"vehicle_type_id":"4","last_reported":1747548866,"current_range_meters":16000,"station_id":"ce4bhq92rcd13ifvqhjg","pricing_plan_id":"cebpf4jnsgd1na2vs0mg"},{"bike_id":"c5ff94be-c2ea-413f-a053-ee20ee5d180d","system_id":"levelo_inurba_marseille","lat":43.311124,"lon":5.377671,"is_reserved":false,"is_disabled":false,"rental_uris":{"android":"levelo://app?vid=c5ff94be-c2ea-413f-a053-ee20ee5d180d","ios":"levelo://app?vid=c5ff94be-c2ea-413f-a053-ee20ee5d180d"},"vehicle_type_id":"4","last_reported":1747548866,"current_range_meters":16000,"station_id":"ce4bgt92rcd13ifvqcg0","pricing_plan_id":"cebpf4jnsgd1na2vs0mg"},{"bike_id":"ed34fad4-c48e-4c1a-b9b1-8eb1cd77d573","system_id":"levelo_inurba_marseille","lat":43.31068,"lon":5.3871,"is_reserved":false,"is_disabled":false,"rental_uris":{"android":"levelo://app?vid=ed34fad4-c48e-4c1a-b9b1-8eb1cd77d573","ios":"levelo://app?vid=ed34fad4-c48e-4c1a-b9b1-8eb1cd77d573"},"vehicle_type_id":"4","last_reported":1747548866,"current_range_meters":16000,"station_id":"ce4bgv12rcd13ifvqcp0","pricing_plan_id":"cebpf4jnsgd1na2vs0mg"},{"bike_id":"2d43dba1-6ff7-4289-91c8-c617d5aac932","system_id":"levelo_inurba_marseille","lat":43.295747,"lon":5.375043,"is_reserved":false,"is_disabled":true,"rental_uris":{"android":"levelo://app?vid=2d43dba1-6ff7-4289-91c8-c617d5aac932","ios":"levelo://app?vid=2d43dba1-6ff7-4289-91c8-c617d5aac932"},"vehicle_type_id":"4","last_reported":1747548866,"current_range_meters":16400,"station_id":"ce4bgh92rcd13ifvqb50","pricing_plan_id":"cebpf4jnsgd1na2vs0mg"},{"bike_id":"8d2d9f61-e608-4b0f-bb8a-b346f6f803f9","system_id":"levelo_inurba_marseille","lat":43.30143,"lon":5.3987,"is_reserved":false,"is_disabled":false,"rental_uris":{"android":"levelo://app?vid=8d2d9f61-e608-4b0f-bb8a-b346f6f803f9","ios":"levelo://app?vid=8d2d9f61-e608-4b0f-bb8a-b346f6f803f9"},"vehicle_type_id":"4","last_reported":1747548866,"current_range_meters":16400,"station_id":"ce4bh0h2rcd13ifvqd40","pricing_plan_id":"cebpf4jnsgd1na2vs0mg"},{"bike_id":"563abd07-28c4-473c-a3bc-3f7fe27e1ba3","system_id":"levelo_inurba_marseille","lat":43.30273,"lon":5.38446,"is_reserved":false,"is_disabled":false,"rental_uris":{"android":"levelo://app?vid=563abd07-28c4-473c-a3bc-3f7fe27e1ba3","ios":"levelo://app?vid=563abd07-28c4-473c-a3bc-3f7fe27e1ba3"},"vehicle_type_id":"4","last_reported":1747548866,"current_range_meters":16400,"station_id":"","pricing_plan_id":"cebpf4jnsgd1na2vs0mg"},{"bike_id":"7e51c783-7282-47be-b939-67f3cf3f0703","system_id":"levelo_inurba_marseille","lat":43.25113,"lon":5.40323,"is_reserved":false,"is_disabled":false,"rental_uris":{"android":"levelo://app?vid=7e51c783-7282-47be-b939-67f3cf3f0703","ios":"levelo://app?vid=7e51c783-7282-47be-b939-67f3cf3f0703"},"vehicle_type_id":"4","last_reported":1747548866,"current_range_meters":16400,"station_id":"ce4bhlh2rcd13ifvqgig","pricing_plan_id":"cebpf4jnsgd1na2vs0mg"},{"bike_id":"c38c0434-7c0b-4918-a236-1841e549db1d","system_id":"levelo_inurba_marseille","lat":43.25097,"lon":5.40299,"is_reserved":false,"is_disabled":false,"rental_uris":{"android":"levelo://app?vid=c38c0434-7c0b-4918-a236-1841e549db1d","ios":"levelo://app?vid=c38c0434-7c0b-4918-a236-1841e549db1d"},"vehicle_type_id":"4","last_reported":1747548866,"current_range_meters":16400,"station_id":"ce4bhlh2rcd13ifvqgig","pricing_plan_id":"cebpf4jnsgd1na2vs0mg"},{"bike_id":"1c117eab-46c1-4a9e-bd25-025c698bf769","system_id":"levelo_inurba_marseille","lat":43.2958,"lon":5.36733,"is_reserved":false,"is_disabled":false,"rental_uris":{"android":"levelo://app?vid=1c117eab-46c1-4a9e-bd25-025c698bf769","ios":"levelo://app?vid=1c117eab-46c1-4a9e-bd25-025c698bf769"},"vehicle_type_id":"4","last_reported":1747548866,"current_range_meters":16400,"station_id":"ce4bgph2rcd13ifvqc2g","pricing_plan_id":"cebpf4jnsgd1na2vs0mg"},{"bike_id":"b4c3cd8f-0d7a-4e0b-a357-f36badf078b7","system_id":"levelo_inurba_marseille","lat":43.29904,"lon":5.36499,"is_reserved":false,"is_disabled":false,"rental_uris":{"android":"levelo://app?vid=b4c3cd8f-0d7a-4e0b-a357-f36badf078b7","ios":"levelo://app?vid=b4c3cd8f-0d7a-4e0b-a357-f36badf078b7"},"vehicle_type_id":"4","last_reported":1747548866,"current_range_meters":16400,"station_id":"ce4bgm92rcd13ifvqbr0","pricing_plan_id":"cebpf4jnsgd1na2vs0mg"},{"bike_id":"5ddd41df-5811-4b09-99f7-599fa0ee82b0","system_id":"levelo_inurba_marseille","lat":43.24561,"lon":5.39591,"is_reserved":false,"is_disabled":false,"rental_uris":{"android":"levelo://app?vid=5ddd41df-5811-4b09-99f7-599fa0ee82b0","ios":"levelo://app?vid=5ddd41df-5811-4b09-99f7-599fa0ee82b0"},"vehicle_type_id":"4","last_reported":1747548866,"current_range_meters":16400,"station_id":"","pricing_plan_id":"cebpf4jnsgd1na2vs0mg"},{"bike_id":"5dee036b-29cd-483a-bada-e312729a7e07","system_id":"levelo_inurba_marseille","lat":43.30803,"lon":5.38143,"is_reserved":false,"is_disabled":false,"rental_uris":{"android":"levelo://app?vid=5dee036b-29cd-483a-bada-e312729a7e07","ios":"levelo://app?vid=5dee036b-29cd-483a-bada-e312729a7e07"},"vehicle_type_id":"4","last_reported":1747548866,"current_range_meters":16400,"station_id":"ce4bgt12rcd13ifvqce0","pricing_plan_id":"cebpf4jnsgd1na2vs0mg"},{"bike_id":"bf2b2bfb-9733-4bda-908d-03391ae976cc","system_id":"levelo_inurba_marseille","lat":43.31195,"lon":5.41612,"is_reserved":false,"is_disabled":false,"rental_uris":{"android":"levelo://app?vid=bf2b2bfb-9733-4bda-908d-03391ae976cc","ios":"levelo://app?vid=bf2b2bfb-9733-4bda-908d-03391ae976cc"},"vehicle_type_id":"4","last_reported":1747548866,"current_range_meters":16400,"station_id":"","pricing_plan_id":"cebpf4jnsgd1na2vs0mg"},{"bike_id":"c591037e-9bdc-4128-b08a-269580cd419f","system_id":"levelo_inurba_marseille","lat":43.319808,"lon":5.381402,"is_reserved":false,"is_disabled":false,"rental_uris":{"android":"levelo://app?vid=c591037e-9bdc-4128-b08a-269580cd419f","ios":"levelo://app?vid=c591037e-9bdc-4128-b08a-269580cd419f"},"vehicle_type_id":"4","last_reported":1747548866,"current_range_meters":16400,"station_id":"ce4bhr12rcd13ifvqhpg","pricing_plan_id":"cebpf4jnsgd1na2vs0mg"},{"bike_id":"19456222-7d38-48cf-a950-06daadd07927","system_id":"levelo_inurba_marseille","lat":43.25022,"lon":5.3754,"is_reserved":false,"is_disabled":false,"rental_uris":{"android":"levelo://app?vid=19456222-7d38-48cf-a950-06daadd07927","ios":"levelo://app?vid=19456222-7d38-48cf-a950-06daadd07927"},"vehicle_type_id":"4","last_reported":1747548866,"current_range_meters":16800,"station_id":"","pricing_plan_id":"cebpf4jnsgd1na2vs0mg"},{"bike_id":"db647a88-7197-40ac-aeb0-6195ce252bd5","system_id":"levelo_inurba_marseille","lat":43.31082,"lon":5.42412,"is_reserved":false,"is_disabled":false,"rental_uris":{"android":"levelo://app?vid=db647a88-7197-40ac-aeb0-6195ce252bd5","ios":"levelo://app?vid=db647a88-7197-40ac-aeb0-6195ce252bd5"},"vehicle_type_id":"4","last_reported":1747548866,"current_range_meters":16800,"station_id":"ce4bhp92rcd13ifvqhag","pricing_plan_id":"cebpf4jnsgd1na2vs0mg"},{"bike_id":"bcbdbd69-7be8-42f8-a855-a4358565de8f","system_id":"levelo_inurba_marseille","lat":43.27744,"lon":5.41405,"is_reserved":false,"is_disabled":false,"rental_uris":{"android":"levelo://app?vid=bcbdbd69-7be8-42f8-a855-a4358565de8f","ios":"levelo://app?vid=bcbdbd69-7be8-42f8-a855-a4358565de8f"},"vehicle_type_id":"4","last_reported":1747548866,"current_range_meters":16800,"station_id":"","pricing_plan_id":"cebpf4jnsgd1na2vs0mg"},{"bike_id":"a675f4e5-fc13-43cf-92f6-6acfa57913c0","system_id":"levelo_inurba_marseille","lat":43.29022,"lon":5.38143,"is_reserved":false,"is_disabled":true,"rental_uris":{"android":"levelo://app?vid=a675f4e5-fc13-43cf-92f6-6acfa57913c0","ios":"levelo://app?vid=a675f4e5-fc13-43cf-92f6-6acfa57913c0"},"vehicle_type_id":"4","last_reported":1747548866,"current_range_meters":16800,"station_id":"ce4bh4p2rcd13ifvqe1g","pricing_plan_id":"cebpf4jnsgd1na2vs0mg"},{"bike_id":"ee75602a-f143-4ba1-b3de-330c8991247c","system_id":"levelo_inurba_marseille","lat":43.314898,"lon":5.37298,"is_reserved":false,"is_disabled":false,"rental_uris":{"android":"levelo://app?vid=ee75602a-f143-4ba1-b3de-330c8991247c","ios":"levelo://app?vid=ee75602a-f143-4ba1-b3de-330c8991247c"},"vehicle_type_id":"4","last_reported":1747548866,"current_range_meters":16800,"station_id":"ce4bgt12rcd13ifvqcd0","pricing_plan_id":"cebpf4jnsgd1na2vs0mg"},{"bike_id":"a0869ad5-e57d-4757-9e0c-87b965585234","system_id":"levelo_inurba_marseille","lat":43.323383,"lon":5.4064,"is_reserved":false,"is_disabled":false,"rental_uris":{"android":"levelo://app?vid=a0869ad5-e57d-4757-9e0c-87b965585234","ios":"levelo://app?vid=a0869ad5-e57d-4757-9e0c-87b965585234"},"vehicle_type_id":"4","last_reported":1747548866,"current_range_meters":16800,"station_id":"ce4bhq92rcd13ifvqhjg","pricing_plan_id":"cebpf4jnsgd1na2vs0mg"},{"bike_id":"fe20faa2-9f58-4f29-86a9-9cb6186740cb","system_id":"levelo_inurba_marseille","lat":43.26784,"lon":5.39417,"is_reserved":false,"is_disabled":false,"rental_uris":{"android":"levelo://app?vid=fe20faa2-9f58-4f29-86a9-9cb6186740cb","ios":"levelo://app?vid=fe20faa2-9f58-4f29-86a9-9cb6186740cb"},"vehicle_type_id":"4","last_reported":1747548866,"current_range_meters":16800,"station_id":"ce4bhh12rcd13ifvqfg0","pricing_plan_id":"cebpf4jnsgd1na2vs0mg"},{"bike_id":"86603db7-b462-4e72-8622-a2dee8bb2920","system_id":"levelo_inurba_marseille","lat":43.337444,"lon":5.374475,"is_reserved":false,"is_disabled":false,"rental_uris":{"android":"levelo://app?vid=86603db7-b462-4e72-8622-a2dee8bb2920","ios":"levelo://app?vid=86603db7-b462-4e72-8622-a2dee8bb2920"},"vehicle_type_id":"4","last_reported":1747548866,"current_range_meters":16800,"station_id":"","pricing_plan_id":"cebpf4jnsgd1na2vs0mg"},{"bike_id":"55074562-456f-4265-9165-ff017bb29e09","system_id":"levelo_inurba_marseille","lat":43.2656,"lon":5.3728,"is_reserved":false,"is_disabled":false,"rental_uris":{"android":"levelo://app?vid=55074562-456f-4265-9165-ff017bb29e09","ios":"levelo://app?vid=55074562-456f-4265-9165-ff017bb29e09"},"vehicle_type_id":"4","last_reported":1747548866,"current_range_meters":17200,"station_id":"ce4bhg12rcd13ifvqf70","pricing_plan_id":"cebpf4jnsgd1na2vs0mg"},{"bike_id":"b99acb52-c4ed-4b13-b1af-f3021f273634","system_id":"levelo_inurba_marseille","lat":43.284549,"lon":5.358879,"is_reserved":false,"is_disabled":false,"rental_uris":{"android":"levelo://app?vid=b99acb52-c4ed-4b13-b1af-f3021f273634","ios":"levelo://app?vid=b99acb52-c4ed-4b13-b1af-f3021f273634"},"vehicle_type_id":"4","last_reported":1747548866,"current_range_meters":17200,"station_id":"ce4bhah2rcd13ifvqei0","pricing_plan_id":"cebpf4jnsgd1na2vs0mg"},{"bike_id":"1e2f0c80-2ce7-417a-ae75-e6a168f4d00d","system_id":"levelo_inurba_marseille","lat":43.28609,"lon":5.38672,"is_reserved":false,"is_disabled":false,"rental_uris":{"android":"levelo://app?vid=1e2f0c80-2ce7-417a-ae75-e6a168f4d00d","ios":"levelo://app?vid=1e2f0c80-2ce7-417a-ae75-e6a168f4d00d"},"vehicle_type_id":"4","last_reported":1747548866,"current_range_meters":17200,"station_id":"","pricing_plan_id":"cebpf4jnsgd1na2vs0mg"},{"bike_id":"10c61589-e6eb-469d-8214-e4ff226596c8","system_id":"levelo_inurba_marseille","lat":43.28704,"lon":5.37395,"is_reserved":false,"is_disabled":false,"rental_uris":{"android":"levelo://app?vid=10c61589-e6eb-469d-8214-e4ff226596c8","ios":"levelo://app?vid=10c61589-e6eb-469d-8214-e4ff226596c8"},"vehicle_type_id":"4","last_reported":1747548866,"current_range_meters":17200,"station_id":"ce4bh3p2rcd13ifvqdq0","pricing_plan_id":"cebpf4jnsgd1na2vs0mg"},{"bike_id":"049fbe1b-c405-4abb-92ed-64a5413617ef","system_id":"levelo_inurba_marseille","lat":43.26211,"lon":5.37445,"is_reserved":false,"is_disabled":false,"rental_uris":{"android":"levelo://app?vid=049fbe1b-c405-4abb-92ed-64a5413617ef","ios":"levelo://app?vid=049fbe1b-c405-4abb-92ed-64a5413617ef"},"vehicle_type_id":"4","last_reported":1747548866,"current_range_meters":17200,"station_id":"ce4bhgp2rcd13ifvqfc0","pricing_plan_id":"cebpf4jnsgd1na2vs0mg"},{"bike_id":"cf99a182-05bd-4cbc-b6a6-6a33541bdb08","system_id":"levelo_inurba_marseille","lat":43.25081,"lon":5.40338,"is_reserved":false,"is_disabled":false,"rental_uris":{"android":"levelo://app?vid=cf99a182-05bd-4cbc-b6a6-6a33541bdb08","ios":"levelo://app?vid=cf99a182-05bd-4cbc-b6a6-6a33541bdb08"},"vehicle_type_id":"4","last_reported":1747548866,"current_range_meters":17200,"station_id":"ce4bhlh2rcd13ifvqgig","pricing_plan_id":"cebpf4jnsgd1na2vs0mg"},{"bike_id":"cec3f715-614f-4bf0-96bd-7080ba74ba99","system_id":"levelo_inurba_marseille","lat":43.31123,"lon":5.37775,"is_reserved":false,"is_disabled":false,"rental_uris":{"android":"levelo://app?vid=cec3f715-614f-4bf0-96bd-7080ba74ba99","ios":"levelo://app?vid=cec3f715-614f-4bf0-96bd-7080ba74ba99"},"vehicle_type_id":"4","last_reported":1747548866,"current_range_meters":17200,"station_id":"ce4bgt92rcd13ifvqcg0","pricing_plan_id":"cebpf4jnsgd1na2vs0mg"},{"bike_id":"c98c970b-0290-40c6-82aa-744178e867a5","system_id":"levelo_inurba_marseille","lat":43.29279,"lon":5.40122,"is_reserved":false,"is_disabled":false,"rental_uris":{"android":"levelo://app?vid=c98c970b-0290-40c6-82aa-744178e867a5","ios":"levelo://app?vid=c98c970b-0290-40c6-82aa-744178e867a5"},"vehicle_type_id":"4","last_reported":1747548866,"current_range_meters":17200,"station_id":"ce4bh312rcd13ifvqdk0","pricing_plan_id":"cebpf4jnsgd1na2vs0mg"},{"bike_id":"bf5ae813-579c-457c-8bf8-b874e79e5881","system_id":"levelo_inurba_marseille","lat":43.27061,"lon":5.40256,"is_reserved":false,"is_disabled":false,"rental_uris":{"android":"levelo://app?vid=bf5ae813-579c-457c-8bf8-b874e79e5881","ios":"levelo://app?vid=bf5ae813-579c-457c-8bf8-b874e79e5881"},"vehicle_type_id":"4","last_reported":1747548866,"current_range_meters":17200,"station_id":"ce4bhk92rcd13ifvqgc0","pricing_plan_id":"cebpf4jnsgd1na2vs0mg"},{"bike_id":"f95e4357-8547-40e5-9256-fadc941a5e97","system_id":"levelo_inurba_marseille","lat":43.29705,"lon":5.37731,"is_reserved":false,"is_disabled":false,"rental_uris":{"android":"levelo://app?vid=f95e4357-8547-40e5-9256-fadc941a5e97","ios":"levelo://app?vid=f95e4357-8547-40e5-9256-fadc941a5e97"},"vehicle_type_id":"4","last_reported":1747548866,"current_range_meters":17200,"station_id":"ce4bgkh2rcd13ifvqbl0","pricing_plan_id":"cebpf4jnsgd1na2vs0mg"},{"bike_id":"83aa0dd8-f3fb-4d63-b293-2e31248d70b9","system_id":"levelo_inurba_marseille","lat":43.308794,"lon":5.39648,"is_reserved":false,"is_disabled":false,"rental_uris":{"android":"levelo://app?vid=83aa0dd8-f3fb-4d63-b293-2e31248d70b9","ios":"levelo://app?vid=83aa0dd8-f3fb-4d63-b293-2e31248d70b9"},"vehicle_type_id":"4","last_reported":1747548866,"current_range_meters":18000,"station_id":"ce4bh012rcd13ifvqcv0","pricing_plan_id":"cebpf4jnsgd1na2vs0mg"},{"bike_id":"a8085997-0af4-4667-a061-b271c4b9805c","system_id":"levelo_inurba_marseille","lat":43.29256,"lon":5.40931,"is_reserved":false,"is_disabled":false,"rental_uris":{"android":"levelo://app?vid=a8085997-0af4-4667-a061-b271c4b9805c","ios":"levelo://app?vid=a8085997-0af4-4667-a061-b271c4b9805c"},"vehicle_type_id":"4","last_reported":1747548866,"current_range_meters":17600,"station_id":"ce4bh192rcd13ifvqdc0","pricing_plan_id":"cebpf4jnsgd1na2vs0mg"},{"bike_id":"67f72f62-eb9d-4994-bbcf-c10b28dd838c","system_id":"levelo_inurba_marseille","lat":43.26545,"lon":5.39411,"is_reserved":false,"is_disabled":false,"rental_uris":{"android":"levelo://app?vid=67f72f62-eb9d-4994-bbcf-c10b28dd838c","ios":"levelo://app?vid=67f72f62-eb9d-4994-bbcf-c10b28dd838c"},"vehicle_type_id":"4","last_reported":1747548866,"current_range_meters":17600,"station_id":"","pricing_plan_id":"cebpf4jnsgd1na2vs0mg"},{"bike_id":"9b675469-68e4-4d63-a0fe-3351b274fa61","system_id":"levelo_inurba_marseille","lat":43.26571,"lon":5.39004,"is_reserved":false,"is_disabled":false,"rental_uris":{"android":"levelo://app?vid=9b675469-68e4-4d63-a0fe-3351b274fa61","ios":"levelo://app?vid=9b675469-68e4-4d63-a0fe-3351b274fa61"},"vehicle_type_id":"4","last_reported":1747548866,"current_range_meters":17600,"station_id":"ce4bhe12rcd13ifvqf30","pricing_plan_id":"cebpf4jnsgd1na2vs0mg"},{"bike_id":"d796888f-19f7-44cb-b77a-5927886255b3","system_id":"levelo_inurba_marseille","lat":43.30475,"lon":5.37894,"is_reserved":false,"is_disabled":false,"rental_uris":{"android":"levelo://app?vid=d796888f-19f7-44cb-b77a-5927886255b3","ios":"levelo://app?vid=d796888f-19f7-44cb-b77a-5927886255b3"},"vehicle_type_id":"4","last_reported":1747548866,"current_range_meters":17200,"station_id":"ce4bgup2rcd13ifvqcn0","pricing_plan_id":"cebpf4jnsgd1na2vs0mg"},{"bike_id":"26ae3f71-446b-4d48-9715-d0cb78472fbf","system_id":"levelo_inurba_marseille","lat":43.31119,"lon":5.3706,"is_reserved":false,"is_disabled":false,"rental_uris":{"android":"levelo://app?vid=26ae3f71-446b-4d48-9715-d0cb78472fbf","ios":"levelo://app?vid=26ae3f71-446b-4d48-9715-d0cb78472fbf"},"vehicle_type_id":"4","last_reported":1747548866,"current_range_meters":17600,"station_id":"","pricing_plan_id":"cebpf4jnsgd1na2vs0mg"},{"bike_id":"b608ee5d-bf23-4ce8-a2bd-64e717b2445e","system_id":"levelo_inurba_marseille","lat":43.30401,"lon":5.42464,"is_reserved":false,"is_disabled":false,"rental_uris":{"android":"levelo://app?vid=b608ee5d-bf23-4ce8-a2bd-64e717b2445e","ios":"levelo://app?vid=b608ee5d-bf23-4ce8-a2bd-64e717b2445e"},"vehicle_type_id":"4","last_reported":1747548866,"current_range_meters":17600,"station_id":"ce4bghh2rcd13ifvqb60","pricing_plan_id":"cebpf4jnsgd1na2vs0mg"},{"bike_id":"32dfa9c0-62ae-4e7a-8782-8ca611974d6b","system_id":"levelo_inurba_marseille","lat":43.24548,"lon":5.39542,"is_reserved":false,"is_disabled":false,"rental_uris":{"android":"levelo://app?vid=32dfa9c0-62ae-4e7a-8782-8ca611974d6b","ios":"levelo://app?vid=32dfa9c0-62ae-4e7a-8782-8ca611974d6b"},"vehicle_type_id":"4","last_reported":1747548866,"current_range_meters":17600,"station_id":"ce4bhlp2rcd13ifvqgjg","pricing_plan_id":"cebpf4jnsgd1na2vs0mg"},{"bike_id":"be3ec35b-7e11-40c2-8533-efbf69bf1bbb","system_id":"levelo_inurba_marseille","lat":43.26066,"lon":5.39395,"is_reserved":false,"is_disabled":true,"rental_uris":{"android":"levelo://app?vid=be3ec35b-7e11-40c2-8533-efbf69bf1bbb","ios":"levelo://app?vid=be3ec35b-7e11-40c2-8533-efbf69bf1bbb"},"vehicle_type_id":"4","last_reported":1747548866,"current_range_meters":18000,"station_id":"ce4bhh92rcd13ifvqfj0","pricing_plan_id":"cebpf4jnsgd1na2vs0mg"},{"bike_id":"5b2683ba-111a-4e84-bff7-82b5caa90717","system_id":"levelo_inurba_marseille","lat":43.27946,"lon":5.41054,"is_reserved":false,"is_disabled":false,"rental_uris":{"android":"levelo://app?vid=5b2683ba-111a-4e84-bff7-82b5caa90717","ios":"levelo://app?vid=5b2683ba-111a-4e84-bff7-82b5caa90717"},"vehicle_type_id":"4","last_reported":1747548866,"current_range_meters":18000,"station_id":"ce4bhnp2rcd13ifvqh0g","pricing_plan_id":"cebpf4jnsgd1na2vs0mg"},{"bike_id":"9d37deb4-0805-414a-a313-75f0a3191e31","system_id":"levelo_inurba_marseille","lat":43.29563,"lon":5.4231,"is_reserved":false,"is_disabled":false,"rental_uris":{"android":"levelo://app?vid=9d37deb4-0805-414a-a313-75f0a3191e31","ios":"levelo://app?vid=9d37deb4-0805-414a-a313-75f0a3191e31"},"vehicle_type_id":"4","last_reported":1747548866,"current_range_meters":18000,"station_id":"ce4bhph2rcd13ifvqhdg","pricing_plan_id":"cebpf4jnsgd1na2vs0mg"},{"bike_id":"e380e188-a303-474b-b80b-a2c302d00fcc","system_id":"levelo_inurba_marseille","lat":43.29791,"lon":5.39374,"is_reserved":false,"is_disabled":false,"rental_uris":{"android":"levelo://app?vid=e380e188-a303-474b-b80b-a2c302d00fcc","ios":"levelo://app?vid=e380e188-a303-474b-b80b-a2c302d00fcc"},"vehicle_type_id":"4","last_reported":1747548866,"current_range_meters":18000,"station_id":"chh1huq6cuj3fo74tm60","pricing_plan_id":"cebpf4jnsgd1na2vs0mg"},{"bike_id":"ddb81537-87dc-43a5-92ca-096b69b7235e","system_id":"levelo_inurba_marseille","lat":43.32655,"lon":5.40986,"is_reserved":false,"is_disabled":false,"rental_uris":{"android":"levelo://app?vid=ddb81537-87dc-43a5-92ca-096b69b7235e","ios":"levelo://app?vid=ddb81537-87dc-43a5-92ca-096b69b7235e"},"vehicle_type_id":"4","last_reported":1747548866,"current_range_meters":18000,"station_id":"ce4bhpp2rcd13ifvqhgg","pricing_plan_id":"cebpf4jnsgd1na2vs0mg"},{"bike_id":"58611393-c567-4937-b54b-54e59ee0ad2b","system_id":"levelo_inurba_marseille","lat":43.301523,"lon":5.380917,"is_reserved":false,"is_disabled":false,"rental_uris":{"android":"levelo://app?vid=58611393-c567-4937-b54b-54e59ee0ad2b","ios":"levelo://app?vid=58611393-c567-4937-b54b-54e59ee0ad2b"},"vehicle_type_id":"4","last_reported":1747548866,"current_range_meters":17600,"station_id":"ce4bgjp2rcd13ifvqbh0","pricing_plan_id":"cebpf4jnsgd1na2vs0mg"},{"bike_id":"de952b89-d19c-4cd8-9c98-479819ef329a","system_id":"levelo_inurba_marseille","lat":43.24998,"lon":5.38931,"is_reserved":false,"is_disabled":false,"rental_uris":{"android":"levelo://app?vid=de952b89-d19c-4cd8-9c98-479819ef329a","ios":"levelo://app?vid=de952b89-d19c-4cd8-9c98-479819ef329a"},"vehicle_type_id":"4","last_reported":1747548866,"current_range_meters":19200,"station_id":"ce4bhgp2rcd13ifvqfd0","pricing_plan_id":"cebpf4jnsgd1na2vs0mg"},{"bike_id":"7b5e997d-e5cd-43d5-81a9-e37676225382","system_id":"levelo_inurba_marseille","lat":43.32002,"lon":5.3816,"is_reserved":false,"is_disabled":false,"rental_uris":{"android":"levelo://app?vid=7b5e997d-e5cd-43d5-81a9-e37676225382","ios":"levelo://app?vid=7b5e997d-e5cd-43d5-81a9-e37676225382"},"vehicle_type_id":"4","last_reported":1747548866,"current_range_meters":18800,"station_id":"ce4bhr12rcd13ifvqhpg","pricing_plan_id":"cebpf4jnsgd1na2vs0mg"},{"bike_id":"566adc86-6127-44ab-8e50-1918798c55f9","system_id":"levelo_inurba_marseille","lat":43.247,"lon":5.38147,"is_reserved":false,"is_disabled":false,"rental_uris":{"android":"levelo://app?vid=566adc86-6127-44ab-8e50-1918798c55f9","ios":"levelo://app?vid=566adc86-6127-44ab-8e50-1918798c55f9"},"vehicle_type_id":"4","last_reported":1747548866,"current_range_meters":18800,"station_id":"ce4bhih2rcd13ifvqfr0","pricing_plan_id":"cebpf4jnsgd1na2vs0mg"},{"bike_id":"11595ed8-8a87-4135-bacb-4f28f6f3f7c3","system_id":"levelo_inurba_marseille","lat":43.28461,"lon":5.35871,"is_reserved":false,"is_disabled":false,"rental_uris":{"android":"levelo://app?vid=11595ed8-8a87-4135-bacb-4f28f6f3f7c3","ios":"levelo://app?vid=11595ed8-8a87-4135-bacb-4f28f6f3f7c3"},"vehicle_type_id":"4","last_reported":1747548866,"current_range_meters":18800,"station_id":"ce4bhah2rcd13ifvqei0","pricing_plan_id":"cebpf4jnsgd1na2vs0mg"},