{"last_updated":1745655092,"ttl":60,"version":"2.2","data":{"bikes":[{"bike_id":"b1f50532-6b5e-452e-bf90-b5df2c6cdcca","system_id":"levelo_inurba_marseille","lat":43.32286,"lon":5.38275,"is_reserved":false,"is_disabled":false,"rental_uris":{"android":"levelo://app?vid=b1f50532-6b5e-452e-bf90-b5df2c6cdcca","ios":"levelo://app?vid=b1f50532-6b5e-452e-bf90-b5df2c6cdcca"},"vehicle_type_id":"4","last_reported":1745655092,"current_range_meters":2800,"station_id":"ce4bhr12rcd13ifvqhqg","pricing_plan_id":"cebpf4jnsgd1na2vs0mg"},{"bike_id":"8aff0d73-1664-47c7-8bf8-658126236a83","system_id":"levelo_inurba_marseille","lat":43.3125,"lon":5.40162,"is_reserved":false,"is_disabled":false,"rental_uris":{"android":"levelo://app?vid=8aff0d73-1664-47c7-8bf8-658126236a83","ios":"levelo://app?vid=8aff0d73-1664-47c7-8bf8-658126236a83"},"vehicle_type_id":"4","last_reported":1745655092,"current_range_meters":2800,"station_id":"ce4bh092rcd13ifvqd30","pricing_plan_id":"cebpf4jnsgd1na2vs0mg"},{"bike_id":"52cb41a7-5096-4f42-a09a-abce4785d5e2","system_id":"levelo_inurba_marseille","lat":43.27063,"lon":5.42279,"is_reserved":false,"is_disabled":true,"rental_uris":{"android":"levelo://app?vid=52cb41a7-5096-4f42-a09a-abce4785d5e2","ios":"levelo://app?vid=52cb41a7-5096-4f42-a09a-abce4785d5e2"},"vehicle_type_id":"4","last_reported":1745655092,"current_range_meters":2800,"station_id":"ce4bhk92rcd13ifvqgb0","pricing_plan_id":"cebpf4jnsgd1na2vs0mg"},{"bike_id":"3025b59e-d31f-4fbd-b569-70abfd380dca","system_id":"levelo_inurba_marseille","lat":43.29275,"lon":5.36839,"is_reserved":false,"is_disabled":false,"rental_uris":{"android":"levelo://app?vid=3025b59e-d31f-4fbd-b569-70abfd380dca","ios":"levelo://app?vid=3025b59e-d31f-4fbd-b569-70abfd380dca"},"vehicle_type_id":"4","last_reported":1745655092,"current_range_meters":3200,"station_id":"ce4bhbp2rcd13ifvqesg","pricing_plan_id":"cebpf4jnsgd1na2vs0mg"},{"bike_id":"60fdba7e-e2e5-4e89-a181-b3d0cbe05159","system_id":"levelo_inurba_marseille","lat":43.30402,"lon":5.41285,"is_reserved":false,"is_disabled":false,"rental_uris":{"android":"levelo://app?vid=60fdba7e-e2e5-4e89-a181-b3d0cbe05159","ios":"levelo://app?vid=60fdba7e-e2e5-4e89-a181-b3d0cbe05159"},"vehicle_type_id":"4","last_reported":1745655092,"current_range_meters":3200,"station_id":"ce4bhop2rcd13ifvqh8g","pricing_plan_id":"cebpf4jnsgd1na2vs0mg"},{"bike_id":"46374c49-3adc-4c5a-8966-e00f056c0d57","system_id":"levelo_inurba_marseille","lat":43.27846,"lon":5.35442,"is_reserved":false,"is_disabled":false,"rental_uris":{"android":"levelo://app?vid=46374c49-3adc-4c5a-8966-e00f056c0d57","ios":"levelo://app?vid=46374c49-3adc-4c5a-8966-e00f056c0d57"},"vehicle_type_id":"4","last_reported":1745655092,"current_range_meters":3600,"station_id":"","pricing_plan_id":"cebpf4jnsgd1na2vs0mg"},{"bike_id":"2147af9f-2b35-491c-b70e-d006a8fd1d90","system_id":"levelo_inurba_marseille","lat":43.26199,"lon":5.37934,"is_reserved":false,"is_disabled":false,"rental_uris":{"android":"levelo://app?vid=2147af9f-2b35-491c-b70e-d006a8fd1d90","ios":"levelo://app?vid=2147af9f-2b35-491c-b70e-d006a8fd1d90"},"vehicle_type_id":"4","last_reported":1745655092,"current_range_meters":3600,"station_id":"ce4bhjp2rcd13ifvqg90","pricing_plan_id":"cebpf4jnsgd1na2vs0mg"},{"bike_id":"261ed139-77cc-4e31-8526-09806692c5d3","system_id":"levelo_inurba_marseille","lat":43.31483,"lon":5.37282,"is_reserved":false,"is_disabled":false,"rental_uris":{"android":"levelo://app?vid=261ed139-77cc-4e31-8526-09806692c5d3","ios":"levelo://app?vid=261ed139-77cc-4e31-8526-09806692c5d3"},"vehicle_type_id":"4","last_reported":1745655092,"current_range_meters":3600,"station_id":"ce4bgt12rcd13ifvqcd0","pricing_plan_id":"cebpf4jnsgd1na2vs0mg"},{"bike_id":"3767ba54-0ee2-464a-8805-d28bad95405b","system_id":"levelo_inurba_marseille","lat":43.25944,"lon":5.37547,"is_reserved":false,"is_disabled":false,"rental_uris":{"android":"levelo://app?vid=3767ba54-0ee2-464a-8805-d28bad95405b","ios":"levelo://app?vid=3767ba54-0ee2-464a-8805-d28bad95405b"},"vehicle_type_id":"4","last_reported":1745655092,"current_range_meters":3600,"station_id":"","pricing_plan_id":"cebpf4jnsgd1na2vs0mg"},{"bike_id":"ecdd0875-7d56-4cd2-a14a-671f78e26c97","system_id":"levelo_inurba_marseille","lat":43.23107,"lon":5.35506,"is_reserved":false,"is_disabled":true,"rental_uris":{"android":"levelo://app?vid=ecdd0875-7d56-4cd2-a14a-671f78e26c97","ios":"levelo://app?vid=ecdd0875-7d56-4cd2-a14a-671f78e26c97"},"vehicle_type_id":"4","last_reported":1745655092,"current_range_meters":4000,"station_id":"cpo3342slgdg3j2ifvpg","pricing_plan_id":"cebpf4jnsgd1na2vs0mg"},{"bike_id":"9441fe3b-0a3c-4af0-bf94-6cacfa5532f8","system_id":"levelo_inurba_marseille","lat":43.307182,"lon":5.399984,"is_reserved":false,"is_disabled":false,"rental_uris":{"android":"levelo://app?vid=9441fe3b-0a3c-4af0-bf94-6cacfa5532f8","ios":"levelo://app?vid=9441fe3b-0a3c-4af0-bf94-6cacfa5532f8"},"vehicle_type_id":"4","last_reported":1745655092,"current_range_meters":4000,"station_id":"ce4bgip2rcd13ifvqbb0","pricing_plan_id":"cebpf4jnsgd1na2vs0mg"},{"bike_id":"4bf0cade-afa0-4731-b40e-ef3f8f4a4fe5","system_id":"levelo_inurba_marseille","lat":43.30085,"lon":5.39086,"is_reserved":false,"is_disabled":true,"rental_uris":{"android":"levelo://app?vid=4bf0cade-afa0-4731-b40e-ef3f8f4a4fe5","ios":"levelo://app?vid=4bf0cade-afa0-4731-b40e-ef3f8f4a4fe5"},"vehicle_type_id":"4","last_reported":1745655092,"current_range_meters":4400,"station_id":"ce4bh192rcd13ifvqdb0","pricing_plan_id":"cebpf4jnsgd1na2vs0mg"},{"bike_id":"e615b763-b9b6-4cb5-a1c0-003a03d00de1","system_id":"levelo_inurba_marseille","lat":43.29768,"lon":5.40989,"is_reserved":false,"is_disabled":false,"rental_uris":{"android":"levelo://app?vid=e615b763-b9b6-4cb5-a1c0-003a03d00de1","ios":"levelo://app?vid=e615b763-b9b6-4cb5-a1c0-003a03d00de1"},"vehicle_type_id":"4","last_reported":1745655092,"current_range_meters":4400,"station_id":"","pricing_plan_id":"cebpf4jnsgd1na2vs0mg"},{"bike_id":"be33e066-23f3-4143-8e1c-3a816f88226b","system_id":"levelo_inurba_marseille","lat":43.30272,"lon":5.39966,"is_reserved":false,"is_disabled":false,"rental_uris":{"android":"levelo://app?vid=be33e066-23f3-4143-8e1c-3a816f88226b","ios":"levelo://app?vid=be33e066-23f3-4143-8e1c-3a816f88226b"},"vehicle_type_id":"4","last_reported":1745655092,"current_range_meters":4400,"station_id":"","pricing_plan_id":"cebpf4jnsgd1na2vs0mg"},{"bike_id":"b0f748b0-52db-431a-bf39-d8045fdc17ac","system_id":"levelo_inurba_marseille","lat":43.305767,"lon":5.418361,"is_reserved":false,"is_disabled":false,"rental_uris":{"android":"levelo://app?vid=b0f748b0-52db-431a-bf39-d8045fdc17ac","ios":"levelo://app?vid=b0f748b0-52db-431a-bf39-d8045fdc17ac"},"vehicle_type_id":"4","last_reported":1745655092,"current_range_meters":4800,"station_id":"ce4bhp92rcd13ifvqhcg","pricing_plan_id":"cebpf4jnsgd1na2vs0mg"},{"bike_id":"f1a9f5db-d774-4f36-a0be-69b289d14fd1","system_id":"levelo_inurba_marseille","lat":43.21184,"lon":5.35061,"is_reserved":false,"is_disabled":false,"rental_uris":{"android":"levelo://app?vid=f1a9f5db-d774-4f36-a0be-69b289d14fd1","ios":"levelo://app?vid=f1a9f5db-d774-4f36-a0be-69b289d14fd1"},"vehicle_type_id":"4","last_reported":1745655092,"current_range_meters":4800,"station_id":"st_cvj6sg6p6f1abm77japg","pricing_plan_id":"cebpf4jnsgd1na2vs0mg"},{"bike_id":"a4f241e0-aaac-4872-a16e-4e04a72ff58c","system_id":"levelo_inurba_marseille","lat":43.23968,"lon":5.36633,"is_reserved":false,"is_disabled":true,"rental_uris":{"android":"levelo://app?vid=a4f241e0-aaac-4872-a16e-4e04a72ff58c","ios":"levelo://app?vid=a4f241e0-aaac-4872-a16e-4e04a72ff58c"},"vehicle_type_id":"4","last_reported":1745655092,"current_range_meters":4800,"station_id":"ce4bhi12rcd13ifvqfp0","pricing_plan_id":"cebpf4jnsgd1na2vs0mg"},{"bike_id":"4bc1fa3b-49f9-416e-b09c-8bfe4beac9de","system_id":"levelo_inurba_marseille","lat":43.27429,"lon":5.39415,"is_reserved":false,"is_disabled":false,"rental_uris":{"android":"levelo://app?vid=4bc1fa3b-49f9-416e-b09c-8bfe4beac9de","ios":"levelo://app?vid=4bc1fa3b-49f9-416e-b09c-8bfe4beac9de"},"vehicle_type_id":"4","last_reported":1745655092,"current_range_meters":5600,"station_id":"ce4bhdp2rcd13ifvqf20","pricing_plan_id":"cebpf4jnsgd1na2vs0mg"},{"bike_id":"49362cd8-0cc1-428e-bd69-89f1745293ce","system_id":"levelo_inurba_marseille","lat":43.25117,"lon":5.40314,"is_reserved":false,"is_disabled":false,"rental_uris":{"android":"levelo://app?vid=49362cd8-0cc1-428e-bd69-89f1745293ce","ios":"levelo://app?vid=49362cd8-0cc1-428e-bd69-89f1745293ce"},"vehicle_type_id":"4","last_reported":1745655092,"current_range_meters":5600,"station_id":"ce4bhlh2rcd13ifvqgig","pricing_plan_id":"cebpf4jnsgd1na2vs0mg"},{"bike_id":"17761b43-81b5-47a5-b70d-a16da12e422d","system_id":"levelo_inurba_marseille","lat":43.29304,"lon":5.37179,"is_reserved":false,"is_disabled":true,"rental_uris":{"android":"levelo://app?vid=17761b43-81b5-47a5-b70d-a16da12e422d","ios":"levelo://app?vid=17761b43-81b5-47a5-b70d-a16da12e422d"},"vehicle_type_id":"4","last_reported":1745655092,"current_range_meters":5600,"station_id":"ce4bgh92rcd13ifvqb40","pricing_plan_id":"cebpf4jnsgd1na2vs0mg"},{"bike_id":"e9ab448f-ff65-4aac-a5a6-febcb20f7369","system_id":"levelo_inurba_marseille","lat":43.27069,"lon":5.42266,"is_reserved":false,"is_disabled":false,"rental_uris":{"android":"levelo://app?vid=e9ab448f-ff65-4aac-a5a6-febcb20f7369","ios":"levelo://app?vid=e9ab448f-ff65-4aac-a5a6-febcb20f7369"},"vehicle_type_id":"4","last_reported":1745655092,"current_range_meters":6000,"station_id":"ce4bhk92rcd13ifvqgb0","pricing_plan_id":"cebpf4jnsgd1na2vs0mg"},{"bike_id":"e34f328c-a9b2-4484-b302-58552f89a3c4","system_id":"levelo_inurba_marseille","lat":43.31489,"lon":5.3728,"is_reserved":false,"is_disabled":false,"rental_uris":{"android":"levelo://app?vid=e34f328c-a9b2-4484-b302-58552f89a3c4","ios":"levelo://app?vid=e34f328c-a9b2-4484-b302-58552f89a3c4"},"vehicle_type_id":"4","last_reported":1745655092,"current_range_meters":6400,"station_id":"ce4bgt12rcd13ifvqcd0","pricing_plan_id":"cebpf4jnsgd1na2vs0mg"},{"bike_id":"a84dda67-2771-448f-9f2c-69a47019d774","system_id":"levelo_inurba_marseille","lat":43.33602,"lon":5.41017,"is_reserved":false,"is_disabled":true,"rental_uris":{"android":"levelo://app?vid=a84dda67-2771-448f-9f2c-69a47019d774","ios":"levelo://app?vid=a84dda67-2771-448f-9f2c-69a47019d774"},"vehicle_type_id":"4","last_reported":1745655092,"current_range_meters":6400,"station_id":"ce4bhqh2rcd13ifvqhmg","pricing_plan_id":"cebpf4jnsgd1na2vs0mg"},{"bike_id":"1746265e-27ad-4913-8a06-b6dc5372d844","system_id":"levelo_inurba_marseille","lat":43.25997,"lon":5.37488,"is_reserved":false,"is_disabled":false,"rental_uris":{"android":"levelo://app?vid=1746265e-27ad-4913-8a06-b6dc5372d844","ios":"levelo://app?vid=1746265e-27ad-4913-8a06-b6dc5372d844"},"vehicle_type_id":"4","last_reported":1745655092,"current_range_meters":6800,"station_id":"","pricing_plan_id":"cebpf4jnsgd1na2vs0mg"},{"bike_id":"c3eb58ef-ab71-43b6-a3a4-4aa3cab56d33","system_id":"levelo_inurba_marseille","lat":43.30885,"lon":5.39628,"is_reserved":false,"is_disabled":false,"rental_uris":{"android":"levelo://app?vid=c3eb58ef-ab71-43b6-a3a4-4aa3cab56d33","ios":"levelo://app?vid=c3eb58ef-ab71-43b6-a3a4-4aa3cab56d33"},"vehicle_type_id":"4","last_reported":1745655092,"current_range_meters":7200,"station_id":"ce4bh012rcd13ifvqcv0","pricing_plan_id":"cebpf4jnsgd1na2vs0mg"},{"bike_id":"3d6d5475-9361-4499-b1f7-e975ae27580a","system_id":"levelo_inurba_marseille","lat":43.30932,"lon":5.40152,"is_reserved":false,"is_disabled":false,"rental_uris":{"android":"levelo://app?vid=3d6d5475-9361-4499-b1f7-e975ae27580a","ios":"levelo://app?vid=3d6d5475-9361-4499-b1f7-e975ae27580a"},"vehicle_type_id":"4","last_reported":1745655092,"current_range_meters":7200,"station_id":"ce4bgvp2rcd13ifvqct0","pricing_plan_id":"cebpf4jnsgd1na2vs0mg"},{"bike_id":"5331df3e-477f-4c99-8e8b-ec43d72ee232","system_id":"levelo_inurba_marseille","lat":43.24174,"lon":5.3973,"is_reserved":false,"is_disabled":false,"rental_uris":{"android":"levelo://app?vid=5331df3e-477f-4c99-8e8b-ec43d72ee232","ios":"levelo://app?vid=5331df3e-477f-4c99-8e8b-ec43d72ee232"},"vehicle_type_id":"4","last_reported":1745655092,"current_range_meters":7200,"station_id":"ce4bhn12rcd13ifvqgpg","pricing_plan_id":"cebpf4jnsgd1na2vs0mg"},{"bike_id":"2c2e5bcc-b9ff-41a6-be9a-7733528f3bfa","system_id":"levelo_inurba_marseille","lat":43.27492,"lon":5.42456,"is_reserved":false,"is_disabled":false,"rental_uris":{"android":"levelo://app?vid=2c2e5bcc-b9ff-41a6-be9a-7733528f3bfa","ios":"levelo://app?vid=2c2e5bcc-b9ff-41a6-be9a-7733528f3bfa"},"vehicle_type_id":"4","last_reported":1745655092,"current_range_meters":7200,"station_id":"ce4bhn92rcd13ifvqgrg","pricing_plan_id":"cebpf4jnsgd1na2vs0mg"},{"bike_id":"886f774b-b172-4ee0-8af6-2a328933c394","system_id":"levelo_inurba_marseille","lat":43.24406,"lon":5.37057,"is_reserved":false,"is_disabled":false,"rental_uris":{"android":"levelo://app?vid=886f774b-b172-4ee0-8af6-2a328933c394","ios":"levelo://app?vid=886f774b-b172-4ee0-8af6-2a328933c394"},"vehicle_type_id":"4","last_reported":1745655092,"current_range_meters":7200,"station_id":"ce4bhhh2rcd13ifvqfk0","pricing_plan_id":"cebpf4jnsgd1na2vs0mg"},{"bike_id":"3b154790-3924-40d2-8858-c506203b6522","system_id":"levelo_inurba_marseille","lat":43.31113,"lon":5.37779,"is_reserved":false,"is_disabled":false,"rental_uris":{"android":"levelo://app?vid=3b154790-3924-40d2-8858-c506203b6522","ios":"levelo://app?vid=3b154790-3924-40d2-8858-c506203b6522"},"vehicle_type_id":"4","last_reported":1745655092,"current_range_meters":7200,"station_id":"ce4bgt92rcd13ifvqcg0","pricing_plan_id":"cebpf4jnsgd1na2vs0mg"},{"bike_id":"80ca7186-6be3-49d7-98b9-518be2f29b22","system_id":"levelo_inurba_marseille","lat":43.33594,"lon":5.4099,"is_reserved":false,"is_disabled":false,"rental_uris":{"android":"levelo://app?vid=80ca7186-6be3-49d7-98b9-518be2f29b22","ios":"levelo://app?vid=80ca7186-6be3-49d7-98b9-518be2f29b22"},"vehicle_type_id":"4","last_reported":1745655092,"current_range_meters":7200,"station_id":"ce4bhqh2rcd13ifvqhmg","pricing_plan_id":"cebpf4jnsgd1na2vs0mg"},{"bike_id":"7410bca4-dc06-4c61-a6c1-1417f60c6640","system_id":"levelo_inurba_marseille","lat":43.31483,"lon":5.37292,"is_reserved":false,"is_disabled":true,"rental_uris":{"android":"levelo://app?vid=7410bca4-dc06-4c61-a6c1-1417f60c6640","ios":"levelo://app?vid=7410bca4-dc06-4c61-a6c1-1417f60c6640"},"vehicle_type_id":"4","last_reported":1745655092,"current_range_meters":8000,"station_id":"ce4bgt12rcd13ifvqcd0","pricing_plan_id":"cebpf4jnsgd1na2vs0mg"},{"bike_id":"f87fae0d-0072-4c55-b225-5abd633d9e77","system_id":"levelo_inurba_marseille","lat":43.21747,"lon":5.34603,"is_reserved":false,"is_disabled":false,"rental_uris":{"android":"levelo://app?vid=f87fae0d-0072-4c55-b225-5abd633d9e77","ios":"levelo://app?vid=f87fae0d-0072-4c55-b225-5abd633d9e77"},"vehicle_type_id":"4","last_reported":1745655092,"current_range_meters":8000,"station_id":"st_cvj6r9ubvosntc0bgbag","pricing_plan_id":"cebpf4jnsgd1na2vs0mg"},{"bike_id":"422b5989-c8b6-43aa-b2b9-3bfeb2e1ddc0","system_id":"levelo_inurba_marseille","lat":43.24729,"lon":5.41151,"is_reserved":false,"is_disabled":false,"rental_uris":{"android":"levelo://app?vid=422b5989-c8b6-43aa-b2b9-3bfeb2e1ddc0","ios":"levelo://app?vid=422b5989-c8b6-43aa-b2b9-3bfeb2e1ddc0"},"vehicle_type_id":"4","last_reported":1745655092,"current_range_meters":8400,"station_id":"","pricing_plan_id":"cebpf4jnsgd1na2vs0mg"},{"bike_id":"7bc93c28-1668-47bc-a466-f06ab17ee4a8","system_id":"levelo_inurba_marseille","lat":43.30639,"lon":5.4011,"is_reserved":false,"is_disabled":false,"rental_uris":{"android":"levelo://app?vid=7bc93c28-1668-47bc-a466-f06ab17ee4a8","ios":"levelo://app?vid=7bc93c28-1668-47bc-a466-f06ab17ee4a8"},"vehicle_type_id":"4","last_reported":1745655092,"current_range_meters":8400,"station_id":"ce4bh112rcd13ifvqda0","pricing_plan_id":"cebpf4jnsgd1na2vs0mg"},{"bike_id":"d307a9be-1e65-45cf-8469-87e635153236","system_id":"levelo_inurba_marseille","lat":43.26559,"lon":5.39023,"is_reserved":false,"is_disabled":false,"rental_uris":{"android":"levelo://app?vid=d307a9be-1e65-45cf-8469-87e635153236","ios":"levelo://app?vid=d307a9be-1e65-45cf-8469-87e635153236"},"vehicle_type_id":"4","last_reported":1745655092,"current_range_meters":8400,"station_id":"ce4bhe12rcd13ifvqf30","pricing_plan_id":"cebpf4jnsgd1na2vs0mg"},{"bike_id":"a8ceb8c9-40b0-4315-8f2e-2b4868bac235","system_id":"levelo_inurba_marseille","lat":43.29795,"lon":5.38102,"is_reserved":false,"is_disabled":false,"rental_uris":{"android":"levelo://app?vid=a8ceb8c9-40b0-4315-8f2e-2b4868bac235","ios":"levelo://app?vid=a8ceb8c9-40b0-4315-8f2e-2b4868bac235"},"vehicle_type_id":"4","last_reported":1745655092,"current_range_meters":8400,"station_id":"ce4bgip2rcd13ifvqbb0","pricing_plan_id":"cebpf4jnsgd1na2vs0mg"},{"bike_id":"edbc9bff-8242-42ee-887f-3b5d28f3a582","system_id":"levelo_inurba_marseille","lat":43.29356,"lon":5.37858,"is_reserved":false,"is_disabled":false,"rental_uris":{"android":"levelo://app?vid=edbc9bff-8242-42ee-887f-3b5d28f3a582","ios":"levelo://app?vid=edbc9bff-8242-42ee-887f-3b5d28f3a582"},"vehicle_type_id":"4","last_reported":1745655092,"current_range_meters":8400,"station_id":"ce4bgjh2rcd13ifvqbf0","pricing_plan_id":"cebpf4jnsgd1na2vs0mg"},{"bike_id":"18ae1d78-8d9e-4697-bc48-a39d36035c1d","system_id":"levelo_inurba_marseille","lat":43.23975,"lon":5.36612,"is_reserved":false,"is_disabled":false,"rental_uris":{"android":"levelo://app?vid=18ae1d78-8d9e-4697-bc48-a39d36035c1d","ios":"levelo://app?vid=18ae1d78-8d9e-4697-bc48-a39d36035c1d"},"vehicle_type_id":"4","last_reported":1745655092,"current_range_meters":8400,"station_id":"ce4bhi12rcd13ifvqfp0","pricing_plan_id":"cebpf4jnsgd1na2vs0mg"},{"bike_id":"f997f3a2-6ef7-4d7a-931e-8083cf2fa70c","system_id":"levelo_inurba_marseille","lat":43.26811,"lon":5.40267,"is_reserved":false,"is_disabled":false,"rental_uris":{"android":"levelo://app?vid=f997f3a2-6ef7-4d7a-931e-8083cf2fa70c","ios":"levelo://app?vid=f997f3a2-6ef7-4d7a-931e-8083cf2fa70c"},"vehicle_type_id":"4","last_reported":1745655092,"current_range_meters":8400,"station_id":"ce501612rcd8frsf0b60","pricing_plan_id":"cebpf4jnsgd1na2vs0mg"},{"bike_id":"e55b7fd1-db0d-4417-a85a-eee1595f4095","system_id":"levelo_inurba_marseille","lat":43.27948,"lon":5.41022,"is_reserved":false,"is_disabled":false,"rental_uris":{"android":"levelo://app?vid=e55b7fd1-db0d-4417-a85a-eee1595f4095","ios":"levelo://app?vid=e55b7fd1-db0d-4417-a85a-eee1595f4095"},"vehicle_type_id":"4","last_reported":1745655092,"current_range_meters":8400,"station_id":"ce4bhnp2rcd13ifvqh0g","pricing_plan_id":"cebpf4jnsgd1na2vs0mg"},{"bike_id":"dc01f0b5-b1ff-492a-9187-c2aa24895f43","system_id":"levelo_inurba_marseille","lat":43.23213,"lon":5.39963,"is_reserved":false,"is_disabled":false,"rental_uris":{"android":"levelo://app?vid=dc01f0b5-b1ff-492a-9187-c2aa24895f43","ios":"levelo://app?vid=dc01f0b5-b1ff-492a-9187-c2aa24895f43"},"vehicle_type_id":"4","last_reported":1745655092,"current_range_meters":8400,"station_id":"","pricing_plan_id":"cebpf4jnsgd1na2vs0mg"},{"bike_id":"c3377b8f-007f-40f4-941a-437fea66d7c3","system_id":"levelo_inurba_marseille","lat":43.27187,"lon":5.40997,"is_reserved":false,"is_disabled":false,"rental_uris":{"android":"levelo://app?vid=c3377b8f-007f-40f4-941a-437fea66d7c3","ios":"levelo://app?vid=c3377b8f-007f-40f4-941a-437fea66d7c3"},"vehicle_type_id":"4","last_reported":1745655092,"current_range_meters":8800,"station_id":"ce4bhl12rcd13ifvqgf0","pricing_plan_id":"cebpf4jnsgd1na2vs0mg"},{"bike_id":"1079c254-2598-4178-bcad-9f660c87e9b1","system_id":"levelo_inurba_marseille","lat":43.31277,"lon":5.40165,"is_reserved":false,"is_disabled":false,"rental_uris":{"android":"levelo://app?vid=1079c254-2598-4178-bcad-9f660c87e9b1","ios":"levelo://app?vid=1079c254-2598-4178-bcad-9f660c87e9b1"},"vehicle_type_id":"4","last_reported":1745655092,"current_range_meters":8800,"station_id":"ce4bh092rcd13ifvqd30","pricing_plan_id":"cebpf4jnsgd1na2vs0mg"},{"bike_id":"9ba56409-9fc3-4c96-9672-1b6fd6ebe158","system_id":"levelo_inurba_marseille","lat":43.30145,"lon":5.39876,"is_reserved":false,"is_disabled":false,"rental_uris":{"android":"levelo://app?vid=9ba56409-9fc3-4c96-9672-1b6fd6ebe158","ios":"levelo://app?vid=9ba56409-9fc3-4c96-9672-1b6fd6ebe158"},"vehicle_type_id":"4","last_reported":1745655092,"current_range_meters":8800,"station_id":"ce4bh0h2rcd13ifvqd40","pricing_plan_id":"cebpf4jnsgd1na2vs0mg"},{"bike_id":"5c8dde23-03af-4ec7-8c64-b6a7b95cfa5a","system_id":"levelo_inurba_marseille","lat":43.33749,"lon":5.39181,"is_reserved":false,"is_disabled":false,"rental_uris":{"android":"levelo://app?vid=5c8dde23-03af-4ec7-8c64-b6a7b95cfa5a","ios":"levelo://app?vid=5c8dde23-03af-4ec7-8c64-b6a7b95cfa5a"},"vehicle_type_id":"4","last_reported":1745655092,"current_range_meters":8800,"station_id":"ce4bhr92rcd13ifvqhsg","pricing_plan_id":"cebpf4jnsgd1na2vs0mg"},{"bike_id":"242b9938-dbe9-4415-90d8-bebad8ab56f1","system_id":"levelo_inurba_marseille","lat":43.34141,"lon":5.40907,"is_reserved":false,"is_disabled":false,"rental_uris":{"android":"levelo://app?vid=242b9938-dbe9-4415-90d8-bebad8ab56f1","ios":"levelo://app?vid=242b9938-dbe9-4415-90d8-bebad8ab56f1"},"vehicle_type_id":"4","last_reported":1745655092,"current_range_meters":9200,"station_id":"ce4bhqh2rcd13ifvqhlg","pricing_plan_id":"cebpf4jnsgd1na2vs0mg"},{"bike_id":"eba80cac-49a3-43c0-b27f-65d7a86f1a53","system_id":"levelo_inurba_marseille","lat":43.3119,"lon":5.37731,"is_reserved":false,"is_disabled":false,"rental_uris":{"android":"levelo://app?vid=eba80cac-49a3-43c0-b27f-65d7a86f1a53","ios":"levelo://app?vid=eba80cac-49a3-43c0-b27f-65d7a86f1a53"},"vehicle_type_id":"4","last_reported":1745655092,"current_range_meters":9200,"station_id":"","pricing_plan_id":"cebpf4jnsgd1na2vs0mg"},{"bike_id":"51376682-930e-45ed-90e0-b53d931ddc33","system_id":"levelo_inurba_marseille","lat":43.2749,"lon":5.42448,"is_reserved":false,"is_disabled":false,"rental_uris":{"android":"levelo://app?vid=51376682-930e-45ed-90e0-b53d931ddc33","ios":"levelo://app?vid=51376682-930e-45ed-90e0-b53d931ddc33"},"vehicle_type_id":"4","last_reported":1745655092,"current_range_meters":9200,"station_id":"ce4bhn92rcd13ifvqgrg","pricing_plan_id":"cebpf4jnsgd1na2vs0mg"},{"bike_id":"eded3793-cc62-4e91-9520-2c8f282347df","system_id":"levelo_inurba_marseille","lat":43.29622,"lon":5.37137,"is_reserved":false,"is_disabled":false,"rental_uris":{"android":"levelo://app?vid=eded3793-cc62-4e91-9520-2c8f282347df","ios":"levelo://app?vid=eded3793-cc62-4e91-9520-2c8f282347df"},"vehicle_type_id":"4","last_reported":1745655092,"current_range_meters":9200,"station_id":"ce4bgnh2rcd13ifvqc0g","pricing_plan_id":"cebpf4jnsgd1na2vs0mg"},{"bike_id":"fde99686-d5be-4d44-b1ef-f89be61e1a30","system_id":"levelo_inurba_marseille","lat":43.29184,"lon":5.35797,"is_reserved":false,"is_disabled":false,"rental_uris":{"android":"levelo://app?vid=fde99686-d5be-4d44-b1ef-f89be61e1a30","ios":"levelo://app?vid=fde99686-d5be-4d44-b1ef-f89be61e1a30"},"vehicle_type_id":"4","last_reported":1745655092,"current_range_meters":9200,"station_id":"ce4bhb12rcd13ifvqel0","pricing_plan_id":"cebpf4jnsgd1na2vs0mg"},{"bike_id":"8ee8ddcf-b329-40ae-aad8-a703f60c6f36","system_id":"levelo_inurba_marseille","lat":43.27373,"lon":5.36247,"is_reserved":false,"is_disabled":false,"rental_uris":{"android":"levelo://app?vid=8ee8ddcf-b329-40ae-aad8-a703f60c6f36","ios":"levelo://app?vid=8ee8ddcf-b329-40ae-aad8-a703f60c6f36"},"vehicle_type_id":"4","last_reported":1745655092,"current_range_meters":9200,"station_id":"ce4bhbh2rcd13ifvqeo0","pricing_plan_id":"cebpf4jnsgd1na2vs0mg"},{"bike_id":"b0ee9a1d-7b8a-4efb-bf61-ca32e693e2f5","system_id":"levelo_inurba_marseille","lat":43.27502,"lon":5.42443,"is_reserved":false,"is_disabled":false,"rental_uris":{"android":"levelo://app?vid=b0ee9a1d-7b8a-4efb-bf61-ca32e693e2f5","ios":"levelo://app?vid=b0ee9a1d-7b8a-4efb-bf61-ca32e693e2f5"},"vehicle_type_id":"4","last_reported":1745655092,"current_range_meters":9200,"station_id":"ce4bhn92rcd13ifvqgrg","pricing_plan_id":"cebpf4jnsgd1na2vs0mg"},{"bike_id":"18be3b25-7248-451f-8d39-63f6a4960b11","system_id":"levelo_inurba_marseille","lat":43.296,"lon":5.37709,"is_reserved":false,"is_disabled":true,"rental_uris":{"android":"levelo://app?vid=18be3b25-7248-451f-8d39-63f6a4960b11","ios":"levelo://app?vid=18be3b25-7248-451f-8d39-63f6a4960b11"},"vehicle_type_id":"4","last_reported":1745655092,"current_range_meters":9600,"station_id":"ce4bgi92rcd13ifvqb90","pricing_plan_id":"cebpf4jnsgd1na2vs0mg"},{"bike_id":"f0fd56ac-913c-452e-90c7-f366c7bdebef","system_id":"levelo_inurba_marseille","lat":43.308933,"lon":5.396644,"is_reserved":false,"is_disabled":false,"rental_uris":{"android":"levelo://app?vid=f0fd56ac-913c-452e-90c7-f366c7bdebef","ios":"levelo://app?vid=f0fd56ac-913c-452e-90c7-f366c7bdebef"},"vehicle_type_id":"4","last_reported":1745655092,"current_range_meters":9600,"station_id":"ce4bh012rcd13ifvqcv0","pricing_plan_id":"cebpf4jnsgd1na2vs0mg"},{"bike_id":"7d8d69b2-0147-4031-958f-236ac2917414","system_id":"levelo_inurba_marseille","lat":43.2929,"lon":5.36862,"is_reserved":false,"is_disabled":true,"rental_uris":{"android":"levelo://app?vid=7d8d69b2-0147-4031-958f-236ac2917414","ios":"levelo://app?vid=7d8d69b2-0147-4031-958f-236ac2917414"},"vehicle_type_id":"4","last_reported":1745655092,"current_range_meters":9600,"station_id":"ce4bhbp2rcd13ifvqesg","pricing_plan_id":"cebpf4jnsgd1na2vs0mg"},{"bike_id":"4c11ff0f-a579-4f78-9960-a443174b0bdd","system_id":"levelo_inurba_marseille","lat":43.211876,"lon":5.350748,"is_reserved":false,"is_disabled":false,"rental_uris":{"android":"levelo://app?vid=4c11ff0f-a579-4f78-9960-a443174b0bdd","ios":"levelo://app?vid=4c11ff0f-a579-4f78-9960-a443174b0bdd"},"vehicle_type_id":"4","last_reported":1745655092,"current_range_meters":9600,"station_id":"st_cvj6sg6p6f1abm77japg","pricing_plan_id":"cebpf4jnsgd1na2vs0mg"},{"bike_id":"58f9dab2-fdd9-4903-99d6-4847b2770a37","system_id":"levelo_inurba_marseille","lat":43.27491,"lon":5.42464,"is_reserved":false,"is_disabled":true,"rental_uris":{"android":"levelo://app?vid=58f9dab2-fdd9-4903-99d6-4847b2770a37","ios":"levelo://app?vid=58f9dab2-fdd9-4903-99d6-4847b2770a37"},"vehicle_type_id":"4","last_reported":1745655092,"current_range_meters":9600,"station_id":"ce4bhn92rcd13ifvqgrg","pricing_plan_id":"cebpf4jnsgd1na2vs0mg"},{"bike_id":"e2dcabcf-64d8-4394-bb9a-ff877bee611a","system_id":"levelo_inurba_marseille","lat":43.32049,"lon":5.4151,"is_reserved":false,"is_disabled":false,"rental_uris":{"android":"levelo://app?vid=e2dcabcf-64d8-4394-bb9a-ff877bee611a","ios":"levelo://app?vid=e2dcabcf-64d8-4394-bb9a-ff877bee611a"},"vehicle_type_id":"4","last_reported":1745655092,"current_range_meters":10000,"station_id":"ce4bhq92rcd13ifvqhkg","pricing_plan_id":"cebpf4jnsgd1na2vs0mg"},{"bike_id":"78a0a8b0-519f-47ad-a7a8-aa518cde87b6","system_id":"levelo_inurba_marseille","lat":43.30473,"lon":5.37905,"is_reserved":false,"is_disabled":false,"rental_uris":{"android":"levelo://app?vid=78a0a8b0-519f-47ad-a7a8-aa518cde87b6","ios":"levelo://app?vid=78a0a8b0-519f-47ad-a7a8-aa518cde87b6"},"vehicle_type_id":"4","last_reported":1745655092,"current_range_meters":10000,"station_id":"ce4bgup2rcd13ifvqcn0","pricing_plan_id":"cebpf4jnsgd1na2vs0mg"},{"bike_id":"218c94c5-e028-4aa3-81d2-276afc924773","system_id":"levelo_inurba_marseille","lat":43.27371,"lon":5.36252,"is_reserved":false,"is_disabled":false,"rental_uris":{"android":"levelo://app?vid=218c94c5-e028-4aa3-81d2-276afc924773","ios":"levelo://app?vid=218c94c5-e028-4aa3-81d2-276afc924773"},"vehicle_type_id":"4","last_reported":1745655092,"current_range_meters":10000,"station_id":"ce4bhbh2rcd13ifvqeo0","pricing_plan_id":"cebpf4jnsgd1na2vs0mg"},{"bike_id":"1c34b467-aa8f-499c-8094-34a6b8d35e87","system_id":"levelo_inurba_marseille","lat":43.30156,"lon":5.380805,"is_reserved":false,"is_disabled":false,"rental_uris":{"android":"levelo://app?vid=1c34b467-aa8f-499c-8094-34a6b8d35e87","ios":"levelo://app?vid=1c34b467-aa8f-499c-8094-34a6b8d35e87"},"vehicle_type_id":"4","last_reported":1745655092,"current_range_meters":10000,"station_id":"ce4bgjp2rcd13ifvqbh0","pricing_plan_id":"cebpf4jnsgd1na2vs0mg"},{"bike_id":"c39614a5-07de-4530-aba8-6df7a38d52ce","system_id":"levelo_inurba_marseille","lat":43.31289,"lon":5.40177,"is_reserved":false,"is_disabled":false,"rental_uris":{"android":"levelo://app?vid=c39614a5-07de-4530-aba8-6df7a38d52ce","ios":"levelo://app?vid=c39614a5-07de-4530-aba8-6df7a38d52ce"},"vehicle_type_id":"4","last_reported":1745655092,"current_range_meters":10000,"station_id":"ce4bh092rcd13ifvqd30","pricing_plan_id":"cebpf4jnsgd1na2vs0mg"},{"bike_id":"3f9c3cd7-5c19-493a-8404-1db86da8fcc7","system_id":"levelo_inurba_marseille","lat":43.33608,"lon":5.40977,"is_reserved":false,"is_disabled":false,"rental_uris":{"android":"levelo://app?vid=3f9c3cd7-5c19-493a-8404-1db86da8fcc7","ios":"levelo://app?vid=3f9c3cd7-5c19-493a-8404-1db86da8fcc7"},"vehicle_type_id":"4","last_reported":1745655092,"current_range_meters":10800,"station_id":"ce4bhqh2rcd13ifvqhmg","pricing_plan_id":"cebpf4jnsgd1na2vs0mg"},{"bike_id":"1f847a2d-3bbc-49b8-b41d-daa9377c3cd3","system_id":"levelo_inurba_marseille","lat":43.231809,"lon":5.399921,"is_reserved":false,"is_disabled":false,"rental_uris":{"android":"levelo://app?vid=1f847a2d-3bbc-49b8-b41d-daa9377c3cd3","ios":"levelo://app?vid=1f847a2d-3bbc-49b8-b41d-daa9377c3cd3"},"vehicle_type_id":"4","last_reported":1745655092,"current_range_meters":10800,"station_id":"ce4bhn12rcd13ifvqgqg","pricing_plan_id":"cebpf4jnsgd1na2vs0mg"},{"bike_id":"f77a929f-13ce-4ad3-b37b-030e100178ba","system_id":"levelo_inurba_marseille","lat":43.25977,"lon":5.40877,"is_reserved":false,"is_disabled":false,"rental_uris":{"android":"levelo://app?vid=f77a929f-13ce-4ad3-b37b-030e100178ba","ios":"levelo://app?vid=f77a929f-13ce-4ad3-b37b-030e100178ba"},"vehicle_type_id":"4","last_reported":1745655092,"current_range_meters":10800,"station_id":"ce4bhm92rcd13ifvqglg","pricing_plan_id":"cebpf4jnsgd1na2vs0mg"},{"bike_id":"568053e1-9183-4cee-acca-959027493876","system_id":"levelo_inurba_marseille","lat":43.30901,"lon":5.36851,"is_reserved":false,"is_disabled":false,"rental_uris":{"android":"levelo://app?vid=568053e1-9183-4cee-acca-959027493876","ios":"levelo://app?vid=568053e1-9183-4cee-acca-959027493876"},"vehicle_type_id":"4","last_reported":1745655092,"current_range_meters":11200,"station_id":"ce4bgn92rcd13ifvqbvg","pricing_plan_id":"cebpf4jnsgd1na2vs0mg"},{"bike_id":"ee4c36cb-c492-4552-ba80-5494b966c738","system_id":"levelo_inurba_marseille","lat":43.24388,"lon":5.37066,"is_reserved":false,"is_disabled":false,"rental_uris":{"android":"levelo://app?vid=ee4c36cb-c492-4552-ba80-5494b966c738","ios":"levelo://app?vid=ee4c36cb-c492-4552-ba80-5494b966c738"},"vehicle_type_id":"4","last_reported":1745655092,"current_range_meters":10800,"station_id":"ce4bhhh2rcd13ifvqfk0","pricing_plan_id":"cebpf4jnsgd1na2vs0mg"},{"bike_id":"939223a3-c984-4d03-9ece-0449cc141fee","system_id":"levelo_inurba_marseille","lat":43.31129,"lon":5.37775,"is_reserved":false,"is_disabled":false,"rental_uris":{"android":"levelo://app?vid=939223a3-c984-4d03-9ece-0449cc141fee","ios":"levelo://app?vid=939223a3-c984-4d03-9ece-0449cc141fee"},"vehicle_type_id":"4","last_reported":1745655092,"current_range_meters":11200,"station_id":"ce4bgt92rcd13ifvqcg0","pricing_plan_id":"cebpf4jnsgd1na2vs0mg"},{"bike_id":"b337b47e-e0c0-40c3-878a-37e58bb44305","system_id":"levelo_inurba_marseille","lat":43.31162,"lon":5.40784,"is_reserved":false,"is_disabled":false,"rental_uris":{"android":"levelo://app?vid=b337b47e-e0c0-40c3-878a-37e58bb44305","ios":"levelo://app?vid=b337b47e-e0c0-40c3-878a-37e58bb44305"},"vehicle_type_id":"4","last_reported":1745655092,"current_range_meters":11600,"station_id":"","pricing_plan_id":"cebpf4jnsgd1na2vs0mg"},{"bike_id":"b4fbbd83-1dbc-4edd-b531-ebdb78c6626d","system_id":"levelo_inurba_marseille","lat":43.32672,"lon":5.4099,"is_reserved":false,"is_disabled":false,"rental_uris":{"android":"levelo://app?vid=b4fbbd83-1dbc-4edd-b531-ebdb78c6626d","ios":"levelo://app?vid=b4fbbd83-1dbc-4edd-b531-ebdb78c6626d"},"vehicle_type_id":"4","last_reported":1745655092,"current_range_meters":11600,"station_id":"ce4bhpp2rcd13ifvqhgg","pricing_plan_id":"cebpf4jnsgd1na2vs0mg"},{"bike_id":"49a5be0b-2b23-4d57-a2bd-3a5d802fab0b","system_id":"levelo_inurba_marseille","lat":43.28996,"lon":5.35607,"is_reserved":false,"is_disabled":true,"rental_uris":{"android":"levelo://app?vid=49a5be0b-2b23-4d57-a2bd-3a5d802fab0b","ios":"levelo://app?vid=49a5be0b-2b23-4d57-a2bd-3a5d802fab0b"},"vehicle_type_id":"4","last_reported":1745655092,"current_range_meters":11600,"station_id":"ce4bhb92rcd13ifvqen0","pricing_plan_id":"cebpf4jnsgd1na2vs0mg"},{"bike_id":"b2511a21-a10e-4a23-a72f-37faa4d8515c","system_id":"levelo_inurba_marseille","lat":43.21747,"lon":5.34604,"is_reserved":false,"is_disabled":false,"rental_uris":{"android":"levelo://app?vid=b2511a21-a10e-4a23-a72f-37faa4d8515c","ios":"levelo://app?vid=b2511a21-a10e-4a23-a72f-37faa4d8515c"},"vehicle_type_id":"4","last_reported":1745655092,"current_range_meters":12000,"station_id":"ce4bhnp2rcd13ifvqgvg","pricing_plan_id":"cebpf4jnsgd1na2vs0mg"},{"bike_id":"502a718c-bdbc-4a5f-89a9-1474695dd8aa","system_id":"levelo_inurba_marseille","lat":43.30684,"lon":5.40087,"is_reserved":false,"is_disabled":false,"rental_uris":{"android":"levelo://app?vid=502a718c-bdbc-4a5f-89a9-1474695dd8aa","ios":"levelo://app?vid=502a718c-bdbc-4a5f-89a9-1474695dd8aa"},"vehicle_type_id":"4","last_reported":1745655092,"current_range_meters":12000,"station_id":"ce4bh112rcd13ifvqda0","pricing_plan_id":"cebpf4jnsgd1na2vs0mg"},{"bike_id":"af6af1ea-83a0-4448-a6b9-d143557f7290","system_id":"levelo_inurba_marseille","lat":43.270173,"lon":5.4022,"is_reserved":false,"is_disabled":true,"rental_uris":{"android":"levelo://app?vid=af6af1ea-83a0-4448-a6b9-d143557f7290","ios":"levelo://app?vid=af6af1ea-83a0-4448-a6b9-d143557f7290"},"vehicle_type_id":"4","last_reported":1745655092,"current_range_meters":12000,"station_id":"","pricing_plan_id":"cebpf4jnsgd1na2vs0mg"},{"bike_id":"262de007-d0f9-4b5c-9db4-1c829c9329a9","system_id":"levelo_inurba_marseille","lat":43.279437,"lon":5.410406,"is_reserved":false,"is_disabled":false,"rental_uris":{"android":"levelo://app?vid=262de007-d0f9-4b5c-9db4-1c829c9329a9","ios":"levelo://app?vid=262de007-d0f9-4b5c-9db4-1c829c9329a9"},"vehicle_type_id":"4","last_reported":1745655092,"current_range_meters":12000,"station_id":"ce4bhnp2rcd13ifvqh0g","pricing_plan_id":"cebpf4jnsgd1na2vs0mg"},{"bike_id":"d97e6852-3f35-438b-a9aa-4eb11ba0240d","system_id":"levelo_inurba_marseille","lat":43.309512,"lon":5.390314,"is_reserved":false,"is_disabled":false,"rental_uris":{"android":"levelo://app?vid=d97e6852-3f35-438b-a9aa-4eb11ba0240d","ios":"levelo://app?vid=d97e6852-3f35-438b-a9aa-4eb11ba0240d"},"vehicle_type_id":"4","last_reported":1745655092,"current_range_meters":12000,"station_id":"ce4bh4p2rcd13ifvqe1g","pricing_plan_id":"cebpf4jnsgd1na2vs0mg"},{"bike_id":"7d0ba233-86ba-44c3-9826-d15ee909987f","system_id":"levelo_inurba_marseille","lat":43.25123,"lon":5.40309,"is_reserved":false,"is_disabled":false,"rental_uris":{"android":"levelo://app?vid=7d0ba233-86ba-44c3-9826-d15ee909987f","ios":"levelo://app?vid=7d0ba233-86ba-44c3-9826-d15ee909987f"},"vehicle_type_id":"4","last_reported":1745655092,"current_range_meters":12000,"station_id":"ce4bhlh2rcd13ifvqgig","pricing_plan_id":"cebpf4jnsgd1na2vs0mg"},{"bike_id":"7c799cf1-9919-4f59-bde2-ea860bf8d95f","system_id":"levelo_inurba_marseille","lat":43.23194,"lon":5.35553,"is_reserved":false,"is_disabled":true,"rental_uris":{"android":"levelo://app?vid=7c799cf1-9919-4f59-bde2-ea860bf8d95f","ios":"levelo://app?vid=7c799cf1-9919-4f59-bde2-ea860bf8d95f"},"vehicle_type_id":"4","last_reported":1745655092,"current_range_meters":12000,"station_id":"ce4bhu92rcd13ifvqi70","pricing_plan_id":"cebpf4jnsgd1na2vs0mg"},{"bike_id":"13f83d69-19fe-4415-9968-e262ae035ed8","system_id":"levelo_inurba_marseille","lat":43.27996,"lon":5.4001,"is_reserved":false,"is_disabled":false,"rental_uris":{"android":"levelo://app?vid=13f83d69-19fe-4415-9968-e262ae035ed8","ios":"levelo://app?vid=13f83d69-19fe-4415-9968-e262ae035ed8"},"vehicle_type_id":"4","last_reported":1745655092,"current_range_meters":12000,"station_id":"ce4bho92rcd13ifvqh4g","pricing_plan_id":"cebpf4jnsgd1na2vs0mg"},{"bike_id":"59435061-5e1b-4910-b226-2025dd87e457","system_id":"levelo_inurba_marseille","lat":43.24385,"lon":5.37047,"is_reserved":false,"is_disabled":false,"rental_uris":{"android":"levelo://app?vid=59435061-5e1b-4910-b226-2025dd87e457","ios":"levelo://app?vid=59435061-5e1b-4910-b226-2025dd87e457"},"vehicle_type_id":"4","last_reported":1745655092,"current_range_meters":12400,"station_id":"ce4bhhh2rcd13ifvqfk0","pricing_plan_id":"cebpf4jnsgd1na2vs0mg"},{"bike_id":"c6e1947c-39e1-4976-af29-af53a713b327","system_id":"levelo_inurba_marseille","lat":43.32357,"lon":5.38886,"is_reserved":false,"is_disabled":false,"rental_uris":{"android":"levelo://app?vid=c6e1947c-39e1-4976-af29-af53a713b327","ios":"levelo://app?vid=c6e1947c-39e1-4976-af29-af53a713b327"},"vehicle_type_id":"4","last_reported":1745655092,"current_range_meters":12400,"station_id":"ce4bhqp2rcd13ifvqhog","pricing_plan_id":"cebpf4jnsgd1na2vs0mg"},{"bike_id":"ff7503c7-e600-4fe8-bf44-48f05e59da45","system_id":"levelo_inurba_marseille","lat":43.32359,"lon":5.3888,"is_reserved":false,"is_disabled":false,"rental_uris":{"android":"levelo://app?vid=ff7503c7-e600-4fe8-bf44-48f05e59da45","ios":"levelo://app?vid=ff7503c7-e600-4fe8-bf44-48f05e59da45"},"vehicle_type_id":"4","last_reported":1745655092,"current_range_meters":12400,"station_id":"ce4bhqp2rcd13ifvqhog","pricing_plan_id":"cebpf4jnsgd1na2vs0mg"},{"bike_id":"987d7900-bb2a-45cb-bed7-6d69f6fd4fa3","system_id":"levelo_inurba_marseille","lat":43.28496,"lon":5.38443,"is_reserved":false,"is_disabled":false,"rental_uris":{"android":"levelo://app?vid=987d7900-bb2a-45cb-bed7-6d69f6fd4fa3","ios":"levelo://app?vid=987d7900-bb2a-45cb-bed7-6d69f6fd4fa3"},"vehicle_type_id":"4","last_reported":1745655092,"current_range_meters":12400,"station_id":"ce4bh512rcd13ifvqe3g","pricing_plan_id":"cebpf4jnsgd1na2vs0mg"},{"bike_id":"f85fe752-f922-407c-9833-c0851c5df29e","system_id":"levelo_inurba_marseille","lat":43.28518,"lon":5.38437,"is_reserved":false,"is_disabled":false,"rental_uris":{"android":"levelo://app?vid=f85fe752-f922-407c-9833-c0851c5df29e","ios":"levelo://app?vid=f85fe752-f922-407c-9833-c0851c5df29e"},"vehicle_type_id":"4","last_reported":1745655092,"current_range_meters":12400,"station_id":"ce4bh512rcd13ifvqe3g","pricing_plan_id":"cebpf4jnsgd1na2vs0mg"},{"bike_id":"9df9f6ac-6519-42f4-a16d-1e9ef635e1cb","system_id":"levelo_inurba_marseille","lat":43.21197,"lon":5.35074,"is_reserved":false,"is_disabled":false,"rental_uris":{"android":"levelo://app?vid=9df9f6ac-6519-42f4-a16d-1e9ef635e1cb","ios":"levelo://app?vid=9df9f6ac-6519-42f4-a16d-1e9ef635e1cb"},"vehicle_type_id":"4","last_reported":1745655092,"current_range_meters":12800,"station_id":"","pricing_plan_id":"cebpf4jnsgd1na2vs0mg"},{"bike_id":"8aa5bde6-741b-4e1d-bede-e6106635c2d9","system_id":"levelo_inurba_marseille","lat":43.33605,"lon":5.40994,"is_reserved":false,"is_disabled":false,"rental_uris":{"android":"levelo://app?vid=8aa5bde6-741b-4e1d-bede-e6106635c2d9","ios":"levelo://app?vid=8aa5bde6-741b-4e1d-bede-e6106635c2d9"},"vehicle_type_id":"4","last_reported":1745655092,"current_range_meters":12800,"station_id":"ce4bhqh2rcd13ifvqhmg","pricing_plan_id":"cebpf4jnsgd1na2vs0mg"},{"bike_id":"c20a056f-a5dd-4f14-90c3-3e93d76bf146","system_id":"levelo_inurba_marseille","lat":43.26784,"lon":5.3942,"is_reserved":false,"is_disabled":false,"rental_uris":{"android":"levelo://app?vid=c20a056f-a5dd-4f14-90c3-3e93d76bf146","ios":"levelo://app?vid=c20a056f-a5dd-4f14-90c3-3e93d76bf146"},"vehicle_type_id":"4","last_reported":1745655092,"current_range_meters":12800,"station_id":"ce4bhh12rcd13ifvqfg0","pricing_plan_id":"cebpf4jnsgd1na2vs0mg"},{"bike_id":"7e949cfe-decd-4288-8ce8-5c40a8a0a449","system_id":"levelo_inurba_marseille","lat":43.24077,"lon":5.37751,"is_reserved":false,"is_disabled":false,"rental_uris":{"android":"levelo://app?vid=7e949cfe-decd-4288-8ce8-5c40a8a0a449","ios":"levelo://app?vid=7e949cfe-decd-4288-8ce8-5c40a8a0a449"},"vehicle_type_id":"4","last_reported":1745655092,"current_range_meters":12800,"station_id":"ce4bhnp2rcd13ifvqgvg","pricing_plan_id":"cebpf4jnsgd1na2vs0mg"},{"bike_id":"fdbe3e4c-6069-4e16-9ae7-cb790fcbdb9e","system_id":"levelo_inurba_marseille","lat":43.24673,"lon":5.38161,"is_reserved":false,"is_disabled":false,"rental_uris":{"android":"levelo://app?vid=fdbe3e4c-6069-4e16-9ae7-cb790fcbdb9e","ios":"levelo://app?vid=fdbe3e4c-6069-4e16-9ae7-cb790fcbdb9e"},"vehicle_type_id":"4","last_reported":1745655092,"current_range_meters":13600,"station_id":"ce4bhih2rcd13ifvqfr0","pricing_plan_id":"cebpf4jnsgd1na2vs0mg"},{"bike_id":"97fbe862-3dc4-4ded-9569-7540ceeeffb5","system_id":"levelo_inurba_marseille","lat":43.3361,"lon":5.41024,"is_reserved":false,"is_disabled":false,"rental_uris":{"android":"levelo://app?vid=97fbe862-3dc4-4ded-9569-7540ceeeffb5","ios":"levelo://app?vid=97fbe862-3dc4-4ded-9569-7540ceeeffb5"},"vehicle_type_id":"4","last_reported":1745655092,"current_range_meters":13600,"station_id":"ce4bhqh2rcd13ifvqhmg","pricing_plan_id":"cebpf4jnsgd1na2vs0mg"},{"bike_id":"4b9eee1f-ccee-4e54-9b90-52fd84d49751","system_id":"levelo_inurba_marseille","lat":43.30135,"lon":5.3805,"is_reserved":false,"is_disabled":false,"rental_uris":{"android":"levelo://app?vid=4b9eee1f-ccee-4e54-9b90-52fd84d49751","ios":"levelo://app?vid=4b9eee1f-ccee-4e54-9b90-52fd84d49751"},"vehicle_type_id":"4","last_reported":1745655092,"current_range_meters":13600,"station_id":"ce4bgjp2rcd13ifvqbh0","pricing_plan_id":"cebpf4jnsgd1na2vs0mg"},{"bike_id":"53ee7972-7064-4321-8512-ae59c5929bdb","system_id":"levelo_inurba_marseille","lat":43.29543,"lon":5.3752,"is_reserved":false,"is_disabled":false,"rental_uris":{"android":"levelo://app?vid=53ee7972-7064-4321-8512-ae59c5929bdb","ios":"levelo://app?vid=53ee7972-7064-4321-8512-ae59c5929bdb"},"vehicle_type_id":"4","last_reported":1745655092,"current_range_meters":14000,"station_id":"ce4bgkp2rcd13ifvqbmg","pricing_plan_id":"cebpf4jnsgd1na2vs0mg"},{"bike_id":"3226391f-905a-4ad7-a0a4-910529847fc9","system_id":"levelo_inurba_marseille","lat":43.29557,"lon":5.37511,"is_reserved":false,"is_disabled":false,"rental_uris":{"android":"levelo://app?vid=3226391f-905a-4ad7-a0a4-910529847fc9","ios":"levelo://app?vid=3226391f-905a-4ad7-a0a4-910529847fc9"},"vehicle_type_id":"4","last_reported":1745655092,"current_range_meters":14000,"station_id":"ce4bgh92rcd13ifvqb50","pricing_plan_id":"cebpf4jnsgd1na2vs0mg"},{"bike_id":"86082c5a-74ec-45ee-9bbd-681fdfc8da73","system_id":"levelo_inurba_marseille","lat":43.23983,"lon":5.36622,"is_reserved":false,"is_disabled":false,"rental_uris":{"android":"levelo://app?vid=86082c5a-74ec-45ee-9bbd-681fdfc8da73","ios":"levelo://app?vid=86082c5a-74ec-45ee-9bbd-681fdfc8da73"},"vehicle_type_id":"4","last_reported":1745655092,"current_range_meters":14000,"station_id":"ce4bhi12rcd13ifvqfp0","pricing_plan_id":"cebpf4jnsgd1na2vs0mg"},{"bike_id":"51a4b1f4-4cfb-4b9e-b7e6-50254ee4c796","system_id":"levelo_inurba_marseille","lat":43.28616,"lon":5.37054,"is_reserved":false,"is_disabled":false,"rental_uris":{"android":"levelo://app?vid=51a4b1f4-4cfb-4b9e-b7e6-50254ee4c796","ios":"levelo://app?vid=51a4b1f4-4cfb-4b9e-b7e6-50254ee4c796"},"vehicle_type_id":"4","last_reported":1745655092,"current_range_meters":14000,"station_id":"ce4bht12rcd13ifvqi60","pricing_plan_id":"cebpf4jnsgd1na2vs0mg"},{"bike_id":"0db145f8-fa17-43e5-af49-e3c2ea77c5f4","system_id":"levelo_inurba_marseille","lat":43.30581,"lon":5.37185,"is_reserved":false,"is_disabled":false,"rental_uris":{"android":"levelo://app?vid=0db145f8-fa17-43e5-af49-e3c2ea77c5f4","ios":"levelo://app?vid=0db145f8-fa17-43e5-af49-e3c2ea77c5f4"},"vehicle_type_id":"4","last_reported":1745655092,"current_range_meters":14400,"station_id":"ce4bgqh2rcd13ifvqc4g","pricing_plan_id":"cebpf4jnsgd1na2vs0mg"},{"bike_id":"e6dd51ac-2075-47cd-ad99-bcf7ffe96cb9","system_id":"levelo_inurba_marseille","lat":43.21195,"lon":5.35076,"is_reserved":false,"is_disabled":false,"rental_uris":{"android":"levelo://app?vid=e6dd51ac-2075-47cd-ad99-bcf7ffe96cb9","ios":"levelo://app?vid=e6dd51ac-2075-47cd-ad99-bcf7ffe96cb9"},"vehicle_type_id":"4","last_reported":1745655092,"current_range_meters":14400,"station_id":"st_cvj6sg6p6f1abm77japg","pricing_plan_id":"cebpf4jnsgd1na2vs0mg"},{"bike_id":"96733886-38eb-4a8b-9470-0c4bf645e97a","system_id":"levelo_inurba_marseille","lat":43.27951,"lon":5.41047,"is_reserved":false,"is_disabled":false,"rental_uris":{"android":"levelo://app?vid=96733886-38eb-4a8b-9470-0c4bf645e97a","ios":"levelo://app?vid=96733886-38eb-4a8b-9470-0c4bf645e97a"},"vehicle_type_id":"4","last_reported":1745655092,"current_range_meters":14800,"station_id":"ce4bhnp2rcd13ifvqh0g","pricing_plan_id":"cebpf4jnsgd1na2vs0mg"},{"bike_id":"f0ff19c2-cbf5-4852-bfe8-1207ae67f84f","system_id":"levelo_inurba_marseille","lat":43.24167,"lon":5.36396,"is_reserved":false,"is_disabled":false,"rental_uris":{"android":"levelo://app?vid=f0ff19c2-cbf5-4852-bfe8-1207ae67f84f","ios":"levelo://app?vid=f0ff19c2-cbf5-4852-bfe8-1207ae67f84f"},"vehicle_type_id":"4","last_reported":1745655092,"current_range_meters":14800,"station_id":"cpo36qri1sfpv3e86is0","pricing_plan_id":"cebpf4jnsgd1na2vs0mg"},{"bike_id":"100a6271-089d-4a49-91ea-252661ba9720","system_id":"levelo_inurba_marseille","lat":43.27061,"lon":5.40258,"is_reserved":false,"is_disabled":false,"rental_uris":{"android":"levelo://app?vid=100a6271-089d-4a49-91ea-252661ba9720","ios":"levelo://app?vid=100a6271-089d-4a49-91ea-252661ba9720"},"vehicle_type_id":"4","last_reported":1745655092,"current_range_meters":14800,"station_id":"ce4bhk92rcd13ifvqgc0","pricing_plan_id":"cebpf4jnsgd1na2vs0mg"},{"bike_id":"540e73f3-f5fe-4af6-8cf8-7c93cbc816e3","system_id":"levelo_inurba_marseille","lat":43.3011,"lon":5.39054,"is_reserved":false,"is_disabled":true,"rental_uris":{"android":"levelo://app?vid=540e73f3-f5fe-4af6-8cf8-7c93cbc816e3","ios":"levelo://app?vid=540e73f3-f5fe-4af6-8cf8-7c93cbc816e3"},"vehicle_type_id":"4","last_reported":1745655092,"current_range_meters":14800,"station_id":"ce4bh192rcd13ifvqdb0","pricing_plan_id":"cebpf4jnsgd1na2vs0mg"},{"bike_id":"efcb91a0-a551-4bb7-a2c9-dc06d9ff1256","system_id":"levelo_inurba_marseille","lat":43.28703,"lon":5.37397,"is_reserved":false,"is_disabled":false,"rental_uris":{"android":"levelo://app?vid=efcb91a0-a551-4bb7-a2c9-dc06d9ff1256","ios":"levelo://app?vid=efcb91a0-a551-4bb7-a2c9-dc06d9ff1256"},"vehicle_type_id":"4","last_reported":1745655092,"current_range_meters":14800,"station_id":"ce4bh3p2rcd13ifvqdq0","pricing_plan_id":"cebpf4jnsgd1na2vs0mg"},{"bike_id":"8540d997-a425-4997-bf7f-e7bdafb08fc8","system_id":"levelo_inurba_marseille","lat":43.30293,"lon":5.39198,"is_reserved":false,"is_disabled":false,"rental_uris":{"android":"levelo://app?vid=8540d997-a425-4997-bf7f-e7bdafb08fc8","ios":"levelo://app?vid=8540d997-a425-4997-bf7f-e7bdafb08fc8"},"vehicle_type_id":"4","last_reported":1745655092,"current_range_meters":14800,"station_id":"ce4bgkh2rcd13ifvqbk0","pricing_plan_id":"cebpf4jnsgd1na2vs0mg"},{"bike_id":"971434f3-6702-4e89-99a9-ad485fc50f08","system_id":"levelo_inurba_marseille","lat":43.2996,"lon":5.38511,"is_reserved":false,"is_disabled":false,"rental_uris":{"android":"levelo://app?vid=971434f3-6702-4e89-99a9-ad485fc50f08","ios":"levelo://app?vid=971434f3-6702-4e89-99a9-ad485fc50f08"},"vehicle_type_id":"4","last_reported":1745655092,"current_range_meters":14800,"station_id":"ce4bgj92rcd13ifvqbd0","pricing_plan_id":"cebpf4jnsgd1na2vs0mg"},{"bike_id":"15c22e02-e834-47aa-837d-585bd9d25c84","system_id":"levelo_inurba_marseille","lat":43.297858,"lon":5.381093,"is_reserved":false,"is_disabled":false,"rental_uris":{"android":"levelo://app?vid=15c22e02-e834-47aa-837d-585bd9d25c84","ios":"levelo://app?vid=15c22e02-e834-47aa-837d-585bd9d25c84"},"vehicle_type_id":"4","last_reported":1745655092,"current_range_meters":14800,"station_id":"ce4bh492rcd13ifvqdvg","pricing_plan_id":"cebpf4jnsgd1na2vs0mg"},{"bike_id":"4046a82f-66e8-4b55-bd0a-356edea772d8","system_id":"levelo_inurba_marseille","lat":43.30775,"lon":5.37389,"is_reserved":false,"is_disabled":false,"rental_uris":{"android":"levelo://app?vid=4046a82f-66e8-4b55-bd0a-356edea772d8","ios":"levelo://app?vid=4046a82f-66e8-4b55-bd0a-356edea772d8"},"vehicle_type_id":"4","last_reported":1745655092,"current_range_meters":15200,"station_id":"","pricing_plan_id":"cebpf4jnsgd1na2vs0mg"},{"bike_id":"ab157b9a-f413-4283-9896-461bb1b27942","system_id":"levelo_inurba_marseille","lat":43.33032,"lon":5.39032,"is_reserved":false,"is_disabled":false,"rental_uris":{"android":"levelo://app?vid=ab157b9a-f413-4283-9896-461bb1b27942","ios":"levelo://app?vid=ab157b9a-f413-4283-9896-461bb1b27942"},"vehicle_type_id":"4","last_reported":1745655092,"current_range_meters":15200,"station_id":"ce4bhr92rcd13ifvqhrg","pricing_plan_id":"cebpf4jnsgd1na2vs0mg"},{"bike_id":"d28bf9af-5868-40cf-bc78-dd7cb5c022b5","system_id":"levelo_inurba_marseille","lat":43.29973,"lon":5.38502,"is_reserved":false,"is_disabled":false,"rental_uris":{"android":"levelo://app?vid=d28bf9af-5868-40cf-bc78-dd7cb5c022b5","ios":"levelo://app?vid=d28bf9af-5868-40cf-bc78-dd7cb5c022b5"},"vehicle_type_id":"4","last_reported":1745655092,"current_range_meters":15200,"station_id":"ce4bgj92rcd13ifvqbd0","pricing_plan_id":"cebpf4jnsgd1na2vs0mg"},{"bike_id":"ca376395-5bab-49ac-a88b-03ed7986b1fc","system_id":"levelo_inurba_marseille","lat":43.25914,"lon":5.40877,"is_reserved":false,"is_disabled":false,"rental_uris":{"android":"levelo://app?vid=ca376395-5bab-49ac-a88b-03ed7986b1fc","ios":"levelo://app?vid=ca376395-5bab-49ac-a88b-03ed7986b1fc"},"vehicle_type_id":"4","last_reported":1745655092,"current_range_meters":15200,"station_id":"ce4bhm92rcd13ifvqglg","pricing_plan_id":"cebpf4jnsgd1na2vs0mg"},{"bike_id":"a18b32af-837e-4f1b-a9b1-f47fdb463774","system_id":"levelo_inurba_marseille","lat":43.33608,"lon":5.40993,"is_reserved":false,"is_disabled":false,"rental_uris":{"android":"levelo://app?vid=a18b32af-837e-4f1b-a9b1-f47fdb463774","ios":"levelo://app?vid=a18b32af-837e-4f1b-a9b1-f47fdb463774"},"vehicle_type_id":"4","last_reported":1745655092,"current_range_meters":16000,"station_id":"ce4bhqh2rcd13ifvqhmg","pricing_plan_id":"cebpf4jnsgd1na2vs0mg"},{"bike_id":"3e1ad8a3-a958-4d00-9a56-262625ea8d0f","system_id":"levelo_inurba_marseille","lat":43.28031,"lon":5.36949,"is_reserved":false,"is_disabled":false,"rental_uris":{"android":"levelo://app?vid=3e1ad8a3-a958-4d00-9a56-262625ea8d0f","ios":"levelo://app?vid=3e1ad8a3-a958-4d00-9a56-262625ea8d0f"},"vehicle_type_id":"4","last_reported":1745655092,"current_range_meters":16000,"station_id":"ce4bha12rcd13ifvqef0","pricing_plan_id":"cebpf4jnsgd1na2vs0mg"},{"bike_id":"2ba4348b-9691-4c31-9df6-2407088f84e2","system_id":"levelo_inurba_marseille","lat":43.28613,"lon":5.35091,"is_reserved":false,"is_disabled":false,"rental_uris":{"android":"levelo://app?vid=2ba4348b-9691-4c31-9df6-2407088f84e2","ios":"levelo://app?vid=2ba4348b-9691-4c31-9df6-2407088f84e2"},"vehicle_type_id":"4","last_reported":1745655092,"current_range_meters":16000,"station_id":"ce4bhch2rcd13ifvqeug","pricing_plan_id":"cebpf4jnsgd1na2vs0mg"},{"bike_id":"9ec84eaf-427e-4adb-b8f4-612704b7caf8","system_id":"levelo_inurba_marseille","lat":43.29533,"lon":5.37501,"is_reserved":false,"is_disabled":false,"rental_uris":{"android":"levelo://app?vid=9ec84eaf-427e-4adb-b8f4-612704b7caf8","ios":"levelo://app?vid=9ec84eaf-427e-4adb-b8f4-612704b7caf8"},"vehicle_type_id":"4","last_reported":1745655092,"current_range_meters":16000,"station_id":"ce4bgkp2rcd13ifvqbmg","pricing_plan_id":"cebpf4jnsgd1na2vs0mg"},{"bike_id":"13d452e5-1cae-4c4a-9e20-732e3eed22e9","system_id":"levelo_inurba_marseille","lat":43.2358,"lon":5.40312,"is_reserved":false,"is_disabled":false,"rental_uris":{"android":"levelo://app?vid=13d452e5-1cae-4c4a-9e20-732e3eed22e9","ios":"levelo://app?vid=13d452e5-1cae-4c4a-9e20-732e3eed22e9"},"vehicle_type_id":"4","last_reported":1745655092,"current_range_meters":16000,"station_id":"","pricing_plan_id":"cebpf4jnsgd1na2vs0mg"},{"bike_id":"dddc405f-b2d2-447f-8255-f175193c2de5","system_id":"levelo_inurba_marseille","lat":43.32102,"lon":5.36768,"is_reserved":false,"is_disabled":false,"rental_uris":{"android":"levelo://app?vid=dddc405f-b2d2-447f-8255-f175193c2de5","ios":"levelo://app?vid=dddc405f-b2d2-447f-8255-f175193c2de5"},"vehicle_type_id":"4","last_reported":1745655092,"current_range_meters":16000,"station_id":"ce4bhrh2rcd13ifvqhug","pricing_plan_id":"cebpf4jnsgd1na2vs0mg"},{"bike_id":"5fdc0623-6c76-4064-a69a-27e877e94ecd","system_id":"levelo_inurba_marseille","lat":43.30788,"lon":5.37651,"is_reserved":false,"is_disabled":false,"rental_uris":{"android":"levelo://app?vid=5fdc0623-6c76-4064-a69a-27e877e94ecd","ios":"levelo://app?vid=5fdc0623-6c76-4064-a69a-27e877e94ecd"},"vehicle_type_id":"4","last_reported":1745655092,"current_range_meters":16000,"station_id":"","pricing_plan_id":"cebpf4jnsgd1na2vs0mg"},{"bike_id":"08361f15-a042-435d-b65b-7568cb2fed56","system_id":"levelo_inurba_marseille","lat":43.25934,"lon":5.40893,"is_reserved":false,"is_disabled":false,"rental_uris":{"android":"levelo://app?vid=08361f15-a042-435d-b65b-7568cb2fed56","ios":"levelo://app?vid=08361f15-a042-435d-b65b-7568cb2fed56"},"vehicle_type_id":"4","last_reported":1745655092,"current_range_meters":16400,"station_id":"ce4bhm92rcd13ifvqglg","pricing_plan_id":"cebpf4jnsgd1na2vs0mg"},{"bike_id":"817017a8-06d7-4168-a9c7-63b6ced6925a","system_id":"levelo_inurba_marseille","lat":43.31485,"lon":5.37291,"is_reserved":false,"is_disabled":false,"rental_uris":{"android":"levelo://app?vid=817017a8-06d7-4168-a9c7-63b6ced6925a","ios":"levelo://app?vid=817017a8-06d7-4168-a9c7-63b6ced6925a"},"vehicle_type_id":"4","last_reported":1745655092,"current_range_meters":16400,"station_id":"ce4bgt12rcd13ifvqcd0","pricing_plan_id":"cebpf4jnsgd1na2vs0mg"},{"bike_id":"bc2652db-32ee-450e-8cc0-005a02c1f054","system_id":"levelo_inurba_marseille","lat":43.21211,"lon":5.35079,"is_reserved":false,"is_disabled":false,"rental_uris":{"android":"levelo://app?vid=bc2652db-32ee-450e-8cc0-005a02c1f054","ios":"levelo://app?vid=bc2652db-32ee-450e-8cc0-005a02c1f054"},"vehicle_type_id":"4","last_reported":1745655092,"current_range_meters":16400,"station_id":"st_cvj6sg6p6f1abm77japg","pricing_plan_id":"cebpf4jnsgd1na2vs0mg"},{"bike_id":"4741e6af-20c0-42f4-b950-4d85a1b8cba0","system_id":"levelo_inurba_marseille","lat":43.30821,"lon":5.3788,"is_reserved":false,"is_disabled":false,"rental_uris":{"android":"levelo://app?vid=4741e6af-20c0-42f4-b950-4d85a1b8cba0","ios":"levelo://app?vid=4741e6af-20c0-42f4-b950-4d85a1b8cba0"},"vehicle_type_id":"4","last_reported":1745655092,"current_range_meters":16400,"station_id":"","pricing_plan_id":"cebpf4jnsgd1na2vs0mg"},{"bike_id":"592cf560-01ed-4d83-a182-4ff2cfa13202","system_id":"levelo_inurba_marseille","lat":43.25866,"lon":5.39894,"is_reserved":false,"is_disabled":false,"rental_uris":{"android":"levelo://app?vid=592cf560-01ed-4d83-a182-4ff2cfa13202","ios":"levelo://app?vid=592cf560-01ed-4d83-a182-4ff2cfa13202"},"vehicle_type_id":"4","last_reported":1745655092,"current_range_meters":16400,"station_id":"ce4bhl92rcd13ifvqghg","pricing_plan_id":"cebpf4jnsgd1na2vs0mg"},{"bike_id":"1153cc30-939c-4389-a9ca-ceff2d9a97ee","system_id":"levelo_inurba_marseille","lat":43.3017,"lon":5.38067,"is_reserved":false,"is_disabled":false,"rental_uris":{"android":"levelo://app?vid=1153cc30-939c-4389-a9ca-ceff2d9a97ee","ios":"levelo://app?vid=1153cc30-939c-4389-a9ca-ceff2d9a97ee"},"vehicle_type_id":"4","last_reported":1745655092,"current_range_meters":16800,"station_id":"ce4bgjp2rcd13ifvqbh0","pricing_plan_id":"cebpf4jnsgd1na2vs0mg"},{"bike_id":"5cb5fa24-52ea-420d-ba8f-f3e9de6bfd03","system_id":"levelo_inurba_marseille","lat":43.26687,"lon":5.38275,"is_reserved":false,"is_disabled":false,"rental_uris":{"android":"levelo://app?vid=5cb5fa24-52ea-420d-ba8f-f3e9de6bfd03","ios":"levelo://app?vid=5cb5fa24-52ea-420d-ba8f-f3e9de6bfd03"},"vehicle_type_id":"4","last_reported":1745655092,"current_range_meters":16800,"station_id":"ce4bhg92rcd13ifvqf90","pricing_plan_id":"cebpf4jnsgd1na2vs0mg"},{"bike_id":"2bd20dc1-c64e-48a5-854d-83ccf4b9b583","system_id":"levelo_inurba_marseille","lat":43.290243,"lon":5.381273,"is_reserved":false,"is_disabled":false,"rental_uris":{"android":"levelo://app?vid=2bd20dc1-c64e-48a5-854d-83ccf4b9b583","ios":"levelo://app?vid=2bd20dc1-c64e-48a5-854d-83ccf4b9b583"},"vehicle_type_id":"4","last_reported":1745655092,"current_range_meters":16800,"station_id":"ce4bh4p2rcd13ifvqe1g","pricing_plan_id":"cebpf4jnsgd1na2vs0mg"},{"bike_id":"b1c9db00-e3b6-4644-a6ed-281db3cb6a30","system_id":"levelo_inurba_marseille","lat":43.30211,"lon":5.43784,"is_reserved":false,"is_disabled":false,"rental_uris":{"android":"levelo://app?vid=b1c9db00-e3b6-4644-a6ed-281db3cb6a30","ios":"levelo://app?vid=b1c9db00-e3b6-4644-a6ed-281db3cb6a30"},"vehicle_type_id":"4","last_reported":1745655092,"current_range_meters":16800,"station_id":"","pricing_plan_id":"cebpf4jnsgd1na2vs0mg"},{"bike_id":"29f9e921-698d-4054-bde4-c87fb4a9fbbf","system_id":"levelo_inurba_marseille","lat":43.30865,"lon":5.39667,"is_reserved":false,"is_disabled":false,"rental_uris":{"android":"levelo://app?vid=29f9e921-698d-4054-bde4-c87fb4a9fbbf","ios":"levelo://app?vid=29f9e921-698d-4054-bde4-c87fb4a9fbbf"},"vehicle_type_id":"4","last_reported":1745655092,"current_range_meters":16800,"station_id":"ce4bh012rcd13ifvqcv0","pricing_plan_id":"cebpf4jnsgd1na2vs0mg"},{"bike_id":"55e463c2-e9b2-4adf-8e24-41c0314c1879","system_id":"levelo_inurba_marseille","lat":43.24074,"lon":5.37766,"is_reserved":false,"is_disabled":false,"rental_uris":{"android":"levelo://app?vid=55e463c2-e9b2-4adf-8e24-41c0314c1879","ios":"levelo://app?vid=55e463c2-e9b2-4adf-8e24-41c0314c1879"},"vehicle_type_id":"4","last_reported":1745655092,"current_range_meters":17200,"station_id":"ce4bhnp2rcd13ifvqgvg","pricing_plan_id":"cebpf4jnsgd1na2vs0mg"},{"bike_id":"a532dd2c-fcc6-478c-b327-adc7001484eb","system_id":"levelo_inurba_marseille","lat":43.26559,"lon":5.37286,"is_reserved":false,"is_disabled":false,"rental_uris":{"android":"levelo://app?vid=a532dd2c-fcc6-478c-b327-adc7001484eb","ios":"levelo://app?vid=a532dd2c-fcc6-478c-b327-adc7001484eb"},"vehicle_type_id":"4","last_reported":1745655092,"current_range_meters":17200,"station_id":"ce4bhg12rcd13ifvqf70","pricing_plan_id":"cebpf4jnsgd1na2vs0mg"},{"bike_id":"2e0b03eb-130b-450b-885f-24ae769758bd","system_id":"levelo_inurba_marseille","lat":43.30384,"lon":5.42483,"is_reserved":false,"is_disabled":false,"rental_uris":{"android":"levelo://app?vid=2e0b03eb-130b-450b-885f-24ae769758bd","ios":"levelo://app?vid=2e0b03eb-130b-450b-885f-24ae769758bd"},"vehicle_type_id":"4","last_reported":1745655092,"current_range_meters":17600,"station_id":"ce4bhoh2rcd13ifvqh6g","pricing_plan_id":"cebpf4jnsgd1na2vs0mg"},{"bike_id":"3c8dc355-6f2d-43ac-a424-3315ca690958","system_id":"levelo_inurba_marseille","lat":43.3129,"lon":5.40156,"is_reserved":false,"is_disabled":false,"rental_uris":{"android":"levelo://app?vid=3c8dc355-6f2d-43ac-a424-3315ca690958","ios":"levelo://app?vid=3c8dc355-6f2d-43ac-a424-3315ca690958"},"vehicle_type_id":"4","last_reported":1745655092,"current_range_meters":17600,"station_id":"ce4bh092rcd13ifvqd30","pricing_plan_id":"cebpf4jnsgd1na2vs0mg"},{"bike_id":"564067e7-4119-405c-9a0f-71542ec5e400","system_id":"levelo_inurba_marseille","lat":43.30145,"lon":5.38765,"is_reserved":false,"is_disabled":false,"rental_uris":{"android":"levelo://app?vid=564067e7-4119-405c-9a0f-71542ec5e400","ios":"levelo://app?vid=564067e7-4119-405c-9a0f-71542ec5e400"},"vehicle_type_id":"4","last_reported":1745655092,"current_range_meters":17600,"station_id":"ce4bghh2rcd13ifvqb60","pricing_plan_id":"cebpf4jnsgd1na2vs0mg"},{"bike_id":"1504a7b4-3c2b-41cd-85cd-57aa88641e7e","system_id":"levelo_inurba_marseille","lat":43.29713,"lon":5.36616,"is_reserved":false,"is_disabled":false,"rental_uris":{"android":"levelo://app?vid=1504a7b4-3c2b-41cd-85cd-57aa88641e7e","ios":"levelo://app?vid=1504a7b4-3c2b-41cd-85cd-57aa88641e7e"},"vehicle_type_id":"4","last_reported":1745655092,"current_range_meters":17600,"station_id":"","pricing_plan_id":"cebpf4jnsgd1na2vs0mg"},{"bike_id":"cf38f4d4-af02-4094-a3c8-697a59ea556d","system_id":"levelo_inurba_marseille","lat":43.23185,"lon":5.40003,"is_reserved":false,"is_disabled":false,"rental_uris":{"android":"levelo://app?vid=cf38f4d4-af02-4094-a3c8-697a59ea556d","ios":"levelo://app?vid=cf38f4d4-af02-4094-a3c8-697a59ea556d"},"vehicle_type_id":"4","last_reported":1745655092,"current_range_meters":17600,"station_id":"ce4bhn12rcd13ifvqgqg","pricing_plan_id":"cebpf4jnsgd1na2vs0mg"},{"bike_id":"20ea6a76-0cae-4365-a9ed-ae76ff53ff94","system_id":"levelo_inurba_marseille","lat":43.29728,"lon":5.36999,"is_reserved":false,"is_disabled":false,"rental_uris":{"android":"levelo://app?vid=20ea6a76-0cae-4365-a9ed-ae76ff53ff94","ios":"levelo://app?vid=20ea6a76-0cae-4365-a9ed-ae76ff53ff94"},"vehicle_type_id":"4","last_reported":1745655092,"current_range_meters":17600,"station_id":"","pricing_plan_id":"cebpf4jnsgd1na2vs0mg"},{"bike_id":"f338b586-c95c-4003-961b-4ab2c50263be","system_id":"levelo_inurba_marseille","lat":43.31483,"lon":5.37309,"is_reserved":false,"is_disabled":false,"rental_uris":{"android":"levelo://app?vid=f338b586-c95c-4003-961b-4ab2c50263be","ios":"levelo://app?vid=f338b586-c95c-4003-961b-4ab2c50263be"},"vehicle_type_id":"4","last_reported":1745655092,"current_range_meters":17600,"station_id":"ce4bgt12rcd13ifvqcd0","pricing_plan_id":"cebpf4jnsgd1na2vs0mg"},{"bike_id":"b2178132-9584-493f-8ef8-d3dc384e9c80","system_id":"levelo_inurba_marseille","lat":43.31122,"lon":5.37744,"is_reserved":false,"is_disabled":false,"rental_uris":{"android":"levelo://app?vid=b2178132-9584-493f-8ef8-d3dc384e9c80","ios":"levelo://app?vid=b2178132-9584-493f-8ef8-d3dc384e9c80"},"vehicle_type_id":"4","last_reported":1745655092,"current_range_meters":18000,"station_id":"ce4bgt92rcd13ifvqcg0","pricing_plan_id":"cebpf4jnsgd1na2vs0mg"},{"bike_id":"e10849ab-f14c-42eb-bf35-8ad4ea47ec28","system_id":"levelo_inurba_marseille","lat":43.30332,"lon":5.40426,"is_reserved":false,"is_disabled":false,"rental_uris":{"android":"levelo://app?vid=e10849ab-f14c-42eb-bf35-8ad4ea47ec28","ios":"levelo://app?vid=e10849ab-f14c-42eb-bf35-8ad4ea47ec28"},"vehicle_type_id":"4","last_reported":1745655092,"current_range_meters":18800,"station_id":"ce4bh012rcd13ifvqd10","pricing_plan_id":"cebpf4jnsgd1na2vs0mg"},{"bike_id":"1e0ac60b-e244-4f1a-948d-7791c5fa98da","system_id":"levelo_inurba_marseille","lat":43.21194,"lon":5.35067,"is_reserved":false,"is_disabled":true,"rental_uris":{"android":"levelo://app?vid=1e0ac60b-e244-4f1a-948d-7791c5fa98da","ios":"levelo://app?vid=1e0ac60b-e244-4f1a-948d-7791c5fa98da"},"vehicle_type_id":"4","last_reported":1745655092,"current_range_meters":18800,"station_id":"st_cvj6sg6p6f1abm77japg","pricing_plan_id":"cebpf4jnsgd1na2vs0mg"},{"bike_id":"3b77031f-0def-4d6f-9d1c-a24f27cd0dfc","system_id":"levelo_inurba_marseille","lat":43.278922,"lon":5.381976,"is_reserved":false,"is_disabled":false,"rental_uris":{"android":"levelo://app?vid=3b77031f-0def-4d6f-9d1c-a24f27cd0dfc","ios":"levelo://app?vid=3b77031f-0def-4d6f-9d1c-a24f27cd0dfc"},"vehicle_type_id":"4","last_reported":1745655092,"current_range_meters":18800,"station_id":"ce4bhf92rcd13ifvqf50","pricing_plan_id":"cebpf4jnsgd1na2vs0mg"},{"bike_id":"04b26d42-2391-4558-8413-de821af22ed1","system_id":"levelo_inurba_marseille","lat":43.23186,"lon":5.39994,"is_reserved":false,"is_disabled":false,"rental_uris":{"android":"levelo://app?vid=04b26d42-2391-4558-8413-de821af22ed1","ios":"levelo://app?vid=04b26d42-2391-4558-8413-de821af22ed1"},"vehicle_type_id":"4","last_reported":1745655092,"current_range_meters":18800,"station_id":"ce4bhn12rcd13ifvqgqg","pricing_plan_id":"cebpf4jnsgd1na2vs0mg"},{"bike_id":"a2f3cf16-72d4-46cc-a55d-521615226e01","system_id":"levelo_inurba_marseille","lat":43.262363,"lon":5.374734,"is_reserved":false,"is_disabled":false,"rental_uris":{"android":"levelo://app?vid=a2f3cf16-72d4-46cc-a55d-521615226e01","ios":"levelo://app?vid=a2f3cf16-72d4-46cc-a55d-521615226e01"},"vehicle_type_id":"4","last_reported":1745655092,"current_range_meters":18800,"station_id":"ce4bhg12rcd13ifvqf70","pricing_plan_id":"cebpf4jnsgd1na2vs0mg"},{"bike_id":"dd2b2ae0-7ab8-4ba1-9840-d21790cc74a8","system_id":"levelo_inurba_marseille","lat":43.303415,"lon":5.364981,"is_reserved":false,"is_disabled":false,"rental_uris":{"android":"levelo://app?vid=dd2b2ae0-7ab8-4ba1-9840-d21790cc74a8","ios":"levelo://app?vid=dd2b2ae0-7ab8-4ba1-9840-d21790cc74a8"},"vehicle_type_id":"4","last_reported":1745655092,"current_range_meters":18800,"station_id":"ce4bgs12rcd13ifvqcag","pricing_plan_id":"cebpf4jnsgd1na2vs0mg"},{"bike_id":"9d0dac49-5c04-496e-8765-981e0fe8896f","system_id":"levelo_inurba_marseille","lat":43.28468,"lon":5.384,"is_reserved":false,"is_disabled":false,"rental_uris":{"android":"levelo://app?vid=9d0dac49-5c04-496e-8765-981e0fe8896f","ios":"levelo://app?vid=9d0dac49-5c04-496e-8765-981e0fe8896f"},"vehicle_type_id":"4","last_reported":1745655092,"current_range_meters":18800,"station_id":"ce4bh512rcd13ifvqe3g","pricing_plan_id":"cebpf4jnsgd1na2vs0mg"},{"bike_id":"e5fd2f8b-5053-4df8-ac1d-23f1109f5ffc","system_id":"levelo_inurba_marseille","lat":43.24385,"lon":5.37055,"is_reserved":false,"is_disabled":false,"rental_uris":{"android":"levelo://app?vid=e5fd2f8b-5053-4df8-ac1d-23f1109f5ffc","ios":"levelo://app?vid=e5fd2f8b-5053-4df8-ac1d-23f1109f5ffc"},"vehicle_type_id":"4","last_reported":1745655092,"current_range_meters":19200,"station_id":"ce4bhhh2rcd13ifvqfk0","pricing_plan_id":"cebpf4jnsgd1na2vs0mg"},{"bike_id":"83a81c6e-e77d-46ae-bcb5-222e3e197ed3","system_id":"levelo_inurba_marseille","lat":43.30482,"lon":5.37902,"is_reserved":false,"is_disabled":true,"rental_uris":{"android":"levelo://app?vid=83a81c6e-e77d-46ae-bcb5-222e3e197ed3","ios":"levelo://app?vid=83a81c6e-e77d-46ae-bcb5-222e3e197ed3"},"vehicle_type_id":"4","last_reported":1745655092,"current_range_meters":19200,"station_id":"ce4bgup2rcd13ifvqcn0","pricing_plan_id":"cebpf4jnsgd1na2vs0mg"},{"bike_id":"a3381eee-e486-4bb3-9820-880c30db6661","system_id":"levelo_inurba_marseille","lat":43.33717,"lon":5.392,"is_reserved":false,"is_disabled":false,"rental_uris":{"android":"levelo://app?vid=a3381eee-e486-4bb3-9820-880c30db6661","ios":"levelo://app?vid=a3381eee-e486-4bb3-9820-880c30db6661"},"vehicle_type_id":"4","last_reported":1745655092,"current_range_meters":19200,"station_id":"ce4bhr92rcd13ifvqhsg","pricing_plan_id":"cebpf4jnsgd1na2vs0mg"},{"bike_id":"58529d90-0e99-4233-8c4d-b814a9ffba81","system_id":"levelo_inurba_marseille","lat":43.298004,"lon":5.404208,"is_reserved":false,"is_disabled":false,"rental_uris":{"android":"levelo://app?vid=58529d90-0e99-4233-8c4d-b814a9ffba81","ios":"levelo://app?vid=58529d90-0e99-4233-8c4d-b814a9ffba81"},"vehicle_type_id":"4","last_reported":1745655092,"current_range_meters":19200,"station_id":"ce4bh112rcd13ifvqd90","pricing_plan_id":"cebpf4jnsgd1na2vs0mg"},{"bike_id":"560f12bb-1614-4d7c-b78e-ccf5bdec9ea6","system_id":"levelo_inurba_marseille","lat":43.28461,"lon":5.35891,"is_reserved":false,"is_disabled":true,"rental_uris":{"android":"levelo://app?vid=560f12bb-1614-4d7c-b78e-ccf5bdec9ea6","ios":"levelo://app?vid=560f12bb-1614-4d7c-b78e-ccf5bdec9ea6"},"vehicle_type_id":"4","last_reported":1745655092,"current_range_meters":19200,"station_id":"ce4bhah2rcd13ifvqei0","pricing_plan_id":"cebpf4jnsgd1na2vs0mg"},{"bike_id":"a4f8b45a-18c8-41e8-899b-58733c414e8a","system_id":"levelo_inurba_marseille","lat":43.29715,"lon":5.36598,"is_reserved":false,"is_disabled":false,"rental_uris":{"android":"levelo://app?vid=a4f8b45a-18c8-41e8-899b-58733c414e8a","ios":"levelo://app?vid=a4f8b45a-18c8-41e8-899b-58733c414e8a"},"vehicle_type_id":"4","last_reported":1745655092,"current_range_meters":19200,"station_id":"","pricing_plan_id":"cebpf4jnsgd1na2vs0mg"},{"bike_id":"746bae85-4858-430c-a66c-3e9dae83241e","system_id":"levelo_inurba_marseille","lat":43.30931,"lon":5.40146,"is_reserved":false,"is_disabled":false,"rental_uris":{"android":"levelo://app?vid=746bae85-4858-430c-a66c-3e9dae83241e","ios":"levelo://app?vid=746bae85-4858-430c-a66c-3e9dae83241e"},"vehicle_type_id":"4","last_reported":1745655092,"current_range_meters":19200,"station_id":"ce4bgvp2rcd13ifvqct0","pricing_plan_id":"cebpf4jnsgd1na2vs0mg"},{"bike_id":"89bd255a-4c99-4347-a446-5521edc07582","system_id":"levelo_inurba_marseille","lat":43.27834,"lon":5.39206,"is_reserved":false,"is_disabled":true,"rental_uris":{"android":"levelo://app?vid=89bd255a-4c99-4347-a446-5521edc07582","ios":"levelo://app?vid=89bd255a-4c99-4347-a446-5521edc07582"},"vehicle_type_id":"4","last_reported":1745655092,"current_range_meters":19600,"station_id":"ce4bhjp2rcd13ifvqga0","pricing_plan_id":"cebpf4jnsgd1na2vs0mg"},{"bike_id":"0e96c8db-53ec-48cc-9089-e715927f4e1f","system_id":"levelo_inurba_marseille","lat":43.23959,"lon":5.36627,"is_reserved":false,"is_disabled":false,"rental_uris":{"android":"levelo://app?vid=0e96c8db-53ec-48cc-9089-e715927f4e1f","ios":"levelo://app?vid=0e96c8db-53ec-48cc-9089-e715927f4e1f"},"vehicle_type_id":"4","last_reported":1745655092,"current_range_meters":19600,"station_id":"ce4bhi12rcd13ifvqfp0","pricing_plan_id":"cebpf4jnsgd1na2vs0mg"},{"bike_id":"ceaf7cf9-6b79-40e4-b50b-c0f7cf539812","system_id":"levelo_inurba_marseille","lat":43.298967,"lon":5.375811,"is_reserved":false,"is_disabled":true,"rental_uris":{"android":"levelo://app?vid=ceaf7cf9-6b79-40e4-b50b-c0f7cf539812","ios":"levelo://app?vid=ceaf7cf9-6b79-40e4-b50b-c0f7cf539812"},"vehicle_type_id":"4","last_reported":1745655092,"current_range_meters":19600,"station_id":"","pricing_plan_id":"cebpf4jnsgd1na2vs0mg"},{"bike_id":"93f5cc7b-361a-44a4-bb01-09b55687fccc","system_id":"levelo_inurba_marseille","lat":43.281579,"lon":5.426467,"is_reserved":false,"is_disabled":false,"rental_uris":{"android":"levelo://app?vid=93f5cc7b-361a-44a4-bb01-09b55687fccc","ios":"levelo://app?vid=93f5cc7b-361a-44a4-bb01-09b55687fccc"},"vehicle_type_id":"4","last_reported":1745655092,"current_range_meters":19600,"station_id":"ce4bhkp2rcd13ifvqgd0","pricing_plan_id":"cebpf4jnsgd1na2vs0mg"},{"bike_id":"050f73df-bc43-4ed4-9851-7518287720fc","system_id":"levelo_inurba_marseille","lat":43.30819,"lon":5.38181,"is_reserved":false,"is_disabled":false,"rental_uris":{"android":"levelo://app?vid=050f73df-bc43-4ed4-9851-7518287720fc","ios":"levelo://app?vid=050f73df-bc43-4ed4-9851-7518287720fc"},"vehicle_type_id":"4","last_reported":1745655092,"current_range_meters":19600,"station_id":"ce4bgt12rcd13ifvqce0","pricing_plan_id":"cebpf4jnsgd1na2vs0mg"},{"bike_id":"d97bb0ae-a0a6-4b7c-b011-3e43d9fd9f55","system_id":"levelo_inurba_marseille","lat":43.2655,"lon":5.37275,"is_reserved":false,"is_disabled":false,"rental_uris":{"android":"levelo://app?vid=d97bb0ae-a0a6-4b7c-b011-3e43d9fd9f55","ios":"levelo://app?vid=d97bb0ae-a0a6-4b7c-b011-3e43d9fd9f55"},"vehicle_type_id":"4","last_reported":1745655092,"current_range_meters":20000,"station_id":"ce4bhg12rcd13ifvqf70","pricing_plan_id":"cebpf4jnsgd1na2vs0mg"},{"bike_id":"c2afd97f-df2b-4bbd-a07b-2b7b9d12cbfb","system_id":"levelo_inurba_marseille","lat":43.294168,"lon":5.386178,"is_reserved":false,"is_disabled":false,"rental_uris":{"android":"levelo://app?vid=c2afd97f-df2b-4bbd-a07b-2b7b9d12cbfb","ios":"levelo://app?vid=c2afd97f-df2b-4bbd-a07b-2b7b9d12cbfb"},"vehicle_type_id":"4","last_reported":1745655092,"current_range_meters":20000,"station_id":"ce4bh0p2rcd13ifvqd80","pricing_plan_id":"cebpf4jnsgd1na2vs0mg"},{"bike_id":"15ef8d70-14f0-4dc5-869a-954d6f40815d","system_id":"levelo_inurba_marseille","lat":43.30184,"lon":5.38074,"is_reserved":false,"is_disabled":false,"rental_uris":{"android":"levelo://app?vid=15ef8d70-14f0-4dc5-869a-954d6f40815d","ios":"levelo://app?vid=15ef8d70-14f0-4dc5-869a-954d6f40815d"},"vehicle_type_id":"4","last_reported":1745655092,"current_range_meters":20000,"station_id":"ce4bgjp2rcd13ifvqbh0","pricing_plan_id":"cebpf4jnsgd1na2vs0mg"},{"bike_id":"ca226576-a3e0-4b7f-a208-8c8bcdb5874e","system_id":"levelo_inurba_marseille","lat":43.2598,"lon":5.4085,"is_reserved":false,"is_disabled":true,"rental_uris":{"android":"levelo://app?vid=ca226576-a3e0-4b7f-a208-8c8bcdb5874e","ios":"levelo://app?vid=ca226576-a3e0-4b7f-a208-8c8bcdb5874e"},"vehicle_type_id":"4","last_reported":1745655092,"current_range_meters":20000,"station_id":"","pricing_plan_id":"cebpf4jnsgd1na2vs0mg"},{"bike_id":"010fad4f-b84f-4825-b34b-98dce7d1cb5b","system_id":"levelo_inurba_marseille","lat":43.2911,"lon":5.38169,"is_reserved":false,"is_disabled":false,"rental_uris":{"android":"levelo://app?vid=010fad4f-b84f-4825-b34b-98dce7d1cb5b","ios":"levelo://app?vid=010fad4f-b84f-4825-b34b-98dce7d1cb5b"},"vehicle_type_id":"4","last_reported":1745655092,"current_range_meters":20400,"station_id":"ce4bh512rcd13ifvqe2g","pricing_plan_id":"cebpf4jnsgd1na2vs0mg"},{"bike_id":"01db406d-6dae-4fd3-96c3-6d0f32cb219f","system_id":"levelo_inurba_marseille","lat":43.32109,"lon":5.36717,"is_reserved":false,"is_disabled":false,"rental_uris":{"android":"levelo://app?vid=01db406d-6dae-4fd3-96c3-6d0f32cb219f","ios":"levelo://app?vid=01db406d-6dae-4fd3-96c3-6d0f32cb219f"},"vehicle_type_id":"4","last_reported":1745655092,"current_range_meters":20400,"station_id":"ce4bhrh2rcd13ifvqhug","pricing_plan_id":"cebpf4jnsgd1na2vs0mg"},{"bike_id":"6cf5ff2a-2985-4032-9bff-888552fc602b","system_id":"levelo_inurba_marseille","lat":43.306389,"lon":5.400915,"is_reserved":false,"is_disabled":true,"rental_uris":{"android":"levelo://app?vid=6cf5ff2a-2985-4032-9bff-888552fc602b","ios":"levelo://app?vid=6cf5ff2a-2985-4032-9bff-888552fc602b"},"vehicle_type_id":"4","last_reported":1745655092,"current_range_meters":20800,"station_id":"ce4bh112rcd13ifvqda0","pricing_plan_id":"cebpf4jnsgd1na2vs0mg"},{"bike_id":"bc356e07-c6ac-43e7-a3c5-5552446665e5","system_id":"levelo_inurba_marseille","lat":43.309852,"lon":5.417294,"is_reserved":false,"is_disabled":false,"rental_uris":{"android":"levelo://app?vid=bc356e07-c6ac-43e7-a3c5-5552446665e5","ios":"levelo://app?vid=bc356e07-c6ac-43e7-a3c5-5552446665e5"},"vehicle_type_id":"4","last_reported":1745655092,"current_range_meters":20800,"station_id":"","pricing_plan_id":"cebpf4jnsgd1na2vs0mg"},{"bike_id":"0d777af5-4166-475a-a6b9-6a0197032592","system_id":"levelo_inurba_marseille","lat":43.23255,"lon":5.35211,"is_reserved":false,"is_disabled":false,"rental_uris":{"android":"levelo://app?vid=0d777af5-4166-475a-a6b9-6a0197032592","ios":"levelo://app?vid=0d777af5-4166-475a-a6b9-6a0197032592"},"vehicle_type_id":"4","last_reported":1745655092,"current_range_meters":20800,"station_id":"","pricing_plan_id":"cebpf4jnsgd1na2vs0mg"},{"bike_id":"3ad35c25-d89f-4ea6-848b-393a00786d79","system_id":"levelo_inurba_marseille","lat":43.298568,"lon":5.42074,"is_reserved":false,"is_disabled":false,"rental_uris":{"android":"levelo://app?vid=3ad35c25-d89f-4ea6-848b-393a00786d79","ios":"levelo://app?vid=3ad35c25-d89f-4ea6-848b-393a00786d79"},"vehicle_type_id":"4","last_reported":1745655092,"current_range_meters":20800,"station_id":"","pricing_plan_id":"cebpf4jnsgd1na2vs0mg"},{"bike_id":"ea0ad940-c82f-4dc0-8533-e353190d30ef","system_id":"levelo_inurba_marseille","lat":43.30488,"lon":5.37914,"is_reserved":false,"is_disabled":false,"rental_uris":{"android":"levelo://app?vid=ea0ad940-c82f-4dc0-8533-e353190d30ef","ios":"levelo://app?vid=ea0ad940-c82f-4dc0-8533-e353190d30ef"},"vehicle_type_id":"4","last_reported":1745655092,"current_range_meters":20800,"station_id":"ce4bgup2rcd13ifvqcn0","pricing_plan_id":"cebpf4jnsgd1na2vs0mg"},{"bike_id":"2ebb5fa8-9ca2-4a26-8b5c-b3e1b318b4ef","system_id":"levelo_inurba_marseille","lat":43.30605,"lon":5.37228,"is_reserved":false,"is_disabled":false,"rental_uris":{"android":"levelo://app?vid=2ebb5fa8-9ca2-4a26-8b5c-b3e1b318b4ef","ios":"levelo://app?vid=2ebb5fa8-9ca2-4a26-8b5c-b3e1b318b4ef"},"vehicle_type_id":"4","last_reported":1745655092,"current_range_meters":20800,"station_id":"ce4bgqh2rcd13ifvqc4g","pricing_plan_id":"cebpf4jnsgd1na2vs0mg"},{"bike_id":"ecd604a9-9319-45d6-ba4b-1481bc2aed06","system_id":"levelo_inurba_marseille","lat":43.29533,"lon":5.3854,"is_reserved":false,"is_disabled":false,"rental_uris":{"android":"levelo://app?vid=ecd604a9-9319-45d6-ba4b-1481bc2aed06","ios":"levelo://app?vid=ecd604a9-9319-45d6-ba4b-1481bc2aed06"},"vehicle_type_id":"4","last_reported":1745655092,"current_range_meters":20800,"station_id":"ce4bgih2rcd13ifvqba0","pricing_plan_id":"cebpf4jnsgd1na2vs0mg"},{"bike_id":"d3d78dec-36c3-4aa3-aa9d-db01525dc110","system_id":"levelo_inurba_marseille","lat":43.30554,"lon":5.38417,"is_reserved":false,"is_disabled":true,"rental_uris":{"android":"levelo://app?vid=d3d78dec-36c3-4aa3-aa9d-db01525dc110","ios":"levelo://app?vid=d3d78dec-36c3-4aa3-aa9d-db01525dc110"},"vehicle_type_id":"4","last_reported":1745655092,"current_range_meters":20800,"station_id":"ce4bgg92rcd13ifvqb30","pricing_plan_id":"cebpf4jnsgd1na2vs0mg"},{"bike_id":"19b69f67-9de3-482a-bff4-9e793292032a","system_id":"levelo_inurba_marseille","lat":43.27318,"lon":5.390777,"is_reserved":false,"is_disabled":false,"rental_uris":{"android":"levelo://app?vid=19b69f67-9de3-482a-bff4-9e793292032a","ios":"levelo://app?vid=19b69f67-9de3-482a-bff4-9e793292032a"},"vehicle_type_id":"4","last_reported":1745655092,"current_range_meters":21600,"station_id":"ce4bhgp2rcd13ifvqfe0","pricing_plan_id":"cebpf4jnsgd1na2vs0mg"},{"bike_id":"32a07387-a46a-4108-8870-6755d09b57f9","system_id":"levelo_inurba_marseille","lat":43.292304,"lon":5.360692,"is_reserved":false,"is_disabled":true,"rental_uris":{"android":"levelo://app?vid=32a07387-a46a-4108-8870-6755d09b57f9","ios":"levelo://app?vid=32a07387-a46a-4108-8870-6755d09b57f9"},"vehicle_type_id":"4","last_reported":1745655092,"current_range_meters":21600,"station_id":"","pricing_plan_id":"cebpf4jnsgd1na2vs0mg"},{"bike_id":"260c60af-484b-4305-b634-401e56c7a5b7","system_id":"levelo_inurba_marseille","lat":43.28965,"lon":5.37828,"is_reserved":false,"is_disabled":false,"rental_uris":{"android":"levelo://app?vid=260c60af-484b-4305-b634-401e56c7a5b7","ios":"levelo://app?vid=260c60af-484b-4305-b634-401e56c7a5b7"},"vehicle_type_id":"4","last_reported":1745655092,"current_range_meters":21600,"station_id":"ce4bh9p2rcd13ifvqed0","pricing_plan_id":"cebpf4jnsgd1na2vs0mg"},{"bike_id":"429a2824-25d3-4e87-8865-ec398d90ebca","system_id":"levelo_inurba_marseille","lat":43.21203,"lon":5.35064,"is_reserved":false,"is_disabled":false,"rental_uris":{"android":"levelo://app?vid=429a2824-25d3-4e87-8865-ec398d90ebca","ios":"levelo://app?vid=429a2824-25d3-4e87-8865-ec398d90ebca"},"vehicle_type_id":"4","last_reported":1745655092,"current_range_meters":21600,"station_id":"st_cvj6sg6p6f1abm77japg","pricing_plan_id":"cebpf4jnsgd1na2vs0mg"},{"bike_id":"389fa13e-9fb8-4551-94cc-3437e858ed36","system_id":"levelo_inurba_marseille","lat":43.24182,"lon":5.36401,"is_reserved":false,"is_disabled":false,"rental_uris":{"android":"levelo://app?vid=389fa13e-9fb8-4551-94cc-3437e858ed36","ios":"levelo://app?vid=389fa13e-9fb8-4551-94cc-3437e858ed36"},"vehicle_type_id":"4","last_reported":1745655092,"current_range_meters":21600,"station_id":"cpo36qri1sfpv3e86is0","pricing_plan_id":"cebpf4jnsgd1na2vs0mg"},{"bike_id":"5e3a603b-847b-4ed9-8615-d67b8709fd37","system_id":"levelo_inurba_marseille","lat":43.27204,"lon":5.41017,"is_reserved":false,"is_disabled":true,"rental_uris":{"android":"levelo://app?vid=5e3a603b-847b-4ed9-8615-d67b8709fd37","ios":"levelo://app?vid=5e3a603b-847b-4ed9-8615-d67b8709fd37"},"vehicle_type_id":"4","last_reported":1745655092,"current_range_meters":21600,"station_id":"ce4bhl12rcd13ifvqgf0","pricing_plan_id":"cebpf4jnsgd1na2vs0mg"},{"bike_id":"e9d2cd4b-ede0-442d-815a-507a002509c5","system_id":"levelo_inurba_marseille","lat":43.28474,"lon":5.38559,"is_reserved":false,"is_disabled":false,"rental_uris":{"android":"levelo://app?vid=e9d2cd4b-ede0-442d-815a-507a002509c5","ios":"levelo://app?vid=e9d2cd4b-ede0-442d-815a-507a002509c5"},"vehicle_type_id":"4","last_reported":1745655092,"current_range_meters":21600,"station_id":"ce4bh8p2rcd13ifvqeb0","pricing_plan_id":"cebpf4jnsgd1na2vs0mg"},{"bike_id":"075e238f-f6a0-4429-85db-f8ba79344280","system_id":"levelo_inurba_marseille","lat":43.29567,"lon":5.38098,"is_reserved":false,"is_disabled":true,"rental_uris":{"android":"levelo://app?vid=075e238f-f6a0-4429-85db-f8ba79344280","ios":"levelo://app?vid=075e238f-f6a0-4429-85db-f8ba79344280"},"vehicle_type_id":"4","last_reported":1745655092,"current_range_meters":21600,"station_id":"ce4bgl12rcd13ifvqbo0","pricing_plan_id":"cebpf4jnsgd1na2vs0mg"},{"bike_id":"e21d7a16-f116-45a3-8a7e-a0b9a65f4fb5","system_id":"levelo_inurba_marseille","lat":43.309369,"lon":5.401491,"is_reserved":false,"is_disabled":false,"rental_uris":{"android":"levelo://app?vid=e21d7a16-f116-45a3-8a7e-a0b9a65f4fb5","ios":"levelo://app?vid=e21d7a16-f116-45a3-8a7e-a0b9a65f4fb5"},"vehicle_type_id":"4","last_reported":1745655092,"current_range_meters":22000,"station_id":"ce4bgvp2rcd13ifvqct0","pricing_plan_id":"cebpf4jnsgd1na2vs0mg"},{"bike_id":"8877945e-f469-4dd6-85c2-c9c2267e5ca4","system_id":"levelo_inurba_marseille","lat":43.23199,"lon":5.4003,"is_reserved":false,"is_disabled":true,"rental_uris":{"android":"levelo://app?vid=8877945e-f469-4dd6-85c2-c9c2267e5ca4","ios":"levelo://app?vid=8877945e-f469-4dd6-85c2-c9c2267e5ca4"},"vehicle_type_id":"4","last_reported":1745655092,"current_range_meters":22000,"station_id":"ce4bhn12rcd13ifvqgqg","pricing_plan_id":"cebpf4jnsgd1na2vs0mg"},{"bike_id":"a7c42283-50be-4297-98cf-db22ae606c9a","system_id":"levelo_inurba_marseille","lat":43.302,"lon":5.39462,"is_reserved":false,"is_disabled":false,"rental_uris":{"android":"levelo://app?vid=a7c42283-50be-4297-98cf-db22ae606c9a","ios":"levelo://app?vid=a7c42283-50be-4297-98cf-db22ae606c9a"},"vehicle_type_id":"4","last_reported":1745655092,"current_range_meters":22000,"station_id":"ce4bh0p2rcd13ifvqd70","pricing_plan_id":"cebpf4jnsgd1na2vs0mg"},{"bike_id":"990fcd7c-4b04-4873-8600-12f1ee8aae4a","system_id":"levelo_inurba_marseille","lat":43.29304,"lon":5.37167,"is_reserved":false,"is_disabled":false,"rental_uris":{"android":"levelo://app?vid=990fcd7c-4b04-4873-8600-12f1ee8aae4a","ios":"levelo://app?vid=990fcd7c-4b04-4873-8600-12f1ee8aae4a"},"vehicle_type_id":"4","last_reported":1745655092,"current_range_meters":22000,"station_id":"ce4bgh92rcd13ifvqb40","pricing_plan_id":"cebpf4jnsgd1na2vs0mg"},{"bike_id":"6c520630-0ff1-4d29-8f0e-5d6edefa3ebe","system_id":"levelo_inurba_marseille","lat":43.23173,"lon":5.39987,"is_reserved":false,"is_disabled":false,"rental_uris":{"android":"levelo://app?vid=6c520630-0ff1-4d29-8f0e-5d6edefa3ebe","ios":"levelo://app?vid=6c520630-0ff1-4d29-8f0e-5d6edefa3ebe"},"vehicle_type_id":"4","last_reported":1745655092,"current_range_meters":22000,"station_id":"ce4bhn12rcd13ifvqgqg","pricing_plan_id":"cebpf4jnsgd1na2vs0mg"},{"bike_id":"588217eb-80a6-423e-b138-35c0ab521a91","system_id":"levelo_inurba_marseille","lat":43.3021,"lon":5.39464,"is_reserved":false,"is_disabled":true,"rental_uris":{"android":"levelo://app?vid=588217eb-80a6-423e-b138-35c0ab521a91","ios":"levelo://app?vid=588217eb-80a6-423e-b138-35c0ab521a91"},"vehicle_type_id":"4","last_reported":1745655092,"current_range_meters":22000,"station_id":"ce4bh0p2rcd13ifvqd70","pricing_plan_id":"cebpf4jnsgd1na2vs0mg"},{"bike_id":"94ed6b13-3350-4fe1-8f24-fd3250919c38","system_id":"levelo_inurba_marseille","lat":43.28831,"lon":5.39318,"is_reserved":false,"is_disabled":false,"rental_uris":{"android":"levelo://app?vid=94ed6b13-3350-4fe1-8f24-fd3250919c38","ios":"levelo://app?vid=94ed6b13-3350-4fe1-8f24-fd3250919c38"},"vehicle_type_id":"4","last_reported":1745655092,"current_range_meters":22400,"station_id":"ce4bh2p2rcd13ifvqdi0","pricing_plan_id":"cebpf4jnsgd1na2vs0mg"},{"bike_id":"38f93ba4-51e6-4c10-bdeb-debf28983fab","system_id":"levelo_inurba_marseille","lat":43.231989,"lon":5.400602,"is_reserved":false,"is_disabled":false,"rental_uris":{"android":"levelo://app?vid=38f93ba4-51e6-4c10-bdeb-debf28983fab","ios":"levelo://app?vid=38f93ba4-51e6-4c10-bdeb-debf28983fab"},"vehicle_type_id":"4","last_reported":1745655092,"current_range_meters":22400,"station_id":"ce4bgj92rcd13ifvqbe0","pricing_plan_id":"cebpf4jnsgd1na2vs0mg"},{"bike_id":"020d8aa7-6492-4bcf-bdfc-830926cbdf51","system_id":"levelo_inurba_marseille","lat":43.30381,"lon":5.42484,"is_reserved":false,"is_disabled":false,"rental_uris":{"android":"levelo://app?vid=020d8aa7-6492-4bcf-bdfc-830926cbdf51","ios":"levelo://app?vid=020d8aa7-6492-4bcf-bdfc-830926cbdf51"},"vehicle_type_id":"4","last_reported":1745655092,"current_range_meters":22400,"station_id":"ce4bhoh2rcd13ifvqh6g","pricing_plan_id":"cebpf4jnsgd1na2vs0mg"},{"bike_id":"9b94fe14-c2cb-4f8e-b6d1-e77b37e69efb","system_id":"levelo_inurba_marseille","lat":43.30245,"lon":5.40066,"is_reserved":false,"is_disabled":true,"rental_uris":{"android":"levelo://app?vid=9b94fe14-c2cb-4f8e-b6d1-e77b37e69efb","ios":"levelo://app?vid=9b94fe14-c2cb-4f8e-b6d1-e77b37e69efb"},"vehicle_type_id":"4","last_reported":1745655092,"current_range_meters":22400,"station_id":"ce4bgvh2rcd13ifvqcs0","pricing_plan_id":"cebpf4jnsgd1na2vs0mg"},{"bike_id":"f8a0a276-291a-40b1-b56a-fedd3a8252a1","system_id":"levelo_inurba_marseille","lat":43.30899,"lon":5.37201,"is_reserved":false,"is_disabled":false,"rental_uris":{"android":"levelo://app?vid=f8a0a276-291a-40b1-b56a-fedd3a8252a1","ios":"levelo://app?vid=f8a0a276-291a-40b1-b56a-fedd3a8252a1"},"vehicle_type_id":"4","last_reported":1745655092,"current_range_meters":22400,"station_id":"ce4bguh2rcd13ifvqckg","pricing_plan_id":"cebpf4jnsgd1na2vs0mg"},{"bike_id":"ff98484d-67fa-46e2-846a-68cb64c1398b","system_id":"levelo_inurba_marseille","lat":43.3052,"lon":5.38414,"is_reserved":false,"is_disabled":false,"rental_uris":{"android":"levelo://app?vid=ff98484d-67fa-46e2-846a-68cb64c1398b","ios":"levelo://app?vid=ff98484d-67fa-46e2-846a-68cb64c1398b"},"vehicle_type_id":"4","last_reported":1745655092,"current_range_meters":22800,"station_id":"ce4bgg92rcd13ifvqb30","pricing_plan_id":"cebpf4jnsgd1na2vs0mg"},{"bike_id":"0ec508c1-e9ac-4b5b-b8d1-19675c98bb05","system_id":"levelo_inurba_marseille","lat":43.33035,"lon":5.39042,"is_reserved":false,"is_disabled":false,"rental_uris":{"android":"levelo://app?vid=0ec508c1-e9ac-4b5b-b8d1-19675c98bb05","ios":"levelo://app?vid=0ec508c1-e9ac-4b5b-b8d1-19675c98bb05"},"vehicle_type_id":"4","last_reported":1745655092,"current_range_meters":22800,"station_id":"ce4bhr92rcd13ifvqhrg","pricing_plan_id":"cebpf4jnsgd1na2vs0mg"},{"bike_id":"3707c2fe-4673-46dd-baae-07b85a70a8b9","system_id":"levelo_inurba_marseille","lat":43.30337,"lon":5.4042,"is_reserved":false,"is_disabled":false,"rental_uris":{"android":"levelo://app?vid=3707c2fe-4673-46dd-baae-07b85a70a8b9","ios":"levelo://app?vid=3707c2fe-4673-46dd-baae-07b85a70a8b9"},"vehicle_type_id":"4","last_reported":1745655092,"current_range_meters":22800,"station_id":"ce4bh012rcd13ifvqd10","pricing_plan_id":"cebpf4jnsgd1na2vs0mg"},{"bike_id":"fd184598-67bf-4996-9e8a-c770935d312d","system_id":"levelo_inurba_marseille","lat":43.30469,"lon":5.37898,"is_reserved":false,"is_disabled":false,"rental_uris":{"android":"levelo://app?vid=fd184598-67bf-4996-9e8a-c770935d312d","ios":"levelo://app?vid=fd184598-67bf-4996-9e8a-c770935d312d"},"vehicle_type_id":"4","last_reported":1745655092,"current_range_meters":22800,"station_id":"ce4bgup2rcd13ifvqcn0","pricing_plan_id":"cebpf4jnsgd1na2vs0mg"},{"bike_id":"084f31a2-22c7-4674-b5cf-e50efbfae989","system_id":"levelo_inurba_marseille","lat":43.26212,"lon":5.37438,"is_reserved":false,"is_disabled":false,"rental_uris":{"android":"levelo://app?vid=084f31a2-22c7-4674-b5cf-e50efbfae989","ios":"levelo://app?vid=084f31a2-22c7-4674-b5cf-e50efbfae989"},"vehicle_type_id":"4","last_reported":1745655092,"current_range_meters":23200,"station_id":"ce4bhgp2rcd13ifvqfc0","pricing_plan_id":"cebpf4jnsgd1na2vs0mg"},{"bike_id":"0c4d8ab3-9dc1-4eae-8159-83a6afc93611","system_id":"levelo_inurba_marseille","lat":43.267001,"lon":5.394741,"is_reserved":false,"is_disabled":false,"rental_uris":{"android":"levelo://app?vid=0c4d8ab3-9dc1-4eae-8159-83a6afc93611","ios":"levelo://app?vid=0c4d8ab3-9dc1-4eae-8159-83a6afc93611"},"vehicle_type_id":"4","last_reported":1745655092,"current_range_meters":23200,"station_id":"ce4bhh92rcd13ifvqfh0","pricing_plan_id":"cebpf4jnsgd1na2vs0mg"},{"bike_id":"48a0f343-4536-4f9f-9a91-bf3cc17b33cc","system_id":"levelo_inurba_marseille","lat":43.29371,"lon":5.37847,"is_reserved":false,"is_disabled":false,"rental_uris":{"android":"levelo://app?vid=48a0f343-4536-4f9f-9a91-bf3cc17b33cc","ios":"levelo://app?vid=48a0f343-4536-4f9f-9a91-bf3cc17b33cc"},"vehicle_type_id":"4","last_reported":1745655092,"current_range_meters":23200,"station_id":"ce4bgjh2rcd13ifvqbf0","pricing_plan_id":"cebpf4jnsgd1na2vs0mg"},{"bike_id":"d6999195-178c-4476-a936-af0075db78bc","system_id":"levelo_inurba_marseille","lat":43.21206,"lon":5.35076,"is_reserved":false,"is_disabled":false,"rental_uris":{"android":"levelo://app?vid=d6999195-178c-4476-a936-af0075db78bc","ios":"levelo://app?vid=d6999195-178c-4476-a936-af0075db78bc"},"vehicle_type_id":"4","last_reported":1745655092,"current_range_meters":23200,"station_id":"st_cvj6sg6p6f1abm77japg","pricing_plan_id":"cebpf4jnsgd1na2vs0mg"},{"bike_id":"d2adc353-fb2b-494f-9764-7cfe4ec6f60c","system_id":"levelo_inurba_marseille","lat":43.24662,"lon":5.3816,"is_reserved":false,"is_disabled":false,"rental_uris":{"android":"levelo://app?vid=d2adc353-fb2b-494f-9764-7cfe4ec6f60c","ios":"levelo://app?vid=d2adc353-fb2b-494f-9764-7cfe4ec6f60c"},"vehicle_type_id":"4","last_reported":1745655092,"current_range_meters":23200,"station_id":"ce4bhih2rcd13ifvqfr0","pricing_plan_id":"cebpf4jnsgd1na2vs0mg"},{"bike_id":"dccf8318-29b6-4fb5-94cb-7502af5aba3d","system_id":"levelo_inurba_marseille","lat":43.21193,"lon":5.35073,"is_reserved":false,"is_disabled":false,"rental_uris":{"android":"levelo://app?vid=dccf8318-29b6-4fb5-94cb-7502af5aba3d","ios":"levelo://app?vid=dccf8318-29b6-4fb5-94cb-7502af5aba3d"},"vehicle_type_id":"4","last_reported":1745655092,"current_range_meters":23200,"station_id":"st_cvj6sg6p6f1abm77japg","pricing_plan_id":"cebpf4jnsgd1na2vs0mg"},{"bike_id":"def74e89-babc-4048-adcb-7b2d20699087","system_id":"levelo_inurba_marseille","lat":43.29898,"lon":5.43649,"is_reserved":false,"is_disabled":false,"rental_uris":{"android":"levelo://app?vid=def74e89-babc-4048-adcb-7b2d20699087","ios":"levelo://app?vid=def74e89-babc-4048-adcb-7b2d20699087"},"vehicle_type_id":"4","last_reported":1745655092,"current_range_meters":23200,"station_id":"ce4bhpp2rcd13ifvqhfg","pricing_plan_id":"cebpf4jnsgd1na2vs0mg"},{"bike_id":"0dc6b54d-d00e-4f1f-b5ae-554620440645","system_id":"levelo_inurba_marseille","lat":43.31015,"lon":5.3697,"is_reserved":false,"is_disabled":false,"rental_uris":{"android":"levelo://app?vid=0dc6b54d-d00e-4f1f-b5ae-554620440645","ios":"levelo://app?vid=0dc6b54d-d00e-4f1f-b5ae-554620440645"},"vehicle_type_id":"4","last_reported":1745655092,"current_range_meters":23200,"station_id":"","pricing_plan_id":"cebpf4jnsgd1na2vs0mg"},{"bike_id":"5b7ec4ef-d423-41c4-96cb-1ca7bceef233","system_id":"levelo_inurba_marseille","lat":43.29925,"lon":5.3654,"is_reserved":false,"is_disabled":false,"rental_uris":{"android":"levelo://app?vid=5b7ec4ef-d423-41c4-96cb-1ca7bceef233","ios":"levelo://app?vid=5b7ec4ef-d423-41c4-96cb-1ca7bceef233"},"vehicle_type_id":"4","last_reported":1745655092,"current_range_meters":23200,"station_id":"ce4bgm92rcd13ifvqbr0","pricing_plan_id":"cebpf4jnsgd1na2vs0mg"},{"bike_id":"738bdc90-2ea1-4419-8e6f-41dd4302476b","system_id":"levelo_inurba_marseille","lat":43.298449,"lon":5.362734,"is_reserved":false,"is_disabled":false,"rental_uris":{"android":"levelo://app?vid=738bdc90-2ea1-4419-8e6f-41dd4302476b","ios":"levelo://app?vid=738bdc90-2ea1-4419-8e6f-41dd4302476b"},"vehicle_type_id":"4","last_reported":1745655092,"current_range_meters":23200,"station_id":"ce4bgpp2rcd13ifvqc3g","pricing_plan_id":"cebpf4jnsgd1na2vs0mg"},{"bike_id":"9a06afe2-e815-43c0-92a6-7e04dd7ecae3","system_id":"levelo_inurba_marseille","lat":43.240766,"lon":5.377583,"is_reserved":false,"is_disabled":false,"rental_uris":{"android":"levelo://app?vid=9a06afe2-e815-43c0-92a6-7e04dd7ecae3","ios":"levelo://app?vid=9a06afe2-e815-43c0-92a6-7e04dd7ecae3"},"vehicle_type_id":"4","last_reported":1745655092,"current_range_meters":23200,"station_id":"ce4bhnp2rcd13ifvqgvg","pricing_plan_id":"cebpf4jnsgd1na2vs0mg"},{"bike_id":"4ef37f64-3015-4d3b-a5dd-87000b6ef886","system_id":"levelo_inurba_marseille","lat":43.30426,"lon":5.39743,"is_reserved":false,"is_disabled":false,"rental_uris":{"android":"levelo://app?vid=4ef37f64-3015-4d3b-a5dd-87000b6ef886","ios":"levelo://app?vid=4ef37f64-3015-4d3b-a5dd-87000b6ef886"},"vehicle_type_id":"4","last_reported":1745655092,"current_range_meters":23200,"station_id":"ce4bh092rcd13ifvqd20","pricing_plan_id":"cebpf4jnsgd1na2vs0mg"},{"bike_id":"5652429b-2934-403e-8cbc-9d998eca8db5","system_id":"levelo_inurba_marseille","lat":43.24068,"lon":5.37767,"is_reserved":false,"is_disabled":false,"rental_uris":{"android":"levelo://app?vid=5652429b-2934-403e-8cbc-9d998eca8db5","ios":"levelo://app?vid=5652429b-2934-403e-8cbc-9d998eca8db5"},"vehicle_type_id":"4","last_reported":1745655092,"current_range_meters":23200,"station_id":"ce4bhnp2rcd13ifvqgvg","pricing_plan_id":"cebpf4jnsgd1na2vs0mg"},{"bike_id":"7223f9ed-9d66-4580-a350-ca28c74a1898","system_id":"levelo_inurba_marseille","lat":43.29571,"lon":5.37502,"is_reserved":false,"is_disabled":false,"rental_uris":{"android":"levelo://app?vid=7223f9ed-9d66-4580-a350-ca28c74a1898","ios":"levelo://app?vid=7223f9ed-9d66-4580-a350-ca28c74a1898"},"vehicle_type_id":"4","last_reported":1745655092,"current_range_meters":24000,"station_id":"ce4bgh92rcd13ifvqb50","pricing_plan_id":"cebpf4jnsgd1na2vs0mg"},{"bike_id":"32dc0434-8920-40d2-87c0-c86a687c634e","system_id":"levelo_inurba_marseille","lat":43.33594,"lon":5.40991,"is_reserved":false,"is_disabled":false,"rental_uris":{"android":"levelo://app?vid=32dc0434-8920-40d2-87c0-c86a687c634e","ios":"levelo://app?vid=32dc0434-8920-40d2-87c0-c86a687c634e"},"vehicle_type_id":"4","last_reported":1745655092,"current_range_meters":24000,"station_id":"ce4bhqh2rcd13ifvqhmg","pricing_plan_id":"cebpf4jnsgd1na2vs0mg"},{"bike_id":"2b90adc1-44b0-48de-9496-d27723c6263e","system_id":"levelo_inurba_marseille","lat":43.21198,"lon":5.35056,"is_reserved":false,"is_disabled":false,"rental_uris":{"android":"levelo://app?vid=2b90adc1-44b0-48de-9496-d27723c6263e","ios":"levelo://app?vid=2b90adc1-44b0-48de-9496-d27723c6263e"},"vehicle_type_id":"4","last_reported":1745655092,"current_range_meters":24000,"station_id":"st_cvj6sg6p6f1abm77japg","pricing_plan_id":"cebpf4jnsgd1na2vs0mg"},{"bike_id":"04247211-d7d7-476f-af03-54a75b65a7a2","system_id":"levelo_inurba_marseille","lat":43.28361,"lon":5.38096,"is_reserved":false,"is_disabled":false,"rental_uris":{"android":"levelo://app?vid=04247211-d7d7-476f-af03-54a75b65a7a2","ios":"levelo://app?vid=04247211-d7d7-476f-af03-54a75b65a7a2"},"vehicle_type_id":"4","last_reported":1745655092,"current_range_meters":24000,"station_id":"ce4bh412rcd13ifvqdr0","pricing_plan_id":"cebpf4jnsgd1na2vs0mg"},{"bike_id":"97fd7a4c-36e8-401d-b12d-1b4015a01ebe","system_id":"levelo_inurba_marseille","lat":43.26556,"lon":5.42094,"is_reserved":false,"is_disabled":false,"rental_uris":{"android":"levelo://app?vid=97fd7a4c-36e8-401d-b12d-1b4015a01ebe","ios":"levelo://app?vid=97fd7a4c-36e8-401d-b12d-1b4015a01ebe"},"vehicle_type_id":"4","last_reported":1745655092,"current_range_meters":24000,"station_id":"","pricing_plan_id":"cebpf4jnsgd1na2vs0mg"},{"bike_id":"8f99f1f9-875c-4a16-94ab-fa83509fe80e","system_id":"levelo_inurba_marseille","lat":43.24673,"lon":5.38172,"is_reserved":false,"is_disabled":false,"rental_uris":{"android":"levelo://app?vid=8f99f1f9-875c-4a16-94ab-fa83509fe80e","ios":"levelo://app?vid=8f99f1f9-875c-4a16-94ab-fa83509fe80e"},"vehicle_type_id":"4","last_reported":1745655092,"current_range_meters":24000,"station_id":"ce4bhih2rcd13ifvqfr0","pricing_plan_id":"cebpf4jnsgd1na2vs0mg"},{"bike_id":"be3cfa32-b5e9-44e8-be60-2a7178b889d0","system_id":"levelo_inurba_marseille","lat":43.24384,"lon":5.37068,"is_reserved":false,"is_disabled":false,"rental_uris":{"android":"levelo://app?vid=be3cfa32-b5e9-44e8-be60-2a7178b889d0","ios":"levelo://app?vid=be3cfa32-b5e9-44e8-be60-2a7178b889d0"},"vehicle_type_id":"4","last_reported":1745655092,"current_range_meters":23200,"station_id":"ce4bhhh2rcd13ifvqfk0","pricing_plan_id":"cebpf4jnsgd1na2vs0mg"},{"bike_id":"86072b7d-3f56-4f84-ae25-3db863e033fa","system_id":"levelo_inurba_marseille","lat":43.28564,"lon":5.39481,"is_reserved":false,"is_disabled":false,"rental_uris":{"android":"levelo://app?vid=86072b7d-3f56-4f84-ae25-3db863e033fa","ios":"levelo://app?vid=86072b7d-3f56-4f84-ae25-3db863e033fa"},"vehicle_type_id":"4","last_reported":1745655092,"current_range_meters":24000,"station_id":"ce4bh292rcd13ifvqdg0","pricing_plan_id":"cebpf4jnsgd1na2vs0mg"},{"bike_id":"f173bdc3-6bbf-4e9a-b18f-6134c30f147a","system_id":"levelo_inurba_marseille","lat":43.30421,"lon":5.41293,"is_reserved":false,"is_disabled":false,"rental_uris":{"android":"levelo://app?vid=f173bdc3-6bbf-4e9a-b18f-6134c30f147a","ios":"levelo://app?vid=f173bdc3-6bbf-4e9a-b18f-6134c30f147a"},"vehicle_type_id":"4","last_reported":1745655092,"current_range_meters":24400,"station_id":"ce4bhop2rcd13ifvqh8g","pricing_plan_id":"cebpf4jnsgd1na2vs0mg"},{"bike_id":"97c6c2cc-29e3-4c03-a4ed-3a16de84fcd3","system_id":"levelo_inurba_marseille","lat":43.30468,"lon":5.379,"is_reserved":false,"is_disabled":false,"rental_uris":{"android":"levelo://app?vid=97c6c2cc-29e3-4c03-a4ed-3a16de84fcd3","ios":"levelo://app?vid=97c6c2cc-29e3-4c03-a4ed-3a16de84fcd3"},"vehicle_type_id":"4","last_reported":1745655092,"current_range_meters":24400,"station_id":"ce4bgup2rcd13ifvqcn0","pricing_plan_id":"cebpf4jnsgd1na2vs0mg"},{"bike_id":"f39b1890-20e3-42f6-b633-056b8868fd7e","system_id":"levelo_inurba_marseille","lat":43.30481,"lon":5.37896,"is_reserved":false,"is_disabled":false,"rental_uris":{"android":"levelo://app?vid=f39b1890-20e3-42f6-b633-056b8868fd7e","ios":"levelo://app?vid=f39b1890-20e3-42f6-b633-056b8868fd7e"},"vehicle_type_id":"4","last_reported":1745655092,"current_range_meters":24400,"station_id":"ce4bgup2rcd13ifvqcn0","pricing_plan_id":"cebpf4jnsgd1na2vs0mg"},{"bike_id":"2df966ad-2ef7-47df-a76e-2dfd5afc735c","system_id":"levelo_inurba_marseille","lat":43.31114,"lon":5.37757,"is_reserved":false,"is_disabled":false,"rental_uris":{"android":"levelo://app?vid=2df966ad-2ef7-47df-a76e-2dfd5afc735c","ios":"levelo://app?vid=2df966ad-2ef7-47df-a76e-2dfd5afc735c"},"vehicle_type_id":"4","last_reported":1745655092,"current_range_meters":24400,"station_id":"ce4bgt92rcd13ifvqcg0","pricing_plan_id":"cebpf4jnsgd1na2vs0mg"},{"bike_id":"c2875753-4885-4f5c-a3b6-95438207deb5","system_id":"levelo_inurba_marseille","lat":43.288605,"lon":5.358501,"is_reserved":false,"is_disabled":false,"rental_uris":{"android":"levelo://app?vid=c2875753-4885-4f5c-a3b6-95438207deb5","ios":"levelo://app?vid=c2875753-4885-4f5c-a3b6-95438207deb5"},"vehicle_type_id":"4","last_reported":1745655092,"current_range_meters":24400,"station_id":"ce4bhb12rcd13ifvqem0","pricing_plan_id":"cebpf4jnsgd1na2vs0mg"},{"bike_id":"82c696f4-3fb9-4b07-a4c4-7e52e6e406a9","system_id":"levelo_inurba_marseille","lat":43.262201,"lon":5.374977,"is_reserved":false,"is_disabled":false,"rental_uris":{"android":"levelo://app?vid=82c696f4-3fb9-4b07-a4c4-7e52e6e406a9","ios":"levelo://app?vid=82c696f4-3fb9-4b07-a4c4-7e52e6e406a9"},