{"last_updated":1747657300,"ttl":60,"version":"2.2","data":{"bikes":[{"bike_id":"4670329d-9667-4934-9163-ccf0cb21352c","system_id":"levelo_inurba_marseille","lat":43.231554,"lon":5.437214,"is_reserved":false,"is_disabled":false,"rental_uris":{"android":"levelo://app?vid=4670329d-9667-4934-9163-ccf0cb21352c","ios":"levelo://app?vid=4670329d-9667-4934-9163-ccf0cb21352c"},"vehicle_type_id":"4","last_reported":1747657300,"current_range_meters":2800,"station_id":"","pricing_plan_id":"cebpf4jnsgd1na2vs0mg"},{"bike_id":"af123cd5-748f-45ad-8266-8c9ac1edae13","system_id":"levelo_inurba_marseille","lat":43.25726,"lon":5.41099,"is_reserved":false,"is_disabled":false,"rental_uris":{"android":"levelo://app?vid=af123cd5-748f-45ad-8266-8c9ac1edae13","ios":"levelo://app?vid=af123cd5-748f-45ad-8266-8c9ac1edae13"},"vehicle_type_id":"4","last_reported":1747657300,"current_range_meters":2800,"station_id":"ce4bhkp2rcd13ifvqgd0","pricing_plan_id":"cebpf4jnsgd1na2vs0mg"},{"bike_id":"2bd50846-5ab2-4c6d-9268-6adfa222a86d","system_id":"levelo_inurba_marseille","lat":43.28704,"lon":5.37379,"is_reserved":false,"is_disabled":false,"rental_uris":{"android":"levelo://app?vid=2bd50846-5ab2-4c6d-9268-6adfa222a86d","ios":"levelo://app?vid=2bd50846-5ab2-4c6d-9268-6adfa222a86d"},"vehicle_type_id":"4","last_reported":1747657300,"current_range_meters":2800,"station_id":"ce4bh3p2rcd13ifvqdq0","pricing_plan_id":"cebpf4jnsgd1na2vs0mg"},{"bike_id":"4727ed58-569b-4040-9278-baca875eb8a0","system_id":"levelo_inurba_marseille","lat":43.29008,"lon":5.35604,"is_reserved":false,"is_disabled":false,"rental_uris":{"android":"levelo://app?vid=4727ed58-569b-4040-9278-baca875eb8a0","ios":"levelo://app?vid=4727ed58-569b-4040-9278-baca875eb8a0"},"vehicle_type_id":"4","last_reported":1747657300,"current_range_meters":2800,"station_id":"ce4bhb92rcd13ifvqen0","pricing_plan_id":"cebpf4jnsgd1na2vs0mg"},{"bike_id":"8a0c87e7-274b-4dcb-8e59-db6fc4aaab3f","system_id":"levelo_inurba_marseille","lat":43.30098,"lon":5.39063,"is_reserved":false,"is_disabled":false,"rental_uris":{"android":"levelo://app?vid=8a0c87e7-274b-4dcb-8e59-db6fc4aaab3f","ios":"levelo://app?vid=8a0c87e7-274b-4dcb-8e59-db6fc4aaab3f"},"vehicle_type_id":"4","last_reported":1747657300,"current_range_meters":3600,"station_id":"ce4bh192rcd13ifvqdb0","pricing_plan_id":"cebpf4jnsgd1na2vs0mg"},{"bike_id":"c847deef-62b5-499b-9b1c-26590dd96e80","system_id":"levelo_inurba_marseille","lat":43.26181,"lon":5.37451,"is_reserved":false,"is_disabled":true,"rental_uris":{"android":"levelo://app?vid=c847deef-62b5-499b-9b1c-26590dd96e80","ios":"levelo://app?vid=c847deef-62b5-499b-9b1c-26590dd96e80"},"vehicle_type_id":"4","last_reported":1747657300,"current_range_meters":3600,"station_id":"ce4bhgp2rcd13ifvqfc0","pricing_plan_id":"cebpf4jnsgd1na2vs0mg"},{"bike_id":"c0db4030-ef30-480b-a735-af5435a471ed","system_id":"levelo_inurba_marseille","lat":43.27761,"lon":5.4267,"is_reserved":false,"is_disabled":false,"rental_uris":{"android":"levelo://app?vid=c0db4030-ef30-480b-a735-af5435a471ed","ios":"levelo://app?vid=c0db4030-ef30-480b-a735-af5435a471ed"},"vehicle_type_id":"4","last_reported":1747657300,"current_range_meters":4000,"station_id":"","pricing_plan_id":"cebpf4jnsgd1na2vs0mg"},{"bike_id":"621380a4-de0b-4068-964e-586195ae4ffd","system_id":"levelo_inurba_marseille","lat":43.311045,"lon":5.383883,"is_reserved":false,"is_disabled":false,"rental_uris":{"android":"levelo://app?vid=621380a4-de0b-4068-964e-586195ae4ffd","ios":"levelo://app?vid=621380a4-de0b-4068-964e-586195ae4ffd"},"vehicle_type_id":"4","last_reported":1747657300,"current_range_meters":4000,"station_id":"ce4bgv12rcd13ifvqcp0","pricing_plan_id":"cebpf4jnsgd1na2vs0mg"},{"bike_id":"2d148ab7-8ee6-44e6-b2bc-b4f9b122b976","system_id":"levelo_inurba_marseille","lat":43.24549,"lon":5.39522,"is_reserved":false,"is_disabled":false,"rental_uris":{"android":"levelo://app?vid=2d148ab7-8ee6-44e6-b2bc-b4f9b122b976","ios":"levelo://app?vid=2d148ab7-8ee6-44e6-b2bc-b4f9b122b976"},"vehicle_type_id":"4","last_reported":1747657300,"current_range_meters":4000,"station_id":"ce4bhlp2rcd13ifvqgjg","pricing_plan_id":"cebpf4jnsgd1na2vs0mg"},{"bike_id":"286303b1-f678-4389-98a5-62ce6d1db71a","system_id":"levelo_inurba_marseille","lat":43.265603,"lon":5.390093,"is_reserved":false,"is_disabled":false,"rental_uris":{"android":"levelo://app?vid=286303b1-f678-4389-98a5-62ce6d1db71a","ios":"levelo://app?vid=286303b1-f678-4389-98a5-62ce6d1db71a"},"vehicle_type_id":"4","last_reported":1747657300,"current_range_meters":4000,"station_id":"ce4bhe12rcd13ifvqf30","pricing_plan_id":"cebpf4jnsgd1na2vs0mg"},{"bike_id":"d95b1f9a-7baf-40bf-8a4e-2462f4e5c1e5","system_id":"levelo_inurba_marseille","lat":43.215669,"lon":5.346036,"is_reserved":false,"is_disabled":false,"rental_uris":{"android":"levelo://app?vid=d95b1f9a-7baf-40bf-8a4e-2462f4e5c1e5","ios":"levelo://app?vid=d95b1f9a-7baf-40bf-8a4e-2462f4e5c1e5"},"vehicle_type_id":"4","last_reported":1747657300,"current_range_meters":4400,"station_id":"st_cvj6r9ubvosntc0bgbag","pricing_plan_id":"cebpf4jnsgd1na2vs0mg"},{"bike_id":"2aeeb229-fda4-4dd4-9628-639fee4bf8d7","system_id":"levelo_inurba_marseille","lat":43.27922,"lon":5.39585,"is_reserved":false,"is_disabled":false,"rental_uris":{"android":"levelo://app?vid=2aeeb229-fda4-4dd4-9628-639fee4bf8d7","ios":"levelo://app?vid=2aeeb229-fda4-4dd4-9628-639fee4bf8d7"},"vehicle_type_id":"4","last_reported":1747657300,"current_range_meters":4800,"station_id":"","pricing_plan_id":"cebpf4jnsgd1na2vs0mg"},{"bike_id":"c32da0e6-ff19-4f93-9aae-8513e377aecf","system_id":"levelo_inurba_marseille","lat":43.27961,"lon":5.38727,"is_reserved":false,"is_disabled":false,"rental_uris":{"android":"levelo://app?vid=c32da0e6-ff19-4f93-9aae-8513e377aecf","ios":"levelo://app?vid=c32da0e6-ff19-4f93-9aae-8513e377aecf"},"vehicle_type_id":"4","last_reported":1747657300,"current_range_meters":4800,"station_id":"ce4bhg12rcd13ifvqf80","pricing_plan_id":"cebpf4jnsgd1na2vs0mg"},{"bike_id":"0fb02880-5c6e-4026-9e4a-07529c572b44","system_id":"levelo_inurba_marseille","lat":43.25466,"lon":5.37377,"is_reserved":false,"is_disabled":false,"rental_uris":{"android":"levelo://app?vid=0fb02880-5c6e-4026-9e4a-07529c572b44","ios":"levelo://app?vid=0fb02880-5c6e-4026-9e4a-07529c572b44"},"vehicle_type_id":"4","last_reported":1747657300,"current_range_meters":5600,"station_id":"","pricing_plan_id":"cebpf4jnsgd1na2vs0mg"},{"bike_id":"692da2a1-e8bb-472b-a007-2f3599bb164e","system_id":"levelo_inurba_marseille","lat":43.2941,"lon":5.38621,"is_reserved":false,"is_disabled":false,"rental_uris":{"android":"levelo://app?vid=692da2a1-e8bb-472b-a007-2f3599bb164e","ios":"levelo://app?vid=692da2a1-e8bb-472b-a007-2f3599bb164e"},"vehicle_type_id":"4","last_reported":1747657300,"current_range_meters":5600,"station_id":"ce4bh2h2rcd13ifvqdh0","pricing_plan_id":"cebpf4jnsgd1na2vs0mg"},{"bike_id":"4ff5357a-992b-44c4-8d52-511b0d87e59e","system_id":"levelo_inurba_marseille","lat":43.217529,"lon":5.346032,"is_reserved":false,"is_disabled":false,"rental_uris":{"android":"levelo://app?vid=4ff5357a-992b-44c4-8d52-511b0d87e59e","ios":"levelo://app?vid=4ff5357a-992b-44c4-8d52-511b0d87e59e"},"vehicle_type_id":"4","last_reported":1747657300,"current_range_meters":5600,"station_id":"","pricing_plan_id":"cebpf4jnsgd1na2vs0mg"},{"bike_id":"14603e41-b2dd-4757-a53c-2e366aa4f983","system_id":"levelo_inurba_marseille","lat":43.27001,"lon":5.42818,"is_reserved":false,"is_disabled":false,"rental_uris":{"android":"levelo://app?vid=14603e41-b2dd-4757-a53c-2e366aa4f983","ios":"levelo://app?vid=14603e41-b2dd-4757-a53c-2e366aa4f983"},"vehicle_type_id":"4","last_reported":1747657300,"current_range_meters":5600,"station_id":"","pricing_plan_id":"cebpf4jnsgd1na2vs0mg"},{"bike_id":"e0d1c101-fadd-496d-afb2-b138d4601288","system_id":"levelo_inurba_marseille","lat":43.29228,"lon":5.36067,"is_reserved":false,"is_disabled":false,"rental_uris":{"android":"levelo://app?vid=e0d1c101-fadd-496d-afb2-b138d4601288","ios":"levelo://app?vid=e0d1c101-fadd-496d-afb2-b138d4601288"},"vehicle_type_id":"4","last_reported":1747657300,"current_range_meters":4800,"station_id":"ce4bhbh2rcd13ifvqeqg","pricing_plan_id":"cebpf4jnsgd1na2vs0mg"},{"bike_id":"0a80dab0-019f-412e-9426-7c721bdddfca","system_id":"levelo_inurba_marseille","lat":43.24687,"lon":5.38144,"is_reserved":false,"is_disabled":false,"rental_uris":{"android":"levelo://app?vid=0a80dab0-019f-412e-9426-7c721bdddfca","ios":"levelo://app?vid=0a80dab0-019f-412e-9426-7c721bdddfca"},"vehicle_type_id":"4","last_reported":1747657300,"current_range_meters":6000,"station_id":"ce4bhih2rcd13ifvqfr0","pricing_plan_id":"cebpf4jnsgd1na2vs0mg"},{"bike_id":"fc9e6deb-76bf-4612-a0bb-1518d2c8e454","system_id":"levelo_inurba_marseille","lat":43.289297,"lon":5.396637,"is_reserved":false,"is_disabled":false,"rental_uris":{"android":"levelo://app?vid=fc9e6deb-76bf-4612-a0bb-1518d2c8e454","ios":"levelo://app?vid=fc9e6deb-76bf-4612-a0bb-1518d2c8e454"},"vehicle_type_id":"4","last_reported":1747657300,"current_range_meters":6000,"station_id":"ce4bh3h2rcd13ifvqdn0","pricing_plan_id":"cebpf4jnsgd1na2vs0mg"},{"bike_id":"38b52045-b01b-4fe3-8099-2c8bf4a4c6a7","system_id":"levelo_inurba_marseille","lat":43.29069,"lon":5.37152,"is_reserved":false,"is_disabled":false,"rental_uris":{"android":"levelo://app?vid=38b52045-b01b-4fe3-8099-2c8bf4a4c6a7","ios":"levelo://app?vid=38b52045-b01b-4fe3-8099-2c8bf4a4c6a7"},"vehicle_type_id":"4","last_reported":1747657300,"current_range_meters":6000,"station_id":"ce4bh5p2rcd13ifvqe4g","pricing_plan_id":"cebpf4jnsgd1na2vs0mg"},{"bike_id":"19414f54-bc9f-4bb8-8bbb-00bb372d7ae5","system_id":"levelo_inurba_marseille","lat":43.280741,"lon":5.396503,"is_reserved":false,"is_disabled":false,"rental_uris":{"android":"levelo://app?vid=19414f54-bc9f-4bb8-8bbb-00bb372d7ae5","ios":"levelo://app?vid=19414f54-bc9f-4bb8-8bbb-00bb372d7ae5"},"vehicle_type_id":"4","last_reported":1747657300,"current_range_meters":6000,"station_id":"ce4bho12rcd13ifvqh2g","pricing_plan_id":"cebpf4jnsgd1na2vs0mg"},{"bike_id":"93adb21e-0831-48f3-8e4e-6045d2a8de73","system_id":"levelo_inurba_marseille","lat":43.24704,"lon":5.38112,"is_reserved":false,"is_disabled":false,"rental_uris":{"android":"levelo://app?vid=93adb21e-0831-48f3-8e4e-6045d2a8de73","ios":"levelo://app?vid=93adb21e-0831-48f3-8e4e-6045d2a8de73"},"vehicle_type_id":"4","last_reported":1747657300,"current_range_meters":6400,"station_id":"","pricing_plan_id":"cebpf4jnsgd1na2vs0mg"},{"bike_id":"2eab994d-a378-4391-894b-b62d11a34041","system_id":"levelo_inurba_marseille","lat":43.23171,"lon":5.43714,"is_reserved":false,"is_disabled":true,"rental_uris":{"android":"levelo://app?vid=2eab994d-a378-4391-894b-b62d11a34041","ios":"levelo://app?vid=2eab994d-a378-4391-894b-b62d11a34041"},"vehicle_type_id":"4","last_reported":1747657300,"current_range_meters":6400,"station_id":"ce4bhmp2rcd13ifvqgog","pricing_plan_id":"cebpf4jnsgd1na2vs0mg"},{"bike_id":"5ea3f711-28a7-4fc5-8bc9-56c82d59a5ff","system_id":"levelo_inurba_marseille","lat":43.298008,"lon":5.380805,"is_reserved":false,"is_disabled":false,"rental_uris":{"android":"levelo://app?vid=5ea3f711-28a7-4fc5-8bc9-56c82d59a5ff","ios":"levelo://app?vid=5ea3f711-28a7-4fc5-8bc9-56c82d59a5ff"},"vehicle_type_id":"4","last_reported":1747657300,"current_range_meters":6800,"station_id":"","pricing_plan_id":"cebpf4jnsgd1na2vs0mg"},{"bike_id":"c7f931bd-ce6d-42cf-bb58-15bd56c54e27","system_id":"levelo_inurba_marseille","lat":43.31355,"lon":5.36696,"is_reserved":false,"is_disabled":false,"rental_uris":{"android":"levelo://app?vid=c7f931bd-ce6d-42cf-bb58-15bd56c54e27","ios":"levelo://app?vid=c7f931bd-ce6d-42cf-bb58-15bd56c54e27"},"vehicle_type_id":"4","last_reported":1747657300,"current_range_meters":7200,"station_id":"ce4bgr92rcd13ifvqc6g","pricing_plan_id":"cebpf4jnsgd1na2vs0mg"},{"bike_id":"3462472c-737f-460a-95b8-b39e71b9007e","system_id":"levelo_inurba_marseille","lat":43.28154,"lon":5.42644,"is_reserved":false,"is_disabled":false,"rental_uris":{"android":"levelo://app?vid=3462472c-737f-460a-95b8-b39e71b9007e","ios":"levelo://app?vid=3462472c-737f-460a-95b8-b39e71b9007e"},"vehicle_type_id":"4","last_reported":1747657300,"current_range_meters":7200,"station_id":"ce4bhnh2rcd13ifvqgug","pricing_plan_id":"cebpf4jnsgd1na2vs0mg"},{"bike_id":"7c2f31a5-29a4-4b38-92a3-a37e6e9acbd5","system_id":"levelo_inurba_marseille","lat":43.25714,"lon":5.41102,"is_reserved":false,"is_disabled":false,"rental_uris":{"android":"levelo://app?vid=7c2f31a5-29a4-4b38-92a3-a37e6e9acbd5","ios":"levelo://app?vid=7c2f31a5-29a4-4b38-92a3-a37e6e9acbd5"},"vehicle_type_id":"4","last_reported":1747657300,"current_range_meters":7200,"station_id":"ce4bhkp2rcd13ifvqgd0","pricing_plan_id":"cebpf4jnsgd1na2vs0mg"},{"bike_id":"9e9bf122-002d-4b2b-80cf-72cefc9e6351","system_id":"levelo_inurba_marseille","lat":43.25919,"lon":5.40892,"is_reserved":false,"is_disabled":false,"rental_uris":{"android":"levelo://app?vid=9e9bf122-002d-4b2b-80cf-72cefc9e6351","ios":"levelo://app?vid=9e9bf122-002d-4b2b-80cf-72cefc9e6351"},"vehicle_type_id":"4","last_reported":1747657300,"current_range_meters":7200,"station_id":"ce4bhm92rcd13ifvqglg","pricing_plan_id":"cebpf4jnsgd1na2vs0mg"},{"bike_id":"409c6a40-e456-45f6-a31b-f778f6459cc3","system_id":"levelo_inurba_marseille","lat":43.30639,"lon":5.40094,"is_reserved":false,"is_disabled":false,"rental_uris":{"android":"levelo://app?vid=409c6a40-e456-45f6-a31b-f778f6459cc3","ios":"levelo://app?vid=409c6a40-e456-45f6-a31b-f778f6459cc3"},"vehicle_type_id":"4","last_reported":1747657300,"current_range_meters":7200,"station_id":"ce4bh112rcd13ifvqda0","pricing_plan_id":"cebpf4jnsgd1na2vs0mg"},{"bike_id":"e619d23b-c2d5-4712-917f-92f74a738ed3","system_id":"levelo_inurba_marseille","lat":43.28721,"lon":5.37908,"is_reserved":false,"is_disabled":false,"rental_uris":{"android":"levelo://app?vid=e619d23b-c2d5-4712-917f-92f74a738ed3","ios":"levelo://app?vid=e619d23b-c2d5-4712-917f-92f74a738ed3"},"vehicle_type_id":"4","last_reported":1747657300,"current_range_meters":7200,"station_id":"ce4bh9p2rcd13ifvqec0","pricing_plan_id":"cebpf4jnsgd1na2vs0mg"},{"bike_id":"db296791-11ae-4b31-86d1-eba947259e70","system_id":"levelo_inurba_marseille","lat":43.27174,"lon":5.40995,"is_reserved":false,"is_disabled":false,"rental_uris":{"android":"levelo://app?vid=db296791-11ae-4b31-86d1-eba947259e70","ios":"levelo://app?vid=db296791-11ae-4b31-86d1-eba947259e70"},"vehicle_type_id":"4","last_reported":1747657300,"current_range_meters":7200,"station_id":"ce4bhl12rcd13ifvqgf0","pricing_plan_id":"cebpf4jnsgd1na2vs0mg"},{"bike_id":"72500806-fb42-46f5-969a-b3e0e35b0c0c","system_id":"levelo_inurba_marseille","lat":43.24807,"lon":5.37452,"is_reserved":false,"is_disabled":false,"rental_uris":{"android":"levelo://app?vid=72500806-fb42-46f5-969a-b3e0e35b0c0c","ios":"levelo://app?vid=72500806-fb42-46f5-969a-b3e0e35b0c0c"},"vehicle_type_id":"4","last_reported":1747657300,"current_range_meters":7200,"station_id":"ce4bhgh2rcd13ifvqfb0","pricing_plan_id":"cebpf4jnsgd1na2vs0mg"},{"bike_id":"2e68e997-6311-4229-a825-25836df505ad","system_id":"levelo_inurba_marseille","lat":43.30536,"lon":5.36538,"is_reserved":false,"is_disabled":false,"rental_uris":{"android":"levelo://app?vid=2e68e997-6311-4229-a825-25836df505ad","ios":"levelo://app?vid=2e68e997-6311-4229-a825-25836df505ad"},"vehicle_type_id":"4","last_reported":1747657300,"current_range_meters":7200,"station_id":"ce4bgs12rcd13ifvqcag","pricing_plan_id":"cebpf4jnsgd1na2vs0mg"},{"bike_id":"cc018874-5eea-4adb-8612-7429168adff3","system_id":"levelo_inurba_marseille","lat":43.30463,"lon":5.37905,"is_reserved":false,"is_disabled":false,"rental_uris":{"android":"levelo://app?vid=cc018874-5eea-4adb-8612-7429168adff3","ios":"levelo://app?vid=cc018874-5eea-4adb-8612-7429168adff3"},"vehicle_type_id":"4","last_reported":1747657300,"current_range_meters":8000,"station_id":"ce4bgup2rcd13ifvqcn0","pricing_plan_id":"cebpf4jnsgd1na2vs0mg"},{"bike_id":"a87f345c-9702-4e21-9146-f6944744ad6e","system_id":"levelo_inurba_marseille","lat":43.30904,"lon":5.36836,"is_reserved":false,"is_disabled":false,"rental_uris":{"android":"levelo://app?vid=a87f345c-9702-4e21-9146-f6944744ad6e","ios":"levelo://app?vid=a87f345c-9702-4e21-9146-f6944744ad6e"},"vehicle_type_id":"4","last_reported":1747657300,"current_range_meters":8000,"station_id":"ce4bgn92rcd13ifvqbvg","pricing_plan_id":"cebpf4jnsgd1na2vs0mg"},{"bike_id":"138efd0e-f712-4d55-a504-261022078e91","system_id":"levelo_inurba_marseille","lat":43.25719,"lon":5.41111,"is_reserved":false,"is_disabled":false,"rental_uris":{"android":"levelo://app?vid=138efd0e-f712-4d55-a504-261022078e91","ios":"levelo://app?vid=138efd0e-f712-4d55-a504-261022078e91"},"vehicle_type_id":"4","last_reported":1747657300,"current_range_meters":8000,"station_id":"ce4bhkp2rcd13ifvqgd0","pricing_plan_id":"cebpf4jnsgd1na2vs0mg"},{"bike_id":"1e1e6e77-8a51-427c-98ca-cc9af791fe58","system_id":"levelo_inurba_marseille","lat":43.3015,"lon":5.38078,"is_reserved":false,"is_disabled":false,"rental_uris":{"android":"levelo://app?vid=1e1e6e77-8a51-427c-98ca-cc9af791fe58","ios":"levelo://app?vid=1e1e6e77-8a51-427c-98ca-cc9af791fe58"},"vehicle_type_id":"4","last_reported":1747657300,"current_range_meters":7200,"station_id":"ce4bgjp2rcd13ifvqbh0","pricing_plan_id":"cebpf4jnsgd1na2vs0mg"},{"bike_id":"0e4be12c-830a-4cbe-bc0c-dbe3be483ab7","system_id":"levelo_inurba_marseille","lat":43.32088,"lon":5.36767,"is_reserved":false,"is_disabled":false,"rental_uris":{"android":"levelo://app?vid=0e4be12c-830a-4cbe-bc0c-dbe3be483ab7","ios":"levelo://app?vid=0e4be12c-830a-4cbe-bc0c-dbe3be483ab7"},"vehicle_type_id":"4","last_reported":1747657300,"current_range_meters":8000,"station_id":"ce4bhrh2rcd13ifvqhug","pricing_plan_id":"cebpf4jnsgd1na2vs0mg"},{"bike_id":"2b242c3d-b7e9-4f68-9034-9c6427a3626c","system_id":"levelo_inurba_marseille","lat":43.23965,"lon":5.36631,"is_reserved":false,"is_disabled":false,"rental_uris":{"android":"levelo://app?vid=2b242c3d-b7e9-4f68-9034-9c6427a3626c","ios":"levelo://app?vid=2b242c3d-b7e9-4f68-9034-9c6427a3626c"},"vehicle_type_id":"4","last_reported":1747657300,"current_range_meters":8400,"station_id":"ce4bhi12rcd13ifvqfp0","pricing_plan_id":"cebpf4jnsgd1na2vs0mg"},{"bike_id":"1941186d-c915-4c56-8a3c-307023ed2c43","system_id":"levelo_inurba_marseille","lat":43.28344,"lon":5.38105,"is_reserved":false,"is_disabled":false,"rental_uris":{"android":"levelo://app?vid=1941186d-c915-4c56-8a3c-307023ed2c43","ios":"levelo://app?vid=1941186d-c915-4c56-8a3c-307023ed2c43"},"vehicle_type_id":"4","last_reported":1747657300,"current_range_meters":8400,"station_id":"ce4bh412rcd13ifvqdr0","pricing_plan_id":"cebpf4jnsgd1na2vs0mg"},{"bike_id":"ac1d4c55-75dc-4f8a-9206-6812105189b9","system_id":"levelo_inurba_marseille","lat":43.30939,"lon":5.40141,"is_reserved":false,"is_disabled":false,"rental_uris":{"android":"levelo://app?vid=ac1d4c55-75dc-4f8a-9206-6812105189b9","ios":"levelo://app?vid=ac1d4c55-75dc-4f8a-9206-6812105189b9"},"vehicle_type_id":"4","last_reported":1747657300,"current_range_meters":8400,"station_id":"ce4bgvp2rcd13ifvqct0","pricing_plan_id":"cebpf4jnsgd1na2vs0mg"},{"bike_id":"012904f8-8c9e-4c86-af5f-f7eb945b74aa","system_id":"levelo_inurba_marseille","lat":43.24658,"lon":5.38909,"is_reserved":false,"is_disabled":false,"rental_uris":{"android":"levelo://app?vid=012904f8-8c9e-4c86-af5f-f7eb945b74aa","ios":"levelo://app?vid=012904f8-8c9e-4c86-af5f-f7eb945b74aa"},"vehicle_type_id":"4","last_reported":1747657300,"current_range_meters":8400,"station_id":"ce4bhg12rcd13ifvqf60","pricing_plan_id":"cebpf4jnsgd1na2vs0mg"},{"bike_id":"1ed7dcb2-0500-49c9-9da0-4e1120ce320e","system_id":"levelo_inurba_marseille","lat":43.30894,"lon":5.39644,"is_reserved":false,"is_disabled":false,"rental_uris":{"android":"levelo://app?vid=1ed7dcb2-0500-49c9-9da0-4e1120ce320e","ios":"levelo://app?vid=1ed7dcb2-0500-49c9-9da0-4e1120ce320e"},"vehicle_type_id":"4","last_reported":1747657300,"current_range_meters":8400,"station_id":"ce4bh012rcd13ifvqcv0","pricing_plan_id":"cebpf4jnsgd1na2vs0mg"},{"bike_id":"92239cf2-48db-4e53-bec0-b1a90058e322","system_id":"levelo_inurba_marseille","lat":43.23191,"lon":5.39984,"is_reserved":false,"is_disabled":false,"rental_uris":{"android":"levelo://app?vid=92239cf2-48db-4e53-bec0-b1a90058e322","ios":"levelo://app?vid=92239cf2-48db-4e53-bec0-b1a90058e322"},"vehicle_type_id":"4","last_reported":1747657300,"current_range_meters":8400,"station_id":"ce4bhn12rcd13ifvqgqg","pricing_plan_id":"cebpf4jnsgd1na2vs0mg"},{"bike_id":"4106f574-ab9b-40b2-b34e-1758475aa72b","system_id":"levelo_inurba_marseille","lat":43.31359,"lon":5.36657,"is_reserved":false,"is_disabled":false,"rental_uris":{"android":"levelo://app?vid=4106f574-ab9b-40b2-b34e-1758475aa72b","ios":"levelo://app?vid=4106f574-ab9b-40b2-b34e-1758475aa72b"},"vehicle_type_id":"4","last_reported":1747657300,"current_range_meters":8400,"station_id":"ce4bgr92rcd13ifvqc6g","pricing_plan_id":"cebpf4jnsgd1na2vs0mg"},{"bike_id":"79703b61-4f59-4128-9bcd-e1def9c49c3a","system_id":"levelo_inurba_marseille","lat":43.28152,"lon":5.42645,"is_reserved":false,"is_disabled":false,"rental_uris":{"android":"levelo://app?vid=79703b61-4f59-4128-9bcd-e1def9c49c3a","ios":"levelo://app?vid=79703b61-4f59-4128-9bcd-e1def9c49c3a"},"vehicle_type_id":"4","last_reported":1747657300,"current_range_meters":8800,"station_id":"ce4bhnh2rcd13ifvqgug","pricing_plan_id":"cebpf4jnsgd1na2vs0mg"},{"bike_id":"e77783a0-e85e-4627-95be-712f700012b2","system_id":"levelo_inurba_marseille","lat":43.33606,"lon":5.41037,"is_reserved":false,"is_disabled":false,"rental_uris":{"android":"levelo://app?vid=e77783a0-e85e-4627-95be-712f700012b2","ios":"levelo://app?vid=e77783a0-e85e-4627-95be-712f700012b2"},"vehicle_type_id":"4","last_reported":1747657300,"current_range_meters":8800,"station_id":"ce4bhqh2rcd13ifvqhmg","pricing_plan_id":"cebpf4jnsgd1na2vs0mg"},{"bike_id":"9980f204-ee36-4f46-9ac5-3f0e26c75cb7","system_id":"levelo_inurba_marseille","lat":43.26954,"lon":5.38631,"is_reserved":false,"is_disabled":false,"rental_uris":{"android":"levelo://app?vid=9980f204-ee36-4f46-9ac5-3f0e26c75cb7","ios":"levelo://app?vid=9980f204-ee36-4f46-9ac5-3f0e26c75cb7"},"vehicle_type_id":"4","last_reported":1747657300,"current_range_meters":8800,"station_id":"ce4bhh92rcd13ifvqfh0","pricing_plan_id":"cebpf4jnsgd1na2vs0mg"},{"bike_id":"e090725d-e8fe-4073-b5c0-713a2eeb275e","system_id":"levelo_inurba_marseille","lat":43.29005,"lon":5.3561,"is_reserved":false,"is_disabled":false,"rental_uris":{"android":"levelo://app?vid=e090725d-e8fe-4073-b5c0-713a2eeb275e","ios":"levelo://app?vid=e090725d-e8fe-4073-b5c0-713a2eeb275e"},"vehicle_type_id":"4","last_reported":1747657300,"current_range_meters":8800,"station_id":"ce4bhb92rcd13ifvqen0","pricing_plan_id":"cebpf4jnsgd1na2vs0mg"},{"bike_id":"d9090cda-5b81-447f-829a-dd86382e9b77","system_id":"levelo_inurba_marseille","lat":43.27372,"lon":5.36259,"is_reserved":false,"is_disabled":false,"rental_uris":{"android":"levelo://app?vid=d9090cda-5b81-447f-829a-dd86382e9b77","ios":"levelo://app?vid=d9090cda-5b81-447f-829a-dd86382e9b77"},"vehicle_type_id":"4","last_reported":1747657300,"current_range_meters":8800,"station_id":"ce4bhbh2rcd13ifvqeo0","pricing_plan_id":"cebpf4jnsgd1na2vs0mg"},{"bike_id":"cb78873f-ee9d-4e5b-b29f-6ac0277be34a","system_id":"levelo_inurba_marseille","lat":43.27212,"lon":5.39179,"is_reserved":false,"is_disabled":false,"rental_uris":{"android":"levelo://app?vid=cb78873f-ee9d-4e5b-b29f-6ac0277be34a","ios":"levelo://app?vid=cb78873f-ee9d-4e5b-b29f-6ac0277be34a"},"vehicle_type_id":"4","last_reported":1747657300,"current_range_meters":8400,"station_id":"ce4bhhp2rcd13ifvqfm0","pricing_plan_id":"cebpf4jnsgd1na2vs0mg"},{"bike_id":"1ba2577d-2a07-4037-86f6-afc7e9891988","system_id":"levelo_inurba_marseille","lat":43.28081,"lon":5.39657,"is_reserved":false,"is_disabled":false,"rental_uris":{"android":"levelo://app?vid=1ba2577d-2a07-4037-86f6-afc7e9891988","ios":"levelo://app?vid=1ba2577d-2a07-4037-86f6-afc7e9891988"},"vehicle_type_id":"4","last_reported":1747657300,"current_range_meters":9200,"station_id":"ce4bho12rcd13ifvqh2g","pricing_plan_id":"cebpf4jnsgd1na2vs0mg"},{"bike_id":"69e12e2a-a8a5-4396-b80a-f4ab44d9a031","system_id":"levelo_inurba_marseille","lat":43.27842,"lon":5.40716,"is_reserved":false,"is_disabled":false,"rental_uris":{"android":"levelo://app?vid=69e12e2a-a8a5-4396-b80a-f4ab44d9a031","ios":"levelo://app?vid=69e12e2a-a8a5-4396-b80a-f4ab44d9a031"},"vehicle_type_id":"4","last_reported":1747657300,"current_range_meters":9600,"station_id":"ce4bhnh2rcd13ifvqgtg","pricing_plan_id":"cebpf4jnsgd1na2vs0mg"},{"bike_id":"1251f3e6-f78a-418d-9e0a-7474b2b1d8ac","system_id":"levelo_inurba_marseille","lat":43.25914,"lon":5.4088,"is_reserved":false,"is_disabled":false,"rental_uris":{"android":"levelo://app?vid=1251f3e6-f78a-418d-9e0a-7474b2b1d8ac","ios":"levelo://app?vid=1251f3e6-f78a-418d-9e0a-7474b2b1d8ac"},"vehicle_type_id":"4","last_reported":1747657300,"current_range_meters":9600,"station_id":"ce4bhm92rcd13ifvqglg","pricing_plan_id":"cebpf4jnsgd1na2vs0mg"},{"bike_id":"10060988-3632-4061-8c28-f32a68cdc17c","system_id":"levelo_inurba_marseille","lat":43.24694,"lon":5.38122,"is_reserved":false,"is_disabled":false,"rental_uris":{"android":"levelo://app?vid=10060988-3632-4061-8c28-f32a68cdc17c","ios":"levelo://app?vid=10060988-3632-4061-8c28-f32a68cdc17c"},"vehicle_type_id":"4","last_reported":1747657300,"current_range_meters":9600,"station_id":"","pricing_plan_id":"cebpf4jnsgd1na2vs0mg"},{"bike_id":"e4948bd2-7ea1-46dc-bbbe-b3e220545f0d","system_id":"levelo_inurba_marseille","lat":43.29627,"lon":5.3774,"is_reserved":false,"is_disabled":false,"rental_uris":{"android":"levelo://app?vid=e4948bd2-7ea1-46dc-bbbe-b3e220545f0d","ios":"levelo://app?vid=e4948bd2-7ea1-46dc-bbbe-b3e220545f0d"},"vehicle_type_id":"4","last_reported":1747657300,"current_range_meters":9600,"station_id":"ce4bgi92rcd13ifvqb90","pricing_plan_id":"cebpf4jnsgd1na2vs0mg"},{"bike_id":"6d42e0ab-efab-48cf-a2b6-5f6811e0eda0","system_id":"levelo_inurba_marseille","lat":43.29626,"lon":5.3771,"is_reserved":false,"is_disabled":false,"rental_uris":{"android":"levelo://app?vid=6d42e0ab-efab-48cf-a2b6-5f6811e0eda0","ios":"levelo://app?vid=6d42e0ab-efab-48cf-a2b6-5f6811e0eda0"},"vehicle_type_id":"4","last_reported":1747657300,"current_range_meters":9600,"station_id":"ce4bgi92rcd13ifvqb90","pricing_plan_id":"cebpf4jnsgd1na2vs0mg"},{"bike_id":"12c4d802-2c6a-4c71-888e-000ffe312a3f","system_id":"levelo_inurba_marseille","lat":43.32371,"lon":5.36759,"is_reserved":false,"is_disabled":false,"rental_uris":{"android":"levelo://app?vid=12c4d802-2c6a-4c71-888e-000ffe312a3f","ios":"levelo://app?vid=12c4d802-2c6a-4c71-888e-000ffe312a3f"},"vehicle_type_id":"4","last_reported":1747657300,"current_range_meters":9600,"station_id":"ce4bhsh2rcd13ifvqi2g","pricing_plan_id":"cebpf4jnsgd1na2vs0mg"},{"bike_id":"faf131ab-4341-4f76-bd17-85aaf1a23e25","system_id":"levelo_inurba_marseille","lat":43.27176,"lon":5.40986,"is_reserved":false,"is_disabled":false,"rental_uris":{"android":"levelo://app?vid=faf131ab-4341-4f76-bd17-85aaf1a23e25","ios":"levelo://app?vid=faf131ab-4341-4f76-bd17-85aaf1a23e25"},"vehicle_type_id":"4","last_reported":1747657300,"current_range_meters":9600,"station_id":"ce4bhl12rcd13ifvqgf0","pricing_plan_id":"cebpf4jnsgd1na2vs0mg"},{"bike_id":"b7261d5b-3657-4de8-8415-423b9a50cc6c","system_id":"levelo_inurba_marseille","lat":43.31355,"lon":5.36701,"is_reserved":false,"is_disabled":false,"rental_uris":{"android":"levelo://app?vid=b7261d5b-3657-4de8-8415-423b9a50cc6c","ios":"levelo://app?vid=b7261d5b-3657-4de8-8415-423b9a50cc6c"},"vehicle_type_id":"4","last_reported":1747657300,"current_range_meters":9600,"station_id":"ce4bgr92rcd13ifvqc6g","pricing_plan_id":"cebpf4jnsgd1na2vs0mg"},{"bike_id":"dc79e486-a642-42ba-a286-897a5c8d2636","system_id":"levelo_inurba_marseille","lat":43.27841,"lon":5.39206,"is_reserved":false,"is_disabled":false,"rental_uris":{"android":"levelo://app?vid=dc79e486-a642-42ba-a286-897a5c8d2636","ios":"levelo://app?vid=dc79e486-a642-42ba-a286-897a5c8d2636"},"vehicle_type_id":"4","last_reported":1747657300,"current_range_meters":9600,"station_id":"ce4bhjp2rcd13ifvqga0","pricing_plan_id":"cebpf4jnsgd1na2vs0mg"},{"bike_id":"2c6cb985-1230-422e-955a-1f56fe14a193","system_id":"levelo_inurba_marseille","lat":43.25821,"lon":5.39431,"is_reserved":false,"is_disabled":false,"rental_uris":{"android":"levelo://app?vid=2c6cb985-1230-422e-955a-1f56fe14a193","ios":"levelo://app?vid=2c6cb985-1230-422e-955a-1f56fe14a193"},"vehicle_type_id":"4","last_reported":1747657300,"current_range_meters":9600,"station_id":"ce4bhip2rcd13ifvqft0","pricing_plan_id":"cebpf4jnsgd1na2vs0mg"},{"bike_id":"b2548f10-ca19-4715-8ec4-ba2ad9caa0ec","system_id":"levelo_inurba_marseille","lat":43.271758,"lon":5.409969,"is_reserved":false,"is_disabled":false,"rental_uris":{"android":"levelo://app?vid=b2548f10-ca19-4715-8ec4-ba2ad9caa0ec","ios":"levelo://app?vid=b2548f10-ca19-4715-8ec4-ba2ad9caa0ec"},"vehicle_type_id":"4","last_reported":1747657300,"current_range_meters":9600,"station_id":"","pricing_plan_id":"cebpf4jnsgd1na2vs0mg"},{"bike_id":"f8777a40-9ccd-447d-be98-259e439e9019","system_id":"levelo_inurba_marseille","lat":43.28422,"lon":5.34992,"is_reserved":false,"is_disabled":false,"rental_uris":{"android":"levelo://app?vid=f8777a40-9ccd-447d-be98-259e439e9019","ios":"levelo://app?vid=f8777a40-9ccd-447d-be98-259e439e9019"},"vehicle_type_id":"4","last_reported":1747657300,"current_range_meters":9600,"station_id":"ce4bhbh2rcd13ifvqepg","pricing_plan_id":"cebpf4jnsgd1na2vs0mg"},{"bike_id":"814e2930-a412-47af-849d-26da2abc07f6","system_id":"levelo_inurba_marseille","lat":43.27842,"lon":5.40734,"is_reserved":false,"is_disabled":true,"rental_uris":{"android":"levelo://app?vid=814e2930-a412-47af-849d-26da2abc07f6","ios":"levelo://app?vid=814e2930-a412-47af-849d-26da2abc07f6"},"vehicle_type_id":"4","last_reported":1747657300,"current_range_meters":9600,"station_id":"ce4bhnh2rcd13ifvqgtg","pricing_plan_id":"cebpf4jnsgd1na2vs0mg"},{"bike_id":"06e452b4-00bd-4194-8cf0-97e51cbae02e","system_id":"levelo_inurba_marseille","lat":43.23183,"lon":5.39974,"is_reserved":false,"is_disabled":false,"rental_uris":{"android":"levelo://app?vid=06e452b4-00bd-4194-8cf0-97e51cbae02e","ios":"levelo://app?vid=06e452b4-00bd-4194-8cf0-97e51cbae02e"},"vehicle_type_id":"4","last_reported":1747657300,"current_range_meters":10000,"station_id":"ce4bhn12rcd13ifvqgqg","pricing_plan_id":"cebpf4jnsgd1na2vs0mg"},{"bike_id":"8ee73fa9-2e85-4d8b-a2aa-536c8badb00f","system_id":"levelo_inurba_marseille","lat":43.25495,"lon":5.37645,"is_reserved":false,"is_disabled":false,"rental_uris":{"android":"levelo://app?vid=8ee73fa9-2e85-4d8b-a2aa-536c8badb00f","ios":"levelo://app?vid=8ee73fa9-2e85-4d8b-a2aa-536c8badb00f"},"vehicle_type_id":"4","last_reported":1747657300,"current_range_meters":10000,"station_id":"ce4bhh12rcd13ifvqff0","pricing_plan_id":"cebpf4jnsgd1na2vs0mg"},{"bike_id":"7da1556d-a626-487b-b39e-a3af1cba2d94","system_id":"levelo_inurba_marseille","lat":43.31686,"lon":5.40474,"is_reserved":false,"is_disabled":false,"rental_uris":{"android":"levelo://app?vid=7da1556d-a626-487b-b39e-a3af1cba2d94","ios":"levelo://app?vid=7da1556d-a626-487b-b39e-a3af1cba2d94"},"vehicle_type_id":"4","last_reported":1747657300,"current_range_meters":10000,"station_id":"ce4bh012rcd13ifvqd00","pricing_plan_id":"cebpf4jnsgd1na2vs0mg"},{"bike_id":"b2d8cb22-bb08-445b-9edd-971005f2f520","system_id":"levelo_inurba_marseille","lat":43.30569,"lon":5.36692,"is_reserved":false,"is_disabled":false,"rental_uris":{"android":"levelo://app?vid=b2d8cb22-bb08-445b-9edd-971005f2f520","ios":"levelo://app?vid=b2d8cb22-bb08-445b-9edd-971005f2f520"},"vehicle_type_id":"4","last_reported":1747657300,"current_range_meters":10000,"station_id":"ce4bgrp2rcd13ifvqc9g","pricing_plan_id":"cebpf4jnsgd1na2vs0mg"},{"bike_id":"201476c2-6270-46bd-a5f5-e47f4ad7efa4","system_id":"levelo_inurba_marseille","lat":43.2315,"lon":5.43721,"is_reserved":false,"is_disabled":false,"rental_uris":{"android":"levelo://app?vid=201476c2-6270-46bd-a5f5-e47f4ad7efa4","ios":"levelo://app?vid=201476c2-6270-46bd-a5f5-e47f4ad7efa4"},"vehicle_type_id":"4","last_reported":1747657300,"current_range_meters":10000,"station_id":"ce4bhmp2rcd13ifvqgog","pricing_plan_id":"cebpf4jnsgd1na2vs0mg"},{"bike_id":"93990334-3992-4495-9a5c-06796af2c954","system_id":"levelo_inurba_marseille","lat":43.29006,"lon":5.35606,"is_reserved":false,"is_disabled":false,"rental_uris":{"android":"levelo://app?vid=93990334-3992-4495-9a5c-06796af2c954","ios":"levelo://app?vid=93990334-3992-4495-9a5c-06796af2c954"},"vehicle_type_id":"4","last_reported":1747657300,"current_range_meters":10000,"station_id":"ce4bhb92rcd13ifvqen0","pricing_plan_id":"cebpf4jnsgd1na2vs0mg"},{"bike_id":"e2483e33-e22f-4969-8812-f7cdcc75c59a","system_id":"levelo_inurba_marseille","lat":43.32356,"lon":5.3676,"is_reserved":false,"is_disabled":false,"rental_uris":{"android":"levelo://app?vid=e2483e33-e22f-4969-8812-f7cdcc75c59a","ios":"levelo://app?vid=e2483e33-e22f-4969-8812-f7cdcc75c59a"},"vehicle_type_id":"4","last_reported":1747657300,"current_range_meters":10800,"station_id":"ce4bhsh2rcd13ifvqi2g","pricing_plan_id":"cebpf4jnsgd1na2vs0mg"},{"bike_id":"cb403e01-63af-4c90-8790-9db8dcaacd91","system_id":"levelo_inurba_marseille","lat":43.31365,"lon":5.36705,"is_reserved":false,"is_disabled":false,"rental_uris":{"android":"levelo://app?vid=cb403e01-63af-4c90-8790-9db8dcaacd91","ios":"levelo://app?vid=cb403e01-63af-4c90-8790-9db8dcaacd91"},"vehicle_type_id":"4","last_reported":1747657300,"current_range_meters":10800,"station_id":"ce4bgr92rcd13ifvqc6g","pricing_plan_id":"cebpf4jnsgd1na2vs0mg"},{"bike_id":"2df28901-da48-49ab-9be2-e7a7d2f1d7b0","system_id":"levelo_inurba_marseille","lat":43.29978,"lon":5.41329,"is_reserved":false,"is_disabled":false,"rental_uris":{"android":"levelo://app?vid=2df28901-da48-49ab-9be2-e7a7d2f1d7b0","ios":"levelo://app?vid=2df28901-da48-49ab-9be2-e7a7d2f1d7b0"},"vehicle_type_id":"4","last_reported":1747657300,"current_range_meters":10800,"station_id":"ce4bhp12rcd13ifvqh9g","pricing_plan_id":"cebpf4jnsgd1na2vs0mg"},{"bike_id":"bcbdbd69-7be8-42f8-a855-a4358565de8f","system_id":"levelo_inurba_marseille","lat":43.27713,"lon":5.41383,"is_reserved":false,"is_disabled":false,"rental_uris":{"android":"levelo://app?vid=bcbdbd69-7be8-42f8-a855-a4358565de8f","ios":"levelo://app?vid=bcbdbd69-7be8-42f8-a855-a4358565de8f"},"vehicle_type_id":"4","last_reported":1747657300,"current_range_meters":11200,"station_id":"","pricing_plan_id":"cebpf4jnsgd1na2vs0mg"},{"bike_id":"d7716071-111e-4284-9e0a-4cd215db076f","system_id":"levelo_inurba_marseille","lat":43.2827,"lon":5.35072,"is_reserved":false,"is_disabled":false,"rental_uris":{"android":"levelo://app?vid=d7716071-111e-4284-9e0a-4cd215db076f","ios":"levelo://app?vid=d7716071-111e-4284-9e0a-4cd215db076f"},"vehicle_type_id":"4","last_reported":1747657300,"current_range_meters":11600,"station_id":"ce4bhbp2rcd13ifvqerg","pricing_plan_id":"cebpf4jnsgd1na2vs0mg"},{"bike_id":"aba237c4-2b28-4e33-baaa-5fde8911bcfc","system_id":"levelo_inurba_marseille","lat":43.27195,"lon":5.409799,"is_reserved":false,"is_disabled":false,"rental_uris":{"android":"levelo://app?vid=aba237c4-2b28-4e33-baaa-5fde8911bcfc","ios":"levelo://app?vid=aba237c4-2b28-4e33-baaa-5fde8911bcfc"},"vehicle_type_id":"4","last_reported":1747657300,"current_range_meters":11600,"station_id":"ce4bhl12rcd13ifvqgf0","pricing_plan_id":"cebpf4jnsgd1na2vs0mg"},{"bike_id":"1304491c-9598-4f85-b166-545686317b13","system_id":"levelo_inurba_marseille","lat":43.231471,"lon":5.437224,"is_reserved":false,"is_disabled":false,"rental_uris":{"android":"levelo://app?vid=1304491c-9598-4f85-b166-545686317b13","ios":"levelo://app?vid=1304491c-9598-4f85-b166-545686317b13"},"vehicle_type_id":"4","last_reported":1747657300,"current_range_meters":11600,"station_id":"ce4bhmp2rcd13ifvqgog","pricing_plan_id":"cebpf4jnsgd1na2vs0mg"},{"bike_id":"a0ef91e8-eab4-4e92-9764-f8b59bed148c","system_id":"levelo_inurba_marseille","lat":43.31359,"lon":5.38472,"is_reserved":false,"is_disabled":false,"rental_uris":{"android":"levelo://app?vid=a0ef91e8-eab4-4e92-9764-f8b59bed148c","ios":"levelo://app?vid=a0ef91e8-eab4-4e92-9764-f8b59bed148c"},"vehicle_type_id":"4","last_reported":1747657300,"current_range_meters":11600,"station_id":"ce4bgt92rcd13ifvqcf0","pricing_plan_id":"cebpf4jnsgd1na2vs0mg"},{"bike_id":"641f08b1-4694-4208-b508-b22571b9333b","system_id":"levelo_inurba_marseille","lat":43.29027,"lon":5.38121,"is_reserved":false,"is_disabled":false,"rental_uris":{"android":"levelo://app?vid=641f08b1-4694-4208-b508-b22571b9333b","ios":"levelo://app?vid=641f08b1-4694-4208-b508-b22571b9333b"},"vehicle_type_id":"4","last_reported":1747657300,"current_range_meters":11600,"station_id":"ce4bh4p2rcd13ifvqe1g","pricing_plan_id":"cebpf4jnsgd1na2vs0mg"},{"bike_id":"5e529b3c-b903-4004-ac58-0fc02521e920","system_id":"levelo_inurba_marseille","lat":43.245484,"lon":5.39526,"is_reserved":false,"is_disabled":false,"rental_uris":{"android":"levelo://app?vid=5e529b3c-b903-4004-ac58-0fc02521e920","ios":"levelo://app?vid=5e529b3c-b903-4004-ac58-0fc02521e920"},"vehicle_type_id":"4","last_reported":1747657300,"current_range_meters":12000,"station_id":"ce4bhlp2rcd13ifvqgjg","pricing_plan_id":"cebpf4jnsgd1na2vs0mg"},{"bike_id":"6c0481be-1d38-46a6-983f-2cb6a293456d","system_id":"levelo_inurba_marseille","lat":43.30181,"lon":5.37363,"is_reserved":false,"is_disabled":false,"rental_uris":{"android":"levelo://app?vid=6c0481be-1d38-46a6-983f-2cb6a293456d","ios":"levelo://app?vid=6c0481be-1d38-46a6-983f-2cb6a293456d"},"vehicle_type_id":"4","last_reported":1747657300,"current_range_meters":12000,"station_id":"","pricing_plan_id":"cebpf4jnsgd1na2vs0mg"},{"bike_id":"ce71217b-5f85-45ef-87f3-15c6b4c2da4b","system_id":"levelo_inurba_marseille","lat":43.27495,"lon":5.42448,"is_reserved":false,"is_disabled":false,"rental_uris":{"android":"levelo://app?vid=ce71217b-5f85-45ef-87f3-15c6b4c2da4b","ios":"levelo://app?vid=ce71217b-5f85-45ef-87f3-15c6b4c2da4b"},"vehicle_type_id":"4","last_reported":1747657300,"current_range_meters":12000,"station_id":"ce4bhn92rcd13ifvqgrg","pricing_plan_id":"cebpf4jnsgd1na2vs0mg"},{"bike_id":"ee8bf508-70a7-402d-a0c7-0e17c8ea0f87","system_id":"levelo_inurba_marseille","lat":43.29363,"lon":5.37859,"is_reserved":false,"is_disabled":false,"rental_uris":{"android":"levelo://app?vid=ee8bf508-70a7-402d-a0c7-0e17c8ea0f87","ios":"levelo://app?vid=ee8bf508-70a7-402d-a0c7-0e17c8ea0f87"},"vehicle_type_id":"4","last_reported":1747657300,"current_range_meters":12000,"station_id":"ce4bgjh2rcd13ifvqbf0","pricing_plan_id":"cebpf4jnsgd1na2vs0mg"},{"bike_id":"de3351e4-79cb-4b5b-b44f-94dd980d61ee","system_id":"levelo_inurba_marseille","lat":43.301978,"lon":5.402606,"is_reserved":false,"is_disabled":false,"rental_uris":{"android":"levelo://app?vid=de3351e4-79cb-4b5b-b44f-94dd980d61ee","ios":"levelo://app?vid=de3351e4-79cb-4b5b-b44f-94dd980d61ee"},"vehicle_type_id":"4","last_reported":1747657300,"current_range_meters":12400,"station_id":"ce4bh012rcd13ifvqd10","pricing_plan_id":"cebpf4jnsgd1na2vs0mg"},{"bike_id":"cff8ff58-047a-4e45-89da-68f5f4acd81e","system_id":"levelo_inurba_marseille","lat":43.312453,"lon":5.368517,"is_reserved":false,"is_disabled":false,"rental_uris":{"android":"levelo://app?vid=cff8ff58-047a-4e45-89da-68f5f4acd81e","ios":"levelo://app?vid=cff8ff58-047a-4e45-89da-68f5f4acd81e"},"vehicle_type_id":"4","last_reported":1747657300,"current_range_meters":12400,"station_id":"ce4bgl92rcd13ifvqbq0","pricing_plan_id":"cebpf4jnsgd1na2vs0mg"},{"bike_id":"f20c8a91-406f-4064-859a-0a66e2cf33a5","system_id":"levelo_inurba_marseille","lat":43.30139,"lon":5.37409,"is_reserved":false,"is_disabled":false,"rental_uris":{"android":"levelo://app?vid=f20c8a91-406f-4064-859a-0a66e2cf33a5","ios":"levelo://app?vid=f20c8a91-406f-4064-859a-0a66e2cf33a5"},"vehicle_type_id":"4","last_reported":1747657300,"current_range_meters":12400,"station_id":"ce4bgs92rcd13ifvqcc0","pricing_plan_id":"cebpf4jnsgd1na2vs0mg"},{"bike_id":"fba103a6-30ce-481c-a05a-9411e513bfcf","system_id":"levelo_inurba_marseille","lat":43.25916,"lon":5.40888,"is_reserved":false,"is_disabled":false,"rental_uris":{"android":"levelo://app?vid=fba103a6-30ce-481c-a05a-9411e513bfcf","ios":"levelo://app?vid=fba103a6-30ce-481c-a05a-9411e513bfcf"},"vehicle_type_id":"4","last_reported":1747657300,"current_range_meters":12400,"station_id":"ce4bhm92rcd13ifvqglg","pricing_plan_id":"cebpf4jnsgd1na2vs0mg"},{"bike_id":"b2be9fc7-623b-4d53-be0c-5b215674073c","system_id":"levelo_inurba_marseille","lat":43.27495,"lon":5.42449,"is_reserved":false,"is_disabled":false,"rental_uris":{"android":"levelo://app?vid=b2be9fc7-623b-4d53-be0c-5b215674073c","ios":"levelo://app?vid=b2be9fc7-623b-4d53-be0c-5b215674073c"},"vehicle_type_id":"4","last_reported":1747657300,"current_range_meters":13600,"station_id":"ce4bhn92rcd13ifvqgrg","pricing_plan_id":"cebpf4jnsgd1na2vs0mg"},{"bike_id":"f4ba9c6e-bcad-41c7-8d4e-bca01364d190","system_id":"levelo_inurba_marseille","lat":43.25901,"lon":5.40892,"is_reserved":false,"is_disabled":false,"rental_uris":{"android":"levelo://app?vid=f4ba9c6e-bcad-41c7-8d4e-bca01364d190","ios":"levelo://app?vid=f4ba9c6e-bcad-41c7-8d4e-bca01364d190"},"vehicle_type_id":"4","last_reported":1747657300,"current_range_meters":13600,"station_id":"ce4bhm92rcd13ifvqglg","pricing_plan_id":"cebpf4jnsgd1na2vs0mg"},{"bike_id":"902140b6-4fea-42a9-b682-8c7f5b209397","system_id":"levelo_inurba_marseille","lat":43.28276,"lon":5.35075,"is_reserved":false,"is_disabled":false,"rental_uris":{"android":"levelo://app?vid=902140b6-4fea-42a9-b682-8c7f5b209397","ios":"levelo://app?vid=902140b6-4fea-42a9-b682-8c7f5b209397"},"vehicle_type_id":"4","last_reported":1747657300,"current_range_meters":13600,"station_id":"ce4bhbp2rcd13ifvqerg","pricing_plan_id":"cebpf4jnsgd1na2vs0mg"},{"bike_id":"511a0eb7-7880-4739-a202-4fdc94aaa4e0","system_id":"levelo_inurba_marseille","lat":43.281637,"lon":5.426453,"is_reserved":false,"is_disabled":false,"rental_uris":{"android":"levelo://app?vid=511a0eb7-7880-4739-a202-4fdc94aaa4e0","ios":"levelo://app?vid=511a0eb7-7880-4739-a202-4fdc94aaa4e0"},"vehicle_type_id":"4","last_reported":1747657300,"current_range_meters":13600,"station_id":"ce4bhnh2rcd13ifvqgug","pricing_plan_id":"cebpf4jnsgd1na2vs0mg"},{"bike_id":"fdf501ca-bd64-4691-bd44-b61daa7527b4","system_id":"levelo_inurba_marseille","lat":43.31686,"lon":5.40472,"is_reserved":false,"is_disabled":false,"rental_uris":{"android":"levelo://app?vid=fdf501ca-bd64-4691-bd44-b61daa7527b4","ios":"levelo://app?vid=fdf501ca-bd64-4691-bd44-b61daa7527b4"},"vehicle_type_id":"4","last_reported":1747657300,"current_range_meters":13600,"station_id":"ce4bh012rcd13ifvqd00","pricing_plan_id":"cebpf4jnsgd1na2vs0mg"},{"bike_id":"d68e1a75-0df4-467b-93a3-50f20892f12d","system_id":"levelo_inurba_marseille","lat":43.25497,"lon":5.37648,"is_reserved":false,"is_disabled":false,"rental_uris":{"android":"levelo://app?vid=d68e1a75-0df4-467b-93a3-50f20892f12d","ios":"levelo://app?vid=d68e1a75-0df4-467b-93a3-50f20892f12d"},"vehicle_type_id":"4","last_reported":1747657300,"current_range_meters":13600,"station_id":"ce4bhh12rcd13ifvqff0","pricing_plan_id":"cebpf4jnsgd1na2vs0mg"},{"bike_id":"f0be192c-ae4f-446a-8b5a-34019ce7051f","system_id":"levelo_inurba_marseille","lat":43.29842,"lon":5.36254,"is_reserved":false,"is_disabled":false,"rental_uris":{"android":"levelo://app?vid=f0be192c-ae4f-446a-8b5a-34019ce7051f","ios":"levelo://app?vid=f0be192c-ae4f-446a-8b5a-34019ce7051f"},"vehicle_type_id":"4","last_reported":1747657300,"current_range_meters":13600,"station_id":"ce4bgpp2rcd13ifvqc3g","pricing_plan_id":"cebpf4jnsgd1na2vs0mg"},{"bike_id":"c953dbc9-4b6b-4505-ac34-d5634d5d36ce","system_id":"levelo_inurba_marseille","lat":43.30798,"lon":5.3765,"is_reserved":false,"is_disabled":false,"rental_uris":{"android":"levelo://app?vid=c953dbc9-4b6b-4505-ac34-d5634d5d36ce","ios":"levelo://app?vid=c953dbc9-4b6b-4505-ac34-d5634d5d36ce"},"vehicle_type_id":"4","last_reported":1747657300,"current_range_meters":13600,"station_id":"ce4bgv92rcd13ifvqcq0","pricing_plan_id":"cebpf4jnsgd1na2vs0mg"},{"bike_id":"ce0098ff-57ba-46ae-af56-4b628536eb66","system_id":"levelo_inurba_marseille","lat":43.23181,"lon":5.40021,"is_reserved":false,"is_disabled":false,"rental_uris":{"android":"levelo://app?vid=ce0098ff-57ba-46ae-af56-4b628536eb66","ios":"levelo://app?vid=ce0098ff-57ba-46ae-af56-4b628536eb66"},"vehicle_type_id":"4","last_reported":1747657300,"current_range_meters":13600,"station_id":"ce4bhn12rcd13ifvqgqg","pricing_plan_id":"cebpf4jnsgd1na2vs0mg"},{"bike_id":"747f32cb-6b90-41cb-af47-7cc48fc9a982","system_id":"levelo_inurba_marseille","lat":43.21754,"lon":5.346,"is_reserved":false,"is_disabled":false,"rental_uris":{"android":"levelo://app?vid=747f32cb-6b90-41cb-af47-7cc48fc9a982","ios":"levelo://app?vid=747f32cb-6b90-41cb-af47-7cc48fc9a982"},"vehicle_type_id":"4","last_reported":1747657300,"current_range_meters":14000,"station_id":"st_cvj6r9ubvosntc0bgbag","pricing_plan_id":"cebpf4jnsgd1na2vs0mg"},{"bike_id":"0bea6123-d88d-43a1-85b7-34809b98460f","system_id":"levelo_inurba_marseille","lat":43.27391,"lon":5.42376,"is_reserved":false,"is_disabled":false,"rental_uris":{"android":"levelo://app?vid=0bea6123-d88d-43a1-85b7-34809b98460f","ios":"levelo://app?vid=0bea6123-d88d-43a1-85b7-34809b98460f"},"vehicle_type_id":"4","last_reported":1747657300,"current_range_meters":14000,"station_id":"","pricing_plan_id":"cebpf4jnsgd1na2vs0mg"},{"bike_id":"a486c409-50e3-4319-942b-256cc6c595ab","system_id":"levelo_inurba_marseille","lat":43.31215,"lon":5.36859,"is_reserved":false,"is_disabled":false,"rental_uris":{"android":"levelo://app?vid=a486c409-50e3-4319-942b-256cc6c595ab","ios":"levelo://app?vid=a486c409-50e3-4319-942b-256cc6c595ab"},"vehicle_type_id":"4","last_reported":1747657300,"current_range_meters":14000,"station_id":"ce4bgl92rcd13ifvqbq0","pricing_plan_id":"cebpf4jnsgd1na2vs0mg"},{"bike_id":"4d84e95c-d2af-4324-b46f-888d9bc5478f","system_id":"levelo_inurba_marseille","lat":43.312177,"lon":5.368606,"is_reserved":false,"is_disabled":false,"rental_uris":{"android":"levelo://app?vid=4d84e95c-d2af-4324-b46f-888d9bc5478f","ios":"levelo://app?vid=4d84e95c-d2af-4324-b46f-888d9bc5478f"},"vehicle_type_id":"4","last_reported":1747657300,"current_range_meters":14000,"station_id":"ce4bgl92rcd13ifvqbq0","pricing_plan_id":"cebpf4jnsgd1na2vs0mg"},{"bike_id":"bffbaf88-357a-4e87-a68c-a9a27a6e01e6","system_id":"levelo_inurba_marseille","lat":43.26228,"lon":5.42124,"is_reserved":false,"is_disabled":false,"rental_uris":{"android":"levelo://app?vid=bffbaf88-357a-4e87-a68c-a9a27a6e01e6","ios":"levelo://app?vid=bffbaf88-357a-4e87-a68c-a9a27a6e01e6"},"vehicle_type_id":"4","last_reported":1747657300,"current_range_meters":14000,"station_id":"","pricing_plan_id":"cebpf4jnsgd1na2vs0mg"},{"bike_id":"fca86a55-22f2-4b7a-b972-9f8946fa6983","system_id":"levelo_inurba_marseille","lat":43.3031,"lon":5.392,"is_reserved":false,"is_disabled":true,"rental_uris":{"android":"levelo://app?vid=fca86a55-22f2-4b7a-b972-9f8946fa6983","ios":"levelo://app?vid=fca86a55-22f2-4b7a-b972-9f8946fa6983"},"vehicle_type_id":"4","last_reported":1747657300,"current_range_meters":14000,"station_id":"ce4bgkh2rcd13ifvqbk0","pricing_plan_id":"cebpf4jnsgd1na2vs0mg"},{"bike_id":"d39cae16-34b5-4b82-8fc6-cac28c889070","system_id":"levelo_inurba_marseille","lat":43.29495,"lon":5.38593,"is_reserved":false,"is_disabled":true,"rental_uris":{"android":"levelo://app?vid=d39cae16-34b5-4b82-8fc6-cac28c889070","ios":"levelo://app?vid=d39cae16-34b5-4b82-8fc6-cac28c889070"},"vehicle_type_id":"4","last_reported":1747657300,"current_range_meters":14000,"station_id":"ce4bgih2rcd13ifvqba0","pricing_plan_id":"cebpf4jnsgd1na2vs0mg"},{"bike_id":"5db2aa0f-2efe-4571-8981-b1488e63e2b9","system_id":"levelo_inurba_marseille","lat":43.23153,"lon":5.43715,"is_reserved":false,"is_disabled":false,"rental_uris":{"android":"levelo://app?vid=5db2aa0f-2efe-4571-8981-b1488e63e2b9","ios":"levelo://app?vid=5db2aa0f-2efe-4571-8981-b1488e63e2b9"},"vehicle_type_id":"4","last_reported":1747657300,"current_range_meters":14000,"station_id":"ce4bhmp2rcd13ifvqgog","pricing_plan_id":"cebpf4jnsgd1na2vs0mg"},{"bike_id":"9dfc8cdb-5ee5-4f06-aac5-83dbbc37e2c5","system_id":"levelo_inurba_marseille","lat":43.27051,"lon":5.40259,"is_reserved":false,"is_disabled":false,"rental_uris":{"android":"levelo://app?vid=9dfc8cdb-5ee5-4f06-aac5-83dbbc37e2c5","ios":"levelo://app?vid=9dfc8cdb-5ee5-4f06-aac5-83dbbc37e2c5"},"vehicle_type_id":"4","last_reported":1747657300,"current_range_meters":14000,"station_id":"ce4bhk92rcd13ifvqgc0","pricing_plan_id":"cebpf4jnsgd1na2vs0mg"},{"bike_id":"9420e17d-0d94-4060-aba0-5f1c03f61fad","system_id":"levelo_inurba_marseille","lat":43.2953,"lon":5.390359,"is_reserved":false,"is_disabled":false,"rental_uris":{"android":"levelo://app?vid=9420e17d-0d94-4060-aba0-5f1c03f61fad","ios":"levelo://app?vid=9420e17d-0d94-4060-aba0-5f1c03f61fad"},"vehicle_type_id":"4","last_reported":1747657300,"current_range_meters":14000,"station_id":"ce4bh3p2rcd13ifvqdp0","pricing_plan_id":"cebpf4jnsgd1na2vs0mg"},{"bike_id":"b03225da-ce08-407d-8a16-bf7cc5437d97","system_id":"levelo_inurba_marseille","lat":43.27837,"lon":5.39207,"is_reserved":false,"is_disabled":false,"rental_uris":{"android":"levelo://app?vid=b03225da-ce08-407d-8a16-bf7cc5437d97","ios":"levelo://app?vid=b03225da-ce08-407d-8a16-bf7cc5437d97"},"vehicle_type_id":"4","last_reported":1747657300,"current_range_meters":14000,"station_id":"ce4bhjp2rcd13ifvqga0","pricing_plan_id":"cebpf4jnsgd1na2vs0mg"},{"bike_id":"f3289069-1bd8-4c9e-b68e-b15047bbe504","system_id":"levelo_inurba_marseille","lat":43.2551,"lon":5.37663,"is_reserved":false,"is_disabled":false,"rental_uris":{"android":"levelo://app?vid=f3289069-1bd8-4c9e-b68e-b15047bbe504","ios":"levelo://app?vid=f3289069-1bd8-4c9e-b68e-b15047bbe504"},"vehicle_type_id":"4","last_reported":1747657300,"current_range_meters":14400,"station_id":"ce4bhh12rcd13ifvqff0","pricing_plan_id":"cebpf4jnsgd1na2vs0mg"},{"bike_id":"147f0919-b4f4-4da5-a06b-5f70c1438bc0","system_id":"levelo_inurba_marseille","lat":43.2594,"lon":5.409,"is_reserved":false,"is_disabled":false,"rental_uris":{"android":"levelo://app?vid=147f0919-b4f4-4da5-a06b-5f70c1438bc0","ios":"levelo://app?vid=147f0919-b4f4-4da5-a06b-5f70c1438bc0"},"vehicle_type_id":"4","last_reported":1747657300,"current_range_meters":14400,"station_id":"ce4bhm92rcd13ifvqglg","pricing_plan_id":"cebpf4jnsgd1na2vs0mg"},{"bike_id":"9b0a9e58-48c1-4800-88b1-e86859e043e6","system_id":"levelo_inurba_marseille","lat":43.29829,"lon":5.36265,"is_reserved":false,"is_disabled":false,"rental_uris":{"android":"levelo://app?vid=9b0a9e58-48c1-4800-88b1-e86859e043e6","ios":"levelo://app?vid=9b0a9e58-48c1-4800-88b1-e86859e043e6"},"vehicle_type_id":"4","last_reported":1747657300,"current_range_meters":14400,"station_id":"ce4bgpp2rcd13ifvqc3g","pricing_plan_id":"cebpf4jnsgd1na2vs0mg"},{"bike_id":"94bdc35b-713b-4ae7-9fdb-b1e4bed922c2","system_id":"levelo_inurba_marseille","lat":43.27494,"lon":5.42438,"is_reserved":false,"is_disabled":false,"rental_uris":{"android":"levelo://app?vid=94bdc35b-713b-4ae7-9fdb-b1e4bed922c2","ios":"levelo://app?vid=94bdc35b-713b-4ae7-9fdb-b1e4bed922c2"},"vehicle_type_id":"4","last_reported":1747657300,"current_range_meters":14400,"station_id":"ce4bhn92rcd13ifvqgrg","pricing_plan_id":"cebpf4jnsgd1na2vs0mg"},{"bike_id":"74779d32-87cf-4f23-b047-7955c944ddd2","system_id":"levelo_inurba_marseille","lat":43.29779,"lon":5.38091,"is_reserved":false,"is_disabled":false,"rental_uris":{"android":"levelo://app?vid=74779d32-87cf-4f23-b047-7955c944ddd2","ios":"levelo://app?vid=74779d32-87cf-4f23-b047-7955c944ddd2"},"vehicle_type_id":"4","last_reported":1747657300,"current_range_meters":14400,"station_id":"ce4bgip2rcd13ifvqbb0","pricing_plan_id":"cebpf4jnsgd1na2vs0mg"},{"bike_id":"bfb0e190-66d5-461a-8582-531e7fd1b89c","system_id":"levelo_inurba_marseille","lat":43.2695,"lon":5.38629,"is_reserved":false,"is_disabled":false,"rental_uris":{"android":"levelo://app?vid=bfb0e190-66d5-461a-8582-531e7fd1b89c","ios":"levelo://app?vid=bfb0e190-66d5-461a-8582-531e7fd1b89c"},"vehicle_type_id":"4","last_reported":1747657300,"current_range_meters":14400,"station_id":"ce4bhh92rcd13ifvqfh0","pricing_plan_id":"cebpf4jnsgd1na2vs0mg"},{"bike_id":"f6bbb572-4d3e-46d5-8e67-abf74be074ff","system_id":"levelo_inurba_marseille","lat":43.251264,"lon":5.403292,"is_reserved":false,"is_disabled":false,"rental_uris":{"android":"levelo://app?vid=f6bbb572-4d3e-46d5-8e67-abf74be074ff","ios":"levelo://app?vid=f6bbb572-4d3e-46d5-8e67-abf74be074ff"},"vehicle_type_id":"4","last_reported":1747657300,"current_range_meters":14400,"station_id":"ce4bhlh2rcd13ifvqgig","pricing_plan_id":"cebpf4jnsgd1na2vs0mg"},{"bike_id":"293589fd-7658-4273-9fdd-35b57ad2d7ce","system_id":"levelo_inurba_marseille","lat":43.29521,"lon":5.39037,"is_reserved":false,"is_disabled":false,"rental_uris":{"android":"levelo://app?vid=293589fd-7658-4273-9fdd-35b57ad2d7ce","ios":"levelo://app?vid=293589fd-7658-4273-9fdd-35b57ad2d7ce"},"vehicle_type_id":"4","last_reported":1747657300,"current_range_meters":14800,"station_id":"ce4bh3p2rcd13ifvqdp0","pricing_plan_id":"cebpf4jnsgd1na2vs0mg"},{"bike_id":"8aaf543c-65cf-4f10-a10f-5a723e06be14","system_id":"levelo_inurba_marseille","lat":43.24649,"lon":5.38887,"is_reserved":false,"is_disabled":false,"rental_uris":{"android":"levelo://app?vid=8aaf543c-65cf-4f10-a10f-5a723e06be14","ios":"levelo://app?vid=8aaf543c-65cf-4f10-a10f-5a723e06be14"},"vehicle_type_id":"4","last_reported":1747657300,"current_range_meters":14800,"station_id":"ce4bhg12rcd13ifvqf60","pricing_plan_id":"cebpf4jnsgd1na2vs0mg"},{"bike_id":"3ff07cc8-ca75-4333-8778-9c9eeef8f172","system_id":"levelo_inurba_marseille","lat":43.27494,"lon":5.42455,"is_reserved":false,"is_disabled":false,"rental_uris":{"android":"levelo://app?vid=3ff07cc8-ca75-4333-8778-9c9eeef8f172","ios":"levelo://app?vid=3ff07cc8-ca75-4333-8778-9c9eeef8f172"},"vehicle_type_id":"4","last_reported":1747657300,"current_range_meters":14800,"station_id":"ce4bhn92rcd13ifvqgrg","pricing_plan_id":"cebpf4jnsgd1na2vs0mg"},{"bike_id":"1461429c-a378-4a27-8aac-dc7ce42f1bde","system_id":"levelo_inurba_marseille","lat":43.26954,"lon":5.38633,"is_reserved":false,"is_disabled":false,"rental_uris":{"android":"levelo://app?vid=1461429c-a378-4a27-8aac-dc7ce42f1bde","ios":"levelo://app?vid=1461429c-a378-4a27-8aac-dc7ce42f1bde"},"vehicle_type_id":"4","last_reported":1747657300,"current_range_meters":14800,"station_id":"ce4bhh92rcd13ifvqfh0","pricing_plan_id":"cebpf4jnsgd1na2vs0mg"},{"bike_id":"12dc7b69-13f2-472b-88f6-002195ea0335","system_id":"levelo_inurba_marseille","lat":43.23174,"lon":5.40027,"is_reserved":false,"is_disabled":false,"rental_uris":{"android":"levelo://app?vid=12dc7b69-13f2-472b-88f6-002195ea0335","ios":"levelo://app?vid=12dc7b69-13f2-472b-88f6-002195ea0335"},"vehicle_type_id":"4","last_reported":1747657300,"current_range_meters":14800,"station_id":"ce4bhn12rcd13ifvqgqg","pricing_plan_id":"cebpf4jnsgd1na2vs0mg"},{"bike_id":"c9a00e74-029a-454e-8e85-1b3d994b9d78","system_id":"levelo_inurba_marseille","lat":43.211997,"lon":5.35061,"is_reserved":false,"is_disabled":false,"rental_uris":{"android":"levelo://app?vid=c9a00e74-029a-454e-8e85-1b3d994b9d78","ios":"levelo://app?vid=c9a00e74-029a-454e-8e85-1b3d994b9d78"},"vehicle_type_id":"4","last_reported":1747657300,"current_range_meters":14800,"station_id":"","pricing_plan_id":"cebpf4jnsgd1na2vs0mg"},{"bike_id":"f279c363-3438-4a16-b545-887b946f5978","system_id":"levelo_inurba_marseille","lat":43.268044,"lon":5.402636,"is_reserved":false,"is_disabled":false,"rental_uris":{"android":"levelo://app?vid=f279c363-3438-4a16-b545-887b946f5978","ios":"levelo://app?vid=f279c363-3438-4a16-b545-887b946f5978"},"vehicle_type_id":"4","last_reported":1747657300,"current_range_meters":14800,"station_id":"ce501612rcd8frsf0b60","pricing_plan_id":"cebpf4jnsgd1na2vs0mg"},{"bike_id":"a8f1f843-2487-45e8-9575-4874efad54fc","system_id":"levelo_inurba_marseille","lat":43.290188,"lon":5.381355,"is_reserved":false,"is_disabled":false,"rental_uris":{"android":"levelo://app?vid=a8f1f843-2487-45e8-9575-4874efad54fc","ios":"levelo://app?vid=a8f1f843-2487-45e8-9575-4874efad54fc"},"vehicle_type_id":"4","last_reported":1747657300,"current_range_meters":14800,"station_id":"ce4bh4p2rcd13ifvqe1g","pricing_plan_id":"cebpf4jnsgd1na2vs0mg"},{"bike_id":"08129706-0840-4cc7-a7e9-4dbc2d7407ba","system_id":"levelo_inurba_marseille","lat":43.23168,"lon":5.40049,"is_reserved":false,"is_disabled":false,"rental_uris":{"android":"levelo://app?vid=08129706-0840-4cc7-a7e9-4dbc2d7407ba","ios":"levelo://app?vid=08129706-0840-4cc7-a7e9-4dbc2d7407ba"},"vehicle_type_id":"4","last_reported":1747657300,"current_range_meters":14800,"station_id":"ce4bhn12rcd13ifvqgqg","pricing_plan_id":"cebpf4jnsgd1na2vs0mg"},{"bike_id":"90b1dd11-0e1d-4d15-bb16-17a1a9b70e92","system_id":"levelo_inurba_marseille","lat":43.29279,"lon":5.36847,"is_reserved":false,"is_disabled":false,"rental_uris":{"android":"levelo://app?vid=90b1dd11-0e1d-4d15-bb16-17a1a9b70e92","ios":"levelo://app?vid=90b1dd11-0e1d-4d15-bb16-17a1a9b70e92"},"vehicle_type_id":"4","last_reported":1747657300,"current_range_meters":14800,"station_id":"ce4bhbp2rcd13ifvqesg","pricing_plan_id":"cebpf4jnsgd1na2vs0mg"},{"bike_id":"cc14136d-d51b-4efc-b3a3-78a3fa9a32ab","system_id":"levelo_inurba_marseille","lat":43.311734,"lon":5.387153,"is_reserved":false,"is_disabled":false,"rental_uris":{"android":"levelo://app?vid=cc14136d-d51b-4efc-b3a3-78a3fa9a32ab","ios":"levelo://app?vid=cc14136d-d51b-4efc-b3a3-78a3fa9a32ab"},"vehicle_type_id":"4","last_reported":1747657300,"current_range_meters":14800,"station_id":"ce4bgv12rcd13ifvqcp0","pricing_plan_id":"cebpf4jnsgd1na2vs0mg"},{"bike_id":"009dc7d0-5a84-4c6b-91d8-5bfcb74a4a97","system_id":"levelo_inurba_marseille","lat":43.29007,"lon":5.35607,"is_reserved":false,"is_disabled":false,"rental_uris":{"android":"levelo://app?vid=009dc7d0-5a84-4c6b-91d8-5bfcb74a4a97","ios":"levelo://app?vid=009dc7d0-5a84-4c6b-91d8-5bfcb74a4a97"},"vehicle_type_id":"4","last_reported":1747657300,"current_range_meters":14400,"station_id":"ce4bhb92rcd13ifvqen0","pricing_plan_id":"cebpf4jnsgd1na2vs0mg"},{"bike_id":"7178ff82-3d2d-4fa6-b918-e86cb291439f","system_id":"levelo_inurba_marseille","lat":43.27814,"lon":5.39204,"is_reserved":false,"is_disabled":false,"rental_uris":{"android":"levelo://app?vid=7178ff82-3d2d-4fa6-b918-e86cb291439f","ios":"levelo://app?vid=7178ff82-3d2d-4fa6-b918-e86cb291439f"},"vehicle_type_id":"4","last_reported":1747657300,"current_range_meters":14800,"station_id":"ce4bhjp2rcd13ifvqga0","pricing_plan_id":"cebpf4jnsgd1na2vs0mg"},{"bike_id":"bd6eca25-c979-4bc3-b5e9-1e7320cbeb57","system_id":"levelo_inurba_marseille","lat":43.28855,"lon":5.35857,"is_reserved":false,"is_disabled":false,"rental_uris":{"android":"levelo://app?vid=bd6eca25-c979-4bc3-b5e9-1e7320cbeb57","ios":"levelo://app?vid=bd6eca25-c979-4bc3-b5e9-1e7320cbeb57"},"vehicle_type_id":"4","last_reported":1747657300,"current_range_meters":14800,"station_id":"ce4bhb12rcd13ifvqem0","pricing_plan_id":"cebpf4jnsgd1na2vs0mg"},{"bike_id":"d086049b-a290-4722-b8cd-149e1dbdae74","system_id":"levelo_inurba_marseille","lat":43.30648,"lon":5.40087,"is_reserved":false,"is_disabled":false,"rental_uris":{"android":"levelo://app?vid=d086049b-a290-4722-b8cd-149e1dbdae74","ios":"levelo://app?vid=d086049b-a290-4722-b8cd-149e1dbdae74"},"vehicle_type_id":"4","last_reported":1747657300,"current_range_meters":15200,"station_id":"ce4bh112rcd13ifvqda0","pricing_plan_id":"cebpf4jnsgd1na2vs0mg"},{"bike_id":"bca1a87f-6e8d-4173-bcb8-e595485b4fb2","system_id":"levelo_inurba_marseille","lat":43.24068,"lon":5.37741,"is_reserved":false,"is_disabled":false,"rental_uris":{"android":"levelo://app?vid=bca1a87f-6e8d-4173-bcb8-e595485b4fb2","ios":"levelo://app?vid=bca1a87f-6e8d-4173-bcb8-e595485b4fb2"},"vehicle_type_id":"4","last_reported":1747657300,"current_range_meters":16000,"station_id":"ce4bhnp2rcd13ifvqgvg","pricing_plan_id":"cebpf4jnsgd1na2vs0mg"},{"bike_id":"47e833c7-b34c-476b-bfe7-81bdb4db04e4","system_id":"levelo_inurba_marseille","lat":43.25916,"lon":5.40877,"is_reserved":false,"is_disabled":false,"rental_uris":{"android":"levelo://app?vid=47e833c7-b34c-476b-bfe7-81bdb4db04e4","ios":"levelo://app?vid=47e833c7-b34c-476b-bfe7-81bdb4db04e4"},"vehicle_type_id":"4","last_reported":1747657300,"current_range_meters":16000,"station_id":"ce4bhm92rcd13ifvqglg","pricing_plan_id":"cebpf4jnsgd1na2vs0mg"},{"bike_id":"38b5c13c-ecfe-476a-abb0-33b1528de2bb","system_id":"levelo_inurba_marseille","lat":43.29961,"lon":5.41321,"is_reserved":false,"is_disabled":false,"rental_uris":{"android":"levelo://app?vid=38b5c13c-ecfe-476a-abb0-33b1528de2bb","ios":"levelo://app?vid=38b5c13c-ecfe-476a-abb0-33b1528de2bb"},"vehicle_type_id":"4","last_reported":1747657300,"current_range_meters":16000,"station_id":"ce4bhp12rcd13ifvqh9g","pricing_plan_id":"cebpf4jnsgd1na2vs0mg"},{"bike_id":"a29d28d6-c3f8-4ce7-a26d-6a24837c628c","system_id":"levelo_inurba_marseille","lat":43.30918,"lon":5.36852,"is_reserved":false,"is_disabled":false,"rental_uris":{"android":"levelo://app?vid=a29d28d6-c3f8-4ce7-a26d-6a24837c628c","ios":"levelo://app?vid=a29d28d6-c3f8-4ce7-a26d-6a24837c628c"},"vehicle_type_id":"4","last_reported":1747657300,"current_range_meters":16000,"station_id":"ce4bgn92rcd13ifvqbvg","pricing_plan_id":"cebpf4jnsgd1na2vs0mg"},{"bike_id":"8a662471-bb00-4e9e-8076-a8375d1c8b63","system_id":"levelo_inurba_marseille","lat":43.30145,"lon":5.38083,"is_reserved":false,"is_disabled":false,"rental_uris":{"android":"levelo://app?vid=8a662471-bb00-4e9e-8076-a8375d1c8b63","ios":"levelo://app?vid=8a662471-bb00-4e9e-8076-a8375d1c8b63"},"vehicle_type_id":"4","last_reported":1747657300,"current_range_meters":16400,"station_id":"ce4bgjp2rcd13ifvqbh0","pricing_plan_id":"cebpf4jnsgd1na2vs0mg"},{"bike_id":"58edc354-c183-4da4-b527-1ba0f2d395e0","system_id":"levelo_inurba_marseille","lat":43.277063,"lon":5.356816,"is_reserved":false,"is_disabled":false,"rental_uris":{"android":"levelo://app?vid=58edc354-c183-4da4-b527-1ba0f2d395e0","ios":"levelo://app?vid=58edc354-c183-4da4-b527-1ba0f2d395e0"},"vehicle_type_id":"4","last_reported":1747657300,"current_range_meters":16400,"station_id":"","pricing_plan_id":"cebpf4jnsgd1na2vs0mg"},{"bike_id":"e8162579-a5ad-485f-ad83-fec8a2ebe7e1","system_id":"levelo_inurba_marseille","lat":43.26826,"lon":5.39099,"is_reserved":false,"is_disabled":false,"rental_uris":{"android":"levelo://app?vid=e8162579-a5ad-485f-ad83-fec8a2ebe7e1","ios":"levelo://app?vid=e8162579-a5ad-485f-ad83-fec8a2ebe7e1"},"vehicle_type_id":"4","last_reported":1747657300,"current_range_meters":16400,"station_id":"","pricing_plan_id":"cebpf4jnsgd1na2vs0mg"},{"bike_id":"1844f55d-0b4f-4ef0-bf3a-b0b9b8d26988","system_id":"levelo_inurba_marseille","lat":43.3248,"lon":5.36556,"is_reserved":false,"is_disabled":false,"rental_uris":{"android":"levelo://app?vid=1844f55d-0b4f-4ef0-bf3a-b0b9b8d26988","ios":"levelo://app?vid=1844f55d-0b4f-4ef0-bf3a-b0b9b8d26988"},"vehicle_type_id":"4","last_reported":1747657300,"current_range_meters":16400,"station_id":"ce4bhs12rcd13ifvqhvg","pricing_plan_id":"cebpf4jnsgd1na2vs0mg"},{"bike_id":"0f6c0a3e-f2ee-4e37-87ab-a289fb8c0c72","system_id":"levelo_inurba_marseille","lat":43.23966,"lon":5.36615,"is_reserved":false,"is_disabled":false,"rental_uris":{"android":"levelo://app?vid=0f6c0a3e-f2ee-4e37-87ab-a289fb8c0c72","ios":"levelo://app?vid=0f6c0a3e-f2ee-4e37-87ab-a289fb8c0c72"},"vehicle_type_id":"4","last_reported":1747657300,"current_range_meters":16400,"station_id":"ce4bhi12rcd13ifvqfp0","pricing_plan_id":"cebpf4jnsgd1na2vs0mg"},{"bike_id":"28f45564-465a-406a-9f7f-ac04ecf5329b","system_id":"levelo_inurba_marseille","lat":43.32485,"lon":5.3656,"is_reserved":false,"is_disabled":false,"rental_uris":{"android":"levelo://app?vid=28f45564-465a-406a-9f7f-ac04ecf5329b","ios":"levelo://app?vid=28f45564-465a-406a-9f7f-ac04ecf5329b"},"vehicle_type_id":"4","last_reported":1747657300,"current_range_meters":16400,"station_id":"ce4bhs12rcd13ifvqhvg","pricing_plan_id":"cebpf4jnsgd1na2vs0mg"},{"bike_id":"ec5696db-b3a4-4ace-9494-c5ae12f4361d","system_id":"levelo_inurba_marseille","lat":43.27453,"lon":5.36069,"is_reserved":false,"is_disabled":true,"rental_uris":{"android":"levelo://app?vid=ec5696db-b3a4-4ace-9494-c5ae12f4361d","ios":"levelo://app?vid=ec5696db-b3a4-4ace-9494-c5ae12f4361d"},"vehicle_type_id":"4","last_reported":1747657300,"current_range_meters":16400,"station_id":"","pricing_plan_id":"cebpf4jnsgd1na2vs0mg"},{"bike_id":"0f5c92df-9eb3-43f2-ab31-5fe4585d1334","system_id":"levelo_inurba_marseille","lat":43.33788,"lon":5.37412,"is_reserved":false,"is_disabled":false,"rental_uris":{"android":"levelo://app?vid=0f5c92df-9eb3-43f2-ab31-5fe4585d1334","ios":"levelo://app?vid=0f5c92df-9eb3-43f2-ab31-5fe4585d1334"},"vehicle_type_id":"4","last_reported":1747657300,"current_range_meters":16800,"station_id":"","pricing_plan_id":"cebpf4jnsgd1na2vs0mg"},{"bike_id":"8758c411-b839-423a-a293-54c4499bbe26","system_id":"levelo_inurba_marseille","lat":43.31223,"lon":5.36846,"is_reserved":false,"is_disabled":false,"rental_uris":{"android":"levelo://app?vid=8758c411-b839-423a-a293-54c4499bbe26","ios":"levelo://app?vid=8758c411-b839-423a-a293-54c4499bbe26"},"vehicle_type_id":"4","last_reported":1747657300,"current_range_meters":16800,"station_id":"ce4bgl92rcd13ifvqbq0","pricing_plan_id":"cebpf4jnsgd1na2vs0mg"},{"bike_id":"05c756d6-0b56-44da-a268-1291ae864280","system_id":"levelo_inurba_marseille","lat":43.29852,"lon":5.36283,"is_reserved":false,"is_disabled":false,"rental_uris":{"android":"levelo://app?vid=05c756d6-0b56-44da-a268-1291ae864280","ios":"levelo://app?vid=05c756d6-0b56-44da-a268-1291ae864280"},"vehicle_type_id":"4","last_reported":1747657300,"current_range_meters":16800,"station_id":"ce4bgpp2rcd13ifvqc3g","pricing_plan_id":"cebpf4jnsgd1na2vs0mg"},{"bike_id":"d26f5ea9-c276-4a10-87c8-9f501a01baab","system_id":"levelo_inurba_marseille","lat":43.29813,"lon":5.3935,"is_reserved":false,"is_disabled":false,"rental_uris":{"android":"levelo://app?vid=d26f5ea9-c276-4a10-87c8-9f501a01baab","ios":"levelo://app?vid=d26f5ea9-c276-4a10-87c8-9f501a01baab"},"vehicle_type_id":"4","last_reported":1747657300,"current_range_meters":16800,"station_id":"chh1huq6cuj3fo74tm60","pricing_plan_id":"cebpf4jnsgd1na2vs0mg"},{"bike_id":"0c75e290-2f49-4428-9202-02a35670787a","system_id":"levelo_inurba_marseille","lat":43.23179,"lon":5.39978,"is_reserved":false,"is_disabled":false,"rental_uris":{"android":"levelo://app?vid=0c75e290-2f49-4428-9202-02a35670787a","ios":"levelo://app?vid=0c75e290-2f49-4428-9202-02a35670787a"},"vehicle_type_id":"4","last_reported":1747657300,"current_range_meters":16800,"station_id":"ce4bhn12rcd13ifvqgqg","pricing_plan_id":"cebpf4jnsgd1na2vs0mg"},{"bike_id":"a5fbda63-723d-4a0f-968f-b97363a065d3","system_id":"levelo_inurba_marseille","lat":43.282702,"lon":5.350446,"is_reserved":false,"is_disabled":false,"rental_uris":{"android":"levelo://app?vid=a5fbda63-723d-4a0f-968f-b97363a065d3","ios":"levelo://app?vid=a5fbda63-723d-4a0f-968f-b97363a065d3"},"vehicle_type_id":"4","last_reported":1747657300,"current_range_meters":16800,"station_id":"ce4bhbp2rcd13ifvqerg","pricing_plan_id":"cebpf4jnsgd1na2vs0mg"},{"bike_id":"53882ed9-e061-4498-98dc-917b66609f40","system_id":"levelo_inurba_marseille","lat":43.25894,"lon":5.40916,"is_reserved":false,"is_disabled":false,"rental_uris":{"android":"levelo://app?vid=53882ed9-e061-4498-98dc-917b66609f40","ios":"levelo://app?vid=53882ed9-e061-4498-98dc-917b66609f40"},"vehicle_type_id":"4","last_reported":1747657300,"current_range_meters":16800,"station_id":"ce4bhm92rcd13ifvqglg","pricing_plan_id":"cebpf4jnsgd1na2vs0mg"},{"bike_id":"a4a7788e-cced-4b00-b6c9-3b5c9e26f576","system_id":"levelo_inurba_marseille","lat":43.28733,"lon":5.36085,"is_reserved":false,"is_disabled":false,"rental_uris":{"android":"levelo://app?vid=a4a7788e-cced-4b00-b6c9-3b5c9e26f576","ios":"levelo://app?vid=a4a7788e-cced-4b00-b6c9-3b5c9e26f576"},"vehicle_type_id":"4","last_reported":1747657300,"current_range_meters":16800,"station_id":"cki0cbj6b192h4jlfktg","pricing_plan_id":"cebpf4jnsgd1na2vs0mg"},{"bike_id":"c3c11b11-8507-45b4-bd48-1e3bdd46fbbe","system_id":"levelo_inurba_marseille","lat":43.231824,"lon":5.39982,"is_reserved":false,"is_disabled":false,"rental_uris":{"android":"levelo://app?vid=c3c11b11-8507-45b4-bd48-1e3bdd46fbbe","ios":"levelo://app?vid=c3c11b11-8507-45b4-bd48-1e3bdd46fbbe"},"vehicle_type_id":"4","last_reported":1747657300,"current_range_meters":16800,"station_id":"ce4bhn12rcd13ifvqgqg","pricing_plan_id":"cebpf4jnsgd1na2vs0mg"},{"bike_id":"9c8038dc-1156-4130-8a24-62a9599816af","system_id":"levelo_inurba_marseille","lat":43.32335,"lon":5.36688,"is_reserved":false,"is_disabled":false,"rental_uris":{"android":"levelo://app?vid=9c8038dc-1156-4130-8a24-62a9599816af","ios":"levelo://app?vid=9c8038dc-1156-4130-8a24-62a9599816af"},"vehicle_type_id":"4","last_reported":1747657300,"current_range_meters":17200,"station_id":"","pricing_plan_id":"cebpf4jnsgd1na2vs0mg"},{"bike_id":"e2e3a6f6-0f08-4185-b27b-75bc9500a96d","system_id":"levelo_inurba_marseille","lat":43.211924,"lon":5.350701,"is_reserved":false,"is_disabled":false,"rental_uris":{"android":"levelo://app?vid=e2e3a6f6-0f08-4185-b27b-75bc9500a96d","ios":"levelo://app?vid=e2e3a6f6-0f08-4185-b27b-75bc9500a96d"},"vehicle_type_id":"4","last_reported":1747657300,"current_range_meters":17200,"station_id":"st_cvj6sg6p6f1abm77japg","pricing_plan_id":"cebpf4jnsgd1na2vs0mg"},{"bike_id":"8e70c1d5-4405-4a26-8093-2e7b572d5be7","system_id":"levelo_inurba_marseille","lat":43.23966,"lon":5.36643,"is_reserved":false,"is_disabled":false,"rental_uris":{"android":"levelo://app?vid=8e70c1d5-4405-4a26-8093-2e7b572d5be7","ios":"levelo://app?vid=8e70c1d5-4405-4a26-8093-2e7b572d5be7"},"vehicle_type_id":"4","last_reported":1747657300,"current_range_meters":17200,"station_id":"ce4bhi12rcd13ifvqfp0","pricing_plan_id":"cebpf4jnsgd1na2vs0mg"},{"bike_id":"f0b46887-9e6e-4b4e-9603-991b1727398f","system_id":"levelo_inurba_marseille","lat":43.31079,"lon":5.38351,"is_reserved":false,"is_disabled":false,"rental_uris":{"android":"levelo://app?vid=f0b46887-9e6e-4b4e-9603-991b1727398f","ios":"levelo://app?vid=f0b46887-9e6e-4b4e-9603-991b1727398f"},"vehicle_type_id":"4","last_reported":1747657300,"current_range_meters":17200,"station_id":"ce4bgv92rcd13ifvqcr0","pricing_plan_id":"cebpf4jnsgd1na2vs0mg"},{"bike_id":"3552fbf2-b43a-446f-93f5-d695fc251b73","system_id":"levelo_inurba_marseille","lat":43.251725,"lon":5.375205,"is_reserved":false,"is_disabled":false,"rental_uris":{"android":"levelo://app?vid=3552fbf2-b43a-446f-93f5-d695fc251b73","ios":"levelo://app?vid=3552fbf2-b43a-446f-93f5-d695fc251b73"},"vehicle_type_id":"4","last_reported":1747657300,"current_range_meters":17200,"station_id":"","pricing_plan_id":"cebpf4jnsgd1na2vs0mg"},{"bike_id":"c2621727-2a3e-4c0d-8a76-d0b21655c733","system_id":"levelo_inurba_marseille","lat":43.29224,"lon":5.36056,"is_reserved":false,"is_disabled":false,"rental_uris":{"android":"levelo://app?vid=c2621727-2a3e-4c0d-8a76-d0b21655c733","ios":"levelo://app?vid=c2621727-2a3e-4c0d-8a76-d0b21655c733"},"vehicle_type_id":"4","last_reported":1747657300,"current_range_meters":17200,"station_id":"ce4bhbh2rcd13ifvqeqg","pricing_plan_id":"cebpf4jnsgd1na2vs0mg"},{"bike_id":"3f072042-577a-4841-828d-6cfe85556bac","system_id":"levelo_inurba_marseille","lat":43.2319,"lon":5.39979,"is_reserved":false,"is_disabled":false,"rental_uris":{"android":"levelo://app?vid=3f072042-577a-4841-828d-6cfe85556bac","ios":"levelo://app?vid=3f072042-577a-4841-828d-6cfe85556bac"},"vehicle_type_id":"4","last_reported":1747657300,"current_range_meters":17200,"station_id":"ce4bhn12rcd13ifvqgqg","pricing_plan_id":"cebpf4jnsgd1na2vs0mg"},{"bike_id":"b783b342-53d6-4576-88d2-22ef5ac5ba3a","system_id":"levelo_inurba_marseille","lat":43.24386,"lon":5.37056,"is_reserved":false,"is_disabled":false,"rental_uris":{"android":"levelo://app?vid=b783b342-53d6-4576-88d2-22ef5ac5ba3a","ios":"levelo://app?vid=b783b342-53d6-4576-88d2-22ef5ac5ba3a"},"vehicle_type_id":"4","last_reported":1747657300,"current_range_meters":17600,"station_id":"ce4bhhh2rcd13ifvqfk0","pricing_plan_id":"cebpf4jnsgd1na2vs0mg"},{"bike_id":"a9df3068-bb4b-43a3-9ce5-b9fa2576cca3","system_id":"levelo_inurba_marseille","lat":43.29592,"lon":5.36741,"is_reserved":false,"is_disabled":false,"rental_uris":{"android":"levelo://app?vid=a9df3068-bb4b-43a3-9ce5-b9fa2576cca3","ios":"levelo://app?vid=a9df3068-bb4b-43a3-9ce5-b9fa2576cca3"},"vehicle_type_id":"4","last_reported":1747657300,"current_range_meters":17600,"station_id":"ce4bgph2rcd13ifvqc2g","pricing_plan_id":"cebpf4jnsgd1na2vs0mg"},{"bike_id":"b4092363-ce05-481e-b8a5-74f257327df5","system_id":"levelo_inurba_marseille","lat":43.250869,"lon":5.395242,"is_reserved":false,"is_disabled":false,"rental_uris":{"android":"levelo://app?vid=b4092363-ce05-481e-b8a5-74f257327df5","ios":"levelo://app?vid=b4092363-ce05-481e-b8a5-74f257327df5"},"vehicle_type_id":"4","last_reported":1747657300,"current_range_meters":17600,"station_id":"ce4bhm12rcd13ifvqgkg","pricing_plan_id":"cebpf4jnsgd1na2vs0mg"},{"bike_id":"d0545233-f8b1-4f0f-8878-f0d2aa24d986","system_id":"levelo_inurba_marseille","lat":43.30133,"lon":5.37416,"is_reserved":false,"is_disabled":false,"rental_uris":{"android":"levelo://app?vid=d0545233-f8b1-4f0f-8878-f0d2aa24d986","ios":"levelo://app?vid=d0545233-f8b1-4f0f-8878-f0d2aa24d986"},"vehicle_type_id":"4","last_reported":1747657300,"current_range_meters":17600,"station_id":"ce4bgs92rcd13ifvqcc0","pricing_plan_id":"cebpf4jnsgd1na2vs0mg"},{"bike_id":"2d38604a-0662-4568-b9d8-de4d6697f522","system_id":"levelo_inurba_marseille","lat":43.29584,"lon":5.36735,"is_reserved":false,"is_disabled":false,"rental_uris":{"android":"levelo://app?vid=2d38604a-0662-4568-b9d8-de4d6697f522","ios":"levelo://app?vid=2d38604a-0662-4568-b9d8-de4d6697f522"},"vehicle_type_id":"4","last_reported":1747657300,"current_range_meters":17600,"station_id":"ce4bgph2rcd13ifvqc2g","pricing_plan_id":"cebpf4jnsgd1na2vs0mg"},{"bike_id":"74a40917-1de0-42bc-a375-70a10c599bbd","system_id":"levelo_inurba_marseille","lat":43.29864,"lon":5.39721,"is_reserved":false,"is_disabled":false,"rental_uris":{"android":"levelo://app?vid=74a40917-1de0-42bc-a375-70a10c599bbd","ios":"levelo://app?vid=74a40917-1de0-42bc-a375-70a10c599bbd"},"vehicle_type_id":"4","last_reported":1747657300,"current_range_meters":17600,"station_id":"ce4bh0h2rcd13ifvqd50","pricing_plan_id":"cebpf4jnsgd1na2vs0mg"},{"bike_id":"e74d7a88-0a59-4246-8675-88c01af4ede5","system_id":"levelo_inurba_marseille","lat":43.28349,"lon":5.38107,"is_reserved":false,"is_disabled":false,"rental_uris":{"android":"levelo://app?vid=e74d7a88-0a59-4246-8675-88c01af4ede5","ios":"levelo://app?vid=e74d7a88-0a59-4246-8675-88c01af4ede5"},"vehicle_type_id":"4","last_reported":1747657300,"current_range_meters":17600,"station_id":"ce4bh412rcd13ifvqdr0","pricing_plan_id":"cebpf4jnsgd1na2vs0mg"},{"bike_id":"6386b301-5c5b-41dc-9be6-064d845d26a2","system_id":"levelo_inurba_marseille","lat":43.2863,"lon":5.40654,"is_reserved":false,"is_disabled":false,"rental_uris":{"android":"levelo://app?vid=6386b301-5c5b-41dc-9be6-064d845d26a2","ios":"levelo://app?vid=6386b301-5c5b-41dc-9be6-064d845d26a2"},"vehicle_type_id":"4","last_reported":1747657300,"current_range_meters":17600,"station_id":"","pricing_plan_id":"cebpf4jnsgd1na2vs0mg"},{"bike_id":"de4129a8-52f4-45b7-a908-bc11a29c45f6","system_id":"levelo_inurba_marseille","lat":43.28612,"lon":5.37057,"is_reserved":false,"is_disabled":false,"rental_uris":{"android":"levelo://app?vid=de4129a8-52f4-45b7-a908-bc11a29c45f6","ios":"levelo://app?vid=de4129a8-52f4-45b7-a908-bc11a29c45f6"},"vehicle_type_id":"4","last_reported":1747657300,"current_range_meters":17600,"station_id":"ce4bht12rcd13ifvqi60","pricing_plan_id":"cebpf4jnsgd1na2vs0mg"},{"bike_id":"307b3d88-0458-496d-b0b6-720aa24ee854","system_id":"levelo_inurba_marseille","lat":43.30538,"lon":5.38427,"is_reserved":false,"is_disabled":false,"rental_uris":{"android":"levelo://app?vid=307b3d88-0458-496d-b0b6-720aa24ee854","ios":"levelo://app?vid=307b3d88-0458-496d-b0b6-720aa24ee854"},"vehicle_type_id":"4","last_reported":1747657300,"current_range_meters":18000,"station_id":"ce4bgg92rcd13ifvqb30","pricing_plan_id":"cebpf4jnsgd1na2vs0mg"},{"bike_id":"a77299a9-0afc-4000-817b-f97ca1eaadca","system_id":"levelo_inurba_marseille","lat":43.28838,"lon":5.45946,"is_reserved":false,"is_disabled":false,"rental_uris":{"android":"levelo://app?vid=a77299a9-0afc-4000-817b-f97ca1eaadca","ios":"levelo://app?vid=a77299a9-0afc-4000-817b-f97ca1eaadca"},"vehicle_type_id":"4","last_reported":1747657300,"current_range_meters":18000,"station_id":"","pricing_plan_id":"cebpf4jnsgd1na2vs0mg"},{"bike_id":"8675cc91-343d-4f04-a5ab-d440461b07f3","system_id":"levelo_inurba_marseille","lat":43.25899,"lon":5.40889,"is_reserved":false,"is_disabled":false,"rental_uris":{"android":"levelo://app?vid=8675cc91-343d-4f04-a5ab-d440461b07f3","ios":"levelo://app?vid=8675cc91-343d-4f04-a5ab-d440461b07f3"},"vehicle_type_id":"4","last_reported":1747657300,"current_range_meters":18000,"station_id":"ce4bhm92rcd13ifvqglg","pricing_plan_id":"cebpf4jnsgd1na2vs0mg"},{"bike_id":"0f1019f2-9a46-4a7d-9578-9d2a87b316c7","system_id":"levelo_inurba_marseille","lat":43.30592,"lon":5.37223,"is_reserved":false,"is_disabled":false,"rental_uris":{"android":"levelo://app?vid=0f1019f2-9a46-4a7d-9578-9d2a87b316c7","ios":"levelo://app?vid=0f1019f2-9a46-4a7d-9578-9d2a87b316c7"},"vehicle_type_id":"4","last_reported":1747657300,"current_range_meters":18000,"station_id":"ce4bgqh2rcd13ifvqc4g","pricing_plan_id":"cebpf4jnsgd1na2vs0mg"},{"bike_id":"3f7fe803-6821-4217-89f8-fc9b77e464f6","system_id":"levelo_inurba_marseille","lat":43.31365,"lon":5.36712,"is_reserved":false,"is_disabled":false,"rental_uris":{"android":"levelo://app?vid=3f7fe803-6821-4217-89f8-fc9b77e464f6","ios":"levelo://app?vid=3f7fe803-6821-4217-89f8-fc9b77e464f6"},"vehicle_type_id":"4","last_reported":1747657300,"current_range_meters":18000,"station_id":"ce4bgr92rcd13ifvqc6g","pricing_plan_id":"cebpf4jnsgd1na2vs0mg"},{"bike_id":"a216599f-e9f7-4c08-bdbd-7acfe01c5a3b","system_id":"levelo_inurba_marseille","lat":43.29583,"lon":5.36732,"is_reserved":false,"is_disabled":false,"rental_uris":{"android":"levelo://app?vid=a216599f-e9f7-4c08-bdbd-7acfe01c5a3b","ios":"levelo://app?vid=a216599f-e9f7-4c08-bdbd-7acfe01c5a3b"},"vehicle_type_id":"4","last_reported":1747657300,"current_range_meters":18000,"station_id":"ce4bgph2rcd13ifvqc2g","pricing_plan_id":"cebpf4jnsgd1na2vs0mg"},{"bike_id":"3bf889a5-8cb1-4b7f-bd07-cad0ec4292a5","system_id":"levelo_inurba_marseille","lat":43.29711,"lon":5.37702,"is_reserved":false,"is_disabled":false,"rental_uris":{"android":"levelo://app?vid=3bf889a5-8cb1-4b7f-bd07-cad0ec4292a5","ios":"levelo://app?vid=3bf889a5-8cb1-4b7f-bd07-cad0ec4292a5"},"vehicle_type_id":"4","last_reported":1747657300,"current_range_meters":18000,"station_id":"ce4bgkh2rcd13ifvqbl0","pricing_plan_id":"cebpf4jnsgd1na2vs0mg"},{"bike_id":"496021db-b509-4e1f-98a0-90a64b05261c","system_id":"levelo_inurba_marseille","lat":43.28415,"lon":5.34984,"is_reserved":false,"is_disabled":false,"rental_uris":{"android":"levelo://app?vid=496021db-b509-4e1f-98a0-90a64b05261c","ios":"levelo://app?vid=496021db-b509-4e1f-98a0-90a64b05261c"},"vehicle_type_id":"4","last_reported":1747657300,"current_range_meters":18000,"station_id":"ce4bhbh2rcd13ifvqepg","pricing_plan_id":"cebpf4jnsgd1na2vs0mg"},{"bike_id":"85d0eee4-7023-4816-8341-7b198d182543","system_id":"levelo_inurba_marseille","lat":43.259386,"lon":5.40898,"is_reserved":false,"is_disabled":false,"rental_uris":{"android":"levelo://app?vid=85d0eee4-7023-4816-8341-7b198d182543","ios":"levelo://app?vid=85d0eee4-7023-4816-8341-7b198d182543"},"vehicle_type_id":"4","last_reported":1747657300,"current_range_meters":18000,"station_id":"ce4bhm92rcd13ifvqglg","pricing_plan_id":"cebpf4jnsgd1na2vs0mg"},{"bike_id":"da2d473c-13f1-4407-a5a9-c039f0276a5c","system_id":"levelo_inurba_marseille","lat":43.28412,"lon":5.34981,"is_reserved":false,"is_disabled":false,"rental_uris":{"android":"levelo://app?vid=da2d473c-13f1-4407-a5a9-c039f0276a5c","ios":"levelo://app?vid=da2d473c-13f1-4407-a5a9-c039f0276a5c"},"vehicle_type_id":"4","last_reported":1747657300,"current_range_meters":18000,"station_id":"ce4bhbh2rcd13ifvqepg","pricing_plan_id":"cebpf4jnsgd1na2vs0mg"},{"bike_id":"d2006ca5-5ebe-4a4e-bba8-a06bc2367a9d","system_id":"levelo_inurba_marseille","lat":43.24176,"lon":5.39733,"is_reserved":false,"is_disabled":false,"rental_uris":{"android":"levelo://app?vid=d2006ca5-5ebe-4a4e-bba8-a06bc2367a9d","ios":"levelo://app?vid=d2006ca5-5ebe-4a4e-bba8-a06bc2367a9d"},"vehicle_type_id":"4","last_reported":1747657300,"current_range_meters":18000,"station_id":"ce4bhn12rcd13ifvqgpg","pricing_plan_id":"cebpf4jnsgd1na2vs0mg"},{"bike_id":"e1ee36d4-83f8-4dd8-b7e6-01c1122dc44f","system_id":"levelo_inurba_marseille","lat":43.28611,"lon":5.37059,"is_reserved":false,"is_disabled":false,"rental_uris":{"android":"levelo://app?vid=e1ee36d4-83f8-4dd8-b7e6-01c1122dc44f","ios":"levelo://app?vid=e1ee36d4-83f8-4dd8-b7e6-01c1122dc44f"},"vehicle_type_id":"4","last_reported":1747657300,"current_range_meters":18800,"station_id":"ce4bht12rcd13ifvqi60","pricing_plan_id":"cebpf4jnsgd1na2vs0mg"},{"bike_id":"41ae61df-a188-44b4-a0bc-c3e5f3e113ad","system_id":"levelo_inurba_marseille","lat":43.25635,"lon":5.41098,"is_reserved":false,"is_disabled":false,"rental_uris":{"android":"levelo://app?vid=41ae61df-a188-44b4-a0bc-c3e5f3e113ad","ios":"levelo://app?vid=41ae61df-a188-44b4-a0bc-c3e5f3e113ad"},"vehicle_type_id":"4","last_reported":1747657300,"current_range_meters":18800,"station_id":"","pricing_plan_id":"cebpf4jnsgd1na2vs0mg"},{"bike_id":"74caece3-0366-45d1-ad29-c4f1a1a87b31","system_id":"levelo_inurba_marseille","lat":43.21759,"lon":5.34595,"is_reserved":false,"is_disabled":false,"rental_uris":{"android":"levelo://app?vid=74caece3-0366-45d1-ad29-c4f1a1a87b31","ios":"levelo://app?vid=74caece3-0366-45d1-ad29-c4f1a1a87b31"},"vehicle_type_id":"4","last_reported":1747657300,"current_range_meters":18800,"station_id":"st_cvj6r9ubvosntc0bgbag","pricing_plan_id":"cebpf4jnsgd1na2vs0mg"},{"bike_id":"dc61c065-6ed1-487e-9ecf-5a93a8f61ca7","system_id":"levelo_inurba_marseille","lat":43.231822,"lon":5.399822,"is_reserved":false,"is_disabled":false,"rental_uris":{"android":"levelo://app?vid=dc61c065-6ed1-487e-9ecf-5a93a8f61ca7","ios":"levelo://app?vid=dc61c065-6ed1-487e-9ecf-5a93a8f61ca7"},"vehicle_type_id":"4","last_reported":1747657300,"current_range_meters":19200,"station_id":"ce4bhn12rcd13ifvqgqg","pricing_plan_id":"cebpf4jnsgd1na2vs0mg"},{"bike_id":"d007bbf1-d66c-4f9c-b7c7-76aa9cbb6c59","system_id":"levelo_inurba_marseille","lat":43.29539,"lon":5.39397,"is_reserved":false,"is_disabled":false,"rental_uris":{"android":"levelo://app?vid=d007bbf1-d66c-4f9c-b7c7-76aa9cbb6c59","ios":"levelo://app?vid=d007bbf1-d66c-4f9c-b7c7-76aa9cbb6c59"},"vehicle_type_id":"4","last_reported":1747657300,"current_range_meters":18000,"station_id":"ce4bh292rcd13ifvqdf0","pricing_plan_id":"cebpf4jnsgd1na2vs0mg"},{"bike_id":"4fa0491e-74c2-4fab-8841-8da8cc91fe36","system_id":"levelo_inurba_marseille","lat":43.29926,"lon":5.36549,"is_reserved":false,"is_disabled":false,"rental_uris":{"android":"levelo://app?vid=4fa0491e-74c2-4fab-8841-8da8cc91fe36","ios":"levelo://app?vid=4fa0491e-74c2-4fab-8841-8da8cc91fe36"},"vehicle_type_id":"4","last_reported":1747657300,"current_range_meters":18800,"station_id":"ce4bgm92rcd13ifvqbr0","pricing_plan_id":"cebpf4jnsgd1na2vs0mg"},{"bike_id":"26283993-e9c8-469b-b1ea-05a027988f4d","system_id":"levelo_inurba_marseille","lat":43.25493,"lon":5.37654,"is_reserved":false,"is_disabled":true,"rental_uris":{"android":"levelo://app?vid=26283993-e9c8-469b-b1ea-05a027988f4d","ios":"levelo://app?vid=26283993-e9c8-469b-b1ea-05a027988f4d"},"vehicle_type_id":"4","last_reported":1747657300,"current_range_meters":18800,"station_id":"","pricing_plan_id":"cebpf4jnsgd1na2vs0mg"},{"bike_id":"48ff6fa3-e961-4fea-b48d-506cbfaba104","system_id":"levelo_inurba_marseille","lat":43.2927,"lon":5.36832,"is_reserved":false,"is_disabled":false,"rental_uris":{"android":"levelo://app?vid=48ff6fa3-e961-4fea-b48d-506cbfaba104","ios":"levelo://app?vid=48ff6fa3-e961-4fea-b48d-506cbfaba104"},"vehicle_type_id":"4","last_reported":1747657300,"current_range_meters":18800,"station_id":"ce4bhbp2rcd13ifvqesg","pricing_plan_id":"cebpf4jnsgd1na2vs0mg"},{"bike_id":"a162cffd-ee20-4551-903b-8d20a74c4973","system_id":"levelo_inurba_marseille","lat":43.3055,"lon":5.36715,"is_reserved":false,"is_disabled":false,"rental_uris":{"android":"levelo://app?vid=a162cffd-ee20-4551-903b-8d20a74c4973","ios":"levelo://app?vid=a162cffd-ee20-4551-903b-8d20a74c4973"},"vehicle_type_id":"4","last_reported":1747657300,"current_range_meters":18800,"station_id":"ce4bgrp2rcd13ifvqc9g","pricing_plan_id":"cebpf4jnsgd1na2vs0mg"},{"bike_id":"44adb9db-ee83-4504-a40e-694c2000f5bc","system_id":"levelo_inurba_marseille","lat":43.21196,"lon":5.350755,"is_reserved":false,"is_disabled":false,"rental_uris":{"android":"levelo://app?vid=44adb9db-ee83-4504-a40e-694c2000f5bc","ios":"levelo://app?vid=44adb9db-ee83-4504-a40e-694c2000f5bc"},"vehicle_type_id":"4","last_reported":1747657300,"current_range_meters":18800,"station_id":"","pricing_plan_id":"cebpf4jnsgd1na2vs0mg"},{"bike_id":"131d62c6-cc72-48f7-81d5-9a0bf7f51605","system_id":"levelo_inurba_marseille","lat":43.28659,"lon":5.36344,"is_reserved":false,"is_disabled":false,"rental_uris":{"android":"levelo://app?vid=131d62c6-cc72-48f7-81d5-9a0bf7f51605","ios":"levelo://app?vid=131d62c6-cc72-48f7-81d5-9a0bf7f51605"},"vehicle_type_id":"4","last_reported":1747657300,"current_range_meters":18800,"station_id":"ce4bhah2rcd13ifvqej0","pricing_plan_id":"cebpf4jnsgd1na2vs0mg"},{"bike_id":"33f26b6f-1fc0-402d-b510-0a4f37e005a9","system_id":"levelo_inurba_marseille","lat":43.26928,"lon":5.38919,"is_reserved":false,"is_disabled":false,"rental_uris":{"android":"levelo://app?vid=33f26b6f-1fc0-402d-b510-0a4f37e005a9","ios":"levelo://app?vid=33f26b6f-1fc0-402d-b510-0a4f37e005a9"},"vehicle_type_id":"4","last_reported":1747657300,"current_range_meters":19200,"station_id":"ce4bhhh2rcd13ifvqfl0","pricing_plan_id":"cebpf4jnsgd1na2vs0mg"},{"bike_id":"8003f1f1-aabc-4a95-af5a-f8124d5a7728","system_id":"levelo_inurba_marseille","lat":43.23187,"lon":5.39985,"is_reserved":false,"is_disabled":false,"rental_uris":{"android":"levelo://app?vid=8003f1f1-aabc-4a95-af5a-f8124d5a7728","ios":"levelo://app?vid=8003f1f1-aabc-4a95-af5a-f8124d5a7728"},"vehicle_type_id":"4","last_reported":1747657300,"current_range_meters":19200,"station_id":"ce4bhn12rcd13ifvqgqg","pricing_plan_id":"cebpf4jnsgd1na2vs0mg"},{"bike_id":"800b18d5-afe7-4aab-9e9d-52557b959315","system_id":"levelo_inurba_marseille","lat":43.29848,"lon":5.36271,"is_reserved":false,"is_disabled":false,"rental_uris":{"android":"levelo://app?vid=800b18d5-afe7-4aab-9e9d-52557b959315","ios":"levelo://app?vid=800b18d5-afe7-4aab-9e9d-52557b959315"},"vehicle_type_id":"4","last_reported":1747657300,"current_range_meters":19200,"station_id":"ce4bgpp2rcd13ifvqc3g","pricing_plan_id":"cebpf4jnsgd1na2vs0mg"},{"bike_id":"da47498f-4571-48b7-baef-356237345b0d","system_id":"levelo_inurba_marseille","lat":43.25939,"lon":5.40892,"is_reserved":false,"is_disabled":false,"rental_uris":{"android":"levelo://app?vid=da47498f-4571-48b7-baef-356237345b0d","ios":"levelo://app?vid=da47498f-4571-48b7-baef-356237345b0d"},"vehicle_type_id":"4","last_reported":1747657300,"current_range_meters":19200,"station_id":"ce4bhm92rcd13ifvqglg","pricing_plan_id":"cebpf4jnsgd1na2vs0mg"},{"bike_id":"c7e5c340-ba64-41df-bbae-b053225560bc","system_id":"levelo_inurba_marseille","lat":43.29098,"lon":5.38128,"is_reserved":false,"is_disabled":false,"rental_uris":{"android":"levelo://app?vid=c7e5c340-ba64-41df-bbae-b053225560bc","ios":"levelo://app?vid=c7e5c340-ba64-41df-bbae-b053225560bc"},"vehicle_type_id":"4","last_reported":1747657300,"current_range_meters":19200,"station_id":"ce4bh512rcd13ifvqe2g","pricing_plan_id":"cebpf4jnsgd1na2vs0mg"},{"bike_id":"10bb76eb-ba05-4935-bc2c-f678aa639dc8","system_id":"levelo_inurba_marseille","lat":43.3047,"lon":5.37912,"is_reserved":false,"is_disabled":false,"rental_uris":{"android":"levelo://app?vid=10bb76eb-ba05-4935-bc2c-f678aa639dc8","ios":"levelo://app?vid=10bb76eb-ba05-4935-bc2c-f678aa639dc8"},"vehicle_type_id":"4","last_reported":1747657300,"current_range_meters":19200,"station_id":"ce4bgup2rcd13ifvqcn0","pricing_plan_id":"cebpf4jnsgd1na2vs0mg"},{"bike_id":"76e030a9-9a4a-40dc-acef-73f41a5fa954","system_id":"levelo_inurba_marseille","lat":43.26953,"lon":5.386367,"is_reserved":false,"is_disabled":false,"rental_uris":{"android":"levelo://app?vid=76e030a9-9a4a-40dc-acef-73f41a5fa954","ios":"levelo://app?vid=76e030a9-9a4a-40dc-acef-73f41a5fa954"},"vehicle_type_id":"4","last_reported":1747657300,"current_range_meters":19200,"station_id":"ce4bhh92rcd13ifvqfh0","pricing_plan_id":"cebpf4jnsgd1na2vs0mg"},{"bike_id":"b58ea393-ffc8-48b5-9c74-00d303747133","system_id":"levelo_inurba_marseille","lat":43.27069,"lon":5.42277,"is_reserved":false,"is_disabled":false,"rental_uris":{"android":"levelo://app?vid=b58ea393-ffc8-48b5-9c74-00d303747133","ios":"levelo://app?vid=b58ea393-ffc8-48b5-9c74-00d303747133"},"vehicle_type_id":"4","last_reported":1747657300,"current_range_meters":19600,"station_id":"ce4bhk92rcd13ifvqgb0","pricing_plan_id":"cebpf4jnsgd1na2vs0mg"},{"bike_id":"ba3d2b59-aa14-4915-a02c-8f590f6c5a6a","system_id":"levelo_inurba_marseille","lat":43.30891,"lon":5.3685,"is_reserved":false,"is_disabled":false,"rental_uris":{"android":"levelo://app?vid=ba3d2b59-aa14-4915-a02c-8f590f6c5a6a","ios":"levelo://app?vid=ba3d2b59-aa14-4915-a02c-8f590f6c5a6a"},"vehicle_type_id":"4","last_reported":1747657300,"current_range_meters":19600,"station_id":"ce4bgn92rcd13ifvqbvg","pricing_plan_id":"cebpf4jnsgd1na2vs0mg"},{"bike_id":"66bd00e0-fa64-40e0-bd90-8bd620c1dc30","system_id":"levelo_inurba_marseille","lat":43.29282,"lon":5.40125,"is_reserved":false,"is_disabled":false,"rental_uris":{"android":"levelo://app?vid=66bd00e0-fa64-40e0-bd90-8bd620c1dc30","ios":"levelo://app?vid=66bd00e0-fa64-40e0-bd90-8bd620c1dc30"},"vehicle_type_id":"4","last_reported":1747657300,"current_range_meters":19600,"station_id":"ce4bh312rcd13ifvqdk0","pricing_plan_id":"cebpf4jnsgd1na2vs0mg"},{"bike_id":"28a62bd0-f5dc-451a-b6b3-5f4484126485","system_id":"levelo_inurba_marseille","lat":43.30146,"lon":5.37418,"is_reserved":false,"is_disabled":false,"rental_uris":{"android":"levelo://app?vid=28a62bd0-f5dc-451a-b6b3-5f4484126485","ios":"levelo://app?vid=28a62bd0-f5dc-451a-b6b3-5f4484126485"},"vehicle_type_id":"4","last_reported":1747657300,"current_range_meters":19600,"station_id":"ce4bgs92rcd13ifvqcc0","pricing_plan_id":"cebpf4jnsgd1na2vs0mg"},{"bike_id":"c896c5af-eeb5-47bd-98bf-719d5d07905c","system_id":"levelo_inurba_marseille","lat":43.25829,"lon":5.39436,"is_reserved":false,"is_disabled":false,"rental_uris":{"android":"levelo://app?vid=c896c5af-eeb5-47bd-98bf-719d5d07905c","ios":"levelo://app?vid=c896c5af-eeb5-47bd-98bf-719d5d07905c"},"vehicle_type_id":"4","last_reported":1747657300,"current_range_meters":19600,"station_id":"ce4bhip2rcd13ifvqft0","pricing_plan_id":"cebpf4jnsgd1na2vs0mg"},{"bike_id":"97c96074-0d1d-453e-95fb-b510cc52d343","system_id":"levelo_inurba_marseille","lat":43.30919,"lon":5.40135,"is_reserved":false,"is_disabled":false,"rental_uris":{"android":"levelo://app?vid=97c96074-0d1d-453e-95fb-b510cc52d343","ios":"levelo://app?vid=97c96074-0d1d-453e-95fb-b510cc52d343"},"vehicle_type_id":"4","last_reported":1747657300,"current_range_meters":19600,"station_id":"ce4bgvp2rcd13ifvqct0","pricing_plan_id":"cebpf4jnsgd1na2vs0mg"},{"bike_id":"f82f63ae-b6bc-483a-9fa2-1128b45cfab4","system_id":"levelo_inurba_marseille","lat":43.24167,"lon":5.36391,"is_reserved":false,"is_disabled":false,"rental_uris":{"android":"levelo://app?vid=f82f63ae-b6bc-483a-9fa2-1128b45cfab4","ios":"levelo://app?vid=f82f63ae-b6bc-483a-9fa2-1128b45cfab4"},"vehicle_type_id":"4","last_reported":1747657300,"current_range_meters":19600,"station_id":"cpo36qri1sfpv3e86is0","pricing_plan_id":"cebpf4jnsgd1na2vs0mg"},{"bike_id":"225f3cea-db27-4174-a5ef-9d9d69f7434c","system_id":"levelo_inurba_marseille","lat":43.29843,"lon":5.36268,"is_reserved":false,"is_disabled":false,"rental_uris":{"android":"levelo://app?vid=225f3cea-db27-4174-a5ef-9d9d69f7434c","ios":"levelo://app?vid=225f3cea-db27-4174-a5ef-9d9d69f7434c"},"vehicle_type_id":"4","last_reported":1747657300,"current_range_meters":19600,"station_id":"ce4bgpp2rcd13ifvqc3g","pricing_plan_id":"cebpf4jnsgd1na2vs0mg"},{"bike_id":"bfe38814-b852-488d-8290-b14f4bf8fa23","system_id":"levelo_inurba_marseille","lat":43.30469,"lon":5.37909,"is_reserved":false,"is_disabled":false,"rental_uris":{"android":"levelo://app?vid=bfe38814-b852-488d-8290-b14f4bf8fa23","ios":"levelo://app?vid=bfe38814-b852-488d-8290-b14f4bf8fa23"},"vehicle_type_id":"4","last_reported":1747657300,"current_range_meters":19600,"station_id":"ce4bgup2rcd13ifvqcn0","pricing_plan_id":"cebpf4jnsgd1na2vs0mg"},{"bike_id":"6a6ef7b6-a7cf-49d5-8e85-45b9aa1b64b4","system_id":"levelo_inurba_marseille","lat":43.29809,"lon":5.38098,"is_reserved":false,"is_disabled":false,"rental_uris":{"android":"levelo://app?vid=6a6ef7b6-a7cf-49d5-8e85-45b9aa1b64b4","ios":"levelo://app?vid=6a6ef7b6-a7cf-49d5-8e85-45b9aa1b64b4"},"vehicle_type_id":"4","last_reported":1747657300,"current_range_meters":20000,"station_id":"ce4bgip2rcd13ifvqbb0","pricing_plan_id":"cebpf4jnsgd1na2vs0mg"},{"bike_id":"c52f169f-60f3-4f23-aba1-2578c1dfb918","system_id":"levelo_inurba_marseille","lat":43.28041,"lon":5.36942,"is_reserved":false,"is_disabled":false,"rental_uris":{"android":"levelo://app?vid=c52f169f-60f3-4f23-aba1-2578c1dfb918","ios":"levelo://app?vid=c52f169f-60f3-4f23-aba1-2578c1dfb918"},"vehicle_type_id":"4","last_reported":1747657300,"current_range_meters":20000,"station_id":"ce4bha12rcd13ifvqef0","pricing_plan_id":"cebpf4jnsgd1na2vs0mg"},{"bike_id":"49442449-f153-4aa1-a6db-67821fdb603a","system_id":"levelo_inurba_marseille","lat":43.28849,"lon":5.39304,"is_reserved":false,"is_disabled":false,"rental_uris":{"android":"levelo://app?vid=49442449-f153-4aa1-a6db-67821fdb603a","ios":"levelo://app?vid=49442449-f153-4aa1-a6db-67821fdb603a"},"vehicle_type_id":"4","last_reported":1747657300,"current_range_meters":20000,"station_id":"ce4bh2p2rcd13ifvqdi0","pricing_plan_id":"cebpf4jnsgd1na2vs0mg"},{"bike_id":"275b5b60-7e4a-4097-aa00-8752e9d745a7","system_id":"levelo_inurba_marseille","lat":43.32537,"lon":5.41426,"is_reserved":false,"is_disabled":false,"rental_uris":{"android":"levelo://app?vid=275b5b60-7e4a-4097-aa00-8752e9d745a7","ios":"levelo://app?vid=275b5b60-7e4a-4097-aa00-8752e9d745a7"},"vehicle_type_id":"4","last_reported":1747657300,"current_range_meters":20000,"station_id":"ce4bhq12rcd13ifvqhhg","pricing_plan_id":"cebpf4jnsgd1na2vs0mg"},{"bike_id":"bbae9470-c4e6-406c-8e2e-0ffe5e843b63","system_id":"levelo_inurba_marseille","lat":43.21752,"lon":5.34595,"is_reserved":false,"is_disabled":false,"rental_uris":{"android":"levelo://app?vid=bbae9470-c4e6-406c-8e2e-0ffe5e843b63","ios":"levelo://app?vid=bbae9470-c4e6-406c-8e2e-0ffe5e843b63"},"vehicle_type_id":"4","last_reported":1747657300,"current_range_meters":20000,"station_id":"st_cvj6r9ubvosntc0bgbag","pricing_plan_id":"cebpf4jnsgd1na2vs0mg"},{"bike_id":"704ea015-f11e-4ad9-8dcb-3aa820a9c231","system_id":"levelo_inurba_marseille","lat":43.30543,"lon":5.36526,"is_reserved":false,"is_disabled":false,"rental_uris":{"android":"levelo://app?vid=704ea015-f11e-4ad9-8dcb-3aa820a9c231","ios":"levelo://app?vid=704ea015-f11e-4ad9-8dcb-3aa820a9c231"},"vehicle_type_id":"4","last_reported":1747657300,"current_range_meters":20000,"station_id":"ce4bgs12rcd13ifvqcag","pricing_plan_id":"cebpf4jnsgd1na2vs0mg"},{"bike_id":"ff9c0139-8417-45ce-9cbf-96d67e627027","system_id":"levelo_inurba_marseille","lat":43.275013,"lon":5.42454,"is_reserved":false,"is_disabled":false,"rental_uris":{"android":"levelo://app?vid=ff9c0139-8417-45ce-9cbf-96d67e627027","ios":"levelo://app?vid=ff9c0139-8417-45ce-9cbf-96d67e627027"},"vehicle_type_id":"4","last_reported":1747657300,"current_range_meters":20000,"station_id":"ce4bhn92rcd13ifvqgrg","pricing_plan_id":"cebpf4jnsgd1na2vs0mg"},{"bike_id":"97a86dc9-cdbb-4884-892e-ffc3c535da38","system_id":"levelo_inurba_marseille","lat":43.24084,"lon":5.3815,"is_reserved":false,"is_disabled":false,"rental_uris":{"android":"levelo://app?vid=97a86dc9-cdbb-4884-892e-ffc3c535da38","ios":"levelo://app?vid=97a86dc9-cdbb-4884-892e-ffc3c535da38"},"vehicle_type_id":"4","last_reported":1747657300,"current_range_meters":20400,"station_id":"","pricing_plan_id":"cebpf4jnsgd1na2vs0mg"},{"bike_id":"0f9f7651-d413-46b7-8895-017e27717584","system_id":"levelo_inurba_marseille","lat":43.29077,"lon":5.37139,"is_reserved":false,"is_disabled":false,"rental_uris":{"android":"levelo://app?vid=0f9f7651-d413-46b7-8895-017e27717584","ios":"levelo://app?vid=0f9f7651-d413-46b7-8895-017e27717584"},"vehicle_type_id":"4","last_reported":1747657300,"current_range_meters":20400,"station_id":"ce4bh5p2rcd13ifvqe4g","pricing_plan_id":"cebpf4jnsgd1na2vs0mg"},{"bike_id":"c7fa045b-8abd-4bd8-ac58-69864d07dca7","system_id":"levelo_inurba_marseille","lat":43.321086,"lon":5.367784,"is_reserved":false,"is_disabled":false,"rental_uris":{"android":"levelo://app?vid=c7fa045b-8abd-4bd8-ac58-69864d07dca7","ios":"levelo://app?vid=c7fa045b-8abd-4bd8-ac58-69864d07dca7"},"vehicle_type_id":"4","last_reported":1747657300,"current_range_meters":20400,"station_id":"ce4bhrh2rcd13ifvqhug","pricing_plan_id":"cebpf4jnsgd1na2vs0mg"},{"bike_id":"255735c9-dcc0-455d-9b22-95619516494b","system_id":"levelo_inurba_marseille","lat":43.24075,"lon":5.37756,"is_reserved":false,"is_disabled":false,"rental_uris":{"android":"levelo://app?vid=255735c9-dcc0-455d-9b22-95619516494b","ios":"levelo://app?vid=255735c9-dcc0-455d-9b22-95619516494b"},"vehicle_type_id":"4","last_reported":1747657300,"current_range_meters":20400,"station_id":"ce4bhnp2rcd13ifvqgvg","pricing_plan_id":"cebpf4jnsgd1na2vs0mg"},{"bike_id":"51c08aaa-9b23-422b-bef7-daf9e5ec9042","system_id":"levelo_inurba_marseille","lat":43.23182,"lon":5.39984,"is_reserved":false,"is_disabled":false,"rental_uris":{"android":"levelo://app?vid=51c08aaa-9b23-422b-bef7-daf9e5ec9042","ios":"levelo://app?vid=51c08aaa-9b23-422b-bef7-daf9e5ec9042"},"vehicle_type_id":"4","last_reported":1747657300,"current_range_meters":20400,"station_id":"ce4bhn12rcd13ifvqgqg","pricing_plan_id":"cebpf4jnsgd1na2vs0mg"},{"bike_id":"80da71de-08dc-4a89-95b7-28e0a22e5ad7","system_id":"levelo_inurba_marseille","lat":43.30467,"lon":5.37904,"is_reserved":false,"is_disabled":false,"rental_uris":{"android":"levelo://app?vid=80da71de-08dc-4a89-95b7-28e0a22e5ad7","ios":"levelo://app?vid=80da71de-08dc-4a89-95b7-28e0a22e5ad7"},"vehicle_type_id":"4","last_reported":1747657300,"current_range_meters":20400,"station_id":"ce4bgup2rcd13ifvqcn0","pricing_plan_id":"cebpf4jnsgd1na2vs0mg"},{"bike_id":"9a11f1ad-70c8-4487-9f09-ed0c7806813f","system_id":"levelo_inurba_marseille","lat":43.29631,"lon":5.37738,"is_reserved":false,"is_disabled":false,"rental_uris":{"android":"levelo://app?vid=9a11f1ad-70c8-4487-9f09-ed0c7806813f","ios":"levelo://app?vid=9a11f1ad-70c8-4487-9f09-ed0c7806813f"},"vehicle_type_id":"4","last_reported":1747657300,"current_range_meters":20000,"station_id":"ce4bgi92rcd13ifvqb90","pricing_plan_id":"cebpf4jnsgd1na2vs0mg"},{"bike_id":"feb5b368-32a0-4fe4-bd9b-3c58f8f3fd98","system_id":"levelo_inurba_marseille","lat":43.30527,"lon":5.38428,"is_reserved":false,"is_disabled":false,"rental_uris":{"android":"levelo://app?vid=feb5b368-32a0-4fe4-bd9b-3c58f8f3fd98","ios":"levelo://app?vid=feb5b368-32a0-4fe4-bd9b-3c58f8f3fd98"},