{"last_updated":1727600944,"ttl":60,"version":"2.2","data":{"bikes":[{"bike_id":"dbd08a79-2b4f-4d24-a822-e1c44c92fd16","system_id":"levelo_inurba_marseille","lat":43.27924,"lon":5.39576,"is_reserved":false,"is_disabled":false,"rental_uris":{"android":"levelo://app?vid=dbd08a79-2b4f-4d24-a822-e1c44c92fd16","ios":"levelo://app?vid=dbd08a79-2b4f-4d24-a822-e1c44c92fd16"},"vehicle_type_id":"4","last_reported":1727600944,"current_range_meters":35600,"station_id":"ce4bhf92rcd13ifvqf40","pricing_plan_id":"cebpf4jnsgd1na2vs0mg"},{"bike_id":"140c9b1a-ea18-4c9b-b5e2-9e34271c1201","system_id":"levelo_inurba_marseille","lat":43.28149,"lon":5.4265,"is_reserved":false,"is_disabled":false,"rental_uris":{"android":"levelo://app?vid=140c9b1a-ea18-4c9b-b5e2-9e34271c1201","ios":"levelo://app?vid=140c9b1a-ea18-4c9b-b5e2-9e34271c1201"},"vehicle_type_id":"4","last_reported":1727600944,"current_range_meters":38400,"station_id":"ce4bhnh2rcd13ifvqgug","pricing_plan_id":"cebpf4jnsgd1na2vs0mg"},{"bike_id":"11b6329c-beb6-4f34-9463-da53adfce3a2","system_id":"levelo_inurba_marseille","lat":43.2984,"lon":5.36271,"is_reserved":false,"is_disabled":false,"rental_uris":{"android":"levelo://app?vid=11b6329c-beb6-4f34-9463-da53adfce3a2","ios":"levelo://app?vid=11b6329c-beb6-4f34-9463-da53adfce3a2"},"vehicle_type_id":"4","last_reported":1727600944,"current_range_meters":33600,"station_id":"ce4bgpp2rcd13ifvqc3g","pricing_plan_id":"cebpf4jnsgd1na2vs0mg"},{"bike_id":"d3c2fe0e-3f4e-4303-ae23-7f25f368fade","system_id":"levelo_inurba_marseille","lat":43.323654,"lon":5.388816,"is_reserved":false,"is_disabled":false,"rental_uris":{"android":"levelo://app?vid=d3c2fe0e-3f4e-4303-ae23-7f25f368fade","ios":"levelo://app?vid=d3c2fe0e-3f4e-4303-ae23-7f25f368fade"},"vehicle_type_id":"4","last_reported":1727600944,"current_range_meters":8000,"station_id":"ce4bhqp2rcd13ifvqhog","pricing_plan_id":"cebpf4jnsgd1na2vs0mg"},{"bike_id":"acf0da7d-e6b3-48a2-8905-5de8bc3b795a","system_id":"levelo_inurba_marseille","lat":43.32008,"lon":5.3814,"is_reserved":false,"is_disabled":false,"rental_uris":{"android":"levelo://app?vid=acf0da7d-e6b3-48a2-8905-5de8bc3b795a","ios":"levelo://app?vid=acf0da7d-e6b3-48a2-8905-5de8bc3b795a"},"vehicle_type_id":"4","last_reported":1727600944,"current_range_meters":9600,"station_id":"ce4bhr12rcd13ifvqhpg","pricing_plan_id":"cebpf4jnsgd1na2vs0mg"},{"bike_id":"0ea9e4c4-cc08-41d9-862d-a80f7d54740c","system_id":"levelo_inurba_marseille","lat":43.3229,"lon":5.38275,"is_reserved":false,"is_disabled":false,"rental_uris":{"android":"levelo://app?vid=0ea9e4c4-cc08-41d9-862d-a80f7d54740c","ios":"levelo://app?vid=0ea9e4c4-cc08-41d9-862d-a80f7d54740c"},"vehicle_type_id":"4","last_reported":1727600944,"current_range_meters":38000,"station_id":"ce4bhr12rcd13ifvqhqg","pricing_plan_id":"cebpf4jnsgd1na2vs0mg"},{"bike_id":"61d2ac86-dd9c-46d1-86f5-897af05c5375","system_id":"levelo_inurba_marseille","lat":43.30408,"lon":5.41292,"is_reserved":false,"is_disabled":false,"rental_uris":{"android":"levelo://app?vid=61d2ac86-dd9c-46d1-86f5-897af05c5375","ios":"levelo://app?vid=61d2ac86-dd9c-46d1-86f5-897af05c5375"},"vehicle_type_id":"4","last_reported":1727600944,"current_range_meters":30000,"station_id":"ce4bhop2rcd13ifvqh8g","pricing_plan_id":"cebpf4jnsgd1na2vs0mg"},{"bike_id":"a7f78ba6-f302-4191-9898-adba7098a8f9","system_id":"levelo_inurba_marseille","lat":43.25007,"lon":5.38927,"is_reserved":false,"is_disabled":false,"rental_uris":{"android":"levelo://app?vid=a7f78ba6-f302-4191-9898-adba7098a8f9","ios":"levelo://app?vid=a7f78ba6-f302-4191-9898-adba7098a8f9"},"vehicle_type_id":"4","last_reported":1727600944,"current_range_meters":12800,"station_id":"ce4bhgp2rcd13ifvqfd0","pricing_plan_id":"cebpf4jnsgd1na2vs0mg"},{"bike_id":"2d3249f7-ef4c-4fe0-ab5a-b79d1f9efe86","system_id":"levelo_inurba_marseille","lat":43.29184,"lon":5.35806,"is_reserved":false,"is_disabled":false,"rental_uris":{"android":"levelo://app?vid=2d3249f7-ef4c-4fe0-ab5a-b79d1f9efe86","ios":"levelo://app?vid=2d3249f7-ef4c-4fe0-ab5a-b79d1f9efe86"},"vehicle_type_id":"4","last_reported":1727600944,"current_range_meters":38400,"station_id":"ce4bhb12rcd13ifvqel0","pricing_plan_id":"cebpf4jnsgd1na2vs0mg"},{"bike_id":"30267a5c-36b3-47f8-be66-a3c926903716","system_id":"levelo_inurba_marseille","lat":43.27619,"lon":5.36118,"is_reserved":false,"is_disabled":false,"rental_uris":{"android":"levelo://app?vid=30267a5c-36b3-47f8-be66-a3c926903716","ios":"levelo://app?vid=30267a5c-36b3-47f8-be66-a3c926903716"},"vehicle_type_id":"4","last_reported":1727600944,"current_range_meters":38800,"station_id":"ce4bgj92rcd13ifvqbe0","pricing_plan_id":"cebpf4jnsgd1na2vs0mg"},{"bike_id":"e8f339a7-5e65-4275-8576-718fc09f5e43","system_id":"levelo_inurba_marseille","lat":43.276199,"lon":5.361059,"is_reserved":false,"is_disabled":false,"rental_uris":{"android":"levelo://app?vid=e8f339a7-5e65-4275-8576-718fc09f5e43","ios":"levelo://app?vid=e8f339a7-5e65-4275-8576-718fc09f5e43"},"vehicle_type_id":"4","last_reported":1727600944,"current_range_meters":38400,"station_id":"ce4bgj92rcd13ifvqbe0","pricing_plan_id":"cebpf4jnsgd1na2vs0mg"},{"bike_id":"d843e2e7-e3ed-4209-b66b-b3c4139c8028","system_id":"levelo_inurba_marseille","lat":43.29902,"lon":5.43666,"is_reserved":false,"is_disabled":false,"rental_uris":{"android":"levelo://app?vid=d843e2e7-e3ed-4209-b66b-b3c4139c8028","ios":"levelo://app?vid=d843e2e7-e3ed-4209-b66b-b3c4139c8028"},"vehicle_type_id":"4","last_reported":1727600944,"current_range_meters":38800,"station_id":"ce4bhpp2rcd13ifvqhfg","pricing_plan_id":"cebpf4jnsgd1na2vs0mg"},{"bike_id":"9ae9a0e9-1fff-4bed-b39c-08cfa9601a74","system_id":"levelo_inurba_marseille","lat":43.33607,"lon":5.41032,"is_reserved":false,"is_disabled":false,"rental_uris":{"android":"levelo://app?vid=9ae9a0e9-1fff-4bed-b39c-08cfa9601a74","ios":"levelo://app?vid=9ae9a0e9-1fff-4bed-b39c-08cfa9601a74"},"vehicle_type_id":"4","last_reported":1727600944,"current_range_meters":38800,"station_id":"ce4bhqh2rcd13ifvqhmg","pricing_plan_id":"cebpf4jnsgd1na2vs0mg"},{"bike_id":"9b5f5642-2491-4749-8ae4-e6530ea426af","system_id":"levelo_inurba_marseille","lat":43.24386,"lon":5.37059,"is_reserved":false,"is_disabled":false,"rental_uris":{"android":"levelo://app?vid=9b5f5642-2491-4749-8ae4-e6530ea426af","ios":"levelo://app?vid=9b5f5642-2491-4749-8ae4-e6530ea426af"},"vehicle_type_id":"4","last_reported":1727600944,"current_range_meters":38800,"station_id":"ce4bhhh2rcd13ifvqfk0","pricing_plan_id":"cebpf4jnsgd1na2vs0mg"},{"bike_id":"5a9badbe-b08c-4c6b-8435-26afa7e1077e","system_id":"levelo_inurba_marseille","lat":43.23961,"lon":5.36634,"is_reserved":false,"is_disabled":false,"rental_uris":{"android":"levelo://app?vid=5a9badbe-b08c-4c6b-8435-26afa7e1077e","ios":"levelo://app?vid=5a9badbe-b08c-4c6b-8435-26afa7e1077e"},"vehicle_type_id":"4","last_reported":1727600944,"current_range_meters":23200,"station_id":"ce4bhi12rcd13ifvqfp0","pricing_plan_id":"cebpf4jnsgd1na2vs0mg"},{"bike_id":"48e5114a-048d-4745-93b1-53c48c9acfc8","system_id":"levelo_inurba_marseille","lat":43.26779,"lon":5.39413,"is_reserved":false,"is_disabled":false,"rental_uris":{"android":"levelo://app?vid=48e5114a-048d-4745-93b1-53c48c9acfc8","ios":"levelo://app?vid=48e5114a-048d-4745-93b1-53c48c9acfc8"},"vehicle_type_id":"4","last_reported":1727600944,"current_range_meters":2800,"station_id":"ce4bhh12rcd13ifvqfg0","pricing_plan_id":"cebpf4jnsgd1na2vs0mg"},{"bike_id":"9a47dcb1-61bb-411f-affb-55731480b4cc","system_id":"levelo_inurba_marseille","lat":43.23959,"lon":5.36636,"is_reserved":false,"is_disabled":false,"rental_uris":{"android":"levelo://app?vid=9a47dcb1-61bb-411f-affb-55731480b4cc","ios":"levelo://app?vid=9a47dcb1-61bb-411f-affb-55731480b4cc"},"vehicle_type_id":"4","last_reported":1727600944,"current_range_meters":37600,"station_id":"ce4bhi12rcd13ifvqfp0","pricing_plan_id":"cebpf4jnsgd1na2vs0mg"},{"bike_id":"14a6d594-d10f-4e7a-bce6-9a58f1adfbaf","system_id":"levelo_inurba_marseille","lat":43.28659,"lon":5.36356,"is_reserved":false,"is_disabled":false,"rental_uris":{"android":"levelo://app?vid=14a6d594-d10f-4e7a-bce6-9a58f1adfbaf","ios":"levelo://app?vid=14a6d594-d10f-4e7a-bce6-9a58f1adfbaf"},"vehicle_type_id":"4","last_reported":1727600944,"current_range_meters":16000,"station_id":"ce4bhah2rcd13ifvqej0","pricing_plan_id":"cebpf4jnsgd1na2vs0mg"},{"bike_id":"c00eb5ce-fc6f-4c34-85cc-1ea0d4832d11","system_id":"levelo_inurba_marseille","lat":43.28942,"lon":5.36629,"is_reserved":false,"is_disabled":false,"rental_uris":{"android":"levelo://app?vid=c00eb5ce-fc6f-4c34-85cc-1ea0d4832d11","ios":"levelo://app?vid=c00eb5ce-fc6f-4c34-85cc-1ea0d4832d11"},"vehicle_type_id":"4","last_reported":1727600944,"current_range_meters":14400,"station_id":"ce4bhap2rcd13ifvqek0","pricing_plan_id":"cebpf4jnsgd1na2vs0mg"},{"bike_id":"efb21e2e-5c82-417c-ab4e-ff8afd90868f","system_id":"levelo_inurba_marseille","lat":43.30797,"lon":5.43519,"is_reserved":false,"is_disabled":false,"rental_uris":{"android":"levelo://app?vid=efb21e2e-5c82-417c-ab4e-ff8afd90868f","ios":"levelo://app?vid=efb21e2e-5c82-417c-ab4e-ff8afd90868f"},"vehicle_type_id":"4","last_reported":1727600944,"current_range_meters":38800,"station_id":"ce4bhph2rcd13ifvqheg","pricing_plan_id":"cebpf4jnsgd1na2vs0mg"},{"bike_id":"d615c272-5315-4c18-b72e-0f553ef19192","system_id":"levelo_inurba_marseille","lat":43.29008,"lon":5.35624,"is_reserved":false,"is_disabled":false,"rental_uris":{"android":"levelo://app?vid=d615c272-5315-4c18-b72e-0f553ef19192","ios":"levelo://app?vid=d615c272-5315-4c18-b72e-0f553ef19192"},"vehicle_type_id":"4","last_reported":1727600944,"current_range_meters":38800,"station_id":"ce4bhb92rcd13ifvqen0","pricing_plan_id":"cebpf4jnsgd1na2vs0mg"},{"bike_id":"10987376-8080-4f7b-a975-35ba37ae2d54","system_id":"levelo_inurba_marseille","lat":43.28157,"lon":5.42645,"is_reserved":false,"is_disabled":false,"rental_uris":{"android":"levelo://app?vid=10987376-8080-4f7b-a975-35ba37ae2d54","ios":"levelo://app?vid=10987376-8080-4f7b-a975-35ba37ae2d54"},"vehicle_type_id":"4","last_reported":1727600944,"current_range_meters":36400,"station_id":"ce4bhnh2rcd13ifvqgug","pricing_plan_id":"cebpf4jnsgd1na2vs0mg"},{"bike_id":"1684a122-e9b9-43c7-8a5d-beeeede3f175","system_id":"levelo_inurba_marseille","lat":43.32055,"lon":5.41549,"is_reserved":false,"is_disabled":false,"rental_uris":{"android":"levelo://app?vid=1684a122-e9b9-43c7-8a5d-beeeede3f175","ios":"levelo://app?vid=1684a122-e9b9-43c7-8a5d-beeeede3f175"},"vehicle_type_id":"4","last_reported":1727600944,"current_range_meters":9600,"station_id":"ce4bhq92rcd13ifvqhkg","pricing_plan_id":"cebpf4jnsgd1na2vs0mg"},{"bike_id":"65b9b958-16f1-411c-a2c7-3c2353d4d07c","system_id":"levelo_inurba_marseille","lat":43.31757,"lon":5.39015,"is_reserved":false,"is_disabled":false,"rental_uris":{"android":"levelo://app?vid=65b9b958-16f1-411c-a2c7-3c2353d4d07c","ios":"levelo://app?vid=65b9b958-16f1-411c-a2c7-3c2353d4d07c"},"vehicle_type_id":"4","last_reported":1727600944,"current_range_meters":38800,"station_id":"ce4bhqp2rcd13ifvqhng","pricing_plan_id":"cebpf4jnsgd1na2vs0mg"},{"bike_id":"59f133c9-c0d7-4b8b-8777-63f0ec56c467","system_id":"levelo_inurba_marseille","lat":43.27619,"lon":5.36108,"is_reserved":false,"is_disabled":false,"rental_uris":{"android":"levelo://app?vid=59f133c9-c0d7-4b8b-8777-63f0ec56c467","ios":"levelo://app?vid=59f133c9-c0d7-4b8b-8777-63f0ec56c467"},"vehicle_type_id":"4","last_reported":1727600944,"current_range_meters":28800,"station_id":"ce4bgj92rcd13ifvqbe0","pricing_plan_id":"cebpf4jnsgd1na2vs0mg"},{"bike_id":"8f2b997c-c1d0-4636-82ce-21a54ed64652","system_id":"levelo_inurba_marseille","lat":43.307098,"lon":5.382448,"is_reserved":false,"is_disabled":false,"rental_uris":{"android":"levelo://app?vid=8f2b997c-c1d0-4636-82ce-21a54ed64652","ios":"levelo://app?vid=8f2b997c-c1d0-4636-82ce-21a54ed64652"},"vehicle_type_id":"4","last_reported":1727600944,"current_range_meters":25600,"station_id":"ce4bh092rcd13ifvqd30","pricing_plan_id":"cebpf4jnsgd1na2vs0mg"},{"bike_id":"4c9b421a-adfa-47ab-93b3-76c3ec2f0fa5","system_id":"levelo_inurba_marseille","lat":43.26928,"lon":5.38927,"is_reserved":false,"is_disabled":false,"rental_uris":{"android":"levelo://app?vid=4c9b421a-adfa-47ab-93b3-76c3ec2f0fa5","ios":"levelo://app?vid=4c9b421a-adfa-47ab-93b3-76c3ec2f0fa5"},"vehicle_type_id":"4","last_reported":1727600944,"current_range_meters":12800,"station_id":"ce4bhhh2rcd13ifvqfl0","pricing_plan_id":"cebpf4jnsgd1na2vs0mg"},{"bike_id":"0521cc37-3a0f-4bc8-964a-96f026706e98","system_id":"levelo_inurba_marseille","lat":43.280194,"lon":5.360836,"is_reserved":false,"is_disabled":false,"rental_uris":{"android":"levelo://app?vid=0521cc37-3a0f-4bc8-964a-96f026706e98","ios":"levelo://app?vid=0521cc37-3a0f-4bc8-964a-96f026706e98"},"vehicle_type_id":"4","last_reported":1727600944,"current_range_meters":24800,"station_id":"","pricing_plan_id":"cebpf4jnsgd1na2vs0mg"},{"bike_id":"16ec8307-385e-405a-9539-99931243da4a","system_id":"levelo_inurba_marseille","lat":43.2955,"lon":5.42282,"is_reserved":false,"is_disabled":false,"rental_uris":{"android":"levelo://app?vid=16ec8307-385e-405a-9539-99931243da4a","ios":"levelo://app?vid=16ec8307-385e-405a-9539-99931243da4a"},"vehicle_type_id":"4","last_reported":1727600944,"current_range_meters":38800,"station_id":"ce4bhph2rcd13ifvqhdg","pricing_plan_id":"cebpf4jnsgd1na2vs0mg"},{"bike_id":"b3438316-6abe-406d-90f9-311c1c8ede76","system_id":"levelo_inurba_marseille","lat":43.28606,"lon":5.3707,"is_reserved":false,"is_disabled":false,"rental_uris":{"android":"levelo://app?vid=b3438316-6abe-406d-90f9-311c1c8ede76","ios":"levelo://app?vid=b3438316-6abe-406d-90f9-311c1c8ede76"},"vehicle_type_id":"4","last_reported":1727600944,"current_range_meters":35600,"station_id":"ce4bht12rcd13ifvqi60","pricing_plan_id":"cebpf4jnsgd1na2vs0mg"},{"bike_id":"c529090c-5370-45e9-ba3f-f55585b5289b","system_id":"levelo_inurba_marseille","lat":43.25005,"lon":5.38924,"is_reserved":false,"is_disabled":false,"rental_uris":{"android":"levelo://app?vid=c529090c-5370-45e9-ba3f-f55585b5289b","ios":"levelo://app?vid=c529090c-5370-45e9-ba3f-f55585b5289b"},"vehicle_type_id":"4","last_reported":1727600944,"current_range_meters":28000,"station_id":"ce4bhgp2rcd13ifvqfd0","pricing_plan_id":"cebpf4jnsgd1na2vs0mg"},{"bike_id":"6c102668-08c4-4cc9-a665-3f2a9cb2bf3a","system_id":"levelo_inurba_marseille","lat":43.23961,"lon":5.36636,"is_reserved":false,"is_disabled":false,"rental_uris":{"android":"levelo://app?vid=6c102668-08c4-4cc9-a665-3f2a9cb2bf3a","ios":"levelo://app?vid=6c102668-08c4-4cc9-a665-3f2a9cb2bf3a"},"vehicle_type_id":"4","last_reported":1727600944,"current_range_meters":20000,"station_id":"ce4bhi12rcd13ifvqfp0","pricing_plan_id":"cebpf4jnsgd1na2vs0mg"},{"bike_id":"11683519-ee06-48a4-8500-3e8433be9042","system_id":"levelo_inurba_marseille","lat":43.25865,"lon":5.39894,"is_reserved":false,"is_disabled":false,"rental_uris":{"android":"levelo://app?vid=11683519-ee06-48a4-8500-3e8433be9042","ios":"levelo://app?vid=11683519-ee06-48a4-8500-3e8433be9042"},"vehicle_type_id":"4","last_reported":1727600944,"current_range_meters":34000,"station_id":"ce4bhl92rcd13ifvqghg","pricing_plan_id":"cebpf4jnsgd1na2vs0mg"},{"bike_id":"8de4c3b4-4234-4850-a29d-da6f86d94621","system_id":"levelo_inurba_marseille","lat":43.28454,"lon":5.35876,"is_reserved":false,"is_disabled":false,"rental_uris":{"android":"levelo://app?vid=8de4c3b4-4234-4850-a29d-da6f86d94621","ios":"levelo://app?vid=8de4c3b4-4234-4850-a29d-da6f86d94621"},"vehicle_type_id":"4","last_reported":1727600944,"current_range_meters":38400,"station_id":"ce4bhah2rcd13ifvqei0","pricing_plan_id":"cebpf4jnsgd1na2vs0mg"},{"bike_id":"1ce7c25b-6bd2-4b64-b4ae-543ea784fc5d","system_id":"levelo_inurba_marseille","lat":43.337444,"lon":5.374475,"is_reserved":false,"is_disabled":false,"rental_uris":{"android":"levelo://app?vid=1ce7c25b-6bd2-4b64-b4ae-543ea784fc5d","ios":"levelo://app?vid=1ce7c25b-6bd2-4b64-b4ae-543ea784fc5d"},"vehicle_type_id":"4","last_reported":1727600944,"current_range_meters":33200,"station_id":"","pricing_plan_id":"cebpf4jnsgd1na2vs0mg"},{"bike_id":"a1c3dd20-86c0-4dad-a795-b2047bec3f5b","system_id":"levelo_inurba_marseille","lat":43.31762,"lon":5.39012,"is_reserved":false,"is_disabled":false,"rental_uris":{"android":"levelo://app?vid=a1c3dd20-86c0-4dad-a795-b2047bec3f5b","ios":"levelo://app?vid=a1c3dd20-86c0-4dad-a795-b2047bec3f5b"},"vehicle_type_id":"4","last_reported":1727600944,"current_range_meters":36800,"station_id":"ce4bhqp2rcd13ifvqhng","pricing_plan_id":"cebpf4jnsgd1na2vs0mg"},{"bike_id":"8dd685e9-648b-47b6-9030-7319abfa8824","system_id":"levelo_inurba_marseille","lat":43.286011,"lon":5.383369,"is_reserved":false,"is_disabled":false,"rental_uris":{"android":"levelo://app?vid=8dd685e9-648b-47b6-9030-7319abfa8824","ios":"levelo://app?vid=8dd685e9-648b-47b6-9030-7319abfa8824"},"vehicle_type_id":"4","last_reported":1727600944,"current_range_meters":19200,"station_id":"ce4bh512rcd13ifvqe3g","pricing_plan_id":"cebpf4jnsgd1na2vs0mg"},{"bike_id":"c61353cc-d4d7-47a7-b15c-ff2370cfafef","system_id":"levelo_inurba_marseille","lat":43.318817,"lon":5.407374,"is_reserved":false,"is_disabled":false,"rental_uris":{"android":"levelo://app?vid=c61353cc-d4d7-47a7-b15c-ff2370cfafef","ios":"levelo://app?vid=c61353cc-d4d7-47a7-b15c-ff2370cfafef"},"vehicle_type_id":"4","last_reported":1727600944,"current_range_meters":6800,"station_id":"ce4bhq12rcd13ifvqhhg","pricing_plan_id":"cebpf4jnsgd1na2vs0mg"},{"bike_id":"0c6a3edd-0259-43fd-a8d1-3d4bb6023605","system_id":"levelo_inurba_marseille","lat":43.24391,"lon":5.37051,"is_reserved":false,"is_disabled":false,"rental_uris":{"android":"levelo://app?vid=0c6a3edd-0259-43fd-a8d1-3d4bb6023605","ios":"levelo://app?vid=0c6a3edd-0259-43fd-a8d1-3d4bb6023605"},"vehicle_type_id":"4","last_reported":1727600944,"current_range_meters":39200,"station_id":"ce4bhhh2rcd13ifvqfk0","pricing_plan_id":"cebpf4jnsgd1na2vs0mg"},{"bike_id":"710ea95f-73b9-45b3-8be5-942d030d4a9c","system_id":"levelo_inurba_marseille","lat":43.31087,"lon":5.42425,"is_reserved":false,"is_disabled":false,"rental_uris":{"android":"levelo://app?vid=710ea95f-73b9-45b3-8be5-942d030d4a9c","ios":"levelo://app?vid=710ea95f-73b9-45b3-8be5-942d030d4a9c"},"vehicle_type_id":"4","last_reported":1727600944,"current_range_meters":30800,"station_id":"ce4bhp92rcd13ifvqhag","pricing_plan_id":"cebpf4jnsgd1na2vs0mg"},{"bike_id":"e258d6e5-d450-4c81-a925-32a78d3435af","system_id":"levelo_inurba_marseille","lat":43.27208,"lon":5.3918,"is_reserved":false,"is_disabled":false,"rental_uris":{"android":"levelo://app?vid=e258d6e5-d450-4c81-a925-32a78d3435af","ios":"levelo://app?vid=e258d6e5-d450-4c81-a925-32a78d3435af"},"vehicle_type_id":"4","last_reported":1727600944,"current_range_meters":24400,"station_id":"ce4bhhp2rcd13ifvqfm0","pricing_plan_id":"cebpf4jnsgd1na2vs0mg"},{"bike_id":"143d735e-b487-4092-a9cb-2c37d3b7c827","system_id":"levelo_inurba_marseille","lat":43.26207,"lon":5.37928,"is_reserved":false,"is_disabled":false,"rental_uris":{"android":"levelo://app?vid=143d735e-b487-4092-a9cb-2c37d3b7c827","ios":"levelo://app?vid=143d735e-b487-4092-a9cb-2c37d3b7c827"},"vehicle_type_id":"4","last_reported":1727600944,"current_range_meters":24400,"station_id":"ce4bhjp2rcd13ifvqg90","pricing_plan_id":"cebpf4jnsgd1na2vs0mg"},{"bike_id":"67260071-21e4-480a-9926-bdd8312a05e0","system_id":"levelo_inurba_marseille","lat":43.27945,"lon":5.41054,"is_reserved":false,"is_disabled":false,"rental_uris":{"android":"levelo://app?vid=67260071-21e4-480a-9926-bdd8312a05e0","ios":"levelo://app?vid=67260071-21e4-480a-9926-bdd8312a05e0"},"vehicle_type_id":"4","last_reported":1727600944,"current_range_meters":38800,"station_id":"ce4bhnp2rcd13ifvqh0g","pricing_plan_id":"cebpf4jnsgd1na2vs0mg"},{"bike_id":"8ae2e5cf-1225-423d-97bc-5c0f9f80b884","system_id":"levelo_inurba_marseille","lat":43.28466,"lon":5.35883,"is_reserved":false,"is_disabled":false,"rental_uris":{"android":"levelo://app?vid=8ae2e5cf-1225-423d-97bc-5c0f9f80b884","ios":"levelo://app?vid=8ae2e5cf-1225-423d-97bc-5c0f9f80b884"},"vehicle_type_id":"4","last_reported":1727600944,"current_range_meters":21600,"station_id":"ce4bhah2rcd13ifvqei0","pricing_plan_id":"cebpf4jnsgd1na2vs0mg"},{"bike_id":"2c4e2220-ab7f-4604-bb77-ad890f0f1fb9","system_id":"levelo_inurba_marseille","lat":43.30599,"lon":5.37219,"is_reserved":false,"is_disabled":false,"rental_uris":{"android":"levelo://app?vid=2c4e2220-ab7f-4604-bb77-ad890f0f1fb9","ios":"levelo://app?vid=2c4e2220-ab7f-4604-bb77-ad890f0f1fb9"},"vehicle_type_id":"4","last_reported":1727600944,"current_range_meters":36000,"station_id":"ce4bgqh2rcd13ifvqc4g","pricing_plan_id":"cebpf4jnsgd1na2vs0mg"},{"bike_id":"6a52f468-9bf5-46c2-819d-2c732c18128e","system_id":"levelo_inurba_marseille","lat":43.23951,"lon":5.36633,"is_reserved":false,"is_disabled":false,"rental_uris":{"android":"levelo://app?vid=6a52f468-9bf5-46c2-819d-2c732c18128e","ios":"levelo://app?vid=6a52f468-9bf5-46c2-819d-2c732c18128e"},"vehicle_type_id":"4","last_reported":1727600944,"current_range_meters":36400,"station_id":"ce4bhi12rcd13ifvqfp0","pricing_plan_id":"cebpf4jnsgd1na2vs0mg"},{"bike_id":"9810981a-a98b-46ac-a34f-d3f3389731cb","system_id":"levelo_inurba_marseille","lat":43.297791,"lon":5.380885,"is_reserved":false,"is_disabled":false,"rental_uris":{"android":"levelo://app?vid=9810981a-a98b-46ac-a34f-d3f3389731cb","ios":"levelo://app?vid=9810981a-a98b-46ac-a34f-d3f3389731cb"},"vehicle_type_id":"4","last_reported":1727600944,"current_range_meters":36800,"station_id":"ce4bgip2rcd13ifvqbb0","pricing_plan_id":"cebpf4jnsgd1na2vs0mg"},{"bike_id":"e3420156-0f7a-4248-a1c6-bbb47974f9f3","system_id":"levelo_inurba_marseille","lat":43.30785,"lon":5.37648,"is_reserved":false,"is_disabled":false,"rental_uris":{"android":"levelo://app?vid=e3420156-0f7a-4248-a1c6-bbb47974f9f3","ios":"levelo://app?vid=e3420156-0f7a-4248-a1c6-bbb47974f9f3"},"vehicle_type_id":"4","last_reported":1727600944,"current_range_meters":26000,"station_id":"ce4bgv92rcd13ifvqcq0","pricing_plan_id":"cebpf4jnsgd1na2vs0mg"},{"bike_id":"67b9eb05-c36e-4582-9b61-98d56d57348d","system_id":"levelo_inurba_marseille","lat":43.26059,"lon":5.394,"is_reserved":false,"is_disabled":false,"rental_uris":{"android":"levelo://app?vid=67b9eb05-c36e-4582-9b61-98d56d57348d","ios":"levelo://app?vid=67b9eb05-c36e-4582-9b61-98d56d57348d"},"vehicle_type_id":"4","last_reported":1727600944,"current_range_meters":38800,"station_id":"ce4bhh92rcd13ifvqfj0","pricing_plan_id":"cebpf4jnsgd1na2vs0mg"},{"bike_id":"c7ecf3c3-800e-438b-9cb6-127992533b11","system_id":"levelo_inurba_marseille","lat":43.25107,"lon":5.40312,"is_reserved":false,"is_disabled":false,"rental_uris":{"android":"levelo://app?vid=c7ecf3c3-800e-438b-9cb6-127992533b11","ios":"levelo://app?vid=c7ecf3c3-800e-438b-9cb6-127992533b11"},"vehicle_type_id":"4","last_reported":1727600944,"current_range_meters":38800,"station_id":"ce4bhlh2rcd13ifvqgig","pricing_plan_id":"cebpf4jnsgd1na2vs0mg"},{"bike_id":"0d8c20b1-a2e8-4e8b-b550-37b2370b38b1","system_id":"levelo_inurba_marseille","lat":43.30411,"lon":5.41287,"is_reserved":false,"is_disabled":false,"rental_uris":{"android":"levelo://app?vid=0d8c20b1-a2e8-4e8b-b550-37b2370b38b1","ios":"levelo://app?vid=0d8c20b1-a2e8-4e8b-b550-37b2370b38b1"},"vehicle_type_id":"4","last_reported":1727600944,"current_range_meters":25200,"station_id":"ce4bhop2rcd13ifvqh8g","pricing_plan_id":"cebpf4jnsgd1na2vs0mg"},{"bike_id":"2c597611-dddc-4eb9-9407-5a27b71156b3","system_id":"levelo_inurba_marseille","lat":43.231577,"lon":5.437077,"is_reserved":false,"is_disabled":false,"rental_uris":{"android":"levelo://app?vid=2c597611-dddc-4eb9-9407-5a27b71156b3","ios":"levelo://app?vid=2c597611-dddc-4eb9-9407-5a27b71156b3"},"vehicle_type_id":"4","last_reported":1727600944,"current_range_meters":38800,"station_id":"ce4bhmp2rcd13ifvqgog","pricing_plan_id":"cebpf4jnsgd1na2vs0mg"},{"bike_id":"6811c9ec-ea64-44b4-93d3-158194024def","system_id":"levelo_inurba_marseille","lat":43.305348,"lon":5.384304,"is_reserved":false,"is_disabled":false,"rental_uris":{"android":"levelo://app?vid=6811c9ec-ea64-44b4-93d3-158194024def","ios":"levelo://app?vid=6811c9ec-ea64-44b4-93d3-158194024def"},"vehicle_type_id":"4","last_reported":1727600944,"current_range_meters":37600,"station_id":"ce4bgg92rcd13ifvqb30","pricing_plan_id":"cebpf4jnsgd1na2vs0mg"},{"bike_id":"240b6ed0-de28-4b78-b2af-b6ff5eb271e9","system_id":"levelo_inurba_marseille","lat":43.23582,"lon":5.36629,"is_reserved":false,"is_disabled":false,"rental_uris":{"android":"levelo://app?vid=240b6ed0-de28-4b78-b2af-b6ff5eb271e9","ios":"levelo://app?vid=240b6ed0-de28-4b78-b2af-b6ff5eb271e9"},"vehicle_type_id":"4","last_reported":1727600944,"current_range_meters":31200,"station_id":"","pricing_plan_id":"cebpf4jnsgd1na2vs0mg"},{"bike_id":"9cab4b77-e73b-485b-9196-05681379298d","system_id":"levelo_inurba_marseille","lat":43.32291,"lon":5.3827,"is_reserved":false,"is_disabled":false,"rental_uris":{"android":"levelo://app?vid=9cab4b77-e73b-485b-9196-05681379298d","ios":"levelo://app?vid=9cab4b77-e73b-485b-9196-05681379298d"},"vehicle_type_id":"4","last_reported":1727600944,"current_range_meters":38000,"station_id":"ce4bhr12rcd13ifvqhqg","pricing_plan_id":"cebpf4jnsgd1na2vs0mg"},{"bike_id":"f6692a04-fd04-4663-94a3-4418e3afb60c","system_id":"levelo_inurba_marseille","lat":43.30798,"lon":5.38157,"is_reserved":false,"is_disabled":false,"rental_uris":{"android":"levelo://app?vid=f6692a04-fd04-4663-94a3-4418e3afb60c","ios":"levelo://app?vid=f6692a04-fd04-4663-94a3-4418e3afb60c"},"vehicle_type_id":"4","last_reported":1727600944,"current_range_meters":30000,"station_id":"ce4bgt12rcd13ifvqce0","pricing_plan_id":"cebpf4jnsgd1na2vs0mg"},{"bike_id":"ec79265c-889d-4330-a005-d8fba96f8dca","system_id":"levelo_inurba_marseille","lat":43.25942,"lon":5.40908,"is_reserved":false,"is_disabled":false,"rental_uris":{"android":"levelo://app?vid=ec79265c-889d-4330-a005-d8fba96f8dca","ios":"levelo://app?vid=ec79265c-889d-4330-a005-d8fba96f8dca"},"vehicle_type_id":"4","last_reported":1727600944,"current_range_meters":36000,"station_id":"ce4bhm92rcd13ifvqglg","pricing_plan_id":"cebpf4jnsgd1na2vs0mg"},{"bike_id":"8052f078-4e20-41b6-b408-0331d8013a67","system_id":"levelo_inurba_marseille","lat":43.23954,"lon":5.36635,"is_reserved":false,"is_disabled":false,"rental_uris":{"android":"levelo://app?vid=8052f078-4e20-41b6-b408-0331d8013a67","ios":"levelo://app?vid=8052f078-4e20-41b6-b408-0331d8013a67"},"vehicle_type_id":"4","last_reported":1727600944,"current_range_meters":19600,"station_id":"ce4bhi12rcd13ifvqfp0","pricing_plan_id":"cebpf4jnsgd1na2vs0mg"},{"bike_id":"56f7910d-52ac-4666-ae4d-1add0cdeeda1","system_id":"levelo_inurba_marseille","lat":43.30802,"lon":5.3816,"is_reserved":false,"is_disabled":false,"rental_uris":{"android":"levelo://app?vid=56f7910d-52ac-4666-ae4d-1add0cdeeda1","ios":"levelo://app?vid=56f7910d-52ac-4666-ae4d-1add0cdeeda1"},"vehicle_type_id":"4","last_reported":1727600944,"current_range_meters":22000,"station_id":"ce4bgt12rcd13ifvqce0","pricing_plan_id":"cebpf4jnsgd1na2vs0mg"},{"bike_id":"6620a30a-5732-452d-b84a-ee064066c79c","system_id":"levelo_inurba_marseille","lat":43.26208,"lon":5.37443,"is_reserved":false,"is_disabled":false,"rental_uris":{"android":"levelo://app?vid=6620a30a-5732-452d-b84a-ee064066c79c","ios":"levelo://app?vid=6620a30a-5732-452d-b84a-ee064066c79c"},"vehicle_type_id":"4","last_reported":1727600944,"current_range_meters":19600,"station_id":"ce4bhgp2rcd13ifvqfc0","pricing_plan_id":"cebpf4jnsgd1na2vs0mg"},{"bike_id":"0ff314bc-4fed-4221-80e0-8149389f9449","system_id":"levelo_inurba_marseille","lat":43.28272,"lon":5.35078,"is_reserved":false,"is_disabled":false,"rental_uris":{"android":"levelo://app?vid=0ff314bc-4fed-4221-80e0-8149389f9449","ios":"levelo://app?vid=0ff314bc-4fed-4221-80e0-8149389f9449"},"vehicle_type_id":"4","last_reported":1727600944,"current_range_meters":18800,"station_id":"ce4bhbp2rcd13ifvqerg","pricing_plan_id":"cebpf4jnsgd1na2vs0mg"},{"bike_id":"883dbd06-c2fc-4488-9b5e-ef4f05339f9b","system_id":"levelo_inurba_marseille","lat":43.30208,"lon":5.36618,"is_reserved":false,"is_disabled":false,"rental_uris":{"android":"levelo://app?vid=883dbd06-c2fc-4488-9b5e-ef4f05339f9b","ios":"levelo://app?vid=883dbd06-c2fc-4488-9b5e-ef4f05339f9b"},"vehicle_type_id":"4","last_reported":1727600944,"current_range_meters":30400,"station_id":"ce4bgrh2rcd13ifvqc8g","pricing_plan_id":"cebpf4jnsgd1na2vs0mg"},{"bike_id":"2fcb0dc3-a5a0-44cf-abc4-00338de587f6","system_id":"levelo_inurba_marseille","lat":43.276642,"lon":5.388656,"is_reserved":false,"is_disabled":false,"rental_uris":{"android":"levelo://app?vid=2fcb0dc3-a5a0-44cf-abc4-00338de587f6","ios":"levelo://app?vid=2fcb0dc3-a5a0-44cf-abc4-00338de587f6"},"vehicle_type_id":"4","last_reported":1727600944,"current_range_meters":32400,"station_id":"ce4bhah2rcd13ifvqej0","pricing_plan_id":"cebpf4jnsgd1na2vs0mg"},{"bike_id":"7140e453-f332-495d-81d8-84ebfd05d324","system_id":"levelo_inurba_marseille","lat":43.25583,"lon":5.38236,"is_reserved":false,"is_disabled":false,"rental_uris":{"android":"levelo://app?vid=7140e453-f332-495d-81d8-84ebfd05d324","ios":"levelo://app?vid=7140e453-f332-495d-81d8-84ebfd05d324"},"vehicle_type_id":"4","last_reported":1727600944,"current_range_meters":38800,"station_id":"ce4bhih2rcd13ifvqfs0","pricing_plan_id":"cebpf4jnsgd1na2vs0mg"},{"bike_id":"cf2a99f0-171d-46e2-b5f9-b8e518581e33","system_id":"levelo_inurba_marseille","lat":43.23959,"lon":5.36633,"is_reserved":false,"is_disabled":false,"rental_uris":{"android":"levelo://app?vid=cf2a99f0-171d-46e2-b5f9-b8e518581e33","ios":"levelo://app?vid=cf2a99f0-171d-46e2-b5f9-b8e518581e33"},"vehicle_type_id":"4","last_reported":1727600944,"current_range_meters":33600,"station_id":"ce4bhi12rcd13ifvqfp0","pricing_plan_id":"cebpf4jnsgd1na2vs0mg"},{"bike_id":"e5f96fcd-0538-4d74-8ab8-d19e4df7cc95","system_id":"levelo_inurba_marseille","lat":43.31757,"lon":5.39017,"is_reserved":false,"is_disabled":false,"rental_uris":{"android":"levelo://app?vid=e5f96fcd-0538-4d74-8ab8-d19e4df7cc95","ios":"levelo://app?vid=e5f96fcd-0538-4d74-8ab8-d19e4df7cc95"},"vehicle_type_id":"4","last_reported":1727600944,"current_range_meters":10000,"station_id":"ce4bhqp2rcd13ifvqhng","pricing_plan_id":"cebpf4jnsgd1na2vs0mg"},{"bike_id":"60d9ce3d-2af9-47ba-90ad-995a8191b45d","system_id":"levelo_inurba_marseille","lat":43.30797,"lon":5.38159,"is_reserved":false,"is_disabled":false,"rental_uris":{"android":"levelo://app?vid=60d9ce3d-2af9-47ba-90ad-995a8191b45d","ios":"levelo://app?vid=60d9ce3d-2af9-47ba-90ad-995a8191b45d"},"vehicle_type_id":"4","last_reported":1727600944,"current_range_meters":30800,"station_id":"ce4bgt12rcd13ifvqce0","pricing_plan_id":"cebpf4jnsgd1na2vs0mg"},{"bike_id":"859e907e-3e01-45c3-acd9-550f385e7a79","system_id":"levelo_inurba_marseille","lat":43.29915,"lon":5.38613,"is_reserved":false,"is_disabled":false,"rental_uris":{"android":"levelo://app?vid=859e907e-3e01-45c3-acd9-550f385e7a79","ios":"levelo://app?vid=859e907e-3e01-45c3-acd9-550f385e7a79"},"vehicle_type_id":"4","last_reported":1727600944,"current_range_meters":14000,"station_id":"","pricing_plan_id":"cebpf4jnsgd1na2vs0mg"},{"bike_id":"a1585792-a705-409d-93a4-c31da8100088","system_id":"levelo_inurba_marseille","lat":43.23188,"lon":5.35556,"is_reserved":false,"is_disabled":false,"rental_uris":{"android":"levelo://app?vid=a1585792-a705-409d-93a4-c31da8100088","ios":"levelo://app?vid=a1585792-a705-409d-93a4-c31da8100088"},"vehicle_type_id":"4","last_reported":1727600944,"current_range_meters":10000,"station_id":"ce4bhu92rcd13ifvqi70","pricing_plan_id":"cebpf4jnsgd1na2vs0mg"},{"bike_id":"b8e2d9f3-2bfa-4db2-9db3-10638d12c8e0","system_id":"levelo_inurba_marseille","lat":43.2738,"lon":5.36262,"is_reserved":false,"is_disabled":false,"rental_uris":{"android":"levelo://app?vid=b8e2d9f3-2bfa-4db2-9db3-10638d12c8e0","ios":"levelo://app?vid=b8e2d9f3-2bfa-4db2-9db3-10638d12c8e0"},"vehicle_type_id":"4","last_reported":1727600944,"current_range_meters":37600,"station_id":"ce4bhbh2rcd13ifvqeo0","pricing_plan_id":"cebpf4jnsgd1na2vs0mg"},{"bike_id":"fdb61897-97d0-4689-adc4-02e79ee31d57","system_id":"levelo_inurba_marseille","lat":43.23955,"lon":5.36642,"is_reserved":false,"is_disabled":false,"rental_uris":{"android":"levelo://app?vid=fdb61897-97d0-4689-adc4-02e79ee31d57","ios":"levelo://app?vid=fdb61897-97d0-4689-adc4-02e79ee31d57"},"vehicle_type_id":"4","last_reported":1727600944,"current_range_meters":36800,"station_id":"ce4bhi12rcd13ifvqfp0","pricing_plan_id":"cebpf4jnsgd1na2vs0mg"},{"bike_id":"52f17877-110a-422d-89ae-fdeda162e6f3","system_id":"levelo_inurba_marseille","lat":43.23956,"lon":5.36635,"is_reserved":false,"is_disabled":false,"rental_uris":{"android":"levelo://app?vid=52f17877-110a-422d-89ae-fdeda162e6f3","ios":"levelo://app?vid=52f17877-110a-422d-89ae-fdeda162e6f3"},"vehicle_type_id":"4","last_reported":1727600944,"current_range_meters":8000,"station_id":"ce4bhi12rcd13ifvqfp0","pricing_plan_id":"cebpf4jnsgd1na2vs0mg"},{"bike_id":"a17edcf9-1042-41a5-973f-7aad31e640e8","system_id":"levelo_inurba_marseille","lat":43.32655,"lon":5.41001,"is_reserved":false,"is_disabled":false,"rental_uris":{"android":"levelo://app?vid=a17edcf9-1042-41a5-973f-7aad31e640e8","ios":"levelo://app?vid=a17edcf9-1042-41a5-973f-7aad31e640e8"},"vehicle_type_id":"4","last_reported":1727600944,"current_range_meters":12400,"station_id":"ce4bhpp2rcd13ifvqhgg","pricing_plan_id":"cebpf4jnsgd1na2vs0mg"},{"bike_id":"635ca334-d837-4c80-9808-1fbb2c1a23ce","system_id":"levelo_inurba_marseille","lat":43.24389,"lon":5.37051,"is_reserved":false,"is_disabled":false,"rental_uris":{"android":"levelo://app?vid=635ca334-d837-4c80-9808-1fbb2c1a23ce","ios":"levelo://app?vid=635ca334-d837-4c80-9808-1fbb2c1a23ce"},"vehicle_type_id":"4","last_reported":1727600944,"current_range_meters":39200,"station_id":"ce4bhhh2rcd13ifvqfk0","pricing_plan_id":"cebpf4jnsgd1na2vs0mg"},{"bike_id":"bbc98261-9449-48db-ba38-158c0b0951d8","system_id":"levelo_inurba_marseille","lat":43.28613,"lon":5.35102,"is_reserved":false,"is_disabled":false,"rental_uris":{"android":"levelo://app?vid=bbc98261-9449-48db-ba38-158c0b0951d8","ios":"levelo://app?vid=bbc98261-9449-48db-ba38-158c0b0951d8"},"vehicle_type_id":"4","last_reported":1727600944,"current_range_meters":32400,"station_id":"ce4bhch2rcd13ifvqeug","pricing_plan_id":"cebpf4jnsgd1na2vs0mg"},{"bike_id":"61bfd186-0f27-4fc9-b2b6-ffff2e6b74f7","system_id":"levelo_inurba_marseille","lat":43.27374,"lon":5.36262,"is_reserved":false,"is_disabled":false,"rental_uris":{"android":"levelo://app?vid=61bfd186-0f27-4fc9-b2b6-ffff2e6b74f7","ios":"levelo://app?vid=61bfd186-0f27-4fc9-b2b6-ffff2e6b74f7"},"vehicle_type_id":"4","last_reported":1727600944,"current_range_meters":38000,"station_id":"ce4bhbh2rcd13ifvqeo0","pricing_plan_id":"cebpf4jnsgd1na2vs0mg"},{"bike_id":"ab994941-8182-4cf4-af2e-1d33fc2c5393","system_id":"levelo_inurba_marseille","lat":43.25726,"lon":5.41099,"is_reserved":false,"is_disabled":false,"rental_uris":{"android":"levelo://app?vid=ab994941-8182-4cf4-af2e-1d33fc2c5393","ios":"levelo://app?vid=ab994941-8182-4cf4-af2e-1d33fc2c5393"},"vehicle_type_id":"4","last_reported":1727600944,"current_range_meters":2800,"station_id":"ce4bhkp2rcd13ifvqgd0","pricing_plan_id":"cebpf4jnsgd1na2vs0mg"},{"bike_id":"8706dbad-74a1-4401-bd4a-b4ae01455ac4","system_id":"levelo_inurba_marseille","lat":43.27619,"lon":5.36118,"is_reserved":false,"is_disabled":false,"rental_uris":{"android":"levelo://app?vid=8706dbad-74a1-4401-bd4a-b4ae01455ac4","ios":"levelo://app?vid=8706dbad-74a1-4401-bd4a-b4ae01455ac4"},"vehicle_type_id":"4","last_reported":1727600944,"current_range_meters":15200,"station_id":"ce4bgj92rcd13ifvqbe0","pricing_plan_id":"cebpf4jnsgd1na2vs0mg"},{"bike_id":"87338c1f-f69b-4a70-b906-14af9e9c148a","system_id":"levelo_inurba_marseille","lat":43.32537,"lon":5.41443,"is_reserved":false,"is_disabled":false,"rental_uris":{"android":"levelo://app?vid=87338c1f-f69b-4a70-b906-14af9e9c148a","ios":"levelo://app?vid=87338c1f-f69b-4a70-b906-14af9e9c148a"},"vehicle_type_id":"4","last_reported":1727600944,"current_range_meters":39200,"station_id":"ce4bhq12rcd13ifvqhhg","pricing_plan_id":"cebpf4jnsgd1na2vs0mg"},{"bike_id":"9e0e602a-711e-4e75-a4b3-f0d70db8f823","system_id":"levelo_inurba_marseille","lat":43.23965,"lon":5.36636,"is_reserved":false,"is_disabled":false,"rental_uris":{"android":"levelo://app?vid=9e0e602a-711e-4e75-a4b3-f0d70db8f823","ios":"levelo://app?vid=9e0e602a-711e-4e75-a4b3-f0d70db8f823"},"vehicle_type_id":"4","last_reported":1727600944,"current_range_meters":15200,"station_id":"ce4bhi12rcd13ifvqfp0","pricing_plan_id":"cebpf4jnsgd1na2vs0mg"},{"bike_id":"64287320-744d-4ddf-8d29-f29a538a1023","system_id":"levelo_inurba_marseille","lat":43.30468,"lon":5.379,"is_reserved":false,"is_disabled":false,"rental_uris":{"android":"levelo://app?vid=64287320-744d-4ddf-8d29-f29a538a1023","ios":"levelo://app?vid=64287320-744d-4ddf-8d29-f29a538a1023"},"vehicle_type_id":"4","last_reported":1727600944,"current_range_meters":38800,"station_id":"ce4bgup2rcd13ifvqcn0","pricing_plan_id":"cebpf4jnsgd1na2vs0mg"},{"bike_id":"dbef30d1-ed30-408f-95c3-b446650376a7","system_id":"levelo_inurba_marseille","lat":43.313335,"lon":5.396928,"is_reserved":false,"is_disabled":false,"rental_uris":{"android":"levelo://app?vid=dbef30d1-ed30-408f-95c3-b446650376a7","ios":"levelo://app?vid=dbef30d1-ed30-408f-95c3-b446650376a7"},"vehicle_type_id":"4","last_reported":1727600944,"current_range_meters":38400,"station_id":"ce4bgvp2rcd13ifvqcu0","pricing_plan_id":"cebpf4jnsgd1na2vs0mg"},{"bike_id":"e15fc624-10d4-48c6-8836-d53a871a2c45","system_id":"levelo_inurba_marseille","lat":43.28155,"lon":5.42648,"is_reserved":false,"is_disabled":false,"rental_uris":{"android":"levelo://app?vid=e15fc624-10d4-48c6-8836-d53a871a2c45","ios":"levelo://app?vid=e15fc624-10d4-48c6-8836-d53a871a2c45"},"vehicle_type_id":"4","last_reported":1727600944,"current_range_meters":38400,"station_id":"ce4bhnh2rcd13ifvqgug","pricing_plan_id":"cebpf4jnsgd1na2vs0mg"},{"bike_id":"3928e8e4-4b11-4c03-8583-e39590100afa","system_id":"levelo_inurba_marseille","lat":43.29839,"lon":5.36269,"is_reserved":false,"is_disabled":false,"rental_uris":{"android":"levelo://app?vid=3928e8e4-4b11-4c03-8583-e39590100afa","ios":"levelo://app?vid=3928e8e4-4b11-4c03-8583-e39590100afa"},"vehicle_type_id":"4","last_reported":1727600944,"current_range_meters":36800,"station_id":"ce4bgpp2rcd13ifvqc3g","pricing_plan_id":"cebpf4jnsgd1na2vs0mg"},{"bike_id":"4b66f5f2-c486-47ac-bf11-139e5b2e7872","system_id":"levelo_inurba_marseille","lat":43.31085,"lon":5.42431,"is_reserved":false,"is_disabled":false,"rental_uris":{"android":"levelo://app?vid=4b66f5f2-c486-47ac-bf11-139e5b2e7872","ios":"levelo://app?vid=4b66f5f2-c486-47ac-bf11-139e5b2e7872"},"vehicle_type_id":"4","last_reported":1727600944,"current_range_meters":38800,"station_id":"ce4bhp92rcd13ifvqhag","pricing_plan_id":"cebpf4jnsgd1na2vs0mg"},{"bike_id":"286a38be-9a17-42ac-b216-07a9e5a83131","system_id":"levelo_inurba_marseille","lat":43.231915,"lon":5.355505,"is_reserved":false,"is_disabled":false,"rental_uris":{"android":"levelo://app?vid=286a38be-9a17-42ac-b216-07a9e5a83131","ios":"levelo://app?vid=286a38be-9a17-42ac-b216-07a9e5a83131"},"vehicle_type_id":"4","last_reported":1727600944,"current_range_meters":18000,"station_id":"ce4bhu92rcd13ifvqi70","pricing_plan_id":"cebpf4jnsgd1na2vs0mg"},{"bike_id":"801dee94-6df9-4ac7-b8ff-19b18de3acb6","system_id":"levelo_inurba_marseille","lat":43.31999,"lon":5.38149,"is_reserved":false,"is_disabled":false,"rental_uris":{"android":"levelo://app?vid=801dee94-6df9-4ac7-b8ff-19b18de3acb6","ios":"levelo://app?vid=801dee94-6df9-4ac7-b8ff-19b18de3acb6"},"vehicle_type_id":"4","last_reported":1727600944,"current_range_meters":23200,"station_id":"ce4bhr12rcd13ifvqhpg","pricing_plan_id":"cebpf4jnsgd1na2vs0mg"},{"bike_id":"cf656c49-b4cb-4b91-a04a-1f5ec7e1dd66","system_id":"levelo_inurba_marseille","lat":43.27181,"lon":5.40995,"is_reserved":false,"is_disabled":false,"rental_uris":{"android":"levelo://app?vid=cf656c49-b4cb-4b91-a04a-1f5ec7e1dd66","ios":"levelo://app?vid=cf656c49-b4cb-4b91-a04a-1f5ec7e1dd66"},"vehicle_type_id":"4","last_reported":1727600944,"current_range_meters":36800,"station_id":"ce4bhl12rcd13ifvqgf0","pricing_plan_id":"cebpf4jnsgd1na2vs0mg"},{"bike_id":"848da01c-249f-40a1-a74f-e4a7991db9ba","system_id":"levelo_inurba_marseille","lat":43.27566,"lon":5.38426,"is_reserved":false,"is_disabled":false,"rental_uris":{"android":"levelo://app?vid=848da01c-249f-40a1-a74f-e4a7991db9ba","ios":"levelo://app?vid=848da01c-249f-40a1-a74f-e4a7991db9ba"},"vehicle_type_id":"4","last_reported":1727600944,"current_range_meters":5600,"station_id":"ce4bhh92rcd13ifvqfi0","pricing_plan_id":"cebpf4jnsgd1na2vs0mg"},{"bike_id":"eeadb434-3744-44e5-9ea6-2c2d04e05bbf","system_id":"levelo_inurba_marseille","lat":43.27181,"lon":5.41,"is_reserved":false,"is_disabled":false,"rental_uris":{"android":"levelo://app?vid=eeadb434-3744-44e5-9ea6-2c2d04e05bbf","ios":"levelo://app?vid=eeadb434-3744-44e5-9ea6-2c2d04e05bbf"},"vehicle_type_id":"4","last_reported":1727600944,"current_range_meters":35600,"station_id":"ce4bhl12rcd13ifvqgf0","pricing_plan_id":"cebpf4jnsgd1na2vs0mg"},{"bike_id":"eee8fec2-fe7a-46ea-9212-e1a4502089ce","system_id":"levelo_inurba_marseille","lat":43.28662,"lon":5.38675,"is_reserved":false,"is_disabled":false,"rental_uris":{"android":"levelo://app?vid=eee8fec2-fe7a-46ea-9212-e1a4502089ce","ios":"levelo://app?vid=eee8fec2-fe7a-46ea-9212-e1a4502089ce"},"vehicle_type_id":"4","last_reported":1727600944,"current_range_meters":38000,"station_id":"ce4bh492rcd13ifvqdug","pricing_plan_id":"cebpf4jnsgd1na2vs0mg"},{"bike_id":"376f9ab8-cfae-4f66-89ec-63ffb79e5e6f","system_id":"levelo_inurba_marseille","lat":43.25503,"lon":5.37649,"is_reserved":false,"is_disabled":false,"rental_uris":{"android":"levelo://app?vid=376f9ab8-cfae-4f66-89ec-63ffb79e5e6f","ios":"levelo://app?vid=376f9ab8-cfae-4f66-89ec-63ffb79e5e6f"},"vehicle_type_id":"4","last_reported":1727600944,"current_range_meters":26800,"station_id":"ce4bhh12rcd13ifvqff0","pricing_plan_id":"cebpf4jnsgd1na2vs0mg"},{"bike_id":"5667981f-e35c-4801-90dd-6e56d87feaaf","system_id":"levelo_inurba_marseille","lat":43.231761,"lon":5.43573,"is_reserved":false,"is_disabled":false,"rental_uris":{"android":"levelo://app?vid=5667981f-e35c-4801-90dd-6e56d87feaaf","ios":"levelo://app?vid=5667981f-e35c-4801-90dd-6e56d87feaaf"},"vehicle_type_id":"4","last_reported":1727600944,"current_range_meters":2800,"station_id":"ce4bhmp2rcd13ifvqgog","pricing_plan_id":"cebpf4jnsgd1na2vs0mg"},{"bike_id":"e304f310-0ea5-41b6-a44e-a3484ec1d988","system_id":"levelo_inurba_marseille","lat":43.27202,"lon":5.39188,"is_reserved":false,"is_disabled":false,"rental_uris":{"android":"levelo://app?vid=e304f310-0ea5-41b6-a44e-a3484ec1d988","ios":"levelo://app?vid=e304f310-0ea5-41b6-a44e-a3484ec1d988"},"vehicle_type_id":"4","last_reported":1727600944,"current_range_meters":28400,"station_id":"ce4bhhp2rcd13ifvqfm0","pricing_plan_id":"cebpf4jnsgd1na2vs0mg"},{"bike_id":"258e025d-f605-4338-84a0-17f713af0b8d","system_id":"levelo_inurba_marseille","lat":43.24805,"lon":5.37455,"is_reserved":false,"is_disabled":false,"rental_uris":{"android":"levelo://app?vid=258e025d-f605-4338-84a0-17f713af0b8d","ios":"levelo://app?vid=258e025d-f605-4338-84a0-17f713af0b8d"},"vehicle_type_id":"4","last_reported":1727600944,"current_range_meters":36400,"station_id":"ce4bhgh2rcd13ifvqfb0","pricing_plan_id":"cebpf4jnsgd1na2vs0mg"},{"bike_id":"121bd1e5-5a67-4d2a-a98c-b80054ed4398","system_id":"levelo_inurba_marseille","lat":43.26939,"lon":5.40258,"is_reserved":false,"is_disabled":false,"rental_uris":{"android":"levelo://app?vid=121bd1e5-5a67-4d2a-a98c-b80054ed4398","ios":"levelo://app?vid=121bd1e5-5a67-4d2a-a98c-b80054ed4398"},"vehicle_type_id":"4","last_reported":1727600944,"current_range_meters":22800,"station_id":"cjm6bp8fraef2m0cb0m0","pricing_plan_id":"cebpf4jnsgd1na2vs0mg"},{"bike_id":"48ac0a00-7daa-4c12-9a4d-5dab28220f2e","system_id":"levelo_inurba_marseille","lat":43.32361,"lon":5.38877,"is_reserved":false,"is_disabled":false,"rental_uris":{"android":"levelo://app?vid=48ac0a00-7daa-4c12-9a4d-5dab28220f2e","ios":"levelo://app?vid=48ac0a00-7daa-4c12-9a4d-5dab28220f2e"},"vehicle_type_id":"4","last_reported":1727600944,"current_range_meters":8000,"station_id":"ce4bhqp2rcd13ifvqhog","pricing_plan_id":"cebpf4jnsgd1na2vs0mg"},{"bike_id":"1736fb12-e3ce-4f4f-9134-2bed2daa2ecd","system_id":"levelo_inurba_marseille","lat":43.25501,"lon":5.37652,"is_reserved":false,"is_disabled":false,"rental_uris":{"android":"levelo://app?vid=1736fb12-e3ce-4f4f-9134-2bed2daa2ecd","ios":"levelo://app?vid=1736fb12-e3ce-4f4f-9134-2bed2daa2ecd"},"vehicle_type_id":"4","last_reported":1727600944,"current_range_meters":29600,"station_id":"ce4bhh12rcd13ifvqff0","pricing_plan_id":"cebpf4jnsgd1na2vs0mg"},{"bike_id":"109b3c0c-8bf1-4c6c-995c-e118c5a0c15c","system_id":"levelo_inurba_marseille","lat":43.27567,"lon":5.38429,"is_reserved":false,"is_disabled":false,"rental_uris":{"android":"levelo://app?vid=109b3c0c-8bf1-4c6c-995c-e118c5a0c15c","ios":"levelo://app?vid=109b3c0c-8bf1-4c6c-995c-e118c5a0c15c"},"vehicle_type_id":"4","last_reported":1727600944,"current_range_meters":38000,"station_id":"ce4bhh92rcd13ifvqfi0","pricing_plan_id":"cebpf4jnsgd1na2vs0mg"},{"bike_id":"8a6c7abd-e081-4cd2-b56a-81da52a2faa6","system_id":"levelo_inurba_marseille","lat":43.269324,"lon":5.389188,"is_reserved":false,"is_disabled":false,"rental_uris":{"android":"levelo://app?vid=8a6c7abd-e081-4cd2-b56a-81da52a2faa6","ios":"levelo://app?vid=8a6c7abd-e081-4cd2-b56a-81da52a2faa6"},"vehicle_type_id":"4","last_reported":1727600944,"current_range_meters":38800,"station_id":"ce4bhhh2rcd13ifvqfl0","pricing_plan_id":"cebpf4jnsgd1na2vs0mg"},{"bike_id":"1f313afb-1cf8-4bb7-8831-2c9f193c2d0c","system_id":"levelo_inurba_marseille","lat":43.24805,"lon":5.37454,"is_reserved":false,"is_disabled":false,"rental_uris":{"android":"levelo://app?vid=1f313afb-1cf8-4bb7-8831-2c9f193c2d0c","ios":"levelo://app?vid=1f313afb-1cf8-4bb7-8831-2c9f193c2d0c"},"vehicle_type_id":"4","last_reported":1727600944,"current_range_meters":38000,"station_id":"ce4bhgh2rcd13ifvqfb0","pricing_plan_id":"cebpf4jnsgd1na2vs0mg"},{"bike_id":"a63d4449-4f5a-4f1c-9a3c-27c8d74bd2a3","system_id":"levelo_inurba_marseille","lat":43.24386,"lon":5.3706,"is_reserved":false,"is_disabled":false,"rental_uris":{"android":"levelo://app?vid=a63d4449-4f5a-4f1c-9a3c-27c8d74bd2a3","ios":"levelo://app?vid=a63d4449-4f5a-4f1c-9a3c-27c8d74bd2a3"},"vehicle_type_id":"4","last_reported":1727600944,"current_range_meters":10800,"station_id":"ce4bhhh2rcd13ifvqfk0","pricing_plan_id":"cebpf4jnsgd1na2vs0mg"},{"bike_id":"551eb387-3d75-41a1-a1c6-82f2925df759","system_id":"levelo_inurba_marseille","lat":43.25083,"lon":5.39519,"is_reserved":false,"is_disabled":false,"rental_uris":{"android":"levelo://app?vid=551eb387-3d75-41a1-a1c6-82f2925df759","ios":"levelo://app?vid=551eb387-3d75-41a1-a1c6-82f2925df759"},"vehicle_type_id":"4","last_reported":1727600944,"current_range_meters":38800,"station_id":"ce4bhm12rcd13ifvqgkg","pricing_plan_id":"cebpf4jnsgd1na2vs0mg"},{"bike_id":"f053546e-9417-4cdc-8c24-aa8dc21c1501","system_id":"levelo_inurba_marseille","lat":43.284594,"lon":5.358867,"is_reserved":false,"is_disabled":false,"rental_uris":{"android":"levelo://app?vid=f053546e-9417-4cdc-8c24-aa8dc21c1501","ios":"levelo://app?vid=f053546e-9417-4cdc-8c24-aa8dc21c1501"},"vehicle_type_id":"4","last_reported":1727600944,"current_range_meters":38800,"station_id":"ce4bhah2rcd13ifvqei0","pricing_plan_id":"cebpf4jnsgd1na2vs0mg"},{"bike_id":"6050b024-ba14-40c7-be3f-79caabf156d4","system_id":"levelo_inurba_marseille","lat":43.30141,"lon":5.37428,"is_reserved":false,"is_disabled":false,"rental_uris":{"android":"levelo://app?vid=6050b024-ba14-40c7-be3f-79caabf156d4","ios":"levelo://app?vid=6050b024-ba14-40c7-be3f-79caabf156d4"},"vehicle_type_id":"4","last_reported":1727600944,"current_range_meters":38000,"station_id":"ce4bgs92rcd13ifvqcc0","pricing_plan_id":"cebpf4jnsgd1na2vs0mg"},{"bike_id":"fbc1edb8-7848-4fe9-ba0b-771808261eb1","system_id":"levelo_inurba_marseille","lat":43.29971,"lon":5.37173,"is_reserved":false,"is_disabled":false,"rental_uris":{"android":"levelo://app?vid=fbc1edb8-7848-4fe9-ba0b-771808261eb1","ios":"levelo://app?vid=fbc1edb8-7848-4fe9-ba0b-771808261eb1"},"vehicle_type_id":"4","last_reported":1727600944,"current_range_meters":32800,"station_id":"ce4bgr92rcd13ifvqc7g","pricing_plan_id":"cebpf4jnsgd1na2vs0mg"},{"bike_id":"3a33c761-7f39-41c1-a16a-f0977fd93bf5","system_id":"levelo_inurba_marseille","lat":43.29869,"lon":5.39727,"is_reserved":false,"is_disabled":false,"rental_uris":{"android":"levelo://app?vid=3a33c761-7f39-41c1-a16a-f0977fd93bf5","ios":"levelo://app?vid=3a33c761-7f39-41c1-a16a-f0977fd93bf5"},"vehicle_type_id":"4","last_reported":1727600944,"current_range_meters":38400,"station_id":"ce4bh0h2rcd13ifvqd50","pricing_plan_id":"cebpf4jnsgd1na2vs0mg"},{"bike_id":"0de489e3-c290-4da8-9f5b-10614590b5e5","system_id":"levelo_inurba_marseille","lat":43.25122,"lon":5.40312,"is_reserved":false,"is_disabled":false,"rental_uris":{"android":"levelo://app?vid=0de489e3-c290-4da8-9f5b-10614590b5e5","ios":"levelo://app?vid=0de489e3-c290-4da8-9f5b-10614590b5e5"},"vehicle_type_id":"4","last_reported":1727600944,"current_range_meters":38400,"station_id":"ce4bhlh2rcd13ifvqgig","pricing_plan_id":"cebpf4jnsgd1na2vs0mg"},{"bike_id":"98c14ba0-5aad-45d1-985c-332b3da1119a","system_id":"levelo_inurba_marseille","lat":43.30558,"lon":5.36537,"is_reserved":false,"is_disabled":false,"rental_uris":{"android":"levelo://app?vid=98c14ba0-5aad-45d1-985c-332b3da1119a","ios":"levelo://app?vid=98c14ba0-5aad-45d1-985c-332b3da1119a"},"vehicle_type_id":"4","last_reported":1727600944,"current_range_meters":32400,"station_id":"ce4bgs12rcd13ifvqcag","pricing_plan_id":"cebpf4jnsgd1na2vs0mg"},{"bike_id":"bc7dc6a9-589f-4649-9e06-6ce7434d3293","system_id":"levelo_inurba_marseille","lat":43.29039,"lon":5.36953,"is_reserved":false,"is_disabled":false,"rental_uris":{"android":"levelo://app?vid=bc7dc6a9-589f-4649-9e06-6ce7434d3293","ios":"levelo://app?vid=bc7dc6a9-589f-4649-9e06-6ce7434d3293"},"vehicle_type_id":"4","last_reported":1727600944,"current_range_meters":26800,"station_id":"ce4bhah2rcd13ifvqej0","pricing_plan_id":"cebpf4jnsgd1na2vs0mg"},{"bike_id":"f8cd1665-2182-42bb-993d-799437deb95c","system_id":"levelo_inurba_marseille","lat":43.23174,"lon":5.35581,"is_reserved":false,"is_disabled":false,"rental_uris":{"android":"levelo://app?vid=f8cd1665-2182-42bb-993d-799437deb95c","ios":"levelo://app?vid=f8cd1665-2182-42bb-993d-799437deb95c"},"vehicle_type_id":"4","last_reported":1727600944,"current_range_meters":4000,"station_id":"ce4bhu92rcd13ifvqi70","pricing_plan_id":"cebpf4jnsgd1na2vs0mg"},{"bike_id":"31fa25e9-2d65-4c2d-b7d1-53ad6527cbe6","system_id":"levelo_inurba_marseille","lat":43.30802,"lon":5.38148,"is_reserved":false,"is_disabled":false,"rental_uris":{"android":"levelo://app?vid=31fa25e9-2d65-4c2d-b7d1-53ad6527cbe6","ios":"levelo://app?vid=31fa25e9-2d65-4c2d-b7d1-53ad6527cbe6"},"vehicle_type_id":"4","last_reported":1727600944,"current_range_meters":38400,"station_id":"ce4bgt12rcd13ifvqce0","pricing_plan_id":"cebpf4jnsgd1na2vs0mg"},{"bike_id":"c5b22d42-7cee-4452-a1ec-6044a46f5fd1","system_id":"levelo_inurba_marseille","lat":43.32657,"lon":5.4099,"is_reserved":false,"is_disabled":false,"rental_uris":{"android":"levelo://app?vid=c5b22d42-7cee-4452-a1ec-6044a46f5fd1","ios":"levelo://app?vid=c5b22d42-7cee-4452-a1ec-6044a46f5fd1"},"vehicle_type_id":"4","last_reported":1727600944,"current_range_meters":38000,"station_id":"ce4bhpp2rcd13ifvqhgg","pricing_plan_id":"cebpf4jnsgd1na2vs0mg"},{"bike_id":"d473955d-353d-4a59-b0dc-1289d1123eb4","system_id":"levelo_inurba_marseille","lat":43.26945,"lon":5.38632,"is_reserved":false,"is_disabled":false,"rental_uris":{"android":"levelo://app?vid=d473955d-353d-4a59-b0dc-1289d1123eb4","ios":"levelo://app?vid=d473955d-353d-4a59-b0dc-1289d1123eb4"},"vehicle_type_id":"4","last_reported":1727600944,"current_range_meters":32400,"station_id":"ce4bhh92rcd13ifvqfh0","pricing_plan_id":"cebpf4jnsgd1na2vs0mg"},{"bike_id":"00b74ebf-5cb8-426e-a9dd-79ec71712ba8","system_id":"levelo_inurba_marseille","lat":43.30466,"lon":5.37915,"is_reserved":false,"is_disabled":false,"rental_uris":{"android":"levelo://app?vid=00b74ebf-5cb8-426e-a9dd-79ec71712ba8","ios":"levelo://app?vid=00b74ebf-5cb8-426e-a9dd-79ec71712ba8"},"vehicle_type_id":"4","last_reported":1727600944,"current_range_meters":38800,"station_id":"ce4bgup2rcd13ifvqcn0","pricing_plan_id":"cebpf4jnsgd1na2vs0mg"},{"bike_id":"9a2ad20e-e1d9-4e83-95bf-70c3027c11c6","system_id":"levelo_inurba_marseille","lat":43.258667,"lon":5.398926,"is_reserved":false,"is_disabled":false,"rental_uris":{"android":"levelo://app?vid=9a2ad20e-e1d9-4e83-95bf-70c3027c11c6","ios":"levelo://app?vid=9a2ad20e-e1d9-4e83-95bf-70c3027c11c6"},"vehicle_type_id":"4","last_reported":1727600944,"current_range_meters":36400,"station_id":"ce4bhbh2rcd13ifvqeo0","pricing_plan_id":"cebpf4jnsgd1na2vs0mg"},{"bike_id":"87a50115-8ad8-4a0d-ae3d-13508b5f5683","system_id":"levelo_inurba_marseille","lat":43.290788,"lon":5.371768,"is_reserved":false,"is_disabled":false,"rental_uris":{"android":"levelo://app?vid=87a50115-8ad8-4a0d-ae3d-13508b5f5683","ios":"levelo://app?vid=87a50115-8ad8-4a0d-ae3d-13508b5f5683"},"vehicle_type_id":"4","last_reported":1727600944,"current_range_meters":28800,"station_id":"ce4bh5p2rcd13ifvqe4g","pricing_plan_id":"cebpf4jnsgd1na2vs0mg"},{"bike_id":"822e70a6-8a18-4c11-b1f3-48b58fc904f3","system_id":"levelo_inurba_marseille","lat":43.26784,"lon":5.39418,"is_reserved":false,"is_disabled":false,"rental_uris":{"android":"levelo://app?vid=822e70a6-8a18-4c11-b1f3-48b58fc904f3","ios":"levelo://app?vid=822e70a6-8a18-4c11-b1f3-48b58fc904f3"},"vehicle_type_id":"4","last_reported":1727600944,"current_range_meters":29600,"station_id":"ce4bhh12rcd13ifvqfg0","pricing_plan_id":"cebpf4jnsgd1na2vs0mg"},{"bike_id":"2bec0f1e-8357-4f60-8192-984e2df43207","system_id":"levelo_inurba_marseille","lat":43.26565,"lon":5.39019,"is_reserved":false,"is_disabled":false,"rental_uris":{"android":"levelo://app?vid=2bec0f1e-8357-4f60-8192-984e2df43207","ios":"levelo://app?vid=2bec0f1e-8357-4f60-8192-984e2df43207"},"vehicle_type_id":"4","last_reported":1727600944,"current_range_meters":22800,"station_id":"ce4bhe12rcd13ifvqf30","pricing_plan_id":"cebpf4jnsgd1na2vs0mg"},{"bike_id":"6d42d371-9af6-42b1-bbe8-a9738929c51a","system_id":"levelo_inurba_marseille","lat":43.304695,"lon":5.379027,"is_reserved":false,"is_disabled":false,"rental_uris":{"android":"levelo://app?vid=6d42d371-9af6-42b1-bbe8-a9738929c51a","ios":"levelo://app?vid=6d42d371-9af6-42b1-bbe8-a9738929c51a"},"vehicle_type_id":"4","last_reported":1727600944,"current_range_meters":26800,"station_id":"ce4bgup2rcd13ifvqcn0","pricing_plan_id":"cebpf4jnsgd1na2vs0mg"},{"bike_id":"ed84faff-17c5-48fb-8753-c2f883b40c1d","system_id":"levelo_inurba_marseille","lat":43.23966,"lon":5.36635,"is_reserved":false,"is_disabled":false,"rental_uris":{"android":"levelo://app?vid=ed84faff-17c5-48fb-8753-c2f883b40c1d","ios":"levelo://app?vid=ed84faff-17c5-48fb-8753-c2f883b40c1d"},"vehicle_type_id":"4","last_reported":1727600944,"current_range_meters":38400,"station_id":"ce4bhi12rcd13ifvqfp0","pricing_plan_id":"cebpf4jnsgd1na2vs0mg"},{"bike_id":"c6605be8-6a78-46a2-afca-9ef77d31ef4b","system_id":"levelo_inurba_marseille","lat":43.319935,"lon":5.381512,"is_reserved":false,"is_disabled":false,"rental_uris":{"android":"levelo://app?vid=c6605be8-6a78-46a2-afca-9ef77d31ef4b","ios":"levelo://app?vid=c6605be8-6a78-46a2-afca-9ef77d31ef4b"},"vehicle_type_id":"4","last_reported":1727600944,"current_range_meters":19200,"station_id":"ce4bhr12rcd13ifvqhpg","pricing_plan_id":"cebpf4jnsgd1na2vs0mg"},{"bike_id":"3b170ecf-4bbb-421f-886d-94818fba1de8","system_id":"levelo_inurba_marseille","lat":43.28482,"lon":5.40025,"is_reserved":false,"is_disabled":false,"rental_uris":{"android":"levelo://app?vid=3b170ecf-4bbb-421f-886d-94818fba1de8","ios":"levelo://app?vid=3b170ecf-4bbb-421f-886d-94818fba1de8"},"vehicle_type_id":"4","last_reported":1727600944,"current_range_meters":32400,"station_id":"ce4bh2h2rcd13ifvqdh0","pricing_plan_id":"cebpf4jnsgd1na2vs0mg"},{"bike_id":"e5683fea-1c74-46fc-962a-62e782ca8409","system_id":"levelo_inurba_marseille","lat":43.27318,"lon":5.39091,"is_reserved":false,"is_disabled":false,"rental_uris":{"android":"levelo://app?vid=e5683fea-1c74-46fc-962a-62e782ca8409","ios":"levelo://app?vid=e5683fea-1c74-46fc-962a-62e782ca8409"},"vehicle_type_id":"4","last_reported":1727600944,"current_range_meters":25200,"station_id":"ce4bhgp2rcd13ifvqfe0","pricing_plan_id":"cebpf4jnsgd1na2vs0mg"},{"bike_id":"a84742ce-84eb-4d21-873c-4e72b449188c","system_id":"levelo_inurba_marseille","lat":43.26201,"lon":5.37934,"is_reserved":false,"is_disabled":false,"rental_uris":{"android":"levelo://app?vid=a84742ce-84eb-4d21-873c-4e72b449188c","ios":"levelo://app?vid=a84742ce-84eb-4d21-873c-4e72b449188c"},"vehicle_type_id":"4","last_reported":1727600944,"current_range_meters":36400,"station_id":"ce4bhjp2rcd13ifvqg90","pricing_plan_id":"cebpf4jnsgd1na2vs0mg"},{"bike_id":"b1e0d147-0ca1-4f31-bec4-2d0e212a3150","system_id":"levelo_inurba_marseille","lat":43.32035,"lon":5.41562,"is_reserved":false,"is_disabled":false,"rental_uris":{"android":"levelo://app?vid=b1e0d147-0ca1-4f31-bec4-2d0e212a3150","ios":"levelo://app?vid=b1e0d147-0ca1-4f31-bec4-2d0e212a3150"},"vehicle_type_id":"4","last_reported":1727600944,"current_range_meters":38800,"station_id":"ce4bhq92rcd13ifvqhkg","pricing_plan_id":"cebpf4jnsgd1na2vs0mg"},{"bike_id":"b0770d00-c38f-4e37-b240-ed7bc5977b1a","system_id":"levelo_inurba_marseille","lat":43.2465,"lon":5.38898,"is_reserved":false,"is_disabled":false,"rental_uris":{"android":"levelo://app?vid=b0770d00-c38f-4e37-b240-ed7bc5977b1a","ios":"levelo://app?vid=b0770d00-c38f-4e37-b240-ed7bc5977b1a"},"vehicle_type_id":"4","last_reported":1727600944,"current_range_meters":37600,"station_id":"ce4bhg12rcd13ifvqf60","pricing_plan_id":"cebpf4jnsgd1na2vs0mg"},{"bike_id":"8f07cd33-2747-43b9-924d-a4a0f6f690ea","system_id":"levelo_inurba_marseille","lat":43.27969,"lon":5.38736,"is_reserved":false,"is_disabled":false,"rental_uris":{"android":"levelo://app?vid=8f07cd33-2747-43b9-924d-a4a0f6f690ea","ios":"levelo://app?vid=8f07cd33-2747-43b9-924d-a4a0f6f690ea"},"vehicle_type_id":"4","last_reported":1727600944,"current_range_meters":26000,"station_id":"ce4bhg12rcd13ifvqf80","pricing_plan_id":"cebpf4jnsgd1na2vs0mg"},{"bike_id":"54c00a09-01bb-4a57-946d-3b8cde3c575e","system_id":"levelo_inurba_marseille","lat":43.31884,"lon":5.40722,"is_reserved":false,"is_disabled":false,"rental_uris":{"android":"levelo://app?vid=54c00a09-01bb-4a57-946d-3b8cde3c575e","ios":"levelo://app?vid=54c00a09-01bb-4a57-946d-3b8cde3c575e"},"vehicle_type_id":"4","last_reported":1727600944,"current_range_meters":38800,"station_id":"ce4bhq12rcd13ifvqhig","pricing_plan_id":"cebpf4jnsgd1na2vs0mg"},{"bike_id":"c51e285c-8141-4023-9ee3-49bcc68cf98c","system_id":"levelo_inurba_marseille","lat":43.25096,"lon":5.39513,"is_reserved":false,"is_disabled":false,"rental_uris":{"android":"levelo://app?vid=c51e285c-8141-4023-9ee3-49bcc68cf98c","ios":"levelo://app?vid=c51e285c-8141-4023-9ee3-49bcc68cf98c"},"vehicle_type_id":"4","last_reported":1727600944,"current_range_meters":38800,"station_id":"ce4bhm12rcd13ifvqgkg","pricing_plan_id":"cebpf4jnsgd1na2vs0mg"},{"bike_id":"98c8c4ed-465f-494f-a80f-9360f3f693a9","system_id":"levelo_inurba_marseille","lat":43.29186,"lon":5.35811,"is_reserved":false,"is_disabled":false,"rental_uris":{"android":"levelo://app?vid=98c8c4ed-465f-494f-a80f-9360f3f693a9","ios":"levelo://app?vid=98c8c4ed-465f-494f-a80f-9360f3f693a9"},"vehicle_type_id":"4","last_reported":1727600944,"current_range_meters":36400,"station_id":"ce4bhb12rcd13ifvqel0","pricing_plan_id":"cebpf4jnsgd1na2vs0mg"},{"bike_id":"a70894f7-a14f-4551-92fe-f3e8f961c159","system_id":"levelo_inurba_marseille","lat":43.3171,"lon":5.3775,"is_reserved":false,"is_disabled":false,"rental_uris":{"android":"levelo://app?vid=a70894f7-a14f-4551-92fe-f3e8f961c159","ios":"levelo://app?vid=a70894f7-a14f-4551-92fe-f3e8f961c159"},"vehicle_type_id":"4","last_reported":1727600944,"current_range_meters":26000,"station_id":"ce4bgth2rcd13ifvqch0","pricing_plan_id":"cebpf4jnsgd1na2vs0mg"},{"bike_id":"f511609e-26a1-49de-abb1-0985c092af8a","system_id":"levelo_inurba_marseille","lat":43.29582,"lon":5.3752,"is_reserved":false,"is_disabled":false,"rental_uris":{"android":"levelo://app?vid=f511609e-26a1-49de-abb1-0985c092af8a","ios":"levelo://app?vid=f511609e-26a1-49de-abb1-0985c092af8a"},"vehicle_type_id":"4","last_reported":1727600944,"current_range_meters":37600,"station_id":"ce4bgh92rcd13ifvqb50","pricing_plan_id":"cebpf4jnsgd1na2vs0mg"},{"bike_id":"7cfbd935-09f5-4a64-9e66-38667ba738a9","system_id":"levelo_inurba_marseille","lat":43.30527,"lon":5.38441,"is_reserved":false,"is_disabled":false,"rental_uris":{"android":"levelo://app?vid=7cfbd935-09f5-4a64-9e66-38667ba738a9","ios":"levelo://app?vid=7cfbd935-09f5-4a64-9e66-38667ba738a9"},"vehicle_type_id":"4","last_reported":1727600944,"current_range_meters":26000,"station_id":"ce4bgg92rcd13ifvqb30","pricing_plan_id":"cebpf4jnsgd1na2vs0mg"},{"bike_id":"d15a24c1-c5a8-4d16-b419-c7a29fd3709a","system_id":"levelo_inurba_marseille","lat":43.31273,"lon":5.40181,"is_reserved":false,"is_disabled":false,"rental_uris":{"android":"levelo://app?vid=d15a24c1-c5a8-4d16-b419-c7a29fd3709a","ios":"levelo://app?vid=d15a24c1-c5a8-4d16-b419-c7a29fd3709a"},"vehicle_type_id":"4","last_reported":1727600944,"current_range_meters":8000,"station_id":"ce4bh092rcd13ifvqd30","pricing_plan_id":"cebpf4jnsgd1na2vs0mg"},{"bike_id":"eb35b74a-e100-4849-baf8-86135e114bef","system_id":"levelo_inurba_marseille","lat":43.23156,"lon":5.43705,"is_reserved":false,"is_disabled":false,"rental_uris":{"android":"levelo://app?vid=eb35b74a-e100-4849-baf8-86135e114bef","ios":"levelo://app?vid=eb35b74a-e100-4849-baf8-86135e114bef"},"vehicle_type_id":"4","last_reported":1727600944,"current_range_meters":32000,"station_id":"ce4bhmp2rcd13ifvqgog","pricing_plan_id":"cebpf4jnsgd1na2vs0mg"},{"bike_id":"7cec4113-e9aa-4193-bc6d-24e888b2758a","system_id":"levelo_inurba_marseille","lat":43.26778,"lon":5.39429,"is_reserved":false,"is_disabled":false,"rental_uris":{"android":"levelo://app?vid=7cec4113-e9aa-4193-bc6d-24e888b2758a","ios":"levelo://app?vid=7cec4113-e9aa-4193-bc6d-24e888b2758a"},"vehicle_type_id":"4","last_reported":1727600944,"current_range_meters":28400,"station_id":"ce4bhh12rcd13ifvqfg0","pricing_plan_id":"cebpf4jnsgd1na2vs0mg"},{"bike_id":"84188a1b-6e61-44d3-b54a-5db4a05a6820","system_id":"levelo_inurba_marseille","lat":43.29274,"lon":5.3685,"is_reserved":false,"is_disabled":false,"rental_uris":{"android":"levelo://app?vid=84188a1b-6e61-44d3-b54a-5db4a05a6820","ios":"levelo://app?vid=84188a1b-6e61-44d3-b54a-5db4a05a6820"},"vehicle_type_id":"4","last_reported":1727600944,"current_range_meters":38400,"station_id":"ce4bhbp2rcd13ifvqesg","pricing_plan_id":"cebpf4jnsgd1na2vs0mg"},{"bike_id":"42775774-7c0a-4a2b-adbd-e74b09088474","system_id":"levelo_inurba_marseille","lat":43.31685,"lon":5.40473,"is_reserved":false,"is_disabled":false,"rental_uris":{"android":"levelo://app?vid=42775774-7c0a-4a2b-adbd-e74b09088474","ios":"levelo://app?vid=42775774-7c0a-4a2b-adbd-e74b09088474"},"vehicle_type_id":"4","last_reported":1727600944,"current_range_meters":32000,"station_id":"ce4bh012rcd13ifvqd00","pricing_plan_id":"cebpf4jnsgd1na2vs0mg"},{"bike_id":"0a9db6a3-6f2a-435c-801c-8333c7a53f0c","system_id":"levelo_inurba_marseille","lat":43.23196,"lon":5.35554,"is_reserved":false,"is_disabled":false,"rental_uris":{"android":"levelo://app?vid=0a9db6a3-6f2a-435c-801c-8333c7a53f0c","ios":"levelo://app?vid=0a9db6a3-6f2a-435c-801c-8333c7a53f0c"},"vehicle_type_id":"4","last_reported":1727600944,"current_range_meters":32000,"station_id":"ce4bhu92rcd13ifvqi70","pricing_plan_id":"cebpf4jnsgd1na2vs0mg"},{"bike_id":"21ddf552-eaa2-46b1-a3d2-cbdbca8b864e","system_id":"levelo_inurba_marseille","lat":43.26064,"lon":5.39397,"is_reserved":false,"is_disabled":false,"rental_uris":{"android":"levelo://app?vid=21ddf552-eaa2-46b1-a3d2-cbdbca8b864e","ios":"levelo://app?vid=21ddf552-eaa2-46b1-a3d2-cbdbca8b864e"},"vehicle_type_id":"4","last_reported":1727600944,"current_range_meters":37600,"station_id":"ce4bhh92rcd13ifvqfj0","pricing_plan_id":"cebpf4jnsgd1na2vs0mg"},{"bike_id":"5380acb6-70a9-4bdc-88de-f97cf7b2d553","system_id":"levelo_inurba_marseille","lat":43.33017,"lon":5.39031,"is_reserved":false,"is_disabled":false,"rental_uris":{"android":"levelo://app?vid=5380acb6-70a9-4bdc-88de-f97cf7b2d553","ios":"levelo://app?vid=5380acb6-70a9-4bdc-88de-f97cf7b2d553"},"vehicle_type_id":"4","last_reported":1727600944,"current_range_meters":3200,"station_id":"ce4bhr92rcd13ifvqhrg","pricing_plan_id":"cebpf4jnsgd1na2vs0mg"},{"bike_id":"ec031ee8-d5aa-4504-b193-b76ff1fe44a4","system_id":"levelo_inurba_marseille","lat":43.30354,"lon":5.41881,"is_reserved":false,"is_disabled":false,"rental_uris":{"android":"levelo://app?vid=ec031ee8-d5aa-4504-b193-b76ff1fe44a4","ios":"levelo://app?vid=ec031ee8-d5aa-4504-b193-b76ff1fe44a4"},"vehicle_type_id":"4","last_reported":1727600944,"current_range_meters":38800,"station_id":"ce4bhop2rcd13ifvqh7g","pricing_plan_id":"cebpf4jnsgd1na2vs0mg"},{"bike_id":"8eb5911f-c95e-4f31-a6d6-b3cd459f46bc","system_id":"levelo_inurba_marseille","lat":43.32479,"lon":5.3655,"is_reserved":false,"is_disabled":false,"rental_uris":{"android":"levelo://app?vid=8eb5911f-c95e-4f31-a6d6-b3cd459f46bc","ios":"levelo://app?vid=8eb5911f-c95e-4f31-a6d6-b3cd459f46bc"},"vehicle_type_id":"4","last_reported":1727600944,"current_range_meters":38800,"station_id":"ce4bhs12rcd13ifvqhvg","pricing_plan_id":"cebpf4jnsgd1na2vs0mg"},{"bike_id":"cff181f9-8616-4616-aa84-3dbafde351b2","system_id":"levelo_inurba_marseille","lat":43.26505,"lon":5.3835,"is_reserved":false,"is_disabled":false,"rental_uris":{"android":"levelo://app?vid=cff181f9-8616-4616-aa84-3dbafde351b2","ios":"levelo://app?vid=cff181f9-8616-4616-aa84-3dbafde351b2"},"vehicle_type_id":"4","last_reported":1727600944,"current_range_meters":14000,"station_id":"ce4bh512rcd13ifvqe3g","pricing_plan_id":"cebpf4jnsgd1na2vs0mg"},{"bike_id":"43581255-33c3-4285-83db-b19715dc7e5c","system_id":"levelo_inurba_marseille","lat":43.2894,"lon":5.39599,"is_reserved":false,"is_disabled":false,"rental_uris":{"android":"levelo://app?vid=43581255-33c3-4285-83db-b19715dc7e5c","ios":"levelo://app?vid=43581255-33c3-4285-83db-b19715dc7e5c"},"vehicle_type_id":"4","last_reported":1727600944,"current_range_meters":37600,"station_id":"ce4bh3h2rcd13ifvqdn0","pricing_plan_id":"cebpf4jnsgd1na2vs0mg"},{"bike_id":"60e8646f-ac0b-4b41-99e2-7b38aef2f976","system_id":"levelo_inurba_marseille","lat":43.26206,"lon":5.37927,"is_reserved":false,"is_disabled":false,"rental_uris":{"android":"levelo://app?vid=60e8646f-ac0b-4b41-99e2-7b38aef2f976","ios":"levelo://app?vid=60e8646f-ac0b-4b41-99e2-7b38aef2f976"},"vehicle_type_id":"4","last_reported":1727600944,"current_range_meters":39200,"station_id":"ce4bhjp2rcd13ifvqg90","pricing_plan_id":"cebpf4jnsgd1na2vs0mg"},{"bike_id":"51620d1d-dff2-4466-92c9-557fa3ef500d","system_id":"levelo_inurba_marseille","lat":43.29583,"lon":5.36739,"is_reserved":false,"is_disabled":false,"rental_uris":{"android":"levelo://app?vid=51620d1d-dff2-4466-92c9-557fa3ef500d","ios":"levelo://app?vid=51620d1d-dff2-4466-92c9-557fa3ef500d"},"vehicle_type_id":"4","last_reported":1727600944,"current_range_meters":36400,"station_id":"ce4bgph2rcd13ifvqc2g","pricing_plan_id":"cebpf4jnsgd1na2vs0mg"},{"bike_id":"e374ac23-5f47-4e7f-bd4a-8af04bee879f","system_id":"levelo_inurba_marseille","lat":43.31209,"lon":5.41847,"is_reserved":false,"is_disabled":false,"rental_uris":{"android":"levelo://app?vid=e374ac23-5f47-4e7f-bd4a-8af04bee879f","ios":"levelo://app?vid=e374ac23-5f47-4e7f-bd4a-8af04bee879f"},"vehicle_type_id":"4","last_reported":1727600944,"current_range_meters":22400,"station_id":"","pricing_plan_id":"cebpf4jnsgd1na2vs0mg"},{"bike_id":"a974d009-942e-477b-b4db-19f84bd48313","system_id":"levelo_inurba_marseille","lat":43.3237,"lon":5.38885,"is_reserved":false,"is_disabled":false,"rental_uris":{"android":"levelo://app?vid=a974d009-942e-477b-b4db-19f84bd48313","ios":"levelo://app?vid=a974d009-942e-477b-b4db-19f84bd48313"},"vehicle_type_id":"4","last_reported":1727600944,"current_range_meters":6000,"station_id":"ce4bhqp2rcd13ifvqhog","pricing_plan_id":"cebpf4jnsgd1na2vs0mg"},{"bike_id":"6a66b30d-b7e8-4317-88c5-fb9f52bf2878","system_id":"levelo_inurba_marseille","lat":43.23957,"lon":5.36625,"is_reserved":false,"is_disabled":false,"rental_uris":{"android":"levelo://app?vid=6a66b30d-b7e8-4317-88c5-fb9f52bf2878","ios":"levelo://app?vid=6a66b30d-b7e8-4317-88c5-fb9f52bf2878"},"vehicle_type_id":"4","last_reported":1727600944,"current_range_meters":38400,"station_id":"ce4bhi12rcd13ifvqfp0","pricing_plan_id":"cebpf4jnsgd1na2vs0mg"},{"bike_id":"76f71997-0ad0-4819-9cca-4e23c7cbd69a","system_id":"levelo_inurba_marseille","lat":43.30473,"lon":5.37909,"is_reserved":false,"is_disabled":false,"rental_uris":{"android":"levelo://app?vid=76f71997-0ad0-4819-9cca-4e23c7cbd69a","ios":"levelo://app?vid=76f71997-0ad0-4819-9cca-4e23c7cbd69a"},"vehicle_type_id":"4","last_reported":1727600944,"current_range_meters":19600,"station_id":"ce4bgup2rcd13ifvqcn0","pricing_plan_id":"cebpf4jnsgd1na2vs0mg"},{"bike_id":"acf2f467-29a5-4221-bf56-bfc69468396b","system_id":"levelo_inurba_marseille","lat":43.27316,"lon":5.39094,"is_reserved":false,"is_disabled":false,"rental_uris":{"android":"levelo://app?vid=acf2f467-29a5-4221-bf56-bfc69468396b","ios":"levelo://app?vid=acf2f467-29a5-4221-bf56-bfc69468396b"},"vehicle_type_id":"4","last_reported":1727600944,"current_range_meters":30800,"station_id":"ce4bhgp2rcd13ifvqfe0","pricing_plan_id":"cebpf4jnsgd1na2vs0mg"},{"bike_id":"36e28af7-ddee-4540-a244-b5691f735fa0","system_id":"levelo_inurba_marseille","lat":43.31685,"lon":5.37756,"is_reserved":false,"is_disabled":false,"rental_uris":{"android":"levelo://app?vid=36e28af7-ddee-4540-a244-b5691f735fa0","ios":"levelo://app?vid=36e28af7-ddee-4540-a244-b5691f735fa0"},"vehicle_type_id":"4","last_reported":1727600944,"current_range_meters":8400,"station_id":"ce4bgth2rcd13ifvqch0","pricing_plan_id":"cebpf4jnsgd1na2vs0mg"},{"bike_id":"9efdf05c-571e-4c3a-a0bf-af0e0fbc032d","system_id":"levelo_inurba_marseille","lat":43.25096,"lon":5.39518,"is_reserved":false,"is_disabled":false,"rental_uris":{"android":"levelo://app?vid=9efdf05c-571e-4c3a-a0bf-af0e0fbc032d","ios":"levelo://app?vid=9efdf05c-571e-4c3a-a0bf-af0e0fbc032d"},"vehicle_type_id":"4","last_reported":1727600944,"current_range_meters":18000,"station_id":"ce4bhm12rcd13ifvqgkg","pricing_plan_id":"cebpf4jnsgd1na2vs0mg"},{"bike_id":"55c3e583-81ca-4575-a7c7-6f647b0e2733","system_id":"levelo_inurba_marseille","lat":43.29932,"lon":5.36532,"is_reserved":false,"is_disabled":false,"rental_uris":{"android":"levelo://app?vid=55c3e583-81ca-4575-a7c7-6f647b0e2733","ios":"levelo://app?vid=55c3e583-81ca-4575-a7c7-6f647b0e2733"},"vehicle_type_id":"4","last_reported":1727600944,"current_range_meters":28800,"station_id":"ce4bgm92rcd13ifvqbr0","pricing_plan_id":"cebpf4jnsgd1na2vs0mg"},{"bike_id":"8537bd26-c143-480b-ac7c-86d2b5338011","system_id":"levelo_inurba_marseille","lat":43.26212,"lon":5.37453,"is_reserved":false,"is_disabled":false,"rental_uris":{"android":"levelo://app?vid=8537bd26-c143-480b-ac7c-86d2b5338011","ios":"levelo://app?vid=8537bd26-c143-480b-ac7c-86d2b5338011"},"vehicle_type_id":"4","last_reported":1727600944,"current_range_meters":37600,"station_id":"ce4bhgp2rcd13ifvqfc0","pricing_plan_id":"cebpf4jnsgd1na2vs0mg"},{"bike_id":"199f764e-7942-4511-a407-33ff4a7dc457","system_id":"levelo_inurba_marseille","lat":43.26025,"lon":5.3755,"is_reserved":false,"is_disabled":false,"rental_uris":{"android":"levelo://app?vid=199f764e-7942-4511-a407-33ff4a7dc457","ios":"levelo://app?vid=199f764e-7942-4511-a407-33ff4a7dc457"},"vehicle_type_id":"4","last_reported":1727600944,"current_range_meters":37600,"station_id":"ce4bhgh2rcd13ifvqfa0","pricing_plan_id":"cebpf4jnsgd1na2vs0mg"},{"bike_id":"0701cf2a-674c-4c9d-af1e-6650acbaaf74","system_id":"levelo_inurba_marseille","lat":43.28378,"lon":5.37299,"is_reserved":false,"is_disabled":false,"rental_uris":{"android":"levelo://app?vid=0701cf2a-674c-4c9d-af1e-6650acbaaf74","ios":"levelo://app?vid=0701cf2a-674c-4c9d-af1e-6650acbaaf74"},"vehicle_type_id":"4","last_reported":1727600944,"current_range_meters":10000,"station_id":"","pricing_plan_id":"cebpf4jnsgd1na2vs0mg"},{"bike_id":"928ca7e2-8b81-4ae7-af8d-f778c16daa3f","system_id":"levelo_inurba_marseille","lat":43.296356,"lon":5.371641,"is_reserved":false,"is_disabled":false,"rental_uris":{"android":"levelo://app?vid=928ca7e2-8b81-4ae7-af8d-f778c16daa3f","ios":"levelo://app?vid=928ca7e2-8b81-4ae7-af8d-f778c16daa3f"},"vehicle_type_id":"4","last_reported":1727600944,"current_range_meters":2000,"station_id":"ce4bgs12rcd13ifvqcag","pricing_plan_id":"cebpf4jnsgd1na2vs0mg"},{"bike_id":"a48460e4-d4da-4877-ad08-62dca9d34780","system_id":"levelo_inurba_marseille","lat":43.24164,"lon":5.36398,"is_reserved":false,"is_disabled":false,"rental_uris":{"android":"levelo://app?vid=a48460e4-d4da-4877-ad08-62dca9d34780","ios":"levelo://app?vid=a48460e4-d4da-4877-ad08-62dca9d34780"},"vehicle_type_id":"4","last_reported":1727600944,"current_range_meters":35200,"station_id":"cpo36qri1sfpv3e86is0","pricing_plan_id":"cebpf4jnsgd1na2vs0mg"},{"bike_id":"af033c85-f983-40f0-a2de-771a4a2b084e","system_id":"levelo_inurba_marseille","lat":43.30352,"lon":5.41876,"is_reserved":false,"is_disabled":false,"rental_uris":{"android":"levelo://app?vid=af033c85-f983-40f0-a2de-771a4a2b084e","ios":"levelo://app?vid=af033c85-f983-40f0-a2de-771a4a2b084e"},"vehicle_type_id":"4","last_reported":1727600944,"current_range_meters":38800,"station_id":"ce4bhop2rcd13ifvqh7g","pricing_plan_id":"cebpf4jnsgd1na2vs0mg"},{"bike_id":"f395bd4c-daff-427a-8859-85f57da65f9a","system_id":"levelo_inurba_marseille","lat":43.29958,"lon":5.41322,"is_reserved":false,"is_disabled":false,"rental_uris":{"android":"levelo://app?vid=f395bd4c-daff-427a-8859-85f57da65f9a","ios":"levelo://app?vid=f395bd4c-daff-427a-8859-85f57da65f9a"},"vehicle_type_id":"4","last_reported":1727600944,"current_range_meters":2800,"station_id":"ce4bhp12rcd13ifvqh9g","pricing_plan_id":"cebpf4jnsgd1na2vs0mg"},{"bike_id":"b0524404-81bc-432c-b637-b137a327da89","system_id":"levelo_inurba_marseille","lat":43.29388,"lon":5.37324,"is_reserved":false,"is_disabled":false,"rental_uris":{"android":"levelo://app?vid=b0524404-81bc-432c-b637-b137a327da89","ios":"levelo://app?vid=b0524404-81bc-432c-b637-b137a327da89"},"vehicle_type_id":"4","last_reported":1727600944,"current_range_meters":12000,"station_id":"ce4bgkh2rcd13ifvqbk0","pricing_plan_id":"cebpf4jnsgd1na2vs0mg"},{"bike_id":"7471c56a-13a2-4de7-a64c-fac562c2bbce","system_id":"levelo_inurba_marseille","lat":43.31111,"lon":5.37778,"is_reserved":false,"is_disabled":false,"rental_uris":{"android":"levelo://app?vid=7471c56a-13a2-4de7-a64c-fac562c2bbce","ios":"levelo://app?vid=7471c56a-13a2-4de7-a64c-fac562c2bbce"},"vehicle_type_id":"4","last_reported":1727600944,"current_range_meters":4000,"station_id":"ce4bgt92rcd13ifvqcg0","pricing_plan_id":"cebpf4jnsgd1na2vs0mg"},{"bike_id":"f389741c-aa7d-460e-a8b7-712fd6efee59","system_id":"levelo_inurba_marseille","lat":43.27615,"lon":5.36114,"is_reserved":false,"is_disabled":false,"rental_uris":{"android":"levelo://app?vid=f389741c-aa7d-460e-a8b7-712fd6efee59","ios":"levelo://app?vid=f389741c-aa7d-460e-a8b7-712fd6efee59"},"vehicle_type_id":"4","last_reported":1727600944,"current_range_meters":38400,"station_id":"ce4bgj92rcd13ifvqbe0","pricing_plan_id":"cebpf4jnsgd1na2vs0mg"},{"bike_id":"6cdca13d-24d1-4302-912a-54d18c748242","system_id":"levelo_inurba_marseille","lat":43.31083,"lon":5.40132,"is_reserved":false,"is_disabled":false,"rental_uris":{"android":"levelo://app?vid=6cdca13d-24d1-4302-912a-54d18c748242","ios":"levelo://app?vid=6cdca13d-24d1-4302-912a-54d18c748242"},"vehicle_type_id":"4","last_reported":1727600944,"current_range_meters":5600,"station_id":"","pricing_plan_id":"cebpf4jnsgd1na2vs0mg"},{"bike_id":"8db0e5cd-2187-4a1e-887b-1a2f8d3b39de","system_id":"levelo_inurba_marseille","lat":43.32287,"lon":5.3827,"is_reserved":false,"is_disabled":false,"rental_uris":{"android":"levelo://app?vid=8db0e5cd-2187-4a1e-887b-1a2f8d3b39de","ios":"levelo://app?vid=8db0e5cd-2187-4a1e-887b-1a2f8d3b39de"},"vehicle_type_id":"4","last_reported":1727600944,"current_range_meters":19600,"station_id":"ce4bhr12rcd13ifvqhqg","pricing_plan_id":"cebpf4jnsgd1na2vs0mg"},{"bike_id":"4b02d02f-e4f8-4503-af33-737662778152","system_id":"levelo_inurba_marseille","lat":43.27992,"lon":5.40003,"is_reserved":false,"is_disabled":false,"rental_uris":{"android":"levelo://app?vid=4b02d02f-e4f8-4503-af33-737662778152","ios":"levelo://app?vid=4b02d02f-e4f8-4503-af33-737662778152"},"vehicle_type_id":"4","last_reported":1727600944,"current_range_meters":38400,"station_id":"ce4bho92rcd13ifvqh4g","pricing_plan_id":"cebpf4jnsgd1na2vs0mg"},{"bike_id":"56c70bcf-7a5d-4d3c-ad73-dbf912d90a7f","system_id":"levelo_inurba_marseille","lat":43.25109,"lon":5.40323,"is_reserved":false,"is_disabled":false,"rental_uris":{"android":"levelo://app?vid=56c70bcf-7a5d-4d3c-ad73-dbf912d90a7f","ios":"levelo://app?vid=56c70bcf-7a5d-4d3c-ad73-dbf912d90a7f"},"vehicle_type_id":"4","last_reported":1727600944,"current_range_meters":38800,"station_id":"ce4bhlh2rcd13ifvqgig","pricing_plan_id":"cebpf4jnsgd1na2vs0mg"},{"bike_id":"0029159c-783d-4f02-a15f-8c17fc87f24b","system_id":"levelo_inurba_marseille","lat":43.29886,"lon":5.37428,"is_reserved":false,"is_disabled":false,"rental_uris":{"android":"levelo://app?vid=0029159c-783d-4f02-a15f-8c17fc87f24b","ios":"levelo://app?vid=0029159c-783d-4f02-a15f-8c17fc87f24b"},"vehicle_type_id":"4","last_reported":1727600944,"current_range_meters":8400,"station_id":"","pricing_plan_id":"cebpf4jnsgd1na2vs0mg"},{"bike_id":"25f5f9e6-352e-4976-9228-e746fb418960","system_id":"levelo_inurba_marseille","lat":43.27994,"lon":5.40016,"is_reserved":false,"is_disabled":false,"rental_uris":{"android":"levelo://app?vid=25f5f9e6-352e-4976-9228-e746fb418960","ios":"levelo://app?vid=25f5f9e6-352e-4976-9228-e746fb418960"},"vehicle_type_id":"4","last_reported":1727600944,"current_range_meters":38800,"station_id":"ce4bho92rcd13ifvqh4g","pricing_plan_id":"cebpf4jnsgd1na2vs0mg"},{"bike_id":"2739f21a-7d48-4a2c-8180-69d444e34103","system_id":"levelo_inurba_marseille","lat":43.26684,"lon":5.38276,"is_reserved":false,"is_disabled":false,"rental_uris":{"android":"levelo://app?vid=2739f21a-7d48-4a2c-8180-69d444e34103","ios":"levelo://app?vid=2739f21a-7d48-4a2c-8180-69d444e34103"},"vehicle_type_id":"4","last_reported":1727600944,"current_range_meters":33200,"station_id":"ce4bhg92rcd13ifvqf90","pricing_plan_id":"cebpf4jnsgd1na2vs0mg"},{"bike_id":"f7531614-5f6b-42a5-8f8c-1def99fe8745","system_id":"levelo_inurba_marseille","lat":43.25588,"lon":5.38221,"is_reserved":false,"is_disabled":false,"rental_uris":{"android":"levelo://app?vid=f7531614-5f6b-42a5-8f8c-1def99fe8745","ios":"levelo://app?vid=f7531614-5f6b-42a5-8f8c-1def99fe8745"},"vehicle_type_id":"4","last_reported":1727600944,"current_range_meters":8800,"station_id":"ce4bhih2rcd13ifvqfs0","pricing_plan_id":"cebpf4jnsgd1na2vs0mg"},{"bike_id":"5220e7ba-5183-450c-986e-1a09b217d618","system_id":"levelo_inurba_marseille","lat":43.282685,"lon":5.350674,"is_reserved":false,"is_disabled":false,"rental_uris":{"android":"levelo://app?vid=5220e7ba-5183-450c-986e-1a09b217d618","ios":"levelo://app?vid=5220e7ba-5183-450c-986e-1a09b217d618"},"vehicle_type_id":"4","last_reported":1727600944,"current_range_meters":38000,"station_id":"ce4bhbp2rcd13ifvqerg","pricing_plan_id":"cebpf4jnsgd1na2vs0mg"},{"bike_id":"3407da71-e9f5-4375-9956-506983640a2f","system_id":"levelo_inurba_marseille","lat":43.28995,"lon":5.37581,"is_reserved":false,"is_disabled":false,"rental_uris":{"android":"levelo://app?vid=3407da71-e9f5-4375-9956-506983640a2f","ios":"levelo://app?vid=3407da71-e9f5-4375-9956-506983640a2f"},"vehicle_type_id":"4","last_reported":1727600944,"current_range_meters":25200,"station_id":"ce4bh692rcd13ifvqe90","pricing_plan_id":"cebpf4jnsgd1na2vs0mg"},{"bike_id":"d5dedc51-5836-4935-a815-a0077d051f65","system_id":"levelo_inurba_marseille","lat":43.25583,"lon":5.38243,"is_reserved":false,"is_disabled":false,"rental_uris":{"android":"levelo://app?vid=d5dedc51-5836-4935-a815-a0077d051f65","ios":"levelo://app?vid=d5dedc51-5836-4935-a815-a0077d051f65"},"vehicle_type_id":"4","last_reported":1727600944,"current_range_meters":34000,"station_id":"ce4bhih2rcd13ifvqfs0","pricing_plan_id":"cebpf4jnsgd1na2vs0mg"},{"bike_id":"7dad3a58-67e8-4e41-a4ff-66ade5c62965","system_id":"levelo_inurba_marseille","lat":43.25577,"lon":5.38232,"is_reserved":false,"is_disabled":false,"rental_uris":{"android":"levelo://app?vid=7dad3a58-67e8-4e41-a4ff-66ade5c62965","ios":"levelo://app?vid=7dad3a58-67e8-4e41-a4ff-66ade5c62965"},"vehicle_type_id":"4","last_reported":1727600944,"current_range_meters":26800,"station_id":"ce4bhih2rcd13ifvqfs0","pricing_plan_id":"cebpf4jnsgd1na2vs0mg"},{"bike_id":"ba1a4c98-548c-4467-9903-a34cd6f6e5d2","system_id":"levelo_inurba_marseille","lat":43.26785,"lon":5.39425,"is_reserved":false,"is_disabled":false,"rental_uris":{"android":"levelo://app?vid=ba1a4c98-548c-4467-9903-a34cd6f6e5d2","ios":"levelo://app?vid=ba1a4c98-548c-4467-9903-a34cd6f6e5d2"},"vehicle_type_id":"4","last_reported":1727600944,"current_range_meters":27600,"station_id":"ce4bhh12rcd13ifvqfg0","pricing_plan_id":"cebpf4jnsgd1na2vs0mg"},{"bike_id":"f46ba497-4d2c-4e85-8316-f4b61f940e13","system_id":"levelo_inurba_marseille","lat":43.31759,"lon":5.39021,"is_reserved":false,"is_disabled":false,"rental_uris":{"android":"levelo://app?vid=f46ba497-4d2c-4e85-8316-f4b61f940e13","ios":"levelo://app?vid=f46ba497-4d2c-4e85-8316-f4b61f940e13"},"vehicle_type_id":"4","last_reported":1727600944,"current_range_meters":6800,"station_id":"ce4bhqp2rcd13ifvqhng","pricing_plan_id":"cebpf4jnsgd1na2vs0mg"},{"bike_id":"9d6a8ed6-b1ec-4a75-8e6a-9447933b7fed","system_id":"levelo_inurba_marseille","lat":43.29711,"lon":5.36617,"is_reserved":false,"is_disabled":false,"rental_uris":{"android":"levelo://app?vid=9d6a8ed6-b1ec-4a75-8e6a-9447933b7fed","ios":"levelo://app?vid=9d6a8ed6-b1ec-4a75-8e6a-9447933b7fed"},"vehicle_type_id":"4","last_reported":1727600944,"current_range_meters":30400,"station_id":"ce4bgn12rcd13ifvqbt0","pricing_plan_id":"cebpf4jnsgd1na2vs0mg"},{"bike_id":"41ca4c63-8def-4c31-9103-fc1045ebe4a5","system_id":"levelo_inurba_marseille","lat":43.23195,"lon":5.3555,"is_reserved":false,"is_disabled":false,"rental_uris":{"android":"levelo://app?vid=41ca4c63-8def-4c31-9103-fc1045ebe4a5","ios":"levelo://app?vid=41ca4c63-8def-4c31-9103-fc1045ebe4a5"},"vehicle_type_id":"4","last_reported":1727600944,"current_range_meters":25600,"station_id":"ce4bhu92rcd13ifvqi70","pricing_plan_id":"cebpf4jnsgd1na2vs0mg"},{"bike_id":"e097e58e-6a83-4f2f-8633-5cdaa0d8621c","system_id":"levelo_inurba_marseille","lat":43.29582,"lon":5.36729,"is_reserved":false,"is_disabled":false,"rental_uris":{"android":"levelo://app?vid=e097e58e-6a83-4f2f-8633-5cdaa0d8621c","ios":"levelo://app?vid=e097e58e-6a83-4f2f-8633-5cdaa0d8621c"},"vehicle_type_id":"4","last_reported":1727600944,"current_range_meters":38800,"station_id":"ce4bgph2rcd13ifvqc2g","pricing_plan_id":"cebpf4jnsgd1na2vs0mg"},{"bike_id":"14da0f8c-dbb9-4c22-aa1c-ed31926530f4","system_id":"levelo_inurba_marseille","lat":43.28418,"lon":5.34976,"is_reserved":false,"is_disabled":false,"rental_uris":{"android":"levelo://app?vid=14da0f8c-dbb9-4c22-aa1c-ed31926530f4","ios":"levelo://app?vid=14da0f8c-dbb9-4c22-aa1c-ed31926530f4"},"vehicle_type_id":"4","last_reported":1727600944,"current_range_meters":27600,"station_id":"ce4bhbh2rcd13ifvqepg","pricing_plan_id":"cebpf4jnsgd1na2vs0mg"},{"bike_id":"ad2828b2-2852-44f7-a21b-241451c370b5","system_id":"levelo_inurba_marseille","lat":43.33029,"lon":5.39048,"is_reserved":false,"is_disabled":false,"rental_uris":{"android":"levelo://app?vid=ad2828b2-2852-44f7-a21b-241451c370b5","ios":"levelo://app?vid=ad2828b2-2852-44f7-a21b-241451c370b5"},"vehicle_type_id":"4","last_reported":1727600944,"current_range_meters":37600,"station_id":"ce4bhr92rcd13ifvqhrg","pricing_plan_id":"cebpf4jnsgd1na2vs0mg"},{"bike_id":"28704e94-6d32-447e-bf92-213dabd0e2e8","system_id":"levelo_inurba_marseille","lat":43.23187,"lon":5.39978,"is_reserved":false,"is_disabled":false,"rental_uris":{"android":"levelo://app?vid=28704e94-6d32-447e-bf92-213dabd0e2e8","ios":"levelo://app?vid=28704e94-6d32-447e-bf92-213dabd0e2e8"},"vehicle_type_id":"4","last_reported":1727600944,"current_range_meters":14000,"station_id":"ce4bhn12rcd13ifvqgqg","pricing_plan_id":"cebpf4jnsgd1na2vs0mg"},{"bike_id":"d506f765-7389-4724-a7e4-a15c05a4de75","system_id":"levelo_inurba_marseille","lat":43.23193,"lon":5.35552,"is_reserved":false,"is_disabled":false,"rental_uris":{"android":"levelo://app?vid=d506f765-7389-4724-a7e4-a15c05a4de75","ios":"levelo://app?vid=d506f765-7389-4724-a7e4-a15c05a4de75"},"vehicle_type_id":"4","last_reported":1727600944,"current_range_meters":28000,"station_id":"ce4bhu92rcd13ifvqi70","pricing_plan_id":"cebpf4jnsgd1na2vs0mg"},{"bike_id":"8f020b6a-2426-411b-8ad3-71a44f103914","system_id":"levelo_inurba_marseille","lat":43.33607,"lon":5.41032,"is_reserved":false,"is_disabled":false,"rental_uris":{"android":"levelo://app?vid=8f020b6a-2426-411b-8ad3-71a44f103914","ios":"levelo://app?vid=8f020b6a-2426-411b-8ad3-71a44f103914"},"vehicle_type_id":"4","last_reported":1727600944,"current_range_meters":16800,"station_id":"ce4bhqh2rcd13ifvqhmg","pricing_plan_id":"cebpf4jnsgd1na2vs0mg"},{"bike_id":"275b0a25-1a9f-498c-9202-be550b06c3de","system_id":"levelo_inurba_marseille","lat":43.32286,"lon":5.38291,"is_reserved":false,"is_disabled":false,"rental_uris":{"android":"levelo://app?vid=275b0a25-1a9f-498c-9202-be550b06c3de","ios":"levelo://app?vid=275b0a25-1a9f-498c-9202-be550b06c3de"},"vehicle_type_id":"4","last_reported":1727600944,"current_range_meters":38800,"station_id":"ce4bhr12rcd13ifvqhqg","pricing_plan_id":"cebpf4jnsgd1na2vs0mg"},{"bike_id":"87f3e9a3-2670-4baa-9d8f-482a5927cda2","system_id":"levelo_inurba_marseille","lat":43.29728,"lon":5.37674,"is_reserved":false,"is_disabled":false,"rental_uris":{"android":"levelo://app?vid=87f3e9a3-2670-4baa-9d8f-482a5927cda2","ios":"levelo://app?vid=87f3e9a3-2670-4baa-9d8f-482a5927cda2"},"vehicle_type_id":"4","last_reported":1727600944,"current_range_meters":38800,"station_id":"ce4bgkh2rcd13ifvqbl0","pricing_plan_id":"cebpf4jnsgd1na2vs0mg"},{"bike_id":"e0c0b808-6f56-4a27-9662-b62adaaee85d","system_id":"levelo_inurba_marseille","lat":43.31861,"lon":5.37396,"is_reserved":false,"is_disabled":false,"rental_uris":{"android":"levelo://app?vid=e0c0b808-6f56-4a27-9662-b62adaaee85d","ios":"levelo://app?vid=e0c0b808-6f56-4a27-9662-b62adaaee85d"},"vehicle_type_id":"4","last_reported":1727600944,"current_range_meters":28400,"station_id":"","pricing_plan_id":"cebpf4jnsgd1na2vs0mg"},{"bike_id":"e0448498-1923-4013-96e2-5aec4fc93af7","system_id":"levelo_inurba_marseille","lat":43.24808,"lon":5.37452,"is_reserved":false,"is_disabled":false,"rental_uris":{"android":"levelo://app?vid=e0448498-1923-4013-96e2-5aec4fc93af7","ios":"levelo://app?vid=e0448498-1923-4013-96e2-5aec4fc93af7"},"vehicle_type_id":"4","last_reported":1727600944,"current_range_meters":36400,"station_id":"ce4bhgh2rcd13ifvqfb0","pricing_plan_id":"cebpf4jnsgd1na2vs0mg"},{"bike_id":"90bd98a8-64e4-485e-ae20-a830b64e6d1f","system_id":"levelo_inurba_marseille","lat":43.26209,"lon":5.37444,"is_reserved":false,"is_disabled":false,"rental_uris":{"android":"levelo://app?vid=90bd98a8-64e4-485e-ae20-a830b64e6d1f","ios":"levelo://app?vid=90bd98a8-64e4-485e-ae20-a830b64e6d1f"},"vehicle_type_id":"4","last_reported":1727600944,"current_range_meters":28800,"station_id":"ce4bhgp2rcd13ifvqfc0","pricing_plan_id":"cebpf4jnsgd1na2vs0mg"},{"bike_id":"34a5ea0a-624d-4116-9185-b8cc0665a894","system_id":"levelo_inurba_marseille","lat":43.27212,"lon":5.3919,"is_reserved":false,"is_disabled":false,"rental_uris":{"android":"levelo://app?vid=34a5ea0a-624d-4116-9185-b8cc0665a894","ios":"levelo://app?vid=34a5ea0a-624d-4116-9185-b8cc0665a894"},"vehicle_type_id":"4","last_reported":1727600944,"current_range_meters":38400,"station_id":"ce4bhhp2rcd13ifvqfm0","pricing_plan_id":"cebpf4jnsgd1na2vs0mg"},{"bike_id":"0c3f0369-7cdf-4cba-a0db-09435ab8c8da","system_id":"levelo_inurba_marseille","lat":43.23185,"lon":5.39996,"is_reserved":false,"is_disabled":false,"rental_uris":{"android":"levelo://app?vid=0c3f0369-7cdf-4cba-a0db-09435ab8c8da","ios":"levelo://app?vid=0c3f0369-7cdf-4cba-a0db-09435ab8c8da"},"vehicle_type_id":"4","last_reported":1727600944,"current_range_meters":27200,"station_id":"ce4bhn12rcd13ifvqgqg","pricing_plan_id":"cebpf4jnsgd1na2vs0mg"},{"bike_id":"8c045f14-2b7a-4f4a-9095-7d6d98c249be","system_id":"levelo_inurba_marseille","lat":43.29271,"lon":5.40138,"is_reserved":false,"is_disabled":false,"rental_uris":{"android":"levelo://app?vid=8c045f14-2b7a-4f4a-9095-7d6d98c249be","ios":"levelo://app?vid=8c045f14-2b7a-4f4a-9095-7d6d98c249be"},"vehicle_type_id":"4","last_reported":1727600944,"current_range_meters":37600,"station_id":"ce4bh312rcd13ifvqdk0","pricing_plan_id":"cebpf4jnsgd1na2vs0mg"},{"bike_id":"1b89fa20-6646-4f25-9318-35703e24f767","system_id":"levelo_inurba_marseille","lat":43.25493,"lon":5.37651,"is_reserved":false,"is_disabled":false,"rental_uris":{"android":"levelo://app?vid=1b89fa20-6646-4f25-9318-35703e24f767","ios":"levelo://app?vid=1b89fa20-6646-4f25-9318-35703e24f767"},"vehicle_type_id":"4","last_reported":1727600944,"current_range_meters":39200,"station_id":"ce4bhh12rcd13ifvqff0","pricing_plan_id":"cebpf4jnsgd1na2vs0mg"},{"bike_id":"578ce527-fa82-4bc5-9233-45e69a86eb22","system_id":"levelo_inurba_marseille","lat":43.31993,"lon":5.38142,"is_reserved":false,"is_disabled":false,"rental_uris":{"android":"levelo://app?vid=578ce527-fa82-4bc5-9233-45e69a86eb22","ios":"levelo://app?vid=578ce527-fa82-4bc5-9233-45e69a86eb22"},"vehicle_type_id":"4","last_reported":1727600944,"current_range_meters":38000,"station_id":"ce4bhr12rcd13ifvqhpg","pricing_plan_id":"cebpf4jnsgd1na2vs0mg"},{"bike_id":"f9544fb1-c02e-4ef0-828d-b520c9bc1616","system_id":"levelo_inurba_marseille","lat":43.243895,"lon":5.370665,"is_reserved":false,"is_disabled":false,"rental_uris":{"android":"levelo://app?vid=f9544fb1-c02e-4ef0-828d-b520c9bc1616","ios":"levelo://app?vid=f9544fb1-c02e-4ef0-828d-b520c9bc1616"},"vehicle_type_id":"4","last_reported":1727600944,"current_range_meters":6800,"station_id":"","pricing_plan_id":"cebpf4jnsgd1na2vs0mg"},{"bike_id":"d8e32f1c-4c32-4777-922d-4d90b15b71c7","system_id":"levelo_inurba_marseille","lat":43.30863,"lon":5.3685,"is_reserved":false,"is_disabled":false,"rental_uris":{"android":"levelo://app?vid=d8e32f1c-4c32-4777-922d-4d90b15b71c7","ios":"levelo://app?vid=d8e32f1c-4c32-4777-922d-4d90b15b71c7"},"vehicle_type_id":"4","last_reported":1727600944,"current_range_meters":5600,"station_id":"ce4bgn92rcd13ifvqbvg","pricing_plan_id":"cebpf4jnsgd1na2vs0mg"},{"bike_id":"47d1545d-5ccf-4b29-b332-e4bfd2de0a90","system_id":"levelo_inurba_marseille","lat":43.23183,"lon":5.39984,"is_reserved":false,"is_disabled":false,"rental_uris":{"android":"levelo://app?vid=47d1545d-5ccf-4b29-b332-e4bfd2de0a90","ios":"levelo://app?vid=47d1545d-5ccf-4b29-b332-e4bfd2de0a90"},"vehicle_type_id":"4","last_reported":1727600944,"current_range_meters":38000,"station_id":"ce4bhn12rcd13ifvqgqg","pricing_plan_id":"cebpf4jnsgd1na2vs0mg"},{"bike_id":"b470945e-f45c-4291-ac95-d7061c9aab44","system_id":"levelo_inurba_marseille","lat":43.27374,"lon":5.41211,"is_reserved":false,"is_disabled":false,"rental_uris":{"android":"levelo://app?vid=b470945e-f45c-4291-ac95-d7061c9aab44","ios":"levelo://app?vid=b470945e-f45c-4291-ac95-d7061c9aab44"},"vehicle_type_id":"4","last_reported":1727600944,"current_range_meters":24800,"station_id":"","pricing_plan_id":"cebpf4jnsgd1na2vs0mg"},{"bike_id":"af76e50e-a6c2-4f78-bde8-06e23100d131","system_id":"levelo_inurba_marseille","lat":43.25095,"lon":5.39503,"is_reserved":false,"is_disabled":false,"rental_uris":{"android":"levelo://app?vid=af76e50e-a6c2-4f78-bde8-06e23100d131","ios":"levelo://app?vid=af76e50e-a6c2-4f78-bde8-06e23100d131"},"vehicle_type_id":"4","last_reported":1727600944,"current_range_meters":20800,"station_id":"ce4bhm12rcd13ifvqgkg","pricing_plan_id":"cebpf4jnsgd1na2vs0mg"},{"bike_id":"31552421-58c2-42f5-aeeb-efc97a1f3415","system_id":"levelo_inurba_marseille","lat":43.28412,"lon":5.34987,"is_reserved":false,"is_disabled":false,"rental_uris":{"android":"levelo://app?vid=31552421-58c2-42f5-aeeb-efc97a1f3415","ios":"levelo://app?vid=31552421-58c2-42f5-aeeb-efc97a1f3415"},"vehicle_type_id":"4","last_reported":1727600944,"current_range_meters":38800,"station_id":"ce4bhbh2rcd13ifvqepg","pricing_plan_id":"cebpf4jnsgd1na2vs0mg"},{"bike_id":"81651f01-9b73-47b6-ad3d-872990b7953f","system_id":"levelo_inurba_marseille","lat":43.29223,"lon":5.36071,"is_reserved":false,"is_disabled":false,"rental_uris":{"android":"levelo://app?vid=81651f01-9b73-47b6-ad3d-872990b7953f","ios":"levelo://app?vid=81651f01-9b73-47b6-ad3d-872990b7953f"},"vehicle_type_id":"4","last_reported":1727600944,"current_range_meters":28000,"station_id":"ce4bhbh2rcd13ifvqeqg","pricing_plan_id":"cebpf4jnsgd1na2vs0mg"},{"bike_id":"e4361fa2-90d9-45ff-9d8a-e7b112f4e011","system_id":"levelo_inurba_marseille","lat":43.28515,"lon":5.39118,"is_reserved":false,"is_disabled":false,"rental_uris":{"android":"levelo://app?vid=e4361fa2-90d9-45ff-9d8a-e7b112f4e011","ios":"levelo://app?vid=e4361fa2-90d9-45ff-9d8a-e7b112f4e011"},"vehicle_type_id":"4","last_reported":1727600944,"current_range_meters":28400,"station_id":"ce4bh3p2rcd13ifvqdp0","pricing_plan_id":"cebpf4jnsgd1na2vs0mg"},{"bike_id":"e2dfaa4a-75e3-4c2e-9c24-949bde367ae3","system_id":"levelo_inurba_marseille","lat":43.26565,"lon":5.39013,"is_reserved":false,"is_disabled":false,"rental_uris":{"android":"levelo://app?vid=e2dfaa4a-75e3-4c2e-9c24-949bde367ae3","ios":"levelo://app?vid=e2dfaa4a-75e3-4c2e-9c24-949bde367ae3"},"vehicle_type_id":"4","last_reported":1727600944,"current_range_meters":38800,"station_id":"ce4bhe12rcd13ifvqf30","pricing_plan_id":"cebpf4jnsgd1na2vs0mg"},{"bike_id":"80819b60-8f79-4737-88f6-347632ea17b6","system_id":"levelo_inurba_marseille","lat":43.231903,"lon":5.355358,"is_reserved":false,"is_disabled":false,"rental_uris":{"android":"levelo://app?vid=80819b60-8f79-4737-88f6-347632ea17b6","ios":"levelo://app?vid=80819b60-8f79-4737-88f6-347632ea17b6"},"vehicle_type_id":"4","last_reported":1727600944,"current_range_meters":10800,"station_id":"ce4bhu92rcd13ifvqi70","pricing_plan_id":"cebpf4jnsgd1na2vs0mg"},{"bike_id":"2392a5ea-adca-44e7-b9bd-172f4a5686a8","system_id":"levelo_inurba_marseille","lat":43.28696,"lon":5.37402,"is_reserved":false,"is_disabled":false,"rental_uris":{"android":"levelo://app?vid=2392a5ea-adca-44e7-b9bd-172f4a5686a8","ios":"levelo://app?vid=2392a5ea-adca-44e7-b9bd-172f4a5686a8"},"vehicle_type_id":"4","last_reported":1727600944,"current_range_meters":37600,"station_id":"ce4bh3p2rcd13ifvqdq0","pricing_plan_id":"cebpf4jnsgd1na2vs0mg"},{"bike_id":"882ba506-1a08-4072-8320-b36e698224c5","system_id":"levelo_inurba_marseille","lat":43.24171,"lon":5.36396,"is_reserved":false,"is_disabled":false,"rental_uris":{"android":"levelo://app?vid=882ba506-1a08-4072-8320-b36e698224c5","ios":"levelo://app?vid=882ba506-1a08-4072-8320-b36e698224c5"},"vehicle_type_id":"4","last_reported":1727600944,"current_range_meters":29600,"station_id":"cpo36qri1sfpv3e86is0","pricing_plan_id":"cebpf4jnsgd1na2vs0mg"},{"bike_id":"6eff8d2d-61fa-4715-9388-b30a052d3e98","system_id":"levelo_inurba_marseille","lat":43.337444,"lon":5.374475,"is_reserved":false,"is_disabled":false,"rental_uris":{"android":"levelo://app?vid=6eff8d2d-61fa-4715-9388-b30a052d3e98","ios":"levelo://app?vid=6eff8d2d-61fa-4715-9388-b30a052d3e98"},"vehicle_type_id":"4","last_reported":1727600944,"current_range_meters":28800,"station_id":"","pricing_plan_id":"cebpf4jnsgd1na2vs0mg"},{"bike_id":"008608c3-4ed6-421f-8543-daf51d61c54f","system_id":"levelo_inurba_marseille","lat":43.28153,"lon":5.42641,"is_reserved":false,"is_disabled":false,"rental_uris":{"android":"levelo://app?vid=008608c3-4ed6-421f-8543-daf51d61c54f","ios":"levelo://app?vid=008608c3-4ed6-421f-8543-daf51d61c54f"},"vehicle_type_id":"4","last_reported":1727600944,"current_range_meters":38400,"station_id":"ce4bhnh2rcd13ifvqgug","pricing_plan_id":"cebpf4jnsgd1na2vs0mg"},{"bike_id":"3fbe2bcb-7d20-4523-aec1-1148610f9d0a","system_id":"levelo_inurba_marseille","lat":43.28465,"lon":5.35892,"is_reserved":false,"is_disabled":false,"rental_uris":{"android":"levelo://app?vid=3fbe2bcb-7d20-4523-aec1-1148610f9d0a","ios":"levelo://app?vid=3fbe2bcb-7d20-4523-aec1-1148610f9d0a"},"vehicle_type_id":"4","last_reported":1727600944,"current_range_meters":16000,"station_id":"ce4bhah2rcd13ifvqei0","pricing_plan_id":"cebpf4jnsgd1na2vs0mg"},{"bike_id":"ddbc06e7-ec91-4337-8ac6-ca5fc7447a44","system_id":"levelo_inurba_marseille","lat":43.27992,"lon":5.41665,"is_reserved":false,"is_disabled":false,"rental_uris":{"android":"levelo://app?vid=ddbc06e7-ec91-4337-8ac6-ca5fc7447a44","ios":"levelo://app?vid=ddbc06e7-ec91-4337-8ac6-ca5fc7447a44"},"vehicle_type_id":"4","last_reported":1727600944,"current_range_meters":38000,"station_id":"ce4bho12rcd13ifvqh1g","pricing_plan_id":"cebpf4jnsgd1na2vs0mg"},{"bike_id":"06541979-5a18-4116-8b26-1ed04d03f077","system_id":"levelo_inurba_marseille","lat":43.31973,"lon":5.38009,"is_reserved":false,"is_disabled":false,"rental_uris":{"android":"levelo://app?vid=06541979-5a18-4116-8b26-1ed04d03f077","ios":"levelo://app?vid=06541979-5a18-4116-8b26-1ed04d03f077"},"vehicle_type_id":"4","last_reported":1727600944,"current_range_meters":36000,"station_id":"ce4bgt12rcd13ifvqcd0","pricing_plan_id":"cebpf4jnsgd1na2vs0mg"},{"bike_id":"49103c36-092f-43a6-a665-96ac4218adb8","system_id":"levelo_inurba_marseille","lat":43.32291,"lon":5.38268,"is_reserved":false,"is_disabled":false,"rental_uris":{"android":"levelo://app?vid=49103c36-092f-43a6-a665-96ac4218adb8","ios":"levelo://app?vid=49103c36-092f-43a6-a665-96ac4218adb8"},"vehicle_type_id":"4","last_reported":1727600944,"current_range_meters":38800,"station_id":"ce4bhr12rcd13ifvqhqg","pricing_plan_id":"cebpf4jnsgd1na2vs0mg"},{"bike_id":"ead9eccb-7ad1-4755-bd94-b94a7b125903","system_id":"levelo_inurba_marseille","lat":43.24391,"lon":5.37061,"is_reserved":false,"is_disabled":false,"rental_uris":{"android":"levelo://app?vid=ead9eccb-7ad1-4755-bd94-b94a7b125903","ios":"levelo://app?vid=ead9eccb-7ad1-4755-bd94-b94a7b125903"},"vehicle_type_id":"4","last_reported":1727600944,"current_range_meters":29600,"station_id":"ce4bhhh2rcd13ifvqfk0","pricing_plan_id":"cebpf4jnsgd1na2vs0mg"},{"bike_id":"4b1f50dd-cb8e-4519-98d8-cde4101de809","system_id":"levelo_inurba_marseille","lat":43.28438,"lon":5.39212,"is_reserved":false,"is_disabled":false,"rental_uris":{"android":"levelo://app?vid=4b1f50dd-cb8e-4519-98d8-cde4101de809","ios":"levelo://app?vid=4b1f50dd-cb8e-4519-98d8-cde4101de809"},"vehicle_type_id":"4","last_reported":1727600944,"current_range_meters":38000,"station_id":"ce4bhoh2rcd13ifvqh5g","pricing_plan_id":"cebpf4jnsgd1na2vs0mg"},{"bike_id":"b4a553d3-2b57-4ffb-a5e3-4a3ccb906062","system_id":"levelo_inurba_marseille","lat":43.30486,"lon":5.37916,"is_reserved":false,"is_disabled":false,"rental_uris":{"android":"levelo://app?vid=b4a553d3-2b57-4ffb-a5e3-4a3ccb906062","ios":"levelo://app?vid=b4a553d3-2b57-4ffb-a5e3-4a3ccb906062"},"vehicle_type_id":"4","last_reported":1727600944,"current_range_meters":21600,"station_id":"ce4bgup2rcd13ifvqcn0","pricing_plan_id":"cebpf4jnsgd1na2vs0mg"},