{"last_updated":1737803249,"ttl":60,"version":"2.2","data":{"bikes":[{"bike_id":"0e07a6ae-d17e-42fa-9ec3-4f7a623f0735","system_id":"levelo_inurba_marseille","lat":43.27359,"lon":5.36254,"is_reserved":false,"is_disabled":false,"rental_uris":{"android":"levelo://app?vid=0e07a6ae-d17e-42fa-9ec3-4f7a623f0735","ios":"levelo://app?vid=0e07a6ae-d17e-42fa-9ec3-4f7a623f0735"},"vehicle_type_id":"4","last_reported":1737803249,"current_range_meters":38800,"station_id":"ce4bhbh2rcd13ifvqeo0","pricing_plan_id":"cebpf4jnsgd1na2vs0mg"},{"bike_id":"794f4813-4dba-4a3d-8cc2-13f694f03fa9","system_id":"levelo_inurba_marseille","lat":43.28267,"lon":5.35075,"is_reserved":false,"is_disabled":false,"rental_uris":{"android":"levelo://app?vid=794f4813-4dba-4a3d-8cc2-13f694f03fa9","ios":"levelo://app?vid=794f4813-4dba-4a3d-8cc2-13f694f03fa9"},"vehicle_type_id":"4","last_reported":1737803249,"current_range_meters":30800,"station_id":"ce4bhbp2rcd13ifvqerg","pricing_plan_id":"cebpf4jnsgd1na2vs0mg"},{"bike_id":"8ab3577a-35bb-4b8b-947c-5e95fd653987","system_id":"levelo_inurba_marseille","lat":43.300934,"lon":5.39097,"is_reserved":false,"is_disabled":false,"rental_uris":{"android":"levelo://app?vid=8ab3577a-35bb-4b8b-947c-5e95fd653987","ios":"levelo://app?vid=8ab3577a-35bb-4b8b-947c-5e95fd653987"},"vehicle_type_id":"4","last_reported":1737803249,"current_range_meters":27600,"station_id":"ce4bh192rcd13ifvqdb0","pricing_plan_id":"cebpf4jnsgd1na2vs0mg"},{"bike_id":"22fdda07-29f7-4097-aa7c-457566d3caba","system_id":"levelo_inurba_marseille","lat":43.2508,"lon":5.39553,"is_reserved":false,"is_disabled":false,"rental_uris":{"android":"levelo://app?vid=22fdda07-29f7-4097-aa7c-457566d3caba","ios":"levelo://app?vid=22fdda07-29f7-4097-aa7c-457566d3caba"},"vehicle_type_id":"4","last_reported":1737803249,"current_range_meters":30000,"station_id":"ce4bhm12rcd13ifvqgkg","pricing_plan_id":"cebpf4jnsgd1na2vs0mg"},{"bike_id":"0e9d57ef-4ce5-4d45-8ccf-2620600e81e2","system_id":"levelo_inurba_marseille","lat":43.2893,"lon":5.38406,"is_reserved":false,"is_disabled":false,"rental_uris":{"android":"levelo://app?vid=0e9d57ef-4ce5-4d45-8ccf-2620600e81e2","ios":"levelo://app?vid=0e9d57ef-4ce5-4d45-8ccf-2620600e81e2"},"vehicle_type_id":"4","last_reported":1737803249,"current_range_meters":38800,"station_id":"ce4bh612rcd13ifvqe6g","pricing_plan_id":"cebpf4jnsgd1na2vs0mg"},{"bike_id":"c8c3d6b5-7c99-4e3e-949f-9d57b30c5dea","system_id":"levelo_inurba_marseille","lat":43.29573,"lon":5.38124,"is_reserved":false,"is_disabled":false,"rental_uris":{"android":"levelo://app?vid=c8c3d6b5-7c99-4e3e-949f-9d57b30c5dea","ios":"levelo://app?vid=c8c3d6b5-7c99-4e3e-949f-9d57b30c5dea"},"vehicle_type_id":"4","last_reported":1737803249,"current_range_meters":30800,"station_id":"ce4bgl12rcd13ifvqbo0","pricing_plan_id":"cebpf4jnsgd1na2vs0mg"},{"bike_id":"e3f9cb26-dbd7-4487-bcf7-ad1275ce25c6","system_id":"levelo_inurba_marseille","lat":43.27997,"lon":5.41664,"is_reserved":false,"is_disabled":false,"rental_uris":{"android":"levelo://app?vid=e3f9cb26-dbd7-4487-bcf7-ad1275ce25c6","ios":"levelo://app?vid=e3f9cb26-dbd7-4487-bcf7-ad1275ce25c6"},"vehicle_type_id":"4","last_reported":1737803249,"current_range_meters":14800,"station_id":"ce4bho12rcd13ifvqh1g","pricing_plan_id":"cebpf4jnsgd1na2vs0mg"},{"bike_id":"58d9e3df-28a3-4560-b2cd-4d33fefbd544","system_id":"levelo_inurba_marseille","lat":43.28352,"lon":5.38148,"is_reserved":false,"is_disabled":true,"rental_uris":{"android":"levelo://app?vid=58d9e3df-28a3-4560-b2cd-4d33fefbd544","ios":"levelo://app?vid=58d9e3df-28a3-4560-b2cd-4d33fefbd544"},"vehicle_type_id":"4","last_reported":1737803249,"current_range_meters":23200,"station_id":"ce4bh412rcd13ifvqdr0","pricing_plan_id":"cebpf4jnsgd1na2vs0mg"},{"bike_id":"0793f05d-0029-4d54-a0fe-9c0436426db5","system_id":"levelo_inurba_marseille","lat":43.23208,"lon":5.35555,"is_reserved":false,"is_disabled":false,"rental_uris":{"android":"levelo://app?vid=0793f05d-0029-4d54-a0fe-9c0436426db5","ios":"levelo://app?vid=0793f05d-0029-4d54-a0fe-9c0436426db5"},"vehicle_type_id":"4","last_reported":1737803249,"current_range_meters":38800,"station_id":"ce4bhu92rcd13ifvqi70","pricing_plan_id":"cebpf4jnsgd1na2vs0mg"},{"bike_id":"2e69219e-a32a-45dd-bfbe-a39a3389fa1c","system_id":"levelo_inurba_marseille","lat":43.25092,"lon":5.39519,"is_reserved":false,"is_disabled":false,"rental_uris":{"android":"levelo://app?vid=2e69219e-a32a-45dd-bfbe-a39a3389fa1c","ios":"levelo://app?vid=2e69219e-a32a-45dd-bfbe-a39a3389fa1c"},"vehicle_type_id":"4","last_reported":1737803249,"current_range_meters":18000,"station_id":"ce4bhm12rcd13ifvqgkg","pricing_plan_id":"cebpf4jnsgd1na2vs0mg"},{"bike_id":"4914872c-162c-4b5d-a9af-cff65f389580","system_id":"levelo_inurba_marseille","lat":43.29591,"lon":5.38125,"is_reserved":false,"is_disabled":true,"rental_uris":{"android":"levelo://app?vid=4914872c-162c-4b5d-a9af-cff65f389580","ios":"levelo://app?vid=4914872c-162c-4b5d-a9af-cff65f389580"},"vehicle_type_id":"4","last_reported":1737803249,"current_range_meters":0,"station_id":"ce4bgl12rcd13ifvqbo0","pricing_plan_id":"cebpf4jnsgd1na2vs0mg"},{"bike_id":"f19dc989-9b1f-48ea-abf9-5fac135f6a39","system_id":"levelo_inurba_marseille","lat":43.28286,"lon":5.35075,"is_reserved":false,"is_disabled":false,"rental_uris":{"android":"levelo://app?vid=f19dc989-9b1f-48ea-abf9-5fac135f6a39","ios":"levelo://app?vid=f19dc989-9b1f-48ea-abf9-5fac135f6a39"},"vehicle_type_id":"4","last_reported":1737803249,"current_range_meters":38800,"station_id":"ce4bhbp2rcd13ifvqerg","pricing_plan_id":"cebpf4jnsgd1na2vs0mg"},{"bike_id":"78f1bcbe-297f-4d89-be9d-ff7c664d65b5","system_id":"levelo_inurba_marseille","lat":43.27182,"lon":5.41006,"is_reserved":false,"is_disabled":false,"rental_uris":{"android":"levelo://app?vid=78f1bcbe-297f-4d89-be9d-ff7c664d65b5","ios":"levelo://app?vid=78f1bcbe-297f-4d89-be9d-ff7c664d65b5"},"vehicle_type_id":"4","last_reported":1737803249,"current_range_meters":9200,"station_id":"ce4bhl12rcd13ifvqgf0","pricing_plan_id":"cebpf4jnsgd1na2vs0mg"},{"bike_id":"e436d496-1f73-49bf-92c5-3ebe95260380","system_id":"levelo_inurba_marseille","lat":43.29622,"lon":5.37165,"is_reserved":false,"is_disabled":false,"rental_uris":{"android":"levelo://app?vid=e436d496-1f73-49bf-92c5-3ebe95260380","ios":"levelo://app?vid=e436d496-1f73-49bf-92c5-3ebe95260380"},"vehicle_type_id":"4","last_reported":1737803249,"current_range_meters":26800,"station_id":"ce4bgnh2rcd13ifvqc0g","pricing_plan_id":"cebpf4jnsgd1na2vs0mg"},{"bike_id":"b75fb621-ddf4-43e4-8307-4e53f1879d3d","system_id":"levelo_inurba_marseille","lat":43.30549,"lon":5.36533,"is_reserved":false,"is_disabled":false,"rental_uris":{"android":"levelo://app?vid=b75fb621-ddf4-43e4-8307-4e53f1879d3d","ios":"levelo://app?vid=b75fb621-ddf4-43e4-8307-4e53f1879d3d"},"vehicle_type_id":"4","last_reported":1737803249,"current_range_meters":36800,"station_id":"ce4bgs12rcd13ifvqcag","pricing_plan_id":"cebpf4jnsgd1na2vs0mg"},{"bike_id":"b1279c7a-1446-4139-9aa3-d2ea00fcb203","system_id":"levelo_inurba_marseille","lat":43.32525,"lon":5.41481,"is_reserved":false,"is_disabled":false,"rental_uris":{"android":"levelo://app?vid=b1279c7a-1446-4139-9aa3-d2ea00fcb203","ios":"levelo://app?vid=b1279c7a-1446-4139-9aa3-d2ea00fcb203"},"vehicle_type_id":"4","last_reported":1737803249,"current_range_meters":37600,"station_id":"ce4bhq12rcd13ifvqhhg","pricing_plan_id":"cebpf4jnsgd1na2vs0mg"},{"bike_id":"9fa14550-b343-4ac3-9931-2c3f234d871f","system_id":"levelo_inurba_marseille","lat":43.30535,"lon":5.3845,"is_reserved":false,"is_disabled":false,"rental_uris":{"android":"levelo://app?vid=9fa14550-b343-4ac3-9931-2c3f234d871f","ios":"levelo://app?vid=9fa14550-b343-4ac3-9931-2c3f234d871f"},"vehicle_type_id":"4","last_reported":1737803249,"current_range_meters":37600,"station_id":"ce4bgg92rcd13ifvqb30","pricing_plan_id":"cebpf4jnsgd1na2vs0mg"},{"bike_id":"9d5ccda8-3701-45d5-9f90-ad50ba3514f0","system_id":"levelo_inurba_marseille","lat":43.2842,"lon":5.34992,"is_reserved":false,"is_disabled":false,"rental_uris":{"android":"levelo://app?vid=9d5ccda8-3701-45d5-9f90-ad50ba3514f0","ios":"levelo://app?vid=9d5ccda8-3701-45d5-9f90-ad50ba3514f0"},"vehicle_type_id":"4","last_reported":1737803249,"current_range_meters":25600,"station_id":"ce4bhbh2rcd13ifvqepg","pricing_plan_id":"cebpf4jnsgd1na2vs0mg"},{"bike_id":"b8dabcf6-0a30-4ef3-864d-5a2b0008cb16","system_id":"levelo_inurba_marseille","lat":43.31714,"lon":5.43709,"is_reserved":false,"is_disabled":false,"rental_uris":{"android":"levelo://app?vid=b8dabcf6-0a30-4ef3-864d-5a2b0008cb16","ios":"levelo://app?vid=b8dabcf6-0a30-4ef3-864d-5a2b0008cb16"},"vehicle_type_id":"4","last_reported":1737803249,"current_range_meters":18000,"station_id":"ce4bhp92rcd13ifvqhcg","pricing_plan_id":"cebpf4jnsgd1na2vs0mg"},{"bike_id":"f63fda25-b652-4a7d-98df-67faab664e5b","system_id":"levelo_inurba_marseille","lat":43.30879,"lon":5.39666,"is_reserved":false,"is_disabled":false,"rental_uris":{"android":"levelo://app?vid=f63fda25-b652-4a7d-98df-67faab664e5b","ios":"levelo://app?vid=f63fda25-b652-4a7d-98df-67faab664e5b"},"vehicle_type_id":"4","last_reported":1737803249,"current_range_meters":8800,"station_id":"ce4bh012rcd13ifvqcv0","pricing_plan_id":"cebpf4jnsgd1na2vs0mg"},{"bike_id":"f7ac40bf-9ec2-46b3-898f-7f04d59d08e5","system_id":"levelo_inurba_marseille","lat":43.271803,"lon":5.409954,"is_reserved":false,"is_disabled":false,"rental_uris":{"android":"levelo://app?vid=f7ac40bf-9ec2-46b3-898f-7f04d59d08e5","ios":"levelo://app?vid=f7ac40bf-9ec2-46b3-898f-7f04d59d08e5"},"vehicle_type_id":"4","last_reported":1737803249,"current_range_meters":16000,"station_id":"ce4bhl12rcd13ifvqgf0","pricing_plan_id":"cebpf4jnsgd1na2vs0mg"},{"bike_id":"d6fd12db-b649-491b-ae85-e4bec940de64","system_id":"levelo_inurba_marseille","lat":43.30524,"lon":5.36547,"is_reserved":false,"is_disabled":false,"rental_uris":{"android":"levelo://app?vid=d6fd12db-b649-491b-ae85-e4bec940de64","ios":"levelo://app?vid=d6fd12db-b649-491b-ae85-e4bec940de64"},"vehicle_type_id":"4","last_reported":1737803249,"current_range_meters":39200,"station_id":"ce4bgs12rcd13ifvqcag","pricing_plan_id":"cebpf4jnsgd1na2vs0mg"},{"bike_id":"74b05677-e512-4069-a27d-c87a4ddb41d8","system_id":"levelo_inurba_marseille","lat":43.29192,"lon":5.39334,"is_reserved":false,"is_disabled":false,"rental_uris":{"android":"levelo://app?vid=74b05677-e512-4069-a27d-c87a4ddb41d8","ios":"levelo://app?vid=74b05677-e512-4069-a27d-c87a4ddb41d8"},"vehicle_type_id":"4","last_reported":1737803249,"current_range_meters":38400,"station_id":"ce4bh192rcd13ifvqdd0","pricing_plan_id":"cebpf4jnsgd1na2vs0mg"},{"bike_id":"7b7d33dd-db03-4648-8306-ff98decd73ec","system_id":"levelo_inurba_marseille","lat":43.29597,"lon":5.37719,"is_reserved":false,"is_disabled":false,"rental_uris":{"android":"levelo://app?vid=7b7d33dd-db03-4648-8306-ff98decd73ec","ios":"levelo://app?vid=7b7d33dd-db03-4648-8306-ff98decd73ec"},"vehicle_type_id":"4","last_reported":1737803249,"current_range_meters":28800,"station_id":"ce4bgi92rcd13ifvqb90","pricing_plan_id":"cebpf4jnsgd1na2vs0mg"},{"bike_id":"35fd246c-6ac1-460e-9b98-2f0ca407d940","system_id":"levelo_inurba_marseille","lat":43.25101,"lon":5.40349,"is_reserved":false,"is_disabled":false,"rental_uris":{"android":"levelo://app?vid=35fd246c-6ac1-460e-9b98-2f0ca407d940","ios":"levelo://app?vid=35fd246c-6ac1-460e-9b98-2f0ca407d940"},"vehicle_type_id":"4","last_reported":1737803249,"current_range_meters":8400,"station_id":"ce4bhlh2rcd13ifvqgig","pricing_plan_id":"cebpf4jnsgd1na2vs0mg"},{"bike_id":"7ff41bb0-58bb-4e7a-856f-2a2aba66f15e","system_id":"levelo_inurba_marseille","lat":43.31706,"lon":5.43718,"is_reserved":false,"is_disabled":false,"rental_uris":{"android":"levelo://app?vid=7ff41bb0-58bb-4e7a-856f-2a2aba66f15e","ios":"levelo://app?vid=7ff41bb0-58bb-4e7a-856f-2a2aba66f15e"},"vehicle_type_id":"4","last_reported":1737803249,"current_range_meters":38800,"station_id":"ce4bhp92rcd13ifvqhcg","pricing_plan_id":"cebpf4jnsgd1na2vs0mg"},{"bike_id":"10b99ab4-6f7a-4892-8afb-9696481c2ac3","system_id":"levelo_inurba_marseille","lat":43.272,"lon":5.39215,"is_reserved":false,"is_disabled":false,"rental_uris":{"android":"levelo://app?vid=10b99ab4-6f7a-4892-8afb-9696481c2ac3","ios":"levelo://app?vid=10b99ab4-6f7a-4892-8afb-9696481c2ac3"},"vehicle_type_id":"4","last_reported":1737803249,"current_range_meters":38800,"station_id":"ce4bhhp2rcd13ifvqfm0","pricing_plan_id":"cebpf4jnsgd1na2vs0mg"},{"bike_id":"a30351db-fe9e-4b20-8751-6b327939c9b8","system_id":"levelo_inurba_marseille","lat":43.30144,"lon":5.38095,"is_reserved":false,"is_disabled":false,"rental_uris":{"android":"levelo://app?vid=a30351db-fe9e-4b20-8751-6b327939c9b8","ios":"levelo://app?vid=a30351db-fe9e-4b20-8751-6b327939c9b8"},"vehicle_type_id":"4","last_reported":1737803249,"current_range_meters":33200,"station_id":"ce4bgjp2rcd13ifvqbh0","pricing_plan_id":"cebpf4jnsgd1na2vs0mg"},{"bike_id":"5e588e6a-cd4a-4340-856a-665c2812e451","system_id":"levelo_inurba_marseille","lat":43.25572,"lon":5.38231,"is_reserved":false,"is_disabled":false,"rental_uris":{"android":"levelo://app?vid=5e588e6a-cd4a-4340-856a-665c2812e451","ios":"levelo://app?vid=5e588e6a-cd4a-4340-856a-665c2812e451"},"vehicle_type_id":"4","last_reported":1737803249,"current_range_meters":23200,"station_id":"ce4bhih2rcd13ifvqfs0","pricing_plan_id":"cebpf4jnsgd1na2vs0mg"},{"bike_id":"e6532dd0-01a9-4957-89ab-b2570b965feb","system_id":"levelo_inurba_marseille","lat":43.31324,"lon":5.39699,"is_reserved":false,"is_disabled":false,"rental_uris":{"android":"levelo://app?vid=e6532dd0-01a9-4957-89ab-b2570b965feb","ios":"levelo://app?vid=e6532dd0-01a9-4957-89ab-b2570b965feb"},"vehicle_type_id":"4","last_reported":1737803249,"current_range_meters":22800,"station_id":"ce4bgvp2rcd13ifvqcu0","pricing_plan_id":"cebpf4jnsgd1na2vs0mg"},{"bike_id":"8286799e-763f-468e-8bf5-75302a8ecbf9","system_id":"levelo_inurba_marseille","lat":43.2977,"lon":5.37096,"is_reserved":false,"is_disabled":false,"rental_uris":{"android":"levelo://app?vid=8286799e-763f-468e-8bf5-75302a8ecbf9","ios":"levelo://app?vid=8286799e-763f-468e-8bf5-75302a8ecbf9"},"vehicle_type_id":"4","last_reported":1737803249,"current_range_meters":18000,"station_id":"ce4bgop2rcd13ifvqc1g","pricing_plan_id":"cebpf4jnsgd1na2vs0mg"},{"bike_id":"4a3ca55c-fef4-43f3-af2c-be858b71f7ad","system_id":"levelo_inurba_marseille","lat":43.25003,"lon":5.38942,"is_reserved":false,"is_disabled":false,"rental_uris":{"android":"levelo://app?vid=4a3ca55c-fef4-43f3-af2c-be858b71f7ad","ios":"levelo://app?vid=4a3ca55c-fef4-43f3-af2c-be858b71f7ad"},"vehicle_type_id":"4","last_reported":1737803249,"current_range_meters":9600,"station_id":"ce4bhgp2rcd13ifvqfd0","pricing_plan_id":"cebpf4jnsgd1na2vs0mg"},{"bike_id":"36ac61e7-73f3-407d-bb2d-b27e07c4446e","system_id":"levelo_inurba_marseille","lat":43.29719,"lon":5.37724,"is_reserved":false,"is_disabled":false,"rental_uris":{"android":"levelo://app?vid=36ac61e7-73f3-407d-bb2d-b27e07c4446e","ios":"levelo://app?vid=36ac61e7-73f3-407d-bb2d-b27e07c4446e"},"vehicle_type_id":"4","last_reported":1737803249,"current_range_meters":15200,"station_id":"ce4bgkh2rcd13ifvqbl0","pricing_plan_id":"cebpf4jnsgd1na2vs0mg"},{"bike_id":"f64634ac-5414-453e-9d57-bcf1cc563d20","system_id":"levelo_inurba_marseille","lat":43.30932,"lon":5.4013,"is_reserved":false,"is_disabled":false,"rental_uris":{"android":"levelo://app?vid=f64634ac-5414-453e-9d57-bcf1cc563d20","ios":"levelo://app?vid=f64634ac-5414-453e-9d57-bcf1cc563d20"},"vehicle_type_id":"4","last_reported":1737803249,"current_range_meters":36800,"station_id":"ce4bgvp2rcd13ifvqct0","pricing_plan_id":"cebpf4jnsgd1na2vs0mg"},{"bike_id":"657af941-849b-4995-8548-48fa4f4ebe32","system_id":"levelo_inurba_marseille","lat":43.27915,"lon":5.39585,"is_reserved":false,"is_disabled":false,"rental_uris":{"android":"levelo://app?vid=657af941-849b-4995-8548-48fa4f4ebe32","ios":"levelo://app?vid=657af941-849b-4995-8548-48fa4f4ebe32"},"vehicle_type_id":"4","last_reported":1737803249,"current_range_meters":34000,"station_id":"ce4bhf92rcd13ifvqf40","pricing_plan_id":"cebpf4jnsgd1na2vs0mg"},{"bike_id":"0d0446d0-9707-4f2d-8cef-d286aea0d5da","system_id":"levelo_inurba_marseille","lat":43.29003,"lon":5.35605,"is_reserved":false,"is_disabled":false,"rental_uris":{"android":"levelo://app?vid=0d0446d0-9707-4f2d-8cef-d286aea0d5da","ios":"levelo://app?vid=0d0446d0-9707-4f2d-8cef-d286aea0d5da"},"vehicle_type_id":"4","last_reported":1737803249,"current_range_meters":8400,"station_id":"ce4bhb92rcd13ifvqen0","pricing_plan_id":"cebpf4jnsgd1na2vs0mg"},{"bike_id":"cd60fe27-1892-4b81-b896-f3d7337a8b07","system_id":"levelo_inurba_marseille","lat":43.292706,"lon":5.384523,"is_reserved":false,"is_disabled":false,"rental_uris":{"android":"levelo://app?vid=cd60fe27-1892-4b81-b896-f3d7337a8b07","ios":"levelo://app?vid=cd60fe27-1892-4b81-b896-f3d7337a8b07"},"vehicle_type_id":"4","last_reported":1737803249,"current_range_meters":10800,"station_id":"ce4bh692rcd13ifvqea0","pricing_plan_id":"cebpf4jnsgd1na2vs0mg"},{"bike_id":"548e1f8c-f86f-437f-8d1c-280a7faaee0a","system_id":"levelo_inurba_marseille","lat":43.29628,"lon":5.37751,"is_reserved":false,"is_disabled":false,"rental_uris":{"android":"levelo://app?vid=548e1f8c-f86f-437f-8d1c-280a7faaee0a","ios":"levelo://app?vid=548e1f8c-f86f-437f-8d1c-280a7faaee0a"},"vehicle_type_id":"4","last_reported":1737803249,"current_range_meters":39200,"station_id":"ce4bgi92rcd13ifvqb90","pricing_plan_id":"cebpf4jnsgd1na2vs0mg"},{"bike_id":"3608a3cf-49c3-46d4-b709-f8e9629a9213","system_id":"levelo_inurba_marseille","lat":43.24637,"lon":5.38897,"is_reserved":false,"is_disabled":false,"rental_uris":{"android":"levelo://app?vid=3608a3cf-49c3-46d4-b709-f8e9629a9213","ios":"levelo://app?vid=3608a3cf-49c3-46d4-b709-f8e9629a9213"},"vehicle_type_id":"4","last_reported":1737803249,"current_range_meters":4800,"station_id":"ce4bhg12rcd13ifvqf60","pricing_plan_id":"cebpf4jnsgd1na2vs0mg"},{"bike_id":"14bf4a6f-fef1-4a06-b3aa-0e981ead5f8c","system_id":"levelo_inurba_marseille","lat":43.30298,"lon":5.3771,"is_reserved":false,"is_disabled":false,"rental_uris":{"android":"levelo://app?vid=14bf4a6f-fef1-4a06-b3aa-0e981ead5f8c","ios":"levelo://app?vid=14bf4a6f-fef1-4a06-b3aa-0e981ead5f8c"},"vehicle_type_id":"4","last_reported":1737803249,"current_range_meters":8800,"station_id":"ce4bguh2rcd13ifvqcj0","pricing_plan_id":"cebpf4jnsgd1na2vs0mg"},{"bike_id":"54ce1a66-7db5-4b7d-ba73-898b5c53aa73","system_id":"levelo_inurba_marseille","lat":43.2396,"lon":5.36632,"is_reserved":false,"is_disabled":false,"rental_uris":{"android":"levelo://app?vid=54ce1a66-7db5-4b7d-ba73-898b5c53aa73","ios":"levelo://app?vid=54ce1a66-7db5-4b7d-ba73-898b5c53aa73"},"vehicle_type_id":"4","last_reported":1737803249,"current_range_meters":12800,"station_id":"ce4bhi12rcd13ifvqfp0","pricing_plan_id":"cebpf4jnsgd1na2vs0mg"},{"bike_id":"f92c294e-145c-442c-b025-2a300c1bc80a","system_id":"levelo_inurba_marseille","lat":43.29973,"lon":5.37187,"is_reserved":false,"is_disabled":false,"rental_uris":{"android":"levelo://app?vid=f92c294e-145c-442c-b025-2a300c1bc80a","ios":"levelo://app?vid=f92c294e-145c-442c-b025-2a300c1bc80a"},"vehicle_type_id":"4","last_reported":1737803249,"current_range_meters":34800,"station_id":"ce4bgr92rcd13ifvqc7g","pricing_plan_id":"cebpf4jnsgd1na2vs0mg"},{"bike_id":"596ddc7f-d26a-4319-879e-a0216d9b96c8","system_id":"levelo_inurba_marseille","lat":43.2917,"lon":5.37167,"is_reserved":false,"is_disabled":false,"rental_uris":{"android":"levelo://app?vid=596ddc7f-d26a-4319-879e-a0216d9b96c8","ios":"levelo://app?vid=596ddc7f-d26a-4319-879e-a0216d9b96c8"},"vehicle_type_id":"4","last_reported":1737803249,"current_range_meters":38000,"station_id":"ce4bha92rcd13ifvqeh0","pricing_plan_id":"cebpf4jnsgd1na2vs0mg"},{"bike_id":"ef9e3043-e630-499b-b217-7109748b1407","system_id":"levelo_inurba_marseille","lat":43.30459,"lon":5.364,"is_reserved":false,"is_disabled":false,"rental_uris":{"android":"levelo://app?vid=ef9e3043-e630-499b-b217-7109748b1407","ios":"levelo://app?vid=ef9e3043-e630-499b-b217-7109748b1407"},"vehicle_type_id":"4","last_reported":1737803249,"current_range_meters":17200,"station_id":"ce4bgrp2rcd13ifvqc9g","pricing_plan_id":"cebpf4jnsgd1na2vs0mg"},{"bike_id":"34aa6db6-d08c-4f6b-ad5e-1bad446eaa72","system_id":"levelo_inurba_marseille","lat":43.23187,"lon":5.4002,"is_reserved":false,"is_disabled":false,"rental_uris":{"android":"levelo://app?vid=34aa6db6-d08c-4f6b-ad5e-1bad446eaa72","ios":"levelo://app?vid=34aa6db6-d08c-4f6b-ad5e-1bad446eaa72"},"vehicle_type_id":"4","last_reported":1737803249,"current_range_meters":38400,"station_id":"ce4bhn12rcd13ifvqgqg","pricing_plan_id":"cebpf4jnsgd1na2vs0mg"},{"bike_id":"fb4f1e6b-ee59-45c5-b7f8-ea7c97b4cc59","system_id":"levelo_inurba_marseille","lat":43.28155,"lon":5.42644,"is_reserved":false,"is_disabled":false,"rental_uris":{"android":"levelo://app?vid=fb4f1e6b-ee59-45c5-b7f8-ea7c97b4cc59","ios":"levelo://app?vid=fb4f1e6b-ee59-45c5-b7f8-ea7c97b4cc59"},"vehicle_type_id":"4","last_reported":1737803249,"current_range_meters":36800,"station_id":"ce4bhnh2rcd13ifvqgug","pricing_plan_id":"cebpf4jnsgd1na2vs0mg"},{"bike_id":"f59e0c89-5097-4fc4-8200-3b985482bbb8","system_id":"levelo_inurba_marseille","lat":43.28443,"lon":5.39208,"is_reserved":false,"is_disabled":false,"rental_uris":{"android":"levelo://app?vid=f59e0c89-5097-4fc4-8200-3b985482bbb8","ios":"levelo://app?vid=f59e0c89-5097-4fc4-8200-3b985482bbb8"},"vehicle_type_id":"4","last_reported":1737803249,"current_range_meters":21600,"station_id":"ce4bhoh2rcd13ifvqh5g","pricing_plan_id":"cebpf4jnsgd1na2vs0mg"},{"bike_id":"a2dbdc7e-8ab2-4f75-8035-18bef5b78a3b","system_id":"levelo_inurba_marseille","lat":43.258597,"lon":5.39911,"is_reserved":false,"is_disabled":false,"rental_uris":{"android":"levelo://app?vid=a2dbdc7e-8ab2-4f75-8035-18bef5b78a3b","ios":"levelo://app?vid=a2dbdc7e-8ab2-4f75-8035-18bef5b78a3b"},"vehicle_type_id":"4","last_reported":1737803249,"current_range_meters":37600,"station_id":"ce4bhl92rcd13ifvqghg","pricing_plan_id":"cebpf4jnsgd1na2vs0mg"},{"bike_id":"bb11c930-9893-453f-9db9-7983c8d5e66d","system_id":"levelo_inurba_marseille","lat":43.27492,"lon":5.42477,"is_reserved":false,"is_disabled":false,"rental_uris":{"android":"levelo://app?vid=bb11c930-9893-453f-9db9-7983c8d5e66d","ios":"levelo://app?vid=bb11c930-9893-453f-9db9-7983c8d5e66d"},"vehicle_type_id":"4","last_reported":1737803249,"current_range_meters":10800,"station_id":"ce4bhn92rcd13ifvqgrg","pricing_plan_id":"cebpf4jnsgd1na2vs0mg"},{"bike_id":"96f4e4cd-02de-47bb-a775-1bc9d4fdde7c","system_id":"levelo_inurba_marseille","lat":43.29226,"lon":5.3845,"is_reserved":false,"is_disabled":true,"rental_uris":{"android":"levelo://app?vid=96f4e4cd-02de-47bb-a775-1bc9d4fdde7c","ios":"levelo://app?vid=96f4e4cd-02de-47bb-a775-1bc9d4fdde7c"},"vehicle_type_id":"4","last_reported":1737803249,"current_range_meters":17600,"station_id":"ce4bh692rcd13ifvqea0","pricing_plan_id":"cebpf4jnsgd1na2vs0mg"},{"bike_id":"9838cc78-2b53-49d3-ae13-82df62c4fd64","system_id":"levelo_inurba_marseille","lat":43.28428,"lon":5.40937,"is_reserved":false,"is_disabled":true,"rental_uris":{"android":"levelo://app?vid=9838cc78-2b53-49d3-ae13-82df62c4fd64","ios":"levelo://app?vid=9838cc78-2b53-49d3-ae13-82df62c4fd64"},"vehicle_type_id":"4","last_reported":1737803249,"current_range_meters":0,"station_id":"","pricing_plan_id":"cebpf4jnsgd1na2vs0mg"},{"bike_id":"09d7efdf-09af-466f-83ad-9d533e2d7475","system_id":"levelo_inurba_marseille","lat":43.30464,"lon":5.37902,"is_reserved":false,"is_disabled":false,"rental_uris":{"android":"levelo://app?vid=09d7efdf-09af-466f-83ad-9d533e2d7475","ios":"levelo://app?vid=09d7efdf-09af-466f-83ad-9d533e2d7475"},"vehicle_type_id":"4","last_reported":1737803249,"current_range_meters":14800,"station_id":"ce4bgup2rcd13ifvqcn0","pricing_plan_id":"cebpf4jnsgd1na2vs0mg"},{"bike_id":"d1505571-0e18-4a2f-beb2-6fe91926e9c8","system_id":"levelo_inurba_marseille","lat":43.29134,"lon":5.37499,"is_reserved":false,"is_disabled":false,"rental_uris":{"android":"levelo://app?vid=d1505571-0e18-4a2f-beb2-6fe91926e9c8","ios":"levelo://app?vid=d1505571-0e18-4a2f-beb2-6fe91926e9c8"},"vehicle_type_id":"4","last_reported":1737803249,"current_range_meters":3200,"station_id":"","pricing_plan_id":"cebpf4jnsgd1na2vs0mg"},{"bike_id":"9eb25b12-5e2d-4582-9d7a-264c52c86aa4","system_id":"levelo_inurba_marseille","lat":43.3378,"lon":5.37408,"is_reserved":false,"is_disabled":false,"rental_uris":{"android":"levelo://app?vid=9eb25b12-5e2d-4582-9d7a-264c52c86aa4","ios":"levelo://app?vid=9eb25b12-5e2d-4582-9d7a-264c52c86aa4"},"vehicle_type_id":"4","last_reported":1737803249,"current_range_meters":22000,"station_id":"","pricing_plan_id":"cebpf4jnsgd1na2vs0mg"},{"bike_id":"a604cd02-bf67-49ed-b44f-738b9732b22c","system_id":"levelo_inurba_marseille","lat":43.31332,"lon":5.39713,"is_reserved":false,"is_disabled":true,"rental_uris":{"android":"levelo://app?vid=a604cd02-bf67-49ed-b44f-738b9732b22c","ios":"levelo://app?vid=a604cd02-bf67-49ed-b44f-738b9732b22c"},"vehicle_type_id":"4","last_reported":1737803249,"current_range_meters":37600,"station_id":"ce4bgvp2rcd13ifvqcu0","pricing_plan_id":"cebpf4jnsgd1na2vs0mg"},{"bike_id":"bf096a89-ee72-4f37-85bd-7b3cf9f0cb41","system_id":"levelo_inurba_marseille","lat":43.31937,"lon":5.37903,"is_reserved":false,"is_disabled":false,"rental_uris":{"android":"levelo://app?vid=bf096a89-ee72-4f37-85bd-7b3cf9f0cb41","ios":"levelo://app?vid=bf096a89-ee72-4f37-85bd-7b3cf9f0cb41"},"vehicle_type_id":"4","last_reported":1737803249,"current_range_meters":31200,"station_id":"","pricing_plan_id":"cebpf4jnsgd1na2vs0mg"},{"bike_id":"66d1f8cf-8260-44c6-89e8-aa09a832fe98","system_id":"levelo_inurba_marseille","lat":43.2468,"lon":5.3816,"is_reserved":false,"is_disabled":true,"rental_uris":{"android":"levelo://app?vid=66d1f8cf-8260-44c6-89e8-aa09a832fe98","ios":"levelo://app?vid=66d1f8cf-8260-44c6-89e8-aa09a832fe98"},"vehicle_type_id":"4","last_reported":1737803249,"current_range_meters":0,"station_id":"ce4bhih2rcd13ifvqfr0","pricing_plan_id":"cebpf4jnsgd1na2vs0mg"},{"bike_id":"37e3e111-9b37-43f0-b268-a39efb3d8c36","system_id":"levelo_inurba_marseille","lat":43.29625,"lon":5.37177,"is_reserved":false,"is_disabled":false,"rental_uris":{"android":"levelo://app?vid=37e3e111-9b37-43f0-b268-a39efb3d8c36","ios":"levelo://app?vid=37e3e111-9b37-43f0-b268-a39efb3d8c36"},"vehicle_type_id":"4","last_reported":1737803249,"current_range_meters":38800,"station_id":"ce4bgnh2rcd13ifvqc0g","pricing_plan_id":"cebpf4jnsgd1na2vs0mg"},{"bike_id":"65ca12ea-78b8-417a-804f-95973b00ea1a","system_id":"levelo_inurba_marseille","lat":43.30289,"lon":5.37706,"is_reserved":false,"is_disabled":false,"rental_uris":{"android":"levelo://app?vid=65ca12ea-78b8-417a-804f-95973b00ea1a","ios":"levelo://app?vid=65ca12ea-78b8-417a-804f-95973b00ea1a"},"vehicle_type_id":"4","last_reported":1737803249,"current_range_meters":38000,"station_id":"ce4bguh2rcd13ifvqcj0","pricing_plan_id":"cebpf4jnsgd1na2vs0mg"},{"bike_id":"54020fab-fb63-494e-a805-8dbd14e58a5a","system_id":"levelo_inurba_marseille","lat":43.28999,"lon":5.35619,"is_reserved":false,"is_disabled":false,"rental_uris":{"android":"levelo://app?vid=54020fab-fb63-494e-a805-8dbd14e58a5a","ios":"levelo://app?vid=54020fab-fb63-494e-a805-8dbd14e58a5a"},"vehicle_type_id":"4","last_reported":1737803249,"current_range_meters":17200,"station_id":"ce4bhb92rcd13ifvqen0","pricing_plan_id":"cebpf4jnsgd1na2vs0mg"},{"bike_id":"b266e498-70cd-4652-847b-6e6aaebbaa56","system_id":"levelo_inurba_marseille","lat":43.30309,"lon":5.37703,"is_reserved":false,"is_disabled":false,"rental_uris":{"android":"levelo://app?vid=b266e498-70cd-4652-847b-6e6aaebbaa56","ios":"levelo://app?vid=b266e498-70cd-4652-847b-6e6aaebbaa56"},"vehicle_type_id":"4","last_reported":1737803249,"current_range_meters":17600,"station_id":"ce4bguh2rcd13ifvqcj0","pricing_plan_id":"cebpf4jnsgd1na2vs0mg"},{"bike_id":"723a47da-3e98-4d0a-8808-611b7dece8e7","system_id":"levelo_inurba_marseille","lat":43.29258,"lon":5.37438,"is_reserved":false,"is_disabled":false,"rental_uris":{"android":"levelo://app?vid=723a47da-3e98-4d0a-8808-611b7dece8e7","ios":"levelo://app?vid=723a47da-3e98-4d0a-8808-611b7dece8e7"},"vehicle_type_id":"4","last_reported":1737803249,"current_range_meters":34800,"station_id":"","pricing_plan_id":"cebpf4jnsgd1na2vs0mg"},{"bike_id":"51c3b1a6-c5c6-4d24-9def-8186fdad8596","system_id":"levelo_inurba_marseille","lat":43.27057,"lon":5.42283,"is_reserved":false,"is_disabled":false,"rental_uris":{"android":"levelo://app?vid=51c3b1a6-c5c6-4d24-9def-8186fdad8596","ios":"levelo://app?vid=51c3b1a6-c5c6-4d24-9def-8186fdad8596"},"vehicle_type_id":"4","last_reported":1737803249,"current_range_meters":10800,"station_id":"ce4bhk92rcd13ifvqgb0","pricing_plan_id":"cebpf4jnsgd1na2vs0mg"},{"bike_id":"939d71cd-4dd4-4b4e-9f0a-caae0c9fd93e","system_id":"levelo_inurba_marseille","lat":43.29573,"lon":5.37523,"is_reserved":false,"is_disabled":false,"rental_uris":{"android":"levelo://app?vid=939d71cd-4dd4-4b4e-9f0a-caae0c9fd93e","ios":"levelo://app?vid=939d71cd-4dd4-4b4e-9f0a-caae0c9fd93e"},"vehicle_type_id":"4","last_reported":1737803249,"current_range_meters":24800,"station_id":"ce4bgh92rcd13ifvqb50","pricing_plan_id":"cebpf4jnsgd1na2vs0mg"},{"bike_id":"c276da85-c857-4b0d-8792-c2826228a14c","system_id":"levelo_inurba_marseille","lat":43.23964,"lon":5.36628,"is_reserved":false,"is_disabled":false,"rental_uris":{"android":"levelo://app?vid=c276da85-c857-4b0d-8792-c2826228a14c","ios":"levelo://app?vid=c276da85-c857-4b0d-8792-c2826228a14c"},"vehicle_type_id":"4","last_reported":1737803249,"current_range_meters":27200,"station_id":"ce4bhi12rcd13ifvqfp0","pricing_plan_id":"cebpf4jnsgd1na2vs0mg"},{"bike_id":"867d41e1-ec2e-4484-a31e-d471983f0ab7","system_id":"levelo_inurba_marseille","lat":43.333778,"lon":5.400436,"is_reserved":false,"is_disabled":false,"rental_uris":{"android":"levelo://app?vid=867d41e1-ec2e-4484-a31e-d471983f0ab7","ios":"levelo://app?vid=867d41e1-ec2e-4484-a31e-d471983f0ab7"},"vehicle_type_id":"4","last_reported":1737803249,"current_range_meters":14400,"station_id":"","pricing_plan_id":"cebpf4jnsgd1na2vs0mg"},{"bike_id":"1ddc58fa-7286-4277-8c80-9063e0e1150e","system_id":"levelo_inurba_marseille","lat":43.29804,"lon":5.38089,"is_reserved":false,"is_disabled":false,"rental_uris":{"android":"levelo://app?vid=1ddc58fa-7286-4277-8c80-9063e0e1150e","ios":"levelo://app?vid=1ddc58fa-7286-4277-8c80-9063e0e1150e"},"vehicle_type_id":"4","last_reported":1737803249,"current_range_meters":30000,"station_id":"ce4bgip2rcd13ifvqbb0","pricing_plan_id":"cebpf4jnsgd1na2vs0mg"},{"bike_id":"64896c2e-06c6-4c3e-b68e-749e26534acf","system_id":"levelo_inurba_marseille","lat":43.2987,"lon":5.39736,"is_reserved":false,"is_disabled":false,"rental_uris":{"android":"levelo://app?vid=64896c2e-06c6-4c3e-b68e-749e26534acf","ios":"levelo://app?vid=64896c2e-06c6-4c3e-b68e-749e26534acf"},"vehicle_type_id":"4","last_reported":1737803249,"current_range_meters":18000,"station_id":"ce4bh0h2rcd13ifvqd50","pricing_plan_id":"cebpf4jnsgd1na2vs0mg"},{"bike_id":"66919ae5-aa60-40e5-ac61-9496a57ac2dc","system_id":"levelo_inurba_marseille","lat":43.27939,"lon":5.4104,"is_reserved":false,"is_disabled":false,"rental_uris":{"android":"levelo://app?vid=66919ae5-aa60-40e5-ac61-9496a57ac2dc","ios":"levelo://app?vid=66919ae5-aa60-40e5-ac61-9496a57ac2dc"},"vehicle_type_id":"4","last_reported":1737803249,"current_range_meters":29600,"station_id":"ce4bhnp2rcd13ifvqh0g","pricing_plan_id":"cebpf4jnsgd1na2vs0mg"},{"bike_id":"ecfb707a-c96c-4a86-9210-557d2c31c3a0","system_id":"levelo_inurba_marseille","lat":43.27614,"lon":5.36131,"is_reserved":false,"is_disabled":false,"rental_uris":{"android":"levelo://app?vid=ecfb707a-c96c-4a86-9210-557d2c31c3a0","ios":"levelo://app?vid=ecfb707a-c96c-4a86-9210-557d2c31c3a0"},"vehicle_type_id":"4","last_reported":1737803249,"current_range_meters":36000,"station_id":"ce4bgj92rcd13ifvqbe0","pricing_plan_id":"cebpf4jnsgd1na2vs0mg"},{"bike_id":"e6d44643-ccac-4e3c-948f-9793a828d6ef","system_id":"levelo_inurba_marseille","lat":43.30481,"lon":5.37912,"is_reserved":false,"is_disabled":false,"rental_uris":{"android":"levelo://app?vid=e6d44643-ccac-4e3c-948f-9793a828d6ef","ios":"levelo://app?vid=e6d44643-ccac-4e3c-948f-9793a828d6ef"},"vehicle_type_id":"4","last_reported":1737803249,"current_range_meters":32000,"station_id":"ce4bgup2rcd13ifvqcn0","pricing_plan_id":"cebpf4jnsgd1na2vs0mg"},{"bike_id":"61f8c04a-e346-4354-baef-b3b3c7fb4aa5","system_id":"levelo_inurba_marseille","lat":43.30649,"lon":5.401,"is_reserved":false,"is_disabled":false,"rental_uris":{"android":"levelo://app?vid=61f8c04a-e346-4354-baef-b3b3c7fb4aa5","ios":"levelo://app?vid=61f8c04a-e346-4354-baef-b3b3c7fb4aa5"},"vehicle_type_id":"4","last_reported":1737803249,"current_range_meters":22800,"station_id":"ce4bh112rcd13ifvqda0","pricing_plan_id":"cebpf4jnsgd1na2vs0mg"},{"bike_id":"347dd29e-9a9e-4a37-8ddd-6e2050aaff03","system_id":"levelo_inurba_marseille","lat":43.33727,"lon":5.39213,"is_reserved":false,"is_disabled":false,"rental_uris":{"android":"levelo://app?vid=347dd29e-9a9e-4a37-8ddd-6e2050aaff03","ios":"levelo://app?vid=347dd29e-9a9e-4a37-8ddd-6e2050aaff03"},"vehicle_type_id":"4","last_reported":1737803249,"current_range_meters":35600,"station_id":"ce4bhr92rcd13ifvqhsg","pricing_plan_id":"cebpf4jnsgd1na2vs0mg"},{"bike_id":"c959572c-6974-4ed4-8889-654758c49222","system_id":"levelo_inurba_marseille","lat":43.26576,"lon":5.39033,"is_reserved":false,"is_disabled":true,"rental_uris":{"android":"levelo://app?vid=c959572c-6974-4ed4-8889-654758c49222","ios":"levelo://app?vid=c959572c-6974-4ed4-8889-654758c49222"},"vehicle_type_id":"4","last_reported":1737803249,"current_range_meters":1600,"station_id":"ce4bhe12rcd13ifvqf30","pricing_plan_id":"cebpf4jnsgd1na2vs0mg"},{"bike_id":"f3b8c3c1-802c-4133-a39f-564d0cb91937","system_id":"levelo_inurba_marseille","lat":43.30153,"lon":5.38093,"is_reserved":false,"is_disabled":false,"rental_uris":{"android":"levelo://app?vid=f3b8c3c1-802c-4133-a39f-564d0cb91937","ios":"levelo://app?vid=f3b8c3c1-802c-4133-a39f-564d0cb91937"},"vehicle_type_id":"4","last_reported":1737803249,"current_range_meters":34000,"station_id":"ce4bgjp2rcd13ifvqbh0","pricing_plan_id":"cebpf4jnsgd1na2vs0mg"},{"bike_id":"188b2c42-b048-4d24-95f5-66951c89c269","system_id":"levelo_inurba_marseille","lat":43.29528,"lon":5.3751,"is_reserved":false,"is_disabled":false,"rental_uris":{"android":"levelo://app?vid=188b2c42-b048-4d24-95f5-66951c89c269","ios":"levelo://app?vid=188b2c42-b048-4d24-95f5-66951c89c269"},"vehicle_type_id":"4","last_reported":1737803249,"current_range_meters":400,"station_id":"ce4bgkp2rcd13ifvqbmg","pricing_plan_id":"cebpf4jnsgd1na2vs0mg"},{"bike_id":"90b8a1b1-ad54-458d-9362-f5197bbdf048","system_id":"levelo_inurba_marseille","lat":43.22914,"lon":5.35396,"is_reserved":false,"is_disabled":false,"rental_uris":{"android":"levelo://app?vid=90b8a1b1-ad54-458d-9362-f5197bbdf048","ios":"levelo://app?vid=90b8a1b1-ad54-458d-9362-f5197bbdf048"},"vehicle_type_id":"4","last_reported":1737803249,"current_range_meters":37600,"station_id":"cpo3532slgdg3j2ikp40","pricing_plan_id":"cebpf4jnsgd1na2vs0mg"},{"bike_id":"7da50f07-38d9-468b-8e2c-04df74955810","system_id":"levelo_inurba_marseille","lat":43.29545,"lon":5.42283,"is_reserved":false,"is_disabled":false,"rental_uris":{"android":"levelo://app?vid=7da50f07-38d9-468b-8e2c-04df74955810","ios":"levelo://app?vid=7da50f07-38d9-468b-8e2c-04df74955810"},"vehicle_type_id":"4","last_reported":1737803249,"current_range_meters":38800,"station_id":"ce4bhph2rcd13ifvqhdg","pricing_plan_id":"cebpf4jnsgd1na2vs0mg"},{"bike_id":"59a858f6-56fb-47d7-ac7a-cc7c4fa27434","system_id":"levelo_inurba_marseille","lat":43.29693,"lon":5.37312,"is_reserved":false,"is_disabled":false,"rental_uris":{"android":"levelo://app?vid=59a858f6-56fb-47d7-ac7a-cc7c4fa27434","ios":"levelo://app?vid=59a858f6-56fb-47d7-ac7a-cc7c4fa27434"},"vehicle_type_id":"4","last_reported":1737803249,"current_range_meters":36000,"station_id":"ce4bgk12rcd13ifvqbj0","pricing_plan_id":"cebpf4jnsgd1na2vs0mg"},{"bike_id":"f4b60626-05b7-4b59-90c0-9ca9f07724cd","system_id":"levelo_inurba_marseille","lat":43.3088,"lon":5.39629,"is_reserved":false,"is_disabled":false,"rental_uris":{"android":"levelo://app?vid=f4b60626-05b7-4b59-90c0-9ca9f07724cd","ios":"levelo://app?vid=f4b60626-05b7-4b59-90c0-9ca9f07724cd"},"vehicle_type_id":"4","last_reported":1737803249,"current_range_meters":38800,"station_id":"ce4bh012rcd13ifvqcv0","pricing_plan_id":"cebpf4jnsgd1na2vs0mg"},{"bike_id":"7f9be28a-720f-495e-b01d-c3480bebd16c","system_id":"levelo_inurba_marseille","lat":43.29609,"lon":5.37736,"is_reserved":false,"is_disabled":false,"rental_uris":{"android":"levelo://app?vid=7f9be28a-720f-495e-b01d-c3480bebd16c","ios":"levelo://app?vid=7f9be28a-720f-495e-b01d-c3480bebd16c"},"vehicle_type_id":"4","last_reported":1737803249,"current_range_meters":25200,"station_id":"ce4bgi92rcd13ifvqb90","pricing_plan_id":"cebpf4jnsgd1na2vs0mg"},{"bike_id":"bcbd6061-b145-4c8b-89f2-0a63d6b0e7f7","system_id":"levelo_inurba_marseille","lat":43.30352,"lon":5.41881,"is_reserved":false,"is_disabled":false,"rental_uris":{"android":"levelo://app?vid=bcbd6061-b145-4c8b-89f2-0a63d6b0e7f7","ios":"levelo://app?vid=bcbd6061-b145-4c8b-89f2-0a63d6b0e7f7"},"vehicle_type_id":"4","last_reported":1737803249,"current_range_meters":38000,"station_id":"ce4bhop2rcd13ifvqh7g","pricing_plan_id":"cebpf4jnsgd1na2vs0mg"},{"bike_id":"1267de3f-5e86-4017-9522-3faa4504a3b1","system_id":"levelo_inurba_marseille","lat":43.30163,"lon":5.38082,"is_reserved":false,"is_disabled":false,"rental_uris":{"android":"levelo://app?vid=1267de3f-5e86-4017-9522-3faa4504a3b1","ios":"levelo://app?vid=1267de3f-5e86-4017-9522-3faa4504a3b1"},"vehicle_type_id":"4","last_reported":1737803249,"current_range_meters":17200,"station_id":"ce4bgjp2rcd13ifvqbh0","pricing_plan_id":"cebpf4jnsgd1na2vs0mg"},{"bike_id":"f456b3f6-6f76-4509-a072-0e95b0668b0c","system_id":"levelo_inurba_marseille","lat":43.25577,"lon":5.38234,"is_reserved":false,"is_disabled":false,"rental_uris":{"android":"levelo://app?vid=f456b3f6-6f76-4509-a072-0e95b0668b0c","ios":"levelo://app?vid=f456b3f6-6f76-4509-a072-0e95b0668b0c"},"vehicle_type_id":"4","last_reported":1737803249,"current_range_meters":3200,"station_id":"ce4bhih2rcd13ifvqfs0","pricing_plan_id":"cebpf4jnsgd1na2vs0mg"},{"bike_id":"bfdee6fa-2c46-47ec-a341-9391dbb76d7a","system_id":"levelo_inurba_marseille","lat":43.28568,"lon":5.39499,"is_reserved":false,"is_disabled":false,"rental_uris":{"android":"levelo://app?vid=bfdee6fa-2c46-47ec-a341-9391dbb76d7a","ios":"levelo://app?vid=bfdee6fa-2c46-47ec-a341-9391dbb76d7a"},"vehicle_type_id":"4","last_reported":1737803249,"current_range_meters":24400,"station_id":"ce4bh292rcd13ifvqdg0","pricing_plan_id":"cebpf4jnsgd1na2vs0mg"},{"bike_id":"f97e1e04-072c-490b-a593-753120fbe578","system_id":"levelo_inurba_marseille","lat":43.27914,"lon":5.39585,"is_reserved":false,"is_disabled":false,"rental_uris":{"android":"levelo://app?vid=f97e1e04-072c-490b-a593-753120fbe578","ios":"levelo://app?vid=f97e1e04-072c-490b-a593-753120fbe578"},"vehicle_type_id":"4","last_reported":1737803249,"current_range_meters":26800,"station_id":"ce4bhf92rcd13ifvqf40","pricing_plan_id":"cebpf4jnsgd1na2vs0mg"},{"bike_id":"1ab9b624-40b7-465c-a005-729f21b3d75d","system_id":"levelo_inurba_marseille","lat":43.25712,"lon":5.41105,"is_reserved":false,"is_disabled":false,"rental_uris":{"android":"levelo://app?vid=1ab9b624-40b7-465c-a005-729f21b3d75d","ios":"levelo://app?vid=1ab9b624-40b7-465c-a005-729f21b3d75d"},"vehicle_type_id":"4","last_reported":1737803249,"current_range_meters":39200,"station_id":"ce4bhkp2rcd13ifvqgd0","pricing_plan_id":"cebpf4jnsgd1na2vs0mg"},{"bike_id":"c288d9a2-d6d1-488a-a520-b456b8a31535","system_id":"levelo_inurba_marseille","lat":43.3055,"lon":5.36548,"is_reserved":false,"is_disabled":false,"rental_uris":{"android":"levelo://app?vid=c288d9a2-d6d1-488a-a520-b456b8a31535","ios":"levelo://app?vid=c288d9a2-d6d1-488a-a520-b456b8a31535"},"vehicle_type_id":"4","last_reported":1737803249,"current_range_meters":38800,"station_id":"ce4bgs12rcd13ifvqcag","pricing_plan_id":"cebpf4jnsgd1na2vs0mg"},{"bike_id":"0b0d2b48-7ed8-463e-9e37-22b040f68bfe","system_id":"levelo_inurba_marseille","lat":43.26674,"lon":5.38259,"is_reserved":false,"is_disabled":false,"rental_uris":{"android":"levelo://app?vid=0b0d2b48-7ed8-463e-9e37-22b040f68bfe","ios":"levelo://app?vid=0b0d2b48-7ed8-463e-9e37-22b040f68bfe"},"vehicle_type_id":"4","last_reported":1737803249,"current_range_meters":9600,"station_id":"ce4bhg92rcd13ifvqf90","pricing_plan_id":"cebpf4jnsgd1na2vs0mg"},{"bike_id":"8609669b-68c7-4651-8463-8b069e6b3840","system_id":"levelo_inurba_marseille","lat":43.31997,"lon":5.38154,"is_reserved":false,"is_disabled":false,"rental_uris":{"android":"levelo://app?vid=8609669b-68c7-4651-8463-8b069e6b3840","ios":"levelo://app?vid=8609669b-68c7-4651-8463-8b069e6b3840"},"vehicle_type_id":"4","last_reported":1737803249,"current_range_meters":36800,"station_id":"ce4bhr12rcd13ifvqhpg","pricing_plan_id":"cebpf4jnsgd1na2vs0mg"},{"bike_id":"dabad150-600b-4273-9d4a-f2cb97af39fc","system_id":"levelo_inurba_marseille","lat":43.24647,"lon":5.38921,"is_reserved":false,"is_disabled":false,"rental_uris":{"android":"levelo://app?vid=dabad150-600b-4273-9d4a-f2cb97af39fc","ios":"levelo://app?vid=dabad150-600b-4273-9d4a-f2cb97af39fc"},"vehicle_type_id":"4","last_reported":1737803249,"current_range_meters":33200,"station_id":"ce4bhg12rcd13ifvqf60","pricing_plan_id":"cebpf4jnsgd1na2vs0mg"},{"bike_id":"b7e524c9-461a-4f70-b9bb-0f564f20a0fa","system_id":"levelo_inurba_marseille","lat":43.27977,"lon":5.38734,"is_reserved":false,"is_disabled":false,"rental_uris":{"android":"levelo://app?vid=b7e524c9-461a-4f70-b9bb-0f564f20a0fa","ios":"levelo://app?vid=b7e524c9-461a-4f70-b9bb-0f564f20a0fa"},"vehicle_type_id":"4","last_reported":1737803249,"current_range_meters":16800,"station_id":"ce4bhg12rcd13ifvqf80","pricing_plan_id":"cebpf4jnsgd1na2vs0mg"},{"bike_id":"32bd91ee-7005-4053-9194-c0fd9d734f1e","system_id":"levelo_inurba_marseille","lat":43.27812,"lon":5.40712,"is_reserved":false,"is_disabled":false,"rental_uris":{"android":"levelo://app?vid=32bd91ee-7005-4053-9194-c0fd9d734f1e","ios":"levelo://app?vid=32bd91ee-7005-4053-9194-c0fd9d734f1e"},"vehicle_type_id":"4","last_reported":1737803249,"current_range_meters":32000,"station_id":"ce4bhnh2rcd13ifvqgtg","pricing_plan_id":"cebpf4jnsgd1na2vs0mg"},{"bike_id":"f8f6cb39-c91b-4575-9fdc-3b358098b281","system_id":"levelo_inurba_marseille","lat":43.28156,"lon":5.42647,"is_reserved":false,"is_disabled":false,"rental_uris":{"android":"levelo://app?vid=f8f6cb39-c91b-4575-9fdc-3b358098b281","ios":"levelo://app?vid=f8f6cb39-c91b-4575-9fdc-3b358098b281"},"vehicle_type_id":"4","last_reported":1737803249,"current_range_meters":18000,"station_id":"ce4bhnh2rcd13ifvqgug","pricing_plan_id":"cebpf4jnsgd1na2vs0mg"},{"bike_id":"da351246-909a-4986-a69c-176945d7bc8a","system_id":"levelo_inurba_marseille","lat":43.27687,"lon":5.38942,"is_reserved":false,"is_disabled":true,"rental_uris":{"android":"levelo://app?vid=da351246-909a-4986-a69c-176945d7bc8a","ios":"levelo://app?vid=da351246-909a-4986-a69c-176945d7bc8a"},"vehicle_type_id":"4","last_reported":1737803249,"current_range_meters":38800,"station_id":"ce4bhi12rcd13ifvqfo0","pricing_plan_id":"cebpf4jnsgd1na2vs0mg"},{"bike_id":"ca805d73-821d-490a-bcc8-007604e0a447","system_id":"levelo_inurba_marseille","lat":43.2667,"lon":5.38266,"is_reserved":false,"is_disabled":false,"rental_uris":{"android":"levelo://app?vid=ca805d73-821d-490a-bcc8-007604e0a447","ios":"levelo://app?vid=ca805d73-821d-490a-bcc8-007604e0a447"},"vehicle_type_id":"4","last_reported":1737803249,"current_range_meters":28400,"station_id":"ce4bhg92rcd13ifvqf90","pricing_plan_id":"cebpf4jnsgd1na2vs0mg"},{"bike_id":"9d67ce9e-3476-46bd-a24e-30eb2f617760","system_id":"levelo_inurba_marseille","lat":43.29898,"lon":5.43664,"is_reserved":false,"is_disabled":false,"rental_uris":{"android":"levelo://app?vid=9d67ce9e-3476-46bd-a24e-30eb2f617760","ios":"levelo://app?vid=9d67ce9e-3476-46bd-a24e-30eb2f617760"},"vehicle_type_id":"4","last_reported":1737803249,"current_range_meters":13600,"station_id":"ce4bhpp2rcd13ifvqhfg","pricing_plan_id":"cebpf4jnsgd1na2vs0mg"},{"bike_id":"35857df8-1748-4079-bda7-4ec3f898fc5d","system_id":"levelo_inurba_marseille","lat":43.29021,"lon":5.38178,"is_reserved":false,"is_disabled":false,"rental_uris":{"android":"levelo://app?vid=35857df8-1748-4079-bda7-4ec3f898fc5d","ios":"levelo://app?vid=35857df8-1748-4079-bda7-4ec3f898fc5d"},"vehicle_type_id":"4","last_reported":1737803249,"current_range_meters":24000,"station_id":"ce4bh4p2rcd13ifvqe1g","pricing_plan_id":"cebpf4jnsgd1na2vs0mg"},{"bike_id":"0e5a3f0b-2e27-48f8-9f1b-d6f7c703cae0","system_id":"levelo_inurba_marseille","lat":43.30581,"lon":5.36391,"is_reserved":false,"is_disabled":false,"rental_uris":{"android":"levelo://app?vid=0e5a3f0b-2e27-48f8-9f1b-d6f7c703cae0","ios":"levelo://app?vid=0e5a3f0b-2e27-48f8-9f1b-d6f7c703cae0"},"vehicle_type_id":"4","last_reported":1737803249,"current_range_meters":12400,"station_id":"ce4bgs12rcd13ifvqcag","pricing_plan_id":"cebpf4jnsgd1na2vs0mg"},{"bike_id":"1c35c755-8b1c-439e-8798-f1a001a3969d","system_id":"levelo_inurba_marseille","lat":43.28086,"lon":5.37851,"is_reserved":false,"is_disabled":true,"rental_uris":{"android":"levelo://app?vid=1c35c755-8b1c-439e-8798-f1a001a3969d","ios":"levelo://app?vid=1c35c755-8b1c-439e-8798-f1a001a3969d"},"vehicle_type_id":"4","last_reported":1737803249,"current_range_meters":0,"station_id":"ce4bha12rcd13ifvqee0","pricing_plan_id":"cebpf4jnsgd1na2vs0mg"},{"bike_id":"e7bbd1f2-3eab-4a3a-bb32-cf87c8be734c","system_id":"levelo_inurba_marseille","lat":43.31366,"lon":5.38516,"is_reserved":false,"is_disabled":false,"rental_uris":{"android":"levelo://app?vid=e7bbd1f2-3eab-4a3a-bb32-cf87c8be734c","ios":"levelo://app?vid=e7bbd1f2-3eab-4a3a-bb32-cf87c8be734c"},"vehicle_type_id":"4","last_reported":1737803249,"current_range_meters":38800,"station_id":"ce4bgt92rcd13ifvqcf0","pricing_plan_id":"cebpf4jnsgd1na2vs0mg"},{"bike_id":"6dfee981-efee-412c-8841-592ea2be71c6","system_id":"levelo_inurba_marseille","lat":43.30803,"lon":5.38152,"is_reserved":false,"is_disabled":false,"rental_uris":{"android":"levelo://app?vid=6dfee981-efee-412c-8841-592ea2be71c6","ios":"levelo://app?vid=6dfee981-efee-412c-8841-592ea2be71c6"},"vehicle_type_id":"4","last_reported":1737803249,"current_range_meters":38400,"station_id":"ce4bgt12rcd13ifvqce0","pricing_plan_id":"cebpf4jnsgd1na2vs0mg"},{"bike_id":"bce09769-02dc-489a-bcd7-84421f3b354f","system_id":"levelo_inurba_marseille","lat":43.32323,"lon":5.38938,"is_reserved":false,"is_disabled":false,"rental_uris":{"android":"levelo://app?vid=bce09769-02dc-489a-bcd7-84421f3b354f","ios":"levelo://app?vid=bce09769-02dc-489a-bcd7-84421f3b354f"},"vehicle_type_id":"4","last_reported":1737803249,"current_range_meters":18800,"station_id":"","pricing_plan_id":"cebpf4jnsgd1na2vs0mg"},{"bike_id":"cc6546a7-95c1-496c-a5e3-02a7863560d1","system_id":"levelo_inurba_marseille","lat":43.292523,"lon":5.40901,"is_reserved":false,"is_disabled":false,"rental_uris":{"android":"levelo://app?vid=cc6546a7-95c1-496c-a5e3-02a7863560d1","ios":"levelo://app?vid=cc6546a7-95c1-496c-a5e3-02a7863560d1"},"vehicle_type_id":"4","last_reported":1737803249,"current_range_meters":20800,"station_id":"ce4bh192rcd13ifvqdc0","pricing_plan_id":"cebpf4jnsgd1na2vs0mg"},{"bike_id":"a2734c3e-3b19-4965-b0bf-2bc7baac7f17","system_id":"levelo_inurba_marseille","lat":43.27056,"lon":5.4027,"is_reserved":false,"is_disabled":false,"rental_uris":{"android":"levelo://app?vid=a2734c3e-3b19-4965-b0bf-2bc7baac7f17","ios":"levelo://app?vid=a2734c3e-3b19-4965-b0bf-2bc7baac7f17"},"vehicle_type_id":"4","last_reported":1737803249,"current_range_meters":11200,"station_id":"ce4bhk92rcd13ifvqgc0","pricing_plan_id":"cebpf4jnsgd1na2vs0mg"},{"bike_id":"b96c22ba-a4c6-4ca8-b881-a2a2972e9bc2","system_id":"levelo_inurba_marseille","lat":43.26017,"lon":5.37556,"is_reserved":false,"is_disabled":true,"rental_uris":{"android":"levelo://app?vid=b96c22ba-a4c6-4ca8-b881-a2a2972e9bc2","ios":"levelo://app?vid=b96c22ba-a4c6-4ca8-b881-a2a2972e9bc2"},"vehicle_type_id":"4","last_reported":1737803249,"current_range_meters":36800,"station_id":"ce4bhgh2rcd13ifvqfa0","pricing_plan_id":"cebpf4jnsgd1na2vs0mg"},{"bike_id":"d06e4858-1735-4dcf-9f21-bf859f4d029b","system_id":"levelo_inurba_marseille","lat":43.28152,"lon":5.42642,"is_reserved":false,"is_disabled":false,"rental_uris":{"android":"levelo://app?vid=d06e4858-1735-4dcf-9f21-bf859f4d029b","ios":"levelo://app?vid=d06e4858-1735-4dcf-9f21-bf859f4d029b"},"vehicle_type_id":"4","last_reported":1737803249,"current_range_meters":38000,"station_id":"ce4bhnh2rcd13ifvqgug","pricing_plan_id":"cebpf4jnsgd1na2vs0mg"},{"bike_id":"456c720b-c4bb-42a0-89e1-2a9fe602ff7b","system_id":"levelo_inurba_marseille","lat":43.24172,"lon":5.36382,"is_reserved":false,"is_disabled":false,"rental_uris":{"android":"levelo://app?vid=456c720b-c4bb-42a0-89e1-2a9fe602ff7b","ios":"levelo://app?vid=456c720b-c4bb-42a0-89e1-2a9fe602ff7b"},"vehicle_type_id":"4","last_reported":1737803249,"current_range_meters":16000,"station_id":"cpo36qri1sfpv3e86is0","pricing_plan_id":"cebpf4jnsgd1na2vs0mg"},{"bike_id":"61df6208-7c8d-4faf-b087-b4cb2a715156","system_id":"levelo_inurba_marseille","lat":43.31998,"lon":5.38147,"is_reserved":false,"is_disabled":false,"rental_uris":{"android":"levelo://app?vid=61df6208-7c8d-4faf-b087-b4cb2a715156","ios":"levelo://app?vid=61df6208-7c8d-4faf-b087-b4cb2a715156"},"vehicle_type_id":"4","last_reported":1737803249,"current_range_meters":39200,"station_id":"ce4bhr12rcd13ifvqhpg","pricing_plan_id":"cebpf4jnsgd1na2vs0mg"},{"bike_id":"3bac8bf1-c43c-48aa-a4e1-844bfc3a5ad3","system_id":"levelo_inurba_marseille","lat":43.30151,"lon":5.38111,"is_reserved":false,"is_disabled":true,"rental_uris":{"android":"levelo://app?vid=3bac8bf1-c43c-48aa-a4e1-844bfc3a5ad3","ios":"levelo://app?vid=3bac8bf1-c43c-48aa-a4e1-844bfc3a5ad3"},"vehicle_type_id":"4","last_reported":1737803249,"current_range_meters":6800,"station_id":"ce4bgjp2rcd13ifvqbh0","pricing_plan_id":"cebpf4jnsgd1na2vs0mg"},{"bike_id":"1346ff93-9ddb-4093-aa5d-b6cb09dfef3c","system_id":"levelo_inurba_marseille","lat":43.29093,"lon":5.38163,"is_reserved":false,"is_disabled":true,"rental_uris":{"android":"levelo://app?vid=1346ff93-9ddb-4093-aa5d-b6cb09dfef3c","ios":"levelo://app?vid=1346ff93-9ddb-4093-aa5d-b6cb09dfef3c"},"vehicle_type_id":"4","last_reported":1737803249,"current_range_meters":9600,"station_id":"ce4bh512rcd13ifvqe2g","pricing_plan_id":"cebpf4jnsgd1na2vs0mg"},{"bike_id":"354a0ed3-542c-4648-b29a-783f2de4680e","system_id":"levelo_inurba_marseille","lat":43.27698,"lon":5.3893,"is_reserved":false,"is_disabled":true,"rental_uris":{"android":"levelo://app?vid=354a0ed3-542c-4648-b29a-783f2de4680e","ios":"levelo://app?vid=354a0ed3-542c-4648-b29a-783f2de4680e"},"vehicle_type_id":"4","last_reported":1737803249,"current_range_meters":32800,"station_id":"ce4bhi12rcd13ifvqfo0","pricing_plan_id":"cebpf4jnsgd1na2vs0mg"},{"bike_id":"1e77e574-f5f3-4895-8e75-d0715b84f698","system_id":"levelo_inurba_marseille","lat":43.28622,"lon":5.35111,"is_reserved":false,"is_disabled":false,"rental_uris":{"android":"levelo://app?vid=1e77e574-f5f3-4895-8e75-d0715b84f698","ios":"levelo://app?vid=1e77e574-f5f3-4895-8e75-d0715b84f698"},"vehicle_type_id":"4","last_reported":1737803249,"current_range_meters":28000,"station_id":"ce4bhch2rcd13ifvqeug","pricing_plan_id":"cebpf4jnsgd1na2vs0mg"},{"bike_id":"5ea8f44d-02c8-42db-b9c0-c2a4191ef6a0","system_id":"levelo_inurba_marseille","lat":43.29031,"lon":5.38136,"is_reserved":false,"is_disabled":false,"rental_uris":{"android":"levelo://app?vid=5ea8f44d-02c8-42db-b9c0-c2a4191ef6a0","ios":"levelo://app?vid=5ea8f44d-02c8-42db-b9c0-c2a4191ef6a0"},"vehicle_type_id":"4","last_reported":1737803249,"current_range_meters":8000,"station_id":"ce4bh4p2rcd13ifvqe1g","pricing_plan_id":"cebpf4jnsgd1na2vs0mg"},{"bike_id":"7273552e-a6d5-4aae-a528-ebc578872535","system_id":"levelo_inurba_marseille","lat":43.28929,"lon":5.38395,"is_reserved":false,"is_disabled":false,"rental_uris":{"android":"levelo://app?vid=7273552e-a6d5-4aae-a528-ebc578872535","ios":"levelo://app?vid=7273552e-a6d5-4aae-a528-ebc578872535"},"vehicle_type_id":"4","last_reported":1737803249,"current_range_meters":37600,"station_id":"ce4bh612rcd13ifvqe6g","pricing_plan_id":"cebpf4jnsgd1na2vs0mg"},{"bike_id":"d5665470-c1b3-45e5-80ac-4df7d60c2564","system_id":"levelo_inurba_marseille","lat":43.321,"lon":5.36816,"is_reserved":false,"is_disabled":false,"rental_uris":{"android":"levelo://app?vid=d5665470-c1b3-45e5-80ac-4df7d60c2564","ios":"levelo://app?vid=d5665470-c1b3-45e5-80ac-4df7d60c2564"},"vehicle_type_id":"4","last_reported":1737803249,"current_range_meters":33200,"station_id":"ce4bhrh2rcd13ifvqhug","pricing_plan_id":"cebpf4jnsgd1na2vs0mg"},{"bike_id":"ff1b0103-25b8-4cfb-a5c1-dc0a5d0a2595","system_id":"levelo_inurba_marseille","lat":43.26806,"lon":5.40278,"is_reserved":false,"is_disabled":false,"rental_uris":{"android":"levelo://app?vid=ff1b0103-25b8-4cfb-a5c1-dc0a5d0a2595","ios":"levelo://app?vid=ff1b0103-25b8-4cfb-a5c1-dc0a5d0a2595"},"vehicle_type_id":"4","last_reported":1737803249,"current_range_meters":33600,"station_id":"ce501612rcd8frsf0b60","pricing_plan_id":"cebpf4jnsgd1na2vs0mg"},{"bike_id":"48a19640-1fdc-48ff-a25e-2158bf9c43ab","system_id":"levelo_inurba_marseille","lat":43.33024,"lon":5.39039,"is_reserved":false,"is_disabled":false,"rental_uris":{"android":"levelo://app?vid=48a19640-1fdc-48ff-a25e-2158bf9c43ab","ios":"levelo://app?vid=48a19640-1fdc-48ff-a25e-2158bf9c43ab"},"vehicle_type_id":"4","last_reported":1737803249,"current_range_meters":29600,"station_id":"ce4bhr92rcd13ifvqhrg","pricing_plan_id":"cebpf4jnsgd1na2vs0mg"},{"bike_id":"11cc95e4-3cf9-4012-822f-515c26b74bb6","system_id":"levelo_inurba_marseille","lat":43.33603,"lon":5.41028,"is_reserved":false,"is_disabled":false,"rental_uris":{"android":"levelo://app?vid=11cc95e4-3cf9-4012-822f-515c26b74bb6","ios":"levelo://app?vid=11cc95e4-3cf9-4012-822f-515c26b74bb6"},"vehicle_type_id":"4","last_reported":1737803249,"current_range_meters":37600,"station_id":"ce4bhqh2rcd13ifvqhmg","pricing_plan_id":"cebpf4jnsgd1na2vs0mg"},{"bike_id":"39e9ed26-5838-4236-a2aa-e5fb677b22c6","system_id":"levelo_inurba_marseille","lat":43.29295,"lon":5.37463,"is_reserved":false,"is_disabled":false,"rental_uris":{"android":"levelo://app?vid=39e9ed26-5838-4236-a2aa-e5fb677b22c6","ios":"levelo://app?vid=39e9ed26-5838-4236-a2aa-e5fb677b22c6"},"vehicle_type_id":"4","last_reported":1737803249,"current_range_meters":38800,"station_id":"ce4bgi12rcd13ifvqb70","pricing_plan_id":"cebpf4jnsgd1na2vs0mg"},{"bike_id":"95d7ce5e-52dc-49bf-b383-50ab7ab85379","system_id":"levelo_inurba_marseille","lat":43.30309,"lon":5.39239,"is_reserved":false,"is_disabled":false,"rental_uris":{"android":"levelo://app?vid=95d7ce5e-52dc-49bf-b383-50ab7ab85379","ios":"levelo://app?vid=95d7ce5e-52dc-49bf-b383-50ab7ab85379"},"vehicle_type_id":"4","last_reported":1737803249,"current_range_meters":34800,"station_id":"ce4bgkh2rcd13ifvqbk0","pricing_plan_id":"cebpf4jnsgd1na2vs0mg"},{"bike_id":"35614ed7-a0df-4792-bca2-a1978fcd9fab","system_id":"levelo_inurba_marseille","lat":43.30798,"lon":5.43523,"is_reserved":false,"is_disabled":false,"rental_uris":{"android":"levelo://app?vid=35614ed7-a0df-4792-bca2-a1978fcd9fab","ios":"levelo://app?vid=35614ed7-a0df-4792-bca2-a1978fcd9fab"},"vehicle_type_id":"4","last_reported":1737803249,"current_range_meters":36000,"station_id":"ce4bhph2rcd13ifvqheg","pricing_plan_id":"cebpf4jnsgd1na2vs0mg"},{"bike_id":"6d17c276-0a0b-4d66-8572-ced57eea72cc","system_id":"levelo_inurba_marseille","lat":43.3362,"lon":5.40977,"is_reserved":false,"is_disabled":false,"rental_uris":{"android":"levelo://app?vid=6d17c276-0a0b-4d66-8572-ced57eea72cc","ios":"levelo://app?vid=6d17c276-0a0b-4d66-8572-ced57eea72cc"},"vehicle_type_id":"4","last_reported":1737803249,"current_range_meters":14000,"station_id":"ce4bhqh2rcd13ifvqhmg","pricing_plan_id":"cebpf4jnsgd1na2vs0mg"},{"bike_id":"58e811bb-64a6-42d5-b58d-7710b02b375a","system_id":"levelo_inurba_marseille","lat":43.25502,"lon":5.37655,"is_reserved":false,"is_disabled":false,"rental_uris":{"android":"levelo://app?vid=58e811bb-64a6-42d5-b58d-7710b02b375a","ios":"levelo://app?vid=58e811bb-64a6-42d5-b58d-7710b02b375a"},"vehicle_type_id":"4","last_reported":1737803249,"current_range_meters":38400,"station_id":"ce4bhh12rcd13ifvqff0","pricing_plan_id":"cebpf4jnsgd1na2vs0mg"},{"bike_id":"48e8ea53-6671-4afb-9c8d-1c5842cd6e14","system_id":"levelo_inurba_marseille","lat":43.30544,"lon":5.36562,"is_reserved":false,"is_disabled":false,"rental_uris":{"android":"levelo://app?vid=48e8ea53-6671-4afb-9c8d-1c5842cd6e14","ios":"levelo://app?vid=48e8ea53-6671-4afb-9c8d-1c5842cd6e14"},"vehicle_type_id":"4","last_reported":1737803249,"current_range_meters":37600,"station_id":"ce4bgs12rcd13ifvqcag","pricing_plan_id":"cebpf4jnsgd1na2vs0mg"},{"bike_id":"361cd0b7-edfc-4eec-a6fd-ba4bdf540479","system_id":"levelo_inurba_marseille","lat":43.32476,"lon":5.36568,"is_reserved":false,"is_disabled":false,"rental_uris":{"android":"levelo://app?vid=361cd0b7-edfc-4eec-a6fd-ba4bdf540479","ios":"levelo://app?vid=361cd0b7-edfc-4eec-a6fd-ba4bdf540479"},"vehicle_type_id":"4","last_reported":1737803249,"current_range_meters":37600,"station_id":"ce4bhs12rcd13ifvqhvg","pricing_plan_id":"cebpf4jnsgd1na2vs0mg"},{"bike_id":"1fb137c7-3ec9-422c-9489-577c98d51e51","system_id":"levelo_inurba_marseille","lat":43.2962,"lon":5.37731,"is_reserved":false,"is_disabled":false,"rental_uris":{"android":"levelo://app?vid=1fb137c7-3ec9-422c-9489-577c98d51e51","ios":"levelo://app?vid=1fb137c7-3ec9-422c-9489-577c98d51e51"},"vehicle_type_id":"4","last_reported":1737803249,"current_range_meters":36800,"station_id":"ce4bgi92rcd13ifvqb90","pricing_plan_id":"cebpf4jnsgd1na2vs0mg"},{"bike_id":"bb020016-b999-423e-8c74-0a9363afe522","system_id":"levelo_inurba_marseille","lat":43.30259,"lon":5.40067,"is_reserved":false,"is_disabled":false,"rental_uris":{"android":"levelo://app?vid=bb020016-b999-423e-8c74-0a9363afe522","ios":"levelo://app?vid=bb020016-b999-423e-8c74-0a9363afe522"},"vehicle_type_id":"4","last_reported":1737803249,"current_range_meters":3600,"station_id":"ce4bgvh2rcd13ifvqcs0","pricing_plan_id":"cebpf4jnsgd1na2vs0mg"},{"bike_id":"787fabc3-eb91-469a-81b6-44a6fdcc4a9b","system_id":"levelo_inurba_marseille","lat":43.23067,"lon":5.35504,"is_reserved":false,"is_disabled":true,"rental_uris":{"android":"levelo://app?vid=787fabc3-eb91-469a-81b6-44a6fdcc4a9b","ios":"levelo://app?vid=787fabc3-eb91-469a-81b6-44a6fdcc4a9b"},"vehicle_type_id":"4","last_reported":1737803249,"current_range_meters":1600,"station_id":"cpo3342slgdg3j2ifvpg","pricing_plan_id":"cebpf4jnsgd1na2vs0mg"},{"bike_id":"bd002190-7253-4748-ac67-ef72549b7175","system_id":"levelo_inurba_marseille","lat":43.3248,"lon":5.36568,"is_reserved":false,"is_disabled":false,"rental_uris":{"android":"levelo://app?vid=bd002190-7253-4748-ac67-ef72549b7175","ios":"levelo://app?vid=bd002190-7253-4748-ac67-ef72549b7175"},"vehicle_type_id":"4","last_reported":1737803249,"current_range_meters":19200,"station_id":"ce4bhs12rcd13ifvqhvg","pricing_plan_id":"cebpf4jnsgd1na2vs0mg"},{"bike_id":"7aad9059-a46f-476a-999b-2dabd1dcf54c","system_id":"levelo_inurba_marseille","lat":43.30539,"lon":5.36572,"is_reserved":false,"is_disabled":false,"rental_uris":{"android":"levelo://app?vid=7aad9059-a46f-476a-999b-2dabd1dcf54c","ios":"levelo://app?vid=7aad9059-a46f-476a-999b-2dabd1dcf54c"},"vehicle_type_id":"4","last_reported":1737803249,"current_range_meters":36800,"station_id":"ce4bgs12rcd13ifvqcag","pricing_plan_id":"cebpf4jnsgd1na2vs0mg"},{"bike_id":"6037994a-2d39-4f27-8621-92e5f0b7ed0c","system_id":"levelo_inurba_marseille","lat":43.2315,"lon":5.43725,"is_reserved":false,"is_disabled":false,"rental_uris":{"android":"levelo://app?vid=6037994a-2d39-4f27-8621-92e5f0b7ed0c","ios":"levelo://app?vid=6037994a-2d39-4f27-8621-92e5f0b7ed0c"},"vehicle_type_id":"4","last_reported":1737803249,"current_range_meters":14000,"station_id":"ce4bhmp2rcd13ifvqgog","pricing_plan_id":"cebpf4jnsgd1na2vs0mg"},{"bike_id":"ea624404-124a-4128-9041-089ad79942c5","system_id":"levelo_inurba_marseille","lat":43.29538,"lon":5.42282,"is_reserved":false,"is_disabled":false,"rental_uris":{"android":"levelo://app?vid=ea624404-124a-4128-9041-089ad79942c5","ios":"levelo://app?vid=ea624404-124a-4128-9041-089ad79942c5"},"vehicle_type_id":"4","last_reported":1737803249,"current_range_meters":32800,"station_id":"ce4bhph2rcd13ifvqhdg","pricing_plan_id":"cebpf4jnsgd1na2vs0mg"},{"bike_id":"7f1596e0-f6d9-4072-b5fd-4558f8ae0b9d","system_id":"levelo_inurba_marseille","lat":43.25724,"lon":5.41113,"is_reserved":false,"is_disabled":false,"rental_uris":{"android":"levelo://app?vid=7f1596e0-f6d9-4072-b5fd-4558f8ae0b9d","ios":"levelo://app?vid=7f1596e0-f6d9-4072-b5fd-4558f8ae0b9d"},"vehicle_type_id":"4","last_reported":1737803249,"current_range_meters":39200,"station_id":"ce4bhkp2rcd13ifvqgd0","pricing_plan_id":"cebpf4jnsgd1na2vs0mg"},{"bike_id":"662826ac-353a-4d90-b4d6-b01a8f2632b2","system_id":"levelo_inurba_marseille","lat":43.22933,"lon":5.35381,"is_reserved":false,"is_disabled":false,"rental_uris":{"android":"levelo://app?vid=662826ac-353a-4d90-b4d6-b01a8f2632b2","ios":"levelo://app?vid=662826ac-353a-4d90-b4d6-b01a8f2632b2"},"vehicle_type_id":"4","last_reported":1737803249,"current_range_meters":15200,"station_id":"cpo3532slgdg3j2ikp40","pricing_plan_id":"cebpf4jnsgd1na2vs0mg"},{"bike_id":"d3304e22-ac02-480f-a1ea-285e42e20a93","system_id":"levelo_inurba_marseille","lat":43.29569,"lon":5.39979,"is_reserved":false,"is_disabled":false,"rental_uris":{"android":"levelo://app?vid=d3304e22-ac02-480f-a1ea-285e42e20a93","ios":"levelo://app?vid=d3304e22-ac02-480f-a1ea-285e42e20a93"},"vehicle_type_id":"4","last_reported":1737803249,"current_range_meters":30000,"station_id":"ce4bh312rcd13ifvqdj0","pricing_plan_id":"cebpf4jnsgd1na2vs0mg"},{"bike_id":"9696924a-b655-4c3b-952a-eb79690eeb58","system_id":"levelo_inurba_marseille","lat":43.23153,"lon":5.43706,"is_reserved":false,"is_disabled":true,"rental_uris":{"android":"levelo://app?vid=9696924a-b655-4c3b-952a-eb79690eeb58","ios":"levelo://app?vid=9696924a-b655-4c3b-952a-eb79690eeb58"},"vehicle_type_id":"4","last_reported":1737803249,"current_range_meters":1600,"station_id":"ce4bhmp2rcd13ifvqgog","pricing_plan_id":"cebpf4jnsgd1na2vs0mg"},{"bike_id":"40276c2b-c10e-42ab-857d-43e7ecb22cd6","system_id":"levelo_inurba_marseille","lat":43.27173,"lon":5.41008,"is_reserved":false,"is_disabled":false,"rental_uris":{"android":"levelo://app?vid=40276c2b-c10e-42ab-857d-43e7ecb22cd6","ios":"levelo://app?vid=40276c2b-c10e-42ab-857d-43e7ecb22cd6"},"vehicle_type_id":"4","last_reported":1737803249,"current_range_meters":33200,"station_id":"ce4bhl12rcd13ifvqgf0","pricing_plan_id":"cebpf4jnsgd1na2vs0mg"},{"bike_id":"73e00b2b-2668-4d2a-93ac-08132f002d5b","system_id":"levelo_inurba_marseille","lat":43.28099,"lon":5.37839,"is_reserved":false,"is_disabled":false,"rental_uris":{"android":"levelo://app?vid=73e00b2b-2668-4d2a-93ac-08132f002d5b","ios":"levelo://app?vid=73e00b2b-2668-4d2a-93ac-08132f002d5b"},"vehicle_type_id":"4","last_reported":1737803249,"current_range_meters":9200,"station_id":"ce4bha12rcd13ifvqee0","pricing_plan_id":"cebpf4jnsgd1na2vs0mg"},{"bike_id":"03c9ea00-dc72-414c-b006-4436167fc80d","system_id":"levelo_inurba_marseille","lat":43.29795,"lon":5.40405,"is_reserved":false,"is_disabled":false,"rental_uris":{"android":"levelo://app?vid=03c9ea00-dc72-414c-b006-4436167fc80d","ios":"levelo://app?vid=03c9ea00-dc72-414c-b006-4436167fc80d"},"vehicle_type_id":"4","last_reported":1737803249,"current_range_meters":19600,"station_id":"ce4bh112rcd13ifvqd90","pricing_plan_id":"cebpf4jnsgd1na2vs0mg"},{"bike_id":"18777148-8978-438b-82fa-d702dd4920f1","system_id":"levelo_inurba_marseille","lat":43.2826,"lon":5.3508,"is_reserved":false,"is_disabled":false,"rental_uris":{"android":"levelo://app?vid=18777148-8978-438b-82fa-d702dd4920f1","ios":"levelo://app?vid=18777148-8978-438b-82fa-d702dd4920f1"},"vehicle_type_id":"4","last_reported":1737803249,"current_range_meters":33200,"station_id":"ce4bhbp2rcd13ifvqerg","pricing_plan_id":"cebpf4jnsgd1na2vs0mg"},{"bike_id":"25de2542-1bfa-4339-b5e3-b1aa2e18e3bf","system_id":"levelo_inurba_marseille","lat":43.323359,"lon":5.406172,"is_reserved":false,"is_disabled":false,"rental_uris":{"android":"levelo://app?vid=25de2542-1bfa-4339-b5e3-b1aa2e18e3bf","ios":"levelo://app?vid=25de2542-1bfa-4339-b5e3-b1aa2e18e3bf"},"vehicle_type_id":"4","last_reported":1737803249,"current_range_meters":18800,"station_id":"ce4bhq92rcd13ifvqhjg","pricing_plan_id":"cebpf4jnsgd1na2vs0mg"},{"bike_id":"00d570d3-3e44-418e-8fb5-d8cab8cadbe0","system_id":"levelo_inurba_marseille","lat":43.29959,"lon":5.37179,"is_reserved":false,"is_disabled":false,"rental_uris":{"android":"levelo://app?vid=00d570d3-3e44-418e-8fb5-d8cab8cadbe0","ios":"levelo://app?vid=00d570d3-3e44-418e-8fb5-d8cab8cadbe0"},"vehicle_type_id":"4","last_reported":1737803249,"current_range_meters":23200,"station_id":"ce4bgr92rcd13ifvqc7g","pricing_plan_id":"cebpf4jnsgd1na2vs0mg"},{"bike_id":"35d6459e-dae7-4554-8d35-2235116aea8a","system_id":"levelo_inurba_marseille","lat":43.30552,"lon":5.36519,"is_reserved":false,"is_disabled":false,"rental_uris":{"android":"levelo://app?vid=35d6459e-dae7-4554-8d35-2235116aea8a","ios":"levelo://app?vid=35d6459e-dae7-4554-8d35-2235116aea8a"},"vehicle_type_id":"4","last_reported":1737803249,"current_range_meters":38000,"station_id":"ce4bgs12rcd13ifvqcag","pricing_plan_id":"cebpf4jnsgd1na2vs0mg"},{"bike_id":"0ee42e9d-671c-4504-91a8-fe1b698bb168","system_id":"levelo_inurba_marseille","lat":43.30285,"lon":5.37701,"is_reserved":false,"is_disabled":false,"rental_uris":{"android":"levelo://app?vid=0ee42e9d-671c-4504-91a8-fe1b698bb168","ios":"levelo://app?vid=0ee42e9d-671c-4504-91a8-fe1b698bb168"},"vehicle_type_id":"4","last_reported":1737803249,"current_range_meters":37600,"station_id":"ce4bguh2rcd13ifvqcj0","pricing_plan_id":"cebpf4jnsgd1na2vs0mg"},{"bike_id":"f905b1db-69fb-440a-8cce-8e02194dc9d3","system_id":"levelo_inurba_marseille","lat":43.26786,"lon":5.39424,"is_reserved":false,"is_disabled":false,"rental_uris":{"android":"levelo://app?vid=f905b1db-69fb-440a-8cce-8e02194dc9d3","ios":"levelo://app?vid=f905b1db-69fb-440a-8cce-8e02194dc9d3"},"vehicle_type_id":"4","last_reported":1737803249,"current_range_meters":30000,"station_id":"ce4bhh12rcd13ifvqfg0","pricing_plan_id":"cebpf4jnsgd1na2vs0mg"},{"bike_id":"571fc473-8937-4299-8e51-e85601e79bdd","system_id":"levelo_inurba_marseille","lat":43.30366,"lon":5.41846,"is_reserved":false,"is_disabled":false,"rental_uris":{"android":"levelo://app?vid=571fc473-8937-4299-8e51-e85601e79bdd","ios":"levelo://app?vid=571fc473-8937-4299-8e51-e85601e79bdd"},"vehicle_type_id":"4","last_reported":1737803249,"current_range_meters":30000,"station_id":"ce4bhop2rcd13ifvqh7g","pricing_plan_id":"cebpf4jnsgd1na2vs0mg"},{"bike_id":"7f522602-a80d-46b9-a8a6-5b25117fd106","system_id":"levelo_inurba_marseille","lat":43.29579,"lon":5.37715,"is_reserved":false,"is_disabled":false,"rental_uris":{"android":"levelo://app?vid=7f522602-a80d-46b9-a8a6-5b25117fd106","ios":"levelo://app?vid=7f522602-a80d-46b9-a8a6-5b25117fd106"},"vehicle_type_id":"4","last_reported":1737803249,"current_range_meters":37600,"station_id":"ce4bgi92rcd13ifvqb90","pricing_plan_id":"cebpf4jnsgd1na2vs0mg"},{"bike_id":"aa9e9be8-8e5a-4ecf-b752-776af68272c3","system_id":"levelo_inurba_marseille","lat":43.28666,"lon":5.38662,"is_reserved":false,"is_disabled":false,"rental_uris":{"android":"levelo://app?vid=aa9e9be8-8e5a-4ecf-b752-776af68272c3","ios":"levelo://app?vid=aa9e9be8-8e5a-4ecf-b752-776af68272c3"},"vehicle_type_id":"4","last_reported":1737803249,"current_range_meters":8800,"station_id":"ce4bh492rcd13ifvqdug","pricing_plan_id":"cebpf4jnsgd1na2vs0mg"},{"bike_id":"9d02f1c9-e2b9-44db-a3d4-b6e99abb6bb6","system_id":"levelo_inurba_marseille","lat":43.30438,"lon":5.39742,"is_reserved":false,"is_disabled":false,"rental_uris":{"android":"levelo://app?vid=9d02f1c9-e2b9-44db-a3d4-b6e99abb6bb6","ios":"levelo://app?vid=9d02f1c9-e2b9-44db-a3d4-b6e99abb6bb6"},"vehicle_type_id":"4","last_reported":1737803249,"current_range_meters":39200,"station_id":"ce4bh092rcd13ifvqd20","pricing_plan_id":"cebpf4jnsgd1na2vs0mg"},{"bike_id":"f9c62656-c213-4d37-bccf-53ca245dbdbd","system_id":"levelo_inurba_marseille","lat":43.33024,"lon":5.39037,"is_reserved":false,"is_disabled":false,"rental_uris":{"android":"levelo://app?vid=f9c62656-c213-4d37-bccf-53ca245dbdbd","ios":"levelo://app?vid=f9c62656-c213-4d37-bccf-53ca245dbdbd"},"vehicle_type_id":"4","last_reported":1737803249,"current_range_meters":14000,"station_id":"ce4bhr92rcd13ifvqhrg","pricing_plan_id":"cebpf4jnsgd1na2vs0mg"},{"bike_id":"3e58f363-8612-4346-82fb-2e73f66b7add","system_id":"levelo_inurba_marseille","lat":43.26684,"lon":5.38274,"is_reserved":false,"is_disabled":false,"rental_uris":{"android":"levelo://app?vid=3e58f363-8612-4346-82fb-2e73f66b7add","ios":"levelo://app?vid=3e58f363-8612-4346-82fb-2e73f66b7add"},"vehicle_type_id":"4","last_reported":1737803249,"current_range_meters":38800,"station_id":"ce4bhg92rcd13ifvqf90","pricing_plan_id":"cebpf4jnsgd1na2vs0mg"},{"bike_id":"5c3d9b83-9bb6-4943-8f34-9e06b3040948","system_id":"levelo_inurba_marseille","lat":43.28447,"lon":5.39206,"is_reserved":false,"is_disabled":false,"rental_uris":{"android":"levelo://app?vid=5c3d9b83-9bb6-4943-8f34-9e06b3040948","ios":"levelo://app?vid=5c3d9b83-9bb6-4943-8f34-9e06b3040948"},"vehicle_type_id":"4","last_reported":1737803249,"current_range_meters":4400,"station_id":"ce4bhoh2rcd13ifvqh5g","pricing_plan_id":"cebpf4jnsgd1na2vs0mg"},{"bike_id":"7c78a755-c7f5-4f07-a96b-621451d47948","system_id":"levelo_inurba_marseille","lat":43.29894,"lon":5.43697,"is_reserved":false,"is_disabled":false,"rental_uris":{"android":"levelo://app?vid=7c78a755-c7f5-4f07-a96b-621451d47948","ios":"levelo://app?vid=7c78a755-c7f5-4f07-a96b-621451d47948"},"vehicle_type_id":"4","last_reported":1737803249,"current_range_meters":36400,"station_id":"ce4bhpp2rcd13ifvqhfg","pricing_plan_id":"cebpf4jnsgd1na2vs0mg"},{"bike_id":"da8916d0-e844-4d0b-8472-d74c3987bc62","system_id":"levelo_inurba_marseille","lat":43.29978,"lon":5.38485,"is_reserved":false,"is_disabled":true,"rental_uris":{"android":"levelo://app?vid=da8916d0-e844-4d0b-8472-d74c3987bc62","ios":"levelo://app?vid=da8916d0-e844-4d0b-8472-d74c3987bc62"},"vehicle_type_id":"4","last_reported":1737803249,"current_range_meters":3600,"station_id":"ce4bgj92rcd13ifvqbd0","pricing_plan_id":"cebpf4jnsgd1na2vs0mg"},{"bike_id":"9cc5ea20-a232-440c-be2d-efd5324ff1a5","system_id":"levelo_inurba_marseille","lat":43.27812,"lon":5.40715,"is_reserved":false,"is_disabled":false,"rental_uris":{"android":"levelo://app?vid=9cc5ea20-a232-440c-be2d-efd5324ff1a5","ios":"levelo://app?vid=9cc5ea20-a232-440c-be2d-efd5324ff1a5"},"vehicle_type_id":"4","last_reported":1737803249,"current_range_meters":23200,"station_id":"ce4bhnh2rcd13ifvqgtg","pricing_plan_id":"cebpf4jnsgd1na2vs0mg"},{"bike_id":"ca0d6766-ce94-46d2-91e9-5f7032673f96","system_id":"levelo_inurba_marseille","lat":43.2886,"lon":5.35863,"is_reserved":false,"is_disabled":false,"rental_uris":{"android":"levelo://app?vid=ca0d6766-ce94-46d2-91e9-5f7032673f96","ios":"levelo://app?vid=ca0d6766-ce94-46d2-91e9-5f7032673f96"},"vehicle_type_id":"4","last_reported":1737803249,"current_range_meters":36400,"station_id":"ce4bhb12rcd13ifvqem0","pricing_plan_id":"cebpf4jnsgd1na2vs0mg"},{"bike_id":"f83eae7a-ac87-48aa-9902-f2e5e16ac1f4","system_id":"levelo_inurba_marseille","lat":43.30962,"lon":5.39061,"is_reserved":false,"is_disabled":false,"rental_uris":{"android":"levelo://app?vid=f83eae7a-ac87-48aa-9902-f2e5e16ac1f4","ios":"levelo://app?vid=f83eae7a-ac87-48aa-9902-f2e5e16ac1f4"},"vehicle_type_id":"4","last_reported":1737803249,"current_range_meters":35600,"station_id":"ce4bgup2rcd13ifvqco0","pricing_plan_id":"cebpf4jnsgd1na2vs0mg"},{"bike_id":"7efe2e23-4eb5-42e6-bdfe-af45bc849b33","system_id":"levelo_inurba_marseille","lat":43.25104,"lon":5.40315,"is_reserved":false,"is_disabled":false,"rental_uris":{"android":"levelo://app?vid=7efe2e23-4eb5-42e6-bdfe-af45bc849b33","ios":"levelo://app?vid=7efe2e23-4eb5-42e6-bdfe-af45bc849b33"},"vehicle_type_id":"4","last_reported":1737803249,"current_range_meters":8400,"station_id":"ce4bhlh2rcd13ifvqgig","pricing_plan_id":"cebpf4jnsgd1na2vs0mg"},{"bike_id":"8fd0082a-8558-471d-bd5c-8f2bb03de120","system_id":"levelo_inurba_marseille","lat":43.28727,"lon":5.39997,"is_reserved":false,"is_disabled":true,"rental_uris":{"android":"levelo://app?vid=8fd0082a-8558-471d-bd5c-8f2bb03de120","ios":"levelo://app?vid=8fd0082a-8558-471d-bd5c-8f2bb03de120"},"vehicle_type_id":"4","last_reported":1737803249,"current_range_meters":30800,"station_id":"ce4bho92rcd13ifvqh3g","pricing_plan_id":"cebpf4jnsgd1na2vs0mg"},{"bike_id":"ec215256-d883-4e03-8196-c439ba03cc3a","system_id":"levelo_inurba_marseille","lat":43.30202,"lon":5.39473,"is_reserved":false,"is_disabled":false,"rental_uris":{"android":"levelo://app?vid=ec215256-d883-4e03-8196-c439ba03cc3a","ios":"levelo://app?vid=ec215256-d883-4e03-8196-c439ba03cc3a"},"vehicle_type_id":"4","last_reported":1737803249,"current_range_meters":36800,"station_id":"ce4bh0p2rcd13ifvqd70","pricing_plan_id":"cebpf4jnsgd1na2vs0mg"},{"bike_id":"be065451-9086-47c9-be3d-608cd0770072","system_id":"levelo_inurba_marseille","lat":43.25871,"lon":5.39909,"is_reserved":false,"is_disabled":false,"rental_uris":{"android":"levelo://app?vid=be065451-9086-47c9-be3d-608cd0770072","ios":"levelo://app?vid=be065451-9086-47c9-be3d-608cd0770072"},"vehicle_type_id":"4","last_reported":1737803249,"current_range_meters":37600,"station_id":"ce4bhl92rcd13ifvqghg","pricing_plan_id":"cebpf4jnsgd1na2vs0mg"},{"bike_id":"f3230c48-d736-422c-bb85-588c13127959","system_id":"levelo_inurba_marseille","lat":43.23965,"lon":5.36639,"is_reserved":false,"is_disabled":false,"rental_uris":{"android":"levelo://app?vid=f3230c48-d736-422c-bb85-588c13127959","ios":"levelo://app?vid=f3230c48-d736-422c-bb85-588c13127959"},"vehicle_type_id":"4","last_reported":1737803249,"current_range_meters":31200,"station_id":"ce4bhi12rcd13ifvqfp0","pricing_plan_id":"cebpf4jnsgd1na2vs0mg"},{"bike_id":"d465c82e-dd8f-4049-a78f-a952bd36016c","system_id":"levelo_inurba_marseille","lat":43.26682,"lon":5.38273,"is_reserved":false,"is_disabled":false,"rental_uris":{"android":"levelo://app?vid=d465c82e-dd8f-4049-a78f-a952bd36016c","ios":"levelo://app?vid=d465c82e-dd8f-4049-a78f-a952bd36016c"},"vehicle_type_id":"4","last_reported":1737803249,"current_range_meters":36800,"station_id":"ce4bhg92rcd13ifvqf90","pricing_plan_id":"cebpf4jnsgd1na2vs0mg"},{"bike_id":"2fc46773-eac2-4f6a-9260-91398d7f70e8","system_id":"levelo_inurba_marseille","lat":43.29626,"lon":5.37725,"is_reserved":false,"is_disabled":false,"rental_uris":{"android":"levelo://app?vid=2fc46773-eac2-4f6a-9260-91398d7f70e8","ios":"levelo://app?vid=2fc46773-eac2-4f6a-9260-91398d7f70e8"},"vehicle_type_id":"4","last_reported":1737803249,"current_range_meters":38000,"station_id":"ce4bgi92rcd13ifvqb90","pricing_plan_id":"cebpf4jnsgd1na2vs0mg"},{"bike_id":"f6b9dfa3-8a24-4a50-a3d1-40c4ad4d5a60","system_id":"levelo_inurba_marseille","lat":43.30274,"lon":5.37704,"is_reserved":false,"is_disabled":false,"rental_uris":{"android":"levelo://app?vid=f6b9dfa3-8a24-4a50-a3d1-40c4ad4d5a60","ios":"levelo://app?vid=f6b9dfa3-8a24-4a50-a3d1-40c4ad4d5a60"},"vehicle_type_id":"4","last_reported":1737803249,"current_range_meters":39200,"station_id":"ce4bguh2rcd13ifvqcj0","pricing_plan_id":"cebpf4jnsgd1na2vs0mg"},{"bike_id":"a4366770-e370-4c33-a156-13493525a6bf","system_id":"levelo_inurba_marseille","lat":43.29562,"lon":5.37532,"is_reserved":false,"is_disabled":false,"rental_uris":{"android":"levelo://app?vid=a4366770-e370-4c33-a156-13493525a6bf","ios":"levelo://app?vid=a4366770-e370-4c33-a156-13493525a6bf"},"vehicle_type_id":"4","last_reported":1737803249,"current_range_meters":38000,"station_id":"ce4bgh92rcd13ifvqb50","pricing_plan_id":"cebpf4jnsgd1na2vs0mg"},{"bike_id":"f45e9fc2-88c3-4f85-b467-d7874ec26e72","system_id":"levelo_inurba_marseille","lat":43.26031,"lon":5.37552,"is_reserved":false,"is_disabled":false,"rental_uris":{"android":"levelo://app?vid=f45e9fc2-88c3-4f85-b467-d7874ec26e72","ios":"levelo://app?vid=f45e9fc2-88c3-4f85-b467-d7874ec26e72"},"vehicle_type_id":"4","last_reported":1737803249,"current_range_meters":23200,"station_id":"ce4bhgh2rcd13ifvqfa0","pricing_plan_id":"cebpf4jnsgd1na2vs0mg"},{"bike_id":"9f0c46f0-4fb9-4e17-b4b9-e5ede73a87dc","system_id":"levelo_inurba_marseille","lat":43.32372,"lon":5.38891,"is_reserved":false,"is_disabled":false,"rental_uris":{"android":"levelo://app?vid=9f0c46f0-4fb9-4e17-b4b9-e5ede73a87dc","ios":"levelo://app?vid=9f0c46f0-4fb9-4e17-b4b9-e5ede73a87dc"},"vehicle_type_id":"4","last_reported":1737803249,"current_range_meters":29600,"station_id":"ce4bhqp2rcd13ifvqhog","pricing_plan_id":"cebpf4jnsgd1na2vs0mg"},{"bike_id":"1b8ab376-cfd7-48b3-9ad4-fc3dd25c0ae2","system_id":"levelo_inurba_marseille","lat":43.30208,"lon":5.38052,"is_reserved":false,"is_disabled":false,"rental_uris":{"android":"levelo://app?vid=1b8ab376-cfd7-48b3-9ad4-fc3dd25c0ae2","ios":"levelo://app?vid=1b8ab376-cfd7-48b3-9ad4-fc3dd25c0ae2"},"vehicle_type_id":"4","last_reported":1737803249,"current_range_meters":34800,"station_id":"","pricing_plan_id":"cebpf4jnsgd1na2vs0mg"},{"bike_id":"ce40588d-e0d3-432b-a62d-028a8df3977b","system_id":"levelo_inurba_marseille","lat":43.28005,"lon":5.40012,"is_reserved":false,"is_disabled":false,"rental_uris":{"android":"levelo://app?vid=ce40588d-e0d3-432b-a62d-028a8df3977b","ios":"levelo://app?vid=ce40588d-e0d3-432b-a62d-028a8df3977b"},"vehicle_type_id":"4","last_reported":1737803249,"current_range_meters":33600,"station_id":"ce4bho92rcd13ifvqh4g","pricing_plan_id":"cebpf4jnsgd1na2vs0mg"},{"bike_id":"baea81b0-ec88-4597-8150-40e38e7872d6","system_id":"levelo_inurba_marseille","lat":43.30326,"lon":5.4188,"is_reserved":false,"is_disabled":false,"rental_uris":{"android":"levelo://app?vid=baea81b0-ec88-4597-8150-40e38e7872d6","ios":"levelo://app?vid=baea81b0-ec88-4597-8150-40e38e7872d6"},"vehicle_type_id":"4","last_reported":1737803249,"current_range_meters":38400,"station_id":"ce4bhop2rcd13ifvqh7g","pricing_plan_id":"cebpf4jnsgd1na2vs0mg"},{"bike_id":"1ddf198a-94ae-4a42-a842-41c98885b560","system_id":"levelo_inurba_marseille","lat":43.28266,"lon":5.35059,"is_reserved":false,"is_disabled":true,"rental_uris":{"android":"levelo://app?vid=1ddf198a-94ae-4a42-a842-41c98885b560","ios":"levelo://app?vid=1ddf198a-94ae-4a42-a842-41c98885b560"},"vehicle_type_id":"4","last_reported":1737803249,"current_range_meters":0,"station_id":"ce4bhbp2rcd13ifvqerg","pricing_plan_id":"cebpf4jnsgd1na2vs0mg"},{"bike_id":"b3be33ae-cc25-4118-a3f1-a6409d19dd0e","system_id":"levelo_inurba_marseille","lat":43.31686,"lon":5.40481,"is_reserved":false,"is_disabled":false,"rental_uris":{"android":"levelo://app?vid=b3be33ae-cc25-4118-a3f1-a6409d19dd0e","ios":"levelo://app?vid=b3be33ae-cc25-4118-a3f1-a6409d19dd0e"},"vehicle_type_id":"4","last_reported":1737803249,"current_range_meters":37600,"station_id":"ce4bh012rcd13ifvqd00","pricing_plan_id":"cebpf4jnsgd1na2vs0mg"},{"bike_id":"7fc0dfc4-105e-49c4-b59a-c25d47650a5f","system_id":"levelo_inurba_marseille","lat":43.30421,"lon":5.41291,"is_reserved":false,"is_disabled":false,"rental_uris":{"android":"levelo://app?vid=7fc0dfc4-105e-49c4-b59a-c25d47650a5f","ios":"levelo://app?vid=7fc0dfc4-105e-49c4-b59a-c25d47650a5f"},"vehicle_type_id":"4","last_reported":1737803249,"current_range_meters":30000,"station_id":"ce4bhop2rcd13ifvqh8g","pricing_plan_id":"cebpf4jnsgd1na2vs0mg"},{"bike_id":"16cba4e1-cb10-44ef-b1a1-eca95385335f","system_id":"levelo_inurba_marseille","lat":43.28418,"lon":5.34995,"is_reserved":false,"is_disabled":true,"rental_uris":{"android":"levelo://app?vid=16cba4e1-cb10-44ef-b1a1-eca95385335f","ios":"levelo://app?vid=16cba4e1-cb10-44ef-b1a1-eca95385335f"},"vehicle_type_id":"4","last_reported":1737803249,"current_range_meters":17600,"station_id":"ce4bhbh2rcd13ifvqepg","pricing_plan_id":"cebpf4jnsgd1na2vs0mg"},{"bike_id":"08ec7980-3d1f-4bf1-909e-a9f15b620fd3","system_id":"levelo_inurba_marseille","lat":43.27048,"lon":5.4229,"is_reserved":false,"is_disabled":false,"rental_uris":{"android":"levelo://app?vid=08ec7980-3d1f-4bf1-909e-a9f15b620fd3","ios":"levelo://app?vid=08ec7980-3d1f-4bf1-909e-a9f15b620fd3"},"vehicle_type_id":"4","last_reported":1737803249,"current_range_meters":39200,"station_id":"ce4bhk92rcd13ifvqgb0","pricing_plan_id":"cebpf4jnsgd1na2vs0mg"},{"bike_id":"fe2c0a7c-53ba-4fbf-b61d-4a783f0a0d3e","system_id":"levelo_inurba_marseille","lat":43.2593,"lon":5.40911,"is_reserved":false,"is_disabled":false,"rental_uris":{"android":"levelo://app?vid=fe2c0a7c-53ba-4fbf-b61d-4a783f0a0d3e","ios":"levelo://app?vid=fe2c0a7c-53ba-4fbf-b61d-4a783f0a0d3e"},"vehicle_type_id":"4","last_reported":1737803249,"current_range_meters":20800,"station_id":"ce4bhm92rcd13ifvqglg","pricing_plan_id":"cebpf4jnsgd1na2vs0mg"},{"bike_id":"6b697912-e783-492a-8b5c-4d3c0e76c101","system_id":"levelo_inurba_marseille","lat":43.29789,"lon":5.38102,"is_reserved":false,"is_disabled":false,"rental_uris":{"android":"levelo://app?vid=6b697912-e783-492a-8b5c-4d3c0e76c101","ios":"levelo://app?vid=6b697912-e783-492a-8b5c-4d3c0e76c101"},"vehicle_type_id":"4","last_reported":1737803249,"current_range_meters":7200,"station_id":"ce4bgip2rcd13ifvqbb0","pricing_plan_id":"cebpf4jnsgd1na2vs0mg"},{"bike_id":"7181f66f-fb7e-4b50-9131-930c5c824711","system_id":"levelo_inurba_marseille","lat":43.27812,"lon":5.40717,"is_reserved":false,"is_disabled":false,"rental_uris":{"android":"levelo://app?vid=7181f66f-fb7e-4b50-9131-930c5c824711","ios":"levelo://app?vid=7181f66f-fb7e-4b50-9131-930c5c824711"},"vehicle_type_id":"4","last_reported":1737803249,"current_range_meters":20000,"station_id":"ce4bhnh2rcd13ifvqgtg","pricing_plan_id":"cebpf4jnsgd1na2vs0mg"},{"bike_id":"50f6923c-24b2-4186-af99-03897004f9d8","system_id":"levelo_inurba_marseille","lat":43.30925,"lon":5.40199,"is_reserved":false,"is_disabled":false,"rental_uris":{"android":"levelo://app?vid=50f6923c-24b2-4186-af99-03897004f9d8","ios":"levelo://app?vid=50f6923c-24b2-4186-af99-03897004f9d8"},"vehicle_type_id":"4","last_reported":1737803249,"current_range_meters":38000,"station_id":"ce4bgvp2rcd13ifvqct0","pricing_plan_id":"cebpf4jnsgd1na2vs0mg"},{"bike_id":"949de77b-2504-4ad7-a9c6-65bd58126d3f","system_id":"levelo_inurba_marseille","lat":43.29852,"lon":5.363,"is_reserved":false,"is_disabled":false,"rental_uris":{"android":"levelo://app?vid=949de77b-2504-4ad7-a9c6-65bd58126d3f","ios":"levelo://app?vid=949de77b-2504-4ad7-a9c6-65bd58126d3f"},"vehicle_type_id":"4","last_reported":1737803249,"current_range_meters":26800,"station_id":"ce4bgpp2rcd13ifvqc3g","pricing_plan_id":"cebpf4jnsgd1na2vs0mg"},{"bike_id":"2aab081f-86c4-41a6-bbf1-3356dd53865a","system_id":"levelo_inurba_marseille","lat":43.29026,"lon":5.38642,"is_reserved":false,"is_disabled":false,"rental_uris":{"android":"levelo://app?vid=2aab081f-86c4-41a6-bbf1-3356dd53865a","ios":"levelo://app?vid=2aab081f-86c4-41a6-bbf1-3356dd53865a"},"vehicle_type_id":"4","last_reported":1737803249,"current_range_meters":39200,"station_id":"ce4bh4p2rcd13ifvqe0g","pricing_plan_id":"cebpf4jnsgd1na2vs0mg"},{"bike_id":"53c33c8a-c862-4308-9965-bef88b94f630","system_id":"levelo_inurba_marseille","lat":43.29722,"lon":5.37708,"is_reserved":false,"is_disabled":false,"rental_uris":{"android":"levelo://app?vid=53c33c8a-c862-4308-9965-bef88b94f630","ios":"levelo://app?vid=53c33c8a-c862-4308-9965-bef88b94f630"},"vehicle_type_id":"4","last_reported":1737803249,"current_range_meters":39200,"station_id":"ce4bgkh2rcd13ifvqbl0","pricing_plan_id":"cebpf4jnsgd1na2vs0mg"},{"bike_id":"45b366a6-6abc-4401-bb9e-1aee69db2cae","system_id":"levelo_inurba_marseille","lat":43.28091,"lon":5.39659,"is_reserved":false,"is_disabled":false,"rental_uris":{"android":"levelo://app?vid=45b366a6-6abc-4401-bb9e-1aee69db2cae","ios":"levelo://app?vid=45b366a6-6abc-4401-bb9e-1aee69db2cae"},"vehicle_type_id":"4","last_reported":1737803249,"current_range_meters":28400,"station_id":"ce4bho12rcd13ifvqh2g","pricing_plan_id":"cebpf4jnsgd1na2vs0mg"},{"bike_id":"527f4649-8f1a-4e0f-b8a9-814737744a1b","system_id":"levelo_inurba_marseille","lat":43.23964,"lon":5.36631,"is_reserved":false,"is_disabled":false,"rental_uris":{"android":"levelo://app?vid=527f4649-8f1a-4e0f-b8a9-814737744a1b","ios":"levelo://app?vid=527f4649-8f1a-4e0f-b8a9-814737744a1b"},"vehicle_type_id":"4","last_reported":1737803249,"current_range_meters":9600,"station_id":"ce4bhi12rcd13ifvqfp0","pricing_plan_id":"cebpf4jnsgd1na2vs0mg"},{"bike_id":"40d16cdd-1de4-4773-88c9-45aa6c05579e","system_id":"levelo_inurba_marseille","lat":43.29729,"lon":5.3772,"is_reserved":false,"is_disabled":false,"rental_uris":{"android":"levelo://app?vid=40d16cdd-1de4-4773-88c9-45aa6c05579e","ios":"levelo://app?vid=40d16cdd-1de4-4773-88c9-45aa6c05579e"},"vehicle_type_id":"4","last_reported":1737803249,"current_range_meters":38000,"station_id":"ce4bgkh2rcd13ifvqbl0","pricing_plan_id":"cebpf4jnsgd1na2vs0mg"},{"bike_id":"979c822c-34ed-43fc-a2ac-c454a2e21cc1","system_id":"levelo_inurba_marseille","lat":43.2927,"lon":5.40907,"is_reserved":false,"is_disabled":false,"rental_uris":{"android":"levelo://app?vid=979c822c-34ed-43fc-a2ac-c454a2e21cc1","ios":"levelo://app?vid=979c822c-34ed-43fc-a2ac-c454a2e21cc1"},"vehicle_type_id":"4","last_reported":1737803249,"current_range_meters":24800,"station_id":"ce4bh192rcd13ifvqdc0","pricing_plan_id":"cebpf4jnsgd1na2vs0mg"},{"bike_id":"f4a67fd7-7ba0-462e-b321-724410a83bc3","system_id":"levelo_inurba_marseille","lat":43.28618,"lon":5.35116,"is_reserved":false,"is_disabled":true,"rental_uris":{"android":"levelo://app?vid=f4a67fd7-7ba0-462e-b321-724410a83bc3","ios":"levelo://app?vid=f4a67fd7-7ba0-462e-b321-724410a83bc3"},"vehicle_type_id":"4","last_reported":1737803249,"current_range_meters":17600,"station_id":"ce4bhch2rcd13ifvqeug","pricing_plan_id":"cebpf4jnsgd1na2vs0mg"},{"bike_id":"841a1767-078e-4378-8ef2-78843610d635","system_id":"levelo_inurba_marseille","lat":43.23193,"lon":5.35548,"is_reserved":false,"is_disabled":false,"rental_uris":{"android":"levelo://app?vid=841a1767-078e-4378-8ef2-78843610d635","ios":"levelo://app?vid=841a1767-078e-4378-8ef2-78843610d635"},"vehicle_type_id":"4","last_reported":1737803249,"current_range_meters":8000,"station_id":"ce4bhu92rcd13ifvqi70","pricing_plan_id":"cebpf4jnsgd1na2vs0mg"},{"bike_id":"d531adb9-2312-4b34-a321-08be0fda69cf","system_id":"levelo_inurba_marseille","lat":43.29604,"lon":5.40056,"is_reserved":false,"is_disabled":true,"rental_uris":{"android":"levelo://app?vid=d531adb9-2312-4b34-a321-08be0fda69cf","ios":"levelo://app?vid=d531adb9-2312-4b34-a321-08be0fda69cf"},"vehicle_type_id":"4","last_reported":1737803249,"current_range_meters":0,"station_id":"","pricing_plan_id":"cebpf4jnsgd1na2vs0mg"},{"bike_id":"e8f76295-c7cd-438f-b3bd-4940d4322532","system_id":"levelo_inurba_marseille","lat":43.27424,"lon":5.39422,"is_reserved":false,"is_disabled":false,"rental_uris":{"android":"levelo://app?vid=e8f76295-c7cd-438f-b3bd-4940d4322532","ios":"levelo://app?vid=e8f76295-c7cd-438f-b3bd-4940d4322532"},"vehicle_type_id":"4","last_reported":1737803249,"current_range_meters":31200,"station_id":"ce4bhdp2rcd13ifvqf20","pricing_plan_id":"cebpf4jnsgd1na2vs0mg"},{"bike_id":"24d59ec5-cf08-4fae-9a26-710e13f73f2f","system_id":"levelo_inurba_marseille","lat":43.28418,"lon":5.34984,"is_reserved":false,"is_disabled":true,"rental_uris":{"android":"levelo://app?vid=24d59ec5-cf08-4fae-9a26-710e13f73f2f","ios":"levelo://app?vid=24d59ec5-cf08-4fae-9a26-710e13f73f2f"},"vehicle_type_id":"4","last_reported":1737803249,"current_range_meters":1600,"station_id":"ce4bhbh2rcd13ifvqepg","pricing_plan_id":"cebpf4jnsgd1na2vs0mg"},{"bike_id":"95144118-884f-4827-9dc4-395be0b57793","system_id":"levelo_inurba_marseille","lat":43.317383,"lon":5.423922,"is_reserved":false,"is_disabled":false,"rental_uris":{"android":"levelo://app?vid=95144118-884f-4827-9dc4-395be0b57793","ios":"levelo://app?vid=95144118-884f-4827-9dc4-395be0b57793"},"vehicle_type_id":"4","last_reported":1737803249,"current_range_meters":38800,"station_id":"ce4bhp92rcd13ifvqhbg","pricing_plan_id":"cebpf4jnsgd1na2vs0mg"},{"bike_id":"5c995afd-2cd1-49c1-8bf9-110c6b679d80","system_id":"levelo_inurba_marseille","lat":43.24077,"lon":5.37747,"is_reserved":false,"is_disabled":false,"rental_uris":{"android":"levelo://app?vid=5c995afd-2cd1-49c1-8bf9-110c6b679d80","ios":"levelo://app?vid=5c995afd-2cd1-49c1-8bf9-110c6b679d80"},"vehicle_type_id":"4","last_reported":1737803249,"current_range_meters":8400,"station_id":"ce4bhnp2rcd13ifvqgvg","pricing_plan_id":"cebpf4jnsgd1na2vs0mg"},{"bike_id":"adce305b-52ab-48ed-b869-88a382f8d738","system_id":"levelo_inurba_marseille","lat":43.24044,"lon":5.37771,"is_reserved":false,"is_disabled":false,"rental_uris":{"android":"levelo://app?vid=adce305b-52ab-48ed-b869-88a382f8d738","ios":"levelo://app?vid=adce305b-52ab-48ed-b869-88a382f8d738"},"vehicle_type_id":"4","last_reported":1737803249,"current_range_meters":28800,"station_id":"ce4bhnp2rcd13ifvqgvg","pricing_plan_id":"cebpf4jnsgd1na2vs0mg"},{"bike_id":"b64d880e-4583-44f0-8c16-3495e23cf3e5","system_id":"levelo_inurba_marseille","lat":43.29901,"lon":5.43657,"is_reserved":false,"is_disabled":false,"rental_uris":{"android":"levelo://app?vid=b64d880e-4583-44f0-8c16-3495e23cf3e5","ios":"levelo://app?vid=b64d880e-4583-44f0-8c16-3495e23cf3e5"},"vehicle_type_id":"4","last_reported":1737803249,"current_range_meters":24400,"station_id":"ce4bhpp2rcd13ifvqhfg","pricing_plan_id":"cebpf4jnsgd1na2vs0mg"},{"bike_id":"c4215d0c-e91d-4ebd-b4a6-2817e994cc3b","system_id":"levelo_inurba_marseille","lat":43.30891,"lon":5.39644,"is_reserved":false,"is_disabled":false,"rental_uris":{"android":"levelo://app?vid=c4215d0c-e91d-4ebd-b4a6-2817e994cc3b","ios":"levelo://app?vid=c4215d0c-e91d-4ebd-b4a6-2817e994cc3b"},"vehicle_type_id":"4","last_reported":1737803249,"current_range_meters":38000,"station_id":"ce4bh012rcd13ifvqcv0","pricing_plan_id":"cebpf4jnsgd1na2vs0mg"},{"bike_id":"b873533f-943b-4033-a86d-9d99128fa59a","system_id":"levelo_inurba_marseille","lat":43.32474,"lon":5.36587,"is_reserved":false,"is_disabled":false,"rental_uris":{"android":"levelo://app?vid=b873533f-943b-4033-a86d-9d99128fa59a","ios":"levelo://app?vid=b873533f-943b-4033-a86d-9d99128fa59a"},"vehicle_type_id":"4","last_reported":1737803249,"current_range_meters":38800,"station_id":"ce4bhs12rcd13ifvqhvg","pricing_plan_id":"cebpf4jnsgd1na2vs0mg"},{"bike_id":"7638ad45-529e-4bfe-9f79-5ab814cef81f","system_id":"levelo_inurba_marseille","lat":43.29284,"lon":5.37446,"is_reserved":false,"is_disabled":false,"rental_uris":{"android":"levelo://app?vid=7638ad45-529e-4bfe-9f79-5ab814cef81f","ios":"levelo://app?vid=7638ad45-529e-4bfe-9f79-5ab814cef81f"},"vehicle_type_id":"4","last_reported":1737803249,"current_range_meters":35200,"station_id":"ce4bgi12rcd13ifvqb70","pricing_plan_id":"cebpf4jnsgd1na2vs0mg"},{"bike_id":"da6f0d88-eb3f-497f-8a44-2a9b21763e58","system_id":"levelo_inurba_marseille","lat":43.28435,"lon":5.39188,"is_reserved":false,"is_disabled":false,"rental_uris":{"android":"levelo://app?vid=da6f0d88-eb3f-497f-8a44-2a9b21763e58","ios":"levelo://app?vid=da6f0d88-eb3f-497f-8a44-2a9b21763e58"},"vehicle_type_id":"4","last_reported":1737803249,"current_range_meters":24400,"station_id":"ce4bhoh2rcd13ifvqh5g","pricing_plan_id":"cebpf4jnsgd1na2vs0mg"},{"bike_id":"f80d01d0-a712-409a-8ab3-b8a044fec525","system_id":"levelo_inurba_marseille","lat":43.25864,"lon":5.39896,"is_reserved":false,"is_disabled":true,"rental_uris":{"android":"levelo://app?vid=f80d01d0-a712-409a-8ab3-b8a044fec525","ios":"levelo://app?vid=f80d01d0-a712-409a-8ab3-b8a044fec525"},"vehicle_type_id":"4","last_reported":1737803249,"current_range_meters":38400,"station_id":"ce4bhl92rcd13ifvqghg","pricing_plan_id":"cebpf4jnsgd1na2vs0mg"},{"bike_id":"375c54aa-d8c3-44cb-9610-967b44886ba6","system_id":"levelo_inurba_marseille","lat":43.33595,"lon":5.40984,"is_reserved":false,"is_disabled":false,"rental_uris":{"android":"levelo://app?vid=375c54aa-d8c3-44cb-9610-967b44886ba6","ios":"levelo://app?vid=375c54aa-d8c3-44cb-9610-967b44886ba6"},"vehicle_type_id":"4","last_reported":1737803249,"current_range_meters":38800,"station_id":"ce4bhqh2rcd13ifvqhmg","pricing_plan_id":"cebpf4jnsgd1na2vs0mg"},{"bike_id":"c247f553-13aa-42b9-b7a1-50cab9f3e743","system_id":"levelo_inurba_marseille","lat":43.29306,"lon":5.37471,"is_reserved":false,"is_disabled":false,"rental_uris":{"android":"levelo://app?vid=c247f553-13aa-42b9-b7a1-50cab9f3e743","ios":"levelo://app?vid=c247f553-13aa-42b9-b7a1-50cab9f3e743"},"vehicle_type_id":"4","last_reported":1737803249,"current_range_meters":31200,"station_id":"ce4bgi12rcd13ifvqb70","pricing_plan_id":"cebpf4jnsgd1na2vs0mg"},{"bike_id":"650a8f3d-7bca-4df0-8702-495a36654a5d","system_id":"levelo_inurba_marseille","lat":43.33799,"lon":5.37424,"is_reserved":false,"is_disabled":false,"rental_uris":{"android":"levelo://app?vid=650a8f3d-7bca-4df0-8702-495a36654a5d","ios":"levelo://app?vid=650a8f3d-7bca-4df0-8702-495a36654a5d"},"vehicle_type_id":"4","last_reported":1737803249,"current_range_meters":37600,"station_id":"","pricing_plan_id":"cebpf4jnsgd1na2vs0mg"},{"bike_id":"4a8e5a04-1d9a-4c99-b01a-4cd4be987ae4","system_id":"levelo_inurba_marseille","lat":43.28495,"lon":5.38418,"is_reserved":false,"is_disabled":false,"rental_uris":{"android":"levelo://app?vid=4a8e5a04-1d9a-4c99-b01a-4cd4be987ae4","ios":"levelo://app?vid=4a8e5a04-1d9a-4c99-b01a-4cd4be987ae4"},"vehicle_type_id":"4","last_reported":1737803249,"current_range_meters":30800,"station_id":"ce4bh512rcd13ifvqe3g","pricing_plan_id":"cebpf4jnsgd1na2vs0mg"},{"bike_id":"0da05c91-b4db-4424-93fa-80e05b294f90","system_id":"levelo_inurba_marseille","lat":43.33011,"lon":5.39062,"is_reserved":false,"is_disabled":false,"rental_uris":{"android":"levelo://app?vid=0da05c91-b4db-4424-93fa-80e05b294f90","ios":"levelo://app?vid=0da05c91-b4db-4424-93fa-80e05b294f90"},"vehicle_type_id":"4","last_reported":1737803249,"current_range_meters":38000,"station_id":"ce4bhr92rcd13ifvqhrg","pricing_plan_id":"cebpf4jnsgd1na2vs0mg"},{"bike_id":"aaa4ac11-aea4-4483-bae2-eeb7f46ebbee","system_id":"levelo_inurba_marseille","lat":43.3186,"lon":5.4068,"is_reserved":false,"is_disabled":false,"rental_uris":{"android":"levelo://app?vid=aaa4ac11-aea4-4483-bae2-eeb7f46ebbee","ios":"levelo://app?vid=aaa4ac11-aea4-4483-bae2-eeb7f46ebbee"},"vehicle_type_id":"4","last_reported":1737803249,"current_range_meters":38800,"station_id":"ce4bhq12rcd13ifvqhig","pricing_plan_id":"cebpf4jnsgd1na2vs0mg"},{"bike_id":"7b8c16d4-910b-47df-b68a-beeb1e122b03","system_id":"levelo_inurba_marseille","lat":43.25819,"lon":5.39436,"is_reserved":false,"is_disabled":false,"rental_uris":{"android":"levelo://app?vid=7b8c16d4-910b-47df-b68a-beeb1e122b03","ios":"levelo://app?vid=7b8c16d4-910b-47df-b68a-beeb1e122b03"},"vehicle_type_id":"4","last_reported":1737803249,"current_range_meters":38800,"station_id":"ce4bhip2rcd13ifvqft0","pricing_plan_id":"cebpf4jnsgd1na2vs0mg"},{"bike_id":"f9d1568c-97ef-44c7-b3b2-fce509d6d87a","system_id":"levelo_inurba_marseille","lat":43.28415,"lon":5.37534,"is_reserved":false,"is_disabled":true,"rental_uris":{"android":"levelo://app?vid=f9d1568c-97ef-44c7-b3b2-fce509d6d87a","ios":"levelo://app?vid=f9d1568c-97ef-44c7-b3b2-fce509d6d87a"},"vehicle_type_id":"4","last_reported":1737803249,"current_range_meters":11200,"station_id":"ce4bh412rcd13ifvqds0","pricing_plan_id":"cebpf4jnsgd1na2vs0mg"},{"bike_id":"1a1c0516-8807-4f3d-a05c-1db903123d82","system_id":"levelo_inurba_marseille","lat":43.28418,"lon":5.34994,"is_reserved":false,"is_disabled":false,"rental_uris":{"android":"levelo://app?vid=1a1c0516-8807-4f3d-a05c-1db903123d82","ios":"levelo://app?vid=1a1c0516-8807-4f3d-a05c-1db903123d82"},"vehicle_type_id":"4","last_reported":1737803249,"current_range_meters":28000,"station_id":"ce4bhbh2rcd13ifvqepg","pricing_plan_id":"cebpf4jnsgd1na2vs0mg"},{"bike_id":"5c60813d-a0ef-41f8-a306-561c923038e4","system_id":"levelo_inurba_marseille","lat":43.29795,"lon":5.38102,"is_reserved":false,"is_disabled":false,"rental_uris":{"android":"levelo://app?vid=5c60813d-a0ef-41f8-a306-561c923038e4","ios":"levelo://app?vid=5c60813d-a0ef-41f8-a306-561c923038e4"},"vehicle_type_id":"4","last_reported":1737803249,"current_range_meters":36000,"station_id":"ce4bgip2rcd13ifvqbb0","pricing_plan_id":"cebpf4jnsgd1na2vs0mg"},{"bike_id":"6b89d16e-60c7-4aaa-8a57-60bcd18b1d48","system_id":"levelo_inurba_marseille","lat":43.30461,"lon":5.37924,"is_reserved":false,"is_disabled":false,"rental_uris":{"android":"levelo://app?vid=6b89d16e-60c7-4aaa-8a57-60bcd18b1d48","ios":"levelo://app?vid=6b89d16e-60c7-4aaa-8a57-60bcd18b1d48"},"vehicle_type_id":"4","last_reported":1737803249,"current_range_meters":39200,"station_id":"ce4bgup2rcd13ifvqcn0","pricing_plan_id":"cebpf4jnsgd1na2vs0mg"},{"bike_id":"c5c02b1f-c65c-4602-a2e2-52574de72ad2","system_id":"levelo_inurba_marseille","lat":43.28836,"lon":5.35865,"is_reserved":false,"is_disabled":false,"rental_uris":{"android":"levelo://app?vid=c5c02b1f-c65c-4602-a2e2-52574de72ad2","ios":"levelo://app?vid=c5c02b1f-c65c-4602-a2e2-52574de72ad2"},"vehicle_type_id":"4","last_reported":1737803249,"current_range_meters":36800,"station_id":"ce4bhb12rcd13ifvqem0","pricing_plan_id":"cebpf4jnsgd1na2vs0mg"},{"bike_id":"576b8657-d5e2-4d23-9b1e-461b2180cd28","system_id":"levelo_inurba_marseille","lat":43.22934,"lon":5.35401,"is_reserved":false,"is_disabled":false,"rental_uris":{"android":"levelo://app?vid=576b8657-d5e2-4d23-9b1e-461b2180cd28","ios":"levelo://app?vid=576b8657-d5e2-4d23-9b1e-461b2180cd28"},"vehicle_type_id":"4","last_reported":1737803249,"current_range_meters":39200,"station_id":"cpo3532slgdg3j2ikp40","pricing_plan_id":"cebpf4jnsgd1na2vs0mg"},{"bike_id":"9f9d4442-89fe-47bc-91e0-b5e6dd1efdea","system_id":"levelo_inurba_marseille","lat":43.29824,"lon":5.36302,"is_reserved":false,"is_disabled":false,"rental_uris":{"android":"levelo://app?vid=9f9d4442-89fe-47bc-91e0-b5e6dd1efdea","ios":"levelo://app?vid=9f9d4442-89fe-47bc-91e0-b5e6dd1efdea"},"vehicle_type_id":"4","last_reported":1737803249,"current_range_meters":38800,"station_id":"ce4bgpp2rcd13ifvqc3g","pricing_plan_id":"cebpf4jnsgd1na2vs0mg"},{"bike_id":"d7950a19-e799-4e9c-b7a4-d2d95c13a3c8","system_id":"levelo_inurba_marseille","lat":43.30152,"lon":5.38095,"is_reserved":false,"is_disabled":false,"rental_uris":{"android":"levelo://app?vid=d7950a19-e799-4e9c-b7a4-d2d95c13a3c8","ios":"levelo://app?vid=d7950a19-e799-4e9c-b7a4-d2d95c13a3c8"},"vehicle_type_id":"4","last_reported":1737803249,"current_range_meters":36000,"station_id":"ce4bgjp2rcd13ifvqbh0","pricing_plan_id":"cebpf4jnsgd1na2vs0mg"},{"bike_id":"ea2b4098-86a4-4a41-b790-9ff692b4de5b","system_id":"levelo_inurba_marseille","lat":43.26923,"lon":5.38964,"is_reserved":false,"is_disabled":false,"rental_uris":{"android":"levelo://app?vid=ea2b4098-86a4-4a41-b790-9ff692b4de5b","ios":"levelo://app?vid=ea2b4098-86a4-4a41-b790-9ff692b4de5b"},"vehicle_type_id":"4","last_reported":1737803249,"current_range_meters":38800,"station_id":"ce4bhhh2rcd13ifvqfl0","pricing_plan_id":"cebpf4jnsgd1na2vs0mg"},{"bike_id":"b3185952-1e94-40ab-aca7-3898db7d50f0","system_id":"levelo_inurba_marseille","lat":43.29712,"lon":5.37703,"is_reserved":false,"is_disabled":false,"rental_uris":{"android":"levelo://app?vid=b3185952-1e94-40ab-aca7-3898db7d50f0","ios":"levelo://app?vid=b3185952-1e94-40ab-aca7-3898db7d50f0"},"vehicle_type_id":"4","last_reported":1737803249,"current_range_meters":39200,"station_id":"ce4bgkh2rcd13ifvqbl0","pricing_plan_id":"cebpf4jnsgd1na2vs0mg"},