{"last_updated":1731262205,"ttl":60,"version":"2.2","data":{"bikes":[{"bike_id":"b9390dc2-cef2-4d88-862e-83d4dcf30a7e","system_id":"levelo_inurba_marseille","lat":43.27814,"lon":5.40716,"is_reserved":false,"is_disabled":false,"rental_uris":{"android":"levelo://app?vid=b9390dc2-cef2-4d88-862e-83d4dcf30a7e","ios":"levelo://app?vid=b9390dc2-cef2-4d88-862e-83d4dcf30a7e"},"vehicle_type_id":"4","last_reported":1731262205,"current_range_meters":30000,"station_id":"ce4bhnh2rcd13ifvqgtg","pricing_plan_id":"cebpf4jnsgd1na2vs0mg"},{"bike_id":"55f338da-564d-4339-bcb5-5d0a4b68c4e6","system_id":"levelo_inurba_marseille","lat":43.32271,"lon":5.38663,"is_reserved":false,"is_disabled":false,"rental_uris":{"android":"levelo://app?vid=55f338da-564d-4339-bcb5-5d0a4b68c4e6","ios":"levelo://app?vid=55f338da-564d-4339-bcb5-5d0a4b68c4e6"},"vehicle_type_id":"4","last_reported":1731262205,"current_range_meters":6800,"station_id":"","pricing_plan_id":"cebpf4jnsgd1na2vs0mg"},{"bike_id":"a4ad24aa-c3a5-40e5-ac53-cee94050020f","system_id":"levelo_inurba_marseille","lat":43.30304,"lon":5.39218,"is_reserved":false,"is_disabled":false,"rental_uris":{"android":"levelo://app?vid=a4ad24aa-c3a5-40e5-ac53-cee94050020f","ios":"levelo://app?vid=a4ad24aa-c3a5-40e5-ac53-cee94050020f"},"vehicle_type_id":"4","last_reported":1731262205,"current_range_meters":8800,"station_id":"ce4bgkh2rcd13ifvqbk0","pricing_plan_id":"cebpf4jnsgd1na2vs0mg"},{"bike_id":"f903ea29-30fe-46ae-8eeb-7a1975d030a7","system_id":"levelo_inurba_marseille","lat":43.31692,"lon":5.37739,"is_reserved":false,"is_disabled":false,"rental_uris":{"android":"levelo://app?vid=f903ea29-30fe-46ae-8eeb-7a1975d030a7","ios":"levelo://app?vid=f903ea29-30fe-46ae-8eeb-7a1975d030a7"},"vehicle_type_id":"4","last_reported":1731262205,"current_range_meters":23200,"station_id":"ce4bgth2rcd13ifvqch0","pricing_plan_id":"cebpf4jnsgd1na2vs0mg"},{"bike_id":"6fe6b32f-11af-4595-87a6-3b78335d8002","system_id":"levelo_inurba_marseille","lat":43.29308,"lon":5.37452,"is_reserved":false,"is_disabled":false,"rental_uris":{"android":"levelo://app?vid=6fe6b32f-11af-4595-87a6-3b78335d8002","ios":"levelo://app?vid=6fe6b32f-11af-4595-87a6-3b78335d8002"},"vehicle_type_id":"4","last_reported":1731262205,"current_range_meters":34000,"station_id":"ce4bgi12rcd13ifvqb70","pricing_plan_id":"cebpf4jnsgd1na2vs0mg"},{"bike_id":"5daf7e81-adca-4c69-ac49-7439dac41928","system_id":"levelo_inurba_marseille","lat":43.29551,"lon":5.423014,"is_reserved":false,"is_disabled":false,"rental_uris":{"android":"levelo://app?vid=5daf7e81-adca-4c69-ac49-7439dac41928","ios":"levelo://app?vid=5daf7e81-adca-4c69-ac49-7439dac41928"},"vehicle_type_id":"4","last_reported":1731262205,"current_range_meters":38800,"station_id":"ce4bhph2rcd13ifvqhdg","pricing_plan_id":"cebpf4jnsgd1na2vs0mg"},{"bike_id":"83df5554-02f7-42a9-8c5e-d00b9ca8b73e","system_id":"levelo_inurba_marseille","lat":43.29524,"lon":5.38545,"is_reserved":false,"is_disabled":false,"rental_uris":{"android":"levelo://app?vid=83df5554-02f7-42a9-8c5e-d00b9ca8b73e","ios":"levelo://app?vid=83df5554-02f7-42a9-8c5e-d00b9ca8b73e"},"vehicle_type_id":"4","last_reported":1731262205,"current_range_meters":36400,"station_id":"ce4bgih2rcd13ifvqba0","pricing_plan_id":"cebpf4jnsgd1na2vs0mg"},{"bike_id":"05c60873-e84e-4b6b-9e01-c73375d86b0e","system_id":"levelo_inurba_marseille","lat":43.265,"lon":5.39533,"is_reserved":false,"is_disabled":false,"rental_uris":{"android":"levelo://app?vid=05c60873-e84e-4b6b-9e01-c73375d86b0e","ios":"levelo://app?vid=05c60873-e84e-4b6b-9e01-c73375d86b0e"},"vehicle_type_id":"4","last_reported":1731262205,"current_range_meters":10000,"station_id":"ce4bhi12rcd13ifvqfq0","pricing_plan_id":"cebpf4jnsgd1na2vs0mg"},{"bike_id":"f89d3613-8002-46d6-8a93-1bc029531b76","system_id":"levelo_inurba_marseille","lat":43.24807,"lon":5.37457,"is_reserved":false,"is_disabled":false,"rental_uris":{"android":"levelo://app?vid=f89d3613-8002-46d6-8a93-1bc029531b76","ios":"levelo://app?vid=f89d3613-8002-46d6-8a93-1bc029531b76"},"vehicle_type_id":"4","last_reported":1731262205,"current_range_meters":40000,"station_id":"ce4bhgh2rcd13ifvqfb0","pricing_plan_id":"cebpf4jnsgd1na2vs0mg"},{"bike_id":"9ca5109b-884e-4b38-968b-6187682f4e1a","system_id":"levelo_inurba_marseille","lat":43.28942,"lon":5.39628,"is_reserved":false,"is_disabled":false,"rental_uris":{"android":"levelo://app?vid=9ca5109b-884e-4b38-968b-6187682f4e1a","ios":"levelo://app?vid=9ca5109b-884e-4b38-968b-6187682f4e1a"},"vehicle_type_id":"4","last_reported":1731262205,"current_range_meters":30000,"station_id":"ce4bh3h2rcd13ifvqdn0","pricing_plan_id":"cebpf4jnsgd1na2vs0mg"},{"bike_id":"a2910012-5088-4e99-9580-f2fb3b03a2a4","system_id":"levelo_inurba_marseille","lat":43.24806,"lon":5.37457,"is_reserved":false,"is_disabled":false,"rental_uris":{"android":"levelo://app?vid=a2910012-5088-4e99-9580-f2fb3b03a2a4","ios":"levelo://app?vid=a2910012-5088-4e99-9580-f2fb3b03a2a4"},"vehicle_type_id":"4","last_reported":1731262205,"current_range_meters":9600,"station_id":"ce4bhgh2rcd13ifvqfb0","pricing_plan_id":"cebpf4jnsgd1na2vs0mg"},{"bike_id":"5defef7b-a9fb-4a94-9d83-56c6a1336674","system_id":"levelo_inurba_marseille","lat":43.29359,"lon":5.37841,"is_reserved":false,"is_disabled":false,"rental_uris":{"android":"levelo://app?vid=5defef7b-a9fb-4a94-9d83-56c6a1336674","ios":"levelo://app?vid=5defef7b-a9fb-4a94-9d83-56c6a1336674"},"vehicle_type_id":"4","last_reported":1731262205,"current_range_meters":26800,"station_id":"ce4bgjh2rcd13ifvqbf0","pricing_plan_id":"cebpf4jnsgd1na2vs0mg"},{"bike_id":"ebdd5514-8912-4bbf-bad0-44a84240c4d1","system_id":"levelo_inurba_marseille","lat":43.2954,"lon":5.38539,"is_reserved":false,"is_disabled":false,"rental_uris":{"android":"levelo://app?vid=ebdd5514-8912-4bbf-bad0-44a84240c4d1","ios":"levelo://app?vid=ebdd5514-8912-4bbf-bad0-44a84240c4d1"},"vehicle_type_id":"4","last_reported":1731262205,"current_range_meters":7200,"station_id":"ce4bgih2rcd13ifvqba0","pricing_plan_id":"cebpf4jnsgd1na2vs0mg"},{"bike_id":"d806e446-2649-42e4-ac24-46cda0b36f87","system_id":"levelo_inurba_marseille","lat":43.302094,"lon":5.394459,"is_reserved":false,"is_disabled":false,"rental_uris":{"android":"levelo://app?vid=d806e446-2649-42e4-ac24-46cda0b36f87","ios":"levelo://app?vid=d806e446-2649-42e4-ac24-46cda0b36f87"},"vehicle_type_id":"4","last_reported":1731262205,"current_range_meters":19200,"station_id":"ce4bh0p2rcd13ifvqd70","pricing_plan_id":"cebpf4jnsgd1na2vs0mg"},{"bike_id":"0f7096b7-7e79-4d84-941d-273cc5588563","system_id":"levelo_inurba_marseille","lat":43.29416,"lon":5.38624,"is_reserved":false,"is_disabled":false,"rental_uris":{"android":"levelo://app?vid=0f7096b7-7e79-4d84-941d-273cc5588563","ios":"levelo://app?vid=0f7096b7-7e79-4d84-941d-273cc5588563"},"vehicle_type_id":"4","last_reported":1731262205,"current_range_meters":39200,"station_id":"ce4bh2h2rcd13ifvqdh0","pricing_plan_id":"cebpf4jnsgd1na2vs0mg"},{"bike_id":"db549fbe-4df3-4431-a201-739bea940676","system_id":"levelo_inurba_marseille","lat":43.29582,"lon":5.36742,"is_reserved":false,"is_disabled":false,"rental_uris":{"android":"levelo://app?vid=db549fbe-4df3-4431-a201-739bea940676","ios":"levelo://app?vid=db549fbe-4df3-4431-a201-739bea940676"},"vehicle_type_id":"4","last_reported":1731262205,"current_range_meters":8400,"station_id":"ce4bgph2rcd13ifvqc2g","pricing_plan_id":"cebpf4jnsgd1na2vs0mg"},{"bike_id":"ba5b1cf6-ad48-4893-b24b-8d8e2fa0a860","system_id":"levelo_inurba_marseille","lat":43.29304,"lon":5.37191,"is_reserved":false,"is_disabled":false,"rental_uris":{"android":"levelo://app?vid=ba5b1cf6-ad48-4893-b24b-8d8e2fa0a860","ios":"levelo://app?vid=ba5b1cf6-ad48-4893-b24b-8d8e2fa0a860"},"vehicle_type_id":"4","last_reported":1731262205,"current_range_meters":31200,"station_id":"ce4bgh92rcd13ifvqb40","pricing_plan_id":"cebpf4jnsgd1na2vs0mg"},{"bike_id":"7fa33a45-2803-4b62-a0df-a4ec662ac338","system_id":"levelo_inurba_marseille","lat":43.29601,"lon":5.38104,"is_reserved":false,"is_disabled":false,"rental_uris":{"android":"levelo://app?vid=7fa33a45-2803-4b62-a0df-a4ec662ac338","ios":"levelo://app?vid=7fa33a45-2803-4b62-a0df-a4ec662ac338"},"vehicle_type_id":"4","last_reported":1731262205,"current_range_meters":20800,"station_id":"ce4bgl12rcd13ifvqbo0","pricing_plan_id":"cebpf4jnsgd1na2vs0mg"},{"bike_id":"721ffa07-5205-4352-bf52-79247567bace","system_id":"levelo_inurba_marseille","lat":43.24821,"lon":5.37466,"is_reserved":false,"is_disabled":false,"rental_uris":{"android":"levelo://app?vid=721ffa07-5205-4352-bf52-79247567bace","ios":"levelo://app?vid=721ffa07-5205-4352-bf52-79247567bace"},"vehicle_type_id":"4","last_reported":1731262205,"current_range_meters":38800,"station_id":"ce4bhgh2rcd13ifvqfb0","pricing_plan_id":"cebpf4jnsgd1na2vs0mg"},{"bike_id":"53842b0b-662f-45de-89f4-2ac07b1eadcf","system_id":"levelo_inurba_marseille","lat":43.28113,"lon":5.37837,"is_reserved":false,"is_disabled":false,"rental_uris":{"android":"levelo://app?vid=53842b0b-662f-45de-89f4-2ac07b1eadcf","ios":"levelo://app?vid=53842b0b-662f-45de-89f4-2ac07b1eadcf"},"vehicle_type_id":"4","last_reported":1731262205,"current_range_meters":24000,"station_id":"ce4bha12rcd13ifvqee0","pricing_plan_id":"cebpf4jnsgd1na2vs0mg"},{"bike_id":"25f37a3d-1956-47fa-aa1d-0bc63e78689f","system_id":"levelo_inurba_marseille","lat":43.31335,"lon":5.39688,"is_reserved":false,"is_disabled":false,"rental_uris":{"android":"levelo://app?vid=25f37a3d-1956-47fa-aa1d-0bc63e78689f","ios":"levelo://app?vid=25f37a3d-1956-47fa-aa1d-0bc63e78689f"},"vehicle_type_id":"4","last_reported":1731262205,"current_range_meters":24400,"station_id":"ce4bgvp2rcd13ifvqcu0","pricing_plan_id":"cebpf4jnsgd1na2vs0mg"},{"bike_id":"9835df94-8055-4e8d-96aa-d736a896759a","system_id":"levelo_inurba_marseille","lat":43.313859,"lon":5.379735,"is_reserved":false,"is_disabled":false,"rental_uris":{"android":"levelo://app?vid=9835df94-8055-4e8d-96aa-d736a896759a","ios":"levelo://app?vid=9835df94-8055-4e8d-96aa-d736a896759a"},"vehicle_type_id":"4","last_reported":1731262205,"current_range_meters":38800,"station_id":"","pricing_plan_id":"cebpf4jnsgd1na2vs0mg"},{"bike_id":"b29b7dc2-b5bc-41d5-94e0-ae19a421e7db","system_id":"levelo_inurba_marseille","lat":43.290458,"lon":5.359289,"is_reserved":false,"is_disabled":false,"rental_uris":{"android":"levelo://app?vid=b29b7dc2-b5bc-41d5-94e0-ae19a421e7db","ios":"levelo://app?vid=b29b7dc2-b5bc-41d5-94e0-ae19a421e7db"},"vehicle_type_id":"4","last_reported":1731262205,"current_range_meters":8400,"station_id":"ce4bha92rcd13ifvqeg0","pricing_plan_id":"cebpf4jnsgd1na2vs0mg"},{"bike_id":"57fc19b1-a330-475a-91d8-5f9341f4d0f8","system_id":"levelo_inurba_marseille","lat":43.27505,"lon":5.42445,"is_reserved":false,"is_disabled":false,"rental_uris":{"android":"levelo://app?vid=57fc19b1-a330-475a-91d8-5f9341f4d0f8","ios":"levelo://app?vid=57fc19b1-a330-475a-91d8-5f9341f4d0f8"},"vehicle_type_id":"4","last_reported":1731262205,"current_range_meters":19200,"station_id":"ce4bhn92rcd13ifvqgrg","pricing_plan_id":"cebpf4jnsgd1na2vs0mg"},{"bike_id":"c221efe7-efcb-49b8-a1b0-1dd8d171a453","system_id":"levelo_inurba_marseille","lat":43.33723,"lon":5.39194,"is_reserved":false,"is_disabled":false,"rental_uris":{"android":"levelo://app?vid=c221efe7-efcb-49b8-a1b0-1dd8d171a453","ios":"levelo://app?vid=c221efe7-efcb-49b8-a1b0-1dd8d171a453"},"vehicle_type_id":"4","last_reported":1731262205,"current_range_meters":38800,"station_id":"ce4bhr92rcd13ifvqhsg","pricing_plan_id":"cebpf4jnsgd1na2vs0mg"},{"bike_id":"69b05dc1-5376-472f-a35d-b50c76a10800","system_id":"levelo_inurba_marseille","lat":43.24808,"lon":5.37457,"is_reserved":false,"is_disabled":false,"rental_uris":{"android":"levelo://app?vid=69b05dc1-5376-472f-a35d-b50c76a10800","ios":"levelo://app?vid=69b05dc1-5376-472f-a35d-b50c76a10800"},"vehicle_type_id":"4","last_reported":1731262205,"current_range_meters":39200,"station_id":"ce4bhgh2rcd13ifvqfb0","pricing_plan_id":"cebpf4jnsgd1na2vs0mg"},{"bike_id":"7a412987-a6a4-45b4-b4ec-7609753dd753","system_id":"levelo_inurba_marseille","lat":43.2481,"lon":5.37461,"is_reserved":false,"is_disabled":false,"rental_uris":{"android":"levelo://app?vid=7a412987-a6a4-45b4-b4ec-7609753dd753","ios":"levelo://app?vid=7a412987-a6a4-45b4-b4ec-7609753dd753"},"vehicle_type_id":"4","last_reported":1731262205,"current_range_meters":38800,"station_id":"ce4bhgh2rcd13ifvqfb0","pricing_plan_id":"cebpf4jnsgd1na2vs0mg"},{"bike_id":"835bbb3e-620b-40eb-b47f-2007fd6402e0","system_id":"levelo_inurba_marseille","lat":43.29418,"lon":5.38621,"is_reserved":false,"is_disabled":false,"rental_uris":{"android":"levelo://app?vid=835bbb3e-620b-40eb-b47f-2007fd6402e0","ios":"levelo://app?vid=835bbb3e-620b-40eb-b47f-2007fd6402e0"},"vehicle_type_id":"4","last_reported":1731262205,"current_range_meters":31200,"station_id":"ce4bh2h2rcd13ifvqdh0","pricing_plan_id":"cebpf4jnsgd1na2vs0mg"},{"bike_id":"e0d22190-a4d7-4f32-8ec7-4ab53ce7d64f","system_id":"levelo_inurba_marseille","lat":43.31497,"lon":5.37293,"is_reserved":false,"is_disabled":false,"rental_uris":{"android":"levelo://app?vid=e0d22190-a4d7-4f32-8ec7-4ab53ce7d64f","ios":"levelo://app?vid=e0d22190-a4d7-4f32-8ec7-4ab53ce7d64f"},"vehicle_type_id":"4","last_reported":1731262205,"current_range_meters":17600,"station_id":"ce4bgt12rcd13ifvqcd0","pricing_plan_id":"cebpf4jnsgd1na2vs0mg"},{"bike_id":"ddf3aab2-4bf1-4be5-8d86-9a22f8f91d27","system_id":"levelo_inurba_marseille","lat":43.302185,"lon":5.394752,"is_reserved":false,"is_disabled":false,"rental_uris":{"android":"levelo://app?vid=ddf3aab2-4bf1-4be5-8d86-9a22f8f91d27","ios":"levelo://app?vid=ddf3aab2-4bf1-4be5-8d86-9a22f8f91d27"},"vehicle_type_id":"4","last_reported":1731262205,"current_range_meters":28400,"station_id":"ce4bh0p2rcd13ifvqd80","pricing_plan_id":"cebpf4jnsgd1na2vs0mg"},{"bike_id":"6021a413-f234-4543-9e2c-041cafeef6a9","system_id":"levelo_inurba_marseille","lat":43.2956,"lon":5.42284,"is_reserved":false,"is_disabled":false,"rental_uris":{"android":"levelo://app?vid=6021a413-f234-4543-9e2c-041cafeef6a9","ios":"levelo://app?vid=6021a413-f234-4543-9e2c-041cafeef6a9"},"vehicle_type_id":"4","last_reported":1731262205,"current_range_meters":30400,"station_id":"ce4bhph2rcd13ifvqhdg","pricing_plan_id":"cebpf4jnsgd1na2vs0mg"},{"bike_id":"4e7425b2-c10a-45a9-a9bd-9bfb7583ac19","system_id":"levelo_inurba_marseille","lat":43.295685,"lon":5.37569,"is_reserved":false,"is_disabled":false,"rental_uris":{"android":"levelo://app?vid=4e7425b2-c10a-45a9-a9bd-9bfb7583ac19","ios":"levelo://app?vid=4e7425b2-c10a-45a9-a9bd-9bfb7583ac19"},"vehicle_type_id":"4","last_reported":1731262205,"current_range_meters":23200,"station_id":"ce4bgh92rcd13ifvqb50","pricing_plan_id":"cebpf4jnsgd1na2vs0mg"},{"bike_id":"6128b14c-ca64-4b24-8360-ecca32d0523e","system_id":"levelo_inurba_marseille","lat":43.28476,"lon":5.38423,"is_reserved":false,"is_disabled":false,"rental_uris":{"android":"levelo://app?vid=6128b14c-ca64-4b24-8360-ecca32d0523e","ios":"levelo://app?vid=6128b14c-ca64-4b24-8360-ecca32d0523e"},"vehicle_type_id":"4","last_reported":1731262205,"current_range_meters":8800,"station_id":"ce4bh512rcd13ifvqe3g","pricing_plan_id":"cebpf4jnsgd1na2vs0mg"},{"bike_id":"2972f759-c98e-4fe7-9758-85d215895273","system_id":"levelo_inurba_marseille","lat":43.23957,"lon":5.36627,"is_reserved":false,"is_disabled":false,"rental_uris":{"android":"levelo://app?vid=2972f759-c98e-4fe7-9758-85d215895273","ios":"levelo://app?vid=2972f759-c98e-4fe7-9758-85d215895273"},"vehicle_type_id":"4","last_reported":1731262205,"current_range_meters":35600,"station_id":"ce4bhi12rcd13ifvqfp0","pricing_plan_id":"cebpf4jnsgd1na2vs0mg"},{"bike_id":"31c680b7-ff40-447b-ada7-acb0c7adb910","system_id":"levelo_inurba_marseille","lat":43.300709,"lon":5.399594,"is_reserved":false,"is_disabled":false,"rental_uris":{"android":"levelo://app?vid=31c680b7-ff40-447b-ada7-acb0c7adb910","ios":"levelo://app?vid=31c680b7-ff40-447b-ada7-acb0c7adb910"},"vehicle_type_id":"4","last_reported":1731262205,"current_range_meters":28000,"station_id":"ce4bh0h2rcd13ifvqd40","pricing_plan_id":"cebpf4jnsgd1na2vs0mg"},{"bike_id":"f6329e7b-927c-4da7-b584-d99273efb437","system_id":"levelo_inurba_marseille","lat":43.31233,"lon":5.36863,"is_reserved":false,"is_disabled":false,"rental_uris":{"android":"levelo://app?vid=f6329e7b-927c-4da7-b584-d99273efb437","ios":"levelo://app?vid=f6329e7b-927c-4da7-b584-d99273efb437"},"vehicle_type_id":"4","last_reported":1731262205,"current_range_meters":2800,"station_id":"ce4bgl92rcd13ifvqbq0","pricing_plan_id":"cebpf4jnsgd1na2vs0mg"},{"bike_id":"1098feaa-de84-459b-a862-ebf66fee8cf8","system_id":"levelo_inurba_marseille","lat":43.28273,"lon":5.35071,"is_reserved":false,"is_disabled":false,"rental_uris":{"android":"levelo://app?vid=1098feaa-de84-459b-a862-ebf66fee8cf8","ios":"levelo://app?vid=1098feaa-de84-459b-a862-ebf66fee8cf8"},"vehicle_type_id":"4","last_reported":1731262205,"current_range_meters":4400,"station_id":"ce4bhbp2rcd13ifvqerg","pricing_plan_id":"cebpf4jnsgd1na2vs0mg"},{"bike_id":"9b076279-78e6-4a6f-971d-91280791a498","system_id":"levelo_inurba_marseille","lat":43.29535,"lon":5.38549,"is_reserved":false,"is_disabled":false,"rental_uris":{"android":"levelo://app?vid=9b076279-78e6-4a6f-971d-91280791a498","ios":"levelo://app?vid=9b076279-78e6-4a6f-971d-91280791a498"},"vehicle_type_id":"4","last_reported":1731262205,"current_range_meters":36400,"station_id":"ce4bgih2rcd13ifvqba0","pricing_plan_id":"cebpf4jnsgd1na2vs0mg"},{"bike_id":"28cb546a-4816-40fd-9dad-2a1a86ee499d","system_id":"levelo_inurba_marseille","lat":43.29584,"lon":5.36746,"is_reserved":false,"is_disabled":false,"rental_uris":{"android":"levelo://app?vid=28cb546a-4816-40fd-9dad-2a1a86ee499d","ios":"levelo://app?vid=28cb546a-4816-40fd-9dad-2a1a86ee499d"},"vehicle_type_id":"4","last_reported":1731262205,"current_range_meters":8000,"station_id":"ce4bgph2rcd13ifvqc2g","pricing_plan_id":"cebpf4jnsgd1na2vs0mg"},{"bike_id":"b80be36e-9437-4028-9824-fcb52e24e5c8","system_id":"levelo_inurba_marseille","lat":43.29571,"lon":5.39977,"is_reserved":false,"is_disabled":false,"rental_uris":{"android":"levelo://app?vid=b80be36e-9437-4028-9824-fcb52e24e5c8","ios":"levelo://app?vid=b80be36e-9437-4028-9824-fcb52e24e5c8"},"vehicle_type_id":"4","last_reported":1731262205,"current_range_meters":25600,"station_id":"ce4bh312rcd13ifvqdj0","pricing_plan_id":"cebpf4jnsgd1na2vs0mg"},{"bike_id":"18dc4027-5879-4d92-a139-f51280575ccd","system_id":"levelo_inurba_marseille","lat":43.29884,"lon":5.38902,"is_reserved":false,"is_disabled":false,"rental_uris":{"android":"levelo://app?vid=18dc4027-5879-4d92-a139-f51280575ccd","ios":"levelo://app?vid=18dc4027-5879-4d92-a139-f51280575ccd"},"vehicle_type_id":"4","last_reported":1731262205,"current_range_meters":16800,"station_id":"ce4bh392rcd13ifvqdl0","pricing_plan_id":"cebpf4jnsgd1na2vs0mg"},{"bike_id":"b6e6429c-bd4e-410c-b675-c52c8c1491f0","system_id":"levelo_inurba_marseille","lat":43.28938,"lon":5.36398,"is_reserved":false,"is_disabled":false,"rental_uris":{"android":"levelo://app?vid=b6e6429c-bd4e-410c-b675-c52c8c1491f0","ios":"levelo://app?vid=b6e6429c-bd4e-410c-b675-c52c8c1491f0"},"vehicle_type_id":"4","last_reported":1731262205,"current_range_meters":38800,"station_id":"ce4bhc92rcd13ifvqetg","pricing_plan_id":"cebpf4jnsgd1na2vs0mg"},{"bike_id":"5e56e1f3-605b-4ac8-ac43-7ac9ae0ac84b","system_id":"levelo_inurba_marseille","lat":43.30086,"lon":5.39073,"is_reserved":false,"is_disabled":false,"rental_uris":{"android":"levelo://app?vid=5e56e1f3-605b-4ac8-ac43-7ac9ae0ac84b","ios":"levelo://app?vid=5e56e1f3-605b-4ac8-ac43-7ac9ae0ac84b"},"vehicle_type_id":"4","last_reported":1731262205,"current_range_meters":3200,"station_id":"ce4bh192rcd13ifvqdb0","pricing_plan_id":"cebpf4jnsgd1na2vs0mg"},{"bike_id":"3ab0565a-be0f-49e7-9910-e3a2d93dc9a6","system_id":"levelo_inurba_marseille","lat":43.30806,"lon":5.43524,"is_reserved":false,"is_disabled":false,"rental_uris":{"android":"levelo://app?vid=3ab0565a-be0f-49e7-9910-e3a2d93dc9a6","ios":"levelo://app?vid=3ab0565a-be0f-49e7-9910-e3a2d93dc9a6"},"vehicle_type_id":"4","last_reported":1731262205,"current_range_meters":28400,"station_id":"ce4bhph2rcd13ifvqheg","pricing_plan_id":"cebpf4jnsgd1na2vs0mg"},{"bike_id":"70916e7e-1b09-4d3d-a295-b22fc6b0835d","system_id":"levelo_inurba_marseille","lat":43.290192,"lon":5.381256,"is_reserved":false,"is_disabled":false,"rental_uris":{"android":"levelo://app?vid=70916e7e-1b09-4d3d-a295-b22fc6b0835d","ios":"levelo://app?vid=70916e7e-1b09-4d3d-a295-b22fc6b0835d"},"vehicle_type_id":"4","last_reported":1731262205,"current_range_meters":14000,"station_id":"ce4bgi92rcd13ifvqb90","pricing_plan_id":"cebpf4jnsgd1na2vs0mg"},{"bike_id":"71bc23c4-aa68-4c9a-a3f6-c63c0fbc9207","system_id":"levelo_inurba_marseille","lat":43.29569,"lon":5.39987,"is_reserved":false,"is_disabled":false,"rental_uris":{"android":"levelo://app?vid=71bc23c4-aa68-4c9a-a3f6-c63c0fbc9207","ios":"levelo://app?vid=71bc23c4-aa68-4c9a-a3f6-c63c0fbc9207"},"vehicle_type_id":"4","last_reported":1731262205,"current_range_meters":20800,"station_id":"ce4bh312rcd13ifvqdj0","pricing_plan_id":"cebpf4jnsgd1na2vs0mg"},{"bike_id":"b702f3ac-6aca-400c-a97e-d5f06ff293d9","system_id":"levelo_inurba_marseille","lat":43.30915,"lon":5.36851,"is_reserved":false,"is_disabled":false,"rental_uris":{"android":"levelo://app?vid=b702f3ac-6aca-400c-a97e-d5f06ff293d9","ios":"levelo://app?vid=b702f3ac-6aca-400c-a97e-d5f06ff293d9"},"vehicle_type_id":"4","last_reported":1731262205,"current_range_meters":13600,"station_id":"ce4bgn92rcd13ifvqbvg","pricing_plan_id":"cebpf4jnsgd1na2vs0mg"},{"bike_id":"b9478b1d-79e3-44c9-ae60-496dd5151f62","system_id":"levelo_inurba_marseille","lat":43.29165,"lon":5.37151,"is_reserved":false,"is_disabled":false,"rental_uris":{"android":"levelo://app?vid=b9478b1d-79e3-44c9-ae60-496dd5151f62","ios":"levelo://app?vid=b9478b1d-79e3-44c9-ae60-496dd5151f62"},"vehicle_type_id":"4","last_reported":1731262205,"current_range_meters":30000,"station_id":"ce4bha92rcd13ifvqeh0","pricing_plan_id":"cebpf4jnsgd1na2vs0mg"},{"bike_id":"c2b75b50-bcec-4173-bf48-cd5cf0eca57d","system_id":"levelo_inurba_marseille","lat":43.29171,"lon":5.3716,"is_reserved":false,"is_disabled":false,"rental_uris":{"android":"levelo://app?vid=c2b75b50-bcec-4173-bf48-cd5cf0eca57d","ios":"levelo://app?vid=c2b75b50-bcec-4173-bf48-cd5cf0eca57d"},"vehicle_type_id":"4","last_reported":1731262205,"current_range_meters":24000,"station_id":"ce4bha92rcd13ifvqeh0","pricing_plan_id":"cebpf4jnsgd1na2vs0mg"},{"bike_id":"a8bc759e-cb4c-4e34-8dbd-0cd01cdebd96","system_id":"levelo_inurba_marseille","lat":43.2953,"lon":5.38539,"is_reserved":false,"is_disabled":false,"rental_uris":{"android":"levelo://app?vid=a8bc759e-cb4c-4e34-8dbd-0cd01cdebd96","ios":"levelo://app?vid=a8bc759e-cb4c-4e34-8dbd-0cd01cdebd96"},"vehicle_type_id":"4","last_reported":1731262205,"current_range_meters":38000,"station_id":"ce4bgih2rcd13ifvqba0","pricing_plan_id":"cebpf4jnsgd1na2vs0mg"},{"bike_id":"f32c9343-b753-4b4c-9313-033fb01441d1","system_id":"levelo_inurba_marseille","lat":43.29785,"lon":5.37798,"is_reserved":false,"is_disabled":false,"rental_uris":{"android":"levelo://app?vid=f32c9343-b753-4b4c-9313-033fb01441d1","ios":"levelo://app?vid=f32c9343-b753-4b4c-9313-033fb01441d1"},"vehicle_type_id":"4","last_reported":1731262205,"current_range_meters":20000,"station_id":"","pricing_plan_id":"cebpf4jnsgd1na2vs0mg"},{"bike_id":"c2f16343-7137-45c5-ab7b-f033a4b09e5d","system_id":"levelo_inurba_marseille","lat":43.29913,"lon":5.37483,"is_reserved":false,"is_disabled":false,"rental_uris":{"android":"levelo://app?vid=c2f16343-7137-45c5-ab7b-f033a4b09e5d","ios":"levelo://app?vid=c2f16343-7137-45c5-ab7b-f033a4b09e5d"},"vehicle_type_id":"4","last_reported":1731262205,"current_range_meters":35200,"station_id":"ce4bgjh2rcd13ifvqbg0","pricing_plan_id":"cebpf4jnsgd1na2vs0mg"},{"bike_id":"f18e3bca-1241-49e2-a473-1fbefd7476f8","system_id":"levelo_inurba_marseille","lat":43.32293,"lon":5.38271,"is_reserved":false,"is_disabled":false,"rental_uris":{"android":"levelo://app?vid=f18e3bca-1241-49e2-a473-1fbefd7476f8","ios":"levelo://app?vid=f18e3bca-1241-49e2-a473-1fbefd7476f8"},"vehicle_type_id":"4","last_reported":1731262205,"current_range_meters":27200,"station_id":"ce4bhr12rcd13ifvqhqg","pricing_plan_id":"cebpf4jnsgd1na2vs0mg"},{"bike_id":"63676025-6b96-4164-9aa2-7bff8c2b66cc","system_id":"levelo_inurba_marseille","lat":43.27421,"lon":5.39406,"is_reserved":false,"is_disabled":false,"rental_uris":{"android":"levelo://app?vid=63676025-6b96-4164-9aa2-7bff8c2b66cc","ios":"levelo://app?vid=63676025-6b96-4164-9aa2-7bff8c2b66cc"},"vehicle_type_id":"4","last_reported":1731262205,"current_range_meters":3200,"station_id":"ce4bhdp2rcd13ifvqf20","pricing_plan_id":"cebpf4jnsgd1na2vs0mg"},{"bike_id":"f2246dca-d2c0-41d2-b9cc-a732d20a2fdc","system_id":"levelo_inurba_marseille","lat":43.28481,"lon":5.38402,"is_reserved":false,"is_disabled":false,"rental_uris":{"android":"levelo://app?vid=f2246dca-d2c0-41d2-b9cc-a732d20a2fdc","ios":"levelo://app?vid=f2246dca-d2c0-41d2-b9cc-a732d20a2fdc"},"vehicle_type_id":"4","last_reported":1731262205,"current_range_meters":36400,"station_id":"ce4bh512rcd13ifvqe3g","pricing_plan_id":"cebpf4jnsgd1na2vs0mg"},{"bike_id":"f9ee6d32-9175-4f16-9d6f-8c366f14b811","system_id":"levelo_inurba_marseille","lat":43.25123,"lon":5.4032,"is_reserved":false,"is_disabled":false,"rental_uris":{"android":"levelo://app?vid=f9ee6d32-9175-4f16-9d6f-8c366f14b811","ios":"levelo://app?vid=f9ee6d32-9175-4f16-9d6f-8c366f14b811"},"vehicle_type_id":"4","last_reported":1731262205,"current_range_meters":10800,"station_id":"ce4bhlh2rcd13ifvqgig","pricing_plan_id":"cebpf4jnsgd1na2vs0mg"},{"bike_id":"9075ecbc-c1dd-4cdf-8b86-cef9294ea56d","system_id":"levelo_inurba_marseille","lat":43.29413,"lon":5.38627,"is_reserved":false,"is_disabled":false,"rental_uris":{"android":"levelo://app?vid=9075ecbc-c1dd-4cdf-8b86-cef9294ea56d","ios":"levelo://app?vid=9075ecbc-c1dd-4cdf-8b86-cef9294ea56d"},"vehicle_type_id":"4","last_reported":1731262205,"current_range_meters":4800,"station_id":"ce4bh2h2rcd13ifvqdh0","pricing_plan_id":"cebpf4jnsgd1na2vs0mg"},{"bike_id":"fb812259-1570-4190-bcb7-21bd5cf57f16","system_id":"levelo_inurba_marseille","lat":43.291351,"lon":5.380683,"is_reserved":false,"is_disabled":false,"rental_uris":{"android":"levelo://app?vid=fb812259-1570-4190-bcb7-21bd5cf57f16","ios":"levelo://app?vid=fb812259-1570-4190-bcb7-21bd5cf57f16"},"vehicle_type_id":"4","last_reported":1731262205,"current_range_meters":9600,"station_id":"ce4bh512rcd13ifvqe2g","pricing_plan_id":"cebpf4jnsgd1na2vs0mg"},{"bike_id":"00740450-2f03-43f4-90bd-7527d724b0c0","system_id":"levelo_inurba_marseille","lat":43.29261,"lon":5.40904,"is_reserved":false,"is_disabled":false,"rental_uris":{"android":"levelo://app?vid=00740450-2f03-43f4-90bd-7527d724b0c0","ios":"levelo://app?vid=00740450-2f03-43f4-90bd-7527d724b0c0"},"vehicle_type_id":"4","last_reported":1731262205,"current_range_meters":9200,"station_id":"ce4bh192rcd13ifvqdc0","pricing_plan_id":"cebpf4jnsgd1na2vs0mg"},{"bike_id":"4613674a-0fbf-4bc9-97c4-7b468887f58f","system_id":"levelo_inurba_marseille","lat":43.30087,"lon":5.39086,"is_reserved":false,"is_disabled":false,"rental_uris":{"android":"levelo://app?vid=4613674a-0fbf-4bc9-97c4-7b468887f58f","ios":"levelo://app?vid=4613674a-0fbf-4bc9-97c4-7b468887f58f"},"vehicle_type_id":"4","last_reported":1731262205,"current_range_meters":23200,"station_id":"ce4bh192rcd13ifvqdb0","pricing_plan_id":"cebpf4jnsgd1na2vs0mg"},{"bike_id":"f50a96fe-943c-4f36-a477-9111431e33ba","system_id":"levelo_inurba_marseille","lat":43.30298,"lon":5.39208,"is_reserved":false,"is_disabled":false,"rental_uris":{"android":"levelo://app?vid=f50a96fe-943c-4f36-a477-9111431e33ba","ios":"levelo://app?vid=f50a96fe-943c-4f36-a477-9111431e33ba"},"vehicle_type_id":"4","last_reported":1731262205,"current_range_meters":22400,"station_id":"ce4bgkh2rcd13ifvqbk0","pricing_plan_id":"cebpf4jnsgd1na2vs0mg"},{"bike_id":"8de7afb5-4293-42e2-9bfc-9c2639e7d7f5","system_id":"levelo_inurba_marseille","lat":43.29034,"lon":5.37556,"is_reserved":false,"is_disabled":false,"rental_uris":{"android":"levelo://app?vid=8de7afb5-4293-42e2-9bfc-9c2639e7d7f5","ios":"levelo://app?vid=8de7afb5-4293-42e2-9bfc-9c2639e7d7f5"},"vehicle_type_id":"4","last_reported":1731262205,"current_range_meters":38400,"station_id":"ce4bh692rcd13ifvqe90","pricing_plan_id":"cebpf4jnsgd1na2vs0mg"},{"bike_id":"22de4875-598d-4cb0-a70e-735b01ed393a","system_id":"levelo_inurba_marseille","lat":43.29572,"lon":5.39983,"is_reserved":false,"is_disabled":false,"rental_uris":{"android":"levelo://app?vid=22de4875-598d-4cb0-a70e-735b01ed393a","ios":"levelo://app?vid=22de4875-598d-4cb0-a70e-735b01ed393a"},"vehicle_type_id":"4","last_reported":1731262205,"current_range_meters":38800,"station_id":"ce4bh312rcd13ifvqdj0","pricing_plan_id":"cebpf4jnsgd1na2vs0mg"},{"bike_id":"85e2f4f3-6aa2-4c02-8cb0-3f10017cc61a","system_id":"levelo_inurba_marseille","lat":43.2509,"lon":5.39523,"is_reserved":false,"is_disabled":false,"rental_uris":{"android":"levelo://app?vid=85e2f4f3-6aa2-4c02-8cb0-3f10017cc61a","ios":"levelo://app?vid=85e2f4f3-6aa2-4c02-8cb0-3f10017cc61a"},"vehicle_type_id":"4","last_reported":1731262205,"current_range_meters":38800,"station_id":"ce4bhm12rcd13ifvqgkg","pricing_plan_id":"cebpf4jnsgd1na2vs0mg"},{"bike_id":"010f34fa-5fe4-441f-a433-65d10dd050db","system_id":"levelo_inurba_marseille","lat":43.29554,"lon":5.42279,"is_reserved":false,"is_disabled":false,"rental_uris":{"android":"levelo://app?vid=010f34fa-5fe4-441f-a433-65d10dd050db","ios":"levelo://app?vid=010f34fa-5fe4-441f-a433-65d10dd050db"},"vehicle_type_id":"4","last_reported":1731262205,"current_range_meters":8800,"station_id":"ce4bhph2rcd13ifvqhdg","pricing_plan_id":"cebpf4jnsgd1na2vs0mg"},{"bike_id":"80c02114-ca96-4a1c-8091-4f370bfa325c","system_id":"levelo_inurba_marseille","lat":43.30427,"lon":5.39756,"is_reserved":false,"is_disabled":false,"rental_uris":{"android":"levelo://app?vid=80c02114-ca96-4a1c-8091-4f370bfa325c","ios":"levelo://app?vid=80c02114-ca96-4a1c-8091-4f370bfa325c"},"vehicle_type_id":"4","last_reported":1731262205,"current_range_meters":38000,"station_id":"ce4bh092rcd13ifvqd20","pricing_plan_id":"cebpf4jnsgd1na2vs0mg"},{"bike_id":"02e5dafe-fcef-4405-9cf5-47651341713d","system_id":"levelo_inurba_marseille","lat":43.24171,"lon":5.36395,"is_reserved":false,"is_disabled":false,"rental_uris":{"android":"levelo://app?vid=02e5dafe-fcef-4405-9cf5-47651341713d","ios":"levelo://app?vid=02e5dafe-fcef-4405-9cf5-47651341713d"},"vehicle_type_id":"4","last_reported":1731262205,"current_range_meters":6800,"station_id":"cpo36qri1sfpv3e86is0","pricing_plan_id":"cebpf4jnsgd1na2vs0mg"},{"bike_id":"34767867-fce3-4831-9d0e-fcb43e7846d8","system_id":"levelo_inurba_marseille","lat":43.31359,"lon":5.36721,"is_reserved":false,"is_disabled":false,"rental_uris":{"android":"levelo://app?vid=34767867-fce3-4831-9d0e-fcb43e7846d8","ios":"levelo://app?vid=34767867-fce3-4831-9d0e-fcb43e7846d8"},"vehicle_type_id":"4","last_reported":1731262205,"current_range_meters":30400,"station_id":"ce4bgr92rcd13ifvqc6g","pricing_plan_id":"cebpf4jnsgd1na2vs0mg"},{"bike_id":"8bac9053-3887-4a8c-beaf-c9a3ca84e1f9","system_id":"levelo_inurba_marseille","lat":43.29914,"lon":5.37444,"is_reserved":false,"is_disabled":false,"rental_uris":{"android":"levelo://app?vid=8bac9053-3887-4a8c-beaf-c9a3ca84e1f9","ios":"levelo://app?vid=8bac9053-3887-4a8c-beaf-c9a3ca84e1f9"},"vehicle_type_id":"4","last_reported":1731262205,"current_range_meters":34000,"station_id":"ce4bgjh2rcd13ifvqbg0","pricing_plan_id":"cebpf4jnsgd1na2vs0mg"},{"bike_id":"4e89b627-0501-4db3-9362-5908885da938","system_id":"levelo_inurba_marseille","lat":43.29264,"lon":5.38436,"is_reserved":false,"is_disabled":false,"rental_uris":{"android":"levelo://app?vid=4e89b627-0501-4db3-9362-5908885da938","ios":"levelo://app?vid=4e89b627-0501-4db3-9362-5908885da938"},"vehicle_type_id":"4","last_reported":1731262205,"current_range_meters":28400,"station_id":"ce4bh692rcd13ifvqea0","pricing_plan_id":"cebpf4jnsgd1na2vs0mg"},{"bike_id":"61ebae1e-7e43-4156-bc77-b929042392dc","system_id":"levelo_inurba_marseille","lat":43.29172,"lon":5.37146,"is_reserved":false,"is_disabled":false,"rental_uris":{"android":"levelo://app?vid=61ebae1e-7e43-4156-bc77-b929042392dc","ios":"levelo://app?vid=61ebae1e-7e43-4156-bc77-b929042392dc"},"vehicle_type_id":"4","last_reported":1731262205,"current_range_meters":38400,"station_id":"ce4bha92rcd13ifvqeh0","pricing_plan_id":"cebpf4jnsgd1na2vs0mg"},{"bike_id":"c21fde13-82be-43e5-80b1-2d9e81176f3a","system_id":"levelo_inurba_marseille","lat":43.24397,"lon":5.37064,"is_reserved":false,"is_disabled":false,"rental_uris":{"android":"levelo://app?vid=c21fde13-82be-43e5-80b1-2d9e81176f3a","ios":"levelo://app?vid=c21fde13-82be-43e5-80b1-2d9e81176f3a"},"vehicle_type_id":"4","last_reported":1731262205,"current_range_meters":38800,"station_id":"ce4bhhh2rcd13ifvqfk0","pricing_plan_id":"cebpf4jnsgd1na2vs0mg"},{"bike_id":"ea1c39cc-6666-4ec8-8bcb-eb2ccb0663a6","system_id":"levelo_inurba_marseille","lat":43.2954,"lon":5.38543,"is_reserved":false,"is_disabled":false,"rental_uris":{"android":"levelo://app?vid=ea1c39cc-6666-4ec8-8bcb-eb2ccb0663a6","ios":"levelo://app?vid=ea1c39cc-6666-4ec8-8bcb-eb2ccb0663a6"},"vehicle_type_id":"4","last_reported":1731262205,"current_range_meters":35600,"station_id":"ce4bgih2rcd13ifvqba0","pricing_plan_id":"cebpf4jnsgd1na2vs0mg"},{"bike_id":"4e093220-694e-4d66-82be-5717e491ba58","system_id":"levelo_inurba_marseille","lat":43.26682,"lon":5.38268,"is_reserved":false,"is_disabled":false,"rental_uris":{"android":"levelo://app?vid=4e093220-694e-4d66-82be-5717e491ba58","ios":"levelo://app?vid=4e093220-694e-4d66-82be-5717e491ba58"},"vehicle_type_id":"4","last_reported":1731262205,"current_range_meters":35600,"station_id":"ce4bhg92rcd13ifvqf90","pricing_plan_id":"cebpf4jnsgd1na2vs0mg"},{"bike_id":"de34a653-1ca6-4d81-b87f-592fe4853911","system_id":"levelo_inurba_marseille","lat":43.24663,"lon":5.3817,"is_reserved":false,"is_disabled":false,"rental_uris":{"android":"levelo://app?vid=de34a653-1ca6-4d81-b87f-592fe4853911","ios":"levelo://app?vid=de34a653-1ca6-4d81-b87f-592fe4853911"},"vehicle_type_id":"4","last_reported":1731262205,"current_range_meters":33200,"station_id":"ce4bhih2rcd13ifvqfr0","pricing_plan_id":"cebpf4jnsgd1na2vs0mg"},{"bike_id":"ca6bc757-afb2-47ae-8348-d50290e625d2","system_id":"levelo_inurba_marseille","lat":43.24811,"lon":5.37462,"is_reserved":false,"is_disabled":false,"rental_uris":{"android":"levelo://app?vid=ca6bc757-afb2-47ae-8348-d50290e625d2","ios":"levelo://app?vid=ca6bc757-afb2-47ae-8348-d50290e625d2"},"vehicle_type_id":"4","last_reported":1731262205,"current_range_meters":34000,"station_id":"ce4bhgh2rcd13ifvqfb0","pricing_plan_id":"cebpf4jnsgd1na2vs0mg"},{"bike_id":"9eb44df5-bad7-4b49-9fdd-9cfaf3b3f3eb","system_id":"levelo_inurba_marseille","lat":43.29269,"lon":5.38431,"is_reserved":false,"is_disabled":false,"rental_uris":{"android":"levelo://app?vid=9eb44df5-bad7-4b49-9fdd-9cfaf3b3f3eb","ios":"levelo://app?vid=9eb44df5-bad7-4b49-9fdd-9cfaf3b3f3eb"},"vehicle_type_id":"4","last_reported":1731262205,"current_range_meters":20000,"station_id":"ce4bh692rcd13ifvqea0","pricing_plan_id":"cebpf4jnsgd1na2vs0mg"},{"bike_id":"294e33e3-1dfe-4029-a5c4-d04ef4259eea","system_id":"levelo_inurba_marseille","lat":43.29943,"lon":5.36548,"is_reserved":false,"is_disabled":false,"rental_uris":{"android":"levelo://app?vid=294e33e3-1dfe-4029-a5c4-d04ef4259eea","ios":"levelo://app?vid=294e33e3-1dfe-4029-a5c4-d04ef4259eea"},"vehicle_type_id":"4","last_reported":1731262205,"current_range_meters":5600,"station_id":"ce4bgm92rcd13ifvqbr0","pricing_plan_id":"cebpf4jnsgd1na2vs0mg"},{"bike_id":"4cc3e001-4447-46d7-a90b-69fd2e7a56d1","system_id":"levelo_inurba_marseille","lat":43.28939,"lon":5.39636,"is_reserved":false,"is_disabled":false,"rental_uris":{"android":"levelo://app?vid=4cc3e001-4447-46d7-a90b-69fd2e7a56d1","ios":"levelo://app?vid=4cc3e001-4447-46d7-a90b-69fd2e7a56d1"},"vehicle_type_id":"4","last_reported":1731262205,"current_range_meters":38800,"station_id":"ce4bh3h2rcd13ifvqdn0","pricing_plan_id":"cebpf4jnsgd1na2vs0mg"},{"bike_id":"beb26317-6daf-4280-afee-f4f951d8c540","system_id":"levelo_inurba_marseille","lat":43.28365,"lon":5.38622,"is_reserved":false,"is_disabled":false,"rental_uris":{"android":"levelo://app?vid=beb26317-6daf-4280-afee-f4f951d8c540","ios":"levelo://app?vid=beb26317-6daf-4280-afee-f4f951d8c540"},"vehicle_type_id":"4","last_reported":1731262205,"current_range_meters":39200,"station_id":"ce4bh492rcd13ifvqdvg","pricing_plan_id":"cebpf4jnsgd1na2vs0mg"},{"bike_id":"ab502f87-bc6a-4105-ba3d-5d9d35ea7732","system_id":"levelo_inurba_marseille","lat":43.27952,"lon":5.41052,"is_reserved":false,"is_disabled":false,"rental_uris":{"android":"levelo://app?vid=ab502f87-bc6a-4105-ba3d-5d9d35ea7732","ios":"levelo://app?vid=ab502f87-bc6a-4105-ba3d-5d9d35ea7732"},"vehicle_type_id":"4","last_reported":1731262205,"current_range_meters":28000,"station_id":"ce4bhnp2rcd13ifvqh0g","pricing_plan_id":"cebpf4jnsgd1na2vs0mg"},{"bike_id":"b09f8662-d6b7-4d5f-9e7b-2e64de5c4b24","system_id":"levelo_inurba_marseille","lat":43.27921,"lon":5.41066,"is_reserved":false,"is_disabled":false,"rental_uris":{"android":"levelo://app?vid=b09f8662-d6b7-4d5f-9e7b-2e64de5c4b24","ios":"levelo://app?vid=b09f8662-d6b7-4d5f-9e7b-2e64de5c4b24"},"vehicle_type_id":"4","last_reported":1731262205,"current_range_meters":28800,"station_id":"ce4bhnp2rcd13ifvqh0g","pricing_plan_id":"cebpf4jnsgd1na2vs0mg"},{"bike_id":"f204905c-7b94-45eb-bd5e-9b72157ae1f2","system_id":"levelo_inurba_marseille","lat":43.23185,"lon":5.39978,"is_reserved":false,"is_disabled":false,"rental_uris":{"android":"levelo://app?vid=f204905c-7b94-45eb-bd5e-9b72157ae1f2","ios":"levelo://app?vid=f204905c-7b94-45eb-bd5e-9b72157ae1f2"},"vehicle_type_id":"4","last_reported":1731262205,"current_range_meters":36800,"station_id":"ce4bhn12rcd13ifvqgqg","pricing_plan_id":"cebpf4jnsgd1na2vs0mg"},{"bike_id":"e235b424-4dc3-4a4e-8945-1d69091419a8","system_id":"levelo_inurba_marseille","lat":43.28826,"lon":5.40016,"is_reserved":false,"is_disabled":false,"rental_uris":{"android":"levelo://app?vid=e235b424-4dc3-4a4e-8945-1d69091419a8","ios":"levelo://app?vid=e235b424-4dc3-4a4e-8945-1d69091419a8"},"vehicle_type_id":"4","last_reported":1731262205,"current_range_meters":16400,"station_id":"ce4bho92rcd13ifvqh3g","pricing_plan_id":"cebpf4jnsgd1na2vs0mg"},{"bike_id":"67dc114c-1a92-4659-b791-2a62985524d3","system_id":"levelo_inurba_marseille","lat":43.3176,"lon":5.39022,"is_reserved":false,"is_disabled":false,"rental_uris":{"android":"levelo://app?vid=67dc114c-1a92-4659-b791-2a62985524d3","ios":"levelo://app?vid=67dc114c-1a92-4659-b791-2a62985524d3"},"vehicle_type_id":"4","last_reported":1731262205,"current_range_meters":38800,"station_id":"ce4bhqp2rcd13ifvqhng","pricing_plan_id":"cebpf4jnsgd1na2vs0mg"},{"bike_id":"78925440-ea58-4d15-ada4-d4bb6d4a61b7","system_id":"levelo_inurba_marseille","lat":43.29902,"lon":5.43668,"is_reserved":false,"is_disabled":false,"rental_uris":{"android":"levelo://app?vid=78925440-ea58-4d15-ada4-d4bb6d4a61b7","ios":"levelo://app?vid=78925440-ea58-4d15-ada4-d4bb6d4a61b7"},"vehicle_type_id":"4","last_reported":1731262205,"current_range_meters":36000,"station_id":"ce4bhpp2rcd13ifvqhfg","pricing_plan_id":"cebpf4jnsgd1na2vs0mg"},{"bike_id":"aaa0d09b-cb58-4cea-86a7-0ec15c06a191","system_id":"levelo_inurba_marseille","lat":43.29881,"lon":5.38909,"is_reserved":false,"is_disabled":false,"rental_uris":{"android":"levelo://app?vid=aaa0d09b-cb58-4cea-86a7-0ec15c06a191","ios":"levelo://app?vid=aaa0d09b-cb58-4cea-86a7-0ec15c06a191"},"vehicle_type_id":"4","last_reported":1731262205,"current_range_meters":27200,"station_id":"ce4bh392rcd13ifvqdl0","pricing_plan_id":"cebpf4jnsgd1na2vs0mg"},{"bike_id":"3341787c-080c-47bc-b9e1-3b4dadf50514","system_id":"levelo_inurba_marseille","lat":43.265564,"lon":5.372903,"is_reserved":false,"is_disabled":false,"rental_uris":{"android":"levelo://app?vid=3341787c-080c-47bc-b9e1-3b4dadf50514","ios":"levelo://app?vid=3341787c-080c-47bc-b9e1-3b4dadf50514"},"vehicle_type_id":"4","last_reported":1731262205,"current_range_meters":35600,"station_id":"ce4bhg12rcd13ifvqf70","pricing_plan_id":"cebpf4jnsgd1na2vs0mg"},{"bike_id":"ff7cd22c-700a-4f92-9946-45d399f3d602","system_id":"levelo_inurba_marseille","lat":43.29254,"lon":5.409,"is_reserved":false,"is_disabled":false,"rental_uris":{"android":"levelo://app?vid=ff7cd22c-700a-4f92-9946-45d399f3d602","ios":"levelo://app?vid=ff7cd22c-700a-4f92-9946-45d399f3d602"},"vehicle_type_id":"4","last_reported":1731262205,"current_range_meters":10000,"station_id":"ce4bh192rcd13ifvqdc0","pricing_plan_id":"cebpf4jnsgd1na2vs0mg"},{"bike_id":"181fa628-fd06-4339-88f4-5d411c857699","system_id":"levelo_inurba_marseille","lat":43.27065,"lon":5.42282,"is_reserved":false,"is_disabled":false,"rental_uris":{"android":"levelo://app?vid=181fa628-fd06-4339-88f4-5d411c857699","ios":"levelo://app?vid=181fa628-fd06-4339-88f4-5d411c857699"},"vehicle_type_id":"4","last_reported":1731262205,"current_range_meters":8000,"station_id":"ce4bhk92rcd13ifvqgb0","pricing_plan_id":"cebpf4jnsgd1na2vs0mg"},{"bike_id":"05460232-731d-4821-b381-b280e5302bfd","system_id":"levelo_inurba_marseille","lat":43.30356,"lon":5.4188,"is_reserved":false,"is_disabled":false,"rental_uris":{"android":"levelo://app?vid=05460232-731d-4821-b381-b280e5302bfd","ios":"levelo://app?vid=05460232-731d-4821-b381-b280e5302bfd"},"vehicle_type_id":"4","last_reported":1731262205,"current_range_meters":8000,"station_id":"ce4bhop2rcd13ifvqh7g","pricing_plan_id":"cebpf4jnsgd1na2vs0mg"},{"bike_id":"9a5eb101-92a2-4eeb-93bd-8d070d90c1ea","system_id":"levelo_inurba_marseille","lat":43.30433,"lon":5.42528,"is_reserved":false,"is_disabled":false,"rental_uris":{"android":"levelo://app?vid=9a5eb101-92a2-4eeb-93bd-8d070d90c1ea","ios":"levelo://app?vid=9a5eb101-92a2-4eeb-93bd-8d070d90c1ea"},"vehicle_type_id":"4","last_reported":1731262205,"current_range_meters":10800,"station_id":"","pricing_plan_id":"cebpf4jnsgd1na2vs0mg"},{"bike_id":"4de74ec0-48a2-4451-a65d-5ac6f613a308","system_id":"levelo_inurba_marseille","lat":43.24816,"lon":5.37464,"is_reserved":false,"is_disabled":false,"rental_uris":{"android":"levelo://app?vid=4de74ec0-48a2-4451-a65d-5ac6f613a308","ios":"levelo://app?vid=4de74ec0-48a2-4451-a65d-5ac6f613a308"},"vehicle_type_id":"4","last_reported":1731262205,"current_range_meters":38800,"station_id":"ce4bhgh2rcd13ifvqfb0","pricing_plan_id":"cebpf4jnsgd1na2vs0mg"},{"bike_id":"9bda0575-5334-4458-89fa-e38c69abf7c4","system_id":"levelo_inurba_marseille","lat":43.28945,"lon":5.36646,"is_reserved":false,"is_disabled":false,"rental_uris":{"android":"levelo://app?vid=9bda0575-5334-4458-89fa-e38c69abf7c4","ios":"levelo://app?vid=9bda0575-5334-4458-89fa-e38c69abf7c4"},"vehicle_type_id":"4","last_reported":1731262205,"current_range_meters":9200,"station_id":"ce4bhap2rcd13ifvqek0","pricing_plan_id":"cebpf4jnsgd1na2vs0mg"},{"bike_id":"d3f3937a-5f39-43f6-8688-6ab7979682ef","system_id":"levelo_inurba_marseille","lat":43.2901,"lon":5.35613,"is_reserved":false,"is_disabled":false,"rental_uris":{"android":"levelo://app?vid=d3f3937a-5f39-43f6-8688-6ab7979682ef","ios":"levelo://app?vid=d3f3937a-5f39-43f6-8688-6ab7979682ef"},"vehicle_type_id":"4","last_reported":1731262205,"current_range_meters":38000,"station_id":"ce4bhb92rcd13ifvqen0","pricing_plan_id":"cebpf4jnsgd1na2vs0mg"},{"bike_id":"91a598a9-4284-4e88-ab7f-5e3a7e64ed8d","system_id":"levelo_inurba_marseille","lat":43.25501,"lon":5.37654,"is_reserved":false,"is_disabled":false,"rental_uris":{"android":"levelo://app?vid=91a598a9-4284-4e88-ab7f-5e3a7e64ed8d","ios":"levelo://app?vid=91a598a9-4284-4e88-ab7f-5e3a7e64ed8d"},"vehicle_type_id":"4","last_reported":1731262205,"current_range_meters":6400,"station_id":"ce4bhh12rcd13ifvqff0","pricing_plan_id":"cebpf4jnsgd1na2vs0mg"},{"bike_id":"8c1d3640-f591-42a7-a860-7e30fae51cc4","system_id":"levelo_inurba_marseille","lat":43.23976,"lon":5.36625,"is_reserved":false,"is_disabled":false,"rental_uris":{"android":"levelo://app?vid=8c1d3640-f591-42a7-a860-7e30fae51cc4","ios":"levelo://app?vid=8c1d3640-f591-42a7-a860-7e30fae51cc4"},"vehicle_type_id":"4","last_reported":1731262205,"current_range_meters":10800,"station_id":"ce4bhi12rcd13ifvqfp0","pricing_plan_id":"cebpf4jnsgd1na2vs0mg"},{"bike_id":"b665fcfd-0cc0-472a-9aa4-44e0c466618e","system_id":"levelo_inurba_marseille","lat":43.29032,"lon":5.37568,"is_reserved":false,"is_disabled":false,"rental_uris":{"android":"levelo://app?vid=b665fcfd-0cc0-472a-9aa4-44e0c466618e","ios":"levelo://app?vid=b665fcfd-0cc0-472a-9aa4-44e0c466618e"},"vehicle_type_id":"4","last_reported":1731262205,"current_range_meters":3600,"station_id":"ce4bh692rcd13ifvqe90","pricing_plan_id":"cebpf4jnsgd1na2vs0mg"},{"bike_id":"1e7fd650-28c5-42ee-9922-4070c0acdb85","system_id":"levelo_inurba_marseille","lat":43.27492,"lon":5.42454,"is_reserved":false,"is_disabled":false,"rental_uris":{"android":"levelo://app?vid=1e7fd650-28c5-42ee-9922-4070c0acdb85","ios":"levelo://app?vid=1e7fd650-28c5-42ee-9922-4070c0acdb85"},"vehicle_type_id":"4","last_reported":1731262205,"current_range_meters":38400,"station_id":"ce4bhn92rcd13ifvqgrg","pricing_plan_id":"cebpf4jnsgd1na2vs0mg"},{"bike_id":"35cc54db-cb57-4338-b5b6-16ad9f0e7584","system_id":"levelo_inurba_marseille","lat":43.30915,"lon":5.36852,"is_reserved":false,"is_disabled":false,"rental_uris":{"android":"levelo://app?vid=35cc54db-cb57-4338-b5b6-16ad9f0e7584","ios":"levelo://app?vid=35cc54db-cb57-4338-b5b6-16ad9f0e7584"},"vehicle_type_id":"4","last_reported":1731262205,"current_range_meters":16000,"station_id":"ce4bgn92rcd13ifvqbvg","pricing_plan_id":"cebpf4jnsgd1na2vs0mg"},{"bike_id":"c86f9753-23bf-4b0b-99f7-a3303d896d97","system_id":"levelo_inurba_marseille","lat":43.23179,"lon":5.39992,"is_reserved":false,"is_disabled":false,"rental_uris":{"android":"levelo://app?vid=c86f9753-23bf-4b0b-99f7-a3303d896d97","ios":"levelo://app?vid=c86f9753-23bf-4b0b-99f7-a3303d896d97"},"vehicle_type_id":"4","last_reported":1731262205,"current_range_meters":9600,"station_id":"ce4bhn12rcd13ifvqgqg","pricing_plan_id":"cebpf4jnsgd1na2vs0mg"},{"bike_id":"697f93fd-d491-46fc-869a-74cf0b3e0355","system_id":"levelo_inurba_marseille","lat":43.30209,"lon":5.39468,"is_reserved":false,"is_disabled":false,"rental_uris":{"android":"levelo://app?vid=697f93fd-d491-46fc-869a-74cf0b3e0355","ios":"levelo://app?vid=697f93fd-d491-46fc-869a-74cf0b3e0355"},"vehicle_type_id":"4","last_reported":1731262205,"current_range_meters":28400,"station_id":"ce4bh0p2rcd13ifvqd70","pricing_plan_id":"cebpf4jnsgd1na2vs0mg"},{"bike_id":"96753775-bbea-4f45-b9f3-0bf25ad305d8","system_id":"levelo_inurba_marseille","lat":43.25935,"lon":5.40914,"is_reserved":false,"is_disabled":false,"rental_uris":{"android":"levelo://app?vid=96753775-bbea-4f45-b9f3-0bf25ad305d8","ios":"levelo://app?vid=96753775-bbea-4f45-b9f3-0bf25ad305d8"},"vehicle_type_id":"4","last_reported":1731262205,"current_range_meters":12000,"station_id":"ce4bhm92rcd13ifvqglg","pricing_plan_id":"cebpf4jnsgd1na2vs0mg"},{"bike_id":"07704a86-dbed-425a-854d-11b1a4e3d84c","system_id":"levelo_inurba_marseille","lat":43.3375,"lon":5.37445,"is_reserved":false,"is_disabled":false,"rental_uris":{"android":"levelo://app?vid=07704a86-dbed-425a-854d-11b1a4e3d84c","ios":"levelo://app?vid=07704a86-dbed-425a-854d-11b1a4e3d84c"},"vehicle_type_id":"4","last_reported":1731262205,"current_range_meters":29600,"station_id":"","pricing_plan_id":"cebpf4jnsgd1na2vs0mg"},{"bike_id":"fcffffcd-6975-44e3-bffb-4cd3b466562f","system_id":"levelo_inurba_marseille","lat":43.29524,"lon":5.394,"is_reserved":false,"is_disabled":false,"rental_uris":{"android":"levelo://app?vid=fcffffcd-6975-44e3-bffb-4cd3b466562f","ios":"levelo://app?vid=fcffffcd-6975-44e3-bffb-4cd3b466562f"},"vehicle_type_id":"4","last_reported":1731262205,"current_range_meters":11200,"station_id":"ce4bh292rcd13ifvqdf0","pricing_plan_id":"cebpf4jnsgd1na2vs0mg"},{"bike_id":"0b74ce83-e6b1-4485-8ca6-3897f29a426e","system_id":"levelo_inurba_marseille","lat":43.23959,"lon":5.36637,"is_reserved":false,"is_disabled":false,"rental_uris":{"android":"levelo://app?vid=0b74ce83-e6b1-4485-8ca6-3897f29a426e","ios":"levelo://app?vid=0b74ce83-e6b1-4485-8ca6-3897f29a426e"},"vehicle_type_id":"4","last_reported":1731262205,"current_range_meters":8000,"station_id":"ce4bhi12rcd13ifvqfp0","pricing_plan_id":"cebpf4jnsgd1na2vs0mg"},{"bike_id":"dcbad401-d638-457d-a876-87a3e0a6da93","system_id":"levelo_inurba_marseille","lat":43.29263,"lon":5.38429,"is_reserved":false,"is_disabled":false,"rental_uris":{"android":"levelo://app?vid=dcbad401-d638-457d-a876-87a3e0a6da93","ios":"levelo://app?vid=dcbad401-d638-457d-a876-87a3e0a6da93"},"vehicle_type_id":"4","last_reported":1731262205,"current_range_meters":32400,"station_id":"ce4bh692rcd13ifvqea0","pricing_plan_id":"cebpf4jnsgd1na2vs0mg"},{"bike_id":"2a98ca2a-1586-4c7d-89d0-44b5c21dd7e0","system_id":"levelo_inurba_marseille","lat":43.28107,"lon":5.37835,"is_reserved":false,"is_disabled":false,"rental_uris":{"android":"levelo://app?vid=2a98ca2a-1586-4c7d-89d0-44b5c21dd7e0","ios":"levelo://app?vid=2a98ca2a-1586-4c7d-89d0-44b5c21dd7e0"},"vehicle_type_id":"4","last_reported":1731262205,"current_range_meters":28400,"station_id":"ce4bha12rcd13ifvqee0","pricing_plan_id":"cebpf4jnsgd1na2vs0mg"},{"bike_id":"b6c7da40-90eb-4b50-859e-b7478b60dd61","system_id":"levelo_inurba_marseille","lat":43.28408,"lon":5.37514,"is_reserved":false,"is_disabled":false,"rental_uris":{"android":"levelo://app?vid=b6c7da40-90eb-4b50-859e-b7478b60dd61","ios":"levelo://app?vid=b6c7da40-90eb-4b50-859e-b7478b60dd61"},"vehicle_type_id":"4","last_reported":1731262205,"current_range_meters":6000,"station_id":"ce4bh412rcd13ifvqds0","pricing_plan_id":"cebpf4jnsgd1na2vs0mg"},{"bike_id":"baac3be3-010c-4ab7-b814-2af962c842f8","system_id":"levelo_inurba_marseille","lat":43.283631,"lon":5.375208,"is_reserved":false,"is_disabled":false,"rental_uris":{"android":"levelo://app?vid=baac3be3-010c-4ab7-b814-2af962c842f8","ios":"levelo://app?vid=baac3be3-010c-4ab7-b814-2af962c842f8"},"vehicle_type_id":"4","last_reported":1731262205,"current_range_meters":25600,"station_id":"ce4bh412rcd13ifvqds0","pricing_plan_id":"cebpf4jnsgd1na2vs0mg"},{"bike_id":"969227a2-98bf-4ab5-b6d3-e479d8b3607b","system_id":"levelo_inurba_marseille","lat":43.31542,"lon":5.38014,"is_reserved":false,"is_disabled":false,"rental_uris":{"android":"levelo://app?vid=969227a2-98bf-4ab5-b6d3-e479d8b3607b","ios":"levelo://app?vid=969227a2-98bf-4ab5-b6d3-e479d8b3607b"},"vehicle_type_id":"4","last_reported":1731262205,"current_range_meters":26800,"station_id":"ce4bhsp2rcd13ifvqi50","pricing_plan_id":"cebpf4jnsgd1na2vs0mg"},{"bike_id":"25b17723-5114-4ed2-add0-611aa6487177","system_id":"levelo_inurba_marseille","lat":43.26062,"lon":5.39402,"is_reserved":false,"is_disabled":false,"rental_uris":{"android":"levelo://app?vid=25b17723-5114-4ed2-add0-611aa6487177","ios":"levelo://app?vid=25b17723-5114-4ed2-add0-611aa6487177"},"vehicle_type_id":"4","last_reported":1731262205,"current_range_meters":12800,"station_id":"ce4bhh92rcd13ifvqfj0","pricing_plan_id":"cebpf4jnsgd1na2vs0mg"},{"bike_id":"8a810937-7ee2-474a-b68f-c89ce5fb2e84","system_id":"levelo_inurba_marseille","lat":43.27511,"lon":5.42442,"is_reserved":false,"is_disabled":false,"rental_uris":{"android":"levelo://app?vid=8a810937-7ee2-474a-b68f-c89ce5fb2e84","ios":"levelo://app?vid=8a810937-7ee2-474a-b68f-c89ce5fb2e84"},"vehicle_type_id":"4","last_reported":1731262205,"current_range_meters":22400,"station_id":"ce4bhn92rcd13ifvqgrg","pricing_plan_id":"cebpf4jnsgd1na2vs0mg"},{"bike_id":"b36afb9a-b078-4bf6-8c13-db208250e22d","system_id":"levelo_inurba_marseille","lat":43.27372,"lon":5.36256,"is_reserved":false,"is_disabled":false,"rental_uris":{"android":"levelo://app?vid=b36afb9a-b078-4bf6-8c13-db208250e22d","ios":"levelo://app?vid=b36afb9a-b078-4bf6-8c13-db208250e22d"},"vehicle_type_id":"4","last_reported":1731262205,"current_range_meters":3200,"station_id":"ce4bhbh2rcd13ifvqeo0","pricing_plan_id":"cebpf4jnsgd1na2vs0mg"},{"bike_id":"7c59c113-339d-4f9b-b12b-18190bdaf895","system_id":"levelo_inurba_marseille","lat":43.25088,"lon":5.39529,"is_reserved":false,"is_disabled":false,"rental_uris":{"android":"levelo://app?vid=7c59c113-339d-4f9b-b12b-18190bdaf895","ios":"levelo://app?vid=7c59c113-339d-4f9b-b12b-18190bdaf895"},"vehicle_type_id":"4","last_reported":1731262205,"current_range_meters":39200,"station_id":"ce4bhm12rcd13ifvqgkg","pricing_plan_id":"cebpf4jnsgd1na2vs0mg"},{"bike_id":"4fa1528e-18e5-4186-969d-418c95383671","system_id":"levelo_inurba_marseille","lat":43.26057,"lon":5.39395,"is_reserved":false,"is_disabled":false,"rental_uris":{"android":"levelo://app?vid=4fa1528e-18e5-4186-969d-418c95383671","ios":"levelo://app?vid=4fa1528e-18e5-4186-969d-418c95383671"},"vehicle_type_id":"4","last_reported":1731262205,"current_range_meters":25200,"station_id":"ce4bhh92rcd13ifvqfj0","pricing_plan_id":"cebpf4jnsgd1na2vs0mg"},{"bike_id":"e74fc73b-02f1-4751-b92f-f4561dcb1905","system_id":"levelo_inurba_marseille","lat":43.304215,"lon":5.388929,"is_reserved":false,"is_disabled":false,"rental_uris":{"android":"levelo://app?vid=e74fc73b-02f1-4751-b92f-f4561dcb1905","ios":"levelo://app?vid=e74fc73b-02f1-4751-b92f-f4561dcb1905"},"vehicle_type_id":"4","last_reported":1731262205,"current_range_meters":36400,"station_id":"ce4bh112rcd13ifvqda0","pricing_plan_id":"cebpf4jnsgd1na2vs0mg"},{"bike_id":"3d7d5d6d-c6a7-4c5e-94fd-d628aecdce64","system_id":"levelo_inurba_marseille","lat":43.32282,"lon":5.38657,"is_reserved":false,"is_disabled":false,"rental_uris":{"android":"levelo://app?vid=3d7d5d6d-c6a7-4c5e-94fd-d628aecdce64","ios":"levelo://app?vid=3d7d5d6d-c6a7-4c5e-94fd-d628aecdce64"},"vehicle_type_id":"4","last_reported":1731262205,"current_range_meters":16000,"station_id":"","pricing_plan_id":"cebpf4jnsgd1na2vs0mg"},{"bike_id":"48e500b2-fea3-40af-8800-c7f6e7d67863","system_id":"levelo_inurba_marseille","lat":43.29265,"lon":5.40907,"is_reserved":false,"is_disabled":false,"rental_uris":{"android":"levelo://app?vid=48e500b2-fea3-40af-8800-c7f6e7d67863","ios":"levelo://app?vid=48e500b2-fea3-40af-8800-c7f6e7d67863"},"vehicle_type_id":"4","last_reported":1731262205,"current_range_meters":8000,"station_id":"ce4bh192rcd13ifvqdc0","pricing_plan_id":"cebpf4jnsgd1na2vs0mg"},{"bike_id":"a674a4fc-faf6-47c5-8f1e-eb09c27bdf59","system_id":"levelo_inurba_marseille","lat":43.30089,"lon":5.3908,"is_reserved":false,"is_disabled":false,"rental_uris":{"android":"levelo://app?vid=a674a4fc-faf6-47c5-8f1e-eb09c27bdf59","ios":"levelo://app?vid=a674a4fc-faf6-47c5-8f1e-eb09c27bdf59"},"vehicle_type_id":"4","last_reported":1731262205,"current_range_meters":4800,"station_id":"ce4bh192rcd13ifvqdb0","pricing_plan_id":"cebpf4jnsgd1na2vs0mg"},{"bike_id":"2067d82b-4080-46e9-b978-d9079dc9d204","system_id":"levelo_inurba_marseille","lat":43.28669,"lon":5.38649,"is_reserved":false,"is_disabled":false,"rental_uris":{"android":"levelo://app?vid=2067d82b-4080-46e9-b978-d9079dc9d204","ios":"levelo://app?vid=2067d82b-4080-46e9-b978-d9079dc9d204"},"vehicle_type_id":"4","last_reported":1731262205,"current_range_meters":29600,"station_id":"ce4bh492rcd13ifvqdug","pricing_plan_id":"cebpf4jnsgd1na2vs0mg"},{"bike_id":"cfb8688e-d5c7-4a87-805d-342770af19f8","system_id":"levelo_inurba_marseille","lat":43.3014,"lon":5.37424,"is_reserved":false,"is_disabled":false,"rental_uris":{"android":"levelo://app?vid=cfb8688e-d5c7-4a87-805d-342770af19f8","ios":"levelo://app?vid=cfb8688e-d5c7-4a87-805d-342770af19f8"},"vehicle_type_id":"4","last_reported":1731262205,"current_range_meters":30400,"station_id":"ce4bgs92rcd13ifvqcc0","pricing_plan_id":"cebpf4jnsgd1na2vs0mg"},{"bike_id":"b1ad500a-d443-475f-856c-656b21a159e5","system_id":"levelo_inurba_marseille","lat":43.25507,"lon":5.37653,"is_reserved":false,"is_disabled":false,"rental_uris":{"android":"levelo://app?vid=b1ad500a-d443-475f-856c-656b21a159e5","ios":"levelo://app?vid=b1ad500a-d443-475f-856c-656b21a159e5"},"vehicle_type_id":"4","last_reported":1731262205,"current_range_meters":16800,"station_id":"ce4bhh12rcd13ifvqff0","pricing_plan_id":"cebpf4jnsgd1na2vs0mg"},{"bike_id":"c8a39679-e0b2-4b35-a59f-b065cd77bd64","system_id":"levelo_inurba_marseille","lat":43.30811,"lon":5.43522,"is_reserved":false,"is_disabled":false,"rental_uris":{"android":"levelo://app?vid=c8a39679-e0b2-4b35-a59f-b065cd77bd64","ios":"levelo://app?vid=c8a39679-e0b2-4b35-a59f-b065cd77bd64"},"vehicle_type_id":"4","last_reported":1731262205,"current_range_meters":36800,"station_id":"ce4bhph2rcd13ifvqheg","pricing_plan_id":"cebpf4jnsgd1na2vs0mg"},{"bike_id":"86f68c1c-eae0-41db-95cc-59dc248bb81c","system_id":"levelo_inurba_marseille","lat":43.25504,"lon":5.37654,"is_reserved":false,"is_disabled":false,"rental_uris":{"android":"levelo://app?vid=86f68c1c-eae0-41db-95cc-59dc248bb81c","ios":"levelo://app?vid=86f68c1c-eae0-41db-95cc-59dc248bb81c"},"vehicle_type_id":"4","last_reported":1731262205,"current_range_meters":3200,"station_id":"ce4bhh12rcd13ifvqff0","pricing_plan_id":"cebpf4jnsgd1na2vs0mg"},{"bike_id":"6da06f85-e08e-4d62-b03d-37391773fb47","system_id":"levelo_inurba_marseille","lat":43.32484,"lon":5.36567,"is_reserved":false,"is_disabled":false,"rental_uris":{"android":"levelo://app?vid=6da06f85-e08e-4d62-b03d-37391773fb47","ios":"levelo://app?vid=6da06f85-e08e-4d62-b03d-37391773fb47"},"vehicle_type_id":"4","last_reported":1731262205,"current_range_meters":34800,"station_id":"ce4bhs12rcd13ifvqhvg","pricing_plan_id":"cebpf4jnsgd1na2vs0mg"},{"bike_id":"76cb7de1-c6cf-46f4-817f-a13daaf098d0","system_id":"levelo_inurba_marseille","lat":43.31536,"lon":5.38024,"is_reserved":false,"is_disabled":false,"rental_uris":{"android":"levelo://app?vid=76cb7de1-c6cf-46f4-817f-a13daaf098d0","ios":"levelo://app?vid=76cb7de1-c6cf-46f4-817f-a13daaf098d0"},"vehicle_type_id":"4","last_reported":1731262205,"current_range_meters":6000,"station_id":"ce4bhsp2rcd13ifvqi50","pricing_plan_id":"cebpf4jnsgd1na2vs0mg"},{"bike_id":"9ae3eace-5e22-4a78-bbd4-cc0a13682576","system_id":"levelo_inurba_marseille","lat":43.29587,"lon":5.38097,"is_reserved":false,"is_disabled":false,"rental_uris":{"android":"levelo://app?vid=9ae3eace-5e22-4a78-bbd4-cc0a13682576","ios":"levelo://app?vid=9ae3eace-5e22-4a78-bbd4-cc0a13682576"},"vehicle_type_id":"4","last_reported":1731262205,"current_range_meters":34800,"station_id":"ce4bgl12rcd13ifvqbo0","pricing_plan_id":"cebpf4jnsgd1na2vs0mg"},{"bike_id":"097282ac-3ec9-40f7-b611-2883d7b2d385","system_id":"levelo_inurba_marseille","lat":43.29537,"lon":5.38541,"is_reserved":false,"is_disabled":false,"rental_uris":{"android":"levelo://app?vid=097282ac-3ec9-40f7-b611-2883d7b2d385","ios":"levelo://app?vid=097282ac-3ec9-40f7-b611-2883d7b2d385"},"vehicle_type_id":"4","last_reported":1731262205,"current_range_meters":36000,"station_id":"ce4bgih2rcd13ifvqba0","pricing_plan_id":"cebpf4jnsgd1na2vs0mg"},{"bike_id":"82938c90-1529-488c-85a3-bb2dd8260474","system_id":"levelo_inurba_marseille","lat":43.27918,"lon":5.38284,"is_reserved":false,"is_disabled":false,"rental_uris":{"android":"levelo://app?vid=82938c90-1529-488c-85a3-bb2dd8260474","ios":"levelo://app?vid=82938c90-1529-488c-85a3-bb2dd8260474"},"vehicle_type_id":"4","last_reported":1731262205,"current_range_meters":19200,"station_id":"","pricing_plan_id":"cebpf4jnsgd1na2vs0mg"},{"bike_id":"58456880-108f-4854-bd37-9a9d96f58604","system_id":"levelo_inurba_marseille","lat":43.29544,"lon":5.38543,"is_reserved":false,"is_disabled":false,"rental_uris":{"android":"levelo://app?vid=58456880-108f-4854-bd37-9a9d96f58604","ios":"levelo://app?vid=58456880-108f-4854-bd37-9a9d96f58604"},"vehicle_type_id":"4","last_reported":1731262205,"current_range_meters":5600,"station_id":"ce4bgih2rcd13ifvqba0","pricing_plan_id":"cebpf4jnsgd1na2vs0mg"},{"bike_id":"e439dd18-489b-417d-8271-2a0e899a398d","system_id":"levelo_inurba_marseille","lat":43.25493,"lon":5.37649,"is_reserved":false,"is_disabled":false,"rental_uris":{"android":"levelo://app?vid=e439dd18-489b-417d-8271-2a0e899a398d","ios":"levelo://app?vid=e439dd18-489b-417d-8271-2a0e899a398d"},"vehicle_type_id":"4","last_reported":1731262205,"current_range_meters":38800,"station_id":"ce4bhh12rcd13ifvqff0","pricing_plan_id":"cebpf4jnsgd1na2vs0mg"},{"bike_id":"15126981-6d35-42cb-954b-f5f1f52e3d20","system_id":"levelo_inurba_marseille","lat":43.30191,"lon":5.389464,"is_reserved":false,"is_disabled":false,"rental_uris":{"android":"levelo://app?vid=15126981-6d35-42cb-954b-f5f1f52e3d20","ios":"levelo://app?vid=15126981-6d35-42cb-954b-f5f1f52e3d20"},"vehicle_type_id":"4","last_reported":1731262205,"current_range_meters":33200,"station_id":"","pricing_plan_id":"cebpf4jnsgd1na2vs0mg"},{"bike_id":"170f9e2d-c67b-40fd-932d-5dcf242be3f1","system_id":"levelo_inurba_marseille","lat":43.29526,"lon":5.38548,"is_reserved":false,"is_disabled":false,"rental_uris":{"android":"levelo://app?vid=170f9e2d-c67b-40fd-932d-5dcf242be3f1","ios":"levelo://app?vid=170f9e2d-c67b-40fd-932d-5dcf242be3f1"},"vehicle_type_id":"4","last_reported":1731262205,"current_range_meters":9200,"station_id":"ce4bgih2rcd13ifvqba0","pricing_plan_id":"cebpf4jnsgd1na2vs0mg"},{"bike_id":"9ab3b81e-4cd0-44e1-aa28-4461d425e0c0","system_id":"levelo_inurba_marseille","lat":43.32662,"lon":5.4099,"is_reserved":false,"is_disabled":false,"rental_uris":{"android":"levelo://app?vid=9ab3b81e-4cd0-44e1-aa28-4461d425e0c0","ios":"levelo://app?vid=9ab3b81e-4cd0-44e1-aa28-4461d425e0c0"},"vehicle_type_id":"4","last_reported":1731262205,"current_range_meters":37600,"station_id":"ce4bhpp2rcd13ifvqhgg","pricing_plan_id":"cebpf4jnsgd1na2vs0mg"},{"bike_id":"30de2e8a-2067-4723-b10c-0ae5e73636b6","system_id":"levelo_inurba_marseille","lat":43.29535,"lon":5.38542,"is_reserved":false,"is_disabled":false,"rental_uris":{"android":"levelo://app?vid=30de2e8a-2067-4723-b10c-0ae5e73636b6","ios":"levelo://app?vid=30de2e8a-2067-4723-b10c-0ae5e73636b6"},"vehicle_type_id":"4","last_reported":1731262205,"current_range_meters":36800,"station_id":"ce4bgih2rcd13ifvqba0","pricing_plan_id":"cebpf4jnsgd1na2vs0mg"},{"bike_id":"3fab1232-136c-4951-8462-92ffe73f19ae","system_id":"levelo_inurba_marseille","lat":43.31717,"lon":5.37772,"is_reserved":false,"is_disabled":false,"rental_uris":{"android":"levelo://app?vid=3fab1232-136c-4951-8462-92ffe73f19ae","ios":"levelo://app?vid=3fab1232-136c-4951-8462-92ffe73f19ae"},"vehicle_type_id":"4","last_reported":1731262205,"current_range_meters":16000,"station_id":"ce4bgth2rcd13ifvqch0","pricing_plan_id":"cebpf4jnsgd1na2vs0mg"},{"bike_id":"a10020e7-f1be-410a-b203-2862f89a6e2f","system_id":"levelo_inurba_marseille","lat":43.32489,"lon":5.36572,"is_reserved":false,"is_disabled":false,"rental_uris":{"android":"levelo://app?vid=a10020e7-f1be-410a-b203-2862f89a6e2f","ios":"levelo://app?vid=a10020e7-f1be-410a-b203-2862f89a6e2f"},"vehicle_type_id":"4","last_reported":1731262205,"current_range_meters":37600,"station_id":"ce4bhs12rcd13ifvqhvg","pricing_plan_id":"cebpf4jnsgd1na2vs0mg"},{"bike_id":"7076849b-5a8e-4603-84ec-0c69e4fdbcb6","system_id":"levelo_inurba_marseille","lat":43.25122,"lon":5.40319,"is_reserved":false,"is_disabled":false,"rental_uris":{"android":"levelo://app?vid=7076849b-5a8e-4603-84ec-0c69e4fdbcb6","ios":"levelo://app?vid=7076849b-5a8e-4603-84ec-0c69e4fdbcb6"},"vehicle_type_id":"4","last_reported":1731262205,"current_range_meters":28400,"station_id":"ce4bhlh2rcd13ifvqgig","pricing_plan_id":"cebpf4jnsgd1na2vs0mg"},{"bike_id":"e2f03b55-9e5f-4517-b2d4-1c6bca62356b","system_id":"levelo_inurba_marseille","lat":43.264636,"lon":5.380511,"is_reserved":false,"is_disabled":false,"rental_uris":{"android":"levelo://app?vid=e2f03b55-9e5f-4517-b2d4-1c6bca62356b","ios":"levelo://app?vid=e2f03b55-9e5f-4517-b2d4-1c6bca62356b"},"vehicle_type_id":"4","last_reported":1731262205,"current_range_meters":33600,"station_id":"","pricing_plan_id":"cebpf4jnsgd1na2vs0mg"},{"bike_id":"3cb06d37-d171-46f7-b418-e8d09a4f4667","system_id":"levelo_inurba_marseille","lat":43.29261,"lon":5.38451,"is_reserved":false,"is_disabled":false,"rental_uris":{"android":"levelo://app?vid=3cb06d37-d171-46f7-b418-e8d09a4f4667","ios":"levelo://app?vid=3cb06d37-d171-46f7-b418-e8d09a4f4667"},"vehicle_type_id":"4","last_reported":1731262205,"current_range_meters":6000,"station_id":"ce4bh692rcd13ifvqea0","pricing_plan_id":"cebpf4jnsgd1na2vs0mg"},{"bike_id":"b3da425d-ddf9-475e-b304-be68654d687b","system_id":"levelo_inurba_marseille","lat":43.29686,"lon":5.3796,"is_reserved":false,"is_disabled":false,"rental_uris":{"android":"levelo://app?vid=b3da425d-ddf9-475e-b304-be68654d687b","ios":"levelo://app?vid=b3da425d-ddf9-475e-b304-be68654d687b"},"vehicle_type_id":"4","last_reported":1731262205,"current_range_meters":11600,"station_id":"ce4bh3p2rcd13ifvqdq0","pricing_plan_id":"cebpf4jnsgd1na2vs0mg"},{"bike_id":"89fd104b-8a8c-47be-9ec7-9e0822074c0d","system_id":"levelo_inurba_marseille","lat":43.24803,"lon":5.37457,"is_reserved":false,"is_disabled":false,"rental_uris":{"android":"levelo://app?vid=89fd104b-8a8c-47be-9ec7-9e0822074c0d","ios":"levelo://app?vid=89fd104b-8a8c-47be-9ec7-9e0822074c0d"},"vehicle_type_id":"4","last_reported":1731262205,"current_range_meters":26800,"station_id":"ce4bhgh2rcd13ifvqfb0","pricing_plan_id":"cebpf4jnsgd1na2vs0mg"},{"bike_id":"db2e6139-0551-4de2-8e50-fffa4eceeafd","system_id":"levelo_inurba_marseille","lat":43.29274,"lon":5.36841,"is_reserved":false,"is_disabled":false,"rental_uris":{"android":"levelo://app?vid=db2e6139-0551-4de2-8e50-fffa4eceeafd","ios":"levelo://app?vid=db2e6139-0551-4de2-8e50-fffa4eceeafd"},"vehicle_type_id":"4","last_reported":1731262205,"current_range_meters":27600,"station_id":"ce4bhbp2rcd13ifvqesg","pricing_plan_id":"cebpf4jnsgd1na2vs0mg"},{"bike_id":"f8ec46a0-ff6e-4c11-8d56-6540271d3bcd","system_id":"levelo_inurba_marseille","lat":43.30564,"lon":5.38416,"is_reserved":false,"is_disabled":false,"rental_uris":{"android":"levelo://app?vid=f8ec46a0-ff6e-4c11-8d56-6540271d3bcd","ios":"levelo://app?vid=f8ec46a0-ff6e-4c11-8d56-6540271d3bcd"},"vehicle_type_id":"4","last_reported":1731262205,"current_range_meters":15200,"station_id":"ce4bgg92rcd13ifvqb30","pricing_plan_id":"cebpf4jnsgd1na2vs0mg"},{"bike_id":"444fc2f0-ea12-47d3-8d56-340f424a7b06","system_id":"levelo_inurba_marseille","lat":43.30603,"lon":5.372332,"is_reserved":false,"is_disabled":false,"rental_uris":{"android":"levelo://app?vid=444fc2f0-ea12-47d3-8d56-340f424a7b06","ios":"levelo://app?vid=444fc2f0-ea12-47d3-8d56-340f424a7b06"},"vehicle_type_id":"4","last_reported":1731262205,"current_range_meters":36800,"station_id":"ce4bgqh2rcd13ifvqc4g","pricing_plan_id":"cebpf4jnsgd1na2vs0mg"},{"bike_id":"6143d291-40b6-43cb-8309-9f764720e893","system_id":"levelo_inurba_marseille","lat":43.26052,"lon":5.39399,"is_reserved":false,"is_disabled":false,"rental_uris":{"android":"levelo://app?vid=6143d291-40b6-43cb-8309-9f764720e893","ios":"levelo://app?vid=6143d291-40b6-43cb-8309-9f764720e893"},"vehicle_type_id":"4","last_reported":1731262205,"current_range_meters":16400,"station_id":"ce4bhh92rcd13ifvqfj0","pricing_plan_id":"cebpf4jnsgd1na2vs0mg"},{"bike_id":"52a71ef5-8ef7-4a13-9edb-b931936b8cfb","system_id":"levelo_inurba_marseille","lat":43.33731,"lon":5.39189,"is_reserved":false,"is_disabled":false,"rental_uris":{"android":"levelo://app?vid=52a71ef5-8ef7-4a13-9edb-b931936b8cfb","ios":"levelo://app?vid=52a71ef5-8ef7-4a13-9edb-b931936b8cfb"},"vehicle_type_id":"4","last_reported":1731262205,"current_range_meters":34800,"station_id":"ce4bhr92rcd13ifvqhsg","pricing_plan_id":"cebpf4jnsgd1na2vs0mg"},{"bike_id":"f23d7e81-bd37-43fe-a9a9-a09f7a4dfad6","system_id":"levelo_inurba_marseille","lat":43.3009,"lon":5.39074,"is_reserved":false,"is_disabled":false,"rental_uris":{"android":"levelo://app?vid=f23d7e81-bd37-43fe-a9a9-a09f7a4dfad6","ios":"levelo://app?vid=f23d7e81-bd37-43fe-a9a9-a09f7a4dfad6"},"vehicle_type_id":"4","last_reported":1731262205,"current_range_meters":17200,"station_id":"ce4bh192rcd13ifvqdb0","pricing_plan_id":"cebpf4jnsgd1na2vs0mg"},{"bike_id":"ad086397-534f-4a0c-bc69-75a241990385","system_id":"levelo_inurba_marseille","lat":43.29159,"lon":5.37161,"is_reserved":false,"is_disabled":false,"rental_uris":{"android":"levelo://app?vid=ad086397-534f-4a0c-bc69-75a241990385","ios":"levelo://app?vid=ad086397-534f-4a0c-bc69-75a241990385"},"vehicle_type_id":"4","last_reported":1731262205,"current_range_meters":27200,"station_id":"ce4bha92rcd13ifvqeh0","pricing_plan_id":"cebpf4jnsgd1na2vs0mg"},{"bike_id":"10356833-33b6-41fe-9ef0-40c7be270586","system_id":"levelo_inurba_marseille","lat":43.29528,"lon":5.38541,"is_reserved":false,"is_disabled":false,"rental_uris":{"android":"levelo://app?vid=10356833-33b6-41fe-9ef0-40c7be270586","ios":"levelo://app?vid=10356833-33b6-41fe-9ef0-40c7be270586"},"vehicle_type_id":"4","last_reported":1731262205,"current_range_meters":30800,"station_id":"ce4bgih2rcd13ifvqba0","pricing_plan_id":"cebpf4jnsgd1na2vs0mg"},{"bike_id":"4b109dfa-e086-4368-b8bf-75ec15cfbaec","system_id":"levelo_inurba_marseille","lat":43.29261,"lon":5.38449,"is_reserved":false,"is_disabled":false,"rental_uris":{"android":"levelo://app?vid=4b109dfa-e086-4368-b8bf-75ec15cfbaec","ios":"levelo://app?vid=4b109dfa-e086-4368-b8bf-75ec15cfbaec"},"vehicle_type_id":"4","last_reported":1731262205,"current_range_meters":22800,"station_id":"ce4bh692rcd13ifvqea0","pricing_plan_id":"cebpf4jnsgd1na2vs0mg"},{"bike_id":"bf013fc7-070a-4ba2-b0c3-32dc198727b4","system_id":"levelo_inurba_marseille","lat":43.31497,"lon":5.3731,"is_reserved":false,"is_disabled":false,"rental_uris":{"android":"levelo://app?vid=bf013fc7-070a-4ba2-b0c3-32dc198727b4","ios":"levelo://app?vid=bf013fc7-070a-4ba2-b0c3-32dc198727b4"},"vehicle_type_id":"4","last_reported":1731262205,"current_range_meters":36000,"station_id":"ce4bgt12rcd13ifvqcd0","pricing_plan_id":"cebpf4jnsgd1na2vs0mg"},{"bike_id":"03d9631f-d768-4be8-b4d2-808541d421a7","system_id":"levelo_inurba_marseille","lat":43.241638,"lon":5.363966,"is_reserved":false,"is_disabled":false,"rental_uris":{"android":"levelo://app?vid=03d9631f-d768-4be8-b4d2-808541d421a7","ios":"levelo://app?vid=03d9631f-d768-4be8-b4d2-808541d421a7"},"vehicle_type_id":"4","last_reported":1731262205,"current_range_meters":28000,"station_id":"cpo36qri1sfpv3e86is0","pricing_plan_id":"cebpf4jnsgd1na2vs0mg"},{"bike_id":"b5492479-7221-42d9-80f4-a291387641ff","system_id":"levelo_inurba_marseille","lat":43.29033,"lon":5.38131,"is_reserved":false,"is_disabled":false,"rental_uris":{"android":"levelo://app?vid=b5492479-7221-42d9-80f4-a291387641ff","ios":"levelo://app?vid=b5492479-7221-42d9-80f4-a291387641ff"},"vehicle_type_id":"4","last_reported":1731262205,"current_range_meters":4000,"station_id":"ce4bh4p2rcd13ifvqe1g","pricing_plan_id":"cebpf4jnsgd1na2vs0mg"},{"bike_id":"11c45fd9-3e93-4785-983d-bba9dabc1443","system_id":"levelo_inurba_marseille","lat":43.2837,"lon":5.38636,"is_reserved":false,"is_disabled":false,"rental_uris":{"android":"levelo://app?vid=11c45fd9-3e93-4785-983d-bba9dabc1443","ios":"levelo://app?vid=11c45fd9-3e93-4785-983d-bba9dabc1443"},"vehicle_type_id":"4","last_reported":1731262205,"current_range_meters":11600,"station_id":"ce4bh492rcd13ifvqdvg","pricing_plan_id":"cebpf4jnsgd1na2vs0mg"},{"bike_id":"5c18fdbd-142b-47d2-ae71-a350b9577093","system_id":"levelo_inurba_marseille","lat":43.31069,"lon":5.38355,"is_reserved":false,"is_disabled":false,"rental_uris":{"android":"levelo://app?vid=5c18fdbd-142b-47d2-ae71-a350b9577093","ios":"levelo://app?vid=5c18fdbd-142b-47d2-ae71-a350b9577093"},"vehicle_type_id":"4","last_reported":1731262205,"current_range_meters":6000,"station_id":"ce4bgv92rcd13ifvqcr0","pricing_plan_id":"cebpf4jnsgd1na2vs0mg"},{"bike_id":"51c92f99-a97a-4ba0-9d87-cf10b44afa4c","system_id":"levelo_inurba_marseille","lat":43.29041,"lon":5.39949,"is_reserved":false,"is_disabled":false,"rental_uris":{"android":"levelo://app?vid=51c92f99-a97a-4ba0-9d87-cf10b44afa4c","ios":"levelo://app?vid=51c92f99-a97a-4ba0-9d87-cf10b44afa4c"},"vehicle_type_id":"4","last_reported":1731262205,"current_range_meters":38000,"station_id":"ce4bh392rcd13ifvqdm0","pricing_plan_id":"cebpf4jnsgd1na2vs0mg"},{"bike_id":"f8d1664e-f0ba-4f90-ab9d-577c4d565ddf","system_id":"levelo_inurba_marseille","lat":43.30146,"lon":5.37423,"is_reserved":false,"is_disabled":false,"rental_uris":{"android":"levelo://app?vid=f8d1664e-f0ba-4f90-ab9d-577c4d565ddf","ios":"levelo://app?vid=f8d1664e-f0ba-4f90-ab9d-577c4d565ddf"},"vehicle_type_id":"4","last_reported":1731262205,"current_range_meters":38800,"station_id":"ce4bgs92rcd13ifvqcc0","pricing_plan_id":"cebpf4jnsgd1na2vs0mg"},{"bike_id":"16edd5e5-0497-4831-bb6b-d18eb7e92293","system_id":"levelo_inurba_marseille","lat":43.24812,"lon":5.37457,"is_reserved":false,"is_disabled":false,"rental_uris":{"android":"levelo://app?vid=16edd5e5-0497-4831-bb6b-d18eb7e92293","ios":"levelo://app?vid=16edd5e5-0497-4831-bb6b-d18eb7e92293"},"vehicle_type_id":"4","last_reported":1731262205,"current_range_meters":28800,"station_id":"ce4bhgh2rcd13ifvqfb0","pricing_plan_id":"cebpf4jnsgd1na2vs0mg"},{"bike_id":"feb86f62-2c80-4064-8e38-33c5534046da","system_id":"levelo_inurba_marseille","lat":43.28198,"lon":5.39895,"is_reserved":false,"is_disabled":false,"rental_uris":{"android":"levelo://app?vid=feb86f62-2c80-4064-8e38-33c5534046da","ios":"levelo://app?vid=feb86f62-2c80-4064-8e38-33c5534046da"},"vehicle_type_id":"4","last_reported":1731262205,"current_range_meters":20800,"station_id":"","pricing_plan_id":"cebpf4jnsgd1na2vs0mg"},{"bike_id":"a2e0dbd8-6bb6-4f58-81e6-a5bb2ebfdca4","system_id":"levelo_inurba_marseille","lat":43.23198,"lon":5.35559,"is_reserved":false,"is_disabled":false,"rental_uris":{"android":"levelo://app?vid=a2e0dbd8-6bb6-4f58-81e6-a5bb2ebfdca4","ios":"levelo://app?vid=a2e0dbd8-6bb6-4f58-81e6-a5bb2ebfdca4"},"vehicle_type_id":"4","last_reported":1731262205,"current_range_meters":38400,"station_id":"ce4bhu92rcd13ifvqi70","pricing_plan_id":"cebpf4jnsgd1na2vs0mg"},{"bike_id":"458e9aed-e1ab-4426-9b7c-1f47b1b1d0be","system_id":"levelo_inurba_marseille","lat":43.33605,"lon":5.41046,"is_reserved":false,"is_disabled":false,"rental_uris":{"android":"levelo://app?vid=458e9aed-e1ab-4426-9b7c-1f47b1b1d0be","ios":"levelo://app?vid=458e9aed-e1ab-4426-9b7c-1f47b1b1d0be"},"vehicle_type_id":"4","last_reported":1731262205,"current_range_meters":12400,"station_id":"ce4bhqh2rcd13ifvqhmg","pricing_plan_id":"cebpf4jnsgd1na2vs0mg"},{"bike_id":"ed0aec7b-e3ff-426f-8f4c-c571136ae643","system_id":"levelo_inurba_marseille","lat":43.314977,"lon":5.373177,"is_reserved":false,"is_disabled":false,"rental_uris":{"android":"levelo://app?vid=ed0aec7b-e3ff-426f-8f4c-c571136ae643","ios":"levelo://app?vid=ed0aec7b-e3ff-426f-8f4c-c571136ae643"},"vehicle_type_id":"4","last_reported":1731262205,"current_range_meters":9200,"station_id":"ce4bgt12rcd13ifvqcd0","pricing_plan_id":"cebpf4jnsgd1na2vs0mg"},{"bike_id":"628cf893-ea0c-4452-aa25-9db7299d1c6d","system_id":"levelo_inurba_marseille","lat":43.26673,"lon":5.38255,"is_reserved":false,"is_disabled":false,"rental_uris":{"android":"levelo://app?vid=628cf893-ea0c-4452-aa25-9db7299d1c6d","ios":"levelo://app?vid=628cf893-ea0c-4452-aa25-9db7299d1c6d"},"vehicle_type_id":"4","last_reported":1731262205,"current_range_meters":32000,"station_id":"","pricing_plan_id":"cebpf4jnsgd1na2vs0mg"},{"bike_id":"483640a6-2aae-4d79-98c2-cb94c84df7be","system_id":"levelo_inurba_marseille","lat":43.2894,"lon":5.36395,"is_reserved":false,"is_disabled":false,"rental_uris":{"android":"levelo://app?vid=483640a6-2aae-4d79-98c2-cb94c84df7be","ios":"levelo://app?vid=483640a6-2aae-4d79-98c2-cb94c84df7be"},"vehicle_type_id":"4","last_reported":1731262205,"current_range_meters":38000,"station_id":"ce4bhc92rcd13ifvqetg","pricing_plan_id":"cebpf4jnsgd1na2vs0mg"},{"bike_id":"4cfabb26-d8be-4c68-822d-03831482ef93","system_id":"levelo_inurba_marseille","lat":43.24807,"lon":5.37456,"is_reserved":false,"is_disabled":false,"rental_uris":{"android":"levelo://app?vid=4cfabb26-d8be-4c68-822d-03831482ef93","ios":"levelo://app?vid=4cfabb26-d8be-4c68-822d-03831482ef93"},"vehicle_type_id":"4","last_reported":1731262205,"current_range_meters":39200,"station_id":"ce4bhgh2rcd13ifvqfb0","pricing_plan_id":"cebpf4jnsgd1na2vs0mg"},{"bike_id":"3bcdb331-a021-4341-8e46-e73505c0ef3a","system_id":"levelo_inurba_marseille","lat":43.27612,"lon":5.36111,"is_reserved":false,"is_disabled":false,"rental_uris":{"android":"levelo://app?vid=3bcdb331-a021-4341-8e46-e73505c0ef3a","ios":"levelo://app?vid=3bcdb331-a021-4341-8e46-e73505c0ef3a"},"vehicle_type_id":"4","last_reported":1731262205,"current_range_meters":38800,"station_id":"ce4bgj92rcd13ifvqbe0","pricing_plan_id":"cebpf4jnsgd1na2vs0mg"},{"bike_id":"5c91adf0-ee2c-4ae6-8882-91ad0f428980","system_id":"levelo_inurba_marseille","lat":43.30886,"lon":5.39653,"is_reserved":false,"is_disabled":false,"rental_uris":{"android":"levelo://app?vid=5c91adf0-ee2c-4ae6-8882-91ad0f428980","ios":"levelo://app?vid=5c91adf0-ee2c-4ae6-8882-91ad0f428980"},"vehicle_type_id":"4","last_reported":1731262205,"current_range_meters":25600,"station_id":"ce4bh012rcd13ifvqcv0","pricing_plan_id":"cebpf4jnsgd1na2vs0mg"},{"bike_id":"7f7bb04c-c130-4bd2-83b6-db96979f522b","system_id":"levelo_inurba_marseille","lat":43.29194,"lon":5.39319,"is_reserved":false,"is_disabled":false,"rental_uris":{"android":"levelo://app?vid=7f7bb04c-c130-4bd2-83b6-db96979f522b","ios":"levelo://app?vid=7f7bb04c-c130-4bd2-83b6-db96979f522b"},"vehicle_type_id":"4","last_reported":1731262205,"current_range_meters":18000,"station_id":"ce4bh192rcd13ifvqdd0","pricing_plan_id":"cebpf4jnsgd1na2vs0mg"},{"bike_id":"b16943e1-6e4b-4767-8789-7da828786277","system_id":"levelo_inurba_marseille","lat":43.34179,"lon":5.38613,"is_reserved":false,"is_disabled":false,"rental_uris":{"android":"levelo://app?vid=b16943e1-6e4b-4767-8789-7da828786277","ios":"levelo://app?vid=b16943e1-6e4b-4767-8789-7da828786277"},"vehicle_type_id":"4","last_reported":1731262205,"current_range_meters":10800,"station_id":"","pricing_plan_id":"cebpf4jnsgd1na2vs0mg"},{"bike_id":"13d53dae-07d3-4b82-bd43-8f8f3a606b6a","system_id":"levelo_inurba_marseille","lat":43.25109,"lon":5.40319,"is_reserved":false,"is_disabled":false,"rental_uris":{"android":"levelo://app?vid=13d53dae-07d3-4b82-bd43-8f8f3a606b6a","ios":"levelo://app?vid=13d53dae-07d3-4b82-bd43-8f8f3a606b6a"},"vehicle_type_id":"4","last_reported":1731262205,"current_range_meters":11200,"station_id":"ce4bhlh2rcd13ifvqgig","pricing_plan_id":"cebpf4jnsgd1na2vs0mg"},{"bike_id":"0acccacb-5c5e-4293-af73-a3ca4b76801a","system_id":"levelo_inurba_marseille","lat":43.27956,"lon":5.41057,"is_reserved":false,"is_disabled":false,"rental_uris":{"android":"levelo://app?vid=0acccacb-5c5e-4293-af73-a3ca4b76801a","ios":"levelo://app?vid=0acccacb-5c5e-4293-af73-a3ca4b76801a"},"vehicle_type_id":"4","last_reported":1731262205,"current_range_meters":11600,"station_id":"ce4bhnp2rcd13ifvqh0g","pricing_plan_id":"cebpf4jnsgd1na2vs0mg"},{"bike_id":"0f144d75-5bef-4310-828c-94a8a10cc57b","system_id":"levelo_inurba_marseille","lat":43.2875,"lon":5.38929,"is_reserved":false,"is_disabled":false,"rental_uris":{"android":"levelo://app?vid=0f144d75-5bef-4310-828c-94a8a10cc57b","ios":"levelo://app?vid=0f144d75-5bef-4310-828c-94a8a10cc57b"},"vehicle_type_id":"4","last_reported":1731262205,"current_range_meters":4400,"station_id":"","pricing_plan_id":"cebpf4jnsgd1na2vs0mg"},{"bike_id":"e7d0aa3b-63b9-4bdc-a314-0ca326a13c45","system_id":"levelo_inurba_marseille","lat":43.32332,"lon":5.40624,"is_reserved":false,"is_disabled":false,"rental_uris":{"android":"levelo://app?vid=e7d0aa3b-63b9-4bdc-a314-0ca326a13c45","ios":"levelo://app?vid=e7d0aa3b-63b9-4bdc-a314-0ca326a13c45"},"vehicle_type_id":"4","last_reported":1731262205,"current_range_meters":14800,"station_id":"ce4bhq92rcd13ifvqhjg","pricing_plan_id":"cebpf4jnsgd1na2vs0mg"},{"bike_id":"83afddec-c1a0-4d5a-a9f3-d52e05581f98","system_id":"levelo_inurba_marseille","lat":43.29417,"lon":5.38624,"is_reserved":false,"is_disabled":false,"rental_uris":{"android":"levelo://app?vid=83afddec-c1a0-4d5a-a9f3-d52e05581f98","ios":"levelo://app?vid=83afddec-c1a0-4d5a-a9f3-d52e05581f98"},"vehicle_type_id":"4","last_reported":1731262205,"current_range_meters":38800,"station_id":"ce4bh2h2rcd13ifvqdh0","pricing_plan_id":"cebpf4jnsgd1na2vs0mg"},{"bike_id":"f3407e7d-27b7-4f1d-acb9-465c6246d3e2","system_id":"levelo_inurba_marseille","lat":43.30533,"lon":5.36559,"is_reserved":false,"is_disabled":false,"rental_uris":{"android":"levelo://app?vid=f3407e7d-27b7-4f1d-acb9-465c6246d3e2","ios":"levelo://app?vid=f3407e7d-27b7-4f1d-acb9-465c6246d3e2"},"vehicle_type_id":"4","last_reported":1731262205,"current_range_meters":28800,"station_id":"ce4bgs12rcd13ifvqcag","pricing_plan_id":"cebpf4jnsgd1na2vs0mg"},{"bike_id":"b698b2fb-5503-4a44-ae2d-9a2a3df53579","system_id":"levelo_inurba_marseille","lat":43.29527,"lon":5.3941,"is_reserved":false,"is_disabled":false,"rental_uris":{"android":"levelo://app?vid=b698b2fb-5503-4a44-ae2d-9a2a3df53579","ios":"levelo://app?vid=b698b2fb-5503-4a44-ae2d-9a2a3df53579"},"vehicle_type_id":"4","last_reported":1731262205,"current_range_meters":9200,"station_id":"ce4bh292rcd13ifvqdf0","pricing_plan_id":"cebpf4jnsgd1na2vs0mg"},{"bike_id":"a347c9be-d588-4eb0-b9e9-73e02db827dd","system_id":"levelo_inurba_marseille","lat":43.28959,"lon":5.36468,"is_reserved":false,"is_disabled":false,"rental_uris":{"android":"levelo://app?vid=a347c9be-d588-4eb0-b9e9-73e02db827dd","ios":"levelo://app?vid=a347c9be-d588-4eb0-b9e9-73e02db827dd"},"vehicle_type_id":"4","last_reported":1731262205,"current_range_meters":32400,"station_id":"","pricing_plan_id":"cebpf4jnsgd1na2vs0mg"},{"bike_id":"97acac95-0956-4034-8594-0d70ef3141b8","system_id":"levelo_inurba_marseille","lat":43.28659,"lon":5.38665,"is_reserved":false,"is_disabled":false,"rental_uris":{"android":"levelo://app?vid=97acac95-0956-4034-8594-0d70ef3141b8","ios":"levelo://app?vid=97acac95-0956-4034-8594-0d70ef3141b8"},"vehicle_type_id":"4","last_reported":1731262205,"current_range_meters":33200,"station_id":"ce4bh492rcd13ifvqdug","pricing_plan_id":"cebpf4jnsgd1na2vs0mg"},{"bike_id":"69d738b2-f480-41ca-9e51-96655eb5e9dc","system_id":"levelo_inurba_marseille","lat":43.251109,"lon":5.40318,"is_reserved":false,"is_disabled":false,"rental_uris":{"android":"levelo://app?vid=69d738b2-f480-41ca-9e51-96655eb5e9dc","ios":"levelo://app?vid=69d738b2-f480-41ca-9e51-96655eb5e9dc"},"vehicle_type_id":"4","last_reported":1731262205,"current_range_meters":11200,"station_id":"ce4bhlh2rcd13ifvqgig","pricing_plan_id":"cebpf4jnsgd1na2vs0mg"},{"bike_id":"f46cb0fb-5de8-4ab0-9dd0-83d99a22947a","system_id":"levelo_inurba_marseille","lat":43.2953,"lon":5.38549,"is_reserved":false,"is_disabled":false,"rental_uris":{"android":"levelo://app?vid=f46cb0fb-5de8-4ab0-9dd0-83d99a22947a","ios":"levelo://app?vid=f46cb0fb-5de8-4ab0-9dd0-83d99a22947a"},"vehicle_type_id":"4","last_reported":1731262205,"current_range_meters":38800,"station_id":"ce4bgih2rcd13ifvqba0","pricing_plan_id":"cebpf4jnsgd1na2vs0mg"},{"bike_id":"7e514a83-c0dd-47db-9deb-0c35bed0ce43","system_id":"levelo_inurba_marseille","lat":43.246395,"lon":5.388827,"is_reserved":false,"is_disabled":false,"rental_uris":{"android":"levelo://app?vid=7e514a83-c0dd-47db-9deb-0c35bed0ce43","ios":"levelo://app?vid=7e514a83-c0dd-47db-9deb-0c35bed0ce43"},"vehicle_type_id":"4","last_reported":1731262205,"current_range_meters":10800,"station_id":"","pricing_plan_id":"cebpf4jnsgd1na2vs0mg"},{"bike_id":"bd8c90e1-842d-4b29-aa20-5d027002179b","system_id":"levelo_inurba_marseille","lat":43.25496,"lon":5.37675,"is_reserved":false,"is_disabled":false,"rental_uris":{"android":"levelo://app?vid=bd8c90e1-842d-4b29-aa20-5d027002179b","ios":"levelo://app?vid=bd8c90e1-842d-4b29-aa20-5d027002179b"},"vehicle_type_id":"4","last_reported":1731262205,"current_range_meters":38800,"station_id":"ce4bhh12rcd13ifvqff0","pricing_plan_id":"cebpf4jnsgd1na2vs0mg"},{"bike_id":"52c672e7-4919-434f-9403-2750170f2a37","system_id":"levelo_inurba_marseille","lat":43.25507,"lon":5.37655,"is_reserved":false,"is_disabled":false,"rental_uris":{"android":"levelo://app?vid=52c672e7-4919-434f-9403-2750170f2a37","ios":"levelo://app?vid=52c672e7-4919-434f-9403-2750170f2a37"},"vehicle_type_id":"4","last_reported":1731262205,"current_range_meters":38800,"station_id":"ce4bhh12rcd13ifvqff0","pricing_plan_id":"cebpf4jnsgd1na2vs0mg"},{"bike_id":"724369f1-6a7b-488a-a2a8-95368d61a8cb","system_id":"levelo_inurba_marseille","lat":43.252593,"lon":5.402591,"is_reserved":false,"is_disabled":false,"rental_uris":{"android":"levelo://app?vid=724369f1-6a7b-488a-a2a8-95368d61a8cb","ios":"levelo://app?vid=724369f1-6a7b-488a-a2a8-95368d61a8cb"},"vehicle_type_id":"4","last_reported":1731262205,"current_range_meters":32400,"station_id":"ce4bgj92rcd13ifvqbd0","pricing_plan_id":"cebpf4jnsgd1na2vs0mg"},{"bike_id":"ac44a4a7-0974-45db-a6e2-c790cfe8518f","system_id":"levelo_inurba_marseille","lat":43.29418,"lon":5.38622,"is_reserved":false,"is_disabled":false,"rental_uris":{"android":"levelo://app?vid=ac44a4a7-0974-45db-a6e2-c790cfe8518f","ios":"levelo://app?vid=ac44a4a7-0974-45db-a6e2-c790cfe8518f"},"vehicle_type_id":"4","last_reported":1731262205,"current_range_meters":10000,"station_id":"ce4bh2h2rcd13ifvqdh0","pricing_plan_id":"cebpf4jnsgd1na2vs0mg"},{"bike_id":"004b71af-7138-4c7a-b049-b9200377de44","system_id":"levelo_inurba_marseille","lat":43.30895,"lon":5.37189,"is_reserved":false,"is_disabled":false,"rental_uris":{"android":"levelo://app?vid=004b71af-7138-4c7a-b049-b9200377de44","ios":"levelo://app?vid=004b71af-7138-4c7a-b049-b9200377de44"},"vehicle_type_id":"4","last_reported":1731262205,"current_range_meters":11200,"station_id":"ce4bguh2rcd13ifvqckg","pricing_plan_id":"cebpf4jnsgd1na2vs0mg"},{"bike_id":"ebf12746-6482-46e5-b487-2181c6ad0eb0","system_id":"levelo_inurba_marseille","lat":43.29108,"lon":5.38134,"is_reserved":false,"is_disabled":false,"rental_uris":{"android":"levelo://app?vid=ebf12746-6482-46e5-b487-2181c6ad0eb0","ios":"levelo://app?vid=ebf12746-6482-46e5-b487-2181c6ad0eb0"},"vehicle_type_id":"4","last_reported":1731262205,"current_range_meters":6800,"station_id":"ce4bh512rcd13ifvqe2g","pricing_plan_id":"cebpf4jnsgd1na2vs0mg"},{"bike_id":"5ecee79f-dc3a-43a3-a245-f9268b953ced","system_id":"levelo_inurba_marseille","lat":43.27953,"lon":5.41044,"is_reserved":false,"is_disabled":false,"rental_uris":{"android":"levelo://app?vid=5ecee79f-dc3a-43a3-a245-f9268b953ced","ios":"levelo://app?vid=5ecee79f-dc3a-43a3-a245-f9268b953ced"},"vehicle_type_id":"4","last_reported":1731262205,"current_range_meters":23200,"station_id":"ce4bhnp2rcd13ifvqh0g","pricing_plan_id":"cebpf4jnsgd1na2vs0mg"},{"bike_id":"7737e147-61f8-4bbf-98dc-c954b52fc73f","system_id":"levelo_inurba_marseille","lat":43.27811,"lon":5.40714,"is_reserved":false,"is_disabled":false,"rental_uris":{"android":"levelo://app?vid=7737e147-61f8-4bbf-98dc-c954b52fc73f","ios":"levelo://app?vid=7737e147-61f8-4bbf-98dc-c954b52fc73f"},"vehicle_type_id":"4","last_reported":1731262205,"current_range_meters":32000,"station_id":"ce4bhnh2rcd13ifvqgtg","pricing_plan_id":"cebpf4jnsgd1na2vs0mg"},{"bike_id":"95a29b49-7218-4ae2-8a20-f16d50246826","system_id":"levelo_inurba_marseille","lat":43.31713,"lon":5.43703,"is_reserved":false,"is_disabled":false,"rental_uris":{"android":"levelo://app?vid=95a29b49-7218-4ae2-8a20-f16d50246826","ios":"levelo://app?vid=95a29b49-7218-4ae2-8a20-f16d50246826"},"vehicle_type_id":"4","last_reported":1731262205,"current_range_meters":11200,"station_id":"ce4bhp92rcd13ifvqhcg","pricing_plan_id":"cebpf4jnsgd1na2vs0mg"},{"bike_id":"07d8bef7-a49f-412e-993b-b8654f9e8ba8","system_id":"levelo_inurba_marseille","lat":43.284637,"lon":5.392208,"is_reserved":false,"is_disabled":false,"rental_uris":{"android":"levelo://app?vid=07d8bef7-a49f-412e-993b-b8654f9e8ba8","ios":"levelo://app?vid=07d8bef7-a49f-412e-993b-b8654f9e8ba8"},"vehicle_type_id":"4","last_reported":1731262205,"current_range_meters":30400,"station_id":"ce4bgk12rcd13ifvqbj0","pricing_plan_id":"cebpf4jnsgd1na2vs0mg"},{"bike_id":"90ffce03-1b9b-4115-a0fd-76a31f888daf","system_id":"levelo_inurba_marseille","lat":43.308954,"lon":5.396707,"is_reserved":false,"is_disabled":false,"rental_uris":{"android":"levelo://app?vid=90ffce03-1b9b-4115-a0fd-76a31f888daf","ios":"levelo://app?vid=90ffce03-1b9b-4115-a0fd-76a31f888daf"},"vehicle_type_id":"4","last_reported":1731262205,"current_range_meters":18800,"station_id":"ce4bh012rcd13ifvqcv0","pricing_plan_id":"cebpf4jnsgd1na2vs0mg"},{"bike_id":"3eec08a4-a7db-43e0-801a-f4a8ac39a338","system_id":"levelo_inurba_marseille","lat":43.29603,"lon":5.38096,"is_reserved":false,"is_disabled":false,"rental_uris":{"android":"levelo://app?vid=3eec08a4-a7db-43e0-801a-f4a8ac39a338","ios":"levelo://app?vid=3eec08a4-a7db-43e0-801a-f4a8ac39a338"},"vehicle_type_id":"4","last_reported":1731262205,"current_range_meters":37600,"station_id":"ce4bgl12rcd13ifvqbo0","pricing_plan_id":"cebpf4jnsgd1na2vs0mg"},{"bike_id":"64651a74-d4a4-4d03-bb08-f62064c487a3","system_id":"levelo_inurba_marseille","lat":43.28942,"lon":5.36631,"is_reserved":false,"is_disabled":false,"rental_uris":{"android":"levelo://app?vid=64651a74-d4a4-4d03-bb08-f62064c487a3","ios":"levelo://app?vid=64651a74-d4a4-4d03-bb08-f62064c487a3"},"vehicle_type_id":"4","last_reported":1731262205,"current_range_meters":38800,"station_id":"ce4bhap2rcd13ifvqek0","pricing_plan_id":"cebpf4jnsgd1na2vs0mg"},{"bike_id":"89a57a28-29d9-433a-8c92-c1756cdb1f95","system_id":"levelo_inurba_marseille","lat":43.24084,"lon":5.3775,"is_reserved":false,"is_disabled":false,"rental_uris":{"android":"levelo://app?vid=89a57a28-29d9-433a-8c92-c1756cdb1f95","ios":"levelo://app?vid=89a57a28-29d9-433a-8c92-c1756cdb1f95"},"vehicle_type_id":"4","last_reported":1731262205,"current_range_meters":10800,"station_id":"ce4bhnp2rcd13ifvqgvg","pricing_plan_id":"cebpf4jnsgd1na2vs0mg"},{"bike_id":"c811f300-d4ed-4889-8568-691b406aca40","system_id":"levelo_inurba_marseille","lat":43.31684,"lon":5.40469,"is_reserved":false,"is_disabled":false,"rental_uris":{"android":"levelo://app?vid=c811f300-d4ed-4889-8568-691b406aca40","ios":"levelo://app?vid=c811f300-d4ed-4889-8568-691b406aca40"},"vehicle_type_id":"4","last_reported":1731262205,"current_range_meters":35200,"station_id":"ce4bh012rcd13ifvqd00","pricing_plan_id":"cebpf4jnsgd1na2vs0mg"},{"bike_id":"30b4c460-0032-4040-b03a-cd708154c7e4","system_id":"levelo_inurba_marseille","lat":43.27065,"lon":5.42283,"is_reserved":false,"is_disabled":false,"rental_uris":{"android":"levelo://app?vid=30b4c460-0032-4040-b03a-cd708154c7e4","ios":"levelo://app?vid=30b4c460-0032-4040-b03a-cd708154c7e4"},"vehicle_type_id":"4","last_reported":1731262205,"current_range_meters":38400,"station_id":"ce4bhk92rcd13ifvqgb0","pricing_plan_id":"cebpf4jnsgd1na2vs0mg"},{"bike_id":"a7eb5692-1f2b-48c6-af16-f2fe0b372124","system_id":"levelo_inurba_marseille","lat":43.33722,"lon":5.39185,"is_reserved":false,"is_disabled":false,"rental_uris":{"android":"levelo://app?vid=a7eb5692-1f2b-48c6-af16-f2fe0b372124","ios":"levelo://app?vid=a7eb5692-1f2b-48c6-af16-f2fe0b372124"},"vehicle_type_id":"4","last_reported":1731262205,"current_range_meters":25200,"station_id":"ce4bhr92rcd13ifvqhsg","pricing_plan_id":"cebpf4jnsgd1na2vs0mg"},{"bike_id":"4dc0e3bd-ab9c-461a-835f-d4784d7b8326","system_id":"levelo_inurba_marseille","lat":43.3133,"lon":5.42356,"is_reserved":false,"is_disabled":false,"rental_uris":{"android":"levelo://app?vid=4dc0e3bd-ab9c-461a-835f-d4784d7b8326","ios":"levelo://app?vid=4dc0e3bd-ab9c-461a-835f-d4784d7b8326"},"vehicle_type_id":"4","last_reported":1731262205,"current_range_meters":11600,"station_id":"ce4bhp92rcd13ifvqhcg","pricing_plan_id":"cebpf4jnsgd1na2vs0mg"},{"bike_id":"76b23abe-d4fa-4b4a-9ab9-b285bd2abab5","system_id":"levelo_inurba_marseille","lat":43.2792,"lon":5.41303,"is_reserved":false,"is_disabled":false,"rental_uris":{"android":"levelo://app?vid=76b23abe-d4fa-4b4a-9ab9-b285bd2abab5","ios":"levelo://app?vid=76b23abe-d4fa-4b4a-9ab9-b285bd2abab5"},"vehicle_type_id":"4","last_reported":1731262205,"current_range_meters":27200,"station_id":"","pricing_plan_id":"cebpf4jnsgd1na2vs0mg"},{"bike_id":"4f7d36d3-f0b6-4241-8add-da1ec0f708fa","system_id":"levelo_inurba_marseille","lat":43.31997,"lon":5.38145,"is_reserved":false,"is_disabled":false,"rental_uris":{"android":"levelo://app?vid=4f7d36d3-f0b6-4241-8add-da1ec0f708fa","ios":"levelo://app?vid=4f7d36d3-f0b6-4241-8add-da1ec0f708fa"},"vehicle_type_id":"4","last_reported":1731262205,"current_range_meters":27200,"station_id":"ce4bhr12rcd13ifvqhpg","pricing_plan_id":"cebpf4jnsgd1na2vs0mg"},{"bike_id":"56f918da-b1c8-460f-a8ce-9591d0ea0d86","system_id":"levelo_inurba_marseille","lat":43.30319,"lon":5.36906,"is_reserved":false,"is_disabled":false,"rental_uris":{"android":"levelo://app?vid=56f918da-b1c8-460f-a8ce-9591d0ea0d86","ios":"levelo://app?vid=56f918da-b1c8-460f-a8ce-9591d0ea0d86"},"vehicle_type_id":"4","last_reported":1731262205,"current_range_meters":38800,"station_id":"ce4bgqh2rcd13ifvqc5g","pricing_plan_id":"cebpf4jnsgd1na2vs0mg"},{"bike_id":"796949ce-3c8f-4255-9822-11ea6d840a2c","system_id":"levelo_inurba_marseille","lat":43.28682,"lon":5.38677,"is_reserved":false,"is_disabled":false,"rental_uris":{"android":"levelo://app?vid=796949ce-3c8f-4255-9822-11ea6d840a2c","ios":"levelo://app?vid=796949ce-3c8f-4255-9822-11ea6d840a2c"},"vehicle_type_id":"4","last_reported":1731262205,"current_range_meters":3600,"station_id":"ce4bh492rcd13ifvqdug","pricing_plan_id":"cebpf4jnsgd1na2vs0mg"},{"bike_id":"49cf07bd-441e-4f18-bf0f-4ed9ea51e6eb","system_id":"levelo_inurba_marseille","lat":43.28424,"lon":5.37513,"is_reserved":false,"is_disabled":false,"rental_uris":{"android":"levelo://app?vid=49cf07bd-441e-4f18-bf0f-4ed9ea51e6eb","ios":"levelo://app?vid=49cf07bd-441e-4f18-bf0f-4ed9ea51e6eb"},"vehicle_type_id":"4","last_reported":1731262205,"current_range_meters":4400,"station_id":"ce4bh412rcd13ifvqds0","pricing_plan_id":"cebpf4jnsgd1na2vs0mg"},{"bike_id":"ad4f2231-230e-4715-b0b0-2ecb5044a2c3","system_id":"levelo_inurba_marseille","lat":43.31714,"lon":5.43709,"is_reserved":false,"is_disabled":false,"rental_uris":{"android":"levelo://app?vid=ad4f2231-230e-4715-b0b0-2ecb5044a2c3","ios":"levelo://app?vid=ad4f2231-230e-4715-b0b0-2ecb5044a2c3"},"vehicle_type_id":"4","last_reported":1731262205,"current_range_meters":38800,"station_id":"ce4bhp92rcd13ifvqhcg","pricing_plan_id":"cebpf4jnsgd1na2vs0mg"},{"bike_id":"447e2e27-475c-4e0b-b530-d762892b182c","system_id":"levelo_inurba_marseille","lat":43.239552,"lon":5.366058,"is_reserved":false,"is_disabled":false,"rental_uris":{"android":"levelo://app?vid=447e2e27-475c-4e0b-b530-d762892b182c","ios":"levelo://app?vid=447e2e27-475c-4e0b-b530-d762892b182c"},"vehicle_type_id":"4","last_reported":1731262205,"current_range_meters":38800,"station_id":"ce4bhi12rcd13ifvqfp0","pricing_plan_id":"cebpf4jnsgd1na2vs0mg"},{"bike_id":"245dfb40-cc2c-4a8d-896a-0ffc1645af3e","system_id":"levelo_inurba_marseille","lat":43.29866,"lon":5.39736,"is_reserved":false,"is_disabled":false,"rental_uris":{"android":"levelo://app?vid=245dfb40-cc2c-4a8d-896a-0ffc1645af3e","ios":"levelo://app?vid=245dfb40-cc2c-4a8d-896a-0ffc1645af3e"},"vehicle_type_id":"4","last_reported":1731262205,"current_range_meters":28000,"station_id":"ce4bh0h2rcd13ifvqd50","pricing_plan_id":"cebpf4jnsgd1na2vs0mg"},{"bike_id":"525831b7-83d5-4477-8ac6-08c675b9a9d6","system_id":"levelo_inurba_marseille","lat":43.26062,"lon":5.39398,"is_reserved":false,"is_disabled":false,"rental_uris":{"android":"levelo://app?vid=525831b7-83d5-4477-8ac6-08c675b9a9d6","ios":"levelo://app?vid=525831b7-83d5-4477-8ac6-08c675b9a9d6"},"vehicle_type_id":"4","last_reported":1731262205,"current_range_meters":4000,"station_id":"ce4bhh92rcd13ifvqfj0","pricing_plan_id":"cebpf4jnsgd1na2vs0mg"},{"bike_id":"52b8e973-651a-4031-b2ca-2070e19b269d","system_id":"levelo_inurba_marseille","lat":43.32665,"lon":5.40991,"is_reserved":false,"is_disabled":false,"rental_uris":{"android":"levelo://app?vid=52b8e973-651a-4031-b2ca-2070e19b269d","ios":"levelo://app?vid=52b8e973-651a-4031-b2ca-2070e19b269d"},"vehicle_type_id":"4","last_reported":1731262205,"current_range_meters":18800,"station_id":"ce4bhpp2rcd13ifvqhgg","pricing_plan_id":"cebpf4jnsgd1na2vs0mg"},{"bike_id":"a1c4ebd5-8883-44fc-8437-d213433ffef8","system_id":"levelo_inurba_marseille","lat":43.32495,"lon":5.36564,"is_reserved":false,"is_disabled":false,"rental_uris":{"android":"levelo://app?vid=a1c4ebd5-8883-44fc-8437-d213433ffef8","ios":"levelo://app?vid=a1c4ebd5-8883-44fc-8437-d213433ffef8"},"vehicle_type_id":"4","last_reported":1731262205,"current_range_meters":33600,"station_id":"ce4bhs12rcd13ifvqhvg","pricing_plan_id":"cebpf4jnsgd1na2vs0mg"},{"bike_id":"8332f846-1305-413e-b1c9-a7058d37d094","system_id":"levelo_inurba_marseille","lat":43.24169,"lon":5.36405,"is_reserved":false,"is_disabled":false,"rental_uris":{"android":"levelo://app?vid=8332f846-1305-413e-b1c9-a7058d37d094","ios":"levelo://app?vid=8332f846-1305-413e-b1c9-a7058d37d094"},"vehicle_type_id":"4","last_reported":1731262205,"current_range_meters":21600,"station_id":"cpo36qri1sfpv3e86is0","pricing_plan_id":"cebpf4jnsgd1na2vs0mg"},{"bike_id":"2edec6ed-ff44-4e51-9cb8-35b273d909db","system_id":"levelo_inurba_marseille","lat":43.27975,"lon":5.38738,"is_reserved":false,"is_disabled":false,"rental_uris":{"android":"levelo://app?vid=2edec6ed-ff44-4e51-9cb8-35b273d909db","ios":"levelo://app?vid=2edec6ed-ff44-4e51-9cb8-35b273d909db"},"vehicle_type_id":"4","last_reported":1731262205,"current_range_meters":27600,"station_id":"ce4bhg12rcd13ifvqf80","pricing_plan_id":"cebpf4jnsgd1na2vs0mg"},{"bike_id":"d3c0bdd9-d924-4377-8cf5-e7493495b377","system_id":"levelo_inurba_marseille","lat":43.255028,"lon":5.376483,"is_reserved":false,"is_disabled":false,"rental_uris":{"android":"levelo://app?vid=d3c0bdd9-d924-4377-8cf5-e7493495b377","ios":"levelo://app?vid=d3c0bdd9-d924-4377-8cf5-e7493495b377"},"vehicle_type_id":"4","last_reported":1731262205,"current_range_meters":8000,"station_id":"ce4bhh12rcd13ifvqff0","pricing_plan_id":"cebpf4jnsgd1na2vs0mg"},{"bike_id":"32b80e6d-c3f8-4d7a-a28e-d74350dc84b6","system_id":"levelo_inurba_marseille","lat":43.29532,"lon":5.37501,"is_reserved":false,"is_disabled":false,"rental_uris":{"android":"levelo://app?vid=32b80e6d-c3f8-4d7a-a28e-d74350dc84b6","ios":"levelo://app?vid=32b80e6d-c3f8-4d7a-a28e-d74350dc84b6"},"vehicle_type_id":"4","last_reported":1731262205,"current_range_meters":20400,"station_id":"ce4bgkp2rcd13ifvqbmg","pricing_plan_id":"cebpf4jnsgd1na2vs0mg"},{"bike_id":"8dc70b02-28d6-45d7-96f5-559b36bcfd7f","system_id":"levelo_inurba_marseille","lat":43.24655,"lon":5.38896,"is_reserved":false,"is_disabled":false,"rental_uris":{"android":"levelo://app?vid=8dc70b02-28d6-45d7-96f5-559b36bcfd7f","ios":"levelo://app?vid=8dc70b02-28d6-45d7-96f5-559b36bcfd7f"},"vehicle_type_id":"4","last_reported":1731262205,"current_range_meters":15200,"station_id":"ce4bhg12rcd13ifvqf60","pricing_plan_id":"cebpf4jnsgd1na2vs0mg"},{"bike_id":"8d0e268e-ab4f-4e56-9cbb-61ea7c079388","system_id":"levelo_inurba_marseille","lat":43.32341,"lon":5.414228,"is_reserved":false,"is_disabled":false,"rental_uris":{"android":"levelo://app?vid=8d0e268e-ab4f-4e56-9cbb-61ea7c079388","ios":"levelo://app?vid=8d0e268e-ab4f-4e56-9cbb-61ea7c079388"},"vehicle_type_id":"4","last_reported":1731262205,"current_range_meters":14800,"station_id":"ce4bh092rcd13ifvqd30","pricing_plan_id":"cebpf4jnsgd1na2vs0mg"},{"bike_id":"f9708638-2d19-4aa2-81c5-f196bbb56f32","system_id":"levelo_inurba_marseille","lat":43.29555,"lon":5.42293,"is_reserved":false,"is_disabled":false,"rental_uris":{"android":"levelo://app?vid=f9708638-2d19-4aa2-81c5-f196bbb56f32","ios":"levelo://app?vid=f9708638-2d19-4aa2-81c5-f196bbb56f32"},"vehicle_type_id":"4","last_reported":1731262205,"current_range_meters":36400,"station_id":"ce4bhph2rcd13ifvqhdg","pricing_plan_id":"cebpf4jnsgd1na2vs0mg"},