{"last_updated":1701342371,"ttl":30,"version":"2.2","data":{"bikes":[{"bike_id":"d5806f96-3ddb-4982-9ae1-28039ead748c","system_id":"levelo_inurba_marseille","lat":43.313467,"lon":5.36713,"is_reserved":false,"is_disabled":false,"rental_uris":{"android":"levelo://app?vid=d5806f96-3ddb-4982-9ae1-28039ead748c","ios":"levelo://app?vid=d5806f96-3ddb-4982-9ae1-28039ead748c"},"vehicle_type_id":"4","last_reported":1701342371,"current_range_meters":20000,"station_id":"ce4bgr92rcd13ifvqc6g","pricing_plan_id":"free"},{"bike_id":"dc8aebcf-5310-4a5e-a1cd-e498b2840c41","system_id":"levelo_inurba_marseille","lat":43.31347,"lon":5.36719,"is_reserved":false,"is_disabled":false,"rental_uris":{"android":"levelo://app?vid=dc8aebcf-5310-4a5e-a1cd-e498b2840c41","ios":"levelo://app?vid=dc8aebcf-5310-4a5e-a1cd-e498b2840c41"},"vehicle_type_id":"4","last_reported":1701342371,"current_range_meters":16400,"station_id":"ce4bgr92rcd13ifvqc6g","pricing_plan_id":"free"},{"bike_id":"a340dd3c-9be4-4398-b879-111a274557d9","system_id":"levelo_inurba_marseille","lat":43.31348,"lon":5.36715,"is_reserved":false,"is_disabled":false,"rental_uris":{"android":"levelo://app?vid=a340dd3c-9be4-4398-b879-111a274557d9","ios":"levelo://app?vid=a340dd3c-9be4-4398-b879-111a274557d9"},"vehicle_type_id":"4","last_reported":1701342371,"current_range_meters":400,"station_id":"ce4bgr92rcd13ifvqc6g","pricing_plan_id":"free"},{"bike_id":"6c32aa9d-4587-4bad-80bd-c8230d328413","system_id":"levelo_inurba_marseille","lat":43.313489,"lon":5.367096,"is_reserved":false,"is_disabled":false,"rental_uris":{"android":"levelo://app?vid=6c32aa9d-4587-4bad-80bd-c8230d328413","ios":"levelo://app?vid=6c32aa9d-4587-4bad-80bd-c8230d328413"},"vehicle_type_id":"4","last_reported":1701342371,"current_range_meters":3600,"station_id":"ce4bgr92rcd13ifvqc6g","pricing_plan_id":"free"},{"bike_id":"0f541c23-7577-4ad0-8e90-c9b79b156f9b","system_id":"levelo_inurba_marseille","lat":43.313391,"lon":5.36706,"is_reserved":false,"is_disabled":false,"rental_uris":{"android":"levelo://app?vid=0f541c23-7577-4ad0-8e90-c9b79b156f9b","ios":"levelo://app?vid=0f541c23-7577-4ad0-8e90-c9b79b156f9b"},"vehicle_type_id":"4","last_reported":1701342371,"current_range_meters":30800,"station_id":"ce4bgr92rcd13ifvqc6g","pricing_plan_id":"free"},{"bike_id":"c42464be-8273-4350-a19f-570d58842f81","system_id":"levelo_inurba_marseille","lat":43.313499,"lon":5.367124,"is_reserved":false,"is_disabled":false,"rental_uris":{"android":"levelo://app?vid=c42464be-8273-4350-a19f-570d58842f81","ios":"levelo://app?vid=c42464be-8273-4350-a19f-570d58842f81"},"vehicle_type_id":"4","last_reported":1701342371,"current_range_meters":28400,"station_id":"ce4bgr92rcd13ifvqc6g","pricing_plan_id":"free"},{"bike_id":"de6fc00f-35ef-4ecc-ac8f-233d13501e24","system_id":"levelo_inurba_marseille","lat":43.313391,"lon":5.36706,"is_reserved":false,"is_disabled":false,"rental_uris":{"android":"levelo://app?vid=de6fc00f-35ef-4ecc-ac8f-233d13501e24","ios":"levelo://app?vid=de6fc00f-35ef-4ecc-ac8f-233d13501e24"},"vehicle_type_id":"4","last_reported":1701342371,"current_range_meters":31200,"station_id":"ce4bgr92rcd13ifvqc6g","pricing_plan_id":"free"},{"bike_id":"7c052d57-e5ae-4cd3-a31f-2f400eadca73","system_id":"levelo_inurba_marseille","lat":43.313493,"lon":5.367205,"is_reserved":false,"is_disabled":false,"rental_uris":{"android":"levelo://app?vid=7c052d57-e5ae-4cd3-a31f-2f400eadca73","ios":"levelo://app?vid=7c052d57-e5ae-4cd3-a31f-2f400eadca73"},"vehicle_type_id":"4","last_reported":1701342371,"current_range_meters":18400,"station_id":"ce4bgr92rcd13ifvqc6g","pricing_plan_id":"free"},{"bike_id":"2f75f45d-9917-4a6c-8a85-1e9bdbfd5318","system_id":"levelo_inurba_marseille","lat":43.313391,"lon":5.36706,"is_reserved":false,"is_disabled":false,"rental_uris":{"android":"levelo://app?vid=2f75f45d-9917-4a6c-8a85-1e9bdbfd5318","ios":"levelo://app?vid=2f75f45d-9917-4a6c-8a85-1e9bdbfd5318"},"vehicle_type_id":"4","last_reported":1701342371,"current_range_meters":31200,"station_id":"ce4bgr92rcd13ifvqc6g","pricing_plan_id":"free"},{"bike_id":"84e775e2-3361-4165-96bb-a3dafd35a718","system_id":"levelo_inurba_marseille","lat":43.31359,"lon":5.36709,"is_reserved":false,"is_disabled":false,"rental_uris":{"android":"levelo://app?vid=84e775e2-3361-4165-96bb-a3dafd35a718","ios":"levelo://app?vid=84e775e2-3361-4165-96bb-a3dafd35a718"},"vehicle_type_id":"4","last_reported":1701342371,"current_range_meters":7200,"station_id":"ce4bgr92rcd13ifvqc6g","pricing_plan_id":"free"},{"bike_id":"f682790a-a905-4ffe-9b83-28bf1c9d304a","system_id":"levelo_inurba_marseille","lat":43.313391,"lon":5.36706,"is_reserved":false,"is_disabled":false,"rental_uris":{"android":"levelo://app?vid=f682790a-a905-4ffe-9b83-28bf1c9d304a","ios":"levelo://app?vid=f682790a-a905-4ffe-9b83-28bf1c9d304a"},"vehicle_type_id":"4","last_reported":1701342371,"current_range_meters":26400,"station_id":"ce4bgr92rcd13ifvqc6g","pricing_plan_id":"free"},{"bike_id":"df5bbf72-8c20-4763-aa81-6f64c47d5905","system_id":"levelo_inurba_marseille","lat":43.313391,"lon":5.36706,"is_reserved":false,"is_disabled":false,"rental_uris":{"android":"levelo://app?vid=df5bbf72-8c20-4763-aa81-6f64c47d5905","ios":"levelo://app?vid=df5bbf72-8c20-4763-aa81-6f64c47d5905"},"vehicle_type_id":"4","last_reported":1701342371,"current_range_meters":30000,"station_id":"ce4bgr92rcd13ifvqc6g","pricing_plan_id":"free"},{"bike_id":"b90655af-8b69-485c-bc4a-58d2ff53270b","system_id":"levelo_inurba_marseille","lat":43.312239,"lon":5.368562,"is_reserved":false,"is_disabled":false,"rental_uris":{"android":"levelo://app?vid=b90655af-8b69-485c-bc4a-58d2ff53270b","ios":"levelo://app?vid=b90655af-8b69-485c-bc4a-58d2ff53270b"},"vehicle_type_id":"4","last_reported":1701342371,"current_range_meters":20000,"station_id":"ce4bgl92rcd13ifvqbq0","pricing_plan_id":"free"},{"bike_id":"6069efed-4214-4ef4-89c2-abebeb832aca","system_id":"levelo_inurba_marseille","lat":43.312239,"lon":5.368562,"is_reserved":false,"is_disabled":false,"rental_uris":{"android":"levelo://app?vid=6069efed-4214-4ef4-89c2-abebeb832aca","ios":"levelo://app?vid=6069efed-4214-4ef4-89c2-abebeb832aca"},"vehicle_type_id":"4","last_reported":1701342371,"current_range_meters":28400,"station_id":"ce4bgl92rcd13ifvqbq0","pricing_plan_id":"free"},{"bike_id":"02593078-bc29-40cc-98a6-bb413e50eb34","system_id":"levelo_inurba_marseille","lat":43.312239,"lon":5.368562,"is_reserved":false,"is_disabled":false,"rental_uris":{"android":"levelo://app?vid=02593078-bc29-40cc-98a6-bb413e50eb34","ios":"levelo://app?vid=02593078-bc29-40cc-98a6-bb413e50eb34"},"vehicle_type_id":"4","last_reported":1701342371,"current_range_meters":16800,"station_id":"ce4bgl92rcd13ifvqbq0","pricing_plan_id":"free"},{"bike_id":"edb2f72a-b2ac-4ce2-96e4-d59032fe7034","system_id":"levelo_inurba_marseille","lat":43.312239,"lon":5.368562,"is_reserved":false,"is_disabled":false,"rental_uris":{"android":"levelo://app?vid=edb2f72a-b2ac-4ce2-96e4-d59032fe7034","ios":"levelo://app?vid=edb2f72a-b2ac-4ce2-96e4-d59032fe7034"},"vehicle_type_id":"4","last_reported":1701342371,"current_range_meters":26400,"station_id":"ce4bgl92rcd13ifvqbq0","pricing_plan_id":"free"},{"bike_id":"69907837-c36c-4c49-b90d-f2943933288a","system_id":"levelo_inurba_marseille","lat":43.309076,"lon":5.368465,"is_reserved":false,"is_disabled":false,"rental_uris":{"android":"levelo://app?vid=69907837-c36c-4c49-b90d-f2943933288a","ios":"levelo://app?vid=69907837-c36c-4c49-b90d-f2943933288a"},"vehicle_type_id":"4","last_reported":1701342371,"current_range_meters":31600,"station_id":"ce4bgn92rcd13ifvqbvg","pricing_plan_id":"free"},{"bike_id":"6ea438f3-ba48-43d8-9a25-cc76664e70fe","system_id":"levelo_inurba_marseille","lat":43.309076,"lon":5.368465,"is_reserved":false,"is_disabled":false,"rental_uris":{"android":"levelo://app?vid=6ea438f3-ba48-43d8-9a25-cc76664e70fe","ios":"levelo://app?vid=6ea438f3-ba48-43d8-9a25-cc76664e70fe"},"vehicle_type_id":"4","last_reported":1701342371,"current_range_meters":22800,"station_id":"ce4bgn92rcd13ifvqbvg","pricing_plan_id":"free"},{"bike_id":"e0ed4152-83c6-48a0-8da6-adae3254e07e","system_id":"levelo_inurba_marseille","lat":43.309076,"lon":5.368465,"is_reserved":false,"is_disabled":false,"rental_uris":{"android":"levelo://app?vid=e0ed4152-83c6-48a0-8da6-adae3254e07e","ios":"levelo://app?vid=e0ed4152-83c6-48a0-8da6-adae3254e07e"},"vehicle_type_id":"4","last_reported":1701342371,"current_range_meters":31600,"station_id":"ce4bgn92rcd13ifvqbvg","pricing_plan_id":"free"},{"bike_id":"67da3b1b-73ab-4891-8c6d-be55db134bd7","system_id":"levelo_inurba_marseille","lat":43.309076,"lon":5.368465,"is_reserved":false,"is_disabled":false,"rental_uris":{"android":"levelo://app?vid=67da3b1b-73ab-4891-8c6d-be55db134bd7","ios":"levelo://app?vid=67da3b1b-73ab-4891-8c6d-be55db134bd7"},"vehicle_type_id":"4","last_reported":1701342371,"current_range_meters":24400,"station_id":"ce4bgn92rcd13ifvqbvg","pricing_plan_id":"free"},{"bike_id":"d647e152-1033-4d6c-a8b6-f0456676aa1a","system_id":"levelo_inurba_marseille","lat":43.309076,"lon":5.368465,"is_reserved":false,"is_disabled":false,"rental_uris":{"android":"levelo://app?vid=d647e152-1033-4d6c-a8b6-f0456676aa1a","ios":"levelo://app?vid=d647e152-1033-4d6c-a8b6-f0456676aa1a"},"vehicle_type_id":"4","last_reported":1701342371,"current_range_meters":20800,"station_id":"ce4bgn92rcd13ifvqbvg","pricing_plan_id":"free"},{"bike_id":"1e969908-02cc-4239-a406-be8b96ae7498","system_id":"levelo_inurba_marseille","lat":43.309076,"lon":5.368465,"is_reserved":false,"is_disabled":false,"rental_uris":{"android":"levelo://app?vid=1e969908-02cc-4239-a406-be8b96ae7498","ios":"levelo://app?vid=1e969908-02cc-4239-a406-be8b96ae7498"},"vehicle_type_id":"4","last_reported":1701342371,"current_range_meters":20800,"station_id":"ce4bgn92rcd13ifvqbvg","pricing_plan_id":"free"},{"bike_id":"5ccc757b-55ba-497f-8a04-9995def58564","system_id":"levelo_inurba_marseille","lat":43.309076,"lon":5.368465,"is_reserved":false,"is_disabled":false,"rental_uris":{"android":"levelo://app?vid=5ccc757b-55ba-497f-8a04-9995def58564","ios":"levelo://app?vid=5ccc757b-55ba-497f-8a04-9995def58564"},"vehicle_type_id":"4","last_reported":1701342371,"current_range_meters":21200,"station_id":"ce4bgn92rcd13ifvqbvg","pricing_plan_id":"free"},{"bike_id":"f54eedfd-603c-42cf-b084-d047335ff135","system_id":"levelo_inurba_marseille","lat":43.309076,"lon":5.368465,"is_reserved":false,"is_disabled":false,"rental_uris":{"android":"levelo://app?vid=f54eedfd-603c-42cf-b084-d047335ff135","ios":"levelo://app?vid=f54eedfd-603c-42cf-b084-d047335ff135"},"vehicle_type_id":"4","last_reported":1701342371,"current_range_meters":31600,"station_id":"ce4bgn92rcd13ifvqbvg","pricing_plan_id":"free"},{"bike_id":"86e6d623-3730-4d3a-b161-a141402db2f4","system_id":"levelo_inurba_marseille","lat":43.309076,"lon":5.368465,"is_reserved":false,"is_disabled":false,"rental_uris":{"android":"levelo://app?vid=86e6d623-3730-4d3a-b161-a141402db2f4","ios":"levelo://app?vid=86e6d623-3730-4d3a-b161-a141402db2f4"},"vehicle_type_id":"4","last_reported":1701342371,"current_range_meters":19600,"station_id":"ce4bgn92rcd13ifvqbvg","pricing_plan_id":"free"},{"bike_id":"48fa2c79-848f-4381-baa3-72aa27832a3a","system_id":"levelo_inurba_marseille","lat":43.309076,"lon":5.368465,"is_reserved":false,"is_disabled":false,"rental_uris":{"android":"levelo://app?vid=48fa2c79-848f-4381-baa3-72aa27832a3a","ios":"levelo://app?vid=48fa2c79-848f-4381-baa3-72aa27832a3a"},"vehicle_type_id":"4","last_reported":1701342371,"current_range_meters":20800,"station_id":"ce4bgn92rcd13ifvqbvg","pricing_plan_id":"free"},{"bike_id":"d9aa1ce0-8194-4528-a5b7-afbfc84bfe8b","system_id":"levelo_inurba_marseille","lat":43.314811,"lon":5.373103,"is_reserved":false,"is_disabled":false,"rental_uris":{"android":"levelo://app?vid=d9aa1ce0-8194-4528-a5b7-afbfc84bfe8b","ios":"levelo://app?vid=d9aa1ce0-8194-4528-a5b7-afbfc84bfe8b"},"vehicle_type_id":"4","last_reported":1701342371,"current_range_meters":11600,"station_id":"ce4bgt12rcd13ifvqcd0","pricing_plan_id":"free"},{"bike_id":"73f174a2-c64f-4438-813b-fc43ca31ed80","system_id":"levelo_inurba_marseille","lat":43.309039,"lon":5.371797,"is_reserved":false,"is_disabled":false,"rental_uris":{"android":"levelo://app?vid=73f174a2-c64f-4438-813b-fc43ca31ed80","ios":"levelo://app?vid=73f174a2-c64f-4438-813b-fc43ca31ed80"},"vehicle_type_id":"4","last_reported":1701342371,"current_range_meters":22800,"station_id":"ce4bguh2rcd13ifvqckg","pricing_plan_id":"free"},{"bike_id":"802aba97-7a13-44ad-85f0-9d7af622673d","system_id":"levelo_inurba_marseille","lat":43.309039,"lon":5.371797,"is_reserved":false,"is_disabled":false,"rental_uris":{"android":"levelo://app?vid=802aba97-7a13-44ad-85f0-9d7af622673d","ios":"levelo://app?vid=802aba97-7a13-44ad-85f0-9d7af622673d"},"vehicle_type_id":"4","last_reported":1701342371,"current_range_meters":20000,"station_id":"ce4bguh2rcd13ifvqckg","pricing_plan_id":"free"},{"bike_id":"1f6ba4d3-1130-4a26-89a4-1f62536a54f7","system_id":"levelo_inurba_marseille","lat":43.30562,"lon":5.36545,"is_reserved":false,"is_disabled":false,"rental_uris":{"android":"levelo://app?vid=1f6ba4d3-1130-4a26-89a4-1f62536a54f7","ios":"levelo://app?vid=1f6ba4d3-1130-4a26-89a4-1f62536a54f7"},"vehicle_type_id":"4","last_reported":1701342371,"current_range_meters":18400,"station_id":"ce4bgs12rcd13ifvqcag","pricing_plan_id":"free"},{"bike_id":"26b59c2e-5b06-4966-abe5-0c4de09fd476","system_id":"levelo_inurba_marseille","lat":43.305456,"lon":5.367066,"is_reserved":false,"is_disabled":false,"rental_uris":{"android":"levelo://app?vid=26b59c2e-5b06-4966-abe5-0c4de09fd476","ios":"levelo://app?vid=26b59c2e-5b06-4966-abe5-0c4de09fd476"},"vehicle_type_id":"4","last_reported":1701342371,"current_range_meters":0,"station_id":"ce4bgrp2rcd13ifvqc9g","pricing_plan_id":"free"},{"bike_id":"73039f2b-77de-4a80-94a6-e6f9431e9c9e","system_id":"levelo_inurba_marseille","lat":43.305712,"lon":5.365641,"is_reserved":false,"is_disabled":false,"rental_uris":{"android":"levelo://app?vid=73039f2b-77de-4a80-94a6-e6f9431e9c9e","ios":"levelo://app?vid=73039f2b-77de-4a80-94a6-e6f9431e9c9e"},"vehicle_type_id":"4","last_reported":1701342371,"current_range_meters":25600,"station_id":"ce4bgs12rcd13ifvqcag","pricing_plan_id":"free"},{"bike_id":"23126227-16f4-4767-974e-8ae5ee093a24","system_id":"levelo_inurba_marseille","lat":43.305706,"lon":5.365654,"is_reserved":false,"is_disabled":false,"rental_uris":{"android":"levelo://app?vid=23126227-16f4-4767-974e-8ae5ee093a24","ios":"levelo://app?vid=23126227-16f4-4767-974e-8ae5ee093a24"},"vehicle_type_id":"4","last_reported":1701342371,"current_range_meters":9600,"station_id":"ce4bgs12rcd13ifvqcag","pricing_plan_id":"free"},{"bike_id":"f8fabd24-8415-412c-bbf8-869ed52a9e9d","system_id":"levelo_inurba_marseille","lat":43.305706,"lon":5.365654,"is_reserved":false,"is_disabled":false,"rental_uris":{"android":"levelo://app?vid=f8fabd24-8415-412c-bbf8-869ed52a9e9d","ios":"levelo://app?vid=f8fabd24-8415-412c-bbf8-869ed52a9e9d"},"vehicle_type_id":"4","last_reported":1701342371,"current_range_meters":26000,"station_id":"ce4bgs12rcd13ifvqcag","pricing_plan_id":"free"},{"bike_id":"4e2b45da-f341-43ec-a54d-a4c352fc6327","system_id":"levelo_inurba_marseille","lat":43.3054,"lon":5.36538,"is_reserved":false,"is_disabled":false,"rental_uris":{"android":"levelo://app?vid=4e2b45da-f341-43ec-a54d-a4c352fc6327","ios":"levelo://app?vid=4e2b45da-f341-43ec-a54d-a4c352fc6327"},"vehicle_type_id":"4","last_reported":1701342371,"current_range_meters":31200,"station_id":"ce4bgs12rcd13ifvqcag","pricing_plan_id":"free"},{"bike_id":"e1a52f5c-225e-4d0d-90e3-a322a6c9812d","system_id":"levelo_inurba_marseille","lat":43.305706,"lon":5.365654,"is_reserved":false,"is_disabled":false,"rental_uris":{"android":"levelo://app?vid=e1a52f5c-225e-4d0d-90e3-a322a6c9812d","ios":"levelo://app?vid=e1a52f5c-225e-4d0d-90e3-a322a6c9812d"},"vehicle_type_id":"4","last_reported":1701342371,"current_range_meters":27200,"station_id":"ce4bgs12rcd13ifvqcag","pricing_plan_id":"free"},{"bike_id":"2492103c-f229-4d2d-afdb-a9fbcb9e6dfd","system_id":"levelo_inurba_marseille","lat":43.305714,"lon":5.365633,"is_reserved":false,"is_disabled":false,"rental_uris":{"android":"levelo://app?vid=2492103c-f229-4d2d-afdb-a9fbcb9e6dfd","ios":"levelo://app?vid=2492103c-f229-4d2d-afdb-a9fbcb9e6dfd"},"vehicle_type_id":"4","last_reported":1701342371,"current_range_meters":29600,"station_id":"ce4bgs12rcd13ifvqcag","pricing_plan_id":"free"},{"bike_id":"9d38be6c-8282-4884-a865-46df9c6bccb0","system_id":"levelo_inurba_marseille","lat":43.305706,"lon":5.365654,"is_reserved":false,"is_disabled":false,"rental_uris":{"android":"levelo://app?vid=9d38be6c-8282-4884-a865-46df9c6bccb0","ios":"levelo://app?vid=9d38be6c-8282-4884-a865-46df9c6bccb0"},"vehicle_type_id":"4","last_reported":1701342371,"current_range_meters":16800,"station_id":"ce4bgs12rcd13ifvqcag","pricing_plan_id":"free"},{"bike_id":"b31b6cb4-800d-4a8b-80f3-d5f4987d1137","system_id":"levelo_inurba_marseille","lat":43.305706,"lon":5.365654,"is_reserved":false,"is_disabled":false,"rental_uris":{"android":"levelo://app?vid=b31b6cb4-800d-4a8b-80f3-d5f4987d1137","ios":"levelo://app?vid=b31b6cb4-800d-4a8b-80f3-d5f4987d1137"},"vehicle_type_id":"4","last_reported":1701342371,"current_range_meters":24400,"station_id":"ce4bgs12rcd13ifvqcag","pricing_plan_id":"free"},{"bike_id":"8ddbe663-31ab-400f-a2b2-be13cebcedc4","system_id":"levelo_inurba_marseille","lat":43.305706,"lon":5.365654,"is_reserved":false,"is_disabled":false,"rental_uris":{"android":"levelo://app?vid=8ddbe663-31ab-400f-a2b2-be13cebcedc4","ios":"levelo://app?vid=8ddbe663-31ab-400f-a2b2-be13cebcedc4"},"vehicle_type_id":"4","last_reported":1701342371,"current_range_meters":31600,"station_id":"ce4bgs12rcd13ifvqcag","pricing_plan_id":"free"},{"bike_id":"905da846-cbf6-4ec4-8db8-97f65ea4e7d8","system_id":"levelo_inurba_marseille","lat":43.305989,"lon":5.37225,"is_reserved":false,"is_disabled":false,"rental_uris":{"android":"levelo://app?vid=905da846-cbf6-4ec4-8db8-97f65ea4e7d8","ios":"levelo://app?vid=905da846-cbf6-4ec4-8db8-97f65ea4e7d8"},"vehicle_type_id":"4","last_reported":1701342371,"current_range_meters":28800,"station_id":"ce4bgqh2rcd13ifvqc4g","pricing_plan_id":"free"},{"bike_id":"727d231a-d425-4d8f-ad3f-99b5a47572e8","system_id":"levelo_inurba_marseille","lat":43.30439,"lon":5.36753,"is_reserved":false,"is_disabled":false,"rental_uris":{"android":"levelo://app?vid=727d231a-d425-4d8f-ad3f-99b5a47572e8","ios":"levelo://app?vid=727d231a-d425-4d8f-ad3f-99b5a47572e8"},"vehicle_type_id":"4","last_reported":1701342371,"current_range_meters":31200,"station_id":"","pricing_plan_id":"free"},{"bike_id":"11eb3f14-19cd-438a-9a8d-2ad02650bdd4","system_id":"levelo_inurba_marseille","lat":43.308165,"lon":5.376675,"is_reserved":false,"is_disabled":false,"rental_uris":{"android":"levelo://app?vid=11eb3f14-19cd-438a-9a8d-2ad02650bdd4","ios":"levelo://app?vid=11eb3f14-19cd-438a-9a8d-2ad02650bdd4"},"vehicle_type_id":"4","last_reported":1701342371,"current_range_meters":16400,"station_id":"ce4bgv92rcd13ifvqcq0","pricing_plan_id":"free"},{"bike_id":"f427a2c3-6e4a-446b-ae2f-9be8aa7f4122","system_id":"levelo_inurba_marseille","lat":43.31719,"lon":5.376813,"is_reserved":false,"is_disabled":false,"rental_uris":{"android":"levelo://app?vid=f427a2c3-6e4a-446b-ae2f-9be8aa7f4122","ios":"levelo://app?vid=f427a2c3-6e4a-446b-ae2f-9be8aa7f4122"},"vehicle_type_id":"4","last_reported":1701342371,"current_range_meters":6000,"station_id":"ce4bgth2rcd13ifvqch0","pricing_plan_id":"free"},{"bike_id":"e913f328-1e31-4c22-bd87-f809ea246de4","system_id":"levelo_inurba_marseille","lat":43.317168,"lon":5.376883,"is_reserved":false,"is_disabled":false,"rental_uris":{"android":"levelo://app?vid=e913f328-1e31-4c22-bd87-f809ea246de4","ios":"levelo://app?vid=e913f328-1e31-4c22-bd87-f809ea246de4"},"vehicle_type_id":"4","last_reported":1701342371,"current_range_meters":8400,"station_id":"ce4bgth2rcd13ifvqch0","pricing_plan_id":"free"},{"bike_id":"bef3c888-e26e-4daf-a279-528d05d9f20b","system_id":"levelo_inurba_marseille","lat":43.30143,"lon":5.37413,"is_reserved":false,"is_disabled":false,"rental_uris":{"android":"levelo://app?vid=bef3c888-e26e-4daf-a279-528d05d9f20b","ios":"levelo://app?vid=bef3c888-e26e-4daf-a279-528d05d9f20b"},"vehicle_type_id":"4","last_reported":1701342371,"current_range_meters":22400,"station_id":"ce4bgs92rcd13ifvqcc0","pricing_plan_id":"free"},{"bike_id":"c3006f35-8ad4-439b-98ec-43a882b16acf","system_id":"levelo_inurba_marseille","lat":43.301939,"lon":5.366286,"is_reserved":false,"is_disabled":false,"rental_uris":{"android":"levelo://app?vid=c3006f35-8ad4-439b-98ec-43a882b16acf","ios":"levelo://app?vid=c3006f35-8ad4-439b-98ec-43a882b16acf"},"vehicle_type_id":"4","last_reported":1701342371,"current_range_meters":28800,"station_id":"ce4bgrh2rcd13ifvqc8g","pricing_plan_id":"free"},{"bike_id":"9d663bb4-987d-4612-9985-4af2ff2cf7e9","system_id":"levelo_inurba_marseille","lat":43.301939,"lon":5.366286,"is_reserved":false,"is_disabled":false,"rental_uris":{"android":"levelo://app?vid=9d663bb4-987d-4612-9985-4af2ff2cf7e9","ios":"levelo://app?vid=9d663bb4-987d-4612-9985-4af2ff2cf7e9"},"vehicle_type_id":"4","last_reported":1701342371,"current_range_meters":28800,"station_id":"ce4bgrh2rcd13ifvqc8g","pricing_plan_id":"free"},{"bike_id":"d612e0ad-f4d5-41e4-8811-7221bbee844f","system_id":"levelo_inurba_marseille","lat":43.301939,"lon":5.366286,"is_reserved":false,"is_disabled":false,"rental_uris":{"android":"levelo://app?vid=d612e0ad-f4d5-41e4-8811-7221bbee844f","ios":"levelo://app?vid=d612e0ad-f4d5-41e4-8811-7221bbee844f"},"vehicle_type_id":"4","last_reported":1701342371,"current_range_meters":5200,"station_id":"ce4bgrh2rcd13ifvqc8g","pricing_plan_id":"free"},{"bike_id":"487540a3-9b21-44f8-b7ec-a15b696d0c4b","system_id":"levelo_inurba_marseille","lat":43.308012,"lon":5.381511,"is_reserved":false,"is_disabled":false,"rental_uris":{"android":"levelo://app?vid=487540a3-9b21-44f8-b7ec-a15b696d0c4b","ios":"levelo://app?vid=487540a3-9b21-44f8-b7ec-a15b696d0c4b"},"vehicle_type_id":"4","last_reported":1701342371,"current_range_meters":18800,"station_id":"ce4bgt12rcd13ifvqce0","pricing_plan_id":"free"},{"bike_id":"fb7e6edf-db80-4561-bf84-e13611fafdd4","system_id":"levelo_inurba_marseille","lat":43.304606,"lon":5.379026,"is_reserved":false,"is_disabled":false,"rental_uris":{"android":"levelo://app?vid=fb7e6edf-db80-4561-bf84-e13611fafdd4","ios":"levelo://app?vid=fb7e6edf-db80-4561-bf84-e13611fafdd4"},"vehicle_type_id":"4","last_reported":1701342371,"current_range_meters":800,"station_id":"ce4bgup2rcd13ifvqcn0","pricing_plan_id":"free"},{"bike_id":"6104e35a-8f8e-4236-b5bf-c165d44f9cf9","system_id":"levelo_inurba_marseille","lat":43.324771,"lon":5.36557,"is_reserved":false,"is_disabled":false,"rental_uris":{"android":"levelo://app?vid=6104e35a-8f8e-4236-b5bf-c165d44f9cf9","ios":"levelo://app?vid=6104e35a-8f8e-4236-b5bf-c165d44f9cf9"},"vehicle_type_id":"4","last_reported":1701342371,"current_range_meters":13600,"station_id":"ce4bhs12rcd13ifvqhvg","pricing_plan_id":"free"},{"bike_id":"5f0dcc7e-fe2f-41ae-b9b7-07b5430b86ee","system_id":"levelo_inurba_marseille","lat":43.32484,"lon":5.365585,"is_reserved":false,"is_disabled":false,"rental_uris":{"android":"levelo://app?vid=5f0dcc7e-fe2f-41ae-b9b7-07b5430b86ee","ios":"levelo://app?vid=5f0dcc7e-fe2f-41ae-b9b7-07b5430b86ee"},"vehicle_type_id":"4","last_reported":1701342371,"current_range_meters":14800,"station_id":"ce4bhs12rcd13ifvqhvg","pricing_plan_id":"free"},{"bike_id":"6d53b15d-0a1d-4a7f-ab8f-5ed4a8de68aa","system_id":"levelo_inurba_marseille","lat":43.302784,"lon":5.377158,"is_reserved":false,"is_disabled":false,"rental_uris":{"android":"levelo://app?vid=6d53b15d-0a1d-4a7f-ab8f-5ed4a8de68aa","ios":"levelo://app?vid=6d53b15d-0a1d-4a7f-ab8f-5ed4a8de68aa"},"vehicle_type_id":"4","last_reported":1701342371,"current_range_meters":30000,"station_id":"ce4bguh2rcd13ifvqcj0","pricing_plan_id":"free"},{"bike_id":"3e01df68-27f0-42b4-ac09-2ec4a13acda6","system_id":"levelo_inurba_marseille","lat":43.31997,"lon":5.38152,"is_reserved":false,"is_disabled":false,"rental_uris":{"android":"levelo://app?vid=3e01df68-27f0-42b4-ac09-2ec4a13acda6","ios":"levelo://app?vid=3e01df68-27f0-42b4-ac09-2ec4a13acda6"},"vehicle_type_id":"4","last_reported":1701342371,"current_range_meters":8000,"station_id":"ce4bhr12rcd13ifvqhpg","pricing_plan_id":"free"},{"bike_id":"2275aca5-3158-4c2c-8022-ca5d2714bc86","system_id":"levelo_inurba_marseille","lat":43.319997,"lon":5.381594,"is_reserved":false,"is_disabled":false,"rental_uris":{"android":"levelo://app?vid=2275aca5-3158-4c2c-8022-ca5d2714bc86","ios":"levelo://app?vid=2275aca5-3158-4c2c-8022-ca5d2714bc86"},"vehicle_type_id":"4","last_reported":1701342371,"current_range_meters":23200,"station_id":"ce4bhr12rcd13ifvqhpg","pricing_plan_id":"free"},{"bike_id":"1bf606f1-74b7-4cd4-93ee-b91e1c175d4b","system_id":"levelo_inurba_marseille","lat":43.313571,"lon":5.384829,"is_reserved":false,"is_disabled":false,"rental_uris":{"android":"levelo://app?vid=1bf606f1-74b7-4cd4-93ee-b91e1c175d4b","ios":"levelo://app?vid=1bf606f1-74b7-4cd4-93ee-b91e1c175d4b"},"vehicle_type_id":"4","last_reported":1701342371,"current_range_meters":19200,"station_id":"ce4bgt92rcd13ifvqcf0","pricing_plan_id":"free"},{"bike_id":"3aaeee2e-e010-49be-929a-24e6979f261e","system_id":"levelo_inurba_marseille","lat":43.299724,"lon":5.371829,"is_reserved":false,"is_disabled":false,"rental_uris":{"android":"levelo://app?vid=3aaeee2e-e010-49be-929a-24e6979f261e","ios":"levelo://app?vid=3aaeee2e-e010-49be-929a-24e6979f261e"},"vehicle_type_id":"4","last_reported":1701342371,"current_range_meters":16000,"station_id":"ce4bgr92rcd13ifvqc7g","pricing_plan_id":"free"},{"bike_id":"b0f8fb3c-6c71-4aa8-a783-905b8eeec7fd","system_id":"levelo_inurba_marseille","lat":43.299209,"lon":5.365547,"is_reserved":false,"is_disabled":false,"rental_uris":{"android":"levelo://app?vid=b0f8fb3c-6c71-4aa8-a783-905b8eeec7fd","ios":"levelo://app?vid=b0f8fb3c-6c71-4aa8-a783-905b8eeec7fd"},"vehicle_type_id":"4","last_reported":1701342371,"current_range_meters":9200,"station_id":"ce4bgm92rcd13ifvqbr0","pricing_plan_id":"free"},{"bike_id":"b1686b43-7c40-4535-8042-ce76b082a32a","system_id":"levelo_inurba_marseille","lat":43.305364,"lon":5.384119,"is_reserved":false,"is_disabled":false,"rental_uris":{"android":"levelo://app?vid=b1686b43-7c40-4535-8042-ce76b082a32a","ios":"levelo://app?vid=b1686b43-7c40-4535-8042-ce76b082a32a"},"vehicle_type_id":"4","last_reported":1701342371,"current_range_meters":31200,"station_id":"ce4bgg92rcd13ifvqb30","pricing_plan_id":"free"},{"bike_id":"3322b07b-7507-4fce-9296-278b179e3959","system_id":"levelo_inurba_marseille","lat":43.298433,"lon":5.362774,"is_reserved":false,"is_disabled":false,"rental_uris":{"android":"levelo://app?vid=3322b07b-7507-4fce-9296-278b179e3959","ios":"levelo://app?vid=3322b07b-7507-4fce-9296-278b179e3959"},"vehicle_type_id":"4","last_reported":1701342371,"current_range_meters":30800,"station_id":"ce4bgpp2rcd13ifvqc3g","pricing_plan_id":"free"},{"bike_id":"94b37f84-bebf-4fc0-bbd9-0466b283dce4","system_id":"levelo_inurba_marseille","lat":43.299243,"lon":5.37481,"is_reserved":false,"is_disabled":false,"rental_uris":{"android":"levelo://app?vid=94b37f84-bebf-4fc0-bbd9-0466b283dce4","ios":"levelo://app?vid=94b37f84-bebf-4fc0-bbd9-0466b283dce4"},"vehicle_type_id":"4","last_reported":1701342371,"current_range_meters":23600,"station_id":"ce4bgjh2rcd13ifvqbg0","pricing_plan_id":"free"},{"bike_id":"aebb5f1f-3a1e-4323-a4f0-ae83e0b78d14","system_id":"levelo_inurba_marseille","lat":43.327603,"lon":5.36705,"is_reserved":false,"is_disabled":false,"rental_uris":{"android":"levelo://app?vid=aebb5f1f-3a1e-4323-a4f0-ae83e0b78d14","ios":"levelo://app?vid=aebb5f1f-3a1e-4323-a4f0-ae83e0b78d14"},"vehicle_type_id":"4","last_reported":1701342371,"current_range_meters":24800,"station_id":"","pricing_plan_id":"free"},{"bike_id":"690de2bf-1827-453d-b68b-9ac2331d17d9","system_id":"levelo_inurba_marseille","lat":43.29738,"lon":5.365835,"is_reserved":false,"is_disabled":false,"rental_uris":{"android":"levelo://app?vid=690de2bf-1827-453d-b68b-9ac2331d17d9","ios":"levelo://app?vid=690de2bf-1827-453d-b68b-9ac2331d17d9"},"vehicle_type_id":"4","last_reported":1701342371,"current_range_meters":5200,"station_id":"ce4bgn12rcd13ifvqbt0","pricing_plan_id":"free"},{"bike_id":"a4d7feef-2754-43dd-a949-4ed0a663d761","system_id":"levelo_inurba_marseille","lat":43.296131,"lon":5.370773,"is_reserved":false,"is_disabled":false,"rental_uris":{"android":"levelo://app?vid=a4d7feef-2754-43dd-a949-4ed0a663d761","ios":"levelo://app?vid=a4d7feef-2754-43dd-a949-4ed0a663d761"},"vehicle_type_id":"4","last_reported":1701342371,"current_range_meters":28800,"station_id":"ce4bgnh2rcd13ifvqc0g","pricing_plan_id":"free"},{"bike_id":"1fb62635-7fa3-49c1-9ed4-891647ff82cc","system_id":"levelo_inurba_marseille","lat":43.297263,"lon":5.376917,"is_reserved":false,"is_disabled":false,"rental_uris":{"android":"levelo://app?vid=1fb62635-7fa3-49c1-9ed4-891647ff82cc","ios":"levelo://app?vid=1fb62635-7fa3-49c1-9ed4-891647ff82cc"},"vehicle_type_id":"4","last_reported":1701342371,"current_range_meters":19600,"station_id":"ce4bgkh2rcd13ifvqbl0","pricing_plan_id":"free"},{"bike_id":"17e5f1b3-aa90-49ec-ba16-d957fe117503","system_id":"levelo_inurba_marseille","lat":43.296935,"lon":5.376544,"is_reserved":false,"is_disabled":false,"rental_uris":{"android":"levelo://app?vid=17e5f1b3-aa90-49ec-ba16-d957fe117503","ios":"levelo://app?vid=17e5f1b3-aa90-49ec-ba16-d957fe117503"},"vehicle_type_id":"4","last_reported":1701342371,"current_range_meters":0,"station_id":"ce4bgkh2rcd13ifvqbl0","pricing_plan_id":"free"},{"bike_id":"9ee2213e-45f4-44fe-9d6a-edc98470642a","system_id":"levelo_inurba_marseille","lat":43.299028,"lon":5.381509,"is_reserved":false,"is_disabled":false,"rental_uris":{"android":"levelo://app?vid=9ee2213e-45f4-44fe-9d6a-edc98470642a","ios":"levelo://app?vid=9ee2213e-45f4-44fe-9d6a-edc98470642a"},"vehicle_type_id":"4","last_reported":1701342371,"current_range_meters":18000,"station_id":"ce4bgj12rcd13ifvqbc0","pricing_plan_id":"free"},{"bike_id":"db6e192a-3a0e-4f08-902b-3524003e1a1e","system_id":"levelo_inurba_marseille","lat":43.298037,"lon":5.381066,"is_reserved":false,"is_disabled":false,"rental_uris":{"android":"levelo://app?vid=db6e192a-3a0e-4f08-902b-3524003e1a1e","ios":"levelo://app?vid=db6e192a-3a0e-4f08-902b-3524003e1a1e"},"vehicle_type_id":"4","last_reported":1701342371,"current_range_meters":26000,"station_id":"ce4bgip2rcd13ifvqbb0","pricing_plan_id":"free"},{"bike_id":"1e27c26e-ccea-41a0-ad87-249f844a9651","system_id":"levelo_inurba_marseille","lat":43.304274,"lon":5.388873,"is_reserved":false,"is_disabled":false,"rental_uris":{"android":"levelo://app?vid=1e27c26e-ccea-41a0-ad87-249f844a9651","ios":"levelo://app?vid=1e27c26e-ccea-41a0-ad87-249f844a9651"},"vehicle_type_id":"4","last_reported":1701342371,"current_range_meters":25600,"station_id":"ce4bgk12rcd13ifvqbi0","pricing_plan_id":"free"},{"bike_id":"22301bf2-bd33-40d7-b7f4-186b9b057ab2","system_id":"levelo_inurba_marseille","lat":43.304274,"lon":5.388873,"is_reserved":false,"is_disabled":false,"rental_uris":{"android":"levelo://app?vid=22301bf2-bd33-40d7-b7f4-186b9b057ab2","ios":"levelo://app?vid=22301bf2-bd33-40d7-b7f4-186b9b057ab2"},"vehicle_type_id":"4","last_reported":1701342371,"current_range_meters":20000,"station_id":"ce4bgk12rcd13ifvqbi0","pricing_plan_id":"free"},{"bike_id":"3f455b9d-de73-4547-addf-7126b70c9375","system_id":"levelo_inurba_marseille","lat":43.291675,"lon":5.371583,"is_reserved":false,"is_disabled":false,"rental_uris":{"android":"levelo://app?vid=3f455b9d-de73-4547-addf-7126b70c9375","ios":"levelo://app?vid=3f455b9d-de73-4547-addf-7126b70c9375"},"vehicle_type_id":"4","last_reported":1701342371,"current_range_meters":13200,"station_id":"ce4bha92rcd13ifvqeh0","pricing_plan_id":"free"},{"bike_id":"83d72fcd-513d-4143-a1d8-01632393920b","system_id":"levelo_inurba_marseille","lat":43.29522,"lon":5.37499,"is_reserved":false,"is_disabled":false,"rental_uris":{"android":"levelo://app?vid=83d72fcd-513d-4143-a1d8-01632393920b","ios":"levelo://app?vid=83d72fcd-513d-4143-a1d8-01632393920b"},"vehicle_type_id":"4","last_reported":1701342371,"current_range_meters":25200,"station_id":"","pricing_plan_id":"free"},{"bike_id":"a2f12fcc-77db-4a5e-9d0a-3e37ef1844fc","system_id":"levelo_inurba_marseille","lat":43.32371,"lon":5.38881,"is_reserved":false,"is_disabled":false,"rental_uris":{"android":"levelo://app?vid=a2f12fcc-77db-4a5e-9d0a-3e37ef1844fc","ios":"levelo://app?vid=a2f12fcc-77db-4a5e-9d0a-3e37ef1844fc"},"vehicle_type_id":"4","last_reported":1701342371,"current_range_meters":25200,"station_id":"ce4bhqp2rcd13ifvqhog","pricing_plan_id":"free"},{"bike_id":"c67b79bd-304a-43d5-9602-b947b11ad203","system_id":"levelo_inurba_marseille","lat":43.32359,"lon":5.38906,"is_reserved":false,"is_disabled":false,"rental_uris":{"android":"levelo://app?vid=c67b79bd-304a-43d5-9602-b947b11ad203","ios":"levelo://app?vid=c67b79bd-304a-43d5-9602-b947b11ad203"},"vehicle_type_id":"4","last_reported":1701342371,"current_range_meters":15600,"station_id":"ce4bhqp2rcd13ifvqhog","pricing_plan_id":"free"},{"bike_id":"5959c9f8-2668-41a1-a596-6c3d3b962c90","system_id":"levelo_inurba_marseille","lat":43.299028,"lon":5.381509,"is_reserved":false,"is_disabled":false,"rental_uris":{"android":"levelo://app?vid=5959c9f8-2668-41a1-a596-6c3d3b962c90","ios":"levelo://app?vid=5959c9f8-2668-41a1-a596-6c3d3b962c90"},"vehicle_type_id":"4","last_reported":1701342371,"current_range_meters":12000,"station_id":"ce4bgj12rcd13ifvqbc0","pricing_plan_id":"free"},{"bike_id":"66b2bcca-349c-4b62-b684-e2faa1bcc5ad","system_id":"levelo_inurba_marseille","lat":43.302992,"lon":5.392136,"is_reserved":false,"is_disabled":false,"rental_uris":{"android":"levelo://app?vid=66b2bcca-349c-4b62-b684-e2faa1bcc5ad","ios":"levelo://app?vid=66b2bcca-349c-4b62-b684-e2faa1bcc5ad"},"vehicle_type_id":"4","last_reported":1701342371,"current_range_meters":21600,"station_id":"ce4bgkh2rcd13ifvqbk0","pricing_plan_id":"free"},{"bike_id":"408716fc-da8a-45ae-b326-ed6a88379319","system_id":"levelo_inurba_marseille","lat":43.2936,"lon":5.37835,"is_reserved":false,"is_disabled":false,"rental_uris":{"android":"levelo://app?vid=408716fc-da8a-45ae-b326-ed6a88379319","ios":"levelo://app?vid=408716fc-da8a-45ae-b326-ed6a88379319"},"vehicle_type_id":"4","last_reported":1701342371,"current_range_meters":27200,"station_id":"ce4bgjh2rcd13ifvqbf0","pricing_plan_id":"free"},{"bike_id":"658918d4-ee08-48c2-a247-2f40a56480fb","system_id":"levelo_inurba_marseille","lat":43.2936,"lon":5.37835,"is_reserved":false,"is_disabled":false,"rental_uris":{"android":"levelo://app?vid=658918d4-ee08-48c2-a247-2f40a56480fb","ios":"levelo://app?vid=658918d4-ee08-48c2-a247-2f40a56480fb"},"vehicle_type_id":"4","last_reported":1701342371,"current_range_meters":10000,"station_id":"ce4bgjh2rcd13ifvqbf0","pricing_plan_id":"free"},{"bike_id":"0fea39bb-7b0a-486f-b0bb-012ac06c5328","system_id":"levelo_inurba_marseille","lat":43.2936,"lon":5.37835,"is_reserved":false,"is_disabled":false,"rental_uris":{"android":"levelo://app?vid=0fea39bb-7b0a-486f-b0bb-012ac06c5328","ios":"levelo://app?vid=0fea39bb-7b0a-486f-b0bb-012ac06c5328"},"vehicle_type_id":"4","last_reported":1701342371,"current_range_meters":30000,"station_id":"ce4bgjh2rcd13ifvqbf0","pricing_plan_id":"free"},{"bike_id":"6059964e-7c93-4f29-9328-7014b9762ad5","system_id":"levelo_inurba_marseille","lat":43.292311,"lon":5.360731,"is_reserved":false,"is_disabled":false,"rental_uris":{"android":"levelo://app?vid=6059964e-7c93-4f29-9328-7014b9762ad5","ios":"levelo://app?vid=6059964e-7c93-4f29-9328-7014b9762ad5"},"vehicle_type_id":"4","last_reported":1701342371,"current_range_meters":23600,"station_id":"ce4bhbh2rcd13ifvqeqg","pricing_plan_id":"free"},{"bike_id":"19779c9c-5419-42de-af4c-f072d9219129","system_id":"levelo_inurba_marseille","lat":43.30085,"lon":5.390856,"is_reserved":false,"is_disabled":false,"rental_uris":{"android":"levelo://app?vid=19779c9c-5419-42de-af4c-f072d9219129","ios":"levelo://app?vid=19779c9c-5419-42de-af4c-f072d9219129"},"vehicle_type_id":"4","last_reported":1701342371,"current_range_meters":26800,"station_id":"ce4bh192rcd13ifvqdb0","pricing_plan_id":"free"},{"bike_id":"7adbd376-033b-470a-a08a-197044faaa8b","system_id":"levelo_inurba_marseille","lat":43.298764,"lon":5.388973,"is_reserved":false,"is_disabled":false,"rental_uris":{"android":"levelo://app?vid=7adbd376-033b-470a-a08a-197044faaa8b","ios":"levelo://app?vid=7adbd376-033b-470a-a08a-197044faaa8b"},"vehicle_type_id":"4","last_reported":1701342371,"current_range_meters":14800,"station_id":"ce4bh392rcd13ifvqdl0","pricing_plan_id":"free"},{"bike_id":"b7941a7b-68df-4e69-a337-5a4a4e6b3495","system_id":"levelo_inurba_marseille","lat":43.291675,"lon":5.371583,"is_reserved":false,"is_disabled":false,"rental_uris":{"android":"levelo://app?vid=b7941a7b-68df-4e69-a337-5a4a4e6b3495","ios":"levelo://app?vid=b7941a7b-68df-4e69-a337-5a4a4e6b3495"},"vehicle_type_id":"4","last_reported":1701342371,"current_range_meters":18400,"station_id":"ce4bha92rcd13ifvqeh0","pricing_plan_id":"free"},{"bike_id":"ebe66b98-4c76-43bd-8260-9ced6d2d24f7","system_id":"levelo_inurba_marseille","lat":43.292663,"lon":5.376389,"is_reserved":false,"is_disabled":false,"rental_uris":{"android":"levelo://app?vid=ebe66b98-4c76-43bd-8260-9ced6d2d24f7","ios":"levelo://app?vid=ebe66b98-4c76-43bd-8260-9ced6d2d24f7"},"vehicle_type_id":"4","last_reported":1701342371,"current_range_meters":26000,"station_id":"ce4bgi12rcd13ifvqb80","pricing_plan_id":"free"},{"bike_id":"13e12d57-e630-4359-95df-8e824b1108bf","system_id":"levelo_inurba_marseille","lat":43.313291,"lon":5.396838,"is_reserved":false,"is_disabled":false,"rental_uris":{"android":"levelo://app?vid=13e12d57-e630-4359-95df-8e824b1108bf","ios":"levelo://app?vid=13e12d57-e630-4359-95df-8e824b1108bf"},"vehicle_type_id":"4","last_reported":1701342371,"current_range_meters":24800,"station_id":"ce4bgvp2rcd13ifvqcu0","pricing_plan_id":"free"},{"bike_id":"c9b80f83-c135-4220-bbd9-c8bb5542c3d7","system_id":"levelo_inurba_marseille","lat":43.31324,"lon":5.39702,"is_reserved":false,"is_disabled":false,"rental_uris":{"android":"levelo://app?vid=c9b80f83-c135-4220-bbd9-c8bb5542c3d7","ios":"levelo://app?vid=c9b80f83-c135-4220-bbd9-c8bb5542c3d7"},"vehicle_type_id":"4","last_reported":1701342371,"current_range_meters":24400,"station_id":"ce4bgvp2rcd13ifvqcu0","pricing_plan_id":"free"},{"bike_id":"7b1a2215-08b3-41e9-8dcb-5dc0fb0ec304","system_id":"levelo_inurba_marseille","lat":43.290779,"lon":5.371482,"is_reserved":false,"is_disabled":false,"rental_uris":{"android":"levelo://app?vid=7b1a2215-08b3-41e9-8dcb-5dc0fb0ec304","ios":"levelo://app?vid=7b1a2215-08b3-41e9-8dcb-5dc0fb0ec304"},"vehicle_type_id":"4","last_reported":1701342371,"current_range_meters":27600,"station_id":"ce4bh5p2rcd13ifvqe4g","pricing_plan_id":"free"},{"bike_id":"b99391f1-d009-432d-8542-d829a53f7e99","system_id":"levelo_inurba_marseille","lat":43.290779,"lon":5.371482,"is_reserved":false,"is_disabled":false,"rental_uris":{"android":"levelo://app?vid=b99391f1-d009-432d-8542-d829a53f7e99","ios":"levelo://app?vid=b99391f1-d009-432d-8542-d829a53f7e99"},"vehicle_type_id":"4","last_reported":1701342371,"current_range_meters":27600,"station_id":"ce4bh5p2rcd13ifvqe4g","pricing_plan_id":"free"},{"bike_id":"ddfdb71a-811b-41cb-a0f1-430eed091efe","system_id":"levelo_inurba_marseille","lat":43.290779,"lon":5.371482,"is_reserved":false,"is_disabled":false,"rental_uris":{"android":"levelo://app?vid=ddfdb71a-811b-41cb-a0f1-430eed091efe","ios":"levelo://app?vid=ddfdb71a-811b-41cb-a0f1-430eed091efe"},"vehicle_type_id":"4","last_reported":1701342371,"current_range_meters":24800,"station_id":"ce4bh5p2rcd13ifvqe4g","pricing_plan_id":"free"},{"bike_id":"55a9069e-8bf0-48c0-a355-2aed3b272e0e","system_id":"levelo_inurba_marseille","lat":43.290631,"lon":5.359244,"is_reserved":false,"is_disabled":false,"rental_uris":{"android":"levelo://app?vid=55a9069e-8bf0-48c0-a355-2aed3b272e0e","ios":"levelo://app?vid=55a9069e-8bf0-48c0-a355-2aed3b272e0e"},"vehicle_type_id":"4","last_reported":1701342371,"current_range_meters":29600,"station_id":"ce4bha92rcd13ifvqeg0","pricing_plan_id":"free"},{"bike_id":"3ac40926-3dd7-498f-9dc4-06d23fb3e9ec","system_id":"levelo_inurba_marseille","lat":43.294153,"lon":5.386305,"is_reserved":false,"is_disabled":false,"rental_uris":{"android":"levelo://app?vid=3ac40926-3dd7-498f-9dc4-06d23fb3e9ec","ios":"levelo://app?vid=3ac40926-3dd7-498f-9dc4-06d23fb3e9ec"},"vehicle_type_id":"4","last_reported":1701342371,"current_range_meters":27600,"station_id":"ce4bh2h2rcd13ifvqdh0","pricing_plan_id":"free"},{"bike_id":"ee155275-d843-4378-bc68-3aa399816e2c","system_id":"levelo_inurba_marseille","lat":43.290327,"lon":5.375711,"is_reserved":false,"is_disabled":false,"rental_uris":{"android":"levelo://app?vid=ee155275-d843-4378-bc68-3aa399816e2c","ios":"levelo://app?vid=ee155275-d843-4378-bc68-3aa399816e2c"},"vehicle_type_id":"4","last_reported":1701342371,"current_range_meters":28400,"station_id":"ce4bh692rcd13ifvqe90","pricing_plan_id":"free"},{"bike_id":"55c84667-a8f1-4e2c-9a3e-6128f81f7d9e","system_id":"levelo_inurba_marseille","lat":43.33044,"lon":5.38923,"is_reserved":false,"is_disabled":false,"rental_uris":{"android":"levelo://app?vid=55c84667-a8f1-4e2c-9a3e-6128f81f7d9e","ios":"levelo://app?vid=55c84667-a8f1-4e2c-9a3e-6128f81f7d9e"},"vehicle_type_id":"4","last_reported":1701342371,"current_range_meters":24000,"station_id":"ce4bhr92rcd13ifvqhrg","pricing_plan_id":"free"},{"bike_id":"8d81bf75-e5b0-412c-800a-edd4d424acc6","system_id":"levelo_inurba_marseille","lat":43.33042,"lon":5.38926,"is_reserved":false,"is_disabled":false,"rental_uris":{"android":"levelo://app?vid=8d81bf75-e5b0-412c-800a-edd4d424acc6","ios":"levelo://app?vid=8d81bf75-e5b0-412c-800a-edd4d424acc6"},"vehicle_type_id":"4","last_reported":1701342371,"current_range_meters":22000,"station_id":"ce4bhr92rcd13ifvqhrg","pricing_plan_id":"free"},{"bike_id":"f003da28-7f74-48ea-833e-2cde914c388f","system_id":"levelo_inurba_marseille","lat":43.295169,"lon":5.390426,"is_reserved":false,"is_disabled":false,"rental_uris":{"android":"levelo://app?vid=f003da28-7f74-48ea-833e-2cde914c388f","ios":"levelo://app?vid=f003da28-7f74-48ea-833e-2cde914c388f"},"vehicle_type_id":"4","last_reported":1701342371,"current_range_meters":20800,"station_id":"ce4bh3p2rcd13ifvqdp0","pricing_plan_id":"free"},{"bike_id":"af968a19-95ab-4d50-bfa4-5e7b7b49c0b7","system_id":"levelo_inurba_marseille","lat":43.295169,"lon":5.390426,"is_reserved":false,"is_disabled":false,"rental_uris":{"android":"levelo://app?vid=af968a19-95ab-4d50-bfa4-5e7b7b49c0b7","ios":"levelo://app?vid=af968a19-95ab-4d50-bfa4-5e7b7b49c0b7"},"vehicle_type_id":"4","last_reported":1701342371,"current_range_meters":19600,"station_id":"ce4bh3p2rcd13ifvqdp0","pricing_plan_id":"free"},{"bike_id":"a462cb8c-b633-4677-9053-5ce719a0d0fe","system_id":"levelo_inurba_marseille","lat":43.295169,"lon":5.390426,"is_reserved":false,"is_disabled":false,"rental_uris":{"android":"levelo://app?vid=a462cb8c-b633-4677-9053-5ce719a0d0fe","ios":"levelo://app?vid=a462cb8c-b633-4677-9053-5ce719a0d0fe"},"vehicle_type_id":"4","last_reported":1701342371,"current_range_meters":1600,"station_id":"ce4bh3p2rcd13ifvqdp0","pricing_plan_id":"free"},{"bike_id":"f9553214-8a74-482b-8edb-0cf227d9156f","system_id":"levelo_inurba_marseille","lat":43.289741,"lon":5.378306,"is_reserved":false,"is_disabled":false,"rental_uris":{"android":"levelo://app?vid=f9553214-8a74-482b-8edb-0cf227d9156f","ios":"levelo://app?vid=f9553214-8a74-482b-8edb-0cf227d9156f"},"vehicle_type_id":"4","last_reported":1701342371,"current_range_meters":5200,"station_id":"ce4bh9p2rcd13ifvqed0","pricing_plan_id":"free"},{"bike_id":"2ae93018-1f66-4407-8727-ce3bd016a9f6","system_id":"levelo_inurba_marseille","lat":43.33752,"lon":5.37446,"is_reserved":false,"is_disabled":false,"rental_uris":{"android":"levelo://app?vid=2ae93018-1f66-4407-8727-ce3bd016a9f6","ios":"levelo://app?vid=2ae93018-1f66-4407-8727-ce3bd016a9f6"},"vehicle_type_id":"4","last_reported":1701342371,"current_range_meters":20400,"station_id":"","pricing_plan_id":"free"},{"bike_id":"a50e479a-e8cd-46c5-bb22-118261fa6dce","system_id":"levelo_inurba_marseille","lat":43.301117,"lon":5.398795,"is_reserved":false,"is_disabled":false,"rental_uris":{"android":"levelo://app?vid=a50e479a-e8cd-46c5-bb22-118261fa6dce","ios":"levelo://app?vid=a50e479a-e8cd-46c5-bb22-118261fa6dce"},"vehicle_type_id":"4","last_reported":1701342371,"current_range_meters":27200,"station_id":"ce4bh0h2rcd13ifvqd40","pricing_plan_id":"free"},{"bike_id":"1be72299-5f1b-41f0-a2e4-01a515a5d321","system_id":"levelo_inurba_marseille","lat":43.298681,"lon":5.397225,"is_reserved":false,"is_disabled":false,"rental_uris":{"android":"levelo://app?vid=1be72299-5f1b-41f0-a2e4-01a515a5d321","ios":"levelo://app?vid=1be72299-5f1b-41f0-a2e4-01a515a5d321"},"vehicle_type_id":"4","last_reported":1701342371,"current_range_meters":28000,"station_id":"ce4bh0h2rcd13ifvqd50","pricing_plan_id":"free"},{"bike_id":"f5ce47c4-49ec-47ee-9a23-6a827970b9ce","system_id":"levelo_inurba_marseille","lat":43.286591,"lon":5.363346,"is_reserved":false,"is_disabled":false,"rental_uris":{"android":"levelo://app?vid=f5ce47c4-49ec-47ee-9a23-6a827970b9ce","ios":"levelo://app?vid=f5ce47c4-49ec-47ee-9a23-6a827970b9ce"},"vehicle_type_id":"4","last_reported":1701342371,"current_range_meters":20000,"station_id":"ce4bhah2rcd13ifvqej0","pricing_plan_id":"free"},{"bike_id":"da17a0a8-548b-48a7-a897-81a3ef7aab2f","system_id":"levelo_inurba_marseille","lat":43.302759,"lon":5.400793,"is_reserved":false,"is_disabled":false,"rental_uris":{"android":"levelo://app?vid=da17a0a8-548b-48a7-a897-81a3ef7aab2f","ios":"levelo://app?vid=da17a0a8-548b-48a7-a897-81a3ef7aab2f"},"vehicle_type_id":"4","last_reported":1701342371,"current_range_meters":5200,"station_id":"ce4bgvh2rcd13ifvqcs0","pricing_plan_id":"free"},{"bike_id":"4ac64e6b-b144-4baa-9c02-eff027752923","system_id":"levelo_inurba_marseille","lat":43.302759,"lon":5.400793,"is_reserved":false,"is_disabled":false,"rental_uris":{"android":"levelo://app?vid=4ac64e6b-b144-4baa-9c02-eff027752923","ios":"levelo://app?vid=4ac64e6b-b144-4baa-9c02-eff027752923"},"vehicle_type_id":"4","last_reported":1701342371,"current_range_meters":21600,"station_id":"ce4bgvh2rcd13ifvqcs0","pricing_plan_id":"free"},{"bike_id":"e46906f1-1298-49ac-a430-03650ff948ff","system_id":"levelo_inurba_marseille","lat":43.286039,"lon":5.370679,"is_reserved":false,"is_disabled":false,"rental_uris":{"android":"levelo://app?vid=e46906f1-1298-49ac-a430-03650ff948ff","ios":"levelo://app?vid=e46906f1-1298-49ac-a430-03650ff948ff"},"vehicle_type_id":"4","last_reported":1701342371,"current_range_meters":22800,"station_id":"ce4bht12rcd13ifvqi60","pricing_plan_id":"free"},{"bike_id":"ddacb419-7c27-45c8-9776-9f3d42914fbb","system_id":"levelo_inurba_marseille","lat":43.31643,"lon":5.40438,"is_reserved":false,"is_disabled":false,"rental_uris":{"android":"levelo://app?vid=ddacb419-7c27-45c8-9776-9f3d42914fbb","ios":"levelo://app?vid=ddacb419-7c27-45c8-9776-9f3d42914fbb"},"vehicle_type_id":"4","last_reported":1701342371,"current_range_meters":22000,"station_id":"ce4bh012rcd13ifvqd00","pricing_plan_id":"free"},{"bike_id":"d6a9879a-886f-4a93-a966-7a33ffa482e7","system_id":"levelo_inurba_marseille","lat":43.316517,"lon":5.404375,"is_reserved":false,"is_disabled":false,"rental_uris":{"android":"levelo://app?vid=d6a9879a-886f-4a93-a966-7a33ffa482e7","ios":"levelo://app?vid=d6a9879a-886f-4a93-a966-7a33ffa482e7"},"vehicle_type_id":"4","last_reported":1701342371,"current_range_meters":21200,"station_id":"ce4bh012rcd13ifvqd00","pricing_plan_id":"free"},{"bike_id":"e63a9a2d-1a93-42cb-8bd9-b88c47d73382","system_id":"levelo_inurba_marseille","lat":43.29196,"lon":5.39321,"is_reserved":false,"is_disabled":false,"rental_uris":{"android":"levelo://app?vid=e63a9a2d-1a93-42cb-8bd9-b88c47d73382","ios":"levelo://app?vid=e63a9a2d-1a93-42cb-8bd9-b88c47d73382"},"vehicle_type_id":"4","last_reported":1701342371,"current_range_meters":16000,"station_id":"ce4bh192rcd13ifvqdd0","pricing_plan_id":"free"},{"bike_id":"b3d2d109-8dd7-4e35-bc94-c4f739203de9","system_id":"levelo_inurba_marseille","lat":43.291951,"lon":5.393243,"is_reserved":false,"is_disabled":false,"rental_uris":{"android":"levelo://app?vid=b3d2d109-8dd7-4e35-bc94-c4f739203de9","ios":"levelo://app?vid=b3d2d109-8dd7-4e35-bc94-c4f739203de9"},"vehicle_type_id":"4","last_reported":1701342371,"current_range_meters":11600,"station_id":"ce4bh192rcd13ifvqdd0","pricing_plan_id":"free"},{"bike_id":"4ead67e8-054e-4df0-9532-fd6395e3f775","system_id":"levelo_inurba_marseille","lat":43.294314,"lon":5.397498,"is_reserved":false,"is_disabled":false,"rental_uris":{"android":"levelo://app?vid=4ead67e8-054e-4df0-9532-fd6395e3f775","ios":"levelo://app?vid=4ead67e8-054e-4df0-9532-fd6395e3f775"},"vehicle_type_id":"4","last_reported":1701342371,"current_range_meters":21600,"station_id":"ce4bh3h2rcd13ifvqdo0","pricing_plan_id":"free"},{"bike_id":"391d5ff6-cd18-4893-9d87-71e2c699a4cf","system_id":"levelo_inurba_marseille","lat":43.285856,"lon":5.350771,"is_reserved":false,"is_disabled":false,"rental_uris":{"android":"levelo://app?vid=391d5ff6-cd18-4893-9d87-71e2c699a4cf","ios":"levelo://app?vid=391d5ff6-cd18-4893-9d87-71e2c699a4cf"},"vehicle_type_id":"4","last_reported":1701342371,"current_range_meters":29600,"station_id":"ce4bhch2rcd13ifvqeug","pricing_plan_id":"free"},{"bike_id":"78887e1c-f07f-4ddb-b2f5-4e47ec4e7fb5","system_id":"levelo_inurba_marseille","lat":43.295713,"lon":5.399639,"is_reserved":false,"is_disabled":false,"rental_uris":{"android":"levelo://app?vid=78887e1c-f07f-4ddb-b2f5-4e47ec4e7fb5","ios":"levelo://app?vid=78887e1c-f07f-4ddb-b2f5-4e47ec4e7fb5"},"vehicle_type_id":"4","last_reported":1701342371,"current_range_meters":24400,"station_id":"ce4bh312rcd13ifvqdj0","pricing_plan_id":"free"},{"bike_id":"4be5bdf8-3b0d-4d6d-b695-98944e715d18","system_id":"levelo_inurba_marseille","lat":43.295713,"lon":5.399639,"is_reserved":false,"is_disabled":false,"rental_uris":{"android":"levelo://app?vid=4be5bdf8-3b0d-4d6d-b695-98944e715d18","ios":"levelo://app?vid=4be5bdf8-3b0d-4d6d-b695-98944e715d18"},"vehicle_type_id":"4","last_reported":1701342371,"current_range_meters":3200,"station_id":"ce4bh312rcd13ifvqdj0","pricing_plan_id":"free"},{"bike_id":"139d20b0-887e-4861-8fc7-21371d349bd4","system_id":"levelo_inurba_marseille","lat":43.319179,"lon":5.407725,"is_reserved":false,"is_disabled":false,"rental_uris":{"android":"levelo://app?vid=139d20b0-887e-4861-8fc7-21371d349bd4","ios":"levelo://app?vid=139d20b0-887e-4861-8fc7-21371d349bd4"},"vehicle_type_id":"4","last_reported":1701342371,"current_range_meters":24800,"station_id":"ce4bhq12rcd13ifvqhig","pricing_plan_id":"free"},{"bike_id":"f4624638-c4ae-48e5-8bcd-ee120c4cf3c7","system_id":"levelo_inurba_marseille","lat":43.284793,"lon":5.384113,"is_reserved":false,"is_disabled":false,"rental_uris":{"android":"levelo://app?vid=f4624638-c4ae-48e5-8bcd-ee120c4cf3c7","ios":"levelo://app?vid=f4624638-c4ae-48e5-8bcd-ee120c4cf3c7"},"vehicle_type_id":"4","last_reported":1701342371,"current_range_meters":18400,"station_id":"ce4bh512rcd13ifvqe3g","pricing_plan_id":"free"},{"bike_id":"a8620195-89ce-4cec-b51d-92d76b0a806a","system_id":"levelo_inurba_marseille","lat":43.288501,"lon":5.393087,"is_reserved":false,"is_disabled":false,"rental_uris":{"android":"levelo://app?vid=a8620195-89ce-4cec-b51d-92d76b0a806a","ios":"levelo://app?vid=a8620195-89ce-4cec-b51d-92d76b0a806a"},"vehicle_type_id":"4","last_reported":1701342371,"current_range_meters":24800,"station_id":"ce4bh2p2rcd13ifvqdi0","pricing_plan_id":"free"},{"bike_id":"322336b1-3d50-4121-8561-7c4c13634c0f","system_id":"levelo_inurba_marseille","lat":43.289363,"lon":5.396322,"is_reserved":false,"is_disabled":false,"rental_uris":{"android":"levelo://app?vid=322336b1-3d50-4121-8561-7c4c13634c0f","ios":"levelo://app?vid=322336b1-3d50-4121-8561-7c4c13634c0f"},"vehicle_type_id":"4","last_reported":1701342371,"current_range_meters":28000,"station_id":"ce4bh3h2rcd13ifvqdn0","pricing_plan_id":"free"},{"bike_id":"921f29ed-a0a7-46e3-858c-282dbe70347d","system_id":"levelo_inurba_marseille","lat":43.282754,"lon":5.350519,"is_reserved":false,"is_disabled":false,"rental_uris":{"android":"levelo://app?vid=921f29ed-a0a7-46e3-858c-282dbe70347d","ios":"levelo://app?vid=921f29ed-a0a7-46e3-858c-282dbe70347d"},"vehicle_type_id":"4","last_reported":1701342371,"current_range_meters":8000,"station_id":"ce4bhbp2rcd13ifvqerg","pricing_plan_id":"free"},{"bike_id":"4218e340-0437-475b-baaa-02308049422a","system_id":"levelo_inurba_marseille","lat":43.283502,"lon":5.386471,"is_reserved":false,"is_disabled":false,"rental_uris":{"android":"levelo://app?vid=4218e340-0437-475b-baaa-02308049422a","ios":"levelo://app?vid=4218e340-0437-475b-baaa-02308049422a"},"vehicle_type_id":"4","last_reported":1701342371,"current_range_meters":8400,"station_id":"ce4bh492rcd13ifvqdvg","pricing_plan_id":"free"},{"bike_id":"9bd9175f-ce64-4b91-8ed1-7eb9c6607b93","system_id":"levelo_inurba_marseille","lat":43.282754,"lon":5.350519,"is_reserved":false,"is_disabled":false,"rental_uris":{"android":"levelo://app?vid=9bd9175f-ce64-4b91-8ed1-7eb9c6607b93","ios":"levelo://app?vid=9bd9175f-ce64-4b91-8ed1-7eb9c6607b93"},"vehicle_type_id":"4","last_reported":1701342371,"current_range_meters":0,"station_id":"ce4bhbp2rcd13ifvqerg","pricing_plan_id":"free"},{"bike_id":"0393d126-1c2b-4e8d-a666-7cc775563cef","system_id":"levelo_inurba_marseille","lat":43.281044,"lon":5.378308,"is_reserved":false,"is_disabled":false,"rental_uris":{"android":"levelo://app?vid=0393d126-1c2b-4e8d-a666-7cc775563cef","ios":"levelo://app?vid=0393d126-1c2b-4e8d-a666-7cc775563cef"},"vehicle_type_id":"4","last_reported":1701342371,"current_range_meters":25200,"station_id":"ce4bha12rcd13ifvqee0","pricing_plan_id":"free"},{"bike_id":"82f2909d-9e71-45a6-964a-02d905892e6f","system_id":"levelo_inurba_marseille","lat":43.284317,"lon":5.391844,"is_reserved":false,"is_disabled":false,"rental_uris":{"android":"levelo://app?vid=82f2909d-9e71-45a6-964a-02d905892e6f","ios":"levelo://app?vid=82f2909d-9e71-45a6-964a-02d905892e6f"},"vehicle_type_id":"4","last_reported":1701342371,"current_range_meters":3600,"station_id":"ce4bhoh2rcd13ifvqh5g","pricing_plan_id":"free"},{"bike_id":"734ea220-0902-412b-a665-1ed2f85fafa1","system_id":"levelo_inurba_marseille","lat":43.284462,"lon":5.392121,"is_reserved":false,"is_disabled":false,"rental_uris":{"android":"levelo://app?vid=734ea220-0902-412b-a665-1ed2f85fafa1","ios":"levelo://app?vid=734ea220-0902-412b-a665-1ed2f85fafa1"},"vehicle_type_id":"4","last_reported":1701342371,"current_range_meters":23200,"station_id":"ce4bhoh2rcd13ifvqh5g","pricing_plan_id":"free"},{"bike_id":"c94c428a-8ff7-43e0-bcd7-de854446f648","system_id":"levelo_inurba_marseille","lat":43.285742,"lon":5.395004,"is_reserved":false,"is_disabled":false,"rental_uris":{"android":"levelo://app?vid=c94c428a-8ff7-43e0-bcd7-de854446f648","ios":"levelo://app?vid=c94c428a-8ff7-43e0-bcd7-de854446f648"},"vehicle_type_id":"4","last_reported":1701342371,"current_range_meters":11600,"station_id":"ce4bh292rcd13ifvqdg0","pricing_plan_id":"free"},{"bike_id":"366ef25b-6e0b-4004-b796-e3b6ae467140","system_id":"levelo_inurba_marseille","lat":43.326605,"lon":5.409903,"is_reserved":false,"is_disabled":false,"rental_uris":{"android":"levelo://app?vid=366ef25b-6e0b-4004-b796-e3b6ae467140","ios":"levelo://app?vid=366ef25b-6e0b-4004-b796-e3b6ae467140"},"vehicle_type_id":"4","last_reported":1701342371,"current_range_meters":18000,"station_id":"ce4bhpp2rcd13ifvqhgg","pricing_plan_id":"free"},{"bike_id":"ab2441ec-05b8-495a-b217-d107b8ac6e55","system_id":"levelo_inurba_marseille","lat":43.304188,"lon":5.412904,"is_reserved":false,"is_disabled":false,"rental_uris":{"android":"levelo://app?vid=ab2441ec-05b8-495a-b217-d107b8ac6e55","ios":"levelo://app?vid=ab2441ec-05b8-495a-b217-d107b8ac6e55"},"vehicle_type_id":"4","last_reported":1701342371,"current_range_meters":4000,"station_id":"ce4bhop2rcd13ifvqh8g","pricing_plan_id":"free"},{"bike_id":"9babd5e8-a23e-4821-a087-679779bdf0ab","system_id":"levelo_inurba_marseille","lat":43.287154,"lon":5.399979,"is_reserved":false,"is_disabled":false,"rental_uris":{"android":"levelo://app?vid=9babd5e8-a23e-4821-a087-679779bdf0ab","ios":"levelo://app?vid=9babd5e8-a23e-4821-a087-679779bdf0ab"},"vehicle_type_id":"4","last_reported":1701342371,"current_range_meters":31200,"station_id":"ce4bho92rcd13ifvqh3g","pricing_plan_id":"free"},{"bike_id":"eb9285c4-01e8-474d-bb2e-5570486e7d84","system_id":"levelo_inurba_marseille","lat":43.287154,"lon":5.399979,"is_reserved":false,"is_disabled":false,"rental_uris":{"android":"levelo://app?vid=eb9285c4-01e8-474d-bb2e-5570486e7d84","ios":"levelo://app?vid=eb9285c4-01e8-474d-bb2e-5570486e7d84"},"vehicle_type_id":"4","last_reported":1701342371,"current_range_meters":0,"station_id":"ce4bho92rcd13ifvqh3g","pricing_plan_id":"free"},{"bike_id":"0a2ddf0a-4d6f-47a4-8d21-1916626f2dbd","system_id":"levelo_inurba_marseille","lat":43.287154,"lon":5.399979,"is_reserved":false,"is_disabled":false,"rental_uris":{"android":"levelo://app?vid=0a2ddf0a-4d6f-47a4-8d21-1916626f2dbd","ios":"levelo://app?vid=0a2ddf0a-4d6f-47a4-8d21-1916626f2dbd"},"vehicle_type_id":"4","last_reported":1701342371,"current_range_meters":20000,"station_id":"ce4bho92rcd13ifvqh3g","pricing_plan_id":"free"},{"bike_id":"057c8a3b-1a43-4293-ada9-3faf6b8b913e","system_id":"levelo_inurba_marseille","lat":43.292618,"lon":5.409096,"is_reserved":false,"is_disabled":false,"rental_uris":{"android":"levelo://app?vid=057c8a3b-1a43-4293-ada9-3faf6b8b913e","ios":"levelo://app?vid=057c8a3b-1a43-4293-ada9-3faf6b8b913e"},"vehicle_type_id":"4","last_reported":1701342371,"current_range_meters":14400,"station_id":"","pricing_plan_id":"free"},{"bike_id":"69d8d3ab-22a6-4f11-8758-91d2d3046ef2","system_id":"levelo_inurba_marseille","lat":43.292571,"lon":5.409107,"is_reserved":false,"is_disabled":false,"rental_uris":{"android":"levelo://app?vid=69d8d3ab-22a6-4f11-8758-91d2d3046ef2","ios":"levelo://app?vid=69d8d3ab-22a6-4f11-8758-91d2d3046ef2"},"vehicle_type_id":"4","last_reported":1701342371,"current_range_meters":22400,"station_id":"ce4bh192rcd13ifvqdc0","pricing_plan_id":"free"},{"bike_id":"9d7940ea-739d-4a77-bdb6-1e4b23c869ec","system_id":"levelo_inurba_marseille","lat":43.292571,"lon":5.409107,"is_reserved":false,"is_disabled":false,"rental_uris":{"android":"levelo://app?vid=9d7940ea-739d-4a77-bdb6-1e4b23c869ec","ios":"levelo://app?vid=9d7940ea-739d-4a77-bdb6-1e4b23c869ec"},"vehicle_type_id":"4","last_reported":1701342371,"current_range_meters":22800,"station_id":"ce4bh192rcd13ifvqdc0","pricing_plan_id":"free"},{"bike_id":"f23c819e-4e63-48d3-bd73-e9c7554c54bc","system_id":"levelo_inurba_marseille","lat":43.292571,"lon":5.409107,"is_reserved":false,"is_disabled":false,"rental_uris":{"android":"levelo://app?vid=f23c819e-4e63-48d3-bd73-e9c7554c54bc","ios":"levelo://app?vid=f23c819e-4e63-48d3-bd73-e9c7554c54bc"},"vehicle_type_id":"4","last_reported":1701342371,"current_range_meters":30000,"station_id":"ce4bh192rcd13ifvqdc0","pricing_plan_id":"free"},{"bike_id":"09fc5f22-71ac-4ae7-87ae-e5d83c55737d","system_id":"levelo_inurba_marseille","lat":43.27618,"lon":5.361009,"is_reserved":false,"is_disabled":false,"rental_uris":{"android":"levelo://app?vid=09fc5f22-71ac-4ae7-87ae-e5d83c55737d","ios":"levelo://app?vid=09fc5f22-71ac-4ae7-87ae-e5d83c55737d"},"vehicle_type_id":"4","last_reported":1701342371,"current_range_meters":5600,"station_id":"ce4bgj92rcd13ifvqbe0","pricing_plan_id":"free"},{"bike_id":"6b12b936-f916-4450-a6a2-88cde46f1bd8","system_id":"levelo_inurba_marseille","lat":43.27619,"lon":5.361,"is_reserved":false,"is_disabled":false,"rental_uris":{"android":"levelo://app?vid=6b12b936-f916-4450-a6a2-88cde46f1bd8","ios":"levelo://app?vid=6b12b936-f916-4450-a6a2-88cde46f1bd8"},"vehicle_type_id":"4","last_reported":1701342371,"current_range_meters":24800,"station_id":"ce4bgj92rcd13ifvqbe0","pricing_plan_id":"free"},{"bike_id":"0b9fb5ea-2943-404c-8eb6-480c055505d0","system_id":"levelo_inurba_marseille","lat":43.280784,"lon":5.396622,"is_reserved":false,"is_disabled":false,"rental_uris":{"android":"levelo://app?vid=0b9fb5ea-2943-404c-8eb6-480c055505d0","ios":"levelo://app?vid=0b9fb5ea-2943-404c-8eb6-480c055505d0"},"vehicle_type_id":"4","last_reported":1701342371,"current_range_meters":27200,"station_id":"ce4bho12rcd13ifvqh2g","pricing_plan_id":"free"},{"bike_id":"467805e3-bedf-4a3f-a5ea-c8edce9c2b11","system_id":"levelo_inurba_marseille","lat":43.303837,"lon":5.418724,"is_reserved":false,"is_disabled":false,"rental_uris":{"android":"levelo://app?vid=467805e3-bedf-4a3f-a5ea-c8edce9c2b11","ios":"levelo://app?vid=467805e3-bedf-4a3f-a5ea-c8edce9c2b11"},"vehicle_type_id":"4","last_reported":1701342371,"current_range_meters":30400,"station_id":"ce4bhop2rcd13ifvqh7g","pricing_plan_id":"free"},{"bike_id":"432c3603-aaed-4700-bb35-e5fa98f6daf0","system_id":"levelo_inurba_marseille","lat":43.278399,"lon":5.392139,"is_reserved":false,"is_disabled":false,"rental_uris":{"android":"levelo://app?vid=432c3603-aaed-4700-bb35-e5fa98f6daf0","ios":"levelo://app?vid=432c3603-aaed-4700-bb35-e5fa98f6daf0"},"vehicle_type_id":"4","last_reported":1701342371,"current_range_meters":20400,"station_id":"ce4bhjp2rcd13ifvqga0","pricing_plan_id":"free"},{"bike_id":"cad686d4-2b5e-422c-b0b2-5bebd48fa2de","system_id":"levelo_inurba_marseille","lat":43.278401,"lon":5.392152,"is_reserved":false,"is_disabled":false,"rental_uris":{"android":"levelo://app?vid=cad686d4-2b5e-422c-b0b2-5bebd48fa2de","ios":"levelo://app?vid=cad686d4-2b5e-422c-b0b2-5bebd48fa2de"},"vehicle_type_id":"4","last_reported":1701342371,"current_range_meters":28800,"station_id":"ce4bhjp2rcd13ifvqga0","pricing_plan_id":"free"},{"bike_id":"b0d3155d-5d61-44e0-81c7-282dfcc70cd3","system_id":"levelo_inurba_marseille","lat":43.27835,"lon":5.39209,"is_reserved":false,"is_disabled":false,"rental_uris":{"android":"levelo://app?vid=b0d3155d-5d61-44e0-81c7-282dfcc70cd3","ios":"levelo://app?vid=b0d3155d-5d61-44e0-81c7-282dfcc70cd3"},"vehicle_type_id":"4","last_reported":1701342371,"current_range_meters":20800,"station_id":"ce4bhjp2rcd13ifvqga0","pricing_plan_id":"free"},{"bike_id":"9c037df5-1f7b-43d3-986f-8a0b11126f89","system_id":"levelo_inurba_marseille","lat":43.2738,"lon":5.36251,"is_reserved":false,"is_disabled":false,"rental_uris":{"android":"levelo://app?vid=9c037df5-1f7b-43d3-986f-8a0b11126f89","ios":"levelo://app?vid=9c037df5-1f7b-43d3-986f-8a0b11126f89"},"vehicle_type_id":"4","last_reported":1701342371,"current_range_meters":24000,"station_id":"ce4bhbh2rcd13ifvqeo0","pricing_plan_id":"free"},{"bike_id":"52934fab-ddf7-4654-8872-eda2b04cb253","system_id":"levelo_inurba_marseille","lat":43.27377,"lon":5.36254,"is_reserved":false,"is_disabled":false,"rental_uris":{"android":"levelo://app?vid=52934fab-ddf7-4654-8872-eda2b04cb253","ios":"levelo://app?vid=52934fab-ddf7-4654-8872-eda2b04cb253"},"vehicle_type_id":"4","last_reported":1701342371,"current_range_meters":0,"station_id":"ce4bhbh2rcd13ifvqeo0","pricing_plan_id":"free"},{"bike_id":"b31b3a6b-bb9f-4671-ba5b-d6d4fae1a59e","system_id":"levelo_inurba_marseille","lat":43.27375,"lon":5.36241,"is_reserved":false,"is_disabled":false,"rental_uris":{"android":"levelo://app?vid=b31b3a6b-bb9f-4671-ba5b-d6d4fae1a59e","ios":"levelo://app?vid=b31b3a6b-bb9f-4671-ba5b-d6d4fae1a59e"},"vehicle_type_id":"4","last_reported":1701342371,"current_range_meters":17600,"station_id":"ce4bhbh2rcd13ifvqeo0","pricing_plan_id":"free"},{"bike_id":"aced9b9e-a898-4cc3-aa44-1feecb45ce06","system_id":"levelo_inurba_marseille","lat":43.279952,"lon":5.400085,"is_reserved":false,"is_disabled":false,"rental_uris":{"android":"levelo://app?vid=aced9b9e-a898-4cc3-aa44-1feecb45ce06","ios":"levelo://app?vid=aced9b9e-a898-4cc3-aa44-1feecb45ce06"},"vehicle_type_id":"4","last_reported":1701342371,"current_range_meters":1200,"station_id":"ce4bho92rcd13ifvqh4g","pricing_plan_id":"free"},{"bike_id":"7335a393-cc37-4e1d-b729-82d3cd0e69fb","system_id":"levelo_inurba_marseille","lat":43.295197,"lon":5.422667,"is_reserved":false,"is_disabled":false,"rental_uris":{"android":"levelo://app?vid=7335a393-cc37-4e1d-b729-82d3cd0e69fb","ios":"levelo://app?vid=7335a393-cc37-4e1d-b729-82d3cd0e69fb"},"vehicle_type_id":"4","last_reported":1701342371,"current_range_meters":20800,"station_id":"ce4bhph2rcd13ifvqhdg","pricing_plan_id":"free"},{"bike_id":"93f4547d-0241-4507-a169-61fdf7a3e7ef","system_id":"levelo_inurba_marseille","lat":43.272116,"lon":5.391747,"is_reserved":false,"is_disabled":false,"rental_uris":{"android":"levelo://app?vid=93f4547d-0241-4507-a169-61fdf7a3e7ef","ios":"levelo://app?vid=93f4547d-0241-4507-a169-61fdf7a3e7ef"},"vehicle_type_id":"4","last_reported":1701342371,"current_range_meters":15200,"station_id":"ce4bhhp2rcd13ifvqfm0","pricing_plan_id":"free"},{"bike_id":"69a1afdc-a350-4cb1-a824-b94f0b42af03","system_id":"levelo_inurba_marseille","lat":43.269467,"lon":5.386439,"is_reserved":false,"is_disabled":false,"rental_uris":{"android":"levelo://app?vid=69a1afdc-a350-4cb1-a824-b94f0b42af03","ios":"levelo://app?vid=69a1afdc-a350-4cb1-a824-b94f0b42af03"},"vehicle_type_id":"4","last_reported":1701342371,"current_range_meters":12400,"station_id":"ce4bhh92rcd13ifvqfh0","pricing_plan_id":"free"},{"bike_id":"e6659c01-a265-44b4-a981-14fc1adf36c3","system_id":"levelo_inurba_marseille","lat":43.26948,"lon":5.38619,"is_reserved":false,"is_disabled":false,"rental_uris":{"android":"levelo://app?vid=e6659c01-a265-44b4-a981-14fc1adf36c3","ios":"levelo://app?vid=e6659c01-a265-44b4-a981-14fc1adf36c3"},"vehicle_type_id":"4","last_reported":1701342371,"current_range_meters":12400,"station_id":"ce4bhh92rcd13ifvqfh0","pricing_plan_id":"free"},{"bike_id":"77e36cf5-1cbb-4ac1-8ff7-3c3230729995","system_id":"levelo_inurba_marseille","lat":43.269319,"lon":5.389397,"is_reserved":false,"is_disabled":false,"rental_uris":{"android":"levelo://app?vid=77e36cf5-1cbb-4ac1-8ff7-3c3230729995","ios":"levelo://app?vid=77e36cf5-1cbb-4ac1-8ff7-3c3230729995"},"vehicle_type_id":"4","last_reported":1701342371,"current_range_meters":24000,"station_id":"ce4bhhh2rcd13ifvqfl0","pricing_plan_id":"free"},{"bike_id":"f42f5c49-c2f2-45fd-9736-63fe9bc5164b","system_id":"levelo_inurba_marseille","lat":43.26681,"lon":5.382694,"is_reserved":false,"is_disabled":false,"rental_uris":{"android":"levelo://app?vid=f42f5c49-c2f2-45fd-9736-63fe9bc5164b","ios":"levelo://app?vid=f42f5c49-c2f2-45fd-9736-63fe9bc5164b"},"vehicle_type_id":"4","last_reported":1701342371,"current_range_meters":22400,"station_id":"ce4bhg92rcd13ifvqf90","pricing_plan_id":"free"},{"bike_id":"f467fa35-c37c-41b3-81d2-1feb513717f9","system_id":"levelo_inurba_marseille","lat":43.26681,"lon":5.382694,"is_reserved":false,"is_disabled":false,"rental_uris":{"android":"levelo://app?vid=f467fa35-c37c-41b3-81d2-1feb513717f9","ios":"levelo://app?vid=f467fa35-c37c-41b3-81d2-1feb513717f9"},"vehicle_type_id":"4","last_reported":1701342371,"current_range_meters":0,"station_id":"ce4bhg92rcd13ifvqf90","pricing_plan_id":"free"},{"bike_id":"be530746-b790-4556-a671-acffe61383af","system_id":"levelo_inurba_marseille","lat":43.26681,"lon":5.382694,"is_reserved":false,"is_disabled":false,"rental_uris":{"android":"levelo://app?vid=be530746-b790-4556-a671-acffe61383af","ios":"levelo://app?vid=be530746-b790-4556-a671-acffe61383af"},"vehicle_type_id":"4","last_reported":1701342371,"current_range_meters":28000,"station_id":"ce4bhg92rcd13ifvqf90","pricing_plan_id":"free"},{"bike_id":"55980f34-058e-416c-afae-4cdad54cf694","system_id":"levelo_inurba_marseille","lat":43.26679,"lon":5.3827,"is_reserved":false,"is_disabled":false,"rental_uris":{"android":"levelo://app?vid=55980f34-058e-416c-afae-4cdad54cf694","ios":"levelo://app?vid=55980f34-058e-416c-afae-4cdad54cf694"},"vehicle_type_id":"4","last_reported":1701342371,"current_range_meters":19200,"station_id":"ce4bhg92rcd13ifvqf90","pricing_plan_id":"free"},{"bike_id":"9e309737-c687-43ef-8d55-2261cb122269","system_id":"levelo_inurba_marseille","lat":43.27996,"lon":5.416624,"is_reserved":false,"is_disabled":false,"rental_uris":{"android":"levelo://app?vid=9e309737-c687-43ef-8d55-2261cb122269","ios":"levelo://app?vid=9e309737-c687-43ef-8d55-2261cb122269"},"vehicle_type_id":"4","last_reported":1701342371,"current_range_meters":24000,"station_id":"ce4bho12rcd13ifvqh1g","pricing_plan_id":"free"},{"bike_id":"d8009f28-72bd-4b50-8c95-f6f997cab3f3","system_id":"levelo_inurba_marseille","lat":43.26778,"lon":5.39423,"is_reserved":false,"is_disabled":false,"rental_uris":{"android":"levelo://app?vid=d8009f28-72bd-4b50-8c95-f6f997cab3f3","ios":"levelo://app?vid=d8009f28-72bd-4b50-8c95-f6f997cab3f3"},"vehicle_type_id":"4","last_reported":1701342371,"current_range_meters":20800,"station_id":"ce4bhh12rcd13ifvqfg0","pricing_plan_id":"free"},{"bike_id":"356c897a-23c6-4699-ab58-6438d85d1d57","system_id":"levelo_inurba_marseille","lat":43.308051,"lon":5.43527,"is_reserved":false,"is_disabled":false,"rental_uris":{"android":"levelo://app?vid=356c897a-23c6-4699-ab58-6438d85d1d57","ios":"levelo://app?vid=356c897a-23c6-4699-ab58-6438d85d1d57"},"vehicle_type_id":"4","last_reported":1701342371,"current_range_meters":30800,"station_id":"ce4bhph2rcd13ifvqheg","pricing_plan_id":"free"},{"bike_id":"6cb0f29a-6e7c-46d5-8868-83b7c3e836fe","system_id":"levelo_inurba_marseille","lat":43.261782,"lon":5.374515,"is_reserved":false,"is_disabled":false,"rental_uris":{"android":"levelo://app?vid=6cb0f29a-6e7c-46d5-8868-83b7c3e836fe","ios":"levelo://app?vid=6cb0f29a-6e7c-46d5-8868-83b7c3e836fe"},"vehicle_type_id":"4","last_reported":1701342371,"current_range_meters":15600,"station_id":"ce4bhgp2rcd13ifvqfc0","pricing_plan_id":"free"},{"bike_id":"f49dd405-ce90-4b34-b263-a4cce394cbc4","system_id":"levelo_inurba_marseille","lat":43.261782,"lon":5.374515,"is_reserved":false,"is_disabled":false,"rental_uris":{"android":"levelo://app?vid=f49dd405-ce90-4b34-b263-a4cce394cbc4","ios":"levelo://app?vid=f49dd405-ce90-4b34-b263-a4cce394cbc4"},"vehicle_type_id":"4","last_reported":1701342371,"current_range_meters":24400,"station_id":"ce4bhgp2rcd13ifvqfc0","pricing_plan_id":"free"},{"bike_id":"3b0c0bb4-5989-4886-a288-42d1a3878a2b","system_id":"levelo_inurba_marseille","lat":43.271368,"lon":5.40928,"is_reserved":false,"is_disabled":false,"rental_uris":{"android":"levelo://app?vid=3b0c0bb4-5989-4886-a288-42d1a3878a2b","ios":"levelo://app?vid=3b0c0bb4-5989-4886-a288-42d1a3878a2b"},"vehicle_type_id":"4","last_reported":1701342371,"current_range_meters":0,"station_id":"ce4bhl12rcd13ifvqgf0","pricing_plan_id":"free"},{"bike_id":"b366d78f-31ca-459a-a98a-015b91cef5eb","system_id":"levelo_inurba_marseille","lat":43.281548,"lon":5.42643,"is_reserved":false,"is_disabled":false,"rental_uris":{"android":"levelo://app?vid=b366d78f-31ca-459a-a98a-015b91cef5eb","ios":"levelo://app?vid=b366d78f-31ca-459a-a98a-015b91cef5eb"},"vehicle_type_id":"4","last_reported":1701342371,"current_range_meters":24000,"station_id":"ce4bhnh2rcd13ifvqgug","pricing_plan_id":"free"},{"bike_id":"13533429-1482-4c98-8e21-a7a4d42df524","system_id":"levelo_inurba_marseille","lat":43.281548,"lon":5.42643,"is_reserved":false,"is_disabled":false,"rental_uris":{"android":"levelo://app?vid=13533429-1482-4c98-8e21-a7a4d42df524","ios":"levelo://app?vid=13533429-1482-4c98-8e21-a7a4d42df524"},"vehicle_type_id":"4","last_reported":1701342371,"current_range_meters":24000,"station_id":"ce4bhnh2rcd13ifvqgug","pricing_plan_id":"free"},{"bike_id":"ec19e63e-aa0d-4820-8f9b-8129ac18f78d","system_id":"levelo_inurba_marseille","lat":43.281548,"lon":5.42643,"is_reserved":false,"is_disabled":false,"rental_uris":{"android":"levelo://app?vid=ec19e63e-aa0d-4820-8f9b-8129ac18f78d","ios":"levelo://app?vid=ec19e63e-aa0d-4820-8f9b-8129ac18f78d"},"vehicle_type_id":"4","last_reported":1701342371,"current_range_meters":21600,"station_id":"ce4bhnh2rcd13ifvqgug","pricing_plan_id":"free"},{"bike_id":"a13368f5-c039-45e6-b328-5b0525422ef3","system_id":"levelo_inurba_marseille","lat":43.275028,"lon":5.424534,"is_reserved":false,"is_disabled":false,"rental_uris":{"android":"levelo://app?vid=a13368f5-c039-45e6-b328-5b0525422ef3","ios":"levelo://app?vid=a13368f5-c039-45e6-b328-5b0525422ef3"},"vehicle_type_id":"4","last_reported":1701342371,"current_range_meters":31600,"station_id":"ce4bhn92rcd13ifvqgrg","pricing_plan_id":"free"},{"bike_id":"783e1a01-74ea-4c57-ac52-dcca17606f67","system_id":"levelo_inurba_marseille","lat":43.275028,"lon":5.424534,"is_reserved":false,"is_disabled":false,"rental_uris":{"android":"levelo://app?vid=783e1a01-74ea-4c57-ac52-dcca17606f67","ios":"levelo://app?vid=783e1a01-74ea-4c57-ac52-dcca17606f67"},"vehicle_type_id":"4","last_reported":1701342371,"current_range_meters":14800,"station_id":"ce4bhn92rcd13ifvqgrg","pricing_plan_id":"free"},{"bike_id":"3e84e335-f49b-4e96-838e-92191173e0d3","system_id":"levelo_inurba_marseille","lat":43.275028,"lon":5.424534,"is_reserved":false,"is_disabled":false,"rental_uris":{"android":"levelo://app?vid=3e84e335-f49b-4e96-838e-92191173e0d3","ios":"levelo://app?vid=3e84e335-f49b-4e96-838e-92191173e0d3"},"vehicle_type_id":"4","last_reported":1701342371,"current_range_meters":23600,"station_id":"ce4bhn92rcd13ifvqgrg","pricing_plan_id":"free"},{"bike_id":"08507984-b312-4642-b76c-2012db38cc9b","system_id":"levelo_inurba_marseille","lat":43.275028,"lon":5.424534,"is_reserved":false,"is_disabled":false,"rental_uris":{"android":"levelo://app?vid=08507984-b312-4642-b76c-2012db38cc9b","ios":"levelo://app?vid=08507984-b312-4642-b76c-2012db38cc9b"},"vehicle_type_id":"4","last_reported":1701342371,"current_range_meters":26000,"station_id":"ce4bhn92rcd13ifvqgrg","pricing_plan_id":"free"},{"bike_id":"a36a180a-d1a6-4bdd-ac7e-1859743f25e0","system_id":"levelo_inurba_marseille","lat":43.275028,"lon":5.424534,"is_reserved":false,"is_disabled":false,"rental_uris":{"android":"levelo://app?vid=a36a180a-d1a6-4bdd-ac7e-1859743f25e0","ios":"levelo://app?vid=a36a180a-d1a6-4bdd-ac7e-1859743f25e0"},"vehicle_type_id":"4","last_reported":1701342371,"current_range_meters":19600,"station_id":"ce4bhn92rcd13ifvqgrg","pricing_plan_id":"free"},{"bike_id":"d48d94a6-b95a-4f55-b08b-d4ab5df729f0","system_id":"levelo_inurba_marseille","lat":43.275028,"lon":5.424534,"is_reserved":false,"is_disabled":false,"rental_uris":{"android":"levelo://app?vid=d48d94a6-b95a-4f55-b08b-d4ab5df729f0","ios":"levelo://app?vid=d48d94a6-b95a-4f55-b08b-d4ab5df729f0"},"vehicle_type_id":"4","last_reported":1701342371,"current_range_meters":28800,"station_id":"ce4bhn92rcd13ifvqgrg","pricing_plan_id":"free"},{"bike_id":"a0ad5954-4678-4ed0-a699-84d1b14aeda3","system_id":"levelo_inurba_marseille","lat":43.275028,"lon":5.424534,"is_reserved":false,"is_disabled":false,"rental_uris":{"android":"levelo://app?vid=a0ad5954-4678-4ed0-a699-84d1b14aeda3","ios":"levelo://app?vid=a0ad5954-4678-4ed0-a699-84d1b14aeda3"},"vehicle_type_id":"4","last_reported":1701342371,"current_range_meters":13200,"station_id":"ce4bhn92rcd13ifvqgrg","pricing_plan_id":"free"},{"bike_id":"06649a1b-ff2e-4306-b52c-558b8a515e74","system_id":"levelo_inurba_marseille","lat":43.275028,"lon":5.424534,"is_reserved":false,"is_disabled":false,"rental_uris":{"android":"levelo://app?vid=06649a1b-ff2e-4306-b52c-558b8a515e74","ios":"levelo://app?vid=06649a1b-ff2e-4306-b52c-558b8a515e74"},"vehicle_type_id":"4","last_reported":1701342371,"current_range_meters":20800,"station_id":"ce4bhn92rcd13ifvqgrg","pricing_plan_id":"free"},{"bike_id":"54fac5fe-0c7e-4943-897d-31a01d6d8c11","system_id":"levelo_inurba_marseille","lat":43.26082,"lon":5.39764,"is_reserved":false,"is_disabled":false,"rental_uris":{"android":"levelo://app?vid=54fac5fe-0c7e-4943-897d-31a01d6d8c11","ios":"levelo://app?vid=54fac5fe-0c7e-4943-897d-31a01d6d8c11"},"vehicle_type_id":"4","last_reported":1701342371,"current_range_meters":0,"station_id":"ce4bhi12rcd13ifvqfq0","pricing_plan_id":"free"},{"bike_id":"dfc3e494-ef40-4641-9b05-991ccd282942","system_id":"levelo_inurba_marseille","lat":43.258224,"lon":5.394369,"is_reserved":false,"is_disabled":false,"rental_uris":{"android":"levelo://app?vid=dfc3e494-ef40-4641-9b05-991ccd282942","ios":"levelo://app?vid=dfc3e494-ef40-4641-9b05-991ccd282942"},"vehicle_type_id":"4","last_reported":1701342371,"current_range_meters":10000,"station_id":"ce4bhip2rcd13ifvqft0","pricing_plan_id":"free"},{"bike_id":"d905a718-a0d2-425c-825e-56312ae1a1b2","system_id":"levelo_inurba_marseille","lat":43.258224,"lon":5.394369,"is_reserved":false,"is_disabled":false,"rental_uris":{"android":"levelo://app?vid=d905a718-a0d2-425c-825e-56312ae1a1b2","ios":"levelo://app?vid=d905a718-a0d2-425c-825e-56312ae1a1b2"},"vehicle_type_id":"4","last_reported":1701342371,"current_range_meters":16800,"station_id":"ce4bhip2rcd13ifvqft0","pricing_plan_id":"free"},{"bike_id":"a1ebfa61-9a00-42cf-bbdb-acd444ebb328","system_id":"levelo_inurba_marseille","lat":43.258224,"lon":5.394369,"is_reserved":false,"is_disabled":false,"rental_uris":{"android":"levelo://app?vid=a1ebfa61-9a00-42cf-bbdb-acd444ebb328","ios":"levelo://app?vid=a1ebfa61-9a00-42cf-bbdb-acd444ebb328"},"vehicle_type_id":"4","last_reported":1701342371,"current_range_meters":15600,"station_id":"ce4bhip2rcd13ifvqft0","pricing_plan_id":"free"},{"bike_id":"072735fc-7166-45e4-ab1b-a3fa626d7d29","system_id":"levelo_inurba_marseille","lat":43.2549,"lon":5.3765,"is_reserved":false,"is_disabled":false,"rental_uris":{"android":"levelo://app?vid=072735fc-7166-45e4-ab1b-a3fa626d7d29","ios":"levelo://app?vid=072735fc-7166-45e4-ab1b-a3fa626d7d29"},"vehicle_type_id":"4","last_reported":1701342371,"current_range_meters":22800,"station_id":"ce4bhh12rcd13ifvqff0","pricing_plan_id":"free"},{"bike_id":"428c187e-fee1-40a7-a10a-b025e393b3d4","system_id":"levelo_inurba_marseille","lat":43.270721,"lon":5.422764,"is_reserved":false,"is_disabled":false,"rental_uris":{"android":"levelo://app?vid=428c187e-fee1-40a7-a10a-b025e393b3d4","ios":"levelo://app?vid=428c187e-fee1-40a7-a10a-b025e393b3d4"},"vehicle_type_id":"4","last_reported":1701342371,"current_range_meters":15600,"station_id":"ce4bhk92rcd13ifvqgb0","pricing_plan_id":"free"},{"bike_id":"8a07c10e-58d8-480b-ac33-fcd6e26cdb24","system_id":"levelo_inurba_marseille","lat":43.270721,"lon":5.422764,"is_reserved":false,"is_disabled":false,"rental_uris":{"android":"levelo://app?vid=8a07c10e-58d8-480b-ac33-fcd6e26cdb24","ios":"levelo://app?vid=8a07c10e-58d8-480b-ac33-fcd6e26cdb24"},"vehicle_type_id":"4","last_reported":1701342371,"current_range_meters":29600,"station_id":"ce4bhk92rcd13ifvqgb0","pricing_plan_id":"free"},{"bike_id":"ce4a8b89-5467-4175-a7e0-4caeff86e402","system_id":"levelo_inurba_marseille","lat":43.270721,"lon":5.422764,"is_reserved":false,"is_disabled":false,"rental_uris":{"android":"levelo://app?vid=ce4a8b89-5467-4175-a7e0-4caeff86e402","ios":"levelo://app?vid=ce4a8b89-5467-4175-a7e0-4caeff86e402"},"vehicle_type_id":"4","last_reported":1701342371,"current_range_meters":29600,"station_id":"ce4bhk92rcd13ifvqgb0","pricing_plan_id":"free"},{"bike_id":"0dda3f8b-8d95-4737-9d9d-00e69d877dc3","system_id":"levelo_inurba_marseille","lat":43.258658,"lon":5.398935,"is_reserved":false,"is_disabled":false,"rental_uris":{"android":"levelo://app?vid=0dda3f8b-8d95-4737-9d9d-00e69d877dc3","ios":"levelo://app?vid=0dda3f8b-8d95-4737-9d9d-00e69d877dc3"},"vehicle_type_id":"4","last_reported":1701342371,"current_range_meters":7600,"station_id":"ce4bhl92rcd13ifvqghg","pricing_plan_id":"free"},{"bike_id":"d4f9021c-ad89-46c1-83a7-86a9c9771265","system_id":"levelo_inurba_marseille","lat":43.250009,"lon":5.389195,"is_reserved":false,"is_disabled":false,"rental_uris":{"android":"levelo://app?vid=d4f9021c-ad89-46c1-83a7-86a9c9771265","ios":"levelo://app?vid=d4f9021c-ad89-46c1-83a7-86a9c9771265"},"vehicle_type_id":"4","last_reported":1701342371,"current_range_meters":0,"station_id":"ce4bhgp2rcd13ifvqfd0","pricing_plan_id":"free"},{"bike_id":"85f01cb1-5515-46e6-9e1e-e59ba2b18d5b","system_id":"levelo_inurba_marseille","lat":43.250009,"lon":5.389195,"is_reserved":false,"is_disabled":false,"rental_uris":{"android":"levelo://app?vid=85f01cb1-5515-46e6-9e1e-e59ba2b18d5b","ios":"levelo://app?vid=85f01cb1-5515-46e6-9e1e-e59ba2b18d5b"},"vehicle_type_id":"4","last_reported":1701342371,"current_range_meters":3600,"station_id":"ce4bhgp2rcd13ifvqfd0","pricing_plan_id":"free"},{"bike_id":"856f2952-0d85-4a71-9497-5e57411e76d2","system_id":"levelo_inurba_marseille","lat":43.250009,"lon":5.389195,"is_reserved":false,"is_disabled":false,"rental_uris":{"android":"levelo://app?vid=856f2952-0d85-4a71-9497-5e57411e76d2","ios":"levelo://app?vid=856f2952-0d85-4a71-9497-5e57411e76d2"},"vehicle_type_id":"4","last_reported":1701342371,"current_range_meters":28400,"station_id":"ce4bhgp2rcd13ifvqfd0","pricing_plan_id":"free"},{"bike_id":"90f718ac-db15-4082-ae55-f09dd992ecfd","system_id":"levelo_inurba_marseille","lat":43.2479,"lon":5.374457,"is_reserved":false,"is_disabled":false,"rental_uris":{"android":"levelo://app?vid=90f718ac-db15-4082-ae55-f09dd992ecfd","ios":"levelo://app?vid=90f718ac-db15-4082-ae55-f09dd992ecfd"},"vehicle_type_id":"4","last_reported":1701342371,"current_range_meters":5200,"station_id":"ce4bhgh2rcd13ifvqfb0","pricing_plan_id":"free"},{"bike_id":"0bd7c58a-0dde-4db6-bc64-73f44a14518f","system_id":"levelo_inurba_marseille","lat":43.250966,"lon":5.395186,"is_reserved":false,"is_disabled":false,"rental_uris":{"android":"levelo://app?vid=0bd7c58a-0dde-4db6-bc64-73f44a14518f","ios":"levelo://app?vid=0bd7c58a-0dde-4db6-bc64-73f44a14518f"},"vehicle_type_id":"4","last_reported":1701342371,"current_range_meters":17200,"station_id":"ce4bhm12rcd13ifvqgkg","pricing_plan_id":"free"},{"bike_id":"3156b22c-2e68-4543-8896-53ae430b0eb3","system_id":"levelo_inurba_marseille","lat":43.24663,"lon":5.38164,"is_reserved":false,"is_disabled":false,"rental_uris":{"android":"levelo://app?vid=3156b22c-2e68-4543-8896-53ae430b0eb3","ios":"levelo://app?vid=3156b22c-2e68-4543-8896-53ae430b0eb3"},"vehicle_type_id":"4","last_reported":1701342371,"current_range_meters":23600,"station_id":"ce4bhih2rcd13ifvqfr0","pricing_plan_id":"free"},{"bike_id":"bdfe8767-f563-41f2-bb1b-215a8477c043","system_id":"levelo_inurba_marseille","lat":43.25102,"lon":5.403214,"is_reserved":false,"is_disabled":false,"rental_uris":{"android":"levelo://app?vid=bdfe8767-f563-41f2-bb1b-215a8477c043","ios":"levelo://app?vid=bdfe8767-f563-41f2-bb1b-215a8477c043"},"vehicle_type_id":"4","last_reported":1701342371,"current_range_meters":8000,"station_id":"ce4bhlh2rcd13ifvqgig","pricing_plan_id":"free"},{"bike_id":"fbbf54ba-19a1-4d1f-a851-d138615b0ebf","system_id":"levelo_inurba_marseille","lat":43.25102,"lon":5.403214,"is_reserved":false,"is_disabled":false,"rental_uris":{"android":"levelo://app?vid=fbbf54ba-19a1-4d1f-a851-d138615b0ebf","ios":"levelo://app?vid=fbbf54ba-19a1-4d1f-a851-d138615b0ebf"},"vehicle_type_id":"4","last_reported":1701342371,"current_range_meters":18800,"station_id":"ce4bhlh2rcd13ifvqgig","pricing_plan_id":"free"},{"bike_id":"a8c25e28-f89e-480f-9f3b-4a0ecaae5379","system_id":"levelo_inurba_marseille","lat":43.246461,"lon":5.389014,"is_reserved":false,"is_disabled":false,"rental_uris":{"android":"levelo://app?vid=a8c25e28-f89e-480f-9f3b-4a0ecaae5379","ios":"levelo://app?vid=a8c25e28-f89e-480f-9f3b-4a0ecaae5379"},"vehicle_type_id":"4","last_reported":1701342371,"current_range_meters":20800,"station_id":"ce4bhg12rcd13ifvqf60","pricing_plan_id":"free"},{"bike_id":"72a82443-13cc-42eb-b402-28c106d6fff8","system_id":"levelo_inurba_marseille","lat":43.243901,"lon":5.370583,"is_reserved":false,"is_disabled":false,"rental_uris":{"android":"levelo://app?vid=72a82443-13cc-42eb-b402-28c106d6fff8","ios":"levelo://app?vid=72a82443-13cc-42eb-b402-28c106d6fff8"},"vehicle_type_id":"4","last_reported":1701342371,"current_range_meters":18400,"station_id":"ce4bhhh2rcd13ifvqfk0","pricing_plan_id":"free"},{"bike_id":"cf534767-31d7-44ec-a3dc-ba448b03aa99","system_id":"levelo_inurba_marseille","lat":43.243893,"lon":5.370582,"is_reserved":false,"is_disabled":false,"rental_uris":{"android":"levelo://app?vid=cf534767-31d7-44ec-a3dc-ba448b03aa99","ios":"levelo://app?vid=cf534767-31d7-44ec-a3dc-ba448b03aa99"},"vehicle_type_id":"4","last_reported":1701342371,"current_range_meters":27200,"station_id":"ce4bhhh2rcd13ifvqfk0","pricing_plan_id":"free"},{"bike_id":"31477cac-dad9-40da-a8f0-2b06ddb732dc","system_id":"levelo_inurba_marseille","lat":43.243884,"lon":5.370736,"is_reserved":false,"is_disabled":false,"rental_uris":{"android":"levelo://app?vid=31477cac-dad9-40da-a8f0-2b06ddb732dc","ios":"levelo://app?vid=31477cac-dad9-40da-a8f0-2b06ddb732dc"},"vehicle_type_id":"4","last_reported":1701342371,"current_range_meters":23200,"station_id":"ce4bhhh2rcd13ifvqfk0","pricing_plan_id":"free"},{"bike_id":"c912dfb9-b9e1-4490-ba70-4926b3071cf6","system_id":"levelo_inurba_marseille","lat":43.243885,"lon":5.37058,"is_reserved":false,"is_disabled":false,"rental_uris":{"android":"levelo://app?vid=c912dfb9-b9e1-4490-ba70-4926b3071cf6","ios":"levelo://app?vid=c912dfb9-b9e1-4490-ba70-4926b3071cf6"},"vehicle_type_id":"4","last_reported":1701342371,"current_range_meters":27200,"station_id":"ce4bhhh2rcd13ifvqfk0","pricing_plan_id":"free"},{"bike_id":"6d6239be-9ca4-4e23-a40c-e8cb68671c03","system_id":"levelo_inurba_marseille","lat":43.243884,"lon":5.370577,"is_reserved":false,"is_disabled":false,"rental_uris":{"android":"levelo://app?vid=6d6239be-9ca4-4e23-a40c-e8cb68671c03","ios":"levelo://app?vid=6d6239be-9ca4-4e23-a40c-e8cb68671c03"},"vehicle_type_id":"4","last_reported":1701342371,"current_range_meters":27200,"station_id":"ce4bhhh2rcd13ifvqfk0","pricing_plan_id":"free"},{"bike_id":"46274338-7531-44ee-8066-1fb7da05be34","system_id":"levelo_inurba_marseille","lat":43.243883,"lon":5.370578,"is_reserved":false,"is_disabled":false,"rental_uris":{"android":"levelo://app?vid=46274338-7531-44ee-8066-1fb7da05be34","ios":"levelo://app?vid=46274338-7531-44ee-8066-1fb7da05be34"},"vehicle_type_id":"4","last_reported":1701342371,"current_range_meters":30800,"station_id":"ce4bhnp2rcd13ifvqgvg","pricing_plan_id":"free"},{"bike_id":"5e9da16a-1805-45da-bae2-e54b4625efac","system_id":"levelo_inurba_marseille","lat":43.243883,"lon":5.370607,"is_reserved":false,"is_disabled":false,"rental_uris":{"android":"levelo://app?vid=5e9da16a-1805-45da-bae2-e54b4625efac","ios":"levelo://app?vid=5e9da16a-1805-45da-bae2-e54b4625efac"},"vehicle_type_id":"4","last_reported":1701342371,"current_range_meters":16400,"station_id":"ce4bhhh2rcd13ifvqfk0","pricing_plan_id":"free"},{"bike_id":"2bc49007-cffd-457e-a98f-32ce73d85773","system_id":"levelo_inurba_marseille","lat":43.24387,"lon":5.37057,"is_reserved":false,"is_disabled":false,"rental_uris":{"android":"levelo://app?vid=2bc49007-cffd-457e-a98f-32ce73d85773","ios":"levelo://app?vid=2bc49007-cffd-457e-a98f-32ce73d85773"},"vehicle_type_id":"4","last_reported":1701342371,"current_range_meters":22000,"station_id":"ce4bhhh2rcd13ifvqfk0","pricing_plan_id":"free"},{"bike_id":"bcc93469-dac7-4061-b03e-a1e648dc5717","system_id":"levelo_inurba_marseille","lat":43.243861,"lon":5.370582,"is_reserved":false,"is_disabled":false,"rental_uris":{"android":"levelo://app?vid=bcc93469-dac7-4061-b03e-a1e648dc5717","ios":"levelo://app?vid=bcc93469-dac7-4061-b03e-a1e648dc5717"},"vehicle_type_id":"4","last_reported":1701342371,"current_range_meters":0,"station_id":"ce4bhhh2rcd13ifvqfk0","pricing_plan_id":"free"},{"bike_id":"766ffb29-ebf9-4cf9-9252-18d9dbfe5565","system_id":"levelo_inurba_marseille","lat":43.245581,"lon":5.395069,"is_reserved":false,"is_disabled":false,"rental_uris":{"android":"levelo://app?vid=766ffb29-ebf9-4cf9-9252-18d9dbfe5565","ios":"levelo://app?vid=766ffb29-ebf9-4cf9-9252-18d9dbfe5565"},"vehicle_type_id":"4","last_reported":1701342371,"current_range_meters":31200,"station_id":"ce4bhlp2rcd13ifvqgjg","pricing_plan_id":"free"},{"bike_id":"6cb17998-6ce9-4655-ab4d-1c2be457aabd","system_id":"levelo_inurba_marseille","lat":43.245581,"lon":5.395069,"is_reserved":false,"is_disabled":false,"rental_uris":{"android":"levelo://app?vid=6cb17998-6ce9-4655-ab4d-1c2be457aabd","ios":"levelo://app?vid=6cb17998-6ce9-4655-ab4d-1c2be457aabd"},"vehicle_type_id":"4","last_reported":1701342371,"current_range_meters":30400,"station_id":"ce4bhlp2rcd13ifvqgjg","pricing_plan_id":"free"},{"bike_id":"88ce38e1-8c3d-40b3-bade-2a4601496ae1","system_id":"levelo_inurba_marseille","lat":43.245581,"lon":5.395069,"is_reserved":false,"is_disabled":false,"rental_uris":{"android":"levelo://app?vid=88ce38e1-8c3d-40b3-bade-2a4601496ae1","ios":"levelo://app?vid=88ce38e1-8c3d-40b3-bade-2a4601496ae1"},"vehicle_type_id":"4","last_reported":1701342371,"current_range_meters":22400,"station_id":"ce4bhlp2rcd13ifvqgjg","pricing_plan_id":"free"},{"bike_id":"28857faa-ba18-4872-a4ea-bfc77cd54e50","system_id":"levelo_inurba_marseille","lat":43.24074,"lon":5.37761,"is_reserved":false,"is_disabled":false,"rental_uris":{"android":"levelo://app?vid=28857faa-ba18-4872-a4ea-bfc77cd54e50","ios":"levelo://app?vid=28857faa-ba18-4872-a4ea-bfc77cd54e50"},"vehicle_type_id":"4","last_reported":1701342371,"current_range_meters":26400,"station_id":"ce4bhnp2rcd13ifvqgvg","pricing_plan_id":"free"},{"bike_id":"6891fcde-2fef-433a-bf09-da9c3692e4cc","system_id":"levelo_inurba_marseille","lat":43.240623,"lon":5.377642,"is_reserved":false,"is_disabled":false,"rental_uris":{"android":"levelo://app?vid=6891fcde-2fef-433a-bf09-da9c3692e4cc","ios":"levelo://app?vid=6891fcde-2fef-433a-bf09-da9c3692e4cc"},"vehicle_type_id":"4","last_reported":1701342371,"current_range_meters":31600,"station_id":"ce4bhnp2rcd13ifvqgvg","pricing_plan_id":"free"},{"bike_id":"92924a84-7917-4a0d-8142-c584d6c9e058","system_id":"levelo_inurba_marseille","lat":43.24072,"lon":5.37763,"is_reserved":false,"is_disabled":false,"rental_uris":{"android":"levelo://app?vid=92924a84-7917-4a0d-8142-c584d6c9e058","ios":"levelo://app?vid=92924a84-7917-4a0d-8142-c584d6c9e058"},"vehicle_type_id":"4","last_reported":1701342371,"current_range_meters":14400,"station_id":"ce4bhnp2rcd13ifvqgvg","pricing_plan_id":"free"},{"bike_id":"70128eba-c96e-406a-99d4-bd940b82da31","system_id":"levelo_inurba_marseille","lat":43.240623,"lon":5.377642,"is_reserved":false,"is_disabled":false,"rental_uris":{"android":"levelo://app?vid=70128eba-c96e-406a-99d4-bd940b82da31","ios":"levelo://app?vid=70128eba-c96e-406a-99d4-bd940b82da31"},"vehicle_type_id":"4","last_reported":1701342371,"current_range_meters":31600,"station_id":"ce4bhnp2rcd13ifvqgvg","pricing_plan_id":"free"},{"bike_id":"2ab6544b-cda1-42f2-a05e-5f1370e63f0a","system_id":"levelo_inurba_marseille","lat":43.2407,"lon":5.3776,"is_reserved":false,"is_disabled":false,"rental_uris":{"android":"levelo://app?vid=2ab6544b-cda1-42f2-a05e-5f1370e63f0a","ios":"levelo://app?vid=2ab6544b-cda1-42f2-a05e-5f1370e63f0a"},"vehicle_type_id":"4","last_reported":1701342371,"current_range_meters":26400,"station_id":"ce4bhnp2rcd13ifvqgvg","pricing_plan_id":"free"},{"bike_id":"a9f9907b-0d2c-429d-8514-98f08adfb882","system_id":"levelo_inurba_marseille","lat":43.2407,"lon":5.3776,"is_reserved":false,"is_disabled":false,"rental_uris":{"android":"levelo://app?vid=a9f9907b-0d2c-429d-8514-98f08adfb882","ios":"levelo://app?vid=a9f9907b-0d2c-429d-8514-98f08adfb882"},"vehicle_type_id":"4","last_reported":1701342371,"current_range_meters":19600,"station_id":"ce4bhnp2rcd13ifvqgvg","pricing_plan_id":"free"},{"bike_id":"b729d806-ea14-4f65-9f1f-16c379189b1d","system_id":"levelo_inurba_marseille","lat":43.240623,"lon":5.377642,"is_reserved":false,"is_disabled":false,"rental_uris":{"android":"levelo://app?vid=b729d806-ea14-4f65-9f1f-16c379189b1d","ios":"levelo://app?vid=b729d806-ea14-4f65-9f1f-16c379189b1d"},"vehicle_type_id":"4","last_reported":1701342371,"current_range_meters":20000,"station_id":"ce4bhnp2rcd13ifvqgvg","pricing_plan_id":"free"},{"bike_id":"400c98ab-27d5-4a71-9ad2-be2f7de72f64","system_id":"levelo_inurba_marseille","lat":43.2407,"lon":5.37766,"is_reserved":false,"is_disabled":false,"rental_uris":{"android":"levelo://app?vid=400c98ab-27d5-4a71-9ad2-be2f7de72f64","ios":"levelo://app?vid=400c98ab-27d5-4a71-9ad2-be2f7de72f64"},"vehicle_type_id":"4","last_reported":1701342371,"current_range_meters":28800,"station_id":"ce4bhnp2rcd13ifvqgvg","pricing_plan_id":"free"},{"bike_id":"c86c154b-164f-47cc-bcca-cd39bf48d6e4","system_id":"levelo_inurba_marseille","lat":43.240623,"lon":5.377642,"is_reserved":false,"is_disabled":false,"rental_uris":{"android":"levelo://app?vid=c86c154b-164f-47cc-bcca-cd39bf48d6e4","ios":"levelo://app?vid=c86c154b-164f-47cc-bcca-cd39bf48d6e4"},"vehicle_type_id":"4","last_reported":1701342371,"current_range_meters":28000,"station_id":"ce4bhnp2rcd13ifvqgvg","pricing_plan_id":"free"},{"bike_id":"3937f540-f8cb-4cf6-bb83-250d07d7789d","system_id":"levelo_inurba_marseille","lat":43.240623,"lon":5.377642,"is_reserved":false,"is_disabled":false,"rental_uris":{"android":"levelo://app?vid=3937f540-f8cb-4cf6-bb83-250d07d7789d","ios":"levelo://app?vid=3937f540-f8cb-4cf6-bb83-250d07d7789d"},"vehicle_type_id":"4","last_reported":1701342371,"current_range_meters":31200,"station_id":"ce4bhnp2rcd13ifvqgvg","pricing_plan_id":"free"},{"bike_id":"226c9a43-4a54-4ac9-a198-198c18713b5c","system_id":"levelo_inurba_marseille","lat":43.24067,"lon":5.37756,"is_reserved":false,"is_disabled":false,"rental_uris":{"android":"levelo://app?vid=226c9a43-4a54-4ac9-a198-198c18713b5c","ios":"levelo://app?vid=226c9a43-4a54-4ac9-a198-198c18713b5c"},"vehicle_type_id":"4","last_reported":1701342371,"current_range_meters":9600,"station_id":"ce4bhnp2rcd13ifvqgvg","pricing_plan_id":"free"},{"bike_id":"580aa9b2-462f-4c7b-90f8-ce31fba87ebf","system_id":"levelo_inurba_marseille","lat":43.240623,"lon":5.377642,"is_reserved":false,"is_disabled":false,"rental_uris":{"android":"levelo://app?vid=580aa9b2-462f-4c7b-90f8-ce31fba87ebf","ios":"levelo://app?vid=580aa9b2-462f-4c7b-90f8-ce31fba87ebf"},"vehicle_type_id":"4","last_reported":1701342371,"current_range_meters":26400,"station_id":"ce4bhnp2rcd13ifvqgvg","pricing_plan_id":"free"},{"bike_id":"d1703505-b125-4a98-a807-11024241bc04","system_id":"levelo_inurba_marseille","lat":43.231923,"lon":5.355545,"is_reserved":false,"is_disabled":false,"rental_uris":{"android":"levelo://app?vid=d1703505-b125-4a98-a807-11024241bc04","ios":"levelo://app?vid=d1703505-b125-4a98-a807-11024241bc04"},"vehicle_type_id":"4","last_reported":1701342371,"current_range_meters":32000,"station_id":"ce4bhu92rcd13ifvqi70","pricing_plan_id":"free"},{"bike_id":"9ddc7e05-54e4-4a3c-89ea-f14ec1322cab","system_id":"levelo_inurba_marseille","lat":43.231923,"lon":5.355545,"is_reserved":false,"is_disabled":false,"rental_uris":{"android":"levelo://app?vid=9ddc7e05-54e4-4a3c-89ea-f14ec1322cab","ios":"levelo://app?vid=9ddc7e05-54e4-4a3c-89ea-f14ec1322cab"},"vehicle_type_id":"4","last_reported":1701342371,"current_range_meters":26800,"station_id":"ce4bhu92rcd13ifvqi70","pricing_plan_id":"free"},{"bike_id":"d30491b3-7b2b-4312-8971-c46000e48d1a","system_id":"levelo_inurba_marseille","lat":43.231919,"lon":5.355532,"is_reserved":false,"is_disabled":false,"rental_uris":{"android":"levelo://app?vid=d30491b3-7b2b-4312-8971-c46000e48d1a","ios":"levelo://app?vid=d30491b3-7b2b-4312-8971-c46000e48d1a"},"vehicle_type_id":"4","last_reported":1701342371,"current_range_meters":4000,"station_id":"ce4bhu92rcd13ifvqi70","pricing_plan_id":"free"},{"bike_id":"b37cf8bc-ef87-4960-b38c-3279b894369f","system_id":"levelo_inurba_marseille","lat":43.231923,"lon":5.355545,"is_reserved":false,"is_disabled":false,"rental_uris":{"android":"levelo://app?vid=b37cf8bc-ef87-4960-b38c-3279b894369f","ios":"levelo://app?vid=b37cf8bc-ef87-4960-b38c-3279b894369f"},"vehicle_type_id":"4","last_reported":1701342371,"current_range_meters":32000,"station_id":"ce4bhu92rcd13ifvqi70","pricing_plan_id":"free"},{"bike_id":"3bbe1fd5-b7d2-484c-969b-f57a381950c3","system_id":"levelo_inurba_marseille","lat":43.231923,"lon":5.355545,"is_reserved":false,"is_disabled":false,"rental_uris":{"android":"levelo://app?vid=3bbe1fd5-b7d2-484c-969b-f57a381950c3","ios":"levelo://app?vid=3bbe1fd5-b7d2-484c-969b-f57a381950c3"},"vehicle_type_id":"4","last_reported":1701342371,"current_range_meters":11200,"station_id":"ce4bhu92rcd13ifvqi70","pricing_plan_id":"free"},{"bike_id":"efff7272-587c-49a1-9a30-8799331953fa","system_id":"levelo_inurba_marseille","lat":43.231562,"lon":5.436933,"is_reserved":false,"is_disabled":false,"rental_uris":{"android":"levelo://app?vid=efff7272-587c-49a1-9a30-8799331953fa","ios":"levelo://app?vid=efff7272-587c-49a1-9a30-8799331953fa"},"vehicle_type_id":"4","last_reported":1701342371,"current_range_meters":13600,"station_id":"ce4bhmp2rcd13ifvqgog","pricing_plan_id":"free"},{"bike_id":"24e3ff79-46b3-41bd-89a3-16c527066233","system_id":"levelo_inurba_marseille","lat":43.231562,"lon":5.436933,"is_reserved":false,"is_disabled":false,"rental_uris":{"android":"levelo://app?vid=24e3ff79-46b3-41bd-89a3-16c527066233","ios":"levelo://app?vid=24e3ff79-46b3-41bd-89a3-16c527066233"},"vehicle_type_id":"4","last_reported":1701342371,"current_range_meters":32000,"station_id":"ce4bhmp2rcd13ifvqgog","pricing_plan_id":"free"},{"bike_id":"0e927ffd-e778-4a11-906b-584735d1e66f","system_id":"levelo_inurba_marseille","lat":43.231562,"lon":5.436933,"is_reserved":false,"is_disabled":false,"rental_uris":{"android":"levelo://app?vid=0e927ffd-e778-4a11-906b-584735d1e66f","ios":"levelo://app?vid=0e927ffd-e778-4a11-906b-584735d1e66f"},"vehicle_type_id":"4","last_reported":1701342371,"current_range_meters":22400,"station_id":"ce4bhmp2rcd13ifvqgog","pricing_plan_id":"free"},{"bike_id":"e4e2a359-a71d-4c1f-b207-c41c3a20e5e3","system_id":"levelo_inurba_marseille","lat":43.231562,"lon":5.436933,"is_reserved":false,"is_disabled":false,"rental_uris":{"android":"levelo://app?vid=e4e2a359-a71d-4c1f-b207-c41c3a20e5e3","ios":"levelo://app?vid=e4e2a359-a71d-4c1f-b207-c41c3a20e5e3"},"vehicle_type_id":"4","last_reported":1701342371,"current_range_meters":15200,"station_id":"ce4bhmp2rcd13ifvqgog","pricing_plan_id":"free"},{"bike_id":"ff5cab14-b10b-4864-961d-3ee11237757a","system_id":"levelo_inurba_marseille","lat":43.231562,"lon":5.436933,"is_reserved":false,"is_disabled":false,"rental_uris":{"android":"levelo://app?vid=ff5cab14-b10b-4864-961d-3ee11237757a","ios":"levelo://app?vid=ff5cab14-b10b-4864-961d-3ee11237757a"},"vehicle_type_id":"4","last_reported":1701342371,"current_range_meters":9600,"station_id":"ce4bhmp2rcd13ifvqgog","pricing_plan_id":"free"},{"bike_id":"7ccd67b9-63b4-44c4-962f-e558f1b86670","system_id":"levelo_inurba_marseille","lat":43.231562,"lon":5.436933,"is_reserved":false,"is_disabled":false,"rental_uris":{"android":"levelo://app?vid=7ccd67b9-63b4-44c4-962f-e558f1b86670","ios":"levelo://app?vid=7ccd67b9-63b4-44c4-962f-e558f1b86670"},"vehicle_type_id":"4","last_reported":1701342371,"current_range_meters":19200,"station_id":"ce4bhmp2rcd13ifvqgog","pricing_plan_id":"free"},{"bike_id":"59188e20-06d3-4d05-a656-5f232f274460","system_id":"levelo_inurba_marseille","lat":43.231562,"lon":5.436933,"is_reserved":false,"is_disabled":false,"rental_uris":{"android":"levelo://app?vid=59188e20-06d3-4d05-a656-5f232f274460","ios":"levelo://app?vid=59188e20-06d3-4d05-a656-5f232f274460"},"vehicle_type_id":"4","last_reported":1701342371,"current_range_meters":14400,"station_id":"ce4bhmp2rcd13ifvqgog","pricing_plan_id":"free"},{"bike_id":"9c412994-a680-4967-8472-0012ab9c2218","system_id":"levelo_inurba_marseille","lat":43.231562,"lon":5.436933,"is_reserved":false,"is_disabled":false,"rental_uris":{"android":"levelo://app?vid=9c412994-a680-4967-8472-0012ab9c2218","ios":"levelo://app?vid=9c412994-a680-4967-8472-0012ab9c2218"},"vehicle_type_id":"4","last_reported":1701342371,"current_range_meters":5600,"station_id":"ce4bhmp2rcd13ifvqgog","pricing_plan_id":"free"},