{"last_updated":1720213679,"ttl":30,"version":"2.2","data":{"bikes":[{"bike_id":"54c5de86-1a37-451e-bd7d-d425806aa339","system_id":"levelo_inurba_marseille","lat":43.312239,"lon":5.368562,"is_reserved":false,"is_disabled":false,"rental_uris":{"android":"levelo://app?vid=54c5de86-1a37-451e-bd7d-d425806aa339","ios":"levelo://app?vid=54c5de86-1a37-451e-bd7d-d425806aa339"},"vehicle_type_id":"4","last_reported":1720213679,"current_range_meters":26800,"station_id":"ce4bgl92rcd13ifvqbq0","pricing_plan_id":"cebpf4jnsgd1na2vs0mg"},{"bike_id":"86006cfd-5f6b-46de-b5ea-827aa9c595fe","system_id":"levelo_inurba_marseille","lat":43.305989,"lon":5.37225,"is_reserved":false,"is_disabled":false,"rental_uris":{"android":"levelo://app?vid=86006cfd-5f6b-46de-b5ea-827aa9c595fe","ios":"levelo://app?vid=86006cfd-5f6b-46de-b5ea-827aa9c595fe"},"vehicle_type_id":"4","last_reported":1720213679,"current_range_meters":20400,"station_id":"ce4bgqh2rcd13ifvqc4g","pricing_plan_id":"cebpf4jnsgd1na2vs0mg"},{"bike_id":"2491ea6a-cb41-44f5-890d-33a7b02c82b2","system_id":"levelo_inurba_marseille","lat":43.314811,"lon":5.373103,"is_reserved":false,"is_disabled":false,"rental_uris":{"android":"levelo://app?vid=2491ea6a-cb41-44f5-890d-33a7b02c82b2","ios":"levelo://app?vid=2491ea6a-cb41-44f5-890d-33a7b02c82b2"},"vehicle_type_id":"4","last_reported":1720213679,"current_range_meters":8400,"station_id":"ce4bgt12rcd13ifvqcd0","pricing_plan_id":"cebpf4jnsgd1na2vs0mg"},{"bike_id":"b305e717-b23c-4ef9-9d8a-b98683f95f3d","system_id":"levelo_inurba_marseille","lat":43.314811,"lon":5.373103,"is_reserved":false,"is_disabled":false,"rental_uris":{"android":"levelo://app?vid=b305e717-b23c-4ef9-9d8a-b98683f95f3d","ios":"levelo://app?vid=b305e717-b23c-4ef9-9d8a-b98683f95f3d"},"vehicle_type_id":"4","last_reported":1720213679,"current_range_meters":14000,"station_id":"ce4bgt12rcd13ifvqcd0","pricing_plan_id":"cebpf4jnsgd1na2vs0mg"},{"bike_id":"7120aa4e-32c3-4eba-9e67-34b1c1c801b1","system_id":"levelo_inurba_marseille","lat":43.314811,"lon":5.373104,"is_reserved":false,"is_disabled":false,"rental_uris":{"android":"levelo://app?vid=7120aa4e-32c3-4eba-9e67-34b1c1c801b1","ios":"levelo://app?vid=7120aa4e-32c3-4eba-9e67-34b1c1c801b1"},"vehicle_type_id":"4","last_reported":1720213679,"current_range_meters":27200,"station_id":"ce4bgt12rcd13ifvqcd0","pricing_plan_id":"cebpf4jnsgd1na2vs0mg"},{"bike_id":"56952278-4aed-41bb-88cf-4be8d1193aa6","system_id":"levelo_inurba_marseille","lat":43.309039,"lon":5.371797,"is_reserved":false,"is_disabled":false,"rental_uris":{"android":"levelo://app?vid=56952278-4aed-41bb-88cf-4be8d1193aa6","ios":"levelo://app?vid=56952278-4aed-41bb-88cf-4be8d1193aa6"},"vehicle_type_id":"4","last_reported":1720213679,"current_range_meters":11600,"station_id":"ce4bguh2rcd13ifvqckg","pricing_plan_id":"cebpf4jnsgd1na2vs0mg"},{"bike_id":"dff2c768-9526-4f88-8f4b-063a3e0b0c67","system_id":"levelo_inurba_marseille","lat":43.309039,"lon":5.371797,"is_reserved":false,"is_disabled":false,"rental_uris":{"android":"levelo://app?vid=dff2c768-9526-4f88-8f4b-063a3e0b0c67","ios":"levelo://app?vid=dff2c768-9526-4f88-8f4b-063a3e0b0c67"},"vehicle_type_id":"4","last_reported":1720213679,"current_range_meters":17600,"station_id":"ce4bguh2rcd13ifvqckg","pricing_plan_id":"cebpf4jnsgd1na2vs0mg"},{"bike_id":"522ac4f2-ecfd-4000-8caa-789bc950884a","system_id":"levelo_inurba_marseille","lat":43.309034,"lon":5.371783,"is_reserved":false,"is_disabled":false,"rental_uris":{"android":"levelo://app?vid=522ac4f2-ecfd-4000-8caa-789bc950884a","ios":"levelo://app?vid=522ac4f2-ecfd-4000-8caa-789bc950884a"},"vehicle_type_id":"4","last_reported":1720213679,"current_range_meters":17600,"station_id":"ce4bguh2rcd13ifvqckg","pricing_plan_id":"cebpf4jnsgd1na2vs0mg"},{"bike_id":"99d1c610-626c-48f4-9021-174e71b75ca5","system_id":"levelo_inurba_marseille","lat":43.309034,"lon":5.371783,"is_reserved":false,"is_disabled":false,"rental_uris":{"android":"levelo://app?vid=99d1c610-626c-48f4-9021-174e71b75ca5","ios":"levelo://app?vid=99d1c610-626c-48f4-9021-174e71b75ca5"},"vehicle_type_id":"4","last_reported":1720213679,"current_range_meters":20800,"station_id":"ce4bguh2rcd13ifvqckg","pricing_plan_id":"cebpf4jnsgd1na2vs0mg"},{"bike_id":"41cdcdd6-ded1-4424-b142-2da7b544bf9d","system_id":"levelo_inurba_marseille","lat":43.31792,"lon":5.36938,"is_reserved":false,"is_disabled":false,"rental_uris":{"android":"levelo://app?vid=41cdcdd6-ded1-4424-b142-2da7b544bf9d","ios":"levelo://app?vid=41cdcdd6-ded1-4424-b142-2da7b544bf9d"},"vehicle_type_id":"4","last_reported":1720213679,"current_range_meters":9200,"station_id":"","pricing_plan_id":"cebpf4jnsgd1na2vs0mg"},{"bike_id":"c79f8306-56bf-44a2-ba95-de1d7b0db9c7","system_id":"levelo_inurba_marseille","lat":43.312909,"lon":5.375559,"is_reserved":false,"is_disabled":false,"rental_uris":{"android":"levelo://app?vid=c79f8306-56bf-44a2-ba95-de1d7b0db9c7","ios":"levelo://app?vid=c79f8306-56bf-44a2-ba95-de1d7b0db9c7"},"vehicle_type_id":"4","last_reported":1720213679,"current_range_meters":0,"station_id":"","pricing_plan_id":"cebpf4jnsgd1na2vs0mg"},{"bike_id":"e137663d-8691-4bf4-a0cb-fb315a8a92f4","system_id":"levelo_inurba_marseille","lat":43.31819,"lon":5.37242,"is_reserved":false,"is_disabled":false,"rental_uris":{"android":"levelo://app?vid=e137663d-8691-4bf4-a0cb-fb315a8a92f4","ios":"levelo://app?vid=e137663d-8691-4bf4-a0cb-fb315a8a92f4"},"vehicle_type_id":"4","last_reported":1720213679,"current_range_meters":800,"station_id":"","pricing_plan_id":"cebpf4jnsgd1na2vs0mg"},{"bike_id":"b90c572f-a612-4280-b7ad-160a8752c672","system_id":"levelo_inurba_marseille","lat":43.30541,"lon":5.36538,"is_reserved":false,"is_disabled":false,"rental_uris":{"android":"levelo://app?vid=b90c572f-a612-4280-b7ad-160a8752c672","ios":"levelo://app?vid=b90c572f-a612-4280-b7ad-160a8752c672"},"vehicle_type_id":"4","last_reported":1720213679,"current_range_meters":0,"station_id":"ce4bgs12rcd13ifvqcag","pricing_plan_id":"cebpf4jnsgd1na2vs0mg"},{"bike_id":"bccffc8f-f5de-4e59-b98f-7c6e0579c0fd","system_id":"levelo_inurba_marseille","lat":43.305989,"lon":5.37225,"is_reserved":false,"is_disabled":false,"rental_uris":{"android":"levelo://app?vid=bccffc8f-f5de-4e59-b98f-7c6e0579c0fd","ios":"levelo://app?vid=bccffc8f-f5de-4e59-b98f-7c6e0579c0fd"},"vehicle_type_id":"4","last_reported":1720213679,"current_range_meters":800,"station_id":"ce4bgqh2rcd13ifvqc4g","pricing_plan_id":"cebpf4jnsgd1na2vs0mg"},{"bike_id":"89a8af9f-34bd-49a0-833e-cc34119d4f0d","system_id":"levelo_inurba_marseille","lat":43.311125,"lon":5.377624,"is_reserved":false,"is_disabled":false,"rental_uris":{"android":"levelo://app?vid=89a8af9f-34bd-49a0-833e-cc34119d4f0d","ios":"levelo://app?vid=89a8af9f-34bd-49a0-833e-cc34119d4f0d"},"vehicle_type_id":"4","last_reported":1720213679,"current_range_meters":10400,"station_id":"ce4bgt92rcd13ifvqcg0","pricing_plan_id":"cebpf4jnsgd1na2vs0mg"},{"bike_id":"b17b5dda-5b01-4953-9acb-9ebf5a583bd9","system_id":"levelo_inurba_marseille","lat":43.311131,"lon":5.377651,"is_reserved":false,"is_disabled":false,"rental_uris":{"android":"levelo://app?vid=b17b5dda-5b01-4953-9acb-9ebf5a583bd9","ios":"levelo://app?vid=b17b5dda-5b01-4953-9acb-9ebf5a583bd9"},"vehicle_type_id":"4","last_reported":1720213679,"current_range_meters":0,"station_id":"ce4bgt92rcd13ifvqcg0","pricing_plan_id":"cebpf4jnsgd1na2vs0mg"},{"bike_id":"da07ccc2-2854-4fd5-aec0-ab2bdf8cf538","system_id":"levelo_inurba_marseille","lat":43.307945,"lon":5.376487,"is_reserved":false,"is_disabled":false,"rental_uris":{"android":"levelo://app?vid=da07ccc2-2854-4fd5-aec0-ab2bdf8cf538","ios":"levelo://app?vid=da07ccc2-2854-4fd5-aec0-ab2bdf8cf538"},"vehicle_type_id":"4","last_reported":1720213679,"current_range_meters":22400,"station_id":"ce4bgv92rcd13ifvqcq0","pricing_plan_id":"cebpf4jnsgd1na2vs0mg"},{"bike_id":"49247343-e02b-4ee3-9fa2-5f9717d2e0fd","system_id":"levelo_inurba_marseille","lat":43.31713,"lon":5.3773,"is_reserved":false,"is_disabled":false,"rental_uris":{"android":"levelo://app?vid=49247343-e02b-4ee3-9fa2-5f9717d2e0fd","ios":"levelo://app?vid=49247343-e02b-4ee3-9fa2-5f9717d2e0fd"},"vehicle_type_id":"4","last_reported":1720213679,"current_range_meters":8800,"station_id":"ce4bgth2rcd13ifvqch0","pricing_plan_id":"cebpf4jnsgd1na2vs0mg"},{"bike_id":"04c8b9a7-78dd-449e-b9fc-03e0f804734b","system_id":"levelo_inurba_marseille","lat":43.317075,"lon":5.377367,"is_reserved":false,"is_disabled":false,"rental_uris":{"android":"levelo://app?vid=04c8b9a7-78dd-449e-b9fc-03e0f804734b","ios":"levelo://app?vid=04c8b9a7-78dd-449e-b9fc-03e0f804734b"},"vehicle_type_id":"4","last_reported":1720213679,"current_range_meters":13200,"station_id":"ce4bgth2rcd13ifvqch0","pricing_plan_id":"cebpf4jnsgd1na2vs0mg"},{"bike_id":"c654f995-4175-490d-bffc-b2aea9a115eb","system_id":"levelo_inurba_marseille","lat":43.31539,"lon":5.380191,"is_reserved":false,"is_disabled":false,"rental_uris":{"android":"levelo://app?vid=c654f995-4175-490d-bffc-b2aea9a115eb","ios":"levelo://app?vid=c654f995-4175-490d-bffc-b2aea9a115eb"},"vehicle_type_id":"4","last_reported":1720213679,"current_range_meters":1200,"station_id":"ce4bhsp2rcd13ifvqi50","pricing_plan_id":"cebpf4jnsgd1na2vs0mg"},{"bike_id":"de7f94a0-f3a6-4702-b950-2ed30e4e8005","system_id":"levelo_inurba_marseille","lat":43.31592,"lon":5.38216,"is_reserved":false,"is_disabled":false,"rental_uris":{"android":"levelo://app?vid=de7f94a0-f3a6-4702-b950-2ed30e4e8005","ios":"levelo://app?vid=de7f94a0-f3a6-4702-b950-2ed30e4e8005"},"vehicle_type_id":"4","last_reported":1720213679,"current_range_meters":20000,"station_id":"","pricing_plan_id":"cebpf4jnsgd1na2vs0mg"},{"bike_id":"ea13876a-656f-462c-be64-9c0beaea6422","system_id":"levelo_inurba_marseille","lat":43.298433,"lon":5.362774,"is_reserved":false,"is_disabled":false,"rental_uris":{"android":"levelo://app?vid=ea13876a-656f-462c-be64-9c0beaea6422","ios":"levelo://app?vid=ea13876a-656f-462c-be64-9c0beaea6422"},"vehicle_type_id":"4","last_reported":1720213679,"current_range_meters":18800,"station_id":"ce4bgpp2rcd13ifvqc3g","pricing_plan_id":"cebpf4jnsgd1na2vs0mg"},{"bike_id":"f4c4187a-c444-404b-be38-b92c0e797773","system_id":"levelo_inurba_marseille","lat":43.308012,"lon":5.381511,"is_reserved":false,"is_disabled":false,"rental_uris":{"android":"levelo://app?vid=f4c4187a-c444-404b-be38-b92c0e797773","ios":"levelo://app?vid=f4c4187a-c444-404b-be38-b92c0e797773"},"vehicle_type_id":"4","last_reported":1720213679,"current_range_meters":5200,"station_id":"ce4bgt12rcd13ifvqce0","pricing_plan_id":"cebpf4jnsgd1na2vs0mg"},{"bike_id":"ad8c02c3-b43c-4efb-8ba1-4ac0faed2346","system_id":"levelo_inurba_marseille","lat":43.30108,"lon":5.36832,"is_reserved":false,"is_disabled":false,"rental_uris":{"android":"levelo://app?vid=ad8c02c3-b43c-4efb-8ba1-4ac0faed2346","ios":"levelo://app?vid=ad8c02c3-b43c-4efb-8ba1-4ac0faed2346"},"vehicle_type_id":"4","last_reported":1720213679,"current_range_meters":18000,"station_id":"","pricing_plan_id":"cebpf4jnsgd1na2vs0mg"},{"bike_id":"77bacb0a-a9dd-452d-ac8c-ecf8482fe566","system_id":"levelo_inurba_marseille","lat":43.324771,"lon":5.36557,"is_reserved":false,"is_disabled":false,"rental_uris":{"android":"levelo://app?vid=77bacb0a-a9dd-452d-ac8c-ecf8482fe566","ios":"levelo://app?vid=77bacb0a-a9dd-452d-ac8c-ecf8482fe566"},"vehicle_type_id":"4","last_reported":1720213679,"current_range_meters":14400,"station_id":"ce4bhs12rcd13ifvqhvg","pricing_plan_id":"cebpf4jnsgd1na2vs0mg"},{"bike_id":"b39ad710-e837-4979-8438-dd255859d1b3","system_id":"levelo_inurba_marseille","lat":43.304606,"lon":5.379026,"is_reserved":false,"is_disabled":false,"rental_uris":{"android":"levelo://app?vid=b39ad710-e837-4979-8438-dd255859d1b3","ios":"levelo://app?vid=b39ad710-e837-4979-8438-dd255859d1b3"},"vehicle_type_id":"4","last_reported":1720213679,"current_range_meters":4000,"station_id":"ce4bgup2rcd13ifvqcn0","pricing_plan_id":"cebpf4jnsgd1na2vs0mg"},{"bike_id":"e99d1719-20dc-4293-ba24-58866b76e0ed","system_id":"levelo_inurba_marseille","lat":43.304606,"lon":5.379026,"is_reserved":false,"is_disabled":false,"rental_uris":{"android":"levelo://app?vid=e99d1719-20dc-4293-ba24-58866b76e0ed","ios":"levelo://app?vid=e99d1719-20dc-4293-ba24-58866b76e0ed"},"vehicle_type_id":"4","last_reported":1720213679,"current_range_meters":0,"station_id":"ce4bgup2rcd13ifvqcn0","pricing_plan_id":"cebpf4jnsgd1na2vs0mg"},{"bike_id":"73cc4ca0-19e0-4d11-8497-34fe48732ee9","system_id":"levelo_inurba_marseille","lat":43.324771,"lon":5.36557,"is_reserved":false,"is_disabled":false,"rental_uris":{"android":"levelo://app?vid=73cc4ca0-19e0-4d11-8497-34fe48732ee9","ios":"levelo://app?vid=73cc4ca0-19e0-4d11-8497-34fe48732ee9"},"vehicle_type_id":"4","last_reported":1720213679,"current_range_meters":4000,"station_id":"ce4bhs12rcd13ifvqhvg","pricing_plan_id":"cebpf4jnsgd1na2vs0mg"},{"bike_id":"bc53f12e-5df5-48dc-8122-1b72c3979e5e","system_id":"levelo_inurba_marseille","lat":43.324771,"lon":5.36557,"is_reserved":false,"is_disabled":false,"rental_uris":{"android":"levelo://app?vid=bc53f12e-5df5-48dc-8122-1b72c3979e5e","ios":"levelo://app?vid=bc53f12e-5df5-48dc-8122-1b72c3979e5e"},"vehicle_type_id":"4","last_reported":1720213679,"current_range_meters":24400,"station_id":"ce4bhs12rcd13ifvqhvg","pricing_plan_id":"cebpf4jnsgd1na2vs0mg"},{"bike_id":"3fa2e9ff-36fb-4df9-9f34-bd2f5e6f4d9e","system_id":"levelo_inurba_marseille","lat":43.3248,"lon":5.3657,"is_reserved":false,"is_disabled":false,"rental_uris":{"android":"levelo://app?vid=3fa2e9ff-36fb-4df9-9f34-bd2f5e6f4d9e","ios":"levelo://app?vid=3fa2e9ff-36fb-4df9-9f34-bd2f5e6f4d9e"},"vehicle_type_id":"4","last_reported":1720213679,"current_range_meters":5200,"station_id":"ce4bhs12rcd13ifvqhvg","pricing_plan_id":"cebpf4jnsgd1na2vs0mg"},{"bike_id":"b0ad408c-ecad-4f89-88ee-170620703c83","system_id":"levelo_inurba_marseille","lat":43.310804,"lon":5.38359,"is_reserved":false,"is_disabled":false,"rental_uris":{"android":"levelo://app?vid=b0ad408c-ecad-4f89-88ee-170620703c83","ios":"levelo://app?vid=b0ad408c-ecad-4f89-88ee-170620703c83"},"vehicle_type_id":"4","last_reported":1720213679,"current_range_meters":4800,"station_id":"ce4bgv92rcd13ifvqcr0","pricing_plan_id":"cebpf4jnsgd1na2vs0mg"},{"bike_id":"33007b5e-59fc-4a49-9e38-7679ad6d364a","system_id":"levelo_inurba_marseille","lat":43.310804,"lon":5.38359,"is_reserved":false,"is_disabled":false,"rental_uris":{"android":"levelo://app?vid=33007b5e-59fc-4a49-9e38-7679ad6d364a","ios":"levelo://app?vid=33007b5e-59fc-4a49-9e38-7679ad6d364a"},"vehicle_type_id":"4","last_reported":1720213679,"current_range_meters":14000,"station_id":"ce4bgv92rcd13ifvqcr0","pricing_plan_id":"cebpf4jnsgd1na2vs0mg"},{"bike_id":"91291e7f-45f9-4917-990b-7bb8d2ad8fc6","system_id":"levelo_inurba_marseille","lat":43.302784,"lon":5.377158,"is_reserved":false,"is_disabled":false,"rental_uris":{"android":"levelo://app?vid=91291e7f-45f9-4917-990b-7bb8d2ad8fc6","ios":"levelo://app?vid=91291e7f-45f9-4917-990b-7bb8d2ad8fc6"},"vehicle_type_id":"4","last_reported":1720213679,"current_range_meters":1200,"station_id":"ce4bguh2rcd13ifvqcj0","pricing_plan_id":"cebpf4jnsgd1na2vs0mg"},{"bike_id":"b38f129d-c2eb-459d-927a-34a913109b80","system_id":"levelo_inurba_marseille","lat":43.302784,"lon":5.377158,"is_reserved":false,"is_disabled":false,"rental_uris":{"android":"levelo://app?vid=b38f129d-c2eb-459d-927a-34a913109b80","ios":"levelo://app?vid=b38f129d-c2eb-459d-927a-34a913109b80"},"vehicle_type_id":"4","last_reported":1720213679,"current_range_meters":23600,"station_id":"ce4bguh2rcd13ifvqcj0","pricing_plan_id":"cebpf4jnsgd1na2vs0mg"},{"bike_id":"a630b7e7-165b-4755-bd41-7b919c748235","system_id":"levelo_inurba_marseille","lat":43.319935,"lon":5.381699,"is_reserved":false,"is_disabled":false,"rental_uris":{"android":"levelo://app?vid=a630b7e7-165b-4755-bd41-7b919c748235","ios":"levelo://app?vid=a630b7e7-165b-4755-bd41-7b919c748235"},"vehicle_type_id":"4","last_reported":1720213679,"current_range_meters":20400,"station_id":"ce4bhr12rcd13ifvqhpg","pricing_plan_id":"cebpf4jnsgd1na2vs0mg"},{"bike_id":"de364655-4d6f-448d-b2e7-587bb7e54019","system_id":"levelo_inurba_marseille","lat":43.31997,"lon":5.38151,"is_reserved":false,"is_disabled":false,"rental_uris":{"android":"levelo://app?vid=de364655-4d6f-448d-b2e7-587bb7e54019","ios":"levelo://app?vid=de364655-4d6f-448d-b2e7-587bb7e54019"},"vehicle_type_id":"4","last_reported":1720213679,"current_range_meters":0,"station_id":"ce4bhr12rcd13ifvqhpg","pricing_plan_id":"cebpf4jnsgd1na2vs0mg"},{"bike_id":"9c447525-d16d-4aa3-a1ad-3b361ee75042","system_id":"levelo_inurba_marseille","lat":43.313571,"lon":5.384829,"is_reserved":false,"is_disabled":false,"rental_uris":{"android":"levelo://app?vid=9c447525-d16d-4aa3-a1ad-3b361ee75042","ios":"levelo://app?vid=9c447525-d16d-4aa3-a1ad-3b361ee75042"},"vehicle_type_id":"4","last_reported":1720213679,"current_range_meters":11600,"station_id":"ce4bgt92rcd13ifvqcf0","pricing_plan_id":"cebpf4jnsgd1na2vs0mg"},{"bike_id":"ee4fcdab-b4ab-44e4-88b8-9f63b7ab9d4f","system_id":"levelo_inurba_marseille","lat":43.313571,"lon":5.384829,"is_reserved":false,"is_disabled":false,"rental_uris":{"android":"levelo://app?vid=ee4fcdab-b4ab-44e4-88b8-9f63b7ab9d4f","ios":"levelo://app?vid=ee4fcdab-b4ab-44e4-88b8-9f63b7ab9d4f"},"vehicle_type_id":"4","last_reported":1720213679,"current_range_meters":26000,"station_id":"ce4bgt92rcd13ifvqcf0","pricing_plan_id":"cebpf4jnsgd1na2vs0mg"},{"bike_id":"eaf33f43-5f27-4abf-bfff-b6d567248fb7","system_id":"levelo_inurba_marseille","lat":43.2993,"lon":5.36614,"is_reserved":false,"is_disabled":false,"rental_uris":{"android":"levelo://app?vid=eaf33f43-5f27-4abf-bfff-b6d567248fb7","ios":"levelo://app?vid=eaf33f43-5f27-4abf-bfff-b6d567248fb7"},"vehicle_type_id":"4","last_reported":1720213679,"current_range_meters":6800,"station_id":"ce4bgm92rcd13ifvqbr0","pricing_plan_id":"cebpf4jnsgd1na2vs0mg"},{"bike_id":"5418c95e-7dc2-425b-b562-bc6b40d10386","system_id":"levelo_inurba_marseille","lat":43.299724,"lon":5.371829,"is_reserved":false,"is_disabled":false,"rental_uris":{"android":"levelo://app?vid=5418c95e-7dc2-425b-b562-bc6b40d10386","ios":"levelo://app?vid=5418c95e-7dc2-425b-b562-bc6b40d10386"},"vehicle_type_id":"4","last_reported":1720213679,"current_range_meters":10000,"station_id":"ce4bgr92rcd13ifvqc7g","pricing_plan_id":"cebpf4jnsgd1na2vs0mg"},{"bike_id":"1c2962e2-fcc0-4321-8305-3f738d9abe6d","system_id":"levelo_inurba_marseille","lat":43.299724,"lon":5.371829,"is_reserved":false,"is_disabled":false,"rental_uris":{"android":"levelo://app?vid=1c2962e2-fcc0-4321-8305-3f738d9abe6d","ios":"levelo://app?vid=1c2962e2-fcc0-4321-8305-3f738d9abe6d"},"vehicle_type_id":"4","last_reported":1720213679,"current_range_meters":19600,"station_id":"ce4bgr92rcd13ifvqc7g","pricing_plan_id":"cebpf4jnsgd1na2vs0mg"},{"bike_id":"bdb7c250-3f29-43d9-aa0c-f6ba85ba3127","system_id":"levelo_inurba_marseille","lat":43.298433,"lon":5.362774,"is_reserved":false,"is_disabled":false,"rental_uris":{"android":"levelo://app?vid=bdb7c250-3f29-43d9-aa0c-f6ba85ba3127","ios":"levelo://app?vid=bdb7c250-3f29-43d9-aa0c-f6ba85ba3127"},"vehicle_type_id":"4","last_reported":1720213679,"current_range_meters":14400,"station_id":"ce4bgpp2rcd13ifvqc3g","pricing_plan_id":"cebpf4jnsgd1na2vs0mg"},{"bike_id":"3265de03-aa1d-431a-a5d2-cd620c1543cf","system_id":"levelo_inurba_marseille","lat":43.298433,"lon":5.362774,"is_reserved":false,"is_disabled":false,"rental_uris":{"android":"levelo://app?vid=3265de03-aa1d-431a-a5d2-cd620c1543cf","ios":"levelo://app?vid=3265de03-aa1d-431a-a5d2-cd620c1543cf"},"vehicle_type_id":"4","last_reported":1720213679,"current_range_meters":13200,"station_id":"ce4bgpp2rcd13ifvqc3g","pricing_plan_id":"cebpf4jnsgd1na2vs0mg"},{"bike_id":"138270bb-2e86-43f8-84cb-b85379be08e2","system_id":"levelo_inurba_marseille","lat":43.298433,"lon":5.362774,"is_reserved":false,"is_disabled":false,"rental_uris":{"android":"levelo://app?vid=138270bb-2e86-43f8-84cb-b85379be08e2","ios":"levelo://app?vid=138270bb-2e86-43f8-84cb-b85379be08e2"},"vehicle_type_id":"4","last_reported":1720213679,"current_range_meters":10400,"station_id":"ce4bgpp2rcd13ifvqc3g","pricing_plan_id":"cebpf4jnsgd1na2vs0mg"},{"bike_id":"8aa85f51-c47a-44fb-81d5-c0e18d2f5f70","system_id":"levelo_inurba_marseille","lat":43.298433,"lon":5.362774,"is_reserved":false,"is_disabled":false,"rental_uris":{"android":"levelo://app?vid=8aa85f51-c47a-44fb-81d5-c0e18d2f5f70","ios":"levelo://app?vid=8aa85f51-c47a-44fb-81d5-c0e18d2f5f70"},"vehicle_type_id":"4","last_reported":1720213679,"current_range_meters":10400,"station_id":"ce4bgpp2rcd13ifvqc3g","pricing_plan_id":"cebpf4jnsgd1na2vs0mg"},{"bike_id":"c4cbf48a-4b00-4c83-85ac-d75a08881dac","system_id":"levelo_inurba_marseille","lat":43.298433,"lon":5.362774,"is_reserved":false,"is_disabled":false,"rental_uris":{"android":"levelo://app?vid=c4cbf48a-4b00-4c83-85ac-d75a08881dac","ios":"levelo://app?vid=c4cbf48a-4b00-4c83-85ac-d75a08881dac"},"vehicle_type_id":"4","last_reported":1720213679,"current_range_meters":30800,"station_id":"ce4bgpp2rcd13ifvqc3g","pricing_plan_id":"cebpf4jnsgd1na2vs0mg"},{"bike_id":"02c410da-5c84-4535-9112-0d8bb3cbe6d9","system_id":"levelo_inurba_marseille","lat":43.298433,"lon":5.362774,"is_reserved":false,"is_disabled":false,"rental_uris":{"android":"levelo://app?vid=02c410da-5c84-4535-9112-0d8bb3cbe6d9","ios":"levelo://app?vid=02c410da-5c84-4535-9112-0d8bb3cbe6d9"},"vehicle_type_id":"4","last_reported":1720213679,"current_range_meters":15200,"station_id":"ce4bgpp2rcd13ifvqc3g","pricing_plan_id":"cebpf4jnsgd1na2vs0mg"},{"bike_id":"ebfe9a16-dbee-4f82-9d55-f2ac2f2fc1fb","system_id":"levelo_inurba_marseille","lat":43.30531,"lon":5.38423,"is_reserved":false,"is_disabled":false,"rental_uris":{"android":"levelo://app?vid=ebfe9a16-dbee-4f82-9d55-f2ac2f2fc1fb","ios":"levelo://app?vid=ebfe9a16-dbee-4f82-9d55-f2ac2f2fc1fb"},"vehicle_type_id":"4","last_reported":1720213679,"current_range_meters":2400,"station_id":"ce4bgg92rcd13ifvqb30","pricing_plan_id":"cebpf4jnsgd1na2vs0mg"},{"bike_id":"cc78b576-ed94-45f6-979f-7d0ec0bbbf42","system_id":"levelo_inurba_marseille","lat":43.298433,"lon":5.362774,"is_reserved":false,"is_disabled":false,"rental_uris":{"android":"levelo://app?vid=cc78b576-ed94-45f6-979f-7d0ec0bbbf42","ios":"levelo://app?vid=cc78b576-ed94-45f6-979f-7d0ec0bbbf42"},"vehicle_type_id":"4","last_reported":1720213679,"current_range_meters":15200,"station_id":"ce4bgpp2rcd13ifvqc3g","pricing_plan_id":"cebpf4jnsgd1na2vs0mg"},{"bike_id":"514be2f6-3946-4b93-810a-753cfc880edc","system_id":"levelo_inurba_marseille","lat":43.298433,"lon":5.362774,"is_reserved":false,"is_disabled":false,"rental_uris":{"android":"levelo://app?vid=514be2f6-3946-4b93-810a-753cfc880edc","ios":"levelo://app?vid=514be2f6-3946-4b93-810a-753cfc880edc"},"vehicle_type_id":"4","last_reported":1720213679,"current_range_meters":4000,"station_id":"ce4bgpp2rcd13ifvqc3g","pricing_plan_id":"cebpf4jnsgd1na2vs0mg"},{"bike_id":"43d8b7e2-163b-44be-9129-abeb22175d42","system_id":"levelo_inurba_marseille","lat":43.298433,"lon":5.362774,"is_reserved":false,"is_disabled":false,"rental_uris":{"android":"levelo://app?vid=43d8b7e2-163b-44be-9129-abeb22175d42","ios":"levelo://app?vid=43d8b7e2-163b-44be-9129-abeb22175d42"},"vehicle_type_id":"4","last_reported":1720213679,"current_range_meters":11600,"station_id":"ce4bgpp2rcd13ifvqc3g","pricing_plan_id":"cebpf4jnsgd1na2vs0mg"},{"bike_id":"9c202570-ea1b-4998-b58f-c852699bbc8a","system_id":"levelo_inurba_marseille","lat":43.311722,"lon":5.387247,"is_reserved":false,"is_disabled":false,"rental_uris":{"android":"levelo://app?vid=9c202570-ea1b-4998-b58f-c852699bbc8a","ios":"levelo://app?vid=9c202570-ea1b-4998-b58f-c852699bbc8a"},"vehicle_type_id":"4","last_reported":1720213679,"current_range_meters":13600,"station_id":"ce4bgv12rcd13ifvqcp0","pricing_plan_id":"cebpf4jnsgd1na2vs0mg"},{"bike_id":"b8d463ee-41d9-499c-a243-582b851c3914","system_id":"levelo_inurba_marseille","lat":43.311722,"lon":5.387247,"is_reserved":false,"is_disabled":false,"rental_uris":{"android":"levelo://app?vid=b8d463ee-41d9-499c-a243-582b851c3914","ios":"levelo://app?vid=b8d463ee-41d9-499c-a243-582b851c3914"},"vehicle_type_id":"4","last_reported":1720213679,"current_range_meters":10000,"station_id":"ce4bgv12rcd13ifvqcp0","pricing_plan_id":"cebpf4jnsgd1na2vs0mg"},{"bike_id":"a29a8b65-02c8-4112-bb78-e5a15a234ae9","system_id":"levelo_inurba_marseille","lat":43.311722,"lon":5.387247,"is_reserved":false,"is_disabled":false,"rental_uris":{"android":"levelo://app?vid=a29a8b65-02c8-4112-bb78-e5a15a234ae9","ios":"levelo://app?vid=a29a8b65-02c8-4112-bb78-e5a15a234ae9"},"vehicle_type_id":"4","last_reported":1720213679,"current_range_meters":13200,"station_id":"ce4bgv12rcd13ifvqcp0","pricing_plan_id":"cebpf4jnsgd1na2vs0mg"},{"bike_id":"89416043-aef8-4699-b0b1-6992d1bc99be","system_id":"levelo_inurba_marseille","lat":43.311722,"lon":5.387247,"is_reserved":false,"is_disabled":false,"rental_uris":{"android":"levelo://app?vid=89416043-aef8-4699-b0b1-6992d1bc99be","ios":"levelo://app?vid=89416043-aef8-4699-b0b1-6992d1bc99be"},"vehicle_type_id":"4","last_reported":1720213679,"current_range_meters":22000,"station_id":"ce4bgv12rcd13ifvqcp0","pricing_plan_id":"cebpf4jnsgd1na2vs0mg"},{"bike_id":"b37964c3-e57d-4a26-953e-f6f89695611d","system_id":"levelo_inurba_marseille","lat":43.299243,"lon":5.37481,"is_reserved":false,"is_disabled":false,"rental_uris":{"android":"levelo://app?vid=b37964c3-e57d-4a26-953e-f6f89695611d","ios":"levelo://app?vid=b37964c3-e57d-4a26-953e-f6f89695611d"},"vehicle_type_id":"4","last_reported":1720213679,"current_range_meters":16400,"station_id":"ce4bgjh2rcd13ifvqbg0","pricing_plan_id":"cebpf4jnsgd1na2vs0mg"},{"bike_id":"010d3a88-2bfc-4c5d-b2f1-0604058205f1","system_id":"levelo_inurba_marseille","lat":43.311722,"lon":5.387247,"is_reserved":false,"is_disabled":false,"rental_uris":{"android":"levelo://app?vid=010d3a88-2bfc-4c5d-b2f1-0604058205f1","ios":"levelo://app?vid=010d3a88-2bfc-4c5d-b2f1-0604058205f1"},"vehicle_type_id":"4","last_reported":1720213679,"current_range_meters":28000,"station_id":"ce4bgv12rcd13ifvqcp0","pricing_plan_id":"cebpf4jnsgd1na2vs0mg"},{"bike_id":"a75c4663-bc04-4e75-b53a-1103a39975ff","system_id":"levelo_inurba_marseille","lat":43.298433,"lon":5.362774,"is_reserved":false,"is_disabled":false,"rental_uris":{"android":"levelo://app?vid=a75c4663-bc04-4e75-b53a-1103a39975ff","ios":"levelo://app?vid=a75c4663-bc04-4e75-b53a-1103a39975ff"},"vehicle_type_id":"4","last_reported":1720213679,"current_range_meters":22800,"station_id":"ce4bgpp2rcd13ifvqc3g","pricing_plan_id":"cebpf4jnsgd1na2vs0mg"},{"bike_id":"bd9e09ad-feba-41c2-80f9-c1e3685cf80f","system_id":"levelo_inurba_marseille","lat":43.311722,"lon":5.387247,"is_reserved":false,"is_disabled":false,"rental_uris":{"android":"levelo://app?vid=bd9e09ad-feba-41c2-80f9-c1e3685cf80f","ios":"levelo://app?vid=bd9e09ad-feba-41c2-80f9-c1e3685cf80f"},"vehicle_type_id":"4","last_reported":1720213679,"current_range_meters":2400,"station_id":"ce4bgv12rcd13ifvqcp0","pricing_plan_id":"cebpf4jnsgd1na2vs0mg"},{"bike_id":"7707dc30-c965-48eb-b4d4-dcf2c75c6eae","system_id":"levelo_inurba_marseille","lat":43.311722,"lon":5.387247,"is_reserved":false,"is_disabled":false,"rental_uris":{"android":"levelo://app?vid=7707dc30-c965-48eb-b4d4-dcf2c75c6eae","ios":"levelo://app?vid=7707dc30-c965-48eb-b4d4-dcf2c75c6eae"},"vehicle_type_id":"4","last_reported":1720213679,"current_range_meters":28000,"station_id":"ce4bgv12rcd13ifvqcp0","pricing_plan_id":"cebpf4jnsgd1na2vs0mg"},{"bike_id":"6e082a7a-c744-4147-82fb-03d99f5e1b71","system_id":"levelo_inurba_marseille","lat":43.311722,"lon":5.387247,"is_reserved":false,"is_disabled":false,"rental_uris":{"android":"levelo://app?vid=6e082a7a-c744-4147-82fb-03d99f5e1b71","ios":"levelo://app?vid=6e082a7a-c744-4147-82fb-03d99f5e1b71"},"vehicle_type_id":"4","last_reported":1720213679,"current_range_meters":4000,"station_id":"ce4bgv12rcd13ifvqcp0","pricing_plan_id":"cebpf4jnsgd1na2vs0mg"},{"bike_id":"fc61b835-51c9-4ea3-a943-cad07f427fb1","system_id":"levelo_inurba_marseille","lat":43.31038,"lon":5.387074,"is_reserved":false,"is_disabled":false,"rental_uris":{"android":"levelo://app?vid=fc61b835-51c9-4ea3-a943-cad07f427fb1","ios":"levelo://app?vid=fc61b835-51c9-4ea3-a943-cad07f427fb1"},"vehicle_type_id":"4","last_reported":1720213679,"current_range_meters":3600,"station_id":"","pricing_plan_id":"cebpf4jnsgd1na2vs0mg"},{"bike_id":"b59e837c-8a0a-4859-b771-1daad486750c","system_id":"levelo_inurba_marseille","lat":43.297794,"lon":5.370888,"is_reserved":false,"is_disabled":false,"rental_uris":{"android":"levelo://app?vid=b59e837c-8a0a-4859-b771-1daad486750c","ios":"levelo://app?vid=b59e837c-8a0a-4859-b771-1daad486750c"},"vehicle_type_id":"4","last_reported":1720213679,"current_range_meters":0,"station_id":"ce4bgop2rcd13ifvqc1g","pricing_plan_id":"cebpf4jnsgd1na2vs0mg"},{"bike_id":"3ed1a6ee-73a5-448b-aab8-7dd05117cb66","system_id":"levelo_inurba_marseille","lat":43.30172,"lon":5.381283,"is_reserved":false,"is_disabled":false,"rental_uris":{"android":"levelo://app?vid=3ed1a6ee-73a5-448b-aab8-7dd05117cb66","ios":"levelo://app?vid=3ed1a6ee-73a5-448b-aab8-7dd05117cb66"},"vehicle_type_id":"4","last_reported":1720213679,"current_range_meters":0,"station_id":"","pricing_plan_id":"cebpf4jnsgd1na2vs0mg"},{"bike_id":"0da74f95-7b82-40ed-8a74-56718b0095b6","system_id":"levelo_inurba_marseille","lat":43.297794,"lon":5.370888,"is_reserved":false,"is_disabled":false,"rental_uris":{"android":"levelo://app?vid=0da74f95-7b82-40ed-8a74-56718b0095b6","ios":"levelo://app?vid=0da74f95-7b82-40ed-8a74-56718b0095b6"},"vehicle_type_id":"4","last_reported":1720213679,"current_range_meters":14400,"station_id":"ce4bgop2rcd13ifvqc1g","pricing_plan_id":"cebpf4jnsgd1na2vs0mg"},{"bike_id":"9ff03a30-8a8b-407f-9116-d8442261e4ad","system_id":"levelo_inurba_marseille","lat":43.322872,"lon":5.382756,"is_reserved":false,"is_disabled":false,"rental_uris":{"android":"levelo://app?vid=9ff03a30-8a8b-407f-9116-d8442261e4ad","ios":"levelo://app?vid=9ff03a30-8a8b-407f-9116-d8442261e4ad"},"vehicle_type_id":"4","last_reported":1720213679,"current_range_meters":9200,"station_id":"ce4bhr12rcd13ifvqhqg","pricing_plan_id":"cebpf4jnsgd1na2vs0mg"},{"bike_id":"69e6722a-9045-49ec-849f-e26a74ad1f24","system_id":"levelo_inurba_marseille","lat":43.2971,"lon":5.36618,"is_reserved":false,"is_disabled":false,"rental_uris":{"android":"levelo://app?vid=69e6722a-9045-49ec-849f-e26a74ad1f24","ios":"levelo://app?vid=69e6722a-9045-49ec-849f-e26a74ad1f24"},"vehicle_type_id":"4","last_reported":1720213679,"current_range_meters":12000,"station_id":"ce4bgn12rcd13ifvqbt0","pricing_plan_id":"cebpf4jnsgd1na2vs0mg"},{"bike_id":"139ed9c4-f38e-4257-a9c7-1dc9f70198fe","system_id":"levelo_inurba_marseille","lat":43.297163,"lon":5.365866,"is_reserved":false,"is_disabled":false,"rental_uris":{"android":"levelo://app?vid=139ed9c4-f38e-4257-a9c7-1dc9f70198fe","ios":"levelo://app?vid=139ed9c4-f38e-4257-a9c7-1dc9f70198fe"},"vehicle_type_id":"4","last_reported":1720213679,"current_range_meters":2800,"station_id":"ce4bgn12rcd13ifvqbt0","pricing_plan_id":"cebpf4jnsgd1na2vs0mg"},{"bike_id":"edb44196-7ba9-41cf-b884-4179c1c93eae","system_id":"levelo_inurba_marseille","lat":43.30047,"lon":5.381493,"is_reserved":false,"is_disabled":false,"rental_uris":{"android":"levelo://app?vid=edb44196-7ba9-41cf-b884-4179c1c93eae","ios":"levelo://app?vid=edb44196-7ba9-41cf-b884-4179c1c93eae"},"vehicle_type_id":"4","last_reported":1720213679,"current_range_meters":17200,"station_id":"","pricing_plan_id":"cebpf4jnsgd1na2vs0mg"},{"bike_id":"82f58178-8f89-479f-a33f-971fd10a7a10","system_id":"levelo_inurba_marseille","lat":43.298266,"lon":5.377039,"is_reserved":false,"is_disabled":false,"rental_uris":{"android":"levelo://app?vid=82f58178-8f89-479f-a33f-971fd10a7a10","ios":"levelo://app?vid=82f58178-8f89-479f-a33f-971fd10a7a10"},"vehicle_type_id":"4","last_reported":1720213679,"current_range_meters":4800,"station_id":"","pricing_plan_id":"cebpf4jnsgd1na2vs0mg"},{"bike_id":"b0f43224-b28b-4e0a-989a-863079de3908","system_id":"levelo_inurba_marseille","lat":43.296267,"lon":5.367037,"is_reserved":false,"is_disabled":false,"rental_uris":{"android":"levelo://app?vid=b0f43224-b28b-4e0a-989a-863079de3908","ios":"levelo://app?vid=b0f43224-b28b-4e0a-989a-863079de3908"},"vehicle_type_id":"4","last_reported":1720213679,"current_range_meters":20000,"station_id":"","pricing_plan_id":"cebpf4jnsgd1na2vs0mg"},{"bike_id":"b42ba4ea-1156-4d33-b885-d4b2c585400a","system_id":"levelo_inurba_marseille","lat":43.3112,"lon":5.38984,"is_reserved":false,"is_disabled":false,"rental_uris":{"android":"levelo://app?vid=b42ba4ea-1156-4d33-b885-d4b2c585400a","ios":"levelo://app?vid=b42ba4ea-1156-4d33-b885-d4b2c585400a"},"vehicle_type_id":"4","last_reported":1720213679,"current_range_meters":1200,"station_id":"","pricing_plan_id":"cebpf4jnsgd1na2vs0mg"},{"bike_id":"280525b4-850d-4349-9c72-4f70d3424eeb","system_id":"levelo_inurba_marseille","lat":43.327272,"lon":5.378472,"is_reserved":false,"is_disabled":false,"rental_uris":{"android":"levelo://app?vid=280525b4-850d-4349-9c72-4f70d3424eeb","ios":"levelo://app?vid=280525b4-850d-4349-9c72-4f70d3424eeb"},"vehicle_type_id":"4","last_reported":1720213679,"current_range_meters":8400,"station_id":"","pricing_plan_id":"cebpf4jnsgd1na2vs0mg"},{"bike_id":"317ccef3-310d-4a76-a234-b539a96b0ab4","system_id":"levelo_inurba_marseille","lat":43.296129,"lon":5.370777,"is_reserved":false,"is_disabled":false,"rental_uris":{"android":"levelo://app?vid=317ccef3-310d-4a76-a234-b539a96b0ab4","ios":"levelo://app?vid=317ccef3-310d-4a76-a234-b539a96b0ab4"},"vehicle_type_id":"4","last_reported":1720213679,"current_range_meters":25600,"station_id":"ce4bgnh2rcd13ifvqc0g","pricing_plan_id":"cebpf4jnsgd1na2vs0mg"},{"bike_id":"daebd53a-6f21-4709-8cdc-4753e99947f2","system_id":"levelo_inurba_marseille","lat":43.296131,"lon":5.370773,"is_reserved":false,"is_disabled":false,"rental_uris":{"android":"levelo://app?vid=daebd53a-6f21-4709-8cdc-4753e99947f2","ios":"levelo://app?vid=daebd53a-6f21-4709-8cdc-4753e99947f2"},"vehicle_type_id":"4","last_reported":1720213679,"current_range_meters":27200,"station_id":"ce4bgnh2rcd13ifvqc0g","pricing_plan_id":"cebpf4jnsgd1na2vs0mg"},{"bike_id":"a90d99e8-c80f-4746-a9f3-06bfd81c37d1","system_id":"levelo_inurba_marseille","lat":43.29625,"lon":5.37401,"is_reserved":false,"is_disabled":false,"rental_uris":{"android":"levelo://app?vid=a90d99e8-c80f-4746-a9f3-06bfd81c37d1","ios":"levelo://app?vid=a90d99e8-c80f-4746-a9f3-06bfd81c37d1"},"vehicle_type_id":"4","last_reported":1720213679,"current_range_meters":4400,"station_id":"","pricing_plan_id":"cebpf4jnsgd1na2vs0mg"},{"bike_id":"d503aa6f-c565-4604-9188-60a195f1b5be","system_id":"levelo_inurba_marseille","lat":43.309589,"lon":5.390258,"is_reserved":false,"is_disabled":false,"rental_uris":{"android":"levelo://app?vid=d503aa6f-c565-4604-9188-60a195f1b5be","ios":"levelo://app?vid=d503aa6f-c565-4604-9188-60a195f1b5be"},"vehicle_type_id":"4","last_reported":1720213679,"current_range_meters":4000,"station_id":"ce4bgup2rcd13ifvqco0","pricing_plan_id":"cebpf4jnsgd1na2vs0mg"},{"bike_id":"5395cb40-394b-462e-b415-70c9185ada54","system_id":"levelo_inurba_marseille","lat":43.309589,"lon":5.390258,"is_reserved":false,"is_disabled":false,"rental_uris":{"android":"levelo://app?vid=5395cb40-394b-462e-b415-70c9185ada54","ios":"levelo://app?vid=5395cb40-394b-462e-b415-70c9185ada54"},"vehicle_type_id":"4","last_reported":1720213679,"current_range_meters":31200,"station_id":"ce4bgup2rcd13ifvqco0","pricing_plan_id":"cebpf4jnsgd1na2vs0mg"},{"bike_id":"10d86f0a-8ab2-4d29-9f39-38a50a14a97d","system_id":"levelo_inurba_marseille","lat":43.309589,"lon":5.390258,"is_reserved":false,"is_disabled":false,"rental_uris":{"android":"levelo://app?vid=10d86f0a-8ab2-4d29-9f39-38a50a14a97d","ios":"levelo://app?vid=10d86f0a-8ab2-4d29-9f39-38a50a14a97d"},"vehicle_type_id":"4","last_reported":1720213679,"current_range_meters":21600,"station_id":"ce4bgup2rcd13ifvqco0","pricing_plan_id":"cebpf4jnsgd1na2vs0mg"},{"bike_id":"83581778-c10b-4172-b607-e41966eca62c","system_id":"levelo_inurba_marseille","lat":43.30947,"lon":5.39034,"is_reserved":false,"is_disabled":false,"rental_uris":{"android":"levelo://app?vid=83581778-c10b-4172-b607-e41966eca62c","ios":"levelo://app?vid=83581778-c10b-4172-b607-e41966eca62c"},"vehicle_type_id":"4","last_reported":1720213679,"current_range_meters":10400,"station_id":"ce4bgup2rcd13ifvqco0","pricing_plan_id":"cebpf4jnsgd1na2vs0mg"},{"bike_id":"c9dd90ce-7981-4b03-9f58-6e5bd4f9cfb5","system_id":"levelo_inurba_marseille","lat":43.309589,"lon":5.390258,"is_reserved":false,"is_disabled":false,"rental_uris":{"android":"levelo://app?vid=c9dd90ce-7981-4b03-9f58-6e5bd4f9cfb5","ios":"levelo://app?vid=c9dd90ce-7981-4b03-9f58-6e5bd4f9cfb5"},"vehicle_type_id":"4","last_reported":1720213679,"current_range_meters":22800,"station_id":"ce4bgup2rcd13ifvqco0","pricing_plan_id":"cebpf4jnsgd1na2vs0mg"},{"bike_id":"52d703df-9fb9-470c-b5f1-2bd9a3bca5e9","system_id":"levelo_inurba_marseille","lat":43.309589,"lon":5.390258,"is_reserved":false,"is_disabled":false,"rental_uris":{"android":"levelo://app?vid=52d703df-9fb9-470c-b5f1-2bd9a3bca5e9","ios":"levelo://app?vid=52d703df-9fb9-470c-b5f1-2bd9a3bca5e9"},"vehicle_type_id":"4","last_reported":1720213679,"current_range_meters":10800,"station_id":"ce4bgup2rcd13ifvqco0","pricing_plan_id":"cebpf4jnsgd1na2vs0mg"},{"bike_id":"ed08a59e-d56e-427d-9d0e-495f46cd8b21","system_id":"levelo_inurba_marseille","lat":43.309589,"lon":5.390258,"is_reserved":false,"is_disabled":false,"rental_uris":{"android":"levelo://app?vid=ed08a59e-d56e-427d-9d0e-495f46cd8b21","ios":"levelo://app?vid=ed08a59e-d56e-427d-9d0e-495f46cd8b21"},"vehicle_type_id":"4","last_reported":1720213679,"current_range_meters":2400,"station_id":"ce4bgup2rcd13ifvqco0","pricing_plan_id":"cebpf4jnsgd1na2vs0mg"},{"bike_id":"e8779edc-2b42-44d9-acc3-dd82ec5efc83","system_id":"levelo_inurba_marseille","lat":43.317557,"lon":5.390173,"is_reserved":false,"is_disabled":false,"rental_uris":{"android":"levelo://app?vid=e8779edc-2b42-44d9-acc3-dd82ec5efc83","ios":"levelo://app?vid=e8779edc-2b42-44d9-acc3-dd82ec5efc83"},"vehicle_type_id":"4","last_reported":1720213679,"current_range_meters":5200,"station_id":"ce4bhqp2rcd13ifvqhng","pricing_plan_id":"cebpf4jnsgd1na2vs0mg"},{"bike_id":"251e6fd6-0529-45f5-b2d0-503dd5a1c8c5","system_id":"levelo_inurba_marseille","lat":43.29576,"lon":5.37508,"is_reserved":false,"is_disabled":false,"rental_uris":{"android":"levelo://app?vid=251e6fd6-0529-45f5-b2d0-503dd5a1c8c5","ios":"levelo://app?vid=251e6fd6-0529-45f5-b2d0-503dd5a1c8c5"},"vehicle_type_id":"4","last_reported":1720213679,"current_range_meters":0,"station_id":"ce4bgh92rcd13ifvqb50","pricing_plan_id":"cebpf4jnsgd1na2vs0mg"},{"bike_id":"27ec07e5-f51c-4d88-b1f2-100aa756f7bc","system_id":"levelo_inurba_marseille","lat":43.304274,"lon":5.388873,"is_reserved":false,"is_disabled":false,"rental_uris":{"android":"levelo://app?vid=27ec07e5-f51c-4d88-b1f2-100aa756f7bc","ios":"levelo://app?vid=27ec07e5-f51c-4d88-b1f2-100aa756f7bc"},"vehicle_type_id":"4","last_reported":1720213679,"current_range_meters":31200,"station_id":"ce4bgk12rcd13ifvqbi0","pricing_plan_id":"cebpf4jnsgd1na2vs0mg"},{"bike_id":"886aa7df-ac58-4506-9f12-534c570201cf","system_id":"levelo_inurba_marseille","lat":43.295748,"lon":5.37522,"is_reserved":false,"is_disabled":false,"rental_uris":{"android":"levelo://app?vid=886aa7df-ac58-4506-9f12-534c570201cf","ios":"levelo://app?vid=886aa7df-ac58-4506-9f12-534c570201cf"},"vehicle_type_id":"4","last_reported":1720213679,"current_range_meters":0,"station_id":"ce4bgh92rcd13ifvqb50","pricing_plan_id":"cebpf4jnsgd1na2vs0mg"},{"bike_id":"f637fd21-3021-484a-8fc5-6bf9e527a035","system_id":"levelo_inurba_marseille","lat":43.304274,"lon":5.388873,"is_reserved":false,"is_disabled":false,"rental_uris":{"android":"levelo://app?vid=f637fd21-3021-484a-8fc5-6bf9e527a035","ios":"levelo://app?vid=f637fd21-3021-484a-8fc5-6bf9e527a035"},"vehicle_type_id":"4","last_reported":1720213679,"current_range_meters":24800,"station_id":"ce4bgk12rcd13ifvqbi0","pricing_plan_id":"cebpf4jnsgd1na2vs0mg"},{"bike_id":"9aed2cd3-3366-43f7-bd5b-72bb779e4a21","system_id":"levelo_inurba_marseille","lat":43.304278,"lon":5.388868,"is_reserved":false,"is_disabled":false,"rental_uris":{"android":"levelo://app?vid=9aed2cd3-3366-43f7-bd5b-72bb779e4a21","ios":"levelo://app?vid=9aed2cd3-3366-43f7-bd5b-72bb779e4a21"},"vehicle_type_id":"4","last_reported":1720213679,"current_range_meters":5200,"station_id":"ce4bgk12rcd13ifvqbi0","pricing_plan_id":"cebpf4jnsgd1na2vs0mg"},{"bike_id":"a91729e3-93c5-4fb0-8ae7-ec72aba01b60","system_id":"levelo_inurba_marseille","lat":43.296263,"lon":5.377094,"is_reserved":false,"is_disabled":false,"rental_uris":{"android":"levelo://app?vid=a91729e3-93c5-4fb0-8ae7-ec72aba01b60","ios":"levelo://app?vid=a91729e3-93c5-4fb0-8ae7-ec72aba01b60"},"vehicle_type_id":"4","last_reported":1720213679,"current_range_meters":0,"station_id":"ce4bgi92rcd13ifvqb90","pricing_plan_id":"cebpf4jnsgd1na2vs0mg"},{"bike_id":"f26dc70a-d588-419a-92b9-709861edd264","system_id":"levelo_inurba_marseille","lat":43.296263,"lon":5.377094,"is_reserved":false,"is_disabled":false,"rental_uris":{"android":"levelo://app?vid=f26dc70a-d588-419a-92b9-709861edd264","ios":"levelo://app?vid=f26dc70a-d588-419a-92b9-709861edd264"},"vehicle_type_id":"4","last_reported":1720213679,"current_range_meters":2400,"station_id":"ce4bgi92rcd13ifvqb90","pricing_plan_id":"cebpf4jnsgd1na2vs0mg"},{"bike_id":"55bb1967-afcc-43e1-84d2-94196b865c0b","system_id":"levelo_inurba_marseille","lat":43.29714,"lon":5.37984,"is_reserved":false,"is_disabled":false,"rental_uris":{"android":"levelo://app?vid=55bb1967-afcc-43e1-84d2-94196b865c0b","ios":"levelo://app?vid=55bb1967-afcc-43e1-84d2-94196b865c0b"},"vehicle_type_id":"4","last_reported":1720213679,"current_range_meters":21600,"station_id":"","pricing_plan_id":"cebpf4jnsgd1na2vs0mg"},{"bike_id":"b42e44f6-1620-4f0c-8e7d-3d7836237a46","system_id":"levelo_inurba_marseille","lat":43.295279,"lon":5.375048,"is_reserved":false,"is_disabled":false,"rental_uris":{"android":"levelo://app?vid=b42e44f6-1620-4f0c-8e7d-3d7836237a46","ios":"levelo://app?vid=b42e44f6-1620-4f0c-8e7d-3d7836237a46"},"vehicle_type_id":"4","last_reported":1720213679,"current_range_meters":6800,"station_id":"ce4bgkp2rcd13ifvqbmg","pricing_plan_id":"cebpf4jnsgd1na2vs0mg"},{"bike_id":"65d77d17-35d6-418b-9ecb-30d392e5fe19","system_id":"levelo_inurba_marseille","lat":43.294962,"lon":5.376244,"is_reserved":false,"is_disabled":false,"rental_uris":{"android":"levelo://app?vid=65d77d17-35d6-418b-9ecb-30d392e5fe19","ios":"levelo://app?vid=65d77d17-35d6-418b-9ecb-30d392e5fe19"},"vehicle_type_id":"4","last_reported":1720213679,"current_range_meters":22400,"station_id":"","pricing_plan_id":"cebpf4jnsgd1na2vs0mg"},{"bike_id":"ef043ced-a39e-4796-9ba0-4ac0df7621a9","system_id":"levelo_inurba_marseille","lat":43.32367,"lon":5.388836,"is_reserved":false,"is_disabled":false,"rental_uris":{"android":"levelo://app?vid=ef043ced-a39e-4796-9ba0-4ac0df7621a9","ios":"levelo://app?vid=ef043ced-a39e-4796-9ba0-4ac0df7621a9"},"vehicle_type_id":"4","last_reported":1720213679,"current_range_meters":22800,"station_id":"ce4bhqp2rcd13ifvqhog","pricing_plan_id":"cebpf4jnsgd1na2vs0mg"},{"bike_id":"c9a16b94-4361-4cdd-bb30-3e031007874a","system_id":"levelo_inurba_marseille","lat":43.32367,"lon":5.388836,"is_reserved":false,"is_disabled":false,"rental_uris":{"android":"levelo://app?vid=c9a16b94-4361-4cdd-bb30-3e031007874a","ios":"levelo://app?vid=c9a16b94-4361-4cdd-bb30-3e031007874a"},"vehicle_type_id":"4","last_reported":1720213679,"current_range_meters":0,"station_id":"ce4bhqp2rcd13ifvqhog","pricing_plan_id":"cebpf4jnsgd1na2vs0mg"},{"bike_id":"b301d2d5-db6c-4846-8e66-fb7a287f64e4","system_id":"levelo_inurba_marseille","lat":43.29604,"lon":5.38089,"is_reserved":false,"is_disabled":false,"rental_uris":{"android":"levelo://app?vid=b301d2d5-db6c-4846-8e66-fb7a287f64e4","ios":"levelo://app?vid=b301d2d5-db6c-4846-8e66-fb7a287f64e4"},"vehicle_type_id":"4","last_reported":1720213679,"current_range_meters":7600,"station_id":"ce4bgl12rcd13ifvqbo0","pricing_plan_id":"cebpf4jnsgd1na2vs0mg"},{"bike_id":"a12ac9cd-ca0f-4156-b781-0e927a4dfa3d","system_id":"levelo_inurba_marseille","lat":43.29603,"lon":5.38088,"is_reserved":false,"is_disabled":false,"rental_uris":{"android":"levelo://app?vid=a12ac9cd-ca0f-4156-b781-0e927a4dfa3d","ios":"levelo://app?vid=a12ac9cd-ca0f-4156-b781-0e927a4dfa3d"},"vehicle_type_id":"4","last_reported":1720213679,"current_range_meters":30400,"station_id":"ce4bgl12rcd13ifvqbo0","pricing_plan_id":"cebpf4jnsgd1na2vs0mg"},{"bike_id":"82a9404d-0133-45da-8cba-52d9c8f3e879","system_id":"levelo_inurba_marseille","lat":43.29601,"lon":5.381084,"is_reserved":false,"is_disabled":false,"rental_uris":{"android":"levelo://app?vid=82a9404d-0133-45da-8cba-52d9c8f3e879","ios":"levelo://app?vid=82a9404d-0133-45da-8cba-52d9c8f3e879"},"vehicle_type_id":"4","last_reported":1720213679,"current_range_meters":28800,"station_id":"ce4bgl12rcd13ifvqbo0","pricing_plan_id":"cebpf4jnsgd1na2vs0mg"},{"bike_id":"bdcf0047-4f17-49da-9164-1f22d5c18ffd","system_id":"levelo_inurba_marseille","lat":43.29605,"lon":5.380962,"is_reserved":false,"is_disabled":false,"rental_uris":{"android":"levelo://app?vid=bdcf0047-4f17-49da-9164-1f22d5c18ffd","ios":"levelo://app?vid=bdcf0047-4f17-49da-9164-1f22d5c18ffd"},"vehicle_type_id":"4","last_reported":1720213679,"current_range_meters":10000,"station_id":"ce4bgl12rcd13ifvqbo0","pricing_plan_id":"cebpf4jnsgd1na2vs0mg"},{"bike_id":"90b5dcdb-1c12-4754-8521-a8dfc5e61781","system_id":"levelo_inurba_marseille","lat":43.295993,"lon":5.380904,"is_reserved":false,"is_disabled":false,"rental_uris":{"android":"levelo://app?vid=90b5dcdb-1c12-4754-8521-a8dfc5e61781","ios":"levelo://app?vid=90b5dcdb-1c12-4754-8521-a8dfc5e61781"},"vehicle_type_id":"4","last_reported":1720213679,"current_range_meters":29600,"station_id":"ce4bgl12rcd13ifvqbo0","pricing_plan_id":"cebpf4jnsgd1na2vs0mg"},{"bike_id":"65b37a26-628c-47bd-ae4e-bcdc4abc72c5","system_id":"levelo_inurba_marseille","lat":43.29602,"lon":5.38099,"is_reserved":false,"is_disabled":false,"rental_uris":{"android":"levelo://app?vid=65b37a26-628c-47bd-ae4e-bcdc4abc72c5","ios":"levelo://app?vid=65b37a26-628c-47bd-ae4e-bcdc4abc72c5"},"vehicle_type_id":"4","last_reported":1720213679,"current_range_meters":6000,"station_id":"ce4bgl12rcd13ifvqbo0","pricing_plan_id":"cebpf4jnsgd1na2vs0mg"},{"bike_id":"11b3a03f-6a5e-4b3f-a9a9-8724c9ccb217","system_id":"levelo_inurba_marseille","lat":43.295961,"lon":5.380868,"is_reserved":false,"is_disabled":false,"rental_uris":{"android":"levelo://app?vid=11b3a03f-6a5e-4b3f-a9a9-8724c9ccb217","ios":"levelo://app?vid=11b3a03f-6a5e-4b3f-a9a9-8724c9ccb217"},"vehicle_type_id":"4","last_reported":1720213679,"current_range_meters":16400,"station_id":"ce4bgl12rcd13ifvqbo0","pricing_plan_id":"cebpf4jnsgd1na2vs0mg"},{"bike_id":"eddf7915-71ca-4b5b-8fe8-d719ca03c633","system_id":"levelo_inurba_marseille","lat":43.296003,"lon":5.380977,"is_reserved":false,"is_disabled":false,"rental_uris":{"android":"levelo://app?vid=eddf7915-71ca-4b5b-8fe8-d719ca03c633","ios":"levelo://app?vid=eddf7915-71ca-4b5b-8fe8-d719ca03c633"},"vehicle_type_id":"4","last_reported":1720213679,"current_range_meters":15200,"station_id":"ce4bgl12rcd13ifvqbo0","pricing_plan_id":"cebpf4jnsgd1na2vs0mg"},{"bike_id":"9b50ea4c-5897-4509-8e15-b173c7f832ab","system_id":"levelo_inurba_marseille","lat":43.296,"lon":5.38097,"is_reserved":false,"is_disabled":false,"rental_uris":{"android":"levelo://app?vid=9b50ea4c-5897-4509-8e15-b173c7f832ab","ios":"levelo://app?vid=9b50ea4c-5897-4509-8e15-b173c7f832ab"},"vehicle_type_id":"4","last_reported":1720213679,"current_range_meters":28000,"station_id":"ce4bgl12rcd13ifvqbo0","pricing_plan_id":"cebpf4jnsgd1na2vs0mg"},{"bike_id":"8a16d3e5-a71c-48e2-92a7-6620d367b9cf","system_id":"levelo_inurba_marseille","lat":43.29602,"lon":5.381084,"is_reserved":false,"is_disabled":false,"rental_uris":{"android":"levelo://app?vid=8a16d3e5-a71c-48e2-92a7-6620d367b9cf","ios":"levelo://app?vid=8a16d3e5-a71c-48e2-92a7-6620d367b9cf"},"vehicle_type_id":"4","last_reported":1720213679,"current_range_meters":13600,"station_id":"ce4bgl12rcd13ifvqbo0","pricing_plan_id":"cebpf4jnsgd1na2vs0mg"},{"bike_id":"32248d26-6795-4c25-a05b-1f85f60aa7a2","system_id":"levelo_inurba_marseille","lat":43.29598,"lon":5.38098,"is_reserved":false,"is_disabled":false,"rental_uris":{"android":"levelo://app?vid=32248d26-6795-4c25-a05b-1f85f60aa7a2","ios":"levelo://app?vid=32248d26-6795-4c25-a05b-1f85f60aa7a2"},"vehicle_type_id":"4","last_reported":1720213679,"current_range_meters":6000,"station_id":"ce4bgl12rcd13ifvqbo0","pricing_plan_id":"cebpf4jnsgd1na2vs0mg"},{"bike_id":"04425625-092c-4109-823c-d957fb188d03","system_id":"levelo_inurba_marseille","lat":43.29601,"lon":5.38105,"is_reserved":false,"is_disabled":false,"rental_uris":{"android":"levelo://app?vid=04425625-092c-4109-823c-d957fb188d03","ios":"levelo://app?vid=04425625-092c-4109-823c-d957fb188d03"},"vehicle_type_id":"4","last_reported":1720213679,"current_range_meters":24800,"station_id":"ce4bgl12rcd13ifvqbo0","pricing_plan_id":"cebpf4jnsgd1na2vs0mg"},{"bike_id":"9bc1e19f-e8dd-49e4-8175-3a37e423ada7","system_id":"levelo_inurba_marseille","lat":43.29602,"lon":5.381084,"is_reserved":false,"is_disabled":false,"rental_uris":{"android":"levelo://app?vid=9bc1e19f-e8dd-49e4-8175-3a37e423ada7","ios":"levelo://app?vid=9bc1e19f-e8dd-49e4-8175-3a37e423ada7"},"vehicle_type_id":"4","last_reported":1720213679,"current_range_meters":13200,"station_id":"ce4bgl12rcd13ifvqbo0","pricing_plan_id":"cebpf4jnsgd1na2vs0mg"},{"bike_id":"44202f41-bdf4-40c4-b3f6-213961ce2b3f","system_id":"levelo_inurba_marseille","lat":43.29602,"lon":5.381084,"is_reserved":false,"is_disabled":false,"rental_uris":{"android":"levelo://app?vid=44202f41-bdf4-40c4-b3f6-213961ce2b3f","ios":"levelo://app?vid=44202f41-bdf4-40c4-b3f6-213961ce2b3f"},"vehicle_type_id":"4","last_reported":1720213679,"current_range_meters":8800,"station_id":"ce4bgl12rcd13ifvqbo0","pricing_plan_id":"cebpf4jnsgd1na2vs0mg"},{"bike_id":"09aca2b1-d0b7-46d2-97c4-d88d1a006823","system_id":"levelo_inurba_marseille","lat":43.295921,"lon":5.380956,"is_reserved":false,"is_disabled":false,"rental_uris":{"android":"levelo://app?vid=09aca2b1-d0b7-46d2-97c4-d88d1a006823","ios":"levelo://app?vid=09aca2b1-d0b7-46d2-97c4-d88d1a006823"},"vehicle_type_id":"4","last_reported":1720213679,"current_range_meters":18400,"station_id":"","pricing_plan_id":"cebpf4jnsgd1na2vs0mg"},{"bike_id":"4636ee1d-50f2-4290-865b-ff4ff41bc6ca","system_id":"levelo_inurba_marseille","lat":43.293249,"lon":5.371578,"is_reserved":false,"is_disabled":false,"rental_uris":{"android":"levelo://app?vid=4636ee1d-50f2-4290-865b-ff4ff41bc6ca","ios":"levelo://app?vid=4636ee1d-50f2-4290-865b-ff4ff41bc6ca"},"vehicle_type_id":"4","last_reported":1720213679,"current_range_meters":19600,"station_id":"ce4bgh92rcd13ifvqb40","pricing_plan_id":"cebpf4jnsgd1na2vs0mg"},{"bike_id":"16456d87-1923-4dae-9bca-f8976b962035","system_id":"levelo_inurba_marseille","lat":43.292749,"lon":5.368402,"is_reserved":false,"is_disabled":false,"rental_uris":{"android":"levelo://app?vid=16456d87-1923-4dae-9bca-f8976b962035","ios":"levelo://app?vid=16456d87-1923-4dae-9bca-f8976b962035"},"vehicle_type_id":"4","last_reported":1720213679,"current_range_meters":9600,"station_id":"ce4bhbp2rcd13ifvqesg","pricing_plan_id":"cebpf4jnsgd1na2vs0mg"},{"bike_id":"1ec611f1-5231-40e2-a883-e5eb88c87ab7","system_id":"levelo_inurba_marseille","lat":43.29274,"lon":5.3684,"is_reserved":false,"is_disabled":false,"rental_uris":{"android":"levelo://app?vid=1ec611f1-5231-40e2-a883-e5eb88c87ab7","ios":"levelo://app?vid=1ec611f1-5231-40e2-a883-e5eb88c87ab7"},"vehicle_type_id":"4","last_reported":1720213679,"current_range_meters":30000,"station_id":"ce4bhbp2rcd13ifvqesg","pricing_plan_id":"cebpf4jnsgd1na2vs0mg"},{"bike_id":"cc342c92-3e5c-4f3b-ac51-3dad4ce4b4b1","system_id":"levelo_inurba_marseille","lat":43.292749,"lon":5.368402,"is_reserved":false,"is_disabled":false,"rental_uris":{"android":"levelo://app?vid=cc342c92-3e5c-4f3b-ac51-3dad4ce4b4b1","ios":"levelo://app?vid=cc342c92-3e5c-4f3b-ac51-3dad4ce4b4b1"},"vehicle_type_id":"4","last_reported":1720213679,"current_range_meters":8400,"station_id":"ce4bhbp2rcd13ifvqesg","pricing_plan_id":"cebpf4jnsgd1na2vs0mg"},{"bike_id":"7a0553fe-7027-4798-83e5-40ceed0e1b57","system_id":"levelo_inurba_marseille","lat":43.29273,"lon":5.3684,"is_reserved":false,"is_disabled":false,"rental_uris":{"android":"levelo://app?vid=7a0553fe-7027-4798-83e5-40ceed0e1b57","ios":"levelo://app?vid=7a0553fe-7027-4798-83e5-40ceed0e1b57"},"vehicle_type_id":"4","last_reported":1720213679,"current_range_meters":9600,"station_id":"ce4bhbp2rcd13ifvqesg","pricing_plan_id":"cebpf4jnsgd1na2vs0mg"},{"bike_id":"0ab94482-788c-4ffe-b0da-e23299abdb99","system_id":"levelo_inurba_marseille","lat":43.333,"lon":5.36439,"is_reserved":false,"is_disabled":false,"rental_uris":{"android":"levelo://app?vid=0ab94482-788c-4ffe-b0da-e23299abdb99","ios":"levelo://app?vid=0ab94482-788c-4ffe-b0da-e23299abdb99"},"vehicle_type_id":"4","last_reported":1720213679,"current_range_meters":14400,"station_id":"","pricing_plan_id":"cebpf4jnsgd1na2vs0mg"},{"bike_id":"f89abab8-8001-4943-b607-dd9168570f01","system_id":"levelo_inurba_marseille","lat":43.305994,"lon":5.393687,"is_reserved":false,"is_disabled":false,"rental_uris":{"android":"levelo://app?vid=f89abab8-8001-4943-b607-dd9168570f01","ios":"levelo://app?vid=f89abab8-8001-4943-b607-dd9168570f01"},"vehicle_type_id":"4","last_reported":1720213679,"current_range_meters":30000,"station_id":"ce4bh0p2rcd13ifvqd80","pricing_plan_id":"cebpf4jnsgd1na2vs0mg"},{"bike_id":"23ca9976-29e5-4aa8-85b6-602be7f47265","system_id":"levelo_inurba_marseille","lat":43.29299,"lon":5.37457,"is_reserved":false,"is_disabled":false,"rental_uris":{"android":"levelo://app?vid=23ca9976-29e5-4aa8-85b6-602be7f47265","ios":"levelo://app?vid=23ca9976-29e5-4aa8-85b6-602be7f47265"},"vehicle_type_id":"4","last_reported":1720213679,"current_range_meters":0,"station_id":"ce4bgi12rcd13ifvqb70","pricing_plan_id":"cebpf4jnsgd1na2vs0mg"},{"bike_id":"08327895-0652-4bef-b753-33f84eb2907b","system_id":"levelo_inurba_marseille","lat":43.29298,"lon":5.37454,"is_reserved":false,"is_disabled":false,"rental_uris":{"android":"levelo://app?vid=08327895-0652-4bef-b753-33f84eb2907b","ios":"levelo://app?vid=08327895-0652-4bef-b753-33f84eb2907b"},"vehicle_type_id":"4","last_reported":1720213679,"current_range_meters":0,"station_id":"ce4bgi12rcd13ifvqb70","pricing_plan_id":"cebpf4jnsgd1na2vs0mg"},{"bike_id":"80e69bae-f6aa-4e9c-bad0-53a5211a4fbb","system_id":"levelo_inurba_marseille","lat":43.305994,"lon":5.393687,"is_reserved":false,"is_disabled":false,"rental_uris":{"android":"levelo://app?vid=80e69bae-f6aa-4e9c-bad0-53a5211a4fbb","ios":"levelo://app?vid=80e69bae-f6aa-4e9c-bad0-53a5211a4fbb"},"vehicle_type_id":"4","last_reported":1720213679,"current_range_meters":19600,"station_id":"ce4bh0p2rcd13ifvqd80","pricing_plan_id":"cebpf4jnsgd1na2vs0mg"},{"bike_id":"bb2945d9-def8-4761-8652-e54a0d294df2","system_id":"levelo_inurba_marseille","lat":43.303002,"lon":5.392142,"is_reserved":false,"is_disabled":false,"rental_uris":{"android":"levelo://app?vid=bb2945d9-def8-4761-8652-e54a0d294df2","ios":"levelo://app?vid=bb2945d9-def8-4761-8652-e54a0d294df2"},"vehicle_type_id":"4","last_reported":1720213679,"current_range_meters":26400,"station_id":"ce4bgkh2rcd13ifvqbk0","pricing_plan_id":"cebpf4jnsgd1na2vs0mg"},{"bike_id":"760f8656-c7de-489a-b628-8a932ce5a55f","system_id":"levelo_inurba_marseille","lat":43.303002,"lon":5.392142,"is_reserved":false,"is_disabled":false,"rental_uris":{"android":"levelo://app?vid=760f8656-c7de-489a-b628-8a932ce5a55f","ios":"levelo://app?vid=760f8656-c7de-489a-b628-8a932ce5a55f"},"vehicle_type_id":"4","last_reported":1720213679,"current_range_meters":3200,"station_id":"ce4bgkh2rcd13ifvqbk0","pricing_plan_id":"cebpf4jnsgd1na2vs0mg"},{"bike_id":"eb68c9b2-f686-4853-8171-da813a94a1ad","system_id":"levelo_inurba_marseille","lat":43.303002,"lon":5.392142,"is_reserved":false,"is_disabled":false,"rental_uris":{"android":"levelo://app?vid=eb68c9b2-f686-4853-8171-da813a94a1ad","ios":"levelo://app?vid=eb68c9b2-f686-4853-8171-da813a94a1ad"},"vehicle_type_id":"4","last_reported":1720213679,"current_range_meters":31200,"station_id":"ce4bgkh2rcd13ifvqbk0","pricing_plan_id":"cebpf4jnsgd1na2vs0mg"},{"bike_id":"54eb373f-12e0-4d6a-b37d-a6a30b1279e2","system_id":"levelo_inurba_marseille","lat":43.303002,"lon":5.392142,"is_reserved":false,"is_disabled":false,"rental_uris":{"android":"levelo://app?vid=54eb373f-12e0-4d6a-b37d-a6a30b1279e2","ios":"levelo://app?vid=54eb373f-12e0-4d6a-b37d-a6a30b1279e2"},"vehicle_type_id":"4","last_reported":1720213679,"current_range_meters":26800,"station_id":"ce4bgkh2rcd13ifvqbk0","pricing_plan_id":"cebpf4jnsgd1na2vs0mg"},{"bike_id":"f972f092-9706-42d1-867f-a78be762dacd","system_id":"levelo_inurba_marseille","lat":43.303002,"lon":5.392142,"is_reserved":false,"is_disabled":false,"rental_uris":{"android":"levelo://app?vid=f972f092-9706-42d1-867f-a78be762dacd","ios":"levelo://app?vid=f972f092-9706-42d1-867f-a78be762dacd"},"vehicle_type_id":"4","last_reported":1720213679,"current_range_meters":9200,"station_id":"ce4bgkh2rcd13ifvqbk0","pricing_plan_id":"cebpf4jnsgd1na2vs0mg"},{"bike_id":"437f4f97-e37e-4699-9e3a-bbce560dabc7","system_id":"levelo_inurba_marseille","lat":43.303002,"lon":5.392142,"is_reserved":false,"is_disabled":false,"rental_uris":{"android":"levelo://app?vid=437f4f97-e37e-4699-9e3a-bbce560dabc7","ios":"levelo://app?vid=437f4f97-e37e-4699-9e3a-bbce560dabc7"},"vehicle_type_id":"4","last_reported":1720213679,"current_range_meters":4800,"station_id":"ce4bgkh2rcd13ifvqbk0","pricing_plan_id":"cebpf4jnsgd1na2vs0mg"},{"bike_id":"81d0b3b8-2f5d-4b0a-9210-06267b5e0fb2","system_id":"levelo_inurba_marseille","lat":43.303002,"lon":5.392142,"is_reserved":false,"is_disabled":false,"rental_uris":{"android":"levelo://app?vid=81d0b3b8-2f5d-4b0a-9210-06267b5e0fb2","ios":"levelo://app?vid=81d0b3b8-2f5d-4b0a-9210-06267b5e0fb2"},"vehicle_type_id":"4","last_reported":1720213679,"current_range_meters":16400,"station_id":"ce4bgkh2rcd13ifvqbk0","pricing_plan_id":"cebpf4jnsgd1na2vs0mg"},{"bike_id":"1ed2755a-8fe7-4fa1-b0ea-c531734af249","system_id":"levelo_inurba_marseille","lat":43.303002,"lon":5.392142,"is_reserved":false,"is_disabled":false,"rental_uris":{"android":"levelo://app?vid=1ed2755a-8fe7-4fa1-b0ea-c531734af249","ios":"levelo://app?vid=1ed2755a-8fe7-4fa1-b0ea-c531734af249"},"vehicle_type_id":"4","last_reported":1720213679,"current_range_meters":15200,"station_id":"ce4bgkh2rcd13ifvqbk0","pricing_plan_id":"cebpf4jnsgd1na2vs0mg"},{"bike_id":"e6c27db5-00b4-49f0-8f51-97649caf9980","system_id":"levelo_inurba_marseille","lat":43.303002,"lon":5.392142,"is_reserved":false,"is_disabled":false,"rental_uris":{"android":"levelo://app?vid=e6c27db5-00b4-49f0-8f51-97649caf9980","ios":"levelo://app?vid=e6c27db5-00b4-49f0-8f51-97649caf9980"},"vehicle_type_id":"4","last_reported":1720213679,"current_range_meters":30000,"station_id":"ce4bgkh2rcd13ifvqbk0","pricing_plan_id":"cebpf4jnsgd1na2vs0mg"},{"bike_id":"fd2d7042-133e-412b-8f9c-a29456a8d90e","system_id":"levelo_inurba_marseille","lat":43.303002,"lon":5.392142,"is_reserved":false,"is_disabled":false,"rental_uris":{"android":"levelo://app?vid=fd2d7042-133e-412b-8f9c-a29456a8d90e","ios":"levelo://app?vid=fd2d7042-133e-412b-8f9c-a29456a8d90e"},"vehicle_type_id":"4","last_reported":1720213679,"current_range_meters":21200,"station_id":"ce4bgkh2rcd13ifvqbk0","pricing_plan_id":"cebpf4jnsgd1na2vs0mg"},{"bike_id":"67f9f2e2-b045-4cf2-b1ac-910940d29826","system_id":"levelo_inurba_marseille","lat":43.30297,"lon":5.39206,"is_reserved":false,"is_disabled":false,"rental_uris":{"android":"levelo://app?vid=67f9f2e2-b045-4cf2-b1ac-910940d29826","ios":"levelo://app?vid=67f9f2e2-b045-4cf2-b1ac-910940d29826"},"vehicle_type_id":"4","last_reported":1720213679,"current_range_meters":27200,"station_id":"ce4bgkh2rcd13ifvqbk0","pricing_plan_id":"cebpf4jnsgd1na2vs0mg"},{"bike_id":"77ca00a8-b41f-4d07-b059-128641d4d50f","system_id":"levelo_inurba_marseille","lat":43.2936,"lon":5.37835,"is_reserved":false,"is_disabled":false,"rental_uris":{"android":"levelo://app?vid=77ca00a8-b41f-4d07-b059-128641d4d50f","ios":"levelo://app?vid=77ca00a8-b41f-4d07-b059-128641d4d50f"},"vehicle_type_id":"4","last_reported":1720213679,"current_range_meters":4400,"station_id":"ce4bgjh2rcd13ifvqbf0","pricing_plan_id":"cebpf4jnsgd1na2vs0mg"},{"bike_id":"edb4ba7a-6886-46f6-b085-f4046a9695b5","system_id":"levelo_inurba_marseille","lat":43.30292,"lon":5.39209,"is_reserved":false,"is_disabled":false,"rental_uris":{"android":"levelo://app?vid=edb4ba7a-6886-46f6-b085-f4046a9695b5","ios":"levelo://app?vid=edb4ba7a-6886-46f6-b085-f4046a9695b5"},"vehicle_type_id":"4","last_reported":1720213679,"current_range_meters":27200,"station_id":"ce4bgkh2rcd13ifvqbk0","pricing_plan_id":"cebpf4jnsgd1na2vs0mg"},{"bike_id":"efbe5621-2873-4a4d-ba74-a5e649aae706","system_id":"levelo_inurba_marseille","lat":43.2936,"lon":5.37835,"is_reserved":false,"is_disabled":false,"rental_uris":{"android":"levelo://app?vid=efbe5621-2873-4a4d-ba74-a5e649aae706","ios":"levelo://app?vid=efbe5621-2873-4a4d-ba74-a5e649aae706"},"vehicle_type_id":"4","last_reported":1720213679,"current_range_meters":14800,"station_id":"ce4bgjh2rcd13ifvqbf0","pricing_plan_id":"cebpf4jnsgd1na2vs0mg"},{"bike_id":"507f5b53-9c25-4c04-9f8e-912537d007ea","system_id":"levelo_inurba_marseille","lat":43.302997,"lon":5.39216,"is_reserved":false,"is_disabled":false,"rental_uris":{"android":"levelo://app?vid=507f5b53-9c25-4c04-9f8e-912537d007ea","ios":"levelo://app?vid=507f5b53-9c25-4c04-9f8e-912537d007ea"},"vehicle_type_id":"4","last_reported":1720213679,"current_range_meters":4000,"station_id":"ce4bgkh2rcd13ifvqbk0","pricing_plan_id":"cebpf4jnsgd1na2vs0mg"},{"bike_id":"3946524f-1f50-455b-8369-9c481f531cf8","system_id":"levelo_inurba_marseille","lat":43.302973,"lon":5.392146,"is_reserved":false,"is_disabled":false,"rental_uris":{"android":"levelo://app?vid=3946524f-1f50-455b-8369-9c481f531cf8","ios":"levelo://app?vid=3946524f-1f50-455b-8369-9c481f531cf8"},"vehicle_type_id":"4","last_reported":1720213679,"current_range_meters":31200,"station_id":"ce4bgkh2rcd13ifvqbk0","pricing_plan_id":"cebpf4jnsgd1na2vs0mg"},{"bike_id":"025ae121-f03a-40fe-a321-baeb35d3c6a2","system_id":"levelo_inurba_marseille","lat":43.30298,"lon":5.39225,"is_reserved":false,"is_disabled":false,"rental_uris":{"android":"levelo://app?vid=025ae121-f03a-40fe-a321-baeb35d3c6a2","ios":"levelo://app?vid=025ae121-f03a-40fe-a321-baeb35d3c6a2"},"vehicle_type_id":"4","last_reported":1720213679,"current_range_meters":31200,"station_id":"ce4bgkh2rcd13ifvqbk0","pricing_plan_id":"cebpf4jnsgd1na2vs0mg"},{"bike_id":"24d1a9de-bb33-4540-8bbe-1ef032cb2eeb","system_id":"levelo_inurba_marseille","lat":43.2936,"lon":5.37835,"is_reserved":false,"is_disabled":false,"rental_uris":{"android":"levelo://app?vid=24d1a9de-bb33-4540-8bbe-1ef032cb2eeb","ios":"levelo://app?vid=24d1a9de-bb33-4540-8bbe-1ef032cb2eeb"},"vehicle_type_id":"4","last_reported":1720213679,"current_range_meters":4800,"station_id":"ce4bgjh2rcd13ifvqbf0","pricing_plan_id":"cebpf4jnsgd1na2vs0mg"},{"bike_id":"55e53d37-c3fa-495b-bf93-34b3a2461ce1","system_id":"levelo_inurba_marseille","lat":43.303002,"lon":5.392142,"is_reserved":false,"is_disabled":false,"rental_uris":{"android":"levelo://app?vid=55e53d37-c3fa-495b-bf93-34b3a2461ce1","ios":"levelo://app?vid=55e53d37-c3fa-495b-bf93-34b3a2461ce1"},"vehicle_type_id":"4","last_reported":1720213679,"current_range_meters":31200,"station_id":"ce4bgkh2rcd13ifvqbk0","pricing_plan_id":"cebpf4jnsgd1na2vs0mg"},{"bike_id":"ef7c4464-8c84-4a7b-a564-bca30a163657","system_id":"levelo_inurba_marseille","lat":43.30085,"lon":5.390856,"is_reserved":false,"is_disabled":false,"rental_uris":{"android":"levelo://app?vid=ef7c4464-8c84-4a7b-a564-bca30a163657","ios":"levelo://app?vid=ef7c4464-8c84-4a7b-a564-bca30a163657"},"vehicle_type_id":"4","last_reported":1720213679,"current_range_meters":31200,"station_id":"ce4bh192rcd13ifvqdb0","pricing_plan_id":"cebpf4jnsgd1na2vs0mg"},{"bike_id":"7f236916-7ab7-4b5f-8b26-406a6f7fcf1e","system_id":"levelo_inurba_marseille","lat":43.30102,"lon":5.390747,"is_reserved":false,"is_disabled":false,"rental_uris":{"android":"levelo://app?vid=7f236916-7ab7-4b5f-8b26-406a6f7fcf1e","ios":"levelo://app?vid=7f236916-7ab7-4b5f-8b26-406a6f7fcf1e"},"vehicle_type_id":"4","last_reported":1720213679,"current_range_meters":31200,"station_id":"ce4bh192rcd13ifvqdb0","pricing_plan_id":"cebpf4jnsgd1na2vs0mg"},{"bike_id":"7cc1baa6-988c-4ece-9cbc-5b870f1601ed","system_id":"levelo_inurba_marseille","lat":43.30102,"lon":5.39082,"is_reserved":false,"is_disabled":false,"rental_uris":{"android":"levelo://app?vid=7cc1baa6-988c-4ece-9cbc-5b870f1601ed","ios":"levelo://app?vid=7cc1baa6-988c-4ece-9cbc-5b870f1601ed"},"vehicle_type_id":"4","last_reported":1720213679,"current_range_meters":31200,"station_id":"ce4bh192rcd13ifvqdb0","pricing_plan_id":"cebpf4jnsgd1na2vs0mg"},{"bike_id":"2d151050-0c16-4755-902a-f5ccb06569fc","system_id":"levelo_inurba_marseille","lat":43.30089,"lon":5.39075,"is_reserved":false,"is_disabled":false,"rental_uris":{"android":"levelo://app?vid=2d151050-0c16-4755-902a-f5ccb06569fc","ios":"levelo://app?vid=2d151050-0c16-4755-902a-f5ccb06569fc"},"vehicle_type_id":"4","last_reported":1720213679,"current_range_meters":17600,"station_id":"ce4bh192rcd13ifvqdb0","pricing_plan_id":"cebpf4jnsgd1na2vs0mg"},{"bike_id":"64160d1d-c4f1-4793-95fb-1b5fbf35ce72","system_id":"levelo_inurba_marseille","lat":43.30085,"lon":5.390856,"is_reserved":false,"is_disabled":false,"rental_uris":{"android":"levelo://app?vid=64160d1d-c4f1-4793-95fb-1b5fbf35ce72","ios":"levelo://app?vid=64160d1d-c4f1-4793-95fb-1b5fbf35ce72"},"vehicle_type_id":"4","last_reported":1720213679,"current_range_meters":31200,"station_id":"ce4bh192rcd13ifvqdb0","pricing_plan_id":"cebpf4jnsgd1na2vs0mg"},{"bike_id":"44e92258-3c99-48f2-961c-1f73cd5ff3ec","system_id":"levelo_inurba_marseille","lat":43.30087,"lon":5.39079,"is_reserved":false,"is_disabled":false,"rental_uris":{"android":"levelo://app?vid=44e92258-3c99-48f2-961c-1f73cd5ff3ec","ios":"levelo://app?vid=44e92258-3c99-48f2-961c-1f73cd5ff3ec"},"vehicle_type_id":"4","last_reported":1720213679,"current_range_meters":7200,"station_id":"ce4bh192rcd13ifvqdb0","pricing_plan_id":"cebpf4jnsgd1na2vs0mg"},{"bike_id":"007453ca-14fa-4721-8c05-42a3b0856351","system_id":"levelo_inurba_marseille","lat":43.29852,"lon":5.38842,"is_reserved":false,"is_disabled":false,"rental_uris":{"android":"levelo://app?vid=007453ca-14fa-4721-8c05-42a3b0856351","ios":"levelo://app?vid=007453ca-14fa-4721-8c05-42a3b0856351"},"vehicle_type_id":"4","last_reported":1720213679,"current_range_meters":27600,"station_id":"","pricing_plan_id":"cebpf4jnsgd1na2vs0mg"},{"bike_id":"fff3735e-8927-47bd-ac1f-b48e47314709","system_id":"levelo_inurba_marseille","lat":43.298764,"lon":5.388973,"is_reserved":false,"is_disabled":false,"rental_uris":{"android":"levelo://app?vid=fff3735e-8927-47bd-ac1f-b48e47314709","ios":"levelo://app?vid=fff3735e-8927-47bd-ac1f-b48e47314709"},"vehicle_type_id":"4","last_reported":1720213679,"current_range_meters":14800,"station_id":"ce4bh392rcd13ifvqdl0","pricing_plan_id":"cebpf4jnsgd1na2vs0mg"},{"bike_id":"f6aaa641-dddb-4b91-be99-91cde80fb0ea","system_id":"levelo_inurba_marseille","lat":43.29173,"lon":5.37148,"is_reserved":false,"is_disabled":false,"rental_uris":{"android":"levelo://app?vid=f6aaa641-dddb-4b91-be99-91cde80fb0ea","ios":"levelo://app?vid=f6aaa641-dddb-4b91-be99-91cde80fb0ea"},"vehicle_type_id":"4","last_reported":1720213679,"current_range_meters":0,"station_id":"ce4bha92rcd13ifvqeh0","pricing_plan_id":"cebpf4jnsgd1na2vs0mg"},{"bike_id":"6aa04129-bcf6-4464-ad11-c402bd15b17f","system_id":"levelo_inurba_marseille","lat":43.29878,"lon":5.38898,"is_reserved":false,"is_disabled":false,"rental_uris":{"android":"levelo://app?vid=6aa04129-bcf6-4464-ad11-c402bd15b17f","ios":"levelo://app?vid=6aa04129-bcf6-4464-ad11-c402bd15b17f"},"vehicle_type_id":"4","last_reported":1720213679,"current_range_meters":29200,"station_id":"","pricing_plan_id":"cebpf4jnsgd1na2vs0mg"},{"bike_id":"4d689993-4624-41b8-9419-dccb29008fa2","system_id":"levelo_inurba_marseille","lat":43.291671,"lon":5.371575,"is_reserved":false,"is_disabled":false,"rental_uris":{"android":"levelo://app?vid=4d689993-4624-41b8-9419-dccb29008fa2","ios":"levelo://app?vid=4d689993-4624-41b8-9419-dccb29008fa2"},"vehicle_type_id":"4","last_reported":1720213679,"current_range_meters":11200,"station_id":"ce4bha92rcd13ifvqeh0","pricing_plan_id":"cebpf4jnsgd1na2vs0mg"},{"bike_id":"0e1d1b49-6312-49e8-b83a-a1feac6e7d21","system_id":"levelo_inurba_marseille","lat":43.298764,"lon":5.388973,"is_reserved":false,"is_disabled":false,"rental_uris":{"android":"levelo://app?vid=0e1d1b49-6312-49e8-b83a-a1feac6e7d21","ios":"levelo://app?vid=0e1d1b49-6312-49e8-b83a-a1feac6e7d21"},"vehicle_type_id":"4","last_reported":1720213679,"current_range_meters":0,"station_id":"ce4bh392rcd13ifvqdl0","pricing_plan_id":"cebpf4jnsgd1na2vs0mg"},{"bike_id":"c28deaa1-9241-41c8-aa05-1f5df2608b95","system_id":"levelo_inurba_marseille","lat":43.298764,"lon":5.388973,"is_reserved":false,"is_disabled":false,"rental_uris":{"android":"levelo://app?vid=c28deaa1-9241-41c8-aa05-1f5df2608b95","ios":"levelo://app?vid=c28deaa1-9241-41c8-aa05-1f5df2608b95"},"vehicle_type_id":"4","last_reported":1720213679,"current_range_meters":20800,"station_id":"ce4bh392rcd13ifvqdl0","pricing_plan_id":"cebpf4jnsgd1na2vs0mg"},{"bike_id":"dcfa8c99-d300-44cf-852b-d6681f3de0ca","system_id":"levelo_inurba_marseille","lat":43.291917,"lon":5.37516,"is_reserved":false,"is_disabled":false,"rental_uris":{"android":"levelo://app?vid=dcfa8c99-d300-44cf-852b-d6681f3de0ca","ios":"levelo://app?vid=dcfa8c99-d300-44cf-852b-d6681f3de0ca"},"vehicle_type_id":"4","last_reported":1720213679,"current_range_meters":0,"station_id":"","pricing_plan_id":"cebpf4jnsgd1na2vs0mg"},{"bike_id":"e3cbbfd4-7429-49e6-b4fa-ee1a9b9398b1","system_id":"levelo_inurba_marseille","lat":43.309047,"lon":5.396551,"is_reserved":false,"is_disabled":false,"rental_uris":{"android":"levelo://app?vid=e3cbbfd4-7429-49e6-b4fa-ee1a9b9398b1","ios":"levelo://app?vid=e3cbbfd4-7429-49e6-b4fa-ee1a9b9398b1"},"vehicle_type_id":"4","last_reported":1720213679,"current_range_meters":29200,"station_id":"ce4bh012rcd13ifvqcv0","pricing_plan_id":"cebpf4jnsgd1na2vs0mg"},{"bike_id":"78ed23d1-dffa-4901-9af7-41fb685458f1","system_id":"levelo_inurba_marseille","lat":43.309038,"lon":5.396546,"is_reserved":false,"is_disabled":false,"rental_uris":{"android":"levelo://app?vid=78ed23d1-dffa-4901-9af7-41fb685458f1","ios":"levelo://app?vid=78ed23d1-dffa-4901-9af7-41fb685458f1"},"vehicle_type_id":"4","last_reported":1720213679,"current_range_meters":22800,"station_id":"ce4bh012rcd13ifvqcv0","pricing_plan_id":"cebpf4jnsgd1na2vs0mg"},{"bike_id":"4dc89812-0e03-4410-942b-8ff11f8a8f31","system_id":"levelo_inurba_marseille","lat":43.313291,"lon":5.396838,"is_reserved":false,"is_disabled":false,"rental_uris":{"android":"levelo://app?vid=4dc89812-0e03-4410-942b-8ff11f8a8f31","ios":"levelo://app?vid=4dc89812-0e03-4410-942b-8ff11f8a8f31"},"vehicle_type_id":"4","last_reported":1720213679,"current_range_meters":27200,"station_id":"ce4bgvp2rcd13ifvqcu0","pricing_plan_id":"cebpf4jnsgd1na2vs0mg"},{"bike_id":"596a4d4c-683d-44df-a5dc-3341d09a436b","system_id":"levelo_inurba_marseille","lat":43.313291,"lon":5.396838,"is_reserved":false,"is_disabled":false,"rental_uris":{"android":"levelo://app?vid=596a4d4c-683d-44df-a5dc-3341d09a436b","ios":"levelo://app?vid=596a4d4c-683d-44df-a5dc-3341d09a436b"},"vehicle_type_id":"4","last_reported":1720213679,"current_range_meters":8800,"station_id":"ce4bgvp2rcd13ifvqcu0","pricing_plan_id":"cebpf4jnsgd1na2vs0mg"},{"bike_id":"185b6586-db47-4995-ae89-7a10ba170073","system_id":"levelo_inurba_marseille","lat":43.31326,"lon":5.39686,"is_reserved":false,"is_disabled":false,"rental_uris":{"android":"levelo://app?vid=185b6586-db47-4995-ae89-7a10ba170073","ios":"levelo://app?vid=185b6586-db47-4995-ae89-7a10ba170073"},"vehicle_type_id":"4","last_reported":1720213679,"current_range_meters":9200,"station_id":"ce4bgvp2rcd13ifvqcu0","pricing_plan_id":"cebpf4jnsgd1na2vs0mg"},{"bike_id":"56bfde22-8d27-4344-8637-184d20dc68c2","system_id":"levelo_inurba_marseille","lat":43.313291,"lon":5.396838,"is_reserved":false,"is_disabled":false,"rental_uris":{"android":"levelo://app?vid=56bfde22-8d27-4344-8637-184d20dc68c2","ios":"levelo://app?vid=56bfde22-8d27-4344-8637-184d20dc68c2"},"vehicle_type_id":"4","last_reported":1720213679,"current_range_meters":14400,"station_id":"ce4bgvp2rcd13ifvqcu0","pricing_plan_id":"cebpf4jnsgd1na2vs0mg"},{"bike_id":"8e4b7847-fda0-4942-a45b-cbc7a737e447","system_id":"levelo_inurba_marseille","lat":43.313291,"lon":5.396838,"is_reserved":false,"is_disabled":false,"rental_uris":{"android":"levelo://app?vid=8e4b7847-fda0-4942-a45b-cbc7a737e447","ios":"levelo://app?vid=8e4b7847-fda0-4942-a45b-cbc7a737e447"},"vehicle_type_id":"4","last_reported":1720213679,"current_range_meters":8400,"station_id":"ce4bgvp2rcd13ifvqcu0","pricing_plan_id":"cebpf4jnsgd1na2vs0mg"},{"bike_id":"9435293b-c60d-4f95-9825-346fdf67013b","system_id":"levelo_inurba_marseille","lat":43.313291,"lon":5.396838,"is_reserved":false,"is_disabled":false,"rental_uris":{"android":"levelo://app?vid=9435293b-c60d-4f95-9825-346fdf67013b","ios":"levelo://app?vid=9435293b-c60d-4f95-9825-346fdf67013b"},"vehicle_type_id":"4","last_reported":1720213679,"current_range_meters":0,"station_id":"ce4bgvp2rcd13ifvqcu0","pricing_plan_id":"cebpf4jnsgd1na2vs0mg"},{"bike_id":"d3f6b268-75e9-4c08-ba0c-7c5baba1f34b","system_id":"levelo_inurba_marseille","lat":43.31327,"lon":5.3969,"is_reserved":false,"is_disabled":false,"rental_uris":{"android":"levelo://app?vid=d3f6b268-75e9-4c08-ba0c-7c5baba1f34b","ios":"levelo://app?vid=d3f6b268-75e9-4c08-ba0c-7c5baba1f34b"},"vehicle_type_id":"4","last_reported":1720213679,"current_range_meters":15600,"station_id":"ce4bgvp2rcd13ifvqcu0","pricing_plan_id":"cebpf4jnsgd1na2vs0mg"},{"bike_id":"a6bc10ac-e626-4d29-b13f-2e12729ab144","system_id":"levelo_inurba_marseille","lat":43.309038,"lon":5.396546,"is_reserved":false,"is_disabled":false,"rental_uris":{"android":"levelo://app?vid=a6bc10ac-e626-4d29-b13f-2e12729ab144","ios":"levelo://app?vid=a6bc10ac-e626-4d29-b13f-2e12729ab144"},"vehicle_type_id":"4","last_reported":1720213679,"current_range_meters":8000,"station_id":"ce4bh012rcd13ifvqcv0","pricing_plan_id":"cebpf4jnsgd1na2vs0mg"},{"bike_id":"52678d74-27b1-4327-a0e5-65a7b847449d","system_id":"levelo_inurba_marseille","lat":43.313291,"lon":5.396838,"is_reserved":false,"is_disabled":false,"rental_uris":{"android":"levelo://app?vid=52678d74-27b1-4327-a0e5-65a7b847449d","ios":"levelo://app?vid=52678d74-27b1-4327-a0e5-65a7b847449d"},"vehicle_type_id":"4","last_reported":1720213679,"current_range_meters":15600,"station_id":"ce4bgvp2rcd13ifvqcu0","pricing_plan_id":"cebpf4jnsgd1na2vs0mg"},{"bike_id":"6adaf1ea-88b6-4e11-86b2-fd34b0e1fdd7","system_id":"levelo_inurba_marseille","lat":43.309047,"lon":5.396551,"is_reserved":false,"is_disabled":false,"rental_uris":{"android":"levelo://app?vid=6adaf1ea-88b6-4e11-86b2-fd34b0e1fdd7","ios":"levelo://app?vid=6adaf1ea-88b6-4e11-86b2-fd34b0e1fdd7"},"vehicle_type_id":"4","last_reported":1720213679,"current_range_meters":5600,"station_id":"ce4bh012rcd13ifvqcv0","pricing_plan_id":"cebpf4jnsgd1na2vs0mg"},{"bike_id":"075a0c50-2217-4627-abc5-421dfc59ecbc","system_id":"levelo_inurba_marseille","lat":43.309038,"lon":5.396546,"is_reserved":false,"is_disabled":false,"rental_uris":{"android":"levelo://app?vid=075a0c50-2217-4627-abc5-421dfc59ecbc","ios":"levelo://app?vid=075a0c50-2217-4627-abc5-421dfc59ecbc"},"vehicle_type_id":"4","last_reported":1720213679,"current_range_meters":2000,"station_id":"ce4bh012rcd13ifvqcv0","pricing_plan_id":"cebpf4jnsgd1na2vs0mg"},{"bike_id":"b0bccf0e-5769-4150-b1d9-5f66e733b91c","system_id":"levelo_inurba_marseille","lat":43.309047,"lon":5.396551,"is_reserved":false,"is_disabled":false,"rental_uris":{"android":"levelo://app?vid=b0bccf0e-5769-4150-b1d9-5f66e733b91c","ios":"levelo://app?vid=b0bccf0e-5769-4150-b1d9-5f66e733b91c"},"vehicle_type_id":"4","last_reported":1720213679,"current_range_meters":5200,"station_id":"ce4bh012rcd13ifvqcv0","pricing_plan_id":"cebpf4jnsgd1na2vs0mg"},{"bike_id":"8e8bf407-c250-45e8-ae73-a86c09bd5953","system_id":"levelo_inurba_marseille","lat":43.309047,"lon":5.396551,"is_reserved":false,"is_disabled":false,"rental_uris":{"android":"levelo://app?vid=8e8bf407-c250-45e8-ae73-a86c09bd5953","ios":"levelo://app?vid=8e8bf407-c250-45e8-ae73-a86c09bd5953"},"vehicle_type_id":"4","last_reported":1720213679,"current_range_meters":13200,"station_id":"ce4bh012rcd13ifvqcv0","pricing_plan_id":"cebpf4jnsgd1na2vs0mg"},{"bike_id":"9e1a755e-9ebe-4f75-93ab-82b13464e2e7","system_id":"levelo_inurba_marseille","lat":43.29541,"lon":5.38539,"is_reserved":false,"is_disabled":false,"rental_uris":{"android":"levelo://app?vid=9e1a755e-9ebe-4f75-93ab-82b13464e2e7","ios":"levelo://app?vid=9e1a755e-9ebe-4f75-93ab-82b13464e2e7"},"vehicle_type_id":"4","last_reported":1720213679,"current_range_meters":24800,"station_id":"ce4bgih2rcd13ifvqba0","pricing_plan_id":"cebpf4jnsgd1na2vs0mg"},{"bike_id":"749da511-b1dc-4457-9e34-6ebc826e3567","system_id":"levelo_inurba_marseille","lat":43.29537,"lon":5.38533,"is_reserved":false,"is_disabled":false,"rental_uris":{"android":"levelo://app?vid=749da511-b1dc-4457-9e34-6ebc826e3567","ios":"levelo://app?vid=749da511-b1dc-4457-9e34-6ebc826e3567"},"vehicle_type_id":"4","last_reported":1720213679,"current_range_meters":21200,"station_id":"ce4bgih2rcd13ifvqba0","pricing_plan_id":"cebpf4jnsgd1na2vs0mg"},{"bike_id":"1a95ce8d-56b1-4014-be0c-02ba83489cc6","system_id":"levelo_inurba_marseille","lat":43.2954,"lon":5.38539,"is_reserved":false,"is_disabled":false,"rental_uris":{"android":"levelo://app?vid=1a95ce8d-56b1-4014-be0c-02ba83489cc6","ios":"levelo://app?vid=1a95ce8d-56b1-4014-be0c-02ba83489cc6"},"vehicle_type_id":"4","last_reported":1720213679,"current_range_meters":23600,"station_id":"ce4bgih2rcd13ifvqba0","pricing_plan_id":"cebpf4jnsgd1na2vs0mg"},{"bike_id":"0359699a-a16b-439f-9395-9e1eef64d690","system_id":"levelo_inurba_marseille","lat":43.295377,"lon":5.38539,"is_reserved":false,"is_disabled":false,"rental_uris":{"android":"levelo://app?vid=0359699a-a16b-439f-9395-9e1eef64d690","ios":"levelo://app?vid=0359699a-a16b-439f-9395-9e1eef64d690"},"vehicle_type_id":"4","last_reported":1720213679,"current_range_meters":10000,"station_id":"ce4bgih2rcd13ifvqba0","pricing_plan_id":"cebpf4jnsgd1na2vs0mg"},{"bike_id":"2b148098-1616-4c1d-b55c-f9f131408dd3","system_id":"levelo_inurba_marseille","lat":43.295353,"lon":5.38536,"is_reserved":false,"is_disabled":false,"rental_uris":{"android":"levelo://app?vid=2b148098-1616-4c1d-b55c-f9f131408dd3","ios":"levelo://app?vid=2b148098-1616-4c1d-b55c-f9f131408dd3"},"vehicle_type_id":"4","last_reported":1720213679,"current_range_meters":6400,"station_id":"ce4bgih2rcd13ifvqba0","pricing_plan_id":"cebpf4jnsgd1na2vs0mg"},{"bike_id":"6332d38c-9e24-4d55-a52d-08b4221caf53","system_id":"levelo_inurba_marseille","lat":43.309038,"lon":5.396546,"is_reserved":false,"is_disabled":false,"rental_uris":{"android":"levelo://app?vid=6332d38c-9e24-4d55-a52d-08b4221caf53","ios":"levelo://app?vid=6332d38c-9e24-4d55-a52d-08b4221caf53"},"vehicle_type_id":"4","last_reported":1720213679,"current_range_meters":4400,"station_id":"ce4bh012rcd13ifvqcv0","pricing_plan_id":"cebpf4jnsgd1na2vs0mg"},{"bike_id":"4c4fe3a5-e7df-424d-a71f-10431b430c61","system_id":"levelo_inurba_marseille","lat":43.29536,"lon":5.38538,"is_reserved":false,"is_disabled":false,"rental_uris":{"android":"levelo://app?vid=4c4fe3a5-e7df-424d-a71f-10431b430c61","ios":"levelo://app?vid=4c4fe3a5-e7df-424d-a71f-10431b430c61"},"vehicle_type_id":"4","last_reported":1720213679,"current_range_meters":16000,"station_id":"ce4bgih2rcd13ifvqba0","pricing_plan_id":"cebpf4jnsgd1na2vs0mg"},{"bike_id":"a23c705d-11e9-4bb9-a1d9-82b1189750d4","system_id":"levelo_inurba_marseille","lat":43.2953,"lon":5.3853,"is_reserved":false,"is_disabled":false,"rental_uris":{"android":"levelo://app?vid=a23c705d-11e9-4bb9-a1d9-82b1189750d4","ios":"levelo://app?vid=a23c705d-11e9-4bb9-a1d9-82b1189750d4"},"vehicle_type_id":"4","last_reported":1720213679,"current_range_meters":8800,"station_id":"ce4bgih2rcd13ifvqba0","pricing_plan_id":"cebpf4jnsgd1na2vs0mg"},{"bike_id":"096fb28a-d1ce-4a14-9110-cde162180ff2","system_id":"levelo_inurba_marseille","lat":43.29535,"lon":5.38539,"is_reserved":false,"is_disabled":false,"rental_uris":{"android":"levelo://app?vid=096fb28a-d1ce-4a14-9110-cde162180ff2","ios":"levelo://app?vid=096fb28a-d1ce-4a14-9110-cde162180ff2"},"vehicle_type_id":"4","last_reported":1720213679,"current_range_meters":16800,"station_id":"ce4bgih2rcd13ifvqba0","pricing_plan_id":"cebpf4jnsgd1na2vs0mg"},{"bike_id":"824cba30-5b44-4782-a456-d74bd63aa6d6","system_id":"levelo_inurba_marseille","lat":43.29535,"lon":5.38539,"is_reserved":false,"is_disabled":false,"rental_uris":{"android":"levelo://app?vid=824cba30-5b44-4782-a456-d74bd63aa6d6","ios":"levelo://app?vid=824cba30-5b44-4782-a456-d74bd63aa6d6"},"vehicle_type_id":"4","last_reported":1720213679,"current_range_meters":19600,"station_id":"ce4bgih2rcd13ifvqba0","pricing_plan_id":"cebpf4jnsgd1na2vs0mg"},{"bike_id":"e466ce99-1dd4-4399-9d9b-a08e1bc138e3","system_id":"levelo_inurba_marseille","lat":43.29535,"lon":5.38539,"is_reserved":false,"is_disabled":false,"rental_uris":{"android":"levelo://app?vid=e466ce99-1dd4-4399-9d9b-a08e1bc138e3","ios":"levelo://app?vid=e466ce99-1dd4-4399-9d9b-a08e1bc138e3"},"vehicle_type_id":"4","last_reported":1720213679,"current_range_meters":19600,"station_id":"ce4bgih2rcd13ifvqba0","pricing_plan_id":"cebpf4jnsgd1na2vs0mg"},{"bike_id":"6e70bb37-c8c7-4483-85b6-a124514b4fbe","system_id":"levelo_inurba_marseille","lat":43.295397,"lon":5.385475,"is_reserved":false,"is_disabled":false,"rental_uris":{"android":"levelo://app?vid=6e70bb37-c8c7-4483-85b6-a124514b4fbe","ios":"levelo://app?vid=6e70bb37-c8c7-4483-85b6-a124514b4fbe"},"vehicle_type_id":"4","last_reported":1720213679,"current_range_meters":30400,"station_id":"ce4bgih2rcd13ifvqba0","pricing_plan_id":"cebpf4jnsgd1na2vs0mg"},{"bike_id":"e129e00d-2165-4956-bebf-0494c4c47ebc","system_id":"levelo_inurba_marseille","lat":43.29531,"lon":5.38533,"is_reserved":false,"is_disabled":false,"rental_uris":{"android":"levelo://app?vid=e129e00d-2165-4956-bebf-0494c4c47ebc","ios":"levelo://app?vid=e129e00d-2165-4956-bebf-0494c4c47ebc"},"vehicle_type_id":"4","last_reported":1720213679,"current_range_meters":19600,"station_id":"ce4bgih2rcd13ifvqba0","pricing_plan_id":"cebpf4jnsgd1na2vs0mg"},{"bike_id":"415a4919-5896-4966-98e9-ed66fb870c29","system_id":"levelo_inurba_marseille","lat":43.29534,"lon":5.38539,"is_reserved":false,"is_disabled":false,"rental_uris":{"android":"levelo://app?vid=415a4919-5896-4966-98e9-ed66fb870c29","ios":"levelo://app?vid=415a4919-5896-4966-98e9-ed66fb870c29"},"vehicle_type_id":"4","last_reported":1720213679,"current_range_meters":10000,"station_id":"ce4bgih2rcd13ifvqba0","pricing_plan_id":"cebpf4jnsgd1na2vs0mg"},{"bike_id":"8e18d821-b283-4473-8451-68dfb696959c","system_id":"levelo_inurba_marseille","lat":43.295302,"lon":5.385325,"is_reserved":false,"is_disabled":false,"rental_uris":{"android":"levelo://app?vid=8e18d821-b283-4473-8451-68dfb696959c","ios":"levelo://app?vid=8e18d821-b283-4473-8451-68dfb696959c"},"vehicle_type_id":"4","last_reported":1720213679,"current_range_meters":30400,"station_id":"ce4bgih2rcd13ifvqba0","pricing_plan_id":"cebpf4jnsgd1na2vs0mg"},{"bike_id":"78f2cbbe-913e-4652-a2aa-c2db92127fb1","system_id":"levelo_inurba_marseille","lat":43.29534,"lon":5.3854,"is_reserved":false,"is_disabled":false,"rental_uris":{"android":"levelo://app?vid=78f2cbbe-913e-4652-a2aa-c2db92127fb1","ios":"levelo://app?vid=78f2cbbe-913e-4652-a2aa-c2db92127fb1"},"vehicle_type_id":"4","last_reported":1720213679,"current_range_meters":14400,"station_id":"ce4bgih2rcd13ifvqba0","pricing_plan_id":"cebpf4jnsgd1na2vs0mg"},{"bike_id":"f88361e6-fe46-48a4-a677-f82589ed5e6d","system_id":"levelo_inurba_marseille","lat":43.29537,"lon":5.38546,"is_reserved":false,"is_disabled":false,"rental_uris":{"android":"levelo://app?vid=f88361e6-fe46-48a4-a677-f82589ed5e6d","ios":"levelo://app?vid=f88361e6-fe46-48a4-a677-f82589ed5e6d"},"vehicle_type_id":"4","last_reported":1720213679,"current_range_meters":5600,"station_id":"ce4bgih2rcd13ifvqba0","pricing_plan_id":"cebpf4jnsgd1na2vs0mg"},{"bike_id":"3fdf252a-e563-42db-acb4-808f03db86b0","system_id":"levelo_inurba_marseille","lat":43.29533,"lon":5.38539,"is_reserved":false,"is_disabled":false,"rental_uris":{"android":"levelo://app?vid=3fdf252a-e563-42db-acb4-808f03db86b0","ios":"levelo://app?vid=3fdf252a-e563-42db-acb4-808f03db86b0"},"vehicle_type_id":"4","last_reported":1720213679,"current_range_meters":13200,"station_id":"ce4bgih2rcd13ifvqba0","pricing_plan_id":"cebpf4jnsgd1na2vs0mg"},{"bike_id":"ca1f76b4-692b-49f8-a333-c9caf8f5aa6a","system_id":"levelo_inurba_marseille","lat":43.29531,"lon":5.38536,"is_reserved":false,"is_disabled":false,"rental_uris":{"android":"levelo://app?vid=ca1f76b4-692b-49f8-a333-c9caf8f5aa6a","ios":"levelo://app?vid=ca1f76b4-692b-49f8-a333-c9caf8f5aa6a"},"vehicle_type_id":"4","last_reported":1720213679,"current_range_meters":9200,"station_id":"ce4bgih2rcd13ifvqba0","pricing_plan_id":"cebpf4jnsgd1na2vs0mg"},{"bike_id":"d31db023-1e1b-4b8e-a7f7-0fa78a9dbcb5","system_id":"levelo_inurba_marseille","lat":43.2953,"lon":5.38535,"is_reserved":false,"is_disabled":false,"rental_uris":{"android":"levelo://app?vid=d31db023-1e1b-4b8e-a7f7-0fa78a9dbcb5","ios":"levelo://app?vid=d31db023-1e1b-4b8e-a7f7-0fa78a9dbcb5"},"vehicle_type_id":"4","last_reported":1720213679,"current_range_meters":21200,"station_id":"ce4bgih2rcd13ifvqba0","pricing_plan_id":"cebpf4jnsgd1na2vs0mg"},{"bike_id":"e21be75d-ef0e-4f41-b876-49774e8eaa1c","system_id":"levelo_inurba_marseille","lat":43.29529,"lon":5.38535,"is_reserved":false,"is_disabled":false,"rental_uris":{"android":"levelo://app?vid=e21be75d-ef0e-4f41-b876-49774e8eaa1c","ios":"levelo://app?vid=e21be75d-ef0e-4f41-b876-49774e8eaa1c"},"vehicle_type_id":"4","last_reported":1720213679,"current_range_meters":25600,"station_id":"ce4bgih2rcd13ifvqba0","pricing_plan_id":"cebpf4jnsgd1na2vs0mg"},{"bike_id":"9b951ad9-aa6e-4991-8097-5ea345619bd3","system_id":"levelo_inurba_marseille","lat":43.29534,"lon":5.38545,"is_reserved":false,"is_disabled":false,"rental_uris":{"android":"levelo://app?vid=9b951ad9-aa6e-4991-8097-5ea345619bd3","ios":"levelo://app?vid=9b951ad9-aa6e-4991-8097-5ea345619bd3"},"vehicle_type_id":"4","last_reported":1720213679,"current_range_meters":28400,"station_id":"ce4bgih2rcd13ifvqba0","pricing_plan_id":"cebpf4jnsgd1na2vs0mg"},{"bike_id":"a4cbbf3e-bd03-4d06-a994-f55e769d9685","system_id":"levelo_inurba_marseille","lat":43.295273,"lon":5.38534,"is_reserved":false,"is_disabled":false,"rental_uris":{"android":"levelo://app?vid=a4cbbf3e-bd03-4d06-a994-f55e769d9685","ios":"levelo://app?vid=a4cbbf3e-bd03-4d06-a994-f55e769d9685"},"vehicle_type_id":"4","last_reported":1720213679,"current_range_meters":15200,"station_id":"ce4bgih2rcd13ifvqba0","pricing_plan_id":"cebpf4jnsgd1na2vs0mg"},{"bike_id":"e6d74a8f-ad0d-43c1-9b4f-fa0e0c11d8c8","system_id":"levelo_inurba_marseille","lat":43.29534,"lon":5.38546,"is_reserved":false,"is_disabled":false,"rental_uris":{"android":"levelo://app?vid=e6d74a8f-ad0d-43c1-9b4f-fa0e0c11d8c8","ios":"levelo://app?vid=e6d74a8f-ad0d-43c1-9b4f-fa0e0c11d8c8"},"vehicle_type_id":"4","last_reported":1720213679,"current_range_meters":23600,"station_id":"ce4bgih2rcd13ifvqba0","pricing_plan_id":"cebpf4jnsgd1na2vs0mg"},{"bike_id":"0c5327a6-306a-4525-b2c6-f18328802607","system_id":"levelo_inurba_marseille","lat":43.295305,"lon":5.385408,"is_reserved":false,"is_disabled":false,"rental_uris":{"android":"levelo://app?vid=0c5327a6-306a-4525-b2c6-f18328802607","ios":"levelo://app?vid=0c5327a6-306a-4525-b2c6-f18328802607"},"vehicle_type_id":"4","last_reported":1720213679,"current_range_meters":12000,"station_id":"ce4bgih2rcd13ifvqba0","pricing_plan_id":"cebpf4jnsgd1na2vs0mg"},{"bike_id":"5406295b-0766-4f9b-ab0b-9e1b7504ed63","system_id":"levelo_inurba_marseille","lat":43.2953,"lon":5.3854,"is_reserved":false,"is_disabled":false,"rental_uris":{"android":"levelo://app?vid=5406295b-0766-4f9b-ab0b-9e1b7504ed63","ios":"levelo://app?vid=5406295b-0766-4f9b-ab0b-9e1b7504ed63"},"vehicle_type_id":"4","last_reported":1720213679,"current_range_meters":20000,"station_id":"ce4bgih2rcd13ifvqba0","pricing_plan_id":"cebpf4jnsgd1na2vs0mg"},{"bike_id":"67133372-01f9-4e07-8803-368687e28662","system_id":"levelo_inurba_marseille","lat":43.29525,"lon":5.38534,"is_reserved":false,"is_disabled":false,"rental_uris":{"android":"levelo://app?vid=67133372-01f9-4e07-8803-368687e28662","ios":"levelo://app?vid=67133372-01f9-4e07-8803-368687e28662"},"vehicle_type_id":"4","last_reported":1720213679,"current_range_meters":27600,"station_id":"ce4bgih2rcd13ifvqba0","pricing_plan_id":"cebpf4jnsgd1na2vs0mg"},{"bike_id":"3278c636-886a-4eea-b273-293ef0795848","system_id":"levelo_inurba_marseille","lat":43.2953,"lon":5.38543,"is_reserved":false,"is_disabled":false,"rental_uris":{"android":"levelo://app?vid=3278c636-886a-4eea-b273-293ef0795848","ios":"levelo://app?vid=3278c636-886a-4eea-b273-293ef0795848"},"vehicle_type_id":"4","last_reported":1720213679,"current_range_meters":14400,"station_id":"ce4bgih2rcd13ifvqba0","pricing_plan_id":"cebpf4jnsgd1na2vs0mg"},{"bike_id":"7dccdec7-f5b7-4500-9b8d-f002fd201174","system_id":"levelo_inurba_marseille","lat":43.29529,"lon":5.38542,"is_reserved":false,"is_disabled":false,"rental_uris":{"android":"levelo://app?vid=7dccdec7-f5b7-4500-9b8d-f002fd201174","ios":"levelo://app?vid=7dccdec7-f5b7-4500-9b8d-f002fd201174"},"vehicle_type_id":"4","last_reported":1720213679,"current_range_meters":21600,"station_id":"ce4bgih2rcd13ifvqba0","pricing_plan_id":"cebpf4jnsgd1na2vs0mg"},{"bike_id":"35bbef17-dc00-4547-809b-11df97fea8ae","system_id":"levelo_inurba_marseille","lat":43.2953,"lon":5.38545,"is_reserved":false,"is_disabled":false,"rental_uris":{"android":"levelo://app?vid=35bbef17-dc00-4547-809b-11df97fea8ae","ios":"levelo://app?vid=35bbef17-dc00-4547-809b-11df97fea8ae"},"vehicle_type_id":"4","last_reported":1720213679,"current_range_meters":22400,"station_id":"ce4bgih2rcd13ifvqba0","pricing_plan_id":"cebpf4jnsgd1na2vs0mg"},{"bike_id":"f7fceddd-32aa-484a-b1ad-76806d496720","system_id":"levelo_inurba_marseille","lat":43.29527,"lon":5.38543,"is_reserved":false,"is_disabled":false,"rental_uris":{"android":"levelo://app?vid=f7fceddd-32aa-484a-b1ad-76806d496720","ios":"levelo://app?vid=f7fceddd-32aa-484a-b1ad-76806d496720"},"vehicle_type_id":"4","last_reported":1720213679,"current_range_meters":30400,"station_id":"ce4bgih2rcd13ifvqba0","pricing_plan_id":"cebpf4jnsgd1na2vs0mg"},{"bike_id":"d94f19e3-cdfb-42d4-a3e7-07d37e9987a9","system_id":"levelo_inurba_marseille","lat":43.290779,"lon":5.371482,"is_reserved":false,"is_disabled":false,"rental_uris":{"android":"levelo://app?vid=d94f19e3-cdfb-42d4-a3e7-07d37e9987a9","ios":"levelo://app?vid=d94f19e3-cdfb-42d4-a3e7-07d37e9987a9"},"vehicle_type_id":"4","last_reported":1720213679,"current_range_meters":10400,"station_id":"ce4bh5p2rcd13ifvqe4g","pricing_plan_id":"cebpf4jnsgd1na2vs0mg"},{"bike_id":"69f75e05-8b18-41b3-a569-aac3601c8a2e","system_id":"levelo_inurba_marseille","lat":43.302008,"lon":5.394694,"is_reserved":false,"is_disabled":false,"rental_uris":{"android":"levelo://app?vid=69f75e05-8b18-41b3-a569-aac3601c8a2e","ios":"levelo://app?vid=69f75e05-8b18-41b3-a569-aac3601c8a2e"},"vehicle_type_id":"4","last_reported":1720213679,"current_range_meters":19600,"station_id":"ce4bh0p2rcd13ifvqd70","pricing_plan_id":"cebpf4jnsgd1na2vs0mg"},{"bike_id":"ea7cbdbe-40f6-4859-8229-817c4f856992","system_id":"levelo_inurba_marseille","lat":43.30213,"lon":5.3947,"is_reserved":false,"is_disabled":false,"rental_uris":{"android":"levelo://app?vid=ea7cbdbe-40f6-4859-8229-817c4f856992","ios":"levelo://app?vid=ea7cbdbe-40f6-4859-8229-817c4f856992"},"vehicle_type_id":"4","last_reported":1720213679,"current_range_meters":17200,"station_id":"ce4bh0p2rcd13ifvqd70","pricing_plan_id":"cebpf4jnsgd1na2vs0mg"},{"bike_id":"91357ab5-dd8e-4f9d-9531-f9b95a8f043e","system_id":"levelo_inurba_marseille","lat":43.30211,"lon":5.3947,"is_reserved":false,"is_disabled":false,"rental_uris":{"android":"levelo://app?vid=91357ab5-dd8e-4f9d-9531-f9b95a8f043e","ios":"levelo://app?vid=91357ab5-dd8e-4f9d-9531-f9b95a8f043e"},"vehicle_type_id":"4","last_reported":1720213679,"current_range_meters":20000,"station_id":"ce4bh0p2rcd13ifvqd70","pricing_plan_id":"cebpf4jnsgd1na2vs0mg"},{"bike_id":"198fd6aa-96f0-4353-8df6-8179b48c497b","system_id":"levelo_inurba_marseille","lat":43.30211,"lon":5.39473,"is_reserved":false,"is_disabled":false,"rental_uris":{"android":"levelo://app?vid=198fd6aa-96f0-4353-8df6-8179b48c497b","ios":"levelo://app?vid=198fd6aa-96f0-4353-8df6-8179b48c497b"},"vehicle_type_id":"4","last_reported":1720213679,"current_range_meters":4800,"station_id":"ce4bh0p2rcd13ifvqd70","pricing_plan_id":"cebpf4jnsgd1na2vs0mg"},{"bike_id":"abf25e9f-b0af-4496-bf8d-1e89ca4a6903","system_id":"levelo_inurba_marseille","lat":43.30209,"lon":5.39477,"is_reserved":false,"is_disabled":false,"rental_uris":{"android":"levelo://app?vid=abf25e9f-b0af-4496-bf8d-1e89ca4a6903","ios":"levelo://app?vid=abf25e9f-b0af-4496-bf8d-1e89ca4a6903"},"vehicle_type_id":"4","last_reported":1720213679,"current_range_meters":4000,"station_id":"ce4bh0p2rcd13ifvqd70","pricing_plan_id":"cebpf4jnsgd1na2vs0mg"},{"bike_id":"bf2aba66-433e-4b8c-b91b-45006f54c910","system_id":"levelo_inurba_marseille","lat":43.29042,"lon":5.375567,"is_reserved":false,"is_disabled":false,"rental_uris":{"android":"levelo://app?vid=bf2aba66-433e-4b8c-b91b-45006f54c910","ios":"levelo://app?vid=bf2aba66-433e-4b8c-b91b-45006f54c910"},"vehicle_type_id":"4","last_reported":1720213679,"current_range_meters":0,"station_id":"ce4bh692rcd13ifvqe90","pricing_plan_id":"cebpf4jnsgd1na2vs0mg"},{"bike_id":"6a2f66ff-8d11-4d7b-af33-472790a1dfca","system_id":"levelo_inurba_marseille","lat":43.294162,"lon":5.386292,"is_reserved":false,"is_disabled":false,"rental_uris":{"android":"levelo://app?vid=6a2f66ff-8d11-4d7b-af33-472790a1dfca","ios":"levelo://app?vid=6a2f66ff-8d11-4d7b-af33-472790a1dfca"},"vehicle_type_id":"4","last_reported":1720213679,"current_range_meters":24400,"station_id":"ce4bh2h2rcd13ifvqdh0","pricing_plan_id":"cebpf4jnsgd1na2vs0mg"},{"bike_id":"b6a01365-b617-486f-a347-66c343bc9b62","system_id":"levelo_inurba_marseille","lat":43.294209,"lon":5.386175,"is_reserved":false,"is_disabled":false,"rental_uris":{"android":"levelo://app?vid=b6a01365-b617-486f-a347-66c343bc9b62","ios":"levelo://app?vid=b6a01365-b617-486f-a347-66c343bc9b62"},"vehicle_type_id":"4","last_reported":1720213679,"current_range_meters":8800,"station_id":"ce4bh2h2rcd13ifvqdh0","pricing_plan_id":"cebpf4jnsgd1na2vs0mg"},{"bike_id":"f2e83e9b-cd45-4483-b396-992c577b4518","system_id":"levelo_inurba_marseille","lat":43.294199,"lon":5.38616,"is_reserved":false,"is_disabled":false,"rental_uris":{"android":"levelo://app?vid=f2e83e9b-cd45-4483-b396-992c577b4518","ios":"levelo://app?vid=f2e83e9b-cd45-4483-b396-992c577b4518"},"vehicle_type_id":"4","last_reported":1720213679,"current_range_meters":21200,"station_id":"ce4bh2h2rcd13ifvqdh0","pricing_plan_id":"cebpf4jnsgd1na2vs0mg"},{"bike_id":"fad5d2a9-4708-42fb-8f6f-bc00913fa635","system_id":"levelo_inurba_marseille","lat":43.29421,"lon":5.38618,"is_reserved":false,"is_disabled":false,"rental_uris":{"android":"levelo://app?vid=fad5d2a9-4708-42fb-8f6f-bc00913fa635","ios":"levelo://app?vid=fad5d2a9-4708-42fb-8f6f-bc00913fa635"},"vehicle_type_id":"4","last_reported":1720213679,"current_range_meters":13200,"station_id":"ce4bh2h2rcd13ifvqdh0","pricing_plan_id":"cebpf4jnsgd1na2vs0mg"},{"bike_id":"5e1ca39a-1df6-4397-ad47-e957aa2d5f3d","system_id":"levelo_inurba_marseille","lat":43.29422,"lon":5.3862,"is_reserved":false,"is_disabled":false,"rental_uris":{"android":"levelo://app?vid=5e1ca39a-1df6-4397-ad47-e957aa2d5f3d","ios":"levelo://app?vid=5e1ca39a-1df6-4397-ad47-e957aa2d5f3d"},"vehicle_type_id":"4","last_reported":1720213679,"current_range_meters":4400,"station_id":"ce4bh2h2rcd13ifvqdh0","pricing_plan_id":"cebpf4jnsgd1na2vs0mg"},{"bike_id":"946abe18-679f-41cd-8013-dffe135a8cef","system_id":"levelo_inurba_marseille","lat":43.2942,"lon":5.38617,"is_reserved":false,"is_disabled":false,"rental_uris":{"android":"levelo://app?vid=946abe18-679f-41cd-8013-dffe135a8cef","ios":"levelo://app?vid=946abe18-679f-41cd-8013-dffe135a8cef"},"vehicle_type_id":"4","last_reported":1720213679,"current_range_meters":3600,"station_id":"ce4bh2h2rcd13ifvqdh0","pricing_plan_id":"cebpf4jnsgd1na2vs0mg"},{"bike_id":"1220769e-df6a-4a50-8292-9c8003e5d64f","system_id":"levelo_inurba_marseille","lat":43.294257,"lon":5.386277,"is_reserved":false,"is_disabled":false,"rental_uris":{"android":"levelo://app?vid=1220769e-df6a-4a50-8292-9c8003e5d64f","ios":"levelo://app?vid=1220769e-df6a-4a50-8292-9c8003e5d64f"},"vehicle_type_id":"4","last_reported":1720213679,"current_range_meters":16400,"station_id":"ce4bh2h2rcd13ifvqdh0","pricing_plan_id":"cebpf4jnsgd1na2vs0mg"},{"bike_id":"ef7d11c9-d367-4adf-9d13-312631157a7e","system_id":"levelo_inurba_marseille","lat":43.2942,"lon":5.38618,"is_reserved":false,"is_disabled":false,"rental_uris":{"android":"levelo://app?vid=ef7d11c9-d367-4adf-9d13-312631157a7e","ios":"levelo://app?vid=ef7d11c9-d367-4adf-9d13-312631157a7e"},"vehicle_type_id":"4","last_reported":1720213679,"current_range_meters":26000,"station_id":"ce4bh2h2rcd13ifvqdh0","pricing_plan_id":"cebpf4jnsgd1na2vs0mg"},{"bike_id":"eae0a859-7798-4034-9724-6ba24a1251af","system_id":"levelo_inurba_marseille","lat":43.2942,"lon":5.38618,"is_reserved":false,"is_disabled":false,"rental_uris":{"android":"levelo://app?vid=eae0a859-7798-4034-9724-6ba24a1251af","ios":"levelo://app?vid=eae0a859-7798-4034-9724-6ba24a1251af"},"vehicle_type_id":"4","last_reported":1720213679,"current_range_meters":19200,"station_id":"ce4bh2h2rcd13ifvqdh0","pricing_plan_id":"cebpf4jnsgd1na2vs0mg"},{"bike_id":"f9e19143-1a96-4e4c-9a1d-0ce71ab6f919","system_id":"levelo_inurba_marseille","lat":43.29422,"lon":5.38623,"is_reserved":false,"is_disabled":false,"rental_uris":{"android":"levelo://app?vid=f9e19143-1a96-4e4c-9a1d-0ce71ab6f919","ios":"levelo://app?vid=f9e19143-1a96-4e4c-9a1d-0ce71ab6f919"},"vehicle_type_id":"4","last_reported":1720213679,"current_range_meters":17600,"station_id":"ce4bh2h2rcd13ifvqdh0","pricing_plan_id":"cebpf4jnsgd1na2vs0mg"},{"bike_id":"f8a4ce70-97ae-4b3c-81cd-4c0c3246fc24","system_id":"levelo_inurba_marseille","lat":43.29419,"lon":5.38619,"is_reserved":false,"is_disabled":false,"rental_uris":{"android":"levelo://app?vid=f8a4ce70-97ae-4b3c-81cd-4c0c3246fc24","ios":"levelo://app?vid=f8a4ce70-97ae-4b3c-81cd-4c0c3246fc24"},"vehicle_type_id":"4","last_reported":1720213679,"current_range_meters":16800,"station_id":"ce4bh2h2rcd13ifvqdh0","pricing_plan_id":"cebpf4jnsgd1na2vs0mg"},{"bike_id":"1f33b997-34bf-4b87-b952-426d281d2e77","system_id":"levelo_inurba_marseille","lat":43.29421,"lon":5.38623,"is_reserved":false,"is_disabled":false,"rental_uris":{"android":"levelo://app?vid=1f33b997-34bf-4b87-b952-426d281d2e77","ios":"levelo://app?vid=1f33b997-34bf-4b87-b952-426d281d2e77"},"vehicle_type_id":"4","last_reported":1720213679,"current_range_meters":4400,"station_id":"ce4bh2h2rcd13ifvqdh0","pricing_plan_id":"cebpf4jnsgd1na2vs0mg"},