{"last_updated":1711321651,"ttl":30,"version":"2.2","data":{"bikes":[{"bike_id":"e092e207-b0db-458d-bb27-a2ed46331867","system_id":"levelo_inurba_marseille","lat":43.309076,"lon":5.368465,"is_reserved":false,"is_disabled":false,"rental_uris":{"android":"levelo://app?vid=e092e207-b0db-458d-bb27-a2ed46331867","ios":"levelo://app?vid=e092e207-b0db-458d-bb27-a2ed46331867"},"vehicle_type_id":"4","last_reported":1711321651,"current_range_meters":0,"station_id":"ce4bgn92rcd13ifvqbvg","pricing_plan_id":"cebpf4jnsgd1na2vs0mg"},{"bike_id":"9f1ad4d7-6bff-42d9-b956-54f01badbfbb","system_id":"levelo_inurba_marseille","lat":43.314811,"lon":5.373103,"is_reserved":false,"is_disabled":false,"rental_uris":{"android":"levelo://app?vid=9f1ad4d7-6bff-42d9-b956-54f01badbfbb","ios":"levelo://app?vid=9f1ad4d7-6bff-42d9-b956-54f01badbfbb"},"vehicle_type_id":"4","last_reported":1711321651,"current_range_meters":28800,"station_id":"ce4bgt12rcd13ifvqcd0","pricing_plan_id":"cebpf4jnsgd1na2vs0mg"},{"bike_id":"26fc14ca-8d65-4ecd-afd7-0a1e28d1e3f8","system_id":"levelo_inurba_marseille","lat":43.314811,"lon":5.373103,"is_reserved":false,"is_disabled":false,"rental_uris":{"android":"levelo://app?vid=26fc14ca-8d65-4ecd-afd7-0a1e28d1e3f8","ios":"levelo://app?vid=26fc14ca-8d65-4ecd-afd7-0a1e28d1e3f8"},"vehicle_type_id":"4","last_reported":1711321651,"current_range_meters":11200,"station_id":"ce4bgt12rcd13ifvqcd0","pricing_plan_id":"cebpf4jnsgd1na2vs0mg"},{"bike_id":"360c19ec-5260-4156-83e2-0518c87891ee","system_id":"levelo_inurba_marseille","lat":43.314811,"lon":5.373104,"is_reserved":false,"is_disabled":false,"rental_uris":{"android":"levelo://app?vid=360c19ec-5260-4156-83e2-0518c87891ee","ios":"levelo://app?vid=360c19ec-5260-4156-83e2-0518c87891ee"},"vehicle_type_id":"4","last_reported":1711321651,"current_range_meters":11600,"station_id":"ce4bgt12rcd13ifvqcd0","pricing_plan_id":"cebpf4jnsgd1na2vs0mg"},{"bike_id":"8e3c5342-176b-4104-ba27-49a6731621cf","system_id":"levelo_inurba_marseille","lat":43.314811,"lon":5.373103,"is_reserved":false,"is_disabled":false,"rental_uris":{"android":"levelo://app?vid=8e3c5342-176b-4104-ba27-49a6731621cf","ios":"levelo://app?vid=8e3c5342-176b-4104-ba27-49a6731621cf"},"vehicle_type_id":"4","last_reported":1711321651,"current_range_meters":16000,"station_id":"ce4bgt12rcd13ifvqcd0","pricing_plan_id":"cebpf4jnsgd1na2vs0mg"},{"bike_id":"e6bbe78d-d7ca-489c-a5fe-e95aa65466f4","system_id":"levelo_inurba_marseille","lat":43.314811,"lon":5.373104,"is_reserved":false,"is_disabled":false,"rental_uris":{"android":"levelo://app?vid=e6bbe78d-d7ca-489c-a5fe-e95aa65466f4","ios":"levelo://app?vid=e6bbe78d-d7ca-489c-a5fe-e95aa65466f4"},"vehicle_type_id":"4","last_reported":1711321651,"current_range_meters":18800,"station_id":"ce4bgt12rcd13ifvqcd0","pricing_plan_id":"cebpf4jnsgd1na2vs0mg"},{"bike_id":"719ffbbd-e499-4184-9081-6ba60b0c7225","system_id":"levelo_inurba_marseille","lat":43.314811,"lon":5.373103,"is_reserved":false,"is_disabled":false,"rental_uris":{"android":"levelo://app?vid=719ffbbd-e499-4184-9081-6ba60b0c7225","ios":"levelo://app?vid=719ffbbd-e499-4184-9081-6ba60b0c7225"},"vehicle_type_id":"4","last_reported":1711321651,"current_range_meters":11600,"station_id":"ce4bgt12rcd13ifvqcd0","pricing_plan_id":"cebpf4jnsgd1na2vs0mg"},{"bike_id":"80eec124-62db-49dd-8eba-c92281aba383","system_id":"levelo_inurba_marseille","lat":43.309039,"lon":5.371797,"is_reserved":false,"is_disabled":false,"rental_uris":{"android":"levelo://app?vid=80eec124-62db-49dd-8eba-c92281aba383","ios":"levelo://app?vid=80eec124-62db-49dd-8eba-c92281aba383"},"vehicle_type_id":"4","last_reported":1711321651,"current_range_meters":14400,"station_id":"ce4bguh2rcd13ifvqckg","pricing_plan_id":"cebpf4jnsgd1na2vs0mg"},{"bike_id":"7e0695be-d6f8-4437-ab27-6e7a47d32ea4","system_id":"levelo_inurba_marseille","lat":43.309039,"lon":5.371797,"is_reserved":false,"is_disabled":false,"rental_uris":{"android":"levelo://app?vid=7e0695be-d6f8-4437-ab27-6e7a47d32ea4","ios":"levelo://app?vid=7e0695be-d6f8-4437-ab27-6e7a47d32ea4"},"vehicle_type_id":"4","last_reported":1711321651,"current_range_meters":21600,"station_id":"ce4bguh2rcd13ifvqckg","pricing_plan_id":"cebpf4jnsgd1na2vs0mg"},{"bike_id":"9d2d7fa2-81e6-4670-935f-9f988da935dc","system_id":"levelo_inurba_marseille","lat":43.309034,"lon":5.371783,"is_reserved":false,"is_disabled":false,"rental_uris":{"android":"levelo://app?vid=9d2d7fa2-81e6-4670-935f-9f988da935dc","ios":"levelo://app?vid=9d2d7fa2-81e6-4670-935f-9f988da935dc"},"vehicle_type_id":"4","last_reported":1711321651,"current_range_meters":14000,"station_id":"ce4bguh2rcd13ifvqckg","pricing_plan_id":"cebpf4jnsgd1na2vs0mg"},{"bike_id":"d8fa94b9-4926-4e4c-ba44-02e01e14379d","system_id":"levelo_inurba_marseille","lat":43.314254,"lon":5.374212,"is_reserved":false,"is_disabled":false,"rental_uris":{"android":"levelo://app?vid=d8fa94b9-4926-4e4c-ba44-02e01e14379d","ios":"levelo://app?vid=d8fa94b9-4926-4e4c-ba44-02e01e14379d"},"vehicle_type_id":"4","last_reported":1711321651,"current_range_meters":11200,"station_id":"","pricing_plan_id":"cebpf4jnsgd1na2vs0mg"},{"bike_id":"4f006df7-4021-4894-a978-e7fbd68140e6","system_id":"levelo_inurba_marseille","lat":43.313709,"lon":5.376991,"is_reserved":false,"is_disabled":false,"rental_uris":{"android":"levelo://app?vid=4f006df7-4021-4894-a978-e7fbd68140e6","ios":"levelo://app?vid=4f006df7-4021-4894-a978-e7fbd68140e6"},"vehicle_type_id":"4","last_reported":1711321651,"current_range_meters":6400,"station_id":"","pricing_plan_id":"cebpf4jnsgd1na2vs0mg"},{"bike_id":"b604e006-8fc6-4cc7-b08c-e8ebbf0b71ae","system_id":"levelo_inurba_marseille","lat":43.305368,"lon":5.367343,"is_reserved":false,"is_disabled":false,"rental_uris":{"android":"levelo://app?vid=b604e006-8fc6-4cc7-b08c-e8ebbf0b71ae","ios":"levelo://app?vid=b604e006-8fc6-4cc7-b08c-e8ebbf0b71ae"},"vehicle_type_id":"4","last_reported":1711321651,"current_range_meters":18000,"station_id":"ce4bgrp2rcd13ifvqc9g","pricing_plan_id":"cebpf4jnsgd1na2vs0mg"},{"bike_id":"b8c20bb1-da89-4e3f-a7d8-0bc087ba02cc","system_id":"levelo_inurba_marseille","lat":43.311131,"lon":5.377651,"is_reserved":false,"is_disabled":false,"rental_uris":{"android":"levelo://app?vid=b8c20bb1-da89-4e3f-a7d8-0bc087ba02cc","ios":"levelo://app?vid=b8c20bb1-da89-4e3f-a7d8-0bc087ba02cc"},"vehicle_type_id":"4","last_reported":1711321651,"current_range_meters":14400,"station_id":"ce4bgt92rcd13ifvqcg0","pricing_plan_id":"cebpf4jnsgd1na2vs0mg"},{"bike_id":"baf7d100-ecda-43ff-bf79-04b26554e095","system_id":"levelo_inurba_marseille","lat":43.311125,"lon":5.377624,"is_reserved":false,"is_disabled":false,"rental_uris":{"android":"levelo://app?vid=baf7d100-ecda-43ff-bf79-04b26554e095","ios":"levelo://app?vid=baf7d100-ecda-43ff-bf79-04b26554e095"},"vehicle_type_id":"4","last_reported":1711321651,"current_range_meters":19200,"station_id":"ce4bgt92rcd13ifvqcg0","pricing_plan_id":"cebpf4jnsgd1na2vs0mg"},{"bike_id":"a9d2b29c-d1b0-477b-868b-2043f5bea960","system_id":"levelo_inurba_marseille","lat":43.314811,"lon":5.373103,"is_reserved":false,"is_disabled":false,"rental_uris":{"android":"levelo://app?vid=a9d2b29c-d1b0-477b-868b-2043f5bea960","ios":"levelo://app?vid=a9d2b29c-d1b0-477b-868b-2043f5bea960"},"vehicle_type_id":"4","last_reported":1711321651,"current_range_meters":6800,"station_id":"ce4bgt12rcd13ifvqcd0","pricing_plan_id":"cebpf4jnsgd1na2vs0mg"},{"bike_id":"f646e9d4-1f5b-4abd-933d-d0bb398ee02d","system_id":"levelo_inurba_marseille","lat":43.311131,"lon":5.377651,"is_reserved":false,"is_disabled":false,"rental_uris":{"android":"levelo://app?vid=f646e9d4-1f5b-4abd-933d-d0bb398ee02d","ios":"levelo://app?vid=f646e9d4-1f5b-4abd-933d-d0bb398ee02d"},"vehicle_type_id":"4","last_reported":1711321651,"current_range_meters":0,"station_id":"ce4bgt92rcd13ifvqcg0","pricing_plan_id":"cebpf4jnsgd1na2vs0mg"},{"bike_id":"f8ecb559-939a-41f2-a843-b61bff54163b","system_id":"levelo_inurba_marseille","lat":43.311125,"lon":5.377624,"is_reserved":false,"is_disabled":false,"rental_uris":{"android":"levelo://app?vid=f8ecb559-939a-41f2-a843-b61bff54163b","ios":"levelo://app?vid=f8ecb559-939a-41f2-a843-b61bff54163b"},"vehicle_type_id":"4","last_reported":1711321651,"current_range_meters":17200,"station_id":"ce4bgt92rcd13ifvqcg0","pricing_plan_id":"cebpf4jnsgd1na2vs0mg"},{"bike_id":"dfa5cea6-054a-4dcb-968d-7117c1d5a31a","system_id":"levelo_inurba_marseille","lat":43.311125,"lon":5.377624,"is_reserved":false,"is_disabled":false,"rental_uris":{"android":"levelo://app?vid=dfa5cea6-054a-4dcb-968d-7117c1d5a31a","ios":"levelo://app?vid=dfa5cea6-054a-4dcb-968d-7117c1d5a31a"},"vehicle_type_id":"4","last_reported":1711321651,"current_range_meters":12800,"station_id":"ce4bgt92rcd13ifvqcg0","pricing_plan_id":"cebpf4jnsgd1na2vs0mg"},{"bike_id":"0ec07dfe-0dfe-4a14-9abd-6ebef2cc0e53","system_id":"levelo_inurba_marseille","lat":43.311125,"lon":5.377624,"is_reserved":false,"is_disabled":false,"rental_uris":{"android":"levelo://app?vid=0ec07dfe-0dfe-4a14-9abd-6ebef2cc0e53","ios":"levelo://app?vid=0ec07dfe-0dfe-4a14-9abd-6ebef2cc0e53"},"vehicle_type_id":"4","last_reported":1711321651,"current_range_meters":31600,"station_id":"ce4bgt92rcd13ifvqcg0","pricing_plan_id":"cebpf4jnsgd1na2vs0mg"},{"bike_id":"13987250-71d6-45ff-88b0-ae739c954815","system_id":"levelo_inurba_marseille","lat":43.311131,"lon":5.377651,"is_reserved":false,"is_disabled":false,"rental_uris":{"android":"levelo://app?vid=13987250-71d6-45ff-88b0-ae739c954815","ios":"levelo://app?vid=13987250-71d6-45ff-88b0-ae739c954815"},"vehicle_type_id":"4","last_reported":1711321651,"current_range_meters":14000,"station_id":"ce4bgt92rcd13ifvqcg0","pricing_plan_id":"cebpf4jnsgd1na2vs0mg"},{"bike_id":"d9710817-9b78-4c39-b029-ffaf370d0ca6","system_id":"levelo_inurba_marseille","lat":43.311125,"lon":5.377624,"is_reserved":false,"is_disabled":false,"rental_uris":{"android":"levelo://app?vid=d9710817-9b78-4c39-b029-ffaf370d0ca6","ios":"levelo://app?vid=d9710817-9b78-4c39-b029-ffaf370d0ca6"},"vehicle_type_id":"4","last_reported":1711321651,"current_range_meters":14000,"station_id":"ce4bgt92rcd13ifvqcg0","pricing_plan_id":"cebpf4jnsgd1na2vs0mg"},{"bike_id":"78986cc4-11d1-4dc6-8e76-e01ff4af5ed3","system_id":"levelo_inurba_marseille","lat":43.307945,"lon":5.376487,"is_reserved":false,"is_disabled":false,"rental_uris":{"android":"levelo://app?vid=78986cc4-11d1-4dc6-8e76-e01ff4af5ed3","ios":"levelo://app?vid=78986cc4-11d1-4dc6-8e76-e01ff4af5ed3"},"vehicle_type_id":"4","last_reported":1711321651,"current_range_meters":28400,"station_id":"ce4bgv92rcd13ifvqcq0","pricing_plan_id":"cebpf4jnsgd1na2vs0mg"},{"bike_id":"ca79c3fc-c0b1-4666-888e-edb18b1b4c0f","system_id":"levelo_inurba_marseille","lat":43.307945,"lon":5.376487,"is_reserved":false,"is_disabled":false,"rental_uris":{"android":"levelo://app?vid=ca79c3fc-c0b1-4666-888e-edb18b1b4c0f","ios":"levelo://app?vid=ca79c3fc-c0b1-4666-888e-edb18b1b4c0f"},"vehicle_type_id":"4","last_reported":1711321651,"current_range_meters":18000,"station_id":"ce4bgv92rcd13ifvqcq0","pricing_plan_id":"cebpf4jnsgd1na2vs0mg"},{"bike_id":"91751626-c773-4131-bfea-ded6627ea3ee","system_id":"levelo_inurba_marseille","lat":43.307945,"lon":5.376487,"is_reserved":false,"is_disabled":false,"rental_uris":{"android":"levelo://app?vid=91751626-c773-4131-bfea-ded6627ea3ee","ios":"levelo://app?vid=91751626-c773-4131-bfea-ded6627ea3ee"},"vehicle_type_id":"4","last_reported":1711321651,"current_range_meters":3200,"station_id":"ce4bgv92rcd13ifvqcq0","pricing_plan_id":"cebpf4jnsgd1na2vs0mg"},{"bike_id":"9185e00e-cca7-4667-bc9e-e845acd3e465","system_id":"levelo_inurba_marseille","lat":43.307945,"lon":5.376487,"is_reserved":false,"is_disabled":false,"rental_uris":{"android":"levelo://app?vid=9185e00e-cca7-4667-bc9e-e845acd3e465","ios":"levelo://app?vid=9185e00e-cca7-4667-bc9e-e845acd3e465"},"vehicle_type_id":"4","last_reported":1711321651,"current_range_meters":17600,"station_id":"ce4bgv92rcd13ifvqcq0","pricing_plan_id":"cebpf4jnsgd1na2vs0mg"},{"bike_id":"b916e65d-9470-4670-a63f-7acc05595928","system_id":"levelo_inurba_marseille","lat":43.31943,"lon":5.37437,"is_reserved":false,"is_disabled":false,"rental_uris":{"android":"levelo://app?vid=b916e65d-9470-4670-a63f-7acc05595928","ios":"levelo://app?vid=b916e65d-9470-4670-a63f-7acc05595928"},"vehicle_type_id":"4","last_reported":1711321651,"current_range_meters":20000,"station_id":"","pricing_plan_id":"cebpf4jnsgd1na2vs0mg"},{"bike_id":"61bbc9f3-e131-4b5a-b222-5d71425ea4ea","system_id":"levelo_inurba_marseille","lat":43.317075,"lon":5.377367,"is_reserved":false,"is_disabled":false,"rental_uris":{"android":"levelo://app?vid=61bbc9f3-e131-4b5a-b222-5d71425ea4ea","ios":"levelo://app?vid=61bbc9f3-e131-4b5a-b222-5d71425ea4ea"},"vehicle_type_id":"4","last_reported":1711321651,"current_range_meters":2000,"station_id":"ce4bgth2rcd13ifvqch0","pricing_plan_id":"cebpf4jnsgd1na2vs0mg"},{"bike_id":"d6df99f4-ef61-4d28-a383-72d30c222a91","system_id":"levelo_inurba_marseille","lat":43.317075,"lon":5.377367,"is_reserved":false,"is_disabled":false,"rental_uris":{"android":"levelo://app?vid=d6df99f4-ef61-4d28-a383-72d30c222a91","ios":"levelo://app?vid=d6df99f4-ef61-4d28-a383-72d30c222a91"},"vehicle_type_id":"4","last_reported":1711321651,"current_range_meters":15200,"station_id":"ce4bgth2rcd13ifvqch0","pricing_plan_id":"cebpf4jnsgd1na2vs0mg"},{"bike_id":"719acdf2-42cc-4939-a7df-b31e3f8811fd","system_id":"levelo_inurba_marseille","lat":43.317075,"lon":5.377367,"is_reserved":false,"is_disabled":false,"rental_uris":{"android":"levelo://app?vid=719acdf2-42cc-4939-a7df-b31e3f8811fd","ios":"levelo://app?vid=719acdf2-42cc-4939-a7df-b31e3f8811fd"},"vehicle_type_id":"4","last_reported":1711321651,"current_range_meters":13600,"station_id":"ce4bgth2rcd13ifvqch0","pricing_plan_id":"cebpf4jnsgd1na2vs0mg"},{"bike_id":"667ee725-54ef-4a32-afbc-6809523fbc2b","system_id":"levelo_inurba_marseille","lat":43.317075,"lon":5.377367,"is_reserved":false,"is_disabled":false,"rental_uris":{"android":"levelo://app?vid=667ee725-54ef-4a32-afbc-6809523fbc2b","ios":"levelo://app?vid=667ee725-54ef-4a32-afbc-6809523fbc2b"},"vehicle_type_id":"4","last_reported":1711321651,"current_range_meters":26800,"station_id":"ce4bgth2rcd13ifvqch0","pricing_plan_id":"cebpf4jnsgd1na2vs0mg"},{"bike_id":"238ecaa1-31b2-4d16-b3bb-7e6befbf3378","system_id":"levelo_inurba_marseille","lat":43.313731,"lon":5.379397,"is_reserved":false,"is_disabled":false,"rental_uris":{"android":"levelo://app?vid=238ecaa1-31b2-4d16-b3bb-7e6befbf3378","ios":"levelo://app?vid=238ecaa1-31b2-4d16-b3bb-7e6befbf3378"},"vehicle_type_id":"4","last_reported":1711321651,"current_range_meters":16000,"station_id":"","pricing_plan_id":"cebpf4jnsgd1na2vs0mg"},{"bike_id":"66055260-19d3-4d6b-a56a-fbd13664383a","system_id":"levelo_inurba_marseille","lat":43.303046,"lon":5.368981,"is_reserved":false,"is_disabled":false,"rental_uris":{"android":"levelo://app?vid=66055260-19d3-4d6b-a56a-fbd13664383a","ios":"levelo://app?vid=66055260-19d3-4d6b-a56a-fbd13664383a"},"vehicle_type_id":"4","last_reported":1711321651,"current_range_meters":2000,"station_id":"ce4bgqh2rcd13ifvqc5g","pricing_plan_id":"cebpf4jnsgd1na2vs0mg"},{"bike_id":"0c090971-c985-462e-a011-be74508a8414","system_id":"levelo_inurba_marseille","lat":43.315289,"lon":5.380349,"is_reserved":false,"is_disabled":false,"rental_uris":{"android":"levelo://app?vid=0c090971-c985-462e-a011-be74508a8414","ios":"levelo://app?vid=0c090971-c985-462e-a011-be74508a8414"},"vehicle_type_id":"4","last_reported":1711321651,"current_range_meters":26800,"station_id":"ce4bhsp2rcd13ifvqi50","pricing_plan_id":"cebpf4jnsgd1na2vs0mg"},{"bike_id":"47f1d9c1-d937-439e-b1e6-f9b95ea4d2ca","system_id":"levelo_inurba_marseille","lat":43.315326,"lon":5.380407,"is_reserved":false,"is_disabled":false,"rental_uris":{"android":"levelo://app?vid=47f1d9c1-d937-439e-b1e6-f9b95ea4d2ca","ios":"levelo://app?vid=47f1d9c1-d937-439e-b1e6-f9b95ea4d2ca"},"vehicle_type_id":"4","last_reported":1711321651,"current_range_meters":18000,"station_id":"ce4bhsp2rcd13ifvqi50","pricing_plan_id":"cebpf4jnsgd1na2vs0mg"},{"bike_id":"02f93d4e-1997-4aa4-8efc-3c261ebf1d2d","system_id":"levelo_inurba_marseille","lat":43.315329,"lon":5.380428,"is_reserved":false,"is_disabled":false,"rental_uris":{"android":"levelo://app?vid=02f93d4e-1997-4aa4-8efc-3c261ebf1d2d","ios":"levelo://app?vid=02f93d4e-1997-4aa4-8efc-3c261ebf1d2d"},"vehicle_type_id":"4","last_reported":1711321651,"current_range_meters":26000,"station_id":"ce4bhsp2rcd13ifvqi50","pricing_plan_id":"cebpf4jnsgd1na2vs0mg"},{"bike_id":"6943e8e3-7d03-40a7-b591-5c9000caacef","system_id":"levelo_inurba_marseille","lat":43.30185,"lon":5.36612,"is_reserved":false,"is_disabled":false,"rental_uris":{"android":"levelo://app?vid=6943e8e3-7d03-40a7-b591-5c9000caacef","ios":"levelo://app?vid=6943e8e3-7d03-40a7-b591-5c9000caacef"},"vehicle_type_id":"4","last_reported":1711321651,"current_range_meters":0,"station_id":"ce4bgrh2rcd13ifvqc8g","pricing_plan_id":"cebpf4jnsgd1na2vs0mg"},{"bike_id":"ab939959-6cef-462f-99b2-5b5b8c5b25ec","system_id":"levelo_inurba_marseille","lat":43.301939,"lon":5.366286,"is_reserved":false,"is_disabled":false,"rental_uris":{"android":"levelo://app?vid=ab939959-6cef-462f-99b2-5b5b8c5b25ec","ios":"levelo://app?vid=ab939959-6cef-462f-99b2-5b5b8c5b25ec"},"vehicle_type_id":"4","last_reported":1711321651,"current_range_meters":2400,"station_id":"ce4bgrh2rcd13ifvqc8g","pricing_plan_id":"cebpf4jnsgd1na2vs0mg"},{"bike_id":"57cf1346-e067-472d-9b2d-1e071e1ebb0c","system_id":"levelo_inurba_marseille","lat":43.308012,"lon":5.381511,"is_reserved":false,"is_disabled":false,"rental_uris":{"android":"levelo://app?vid=57cf1346-e067-472d-9b2d-1e071e1ebb0c","ios":"levelo://app?vid=57cf1346-e067-472d-9b2d-1e071e1ebb0c"},"vehicle_type_id":"4","last_reported":1711321651,"current_range_meters":20800,"station_id":"ce4bgt12rcd13ifvqce0","pricing_plan_id":"cebpf4jnsgd1na2vs0mg"},{"bike_id":"8a1912de-b56d-4217-a83a-fce5af5235c6","system_id":"levelo_inurba_marseille","lat":43.308012,"lon":5.381511,"is_reserved":false,"is_disabled":false,"rental_uris":{"android":"levelo://app?vid=8a1912de-b56d-4217-a83a-fce5af5235c6","ios":"levelo://app?vid=8a1912de-b56d-4217-a83a-fce5af5235c6"},"vehicle_type_id":"4","last_reported":1711321651,"current_range_meters":27200,"station_id":"ce4bgt12rcd13ifvqce0","pricing_plan_id":"cebpf4jnsgd1na2vs0mg"},{"bike_id":"f31887d7-fc95-41b4-bbc9-5dee0d06aef8","system_id":"levelo_inurba_marseille","lat":43.308012,"lon":5.381511,"is_reserved":false,"is_disabled":false,"rental_uris":{"android":"levelo://app?vid=f31887d7-fc95-41b4-bbc9-5dee0d06aef8","ios":"levelo://app?vid=f31887d7-fc95-41b4-bbc9-5dee0d06aef8"},"vehicle_type_id":"4","last_reported":1711321651,"current_range_meters":7600,"station_id":"ce4bgt12rcd13ifvqce0","pricing_plan_id":"cebpf4jnsgd1na2vs0mg"},{"bike_id":"bddec9d4-77a8-47f8-be2e-8a5a2c91745a","system_id":"levelo_inurba_marseille","lat":43.308012,"lon":5.381511,"is_reserved":false,"is_disabled":false,"rental_uris":{"android":"levelo://app?vid=bddec9d4-77a8-47f8-be2e-8a5a2c91745a","ios":"levelo://app?vid=bddec9d4-77a8-47f8-be2e-8a5a2c91745a"},"vehicle_type_id":"4","last_reported":1711321651,"current_range_meters":400,"station_id":"ce4bgt12rcd13ifvqce0","pricing_plan_id":"cebpf4jnsgd1na2vs0mg"},{"bike_id":"cba927e1-47fe-4aea-8089-24636ca87051","system_id":"levelo_inurba_marseille","lat":43.308012,"lon":5.381511,"is_reserved":false,"is_disabled":false,"rental_uris":{"android":"levelo://app?vid=cba927e1-47fe-4aea-8089-24636ca87051","ios":"levelo://app?vid=cba927e1-47fe-4aea-8089-24636ca87051"},"vehicle_type_id":"4","last_reported":1711321651,"current_range_meters":28000,"station_id":"ce4bgt12rcd13ifvqce0","pricing_plan_id":"cebpf4jnsgd1na2vs0mg"},{"bike_id":"338a9d67-9b23-422b-a783-d84173fcdd5d","system_id":"levelo_inurba_marseille","lat":43.308012,"lon":5.381511,"is_reserved":false,"is_disabled":false,"rental_uris":{"android":"levelo://app?vid=338a9d67-9b23-422b-a783-d84173fcdd5d","ios":"levelo://app?vid=338a9d67-9b23-422b-a783-d84173fcdd5d"},"vehicle_type_id":"4","last_reported":1711321651,"current_range_meters":24000,"station_id":"ce4bgt12rcd13ifvqce0","pricing_plan_id":"cebpf4jnsgd1na2vs0mg"},{"bike_id":"09db5d1c-3238-4a2f-8223-f6bb6e4292b6","system_id":"levelo_inurba_marseille","lat":43.308012,"lon":5.381511,"is_reserved":false,"is_disabled":false,"rental_uris":{"android":"levelo://app?vid=09db5d1c-3238-4a2f-8223-f6bb6e4292b6","ios":"levelo://app?vid=09db5d1c-3238-4a2f-8223-f6bb6e4292b6"},"vehicle_type_id":"4","last_reported":1711321651,"current_range_meters":30800,"station_id":"ce4bgt12rcd13ifvqce0","pricing_plan_id":"cebpf4jnsgd1na2vs0mg"},{"bike_id":"6a0f4add-865f-489d-92f5-4666b9ea4997","system_id":"levelo_inurba_marseille","lat":43.308012,"lon":5.381511,"is_reserved":false,"is_disabled":false,"rental_uris":{"android":"levelo://app?vid=6a0f4add-865f-489d-92f5-4666b9ea4997","ios":"levelo://app?vid=6a0f4add-865f-489d-92f5-4666b9ea4997"},"vehicle_type_id":"4","last_reported":1711321651,"current_range_meters":12800,"station_id":"ce4bgt12rcd13ifvqce0","pricing_plan_id":"cebpf4jnsgd1na2vs0mg"},{"bike_id":"6edb5fe7-a95c-4fa9-8e8d-d3a1b0359d8a","system_id":"levelo_inurba_marseille","lat":43.308012,"lon":5.381511,"is_reserved":false,"is_disabled":false,"rental_uris":{"android":"levelo://app?vid=6edb5fe7-a95c-4fa9-8e8d-d3a1b0359d8a","ios":"levelo://app?vid=6edb5fe7-a95c-4fa9-8e8d-d3a1b0359d8a"},"vehicle_type_id":"4","last_reported":1711321651,"current_range_meters":25200,"station_id":"ce4bgt12rcd13ifvqce0","pricing_plan_id":"cebpf4jnsgd1na2vs0mg"},{"bike_id":"502ed55b-ee9b-48ed-ac35-e8009e77ea79","system_id":"levelo_inurba_marseille","lat":43.308012,"lon":5.381511,"is_reserved":false,"is_disabled":false,"rental_uris":{"android":"levelo://app?vid=502ed55b-ee9b-48ed-ac35-e8009e77ea79","ios":"levelo://app?vid=502ed55b-ee9b-48ed-ac35-e8009e77ea79"},"vehicle_type_id":"4","last_reported":1711321651,"current_range_meters":12000,"station_id":"ce4bgt12rcd13ifvqce0","pricing_plan_id":"cebpf4jnsgd1na2vs0mg"},{"bike_id":"10d5b56a-5967-42bb-8393-aeb734710266","system_id":"levelo_inurba_marseille","lat":43.308012,"lon":5.381511,"is_reserved":false,"is_disabled":false,"rental_uris":{"android":"levelo://app?vid=10d5b56a-5967-42bb-8393-aeb734710266","ios":"levelo://app?vid=10d5b56a-5967-42bb-8393-aeb734710266"},"vehicle_type_id":"4","last_reported":1711321651,"current_range_meters":12400,"station_id":"ce4bgt12rcd13ifvqce0","pricing_plan_id":"cebpf4jnsgd1na2vs0mg"},{"bike_id":"886c8848-84bd-47ff-a896-929bd84df0e5","system_id":"levelo_inurba_marseille","lat":43.308012,"lon":5.381511,"is_reserved":false,"is_disabled":false,"rental_uris":{"android":"levelo://app?vid=886c8848-84bd-47ff-a896-929bd84df0e5","ios":"levelo://app?vid=886c8848-84bd-47ff-a896-929bd84df0e5"},"vehicle_type_id":"4","last_reported":1711321651,"current_range_meters":31200,"station_id":"ce4bgt12rcd13ifvqce0","pricing_plan_id":"cebpf4jnsgd1na2vs0mg"},{"bike_id":"32a1abc3-5608-425d-8d00-d1977653324d","system_id":"levelo_inurba_marseille","lat":43.308012,"lon":5.381511,"is_reserved":false,"is_disabled":false,"rental_uris":{"android":"levelo://app?vid=32a1abc3-5608-425d-8d00-d1977653324d","ios":"levelo://app?vid=32a1abc3-5608-425d-8d00-d1977653324d"},"vehicle_type_id":"4","last_reported":1711321651,"current_range_meters":9200,"station_id":"ce4bgt12rcd13ifvqce0","pricing_plan_id":"cebpf4jnsgd1na2vs0mg"},{"bike_id":"fbce19ef-dac3-4e29-9fbe-d5d79f5c54f6","system_id":"levelo_inurba_marseille","lat":43.308012,"lon":5.381511,"is_reserved":false,"is_disabled":false,"rental_uris":{"android":"levelo://app?vid=fbce19ef-dac3-4e29-9fbe-d5d79f5c54f6","ios":"levelo://app?vid=fbce19ef-dac3-4e29-9fbe-d5d79f5c54f6"},"vehicle_type_id":"4","last_reported":1711321651,"current_range_meters":24800,"station_id":"ce4bgt12rcd13ifvqce0","pricing_plan_id":"cebpf4jnsgd1na2vs0mg"},{"bike_id":"2cdbb9cd-830e-44e5-a0c9-96b4d5f44b7b","system_id":"levelo_inurba_marseille","lat":43.308012,"lon":5.381511,"is_reserved":false,"is_disabled":false,"rental_uris":{"android":"levelo://app?vid=2cdbb9cd-830e-44e5-a0c9-96b4d5f44b7b","ios":"levelo://app?vid=2cdbb9cd-830e-44e5-a0c9-96b4d5f44b7b"},"vehicle_type_id":"4","last_reported":1711321651,"current_range_meters":23600,"station_id":"ce4bgt12rcd13ifvqce0","pricing_plan_id":"cebpf4jnsgd1na2vs0mg"},{"bike_id":"c2767835-0627-4dd2-a94d-e3ce6ce4d8d8","system_id":"levelo_inurba_marseille","lat":43.308012,"lon":5.381511,"is_reserved":false,"is_disabled":false,"rental_uris":{"android":"levelo://app?vid=c2767835-0627-4dd2-a94d-e3ce6ce4d8d8","ios":"levelo://app?vid=c2767835-0627-4dd2-a94d-e3ce6ce4d8d8"},"vehicle_type_id":"4","last_reported":1711321651,"current_range_meters":11200,"station_id":"ce4bgt12rcd13ifvqce0","pricing_plan_id":"cebpf4jnsgd1na2vs0mg"},{"bike_id":"663af681-a45f-4a00-8b64-0b8ad1a94d08","system_id":"levelo_inurba_marseille","lat":43.308012,"lon":5.381511,"is_reserved":false,"is_disabled":false,"rental_uris":{"android":"levelo://app?vid=663af681-a45f-4a00-8b64-0b8ad1a94d08","ios":"levelo://app?vid=663af681-a45f-4a00-8b64-0b8ad1a94d08"},"vehicle_type_id":"4","last_reported":1711321651,"current_range_meters":28000,"station_id":"ce4bgt12rcd13ifvqce0","pricing_plan_id":"cebpf4jnsgd1na2vs0mg"},{"bike_id":"edfb079b-1e4e-4868-a41d-49c1fc4b4ad4","system_id":"levelo_inurba_marseille","lat":43.308012,"lon":5.381511,"is_reserved":false,"is_disabled":false,"rental_uris":{"android":"levelo://app?vid=edfb079b-1e4e-4868-a41d-49c1fc4b4ad4","ios":"levelo://app?vid=edfb079b-1e4e-4868-a41d-49c1fc4b4ad4"},"vehicle_type_id":"4","last_reported":1711321651,"current_range_meters":14000,"station_id":"ce4bgt12rcd13ifvqce0","pricing_plan_id":"cebpf4jnsgd1na2vs0mg"},{"bike_id":"13f0d9e5-33de-4838-8a53-27a6d2d7a1d2","system_id":"levelo_inurba_marseille","lat":43.308012,"lon":5.381511,"is_reserved":false,"is_disabled":false,"rental_uris":{"android":"levelo://app?vid=13f0d9e5-33de-4838-8a53-27a6d2d7a1d2","ios":"levelo://app?vid=13f0d9e5-33de-4838-8a53-27a6d2d7a1d2"},"vehicle_type_id":"4","last_reported":1711321651,"current_range_meters":4000,"station_id":"ce4bgt12rcd13ifvqce0","pricing_plan_id":"cebpf4jnsgd1na2vs0mg"},{"bike_id":"388f4dbe-d00f-41ae-80a1-e90d5fd40bfc","system_id":"levelo_inurba_marseille","lat":43.324771,"lon":5.36557,"is_reserved":false,"is_disabled":false,"rental_uris":{"android":"levelo://app?vid=388f4dbe-d00f-41ae-80a1-e90d5fd40bfc","ios":"levelo://app?vid=388f4dbe-d00f-41ae-80a1-e90d5fd40bfc"},"vehicle_type_id":"4","last_reported":1711321651,"current_range_meters":12000,"station_id":"ce4bhs12rcd13ifvqhvg","pricing_plan_id":"cebpf4jnsgd1na2vs0mg"},{"bike_id":"02ed60ba-e126-4346-af5a-15d6cded049a","system_id":"levelo_inurba_marseille","lat":43.324771,"lon":5.36557,"is_reserved":false,"is_disabled":false,"rental_uris":{"android":"levelo://app?vid=02ed60ba-e126-4346-af5a-15d6cded049a","ios":"levelo://app?vid=02ed60ba-e126-4346-af5a-15d6cded049a"},"vehicle_type_id":"4","last_reported":1711321651,"current_range_meters":2400,"station_id":"ce4bhs12rcd13ifvqhvg","pricing_plan_id":"cebpf4jnsgd1na2vs0mg"},{"bike_id":"fa05d3e5-f409-4e05-ace7-f6f819e528e8","system_id":"levelo_inurba_marseille","lat":43.324845,"lon":5.365778,"is_reserved":false,"is_disabled":false,"rental_uris":{"android":"levelo://app?vid=fa05d3e5-f409-4e05-ace7-f6f819e528e8","ios":"levelo://app?vid=fa05d3e5-f409-4e05-ace7-f6f819e528e8"},"vehicle_type_id":"4","last_reported":1711321651,"current_range_meters":0,"station_id":"ce4bhs12rcd13ifvqhvg","pricing_plan_id":"cebpf4jnsgd1na2vs0mg"},{"bike_id":"336f0deb-d3ca-47f4-bb53-06b808624733","system_id":"levelo_inurba_marseille","lat":43.324771,"lon":5.36557,"is_reserved":false,"is_disabled":false,"rental_uris":{"android":"levelo://app?vid=336f0deb-d3ca-47f4-bb53-06b808624733","ios":"levelo://app?vid=336f0deb-d3ca-47f4-bb53-06b808624733"},"vehicle_type_id":"4","last_reported":1711321651,"current_range_meters":20800,"station_id":"ce4bhs12rcd13ifvqhvg","pricing_plan_id":"cebpf4jnsgd1na2vs0mg"},{"bike_id":"4fdd6a97-32ed-47a3-8f14-e91089c32b29","system_id":"levelo_inurba_marseille","lat":43.310804,"lon":5.38359,"is_reserved":false,"is_disabled":false,"rental_uris":{"android":"levelo://app?vid=4fdd6a97-32ed-47a3-8f14-e91089c32b29","ios":"levelo://app?vid=4fdd6a97-32ed-47a3-8f14-e91089c32b29"},"vehicle_type_id":"4","last_reported":1711321651,"current_range_meters":7600,"station_id":"ce4bgv92rcd13ifvqcr0","pricing_plan_id":"cebpf4jnsgd1na2vs0mg"},{"bike_id":"f683880a-2053-4e09-9d87-67a72235fd6e","system_id":"levelo_inurba_marseille","lat":43.31075,"lon":5.383568,"is_reserved":false,"is_disabled":false,"rental_uris":{"android":"levelo://app?vid=f683880a-2053-4e09-9d87-67a72235fd6e","ios":"levelo://app?vid=f683880a-2053-4e09-9d87-67a72235fd6e"},"vehicle_type_id":"4","last_reported":1711321651,"current_range_meters":0,"station_id":"ce4bgv92rcd13ifvqcr0","pricing_plan_id":"cebpf4jnsgd1na2vs0mg"},{"bike_id":"fb6ec6a0-a71d-4ad4-a8ec-52892176c9fa","system_id":"levelo_inurba_marseille","lat":43.310804,"lon":5.38359,"is_reserved":false,"is_disabled":false,"rental_uris":{"android":"levelo://app?vid=fb6ec6a0-a71d-4ad4-a8ec-52892176c9fa","ios":"levelo://app?vid=fb6ec6a0-a71d-4ad4-a8ec-52892176c9fa"},"vehicle_type_id":"4","last_reported":1711321651,"current_range_meters":10400,"station_id":"ce4bgv92rcd13ifvqcr0","pricing_plan_id":"cebpf4jnsgd1na2vs0mg"},{"bike_id":"e11275a5-ad58-4c2c-9393-c5ad827588d1","system_id":"levelo_inurba_marseille","lat":43.30158,"lon":5.37405,"is_reserved":false,"is_disabled":false,"rental_uris":{"android":"levelo://app?vid=e11275a5-ad58-4c2c-9393-c5ad827588d1","ios":"levelo://app?vid=e11275a5-ad58-4c2c-9393-c5ad827588d1"},"vehicle_type_id":"4","last_reported":1711321651,"current_range_meters":24800,"station_id":"ce4bgs92rcd13ifvqcc0","pricing_plan_id":"cebpf4jnsgd1na2vs0mg"},{"bike_id":"1577efc4-3994-4d88-af1c-01f1506af770","system_id":"levelo_inurba_marseille","lat":43.302784,"lon":5.377158,"is_reserved":false,"is_disabled":false,"rental_uris":{"android":"levelo://app?vid=1577efc4-3994-4d88-af1c-01f1506af770","ios":"levelo://app?vid=1577efc4-3994-4d88-af1c-01f1506af770"},"vehicle_type_id":"4","last_reported":1711321651,"current_range_meters":8800,"station_id":"ce4bguh2rcd13ifvqcj0","pricing_plan_id":"cebpf4jnsgd1na2vs0mg"},{"bike_id":"ccf954a3-296a-4815-a4de-6c7541079642","system_id":"levelo_inurba_marseille","lat":43.302772,"lon":5.377078,"is_reserved":false,"is_disabled":false,"rental_uris":{"android":"levelo://app?vid=ccf954a3-296a-4815-a4de-6c7541079642","ios":"levelo://app?vid=ccf954a3-296a-4815-a4de-6c7541079642"},"vehicle_type_id":"4","last_reported":1711321651,"current_range_meters":5600,"station_id":"ce4bguh2rcd13ifvqcj0","pricing_plan_id":"cebpf4jnsgd1na2vs0mg"},{"bike_id":"fb2dbb66-bb42-4593-8a43-4d970a924dc3","system_id":"levelo_inurba_marseille","lat":43.319935,"lon":5.381699,"is_reserved":false,"is_disabled":false,"rental_uris":{"android":"levelo://app?vid=fb2dbb66-bb42-4593-8a43-4d970a924dc3","ios":"levelo://app?vid=fb2dbb66-bb42-4593-8a43-4d970a924dc3"},"vehicle_type_id":"4","last_reported":1711321651,"current_range_meters":2000,"station_id":"ce4bhr12rcd13ifvqhpg","pricing_plan_id":"cebpf4jnsgd1na2vs0mg"},{"bike_id":"ba709437-82b5-4c74-974c-4c50a356b816","system_id":"levelo_inurba_marseille","lat":43.319935,"lon":5.381699,"is_reserved":false,"is_disabled":false,"rental_uris":{"android":"levelo://app?vid=ba709437-82b5-4c74-974c-4c50a356b816","ios":"levelo://app?vid=ba709437-82b5-4c74-974c-4c50a356b816"},"vehicle_type_id":"4","last_reported":1711321651,"current_range_meters":13200,"station_id":"ce4bhr12rcd13ifvqhpg","pricing_plan_id":"cebpf4jnsgd1na2vs0mg"},{"bike_id":"6c1e3c51-cd5a-469b-a350-c7f83832aa8a","system_id":"levelo_inurba_marseille","lat":43.319935,"lon":5.381699,"is_reserved":false,"is_disabled":false,"rental_uris":{"android":"levelo://app?vid=6c1e3c51-cd5a-469b-a350-c7f83832aa8a","ios":"levelo://app?vid=6c1e3c51-cd5a-469b-a350-c7f83832aa8a"},"vehicle_type_id":"4","last_reported":1711321651,"current_range_meters":2800,"station_id":"ce4bhr12rcd13ifvqhpg","pricing_plan_id":"cebpf4jnsgd1na2vs0mg"},{"bike_id":"a46ea338-fc3c-4084-9b49-84a036351246","system_id":"levelo_inurba_marseille","lat":43.319935,"lon":5.381699,"is_reserved":false,"is_disabled":false,"rental_uris":{"android":"levelo://app?vid=a46ea338-fc3c-4084-9b49-84a036351246","ios":"levelo://app?vid=a46ea338-fc3c-4084-9b49-84a036351246"},"vehicle_type_id":"4","last_reported":1711321651,"current_range_meters":5600,"station_id":"ce4bhr12rcd13ifvqhpg","pricing_plan_id":"cebpf4jnsgd1na2vs0mg"},{"bike_id":"21660b84-8be3-4777-93a0-11e5924fbbc6","system_id":"levelo_inurba_marseille","lat":43.31371,"lon":5.38491,"is_reserved":false,"is_disabled":false,"rental_uris":{"android":"levelo://app?vid=21660b84-8be3-4777-93a0-11e5924fbbc6","ios":"levelo://app?vid=21660b84-8be3-4777-93a0-11e5924fbbc6"},"vehicle_type_id":"4","last_reported":1711321651,"current_range_meters":400,"station_id":"ce4bgt92rcd13ifvqcf0","pricing_plan_id":"cebpf4jnsgd1na2vs0mg"},{"bike_id":"6daa5578-8d26-4b28-a6aa-d16901ecdf75","system_id":"levelo_inurba_marseille","lat":43.313571,"lon":5.384829,"is_reserved":false,"is_disabled":false,"rental_uris":{"android":"levelo://app?vid=6daa5578-8d26-4b28-a6aa-d16901ecdf75","ios":"levelo://app?vid=6daa5578-8d26-4b28-a6aa-d16901ecdf75"},"vehicle_type_id":"4","last_reported":1711321651,"current_range_meters":10400,"station_id":"ce4bgt92rcd13ifvqcf0","pricing_plan_id":"cebpf4jnsgd1na2vs0mg"},{"bike_id":"94ea72db-201e-4c2e-ad28-bde98bdff7ba","system_id":"levelo_inurba_marseille","lat":43.313571,"lon":5.384829,"is_reserved":false,"is_disabled":false,"rental_uris":{"android":"levelo://app?vid=94ea72db-201e-4c2e-ad28-bde98bdff7ba","ios":"levelo://app?vid=94ea72db-201e-4c2e-ad28-bde98bdff7ba"},"vehicle_type_id":"4","last_reported":1711321651,"current_range_meters":24400,"station_id":"ce4bgt92rcd13ifvqcf0","pricing_plan_id":"cebpf4jnsgd1na2vs0mg"},{"bike_id":"9e5d9d2c-6565-4fc5-b8cc-4633d1c7c001","system_id":"levelo_inurba_marseille","lat":43.299885,"lon":5.37175,"is_reserved":false,"is_disabled":false,"rental_uris":{"android":"levelo://app?vid=9e5d9d2c-6565-4fc5-b8cc-4633d1c7c001","ios":"levelo://app?vid=9e5d9d2c-6565-4fc5-b8cc-4633d1c7c001"},"vehicle_type_id":"4","last_reported":1711321651,"current_range_meters":22800,"station_id":"ce4bgr92rcd13ifvqc7g","pricing_plan_id":"cebpf4jnsgd1na2vs0mg"},{"bike_id":"77862199-2a8a-4ea3-8817-fc00745b2b9f","system_id":"levelo_inurba_marseille","lat":43.299858,"lon":5.37174,"is_reserved":false,"is_disabled":false,"rental_uris":{"android":"levelo://app?vid=77862199-2a8a-4ea3-8817-fc00745b2b9f","ios":"levelo://app?vid=77862199-2a8a-4ea3-8817-fc00745b2b9f"},"vehicle_type_id":"4","last_reported":1711321651,"current_range_meters":3200,"station_id":"ce4bgr92rcd13ifvqc7g","pricing_plan_id":"cebpf4jnsgd1na2vs0mg"},{"bike_id":"d247e48c-edeb-46f6-a8fb-1dff16ea7a82","system_id":"levelo_inurba_marseille","lat":43.29986,"lon":5.37176,"is_reserved":false,"is_disabled":false,"rental_uris":{"android":"levelo://app?vid=d247e48c-edeb-46f6-a8fb-1dff16ea7a82","ios":"levelo://app?vid=d247e48c-edeb-46f6-a8fb-1dff16ea7a82"},"vehicle_type_id":"4","last_reported":1711321651,"current_range_meters":16400,"station_id":"ce4bgr92rcd13ifvqc7g","pricing_plan_id":"cebpf4jnsgd1na2vs0mg"},{"bike_id":"e500e8f9-a3c3-4b05-a2b3-64573a6de804","system_id":"levelo_inurba_marseille","lat":43.299724,"lon":5.371829,"is_reserved":false,"is_disabled":false,"rental_uris":{"android":"levelo://app?vid=e500e8f9-a3c3-4b05-a2b3-64573a6de804","ios":"levelo://app?vid=e500e8f9-a3c3-4b05-a2b3-64573a6de804"},"vehicle_type_id":"4","last_reported":1711321651,"current_range_meters":25200,"station_id":"ce4bgr92rcd13ifvqc7g","pricing_plan_id":"cebpf4jnsgd1na2vs0mg"},{"bike_id":"fc8c41fe-b39c-4ca6-9f36-bb917a32fe24","system_id":"levelo_inurba_marseille","lat":43.299817,"lon":5.371737,"is_reserved":false,"is_disabled":false,"rental_uris":{"android":"levelo://app?vid=fc8c41fe-b39c-4ca6-9f36-bb917a32fe24","ios":"levelo://app?vid=fc8c41fe-b39c-4ca6-9f36-bb917a32fe24"},"vehicle_type_id":"4","last_reported":1711321651,"current_range_meters":15200,"station_id":"ce4bgr92rcd13ifvqc7g","pricing_plan_id":"cebpf4jnsgd1na2vs0mg"},{"bike_id":"1f5a3cb0-78d2-4b4f-9d49-9cdcbb810130","system_id":"levelo_inurba_marseille","lat":43.299827,"lon":5.371877,"is_reserved":false,"is_disabled":false,"rental_uris":{"android":"levelo://app?vid=1f5a3cb0-78d2-4b4f-9d49-9cdcbb810130","ios":"levelo://app?vid=1f5a3cb0-78d2-4b4f-9d49-9cdcbb810130"},"vehicle_type_id":"4","last_reported":1711321651,"current_range_meters":13200,"station_id":"ce4bgr92rcd13ifvqc7g","pricing_plan_id":"cebpf4jnsgd1na2vs0mg"},{"bike_id":"52296648-4e91-4dea-98e6-555ca5c7f475","system_id":"levelo_inurba_marseille","lat":43.29977,"lon":5.371807,"is_reserved":false,"is_disabled":false,"rental_uris":{"android":"levelo://app?vid=52296648-4e91-4dea-98e6-555ca5c7f475","ios":"levelo://app?vid=52296648-4e91-4dea-98e6-555ca5c7f475"},"vehicle_type_id":"4","last_reported":1711321651,"current_range_meters":4000,"station_id":"ce4bgr92rcd13ifvqc7g","pricing_plan_id":"cebpf4jnsgd1na2vs0mg"},{"bike_id":"87e73152-e8f1-41c2-9e0c-697b60c394f3","system_id":"levelo_inurba_marseille","lat":43.299724,"lon":5.371829,"is_reserved":false,"is_disabled":false,"rental_uris":{"android":"levelo://app?vid=87e73152-e8f1-41c2-9e0c-697b60c394f3","ios":"levelo://app?vid=87e73152-e8f1-41c2-9e0c-697b60c394f3"},"vehicle_type_id":"4","last_reported":1711321651,"current_range_meters":31200,"station_id":"ce4bgr92rcd13ifvqc7g","pricing_plan_id":"cebpf4jnsgd1na2vs0mg"},{"bike_id":"52239f62-1634-4550-b32c-c62fc5d93cdc","system_id":"levelo_inurba_marseille","lat":43.311722,"lon":5.387247,"is_reserved":false,"is_disabled":false,"rental_uris":{"android":"levelo://app?vid=52239f62-1634-4550-b32c-c62fc5d93cdc","ios":"levelo://app?vid=52239f62-1634-4550-b32c-c62fc5d93cdc"},"vehicle_type_id":"4","last_reported":1711321651,"current_range_meters":31200,"station_id":"ce4bgv12rcd13ifvqcp0","pricing_plan_id":"cebpf4jnsgd1na2vs0mg"},{"bike_id":"6da268fd-cad3-4c64-84b3-b407c62f88d4","system_id":"levelo_inurba_marseille","lat":43.311722,"lon":5.387247,"is_reserved":false,"is_disabled":false,"rental_uris":{"android":"levelo://app?vid=6da268fd-cad3-4c64-84b3-b407c62f88d4","ios":"levelo://app?vid=6da268fd-cad3-4c64-84b3-b407c62f88d4"},"vehicle_type_id":"4","last_reported":1711321651,"current_range_meters":28400,"station_id":"ce4bgv12rcd13ifvqcp0","pricing_plan_id":"cebpf4jnsgd1na2vs0mg"},{"bike_id":"bb93665b-9d4d-4464-9588-ee4ff9385ea6","system_id":"levelo_inurba_marseille","lat":43.31163,"lon":5.387153,"is_reserved":false,"is_disabled":false,"rental_uris":{"android":"levelo://app?vid=bb93665b-9d4d-4464-9588-ee4ff9385ea6","ios":"levelo://app?vid=bb93665b-9d4d-4464-9588-ee4ff9385ea6"},"vehicle_type_id":"4","last_reported":1711321651,"current_range_meters":24400,"station_id":"ce4bgv12rcd13ifvqcp0","pricing_plan_id":"cebpf4jnsgd1na2vs0mg"},{"bike_id":"8bd367f2-c6b2-4226-9adf-512a7aee5a3a","system_id":"levelo_inurba_marseille","lat":43.31175,"lon":5.38718,"is_reserved":false,"is_disabled":false,"rental_uris":{"android":"levelo://app?vid=8bd367f2-c6b2-4226-9adf-512a7aee5a3a","ios":"levelo://app?vid=8bd367f2-c6b2-4226-9adf-512a7aee5a3a"},"vehicle_type_id":"4","last_reported":1711321651,"current_range_meters":0,"station_id":"ce4bgv12rcd13ifvqcp0","pricing_plan_id":"cebpf4jnsgd1na2vs0mg"},{"bike_id":"207112da-225e-4d94-8dc9-3d0cf1cc126f","system_id":"levelo_inurba_marseille","lat":43.311722,"lon":5.387247,"is_reserved":false,"is_disabled":false,"rental_uris":{"android":"levelo://app?vid=207112da-225e-4d94-8dc9-3d0cf1cc126f","ios":"levelo://app?vid=207112da-225e-4d94-8dc9-3d0cf1cc126f"},"vehicle_type_id":"4","last_reported":1711321651,"current_range_meters":16000,"station_id":"ce4bgv12rcd13ifvqcp0","pricing_plan_id":"cebpf4jnsgd1na2vs0mg"},{"bike_id":"fd654fbf-11ea-4576-b9c7-b1c4a39d9577","system_id":"levelo_inurba_marseille","lat":43.311722,"lon":5.387247,"is_reserved":false,"is_disabled":false,"rental_uris":{"android":"levelo://app?vid=fd654fbf-11ea-4576-b9c7-b1c4a39d9577","ios":"levelo://app?vid=fd654fbf-11ea-4576-b9c7-b1c4a39d9577"},"vehicle_type_id":"4","last_reported":1711321651,"current_range_meters":1200,"station_id":"ce4bgv12rcd13ifvqcp0","pricing_plan_id":"cebpf4jnsgd1na2vs0mg"},{"bike_id":"07d84723-597b-4c00-bbb6-14e5744ded25","system_id":"levelo_inurba_marseille","lat":43.299243,"lon":5.374807,"is_reserved":false,"is_disabled":false,"rental_uris":{"android":"levelo://app?vid=07d84723-597b-4c00-bbb6-14e5744ded25","ios":"levelo://app?vid=07d84723-597b-4c00-bbb6-14e5744ded25"},"vehicle_type_id":"4","last_reported":1711321651,"current_range_meters":24000,"station_id":"ce4bgjh2rcd13ifvqbg0","pricing_plan_id":"cebpf4jnsgd1na2vs0mg"},{"bike_id":"7563a040-af0c-4ada-9cf8-1af32594318f","system_id":"levelo_inurba_marseille","lat":43.297774,"lon":5.370875,"is_reserved":false,"is_disabled":false,"rental_uris":{"android":"levelo://app?vid=7563a040-af0c-4ada-9cf8-1af32594318f","ios":"levelo://app?vid=7563a040-af0c-4ada-9cf8-1af32594318f"},"vehicle_type_id":"4","last_reported":1711321651,"current_range_meters":20800,"station_id":"ce4bgop2rcd13ifvqc1g","pricing_plan_id":"cebpf4jnsgd1na2vs0mg"},{"bike_id":"769715fe-cfa4-44a8-93cb-5518094f1de3","system_id":"levelo_inurba_marseille","lat":43.297794,"lon":5.370888,"is_reserved":false,"is_disabled":false,"rental_uris":{"android":"levelo://app?vid=769715fe-cfa4-44a8-93cb-5518094f1de3","ios":"levelo://app?vid=769715fe-cfa4-44a8-93cb-5518094f1de3"},"vehicle_type_id":"4","last_reported":1711321651,"current_range_meters":28800,"station_id":"ce4bgop2rcd13ifvqc1g","pricing_plan_id":"cebpf4jnsgd1na2vs0mg"},{"bike_id":"e8017139-164b-49c5-9314-04837a5221c9","system_id":"levelo_inurba_marseille","lat":43.297794,"lon":5.370888,"is_reserved":false,"is_disabled":false,"rental_uris":{"android":"levelo://app?vid=e8017139-164b-49c5-9314-04837a5221c9","ios":"levelo://app?vid=e8017139-164b-49c5-9314-04837a5221c9"},"vehicle_type_id":"4","last_reported":1711321651,"current_range_meters":14400,"station_id":"ce4bgop2rcd13ifvqc1g","pricing_plan_id":"cebpf4jnsgd1na2vs0mg"},{"bike_id":"cc97f521-62f6-4956-b866-7b9d64eb5632","system_id":"levelo_inurba_marseille","lat":43.297774,"lon":5.370875,"is_reserved":false,"is_disabled":false,"rental_uris":{"android":"levelo://app?vid=cc97f521-62f6-4956-b866-7b9d64eb5632","ios":"levelo://app?vid=cc97f521-62f6-4956-b866-7b9d64eb5632"},"vehicle_type_id":"4","last_reported":1711321651,"current_range_meters":19600,"station_id":"ce4bgop2rcd13ifvqc1g","pricing_plan_id":"cebpf4jnsgd1na2vs0mg"},{"bike_id":"feead7e7-9cee-4c57-94a6-da647512767c","system_id":"levelo_inurba_marseille","lat":43.322896,"lon":5.382515,"is_reserved":false,"is_disabled":false,"rental_uris":{"android":"levelo://app?vid=feead7e7-9cee-4c57-94a6-da647512767c","ios":"levelo://app?vid=feead7e7-9cee-4c57-94a6-da647512767c"},"vehicle_type_id":"4","last_reported":1711321651,"current_range_meters":1600,"station_id":"ce4bhr12rcd13ifvqhqg","pricing_plan_id":"cebpf4jnsgd1na2vs0mg"},{"bike_id":"3516f7fb-0666-45e8-b753-c5776c379864","system_id":"levelo_inurba_marseille","lat":43.297794,"lon":5.370888,"is_reserved":false,"is_disabled":false,"rental_uris":{"android":"levelo://app?vid=3516f7fb-0666-45e8-b753-c5776c379864","ios":"levelo://app?vid=3516f7fb-0666-45e8-b753-c5776c379864"},"vehicle_type_id":"4","last_reported":1711321651,"current_range_meters":26800,"station_id":"ce4bgop2rcd13ifvqc1g","pricing_plan_id":"cebpf4jnsgd1na2vs0mg"},{"bike_id":"05db4656-5680-4641-acac-b74886095bc6","system_id":"levelo_inurba_marseille","lat":43.297794,"lon":5.370888,"is_reserved":false,"is_disabled":false,"rental_uris":{"android":"levelo://app?vid=05db4656-5680-4641-acac-b74886095bc6","ios":"levelo://app?vid=05db4656-5680-4641-acac-b74886095bc6"},"vehicle_type_id":"4","last_reported":1711321651,"current_range_meters":23600,"station_id":"ce4bgop2rcd13ifvqc1g","pricing_plan_id":"cebpf4jnsgd1na2vs0mg"},{"bike_id":"27537e4b-1998-45de-a523-904488fd052a","system_id":"levelo_inurba_marseille","lat":43.297794,"lon":5.370888,"is_reserved":false,"is_disabled":false,"rental_uris":{"android":"levelo://app?vid=27537e4b-1998-45de-a523-904488fd052a","ios":"levelo://app?vid=27537e4b-1998-45de-a523-904488fd052a"},"vehicle_type_id":"4","last_reported":1711321651,"current_range_meters":23600,"station_id":"ce4bgop2rcd13ifvqc1g","pricing_plan_id":"cebpf4jnsgd1na2vs0mg"},{"bike_id":"207cdac5-b3e6-4d55-8f97-75f17398d943","system_id":"levelo_inurba_marseille","lat":43.322872,"lon":5.382756,"is_reserved":false,"is_disabled":false,"rental_uris":{"android":"levelo://app?vid=207cdac5-b3e6-4d55-8f97-75f17398d943","ios":"levelo://app?vid=207cdac5-b3e6-4d55-8f97-75f17398d943"},"vehicle_type_id":"4","last_reported":1711321651,"current_range_meters":5600,"station_id":"ce4bhr12rcd13ifvqhqg","pricing_plan_id":"cebpf4jnsgd1na2vs0mg"},{"bike_id":"5a8af2e0-bd88-4f66-892c-33841408b461","system_id":"levelo_inurba_marseille","lat":43.32285,"lon":5.38269,"is_reserved":false,"is_disabled":false,"rental_uris":{"android":"levelo://app?vid=5a8af2e0-bd88-4f66-892c-33841408b461","ios":"levelo://app?vid=5a8af2e0-bd88-4f66-892c-33841408b461"},"vehicle_type_id":"4","last_reported":1711321651,"current_range_meters":5600,"station_id":"ce4bhr12rcd13ifvqhqg","pricing_plan_id":"cebpf4jnsgd1na2vs0mg"},{"bike_id":"5387bba9-250f-4a59-ad81-4995f8725e20","system_id":"levelo_inurba_marseille","lat":43.32292,"lon":5.38262,"is_reserved":false,"is_disabled":false,"rental_uris":{"android":"levelo://app?vid=5387bba9-250f-4a59-ad81-4995f8725e20","ios":"levelo://app?vid=5387bba9-250f-4a59-ad81-4995f8725e20"},"vehicle_type_id":"4","last_reported":1711321651,"current_range_meters":17200,"station_id":"ce4bhr12rcd13ifvqhqg","pricing_plan_id":"cebpf4jnsgd1na2vs0mg"},{"bike_id":"3ff125a5-dff1-4591-b6cc-449dc2424878","system_id":"levelo_inurba_marseille","lat":43.32287,"lon":5.38269,"is_reserved":false,"is_disabled":false,"rental_uris":{"android":"levelo://app?vid=3ff125a5-dff1-4591-b6cc-449dc2424878","ios":"levelo://app?vid=3ff125a5-dff1-4591-b6cc-449dc2424878"},"vehicle_type_id":"4","last_reported":1711321651,"current_range_meters":400,"station_id":"ce4bhr12rcd13ifvqhqg","pricing_plan_id":"cebpf4jnsgd1na2vs0mg"},{"bike_id":"c9cc1f25-857b-4b46-a200-76626e84cff9","system_id":"levelo_inurba_marseille","lat":43.297774,"lon":5.370875,"is_reserved":false,"is_disabled":false,"rental_uris":{"android":"levelo://app?vid=c9cc1f25-857b-4b46-a200-76626e84cff9","ios":"levelo://app?vid=c9cc1f25-857b-4b46-a200-76626e84cff9"},"vehicle_type_id":"4","last_reported":1711321651,"current_range_meters":21600,"station_id":"ce4bgop2rcd13ifvqc1g","pricing_plan_id":"cebpf4jnsgd1na2vs0mg"},{"bike_id":"5d8768c3-c16c-4f03-812d-0467d2c881f1","system_id":"levelo_inurba_marseille","lat":43.322872,"lon":5.382756,"is_reserved":false,"is_disabled":false,"rental_uris":{"android":"levelo://app?vid=5d8768c3-c16c-4f03-812d-0467d2c881f1","ios":"levelo://app?vid=5d8768c3-c16c-4f03-812d-0467d2c881f1"},"vehicle_type_id":"4","last_reported":1711321651,"current_range_meters":18800,"station_id":"ce4bhr12rcd13ifvqhqg","pricing_plan_id":"cebpf4jnsgd1na2vs0mg"},{"bike_id":"9607cebd-f2b1-4cda-94e6-b812c1eeae5d","system_id":"levelo_inurba_marseille","lat":43.322872,"lon":5.382756,"is_reserved":false,"is_disabled":false,"rental_uris":{"android":"levelo://app?vid=9607cebd-f2b1-4cda-94e6-b812c1eeae5d","ios":"levelo://app?vid=9607cebd-f2b1-4cda-94e6-b812c1eeae5d"},"vehicle_type_id":"4","last_reported":1711321651,"current_range_meters":28800,"station_id":"ce4bhr12rcd13ifvqhqg","pricing_plan_id":"cebpf4jnsgd1na2vs0mg"},{"bike_id":"85d4d71c-b2c1-426a-b0b8-be8461195f7e","system_id":"levelo_inurba_marseille","lat":43.322872,"lon":5.382756,"is_reserved":false,"is_disabled":false,"rental_uris":{"android":"levelo://app?vid=85d4d71c-b2c1-426a-b0b8-be8461195f7e","ios":"levelo://app?vid=85d4d71c-b2c1-426a-b0b8-be8461195f7e"},"vehicle_type_id":"4","last_reported":1711321651,"current_range_meters":30800,"station_id":"ce4bhr12rcd13ifvqhqg","pricing_plan_id":"cebpf4jnsgd1na2vs0mg"},{"bike_id":"a2ee1e43-dd55-4286-9b87-053cf67c3419","system_id":"levelo_inurba_marseille","lat":43.322872,"lon":5.382756,"is_reserved":false,"is_disabled":false,"rental_uris":{"android":"levelo://app?vid=a2ee1e43-dd55-4286-9b87-053cf67c3419","ios":"levelo://app?vid=a2ee1e43-dd55-4286-9b87-053cf67c3419"},"vehicle_type_id":"4","last_reported":1711321651,"current_range_meters":25200,"station_id":"ce4bhr12rcd13ifvqhqg","pricing_plan_id":"cebpf4jnsgd1na2vs0mg"},{"bike_id":"7b4c39dd-df38-41ab-b889-e331e5e57978","system_id":"levelo_inurba_marseille","lat":43.29716,"lon":5.366054,"is_reserved":false,"is_disabled":false,"rental_uris":{"android":"levelo://app?vid=7b4c39dd-df38-41ab-b889-e331e5e57978","ios":"levelo://app?vid=7b4c39dd-df38-41ab-b889-e331e5e57978"},"vehicle_type_id":"4","last_reported":1711321651,"current_range_meters":31200,"station_id":"ce4bgn12rcd13ifvqbt0","pricing_plan_id":"cebpf4jnsgd1na2vs0mg"},{"bike_id":"d9cb7167-f937-48c8-993e-b1a7a7255db1","system_id":"levelo_inurba_marseille","lat":43.297163,"lon":5.365866,"is_reserved":false,"is_disabled":false,"rental_uris":{"android":"levelo://app?vid=d9cb7167-f937-48c8-993e-b1a7a7255db1","ios":"levelo://app?vid=d9cb7167-f937-48c8-993e-b1a7a7255db1"},"vehicle_type_id":"4","last_reported":1711321651,"current_range_meters":0,"station_id":"ce4bgn12rcd13ifvqbt0","pricing_plan_id":"cebpf4jnsgd1na2vs0mg"},{"bike_id":"b604a993-cde2-4f9f-9ded-ad54b25a5384","system_id":"levelo_inurba_marseille","lat":43.291671,"lon":5.371575,"is_reserved":false,"is_disabled":false,"rental_uris":{"android":"levelo://app?vid=b604a993-cde2-4f9f-9ded-ad54b25a5384","ios":"levelo://app?vid=b604a993-cde2-4f9f-9ded-ad54b25a5384"},"vehicle_type_id":"4","last_reported":1711321651,"current_range_meters":20400,"station_id":"ce4bha92rcd13ifvqeh0","pricing_plan_id":"cebpf4jnsgd1na2vs0mg"},{"bike_id":"cbd8699a-2784-4c9c-a35e-61fd233bfebb","system_id":"levelo_inurba_marseille","lat":43.2968,"lon":5.37291,"is_reserved":false,"is_disabled":false,"rental_uris":{"android":"levelo://app?vid=cbd8699a-2784-4c9c-a35e-61fd233bfebb","ios":"levelo://app?vid=cbd8699a-2784-4c9c-a35e-61fd233bfebb"},"vehicle_type_id":"4","last_reported":1711321651,"current_range_meters":26400,"station_id":"ce4bgk12rcd13ifvqbj0","pricing_plan_id":"cebpf4jnsgd1na2vs0mg"},{"bike_id":"12e6ae6b-1850-46ad-bca1-ac93fd961258","system_id":"levelo_inurba_marseille","lat":43.2968,"lon":5.37291,"is_reserved":false,"is_disabled":false,"rental_uris":{"android":"levelo://app?vid=12e6ae6b-1850-46ad-bca1-ac93fd961258","ios":"levelo://app?vid=12e6ae6b-1850-46ad-bca1-ac93fd961258"},"vehicle_type_id":"4","last_reported":1711321651,"current_range_meters":29200,"station_id":"ce4bgk12rcd13ifvqbj0","pricing_plan_id":"cebpf4jnsgd1na2vs0mg"},{"bike_id":"95557902-804f-43d9-9b96-1e33256db0e3","system_id":"levelo_inurba_marseille","lat":43.295848,"lon":5.367976,"is_reserved":false,"is_disabled":false,"rental_uris":{"android":"levelo://app?vid=95557902-804f-43d9-9b96-1e33256db0e3","ios":"levelo://app?vid=95557902-804f-43d9-9b96-1e33256db0e3"},"vehicle_type_id":"4","last_reported":1711321651,"current_range_meters":14000,"station_id":"","pricing_plan_id":"cebpf4jnsgd1na2vs0mg"},{"bike_id":"dd5b468e-03ef-4537-84e8-7a396e482c32","system_id":"levelo_inurba_marseille","lat":43.29907,"lon":5.38152,"is_reserved":false,"is_disabled":false,"rental_uris":{"android":"levelo://app?vid=dd5b468e-03ef-4537-84e8-7a396e482c32","ios":"levelo://app?vid=dd5b468e-03ef-4537-84e8-7a396e482c32"},"vehicle_type_id":"4","last_reported":1711321651,"current_range_meters":0,"station_id":"ce4bgj12rcd13ifvqbc0","pricing_plan_id":"cebpf4jnsgd1na2vs0mg"},{"bike_id":"3ec0ad60-5a91-4ffb-990a-3ce3b27476b7","system_id":"levelo_inurba_marseille","lat":43.299028,"lon":5.381509,"is_reserved":false,"is_disabled":false,"rental_uris":{"android":"levelo://app?vid=3ec0ad60-5a91-4ffb-990a-3ce3b27476b7","ios":"levelo://app?vid=3ec0ad60-5a91-4ffb-990a-3ce3b27476b7"},"vehicle_type_id":"4","last_reported":1711321651,"current_range_meters":26800,"station_id":"ce4bgj12rcd13ifvqbc0","pricing_plan_id":"cebpf4jnsgd1na2vs0mg"},{"bike_id":"12421dc2-2229-413c-a330-2bd9ebaab4b6","system_id":"levelo_inurba_marseille","lat":43.309589,"lon":5.390258,"is_reserved":false,"is_disabled":false,"rental_uris":{"android":"levelo://app?vid=12421dc2-2229-413c-a330-2bd9ebaab4b6","ios":"levelo://app?vid=12421dc2-2229-413c-a330-2bd9ebaab4b6"},"vehicle_type_id":"4","last_reported":1711321651,"current_range_meters":17600,"station_id":"ce4bgup2rcd13ifvqco0","pricing_plan_id":"cebpf4jnsgd1na2vs0mg"},{"bike_id":"85f6d6f1-df56-47d3-8d15-9355da4cd1b2","system_id":"levelo_inurba_marseille","lat":43.309589,"lon":5.390258,"is_reserved":false,"is_disabled":false,"rental_uris":{"android":"levelo://app?vid=85f6d6f1-df56-47d3-8d15-9355da4cd1b2","ios":"levelo://app?vid=85f6d6f1-df56-47d3-8d15-9355da4cd1b2"},"vehicle_type_id":"4","last_reported":1711321651,"current_range_meters":12800,"station_id":"ce4bgup2rcd13ifvqco0","pricing_plan_id":"cebpf4jnsgd1na2vs0mg"},{"bike_id":"ac534005-bd33-4c23-910b-49e182ad97da","system_id":"levelo_inurba_marseille","lat":43.309589,"lon":5.390258,"is_reserved":false,"is_disabled":false,"rental_uris":{"android":"levelo://app?vid=ac534005-bd33-4c23-910b-49e182ad97da","ios":"levelo://app?vid=ac534005-bd33-4c23-910b-49e182ad97da"},"vehicle_type_id":"4","last_reported":1711321651,"current_range_meters":14800,"station_id":"ce4bgup2rcd13ifvqco0","pricing_plan_id":"cebpf4jnsgd1na2vs0mg"},{"bike_id":"c34c1837-d243-435d-b80d-c2518d4f88a3","system_id":"levelo_inurba_marseille","lat":43.309589,"lon":5.390258,"is_reserved":false,"is_disabled":false,"rental_uris":{"android":"levelo://app?vid=c34c1837-d243-435d-b80d-c2518d4f88a3","ios":"levelo://app?vid=c34c1837-d243-435d-b80d-c2518d4f88a3"},"vehicle_type_id":"4","last_reported":1711321651,"current_range_meters":20000,"station_id":"ce4bgup2rcd13ifvqco0","pricing_plan_id":"cebpf4jnsgd1na2vs0mg"},{"bike_id":"a92edb08-b4e8-4242-83ec-14e4eaad9ca3","system_id":"levelo_inurba_marseille","lat":43.309589,"lon":5.390258,"is_reserved":false,"is_disabled":false,"rental_uris":{"android":"levelo://app?vid=a92edb08-b4e8-4242-83ec-14e4eaad9ca3","ios":"levelo://app?vid=a92edb08-b4e8-4242-83ec-14e4eaad9ca3"},"vehicle_type_id":"4","last_reported":1711321651,"current_range_meters":21200,"station_id":"ce4bgup2rcd13ifvqco0","pricing_plan_id":"cebpf4jnsgd1na2vs0mg"},{"bike_id":"2127399f-d128-416b-8ad4-76d643702b2b","system_id":"levelo_inurba_marseille","lat":43.317557,"lon":5.390173,"is_reserved":false,"is_disabled":false,"rental_uris":{"android":"levelo://app?vid=2127399f-d128-416b-8ad4-76d643702b2b","ios":"levelo://app?vid=2127399f-d128-416b-8ad4-76d643702b2b"},"vehicle_type_id":"4","last_reported":1711321651,"current_range_meters":30000,"station_id":"ce4bhqp2rcd13ifvqhng","pricing_plan_id":"cebpf4jnsgd1na2vs0mg"},{"bike_id":"2d5fb3dd-8046-40dd-829f-546b5b6801ec","system_id":"levelo_inurba_marseille","lat":43.31757,"lon":5.39014,"is_reserved":false,"is_disabled":false,"rental_uris":{"android":"levelo://app?vid=2d5fb3dd-8046-40dd-829f-546b5b6801ec","ios":"levelo://app?vid=2d5fb3dd-8046-40dd-829f-546b5b6801ec"},"vehicle_type_id":"4","last_reported":1711321651,"current_range_meters":13600,"station_id":"ce4bhqp2rcd13ifvqhng","pricing_plan_id":"cebpf4jnsgd1na2vs0mg"},{"bike_id":"3f7e5382-25ee-43e5-bbfc-00c7e9280b3d","system_id":"levelo_inurba_marseille","lat":43.317557,"lon":5.390173,"is_reserved":false,"is_disabled":false,"rental_uris":{"android":"levelo://app?vid=3f7e5382-25ee-43e5-bbfc-00c7e9280b3d","ios":"levelo://app?vid=3f7e5382-25ee-43e5-bbfc-00c7e9280b3d"},"vehicle_type_id":"4","last_reported":1711321651,"current_range_meters":18800,"station_id":"ce4bhqp2rcd13ifvqhng","pricing_plan_id":"cebpf4jnsgd1na2vs0mg"},{"bike_id":"6754a9e9-66e4-4669-85ef-d70f15e7e6a9","system_id":"levelo_inurba_marseille","lat":43.31751,"lon":5.39018,"is_reserved":false,"is_disabled":false,"rental_uris":{"android":"levelo://app?vid=6754a9e9-66e4-4669-85ef-d70f15e7e6a9","ios":"levelo://app?vid=6754a9e9-66e4-4669-85ef-d70f15e7e6a9"},"vehicle_type_id":"4","last_reported":1711321651,"current_range_meters":3200,"station_id":"ce4bhqp2rcd13ifvqhng","pricing_plan_id":"cebpf4jnsgd1na2vs0mg"},{"bike_id":"655aa1d0-cd5b-4fe3-baa3-fa62dfaf2660","system_id":"levelo_inurba_marseille","lat":43.317557,"lon":5.390173,"is_reserved":false,"is_disabled":false,"rental_uris":{"android":"levelo://app?vid=655aa1d0-cd5b-4fe3-baa3-fa62dfaf2660","ios":"levelo://app?vid=655aa1d0-cd5b-4fe3-baa3-fa62dfaf2660"},"vehicle_type_id":"4","last_reported":1711321651,"current_range_meters":27200,"station_id":"ce4bhqp2rcd13ifvqhng","pricing_plan_id":"cebpf4jnsgd1na2vs0mg"},{"bike_id":"64faaf0e-8299-47ab-9335-1274f7d2f7f6","system_id":"levelo_inurba_marseille","lat":43.31753,"lon":5.39021,"is_reserved":false,"is_disabled":false,"rental_uris":{"android":"levelo://app?vid=64faaf0e-8299-47ab-9335-1274f7d2f7f6","ios":"levelo://app?vid=64faaf0e-8299-47ab-9335-1274f7d2f7f6"},"vehicle_type_id":"4","last_reported":1711321651,"current_range_meters":6000,"station_id":"ce4bhqp2rcd13ifvqhng","pricing_plan_id":"cebpf4jnsgd1na2vs0mg"},{"bike_id":"d82f7987-e846-442b-9405-1b4dbe04d52c","system_id":"levelo_inurba_marseille","lat":43.31753,"lon":5.39023,"is_reserved":false,"is_disabled":false,"rental_uris":{"android":"levelo://app?vid=d82f7987-e846-442b-9405-1b4dbe04d52c","ios":"levelo://app?vid=d82f7987-e846-442b-9405-1b4dbe04d52c"},"vehicle_type_id":"4","last_reported":1711321651,"current_range_meters":4400,"station_id":"ce4bhqp2rcd13ifvqhng","pricing_plan_id":"cebpf4jnsgd1na2vs0mg"},{"bike_id":"a84494ff-e488-44c6-9347-0b89aeb12141","system_id":"levelo_inurba_marseille","lat":43.317532,"lon":5.390277,"is_reserved":false,"is_disabled":false,"rental_uris":{"android":"levelo://app?vid=a84494ff-e488-44c6-9347-0b89aeb12141","ios":"levelo://app?vid=a84494ff-e488-44c6-9347-0b89aeb12141"},"vehicle_type_id":"4","last_reported":1711321651,"current_range_meters":3600,"station_id":"ce4bhqp2rcd13ifvqhng","pricing_plan_id":"cebpf4jnsgd1na2vs0mg"},{"bike_id":"ceace010-13a8-4d77-9c8c-733f246cd8f3","system_id":"levelo_inurba_marseille","lat":43.297467,"lon":5.379242,"is_reserved":false,"is_disabled":false,"rental_uris":{"android":"levelo://app?vid=ceace010-13a8-4d77-9c8c-733f246cd8f3","ios":"levelo://app?vid=ceace010-13a8-4d77-9c8c-733f246cd8f3"},"vehicle_type_id":"4","last_reported":1711321651,"current_range_meters":1200,"station_id":"","pricing_plan_id":"cebpf4jnsgd1na2vs0mg"},{"bike_id":"397394ba-afd2-431c-8ab6-4b18b92cf92e","system_id":"levelo_inurba_marseille","lat":43.298037,"lon":5.381066,"is_reserved":false,"is_disabled":false,"rental_uris":{"android":"levelo://app?vid=397394ba-afd2-431c-8ab6-4b18b92cf92e","ios":"levelo://app?vid=397394ba-afd2-431c-8ab6-4b18b92cf92e"},"vehicle_type_id":"4","last_reported":1711321651,"current_range_meters":19200,"station_id":"ce4bgip2rcd13ifvqbb0","pricing_plan_id":"cebpf4jnsgd1na2vs0mg"},{"bike_id":"c5608d65-deed-4df0-ba77-39bcc3a8c1b6","system_id":"levelo_inurba_marseille","lat":43.304274,"lon":5.388873,"is_reserved":false,"is_disabled":false,"rental_uris":{"android":"levelo://app?vid=c5608d65-deed-4df0-ba77-39bcc3a8c1b6","ios":"levelo://app?vid=c5608d65-deed-4df0-ba77-39bcc3a8c1b6"},"vehicle_type_id":"4","last_reported":1711321651,"current_range_meters":0,"station_id":"ce4bgk12rcd13ifvqbi0","pricing_plan_id":"cebpf4jnsgd1na2vs0mg"},{"bike_id":"bfe274c8-62bc-4229-a592-6d263a819b7e","system_id":"levelo_inurba_marseille","lat":43.304274,"lon":5.388873,"is_reserved":false,"is_disabled":false,"rental_uris":{"android":"levelo://app?vid=bfe274c8-62bc-4229-a592-6d263a819b7e","ios":"levelo://app?vid=bfe274c8-62bc-4229-a592-6d263a819b7e"},"vehicle_type_id":"4","last_reported":1711321651,"current_range_meters":14400,"station_id":"ce4bgk12rcd13ifvqbi0","pricing_plan_id":"cebpf4jnsgd1na2vs0mg"},{"bike_id":"717a6247-a60c-4089-a19d-44bcc39af7dc","system_id":"levelo_inurba_marseille","lat":43.304274,"lon":5.388873,"is_reserved":false,"is_disabled":false,"rental_uris":{"android":"levelo://app?vid=717a6247-a60c-4089-a19d-44bcc39af7dc","ios":"levelo://app?vid=717a6247-a60c-4089-a19d-44bcc39af7dc"},"vehicle_type_id":"4","last_reported":1711321651,"current_range_meters":17200,"station_id":"ce4bgk12rcd13ifvqbi0","pricing_plan_id":"cebpf4jnsgd1na2vs0mg"},{"bike_id":"2c864b8f-45e6-4378-914b-5f0293c6372b","system_id":"levelo_inurba_marseille","lat":43.304278,"lon":5.388868,"is_reserved":false,"is_disabled":false,"rental_uris":{"android":"levelo://app?vid=2c864b8f-45e6-4378-914b-5f0293c6372b","ios":"levelo://app?vid=2c864b8f-45e6-4378-914b-5f0293c6372b"},"vehicle_type_id":"4","last_reported":1711321651,"current_range_meters":10000,"station_id":"ce4bgk12rcd13ifvqbi0","pricing_plan_id":"cebpf4jnsgd1na2vs0mg"},{"bike_id":"c7b6608b-f19c-4139-a9f2-e5f1abb9d5e1","system_id":"levelo_inurba_marseille","lat":43.304278,"lon":5.388868,"is_reserved":false,"is_disabled":false,"rental_uris":{"android":"levelo://app?vid=c7b6608b-f19c-4139-a9f2-e5f1abb9d5e1","ios":"levelo://app?vid=c7b6608b-f19c-4139-a9f2-e5f1abb9d5e1"},"vehicle_type_id":"4","last_reported":1711321651,"current_range_meters":10400,"station_id":"ce4bgk12rcd13ifvqbi0","pricing_plan_id":"cebpf4jnsgd1na2vs0mg"},{"bike_id":"7c7927ef-dff8-4073-a937-dd6062b8abc2","system_id":"levelo_inurba_marseille","lat":43.304278,"lon":5.388868,"is_reserved":false,"is_disabled":false,"rental_uris":{"android":"levelo://app?vid=7c7927ef-dff8-4073-a937-dd6062b8abc2","ios":"levelo://app?vid=7c7927ef-dff8-4073-a937-dd6062b8abc2"},"vehicle_type_id":"4","last_reported":1711321651,"current_range_meters":23200,"station_id":"ce4bgk12rcd13ifvqbi0","pricing_plan_id":"cebpf4jnsgd1na2vs0mg"},{"bike_id":"56c766cf-4ef9-47b6-be54-07e4babb6b63","system_id":"levelo_inurba_marseille","lat":43.297917,"lon":5.381063,"is_reserved":false,"is_disabled":false,"rental_uris":{"android":"levelo://app?vid=56c766cf-4ef9-47b6-be54-07e4babb6b63","ios":"levelo://app?vid=56c766cf-4ef9-47b6-be54-07e4babb6b63"},"vehicle_type_id":"4","last_reported":1711321651,"current_range_meters":8800,"station_id":"ce4bgip2rcd13ifvqbb0","pricing_plan_id":"cebpf4jnsgd1na2vs0mg"},{"bike_id":"e017c821-aefe-40d2-835f-9f4fd0258cac","system_id":"levelo_inurba_marseille","lat":43.295748,"lon":5.37522,"is_reserved":false,"is_disabled":false,"rental_uris":{"android":"levelo://app?vid=e017c821-aefe-40d2-835f-9f4fd0258cac","ios":"levelo://app?vid=e017c821-aefe-40d2-835f-9f4fd0258cac"},"vehicle_type_id":"4","last_reported":1711321651,"current_range_meters":0,"station_id":"ce4bgh92rcd13ifvqb50","pricing_plan_id":"cebpf4jnsgd1na2vs0mg"},{"bike_id":"d8a6fa24-0ae1-4e18-9f3a-5d1ee56263a4","system_id":"levelo_inurba_marseille","lat":43.298037,"lon":5.381066,"is_reserved":false,"is_disabled":false,"rental_uris":{"android":"levelo://app?vid=d8a6fa24-0ae1-4e18-9f3a-5d1ee56263a4","ios":"levelo://app?vid=d8a6fa24-0ae1-4e18-9f3a-5d1ee56263a4"},"vehicle_type_id":"4","last_reported":1711321651,"current_range_meters":8000,"station_id":"ce4bgip2rcd13ifvqbb0","pricing_plan_id":"cebpf4jnsgd1na2vs0mg"},{"bike_id":"be9d6e3a-3883-4128-9cda-017fd166ea5a","system_id":"levelo_inurba_marseille","lat":43.295748,"lon":5.37522,"is_reserved":false,"is_disabled":false,"rental_uris":{"android":"levelo://app?vid=be9d6e3a-3883-4128-9cda-017fd166ea5a","ios":"levelo://app?vid=be9d6e3a-3883-4128-9cda-017fd166ea5a"},"vehicle_type_id":"4","last_reported":1711321651,"current_range_meters":0,"station_id":"ce4bgh92rcd13ifvqb50","pricing_plan_id":"cebpf4jnsgd1na2vs0mg"},{"bike_id":"b485d69e-09ac-4141-a1de-35f5300256ba","system_id":"levelo_inurba_marseille","lat":43.304274,"lon":5.388873,"is_reserved":false,"is_disabled":false,"rental_uris":{"android":"levelo://app?vid=b485d69e-09ac-4141-a1de-35f5300256ba","ios":"levelo://app?vid=b485d69e-09ac-4141-a1de-35f5300256ba"},"vehicle_type_id":"4","last_reported":1711321651,"current_range_meters":2000,"station_id":"ce4bgk12rcd13ifvqbi0","pricing_plan_id":"cebpf4jnsgd1na2vs0mg"},{"bike_id":"f958375e-d616-45a5-b8bb-a533c27e5db3","system_id":"levelo_inurba_marseille","lat":43.304274,"lon":5.388873,"is_reserved":false,"is_disabled":false,"rental_uris":{"android":"levelo://app?vid=f958375e-d616-45a5-b8bb-a533c27e5db3","ios":"levelo://app?vid=f958375e-d616-45a5-b8bb-a533c27e5db3"},"vehicle_type_id":"4","last_reported":1711321651,"current_range_meters":11600,"station_id":"ce4bgk12rcd13ifvqbi0","pricing_plan_id":"cebpf4jnsgd1na2vs0mg"},{"bike_id":"427784c0-9dac-471b-b2ce-81bad5cba5c9","system_id":"levelo_inurba_marseille","lat":43.304274,"lon":5.388873,"is_reserved":false,"is_disabled":false,"rental_uris":{"android":"levelo://app?vid=427784c0-9dac-471b-b2ce-81bad5cba5c9","ios":"levelo://app?vid=427784c0-9dac-471b-b2ce-81bad5cba5c9"},"vehicle_type_id":"4","last_reported":1711321651,"current_range_meters":27600,"station_id":"ce4bgk12rcd13ifvqbi0","pricing_plan_id":"cebpf4jnsgd1na2vs0mg"},{"bike_id":"617b0e6f-676e-40f0-bbaf-c9395e5b4dcd","system_id":"levelo_inurba_marseille","lat":43.314598,"lon":5.392114,"is_reserved":false,"is_disabled":false,"rental_uris":{"android":"levelo://app?vid=617b0e6f-676e-40f0-bbaf-c9395e5b4dcd","ios":"levelo://app?vid=617b0e6f-676e-40f0-bbaf-c9395e5b4dcd"},"vehicle_type_id":"4","last_reported":1711321651,"current_range_meters":5200,"station_id":"","pricing_plan_id":"cebpf4jnsgd1na2vs0mg"},{"bike_id":"bf9bf615-bce6-4b76-a67d-ae2385bcd89c","system_id":"levelo_inurba_marseille","lat":43.314634,"lon":5.392211,"is_reserved":false,"is_disabled":false,"rental_uris":{"android":"levelo://app?vid=bf9bf615-bce6-4b76-a67d-ae2385bcd89c","ios":"levelo://app?vid=bf9bf615-bce6-4b76-a67d-ae2385bcd89c"},"vehicle_type_id":"4","last_reported":1711321651,"current_range_meters":31200,"station_id":"","pricing_plan_id":"cebpf4jnsgd1na2vs0mg"},{"bike_id":"3c9dfb89-fa8c-41db-88ed-f6fffc463c9d","system_id":"levelo_inurba_marseille","lat":43.32367,"lon":5.388836,"is_reserved":false,"is_disabled":false,"rental_uris":{"android":"levelo://app?vid=3c9dfb89-fa8c-41db-88ed-f6fffc463c9d","ios":"levelo://app?vid=3c9dfb89-fa8c-41db-88ed-f6fffc463c9d"},"vehicle_type_id":"4","last_reported":1711321651,"current_range_meters":9600,"station_id":"ce4bhqp2rcd13ifvqhog","pricing_plan_id":"cebpf4jnsgd1na2vs0mg"},{"bike_id":"32a8d61d-f3bf-4bec-a1a3-1c4d4de72d82","system_id":"levelo_inurba_marseille","lat":43.32367,"lon":5.388836,"is_reserved":false,"is_disabled":false,"rental_uris":{"android":"levelo://app?vid=32a8d61d-f3bf-4bec-a1a3-1c4d4de72d82","ios":"levelo://app?vid=32a8d61d-f3bf-4bec-a1a3-1c4d4de72d82"},"vehicle_type_id":"4","last_reported":1711321651,"current_range_meters":0,"station_id":"ce4bhqp2rcd13ifvqhog","pricing_plan_id":"cebpf4jnsgd1na2vs0mg"},{"bike_id":"4a3df1e6-d90c-4e48-b8ff-ad7fdfe779c9","system_id":"levelo_inurba_marseille","lat":43.32368,"lon":5.38888,"is_reserved":false,"is_disabled":false,"rental_uris":{"android":"levelo://app?vid=4a3df1e6-d90c-4e48-b8ff-ad7fdfe779c9","ios":"levelo://app?vid=4a3df1e6-d90c-4e48-b8ff-ad7fdfe779c9"},"vehicle_type_id":"4","last_reported":1711321651,"current_range_meters":0,"station_id":"ce4bhqp2rcd13ifvqhog","pricing_plan_id":"cebpf4jnsgd1na2vs0mg"},{"bike_id":"c9a3c98e-7cac-4856-b507-897618b57146","system_id":"levelo_inurba_marseille","lat":43.323662,"lon":5.388968,"is_reserved":false,"is_disabled":false,"rental_uris":{"android":"levelo://app?vid=c9a3c98e-7cac-4856-b507-897618b57146","ios":"levelo://app?vid=c9a3c98e-7cac-4856-b507-897618b57146"},"vehicle_type_id":"4","last_reported":1711321651,"current_range_meters":3200,"station_id":"ce4bhqp2rcd13ifvqhog","pricing_plan_id":"cebpf4jnsgd1na2vs0mg"},{"bike_id":"5f64c8f7-0508-4282-a046-ed90eb561669","system_id":"levelo_inurba_marseille","lat":43.29602,"lon":5.381084,"is_reserved":false,"is_disabled":false,"rental_uris":{"android":"levelo://app?vid=5f64c8f7-0508-4282-a046-ed90eb561669","ios":"levelo://app?vid=5f64c8f7-0508-4282-a046-ed90eb561669"},"vehicle_type_id":"4","last_reported":1711321651,"current_range_meters":20800,"station_id":"ce4bgl12rcd13ifvqbo0","pricing_plan_id":"cebpf4jnsgd1na2vs0mg"},{"bike_id":"3b19eb50-82bb-45e2-ae17-3c5b0329dd2a","system_id":"levelo_inurba_marseille","lat":43.295944,"lon":5.381043,"is_reserved":false,"is_disabled":false,"rental_uris":{"android":"levelo://app?vid=3b19eb50-82bb-45e2-ae17-3c5b0329dd2a","ios":"levelo://app?vid=3b19eb50-82bb-45e2-ae17-3c5b0329dd2a"},"vehicle_type_id":"4","last_reported":1711321651,"current_range_meters":30000,"station_id":"ce4bhih2rcd13ifvqfr0","pricing_plan_id":"cebpf4jnsgd1na2vs0mg"},{"bike_id":"ace49e2b-b313-4038-a7d8-180d993af626","system_id":"levelo_inurba_marseille","lat":43.29602,"lon":5.381084,"is_reserved":false,"is_disabled":false,"rental_uris":{"android":"levelo://app?vid=ace49e2b-b313-4038-a7d8-180d993af626","ios":"levelo://app?vid=ace49e2b-b313-4038-a7d8-180d993af626"},"vehicle_type_id":"4","last_reported":1711321651,"current_range_meters":21600,"station_id":"ce4bgl12rcd13ifvqbo0","pricing_plan_id":"cebpf4jnsgd1na2vs0mg"},{"bike_id":"af20fe1b-1205-495a-ae29-c78e2bd2f7ff","system_id":"levelo_inurba_marseille","lat":43.29594,"lon":5.3811,"is_reserved":false,"is_disabled":false,"rental_uris":{"android":"levelo://app?vid=af20fe1b-1205-495a-ae29-c78e2bd2f7ff","ios":"levelo://app?vid=af20fe1b-1205-495a-ae29-c78e2bd2f7ff"},"vehicle_type_id":"4","last_reported":1711321651,"current_range_meters":18800,"station_id":"ce4bgl12rcd13ifvqbo0","pricing_plan_id":"cebpf4jnsgd1na2vs0mg"},{"bike_id":"60e69e68-0b22-4956-a456-0311256bf4de","system_id":"levelo_inurba_marseille","lat":43.29587,"lon":5.38101,"is_reserved":false,"is_disabled":false,"rental_uris":{"android":"levelo://app?vid=60e69e68-0b22-4956-a456-0311256bf4de","ios":"levelo://app?vid=60e69e68-0b22-4956-a456-0311256bf4de"},"vehicle_type_id":"4","last_reported":1711321651,"current_range_meters":28000,"station_id":"ce4bgl12rcd13ifvqbo0","pricing_plan_id":"cebpf4jnsgd1na2vs0mg"},{"bike_id":"bcc56b8a-c4f9-4a98-b99d-6a8543e43f0a","system_id":"levelo_inurba_marseille","lat":43.29602,"lon":5.381084,"is_reserved":false,"is_disabled":false,"rental_uris":{"android":"levelo://app?vid=bcc56b8a-c4f9-4a98-b99d-6a8543e43f0a","ios":"levelo://app?vid=bcc56b8a-c4f9-4a98-b99d-6a8543e43f0a"},"vehicle_type_id":"4","last_reported":1711321651,"current_range_meters":27200,"station_id":"ce4bgl12rcd13ifvqbo0","pricing_plan_id":"cebpf4jnsgd1na2vs0mg"},{"bike_id":"b83e59b8-746e-4834-8444-55d624f71a3c","system_id":"levelo_inurba_marseille","lat":43.293249,"lon":5.371578,"is_reserved":false,"is_disabled":false,"rental_uris":{"android":"levelo://app?vid=b83e59b8-746e-4834-8444-55d624f71a3c","ios":"levelo://app?vid=b83e59b8-746e-4834-8444-55d624f71a3c"},"vehicle_type_id":"4","last_reported":1711321651,"current_range_meters":6400,"station_id":"ce4bgh92rcd13ifvqb40","pricing_plan_id":"cebpf4jnsgd1na2vs0mg"},{"bike_id":"6d3b0099-0598-4f86-9eee-ca3026f7758b","system_id":"levelo_inurba_marseille","lat":43.292749,"lon":5.368402,"is_reserved":false,"is_disabled":false,"rental_uris":{"android":"levelo://app?vid=6d3b0099-0598-4f86-9eee-ca3026f7758b","ios":"levelo://app?vid=6d3b0099-0598-4f86-9eee-ca3026f7758b"},"vehicle_type_id":"4","last_reported":1711321651,"current_range_meters":28400,"station_id":"ce4bhbp2rcd13ifvqesg","pricing_plan_id":"cebpf4jnsgd1na2vs0mg"},{"bike_id":"f625ac3a-7cc4-47d9-a03b-ba88955d4d39","system_id":"levelo_inurba_marseille","lat":43.292749,"lon":5.368402,"is_reserved":false,"is_disabled":false,"rental_uris":{"android":"levelo://app?vid=f625ac3a-7cc4-47d9-a03b-ba88955d4d39","ios":"levelo://app?vid=f625ac3a-7cc4-47d9-a03b-ba88955d4d39"},"vehicle_type_id":"4","last_reported":1711321651,"current_range_meters":26000,"station_id":"ce4bhbp2rcd13ifvqesg","pricing_plan_id":"cebpf4jnsgd1na2vs0mg"},{"bike_id":"71680f99-c0c5-440f-8bcf-ddcddcab1049","system_id":"levelo_inurba_marseille","lat":43.292749,"lon":5.368402,"is_reserved":false,"is_disabled":false,"rental_uris":{"android":"levelo://app?vid=71680f99-c0c5-440f-8bcf-ddcddcab1049","ios":"levelo://app?vid=71680f99-c0c5-440f-8bcf-ddcddcab1049"},"vehicle_type_id":"4","last_reported":1711321651,"current_range_meters":27200,"station_id":"ce4bhbp2rcd13ifvqesg","pricing_plan_id":"cebpf4jnsgd1na2vs0mg"},{"bike_id":"f7420bc8-daab-4c9f-9e8f-be439f245577","system_id":"levelo_inurba_marseille","lat":43.2927,"lon":5.36841,"is_reserved":false,"is_disabled":false,"rental_uris":{"android":"levelo://app?vid=f7420bc8-daab-4c9f-9e8f-be439f245577","ios":"levelo://app?vid=f7420bc8-daab-4c9f-9e8f-be439f245577"},"vehicle_type_id":"4","last_reported":1711321651,"current_range_meters":24000,"station_id":"ce4bhbp2rcd13ifvqesg","pricing_plan_id":"cebpf4jnsgd1na2vs0mg"},{"bike_id":"0548cdba-c95e-459a-baee-7199023b88d5","system_id":"levelo_inurba_marseille","lat":43.292749,"lon":5.368402,"is_reserved":false,"is_disabled":false,"rental_uris":{"android":"levelo://app?vid=0548cdba-c95e-459a-baee-7199023b88d5","ios":"levelo://app?vid=0548cdba-c95e-459a-baee-7199023b88d5"},"vehicle_type_id":"4","last_reported":1711321651,"current_range_meters":26400,"station_id":"ce4bhbp2rcd13ifvqesg","pricing_plan_id":"cebpf4jnsgd1na2vs0mg"},{"bike_id":"63dd5526-08d1-4ec1-a6b9-58cf8b079be7","system_id":"levelo_inurba_marseille","lat":43.292749,"lon":5.368402,"is_reserved":false,"is_disabled":false,"rental_uris":{"android":"levelo://app?vid=63dd5526-08d1-4ec1-a6b9-58cf8b079be7","ios":"levelo://app?vid=63dd5526-08d1-4ec1-a6b9-58cf8b079be7"},"vehicle_type_id":"4","last_reported":1711321651,"current_range_meters":26400,"station_id":"ce4bhbp2rcd13ifvqesg","pricing_plan_id":"cebpf4jnsgd1na2vs0mg"},{"bike_id":"12caf6f7-91df-4883-9a78-08fd098a8ee7","system_id":"levelo_inurba_marseille","lat":43.305994,"lon":5.393687,"is_reserved":false,"is_disabled":false,"rental_uris":{"android":"levelo://app?vid=12caf6f7-91df-4883-9a78-08fd098a8ee7","ios":"levelo://app?vid=12caf6f7-91df-4883-9a78-08fd098a8ee7"},"vehicle_type_id":"4","last_reported":1711321651,"current_range_meters":13200,"station_id":"ce4bh0p2rcd13ifvqd80","pricing_plan_id":"cebpf4jnsgd1na2vs0mg"},{"bike_id":"fd15f54b-9ceb-47c3-a29c-3bb1c7684836","system_id":"levelo_inurba_marseille","lat":43.305994,"lon":5.393687,"is_reserved":false,"is_disabled":false,"rental_uris":{"android":"levelo://app?vid=fd15f54b-9ceb-47c3-a29c-3bb1c7684836","ios":"levelo://app?vid=fd15f54b-9ceb-47c3-a29c-3bb1c7684836"},"vehicle_type_id":"4","last_reported":1711321651,"current_range_meters":28400,"station_id":"ce4bh0p2rcd13ifvqd80","pricing_plan_id":"cebpf4jnsgd1na2vs0mg"},{"bike_id":"a4b99bf9-b003-4a98-9ed8-7806be131bae","system_id":"levelo_inurba_marseille","lat":43.2936,"lon":5.37835,"is_reserved":false,"is_disabled":false,"rental_uris":{"android":"levelo://app?vid=a4b99bf9-b003-4a98-9ed8-7806be131bae","ios":"levelo://app?vid=a4b99bf9-b003-4a98-9ed8-7806be131bae"},"vehicle_type_id":"4","last_reported":1711321651,"current_range_meters":27600,"station_id":"ce4bgjh2rcd13ifvqbf0","pricing_plan_id":"cebpf4jnsgd1na2vs0mg"},{"bike_id":"a99fadac-f039-40b3-bb88-3b12444a059b","system_id":"levelo_inurba_marseille","lat":43.302992,"lon":5.392136,"is_reserved":false,"is_disabled":false,"rental_uris":{"android":"levelo://app?vid=a99fadac-f039-40b3-bb88-3b12444a059b","ios":"levelo://app?vid=a99fadac-f039-40b3-bb88-3b12444a059b"},"vehicle_type_id":"4","last_reported":1711321651,"current_range_meters":400,"station_id":"ce4bgkh2rcd13ifvqbk0","pricing_plan_id":"cebpf4jnsgd1na2vs0mg"},{"bike_id":"d808d336-62f6-4165-825b-d075199f24ce","system_id":"levelo_inurba_marseille","lat":43.302992,"lon":5.392136,"is_reserved":false,"is_disabled":false,"rental_uris":{"android":"levelo://app?vid=d808d336-62f6-4165-825b-d075199f24ce","ios":"levelo://app?vid=d808d336-62f6-4165-825b-d075199f24ce"},"vehicle_type_id":"4","last_reported":1711321651,"current_range_meters":31200,"station_id":"ce4bgkh2rcd13ifvqbk0","pricing_plan_id":"cebpf4jnsgd1na2vs0mg"},{"bike_id":"990a543c-a485-4d26-9256-166dc7641d31","system_id":"levelo_inurba_marseille","lat":43.302992,"lon":5.392136,"is_reserved":false,"is_disabled":false,"rental_uris":{"android":"levelo://app?vid=990a543c-a485-4d26-9256-166dc7641d31","ios":"levelo://app?vid=990a543c-a485-4d26-9256-166dc7641d31"},"vehicle_type_id":"4","last_reported":1711321651,"current_range_meters":31200,"station_id":"ce4bgkh2rcd13ifvqbk0","pricing_plan_id":"cebpf4jnsgd1na2vs0mg"},{"bike_id":"ca7c32da-e458-4e5a-91c8-12c4fbd40676","system_id":"levelo_inurba_marseille","lat":43.302992,"lon":5.392136,"is_reserved":false,"is_disabled":false,"rental_uris":{"android":"levelo://app?vid=ca7c32da-e458-4e5a-91c8-12c4fbd40676","ios":"levelo://app?vid=ca7c32da-e458-4e5a-91c8-12c4fbd40676"},"vehicle_type_id":"4","last_reported":1711321651,"current_range_meters":20400,"station_id":"ce4bgkh2rcd13ifvqbk0","pricing_plan_id":"cebpf4jnsgd1na2vs0mg"},{"bike_id":"09a54d30-564d-4df6-8e05-798766d495cc","system_id":"levelo_inurba_marseille","lat":43.293689,"lon":5.37859,"is_reserved":false,"is_disabled":false,"rental_uris":{"android":"levelo://app?vid=09a54d30-564d-4df6-8e05-798766d495cc","ios":"levelo://app?vid=09a54d30-564d-4df6-8e05-798766d495cc"},"vehicle_type_id":"4","last_reported":1711321651,"current_range_meters":0,"station_id":"ce4bgjh2rcd13ifvqbf0","pricing_plan_id":"cebpf4jnsgd1na2vs0mg"},{"bike_id":"81437622-84ee-42dd-805f-6816d0e5d045","system_id":"levelo_inurba_marseille","lat":43.292311,"lon":5.360731,"is_reserved":false,"is_disabled":false,"rental_uris":{"android":"levelo://app?vid=81437622-84ee-42dd-805f-6816d0e5d045","ios":"levelo://app?vid=81437622-84ee-42dd-805f-6816d0e5d045"},"vehicle_type_id":"4","last_reported":1711321651,"current_range_meters":30000,"station_id":"ce4bhbh2rcd13ifvqeqg","pricing_plan_id":"cebpf4jnsgd1na2vs0mg"},{"bike_id":"68157bc9-3fc2-4852-8adc-1402d33a656c","system_id":"levelo_inurba_marseille","lat":43.292311,"lon":5.360731,"is_reserved":false,"is_disabled":false,"rental_uris":{"android":"levelo://app?vid=68157bc9-3fc2-4852-8adc-1402d33a656c","ios":"levelo://app?vid=68157bc9-3fc2-4852-8adc-1402d33a656c"},"vehicle_type_id":"4","last_reported":1711321651,"current_range_meters":26400,"station_id":"ce4bhbh2rcd13ifvqeqg","pricing_plan_id":"cebpf4jnsgd1na2vs0mg"},{"bike_id":"9b4e5e46-3d83-45f0-b7ec-e700140df6be","system_id":"levelo_inurba_marseille","lat":43.292311,"lon":5.360731,"is_reserved":false,"is_disabled":false,"rental_uris":{"android":"levelo://app?vid=9b4e5e46-3d83-45f0-b7ec-e700140df6be","ios":"levelo://app?vid=9b4e5e46-3d83-45f0-b7ec-e700140df6be"},"vehicle_type_id":"4","last_reported":1711321651,"current_range_meters":23200,"station_id":"ce4bhbh2rcd13ifvqeqg","pricing_plan_id":"cebpf4jnsgd1na2vs0mg"},{"bike_id":"b2abbe17-22bf-4e92-8b21-bd2f3c095642","system_id":"levelo_inurba_marseille","lat":43.292311,"lon":5.360731,"is_reserved":false,"is_disabled":false,"rental_uris":{"android":"levelo://app?vid=b2abbe17-22bf-4e92-8b21-bd2f3c095642","ios":"levelo://app?vid=b2abbe17-22bf-4e92-8b21-bd2f3c095642"},"vehicle_type_id":"4","last_reported":1711321651,"current_range_meters":30000,"station_id":"ce4bhbh2rcd13ifvqeqg","pricing_plan_id":"cebpf4jnsgd1na2vs0mg"},{"bike_id":"f930cdc3-fa9d-4e07-9d5a-a2232e593c01","system_id":"levelo_inurba_marseille","lat":43.291671,"lon":5.371575,"is_reserved":false,"is_disabled":false,"rental_uris":{"android":"levelo://app?vid=f930cdc3-fa9d-4e07-9d5a-a2232e593c01","ios":"levelo://app?vid=f930cdc3-fa9d-4e07-9d5a-a2232e593c01"},"vehicle_type_id":"4","last_reported":1711321651,"current_range_meters":23200,"station_id":"ce4bha92rcd13ifvqeh0","pricing_plan_id":"cebpf4jnsgd1na2vs0mg"},{"bike_id":"95706434-a502-4a7f-8034-da9c5d360171","system_id":"levelo_inurba_marseille","lat":43.291678,"lon":5.371472,"is_reserved":false,"is_disabled":false,"rental_uris":{"android":"levelo://app?vid=95706434-a502-4a7f-8034-da9c5d360171","ios":"levelo://app?vid=95706434-a502-4a7f-8034-da9c5d360171"},"vehicle_type_id":"4","last_reported":1711321651,"current_range_meters":22000,"station_id":"ce4bha92rcd13ifvqeh0","pricing_plan_id":"cebpf4jnsgd1na2vs0mg"},{"bike_id":"2eee988b-b34f-4ca6-bdd2-310af80f3dec","system_id":"levelo_inurba_marseille","lat":43.29875,"lon":5.38909,"is_reserved":false,"is_disabled":false,"rental_uris":{"android":"levelo://app?vid=2eee988b-b34f-4ca6-bdd2-310af80f3dec","ios":"levelo://app?vid=2eee988b-b34f-4ca6-bdd2-310af80f3dec"},"vehicle_type_id":"4","last_reported":1711321651,"current_range_meters":28000,"station_id":"ce4bh392rcd13ifvqdl0","pricing_plan_id":"cebpf4jnsgd1na2vs0mg"},{"bike_id":"501bde02-5377-4406-8aa8-56fceaae0671","system_id":"levelo_inurba_marseille","lat":43.29161,"lon":5.37147,"is_reserved":false,"is_disabled":false,"rental_uris":{"android":"levelo://app?vid=501bde02-5377-4406-8aa8-56fceaae0671","ios":"levelo://app?vid=501bde02-5377-4406-8aa8-56fceaae0671"},"vehicle_type_id":"4","last_reported":1711321651,"current_range_meters":0,"station_id":"ce4bha92rcd13ifvqeh0","pricing_plan_id":"cebpf4jnsgd1na2vs0mg"},{"bike_id":"eed036a8-7bbc-4b94-82e6-875246a9783e","system_id":"levelo_inurba_marseille","lat":43.291994,"lon":5.357886,"is_reserved":false,"is_disabled":false,"rental_uris":{"android":"levelo://app?vid=eed036a8-7bbc-4b94-82e6-875246a9783e","ios":"levelo://app?vid=eed036a8-7bbc-4b94-82e6-875246a9783e"},"vehicle_type_id":"4","last_reported":1711321651,"current_range_meters":22800,"station_id":"ce4bhb12rcd13ifvqel0","pricing_plan_id":"cebpf4jnsgd1na2vs0mg"},{"bike_id":"3798347e-e047-45b3-9622-ef48c12b607c","system_id":"levelo_inurba_marseille","lat":43.291994,"lon":5.357886,"is_reserved":false,"is_disabled":false,"rental_uris":{"android":"levelo://app?vid=3798347e-e047-45b3-9622-ef48c12b607c","ios":"levelo://app?vid=3798347e-e047-45b3-9622-ef48c12b607c"},"vehicle_type_id":"4","last_reported":1711321651,"current_range_meters":7200,"station_id":"ce4bhb12rcd13ifvqel0","pricing_plan_id":"cebpf4jnsgd1na2vs0mg"},{"bike_id":"9f8aa523-cc03-4866-a137-c0d2a5b7c2dd","system_id":"levelo_inurba_marseille","lat":43.309038,"lon":5.396546,"is_reserved":false,"is_disabled":false,"rental_uris":{"android":"levelo://app?vid=9f8aa523-cc03-4866-a137-c0d2a5b7c2dd","ios":"levelo://app?vid=9f8aa523-cc03-4866-a137-c0d2a5b7c2dd"},"vehicle_type_id":"4","last_reported":1711321651,"current_range_meters":20000,"station_id":"ce4bh012rcd13ifvqcv0","pricing_plan_id":"cebpf4jnsgd1na2vs0mg"},{"bike_id":"99533cd4-9470-4d0d-a84e-e5a5e26b5b1f","system_id":"levelo_inurba_marseille","lat":43.308865,"lon":5.39641,"is_reserved":false,"is_disabled":false,"rental_uris":{"android":"levelo://app?vid=99533cd4-9470-4d0d-a84e-e5a5e26b5b1f","ios":"levelo://app?vid=99533cd4-9470-4d0d-a84e-e5a5e26b5b1f"},"vehicle_type_id":"4","last_reported":1711321651,"current_range_meters":4000,"station_id":"ce4bh012rcd13ifvqcv0","pricing_plan_id":"cebpf4jnsgd1na2vs0mg"},{"bike_id":"b907d8c2-242b-49ea-a0e0-e1a068a872c3","system_id":"levelo_inurba_marseille","lat":43.291994,"lon":5.357886,"is_reserved":false,"is_disabled":false,"rental_uris":{"android":"levelo://app?vid=b907d8c2-242b-49ea-a0e0-e1a068a872c3","ios":"levelo://app?vid=b907d8c2-242b-49ea-a0e0-e1a068a872c3"},"vehicle_type_id":"4","last_reported":1711321651,"current_range_meters":25200,"station_id":"ce4bhb12rcd13ifvqel0","pricing_plan_id":"cebpf4jnsgd1na2vs0mg"},{"bike_id":"376de0c9-ae70-4038-8f86-156ff007aae1","system_id":"levelo_inurba_marseille","lat":43.291994,"lon":5.357886,"is_reserved":false,"is_disabled":false,"rental_uris":{"android":"levelo://app?vid=376de0c9-ae70-4038-8f86-156ff007aae1","ios":"levelo://app?vid=376de0c9-ae70-4038-8f86-156ff007aae1"},"vehicle_type_id":"4","last_reported":1711321651,"current_range_meters":21200,"station_id":"ce4bhb12rcd13ifvqel0","pricing_plan_id":"cebpf4jnsgd1na2vs0mg"},{"bike_id":"ef91743d-ccc0-4c56-b1b9-c3c5a32e9dd9","system_id":"levelo_inurba_marseille","lat":43.313291,"lon":5.396838,"is_reserved":false,"is_disabled":false,"rental_uris":{"android":"levelo://app?vid=ef91743d-ccc0-4c56-b1b9-c3c5a32e9dd9","ios":"levelo://app?vid=ef91743d-ccc0-4c56-b1b9-c3c5a32e9dd9"},"vehicle_type_id":"4","last_reported":1711321651,"current_range_meters":20000,"station_id":"ce4bgvp2rcd13ifvqcu0","pricing_plan_id":"cebpf4jnsgd1na2vs0mg"},{"bike_id":"376923cd-9dd8-4ad1-914c-52d87d6fa346","system_id":"levelo_inurba_marseille","lat":43.309038,"lon":5.396546,"is_reserved":false,"is_disabled":false,"rental_uris":{"android":"levelo://app?vid=376923cd-9dd8-4ad1-914c-52d87d6fa346","ios":"levelo://app?vid=376923cd-9dd8-4ad1-914c-52d87d6fa346"},"vehicle_type_id":"4","last_reported":1711321651,"current_range_meters":24400,"station_id":"ce4bh012rcd13ifvqcv0","pricing_plan_id":"cebpf4jnsgd1na2vs0mg"},{"bike_id":"aa28034e-f661-4ad7-870d-1206f8117811","system_id":"levelo_inurba_marseille","lat":43.291994,"lon":5.357886,"is_reserved":false,"is_disabled":false,"rental_uris":{"android":"levelo://app?vid=aa28034e-f661-4ad7-870d-1206f8117811","ios":"levelo://app?vid=aa28034e-f661-4ad7-870d-1206f8117811"},"vehicle_type_id":"4","last_reported":1711321651,"current_range_meters":27600,"station_id":"ce4bhb12rcd13ifvqel0","pricing_plan_id":"cebpf4jnsgd1na2vs0mg"},{"bike_id":"ebb0fff5-cc5e-49e5-8486-05ba1945588b","system_id":"levelo_inurba_marseille","lat":43.308853,"lon":5.396473,"is_reserved":false,"is_disabled":false,"rental_uris":{"android":"levelo://app?vid=ebb0fff5-cc5e-49e5-8486-05ba1945588b","ios":"levelo://app?vid=ebb0fff5-cc5e-49e5-8486-05ba1945588b"},"vehicle_type_id":"4","last_reported":1711321651,"current_range_meters":13200,"station_id":"ce4bh012rcd13ifvqcv0","pricing_plan_id":"cebpf4jnsgd1na2vs0mg"},{"bike_id":"53c602b6-ba2c-4ae9-a0ae-f0923e1ec465","system_id":"levelo_inurba_marseille","lat":43.291994,"lon":5.357886,"is_reserved":false,"is_disabled":false,"rental_uris":{"android":"levelo://app?vid=53c602b6-ba2c-4ae9-a0ae-f0923e1ec465","ios":"levelo://app?vid=53c602b6-ba2c-4ae9-a0ae-f0923e1ec465"},"vehicle_type_id":"4","last_reported":1711321651,"current_range_meters":2000,"station_id":"ce4bhb12rcd13ifvqel0","pricing_plan_id":"cebpf4jnsgd1na2vs0mg"},{"bike_id":"4e895040-4760-47c6-a503-e1f98488d08a","system_id":"levelo_inurba_marseille","lat":43.291994,"lon":5.357886,"is_reserved":false,"is_disabled":false,"rental_uris":{"android":"levelo://app?vid=4e895040-4760-47c6-a503-e1f98488d08a","ios":"levelo://app?vid=4e895040-4760-47c6-a503-e1f98488d08a"},"vehicle_type_id":"4","last_reported":1711321651,"current_range_meters":29600,"station_id":"ce4bhb12rcd13ifvqel0","pricing_plan_id":"cebpf4jnsgd1na2vs0mg"},{"bike_id":"725ab139-c59d-4f21-82db-00431c1e182b","system_id":"levelo_inurba_marseille","lat":43.30888,"lon":5.3965,"is_reserved":false,"is_disabled":false,"rental_uris":{"android":"levelo://app?vid=725ab139-c59d-4f21-82db-00431c1e182b","ios":"levelo://app?vid=725ab139-c59d-4f21-82db-00431c1e182b"},"vehicle_type_id":"4","last_reported":1711321651,"current_range_meters":22400,"station_id":"ce4bh012rcd13ifvqcv0","pricing_plan_id":"cebpf4jnsgd1na2vs0mg"},{"bike_id":"d44c6ff9-4715-4809-b7d1-4ab411ed921d","system_id":"levelo_inurba_marseille","lat":43.308873,"lon":5.396507,"is_reserved":false,"is_disabled":false,"rental_uris":{"android":"levelo://app?vid=d44c6ff9-4715-4809-b7d1-4ab411ed921d","ios":"levelo://app?vid=d44c6ff9-4715-4809-b7d1-4ab411ed921d"},"vehicle_type_id":"4","last_reported":1711321651,"current_range_meters":18000,"station_id":"ce4bh012rcd13ifvqcv0","pricing_plan_id":"cebpf4jnsgd1na2vs0mg"},{"bike_id":"6bcf7e41-a104-421e-bbc2-e2f2a512e7bc","system_id":"levelo_inurba_marseille","lat":43.30883,"lon":5.39651,"is_reserved":false,"is_disabled":false,"rental_uris":{"android":"levelo://app?vid=6bcf7e41-a104-421e-bbc2-e2f2a512e7bc","ios":"levelo://app?vid=6bcf7e41-a104-421e-bbc2-e2f2a512e7bc"},"vehicle_type_id":"4","last_reported":1711321651,"current_range_meters":29600,"station_id":"ce4bh012rcd13ifvqcv0","pricing_plan_id":"cebpf4jnsgd1na2vs0mg"},{"bike_id":"8447ff2e-9609-405e-9eb3-c0c1ffb6fa48","system_id":"levelo_inurba_marseille","lat":43.30885,"lon":5.39654,"is_reserved":false,"is_disabled":false,"rental_uris":{"android":"levelo://app?vid=8447ff2e-9609-405e-9eb3-c0c1ffb6fa48","ios":"levelo://app?vid=8447ff2e-9609-405e-9eb3-c0c1ffb6fa48"},"vehicle_type_id":"4","last_reported":1711321651,"current_range_meters":0,"station_id":"ce4bh012rcd13ifvqcv0","pricing_plan_id":"cebpf4jnsgd1na2vs0mg"},{"bike_id":"e34bcaf2-c122-4646-8e32-2df863f13b55","system_id":"levelo_inurba_marseille","lat":43.309047,"lon":5.396551,"is_reserved":false,"is_disabled":false,"rental_uris":{"android":"levelo://app?vid=e34bcaf2-c122-4646-8e32-2df863f13b55","ios":"levelo://app?vid=e34bcaf2-c122-4646-8e32-2df863f13b55"},"vehicle_type_id":"4","last_reported":1711321651,"current_range_meters":23200,"station_id":"ce4bh012rcd13ifvqcv0","pricing_plan_id":"cebpf4jnsgd1na2vs0mg"},{"bike_id":"bf4788b9-267c-43f6-976e-305dd38c534d","system_id":"levelo_inurba_marseille","lat":43.30887,"lon":5.39657,"is_reserved":false,"is_disabled":false,"rental_uris":{"android":"levelo://app?vid=bf4788b9-267c-43f6-976e-305dd38c534d","ios":"levelo://app?vid=bf4788b9-267c-43f6-976e-305dd38c534d"},"vehicle_type_id":"4","last_reported":1711321651,"current_range_meters":23600,"station_id":"ce4bh012rcd13ifvqcv0","pricing_plan_id":"cebpf4jnsgd1na2vs0mg"},{"bike_id":"739ea645-cacf-436b-a383-15ab5ee37d04","system_id":"levelo_inurba_marseille","lat":43.31328,"lon":5.39704,"is_reserved":false,"is_disabled":false,"rental_uris":{"android":"levelo://app?vid=739ea645-cacf-436b-a383-15ab5ee37d04","ios":"levelo://app?vid=739ea645-cacf-436b-a383-15ab5ee37d04"},"vehicle_type_id":"4","last_reported":1711321651,"current_range_meters":0,"station_id":"ce4bgvp2rcd13ifvqcu0","pricing_plan_id":"cebpf4jnsgd1na2vs0mg"},{"bike_id":"6fb1d368-53e7-4a08-98bb-af3068a7f122","system_id":"levelo_inurba_marseille","lat":43.29107,"lon":5.37157,"is_reserved":false,"is_disabled":false,"rental_uris":{"android":"levelo://app?vid=6fb1d368-53e7-4a08-98bb-af3068a7f122","ios":"levelo://app?vid=6fb1d368-53e7-4a08-98bb-af3068a7f122"},"vehicle_type_id":"4","last_reported":1711321651,"current_range_meters":25600,"station_id":"ce4bh5p2rcd13ifvqe4g","pricing_plan_id":"cebpf4jnsgd1na2vs0mg"},{"bike_id":"a9862dbe-b03c-4c00-82c1-0668ccaafebf","system_id":"levelo_inurba_marseille","lat":43.295352,"lon":5.385342,"is_reserved":false,"is_disabled":false,"rental_uris":{"android":"levelo://app?vid=a9862dbe-b03c-4c00-82c1-0668ccaafebf","ios":"levelo://app?vid=a9862dbe-b03c-4c00-82c1-0668ccaafebf"},"vehicle_type_id":"4","last_reported":1711321651,"current_range_meters":0,"station_id":"ce4bgih2rcd13ifvqba0","pricing_plan_id":"cebpf4jnsgd1na2vs0mg"},{"bike_id":"c4a2ceca-0c3b-4a51-8517-0ef83a79342b","system_id":"levelo_inurba_marseille","lat":43.308863,"lon":5.396653,"is_reserved":false,"is_disabled":false,"rental_uris":{"android":"levelo://app?vid=c4a2ceca-0c3b-4a51-8517-0ef83a79342b","ios":"levelo://app?vid=c4a2ceca-0c3b-4a51-8517-0ef83a79342b"},"vehicle_type_id":"4","last_reported":1711321651,"current_range_meters":18000,"station_id":"ce4bh012rcd13ifvqcv0","pricing_plan_id":"cebpf4jnsgd1na2vs0mg"},{"bike_id":"553be6ba-c65d-4cef-80a9-9bd5e9dea82e","system_id":"levelo_inurba_marseille","lat":43.328077,"lon":5.388814,"is_reserved":false,"is_disabled":false,"rental_uris":{"android":"levelo://app?vid=553be6ba-c65d-4cef-80a9-9bd5e9dea82e","ios":"levelo://app?vid=553be6ba-c65d-4cef-80a9-9bd5e9dea82e"},"vehicle_type_id":"4","last_reported":1711321651,"current_range_meters":30000,"station_id":"","pricing_plan_id":"cebpf4jnsgd1na2vs0mg"},{"bike_id":"f738765d-48a2-49c6-a17f-4571d6870940","system_id":"levelo_inurba_marseille","lat":43.290779,"lon":5.371482,"is_reserved":false,"is_disabled":false,"rental_uris":{"android":"levelo://app?vid=f738765d-48a2-49c6-a17f-4571d6870940","ios":"levelo://app?vid=f738765d-48a2-49c6-a17f-4571d6870940"},"vehicle_type_id":"4","last_reported":1711321651,"current_range_meters":28800,"station_id":"ce4bh5p2rcd13ifvqe4g","pricing_plan_id":"cebpf4jnsgd1na2vs0mg"},{"bike_id":"932c1674-9e7f-43ae-8667-237ac5f11d10","system_id":"levelo_inurba_marseille","lat":43.290779,"lon":5.371482,"is_reserved":false,"is_disabled":false,"rental_uris":{"android":"levelo://app?vid=932c1674-9e7f-43ae-8667-237ac5f11d10","ios":"levelo://app?vid=932c1674-9e7f-43ae-8667-237ac5f11d10"},"vehicle_type_id":"4","last_reported":1711321651,"current_range_meters":28400,"station_id":"ce4bh5p2rcd13ifvqe4g","pricing_plan_id":"cebpf4jnsgd1na2vs0mg"},{"bike_id":"1ed88598-09a2-4751-b246-7d22d8b423e0","system_id":"levelo_inurba_marseille","lat":43.290779,"lon":5.371482,"is_reserved":false,"is_disabled":false,"rental_uris":{"android":"levelo://app?vid=1ed88598-09a2-4751-b246-7d22d8b423e0","ios":"levelo://app?vid=1ed88598-09a2-4751-b246-7d22d8b423e0"},"vehicle_type_id":"4","last_reported":1711321651,"current_range_meters":22000,"station_id":"ce4bh5p2rcd13ifvqe4g","pricing_plan_id":"cebpf4jnsgd1na2vs0mg"},{"bike_id":"b4589abe-d197-44ec-8b1b-a98a0a6a5583","system_id":"levelo_inurba_marseille","lat":43.290779,"lon":5.371482,"is_reserved":false,"is_disabled":false,"rental_uris":{"android":"levelo://app?vid=b4589abe-d197-44ec-8b1b-a98a0a6a5583","ios":"levelo://app?vid=b4589abe-d197-44ec-8b1b-a98a0a6a5583"},"vehicle_type_id":"4","last_reported":1711321651,"current_range_meters":23600,"station_id":"ce4bh5p2rcd13ifvqe4g","pricing_plan_id":"cebpf4jnsgd1na2vs0mg"},{"bike_id":"8bc91653-44bc-4e8d-9461-dae6438d1123","system_id":"levelo_inurba_marseille","lat":43.296375,"lon":5.387806,"is_reserved":false,"is_disabled":false,"rental_uris":{"android":"levelo://app?vid=8bc91653-44bc-4e8d-9461-dae6438d1123","ios":"levelo://app?vid=8bc91653-44bc-4e8d-9461-dae6438d1123"},"vehicle_type_id":"4","last_reported":1711321651,"current_range_meters":18400,"station_id":"","pricing_plan_id":"cebpf4jnsgd1na2vs0mg"},{"bike_id":"a9d837d0-d194-47f2-b812-516431e69eea","system_id":"levelo_inurba_marseille","lat":43.290779,"lon":5.371482,"is_reserved":false,"is_disabled":false,"rental_uris":{"android":"levelo://app?vid=a9d837d0-d194-47f2-b812-516431e69eea","ios":"levelo://app?vid=a9d837d0-d194-47f2-b812-516431e69eea"},"vehicle_type_id":"4","last_reported":1711321651,"current_range_meters":24400,"station_id":"ce4bh5p2rcd13ifvqe4g","pricing_plan_id":"cebpf4jnsgd1na2vs0mg"},{"bike_id":"1e0e7557-36a1-4468-bc55-eb260fa16c82","system_id":"levelo_inurba_marseille","lat":43.29058,"lon":5.37158,"is_reserved":false,"is_disabled":false,"rental_uris":{"android":"levelo://app?vid=1e0e7557-36a1-4468-bc55-eb260fa16c82","ios":"levelo://app?vid=1e0e7557-36a1-4468-bc55-eb260fa16c82"},"vehicle_type_id":"4","last_reported":1711321651,"current_range_meters":0,"station_id":"ce4bh5p2rcd13ifvqe4g","pricing_plan_id":"cebpf4jnsgd1na2vs0mg"},{"bike_id":"e96e6803-cb10-4498-9c78-5f7af85b86ed","system_id":"levelo_inurba_marseille","lat":43.302008,"lon":5.394694,"is_reserved":false,"is_disabled":false,"rental_uris":{"android":"levelo://app?vid=e96e6803-cb10-4498-9c78-5f7af85b86ed","ios":"levelo://app?vid=e96e6803-cb10-4498-9c78-5f7af85b86ed"},"vehicle_type_id":"4","last_reported":1711321651,"current_range_meters":4800,"station_id":"ce4bh0p2rcd13ifvqd70","pricing_plan_id":"cebpf4jnsgd1na2vs0mg"},{"bike_id":"dda02ec6-9fab-4ae4-8d10-ec6481412bc5","system_id":"levelo_inurba_marseille","lat":43.290631,"lon":5.359244,"is_reserved":false,"is_disabled":false,"rental_uris":{"android":"levelo://app?vid=dda02ec6-9fab-4ae4-8d10-ec6481412bc5","ios":"levelo://app?vid=dda02ec6-9fab-4ae4-8d10-ec6481412bc5"},"vehicle_type_id":"4","last_reported":1711321651,"current_range_meters":11600,"station_id":"ce4bha92rcd13ifvqeg0","pricing_plan_id":"cebpf4jnsgd1na2vs0mg"},{"bike_id":"f788eac8-b006-4ea1-9b6a-961e24647be4","system_id":"levelo_inurba_marseille","lat":43.290631,"lon":5.359244,"is_reserved":false,"is_disabled":false,"rental_uris":{"android":"levelo://app?vid=f788eac8-b006-4ea1-9b6a-961e24647be4","ios":"levelo://app?vid=f788eac8-b006-4ea1-9b6a-961e24647be4"},"vehicle_type_id":"4","last_reported":1711321651,"current_range_meters":18400,"station_id":"ce4bha92rcd13ifvqeg0","pricing_plan_id":"cebpf4jnsgd1na2vs0mg"},{"bike_id":"14f39539-3cbd-43cf-bbc9-26fcb0141601","system_id":"levelo_inurba_marseille","lat":43.290319,"lon":5.375732,"is_reserved":false,"is_disabled":false,"rental_uris":{"android":"levelo://app?vid=14f39539-3cbd-43cf-bbc9-26fcb0141601","ios":"levelo://app?vid=14f39539-3cbd-43cf-bbc9-26fcb0141601"},"vehicle_type_id":"4","last_reported":1711321651,"current_range_meters":6800,"station_id":"ce4bh692rcd13ifvqe90","pricing_plan_id":"cebpf4jnsgd1na2vs0mg"},{"bike_id":"69e7ae1b-d1b6-4ae2-9043-0ead08a6d8ff","system_id":"levelo_inurba_marseille","lat":43.289411,"lon":5.363908,"is_reserved":false,"is_disabled":false,"rental_uris":{"android":"levelo://app?vid=69e7ae1b-d1b6-4ae2-9043-0ead08a6d8ff","ios":"levelo://app?vid=69e7ae1b-d1b6-4ae2-9043-0ead08a6d8ff"},"vehicle_type_id":"4","last_reported":1711321651,"current_range_meters":30400,"station_id":"ce4bhc92rcd13ifvqetg","pricing_plan_id":"cebpf4jnsgd1na2vs0mg"},{"bike_id":"ff5d7d0c-dad8-419d-81e7-81ea67274e14","system_id":"levelo_inurba_marseille","lat":43.289468,"lon":5.363719,"is_reserved":false,"is_disabled":false,"rental_uris":{"android":"levelo://app?vid=ff5d7d0c-dad8-419d-81e7-81ea67274e14","ios":"levelo://app?vid=ff5d7d0c-dad8-419d-81e7-81ea67274e14"},"vehicle_type_id":"4","last_reported":1711321651,"current_range_meters":7200,"station_id":"ce4bhc92rcd13ifvqetg","pricing_plan_id":"cebpf4jnsgd1na2vs0mg"},{"bike_id":"baaa32ab-33fa-4e4b-8e5e-b9be93568f52","system_id":"levelo_inurba_marseille","lat":43.289369,"lon":5.36383,"is_reserved":false,"is_disabled":false,"rental_uris":{"android":"levelo://app?vid=baaa32ab-33fa-4e4b-8e5e-b9be93568f52","ios":"levelo://app?vid=baaa32ab-33fa-4e4b-8e5e-b9be93568f52"},"vehicle_type_id":"4","last_reported":1711321651,"current_range_meters":27200,"station_id":"ce4bhc92rcd13ifvqetg","pricing_plan_id":"cebpf4jnsgd1na2vs0mg"},{"bike_id":"6eabb84e-6780-4ddd-b8e7-1fae8b1dc6e4","system_id":"levelo_inurba_marseille","lat":43.289468,"lon":5.363719,"is_reserved":false,"is_disabled":false,"rental_uris":{"android":"levelo://app?vid=6eabb84e-6780-4ddd-b8e7-1fae8b1dc6e4","ios":"levelo://app?vid=6eabb84e-6780-4ddd-b8e7-1fae8b1dc6e4"},"vehicle_type_id":"4","last_reported":1711321651,"current_range_meters":27200,"station_id":"ce4bhc92rcd13ifvqetg","pricing_plan_id":"cebpf4jnsgd1na2vs0mg"},{"bike_id":"97518f66-c507-4697-943f-21a17875f50d","system_id":"levelo_inurba_marseille","lat":43.304296,"lon":5.397513,"is_reserved":false,"is_disabled":false,"rental_uris":{"android":"levelo://app?vid=97518f66-c507-4697-943f-21a17875f50d","ios":"levelo://app?vid=97518f66-c507-4697-943f-21a17875f50d"},"vehicle_type_id":"4","last_reported":1711321651,"current_range_meters":8000,"station_id":"ce4bh092rcd13ifvqd20","pricing_plan_id":"cebpf4jnsgd1na2vs0mg"},{"bike_id":"5f0becea-7ba3-428a-b492-74605d8a8c71","system_id":"levelo_inurba_marseille","lat":43.290103,"lon":5.356114,"is_reserved":false,"is_disabled":false,"rental_uris":{"android":"levelo://app?vid=5f0becea-7ba3-428a-b492-74605d8a8c71","ios":"levelo://app?vid=5f0becea-7ba3-428a-b492-74605d8a8c71"},"vehicle_type_id":"4","last_reported":1711321651,"current_range_meters":28400,"station_id":"ce4bhb92rcd13ifvqen0","pricing_plan_id":"cebpf4jnsgd1na2vs0mg"},{"bike_id":"66c664ae-85e7-47fc-a58a-1d4d188ad670","system_id":"levelo_inurba_marseille","lat":43.290103,"lon":5.356114,"is_reserved":false,"is_disabled":false,"rental_uris":{"android":"levelo://app?vid=66c664ae-85e7-47fc-a58a-1d4d188ad670","ios":"levelo://app?vid=66c664ae-85e7-47fc-a58a-1d4d188ad670"},"vehicle_type_id":"4","last_reported":1711321651,"current_range_meters":20800,"station_id":"ce4bhb92rcd13ifvqen0","pricing_plan_id":"cebpf4jnsgd1na2vs0mg"},