{"last_updated":1758183250,"ttl":60,"version":"2.2","data":{"bikes":[{"bike_id":"8299b599-6987-497e-b065-97ea8cd0f5e5","system_id":"levelo_inurba_marseille","lat":43.26781,"lon":5.39415,"is_reserved":false,"is_disabled":false,"rental_uris":{"android":"levelo://app?vid=8299b599-6987-497e-b065-97ea8cd0f5e5","ios":"levelo://app?vid=8299b599-6987-497e-b065-97ea8cd0f5e5"},"vehicle_type_id":"4","last_reported":1758183250,"current_range_meters":3200,"station_id":"ce4bhh12rcd13ifvqfg0","pricing_plan_id":"cebpf4jnsgd1na2vs0mg"},{"bike_id":"32ca9d94-8781-4edc-b80f-cdc9cf1fb9fc","system_id":"levelo_inurba_marseille","lat":43.21752,"lon":5.34612,"is_reserved":false,"is_disabled":true,"rental_uris":{"android":"levelo://app?vid=32ca9d94-8781-4edc-b80f-cdc9cf1fb9fc","ios":"levelo://app?vid=32ca9d94-8781-4edc-b80f-cdc9cf1fb9fc"},"vehicle_type_id":"4","last_reported":1758183250,"current_range_meters":3200,"station_id":"st_cvj6r9ubvosntc0bgbag","pricing_plan_id":"cebpf4jnsgd1na2vs0mg"},{"bike_id":"7b41693c-013f-48bf-af8c-df981d41cab0","system_id":"levelo_inurba_marseille","lat":43.26687,"lon":5.38276,"is_reserved":false,"is_disabled":false,"rental_uris":{"android":"levelo://app?vid=7b41693c-013f-48bf-af8c-df981d41cab0","ios":"levelo://app?vid=7b41693c-013f-48bf-af8c-df981d41cab0"},"vehicle_type_id":"4","last_reported":1758183250,"current_range_meters":3600,"station_id":"ce4bhg92rcd13ifvqf90","pricing_plan_id":"cebpf4jnsgd1na2vs0mg"},{"bike_id":"a334e716-0232-494c-8558-8a7bf8e49fb8","system_id":"levelo_inurba_marseille","lat":43.30792,"lon":5.37655,"is_reserved":false,"is_disabled":false,"rental_uris":{"android":"levelo://app?vid=a334e716-0232-494c-8558-8a7bf8e49fb8","ios":"levelo://app?vid=a334e716-0232-494c-8558-8a7bf8e49fb8"},"vehicle_type_id":"4","last_reported":1758183250,"current_range_meters":3600,"station_id":"ce4bgv92rcd13ifvqcq0","pricing_plan_id":"cebpf4jnsgd1na2vs0mg"},{"bike_id":"3eee99a3-d3b5-41f8-bcf5-8d695958c982","system_id":"levelo_inurba_marseille","lat":43.297,"lon":5.36606,"is_reserved":false,"is_disabled":false,"rental_uris":{"android":"levelo://app?vid=3eee99a3-d3b5-41f8-bcf5-8d695958c982","ios":"levelo://app?vid=3eee99a3-d3b5-41f8-bcf5-8d695958c982"},"vehicle_type_id":"4","last_reported":1758183250,"current_range_meters":4000,"station_id":"ce4bgn12rcd13ifvqbt0","pricing_plan_id":"cebpf4jnsgd1na2vs0mg"},{"bike_id":"4341b1f5-4a14-49e7-a43a-573424150616","system_id":"levelo_inurba_marseille","lat":43.30309,"lon":5.3688,"is_reserved":false,"is_disabled":false,"rental_uris":{"android":"levelo://app?vid=4341b1f5-4a14-49e7-a43a-573424150616","ios":"levelo://app?vid=4341b1f5-4a14-49e7-a43a-573424150616"},"vehicle_type_id":"4","last_reported":1758183250,"current_range_meters":4000,"station_id":"","pricing_plan_id":"cebpf4jnsgd1na2vs0mg"},{"bike_id":"f895eb90-d970-4448-b096-5a166a903f92","system_id":"levelo_inurba_marseille","lat":43.26555,"lon":5.37332,"is_reserved":false,"is_disabled":true,"rental_uris":{"android":"levelo://app?vid=f895eb90-d970-4448-b096-5a166a903f92","ios":"levelo://app?vid=f895eb90-d970-4448-b096-5a166a903f92"},"vehicle_type_id":"4","last_reported":1758183250,"current_range_meters":4400,"station_id":"ce4bhg12rcd13ifvqf70","pricing_plan_id":"cebpf4jnsgd1na2vs0mg"},{"bike_id":"60ebb411-8674-4bbf-a15a-146fbe6d0029","system_id":"levelo_inurba_marseille","lat":43.3095,"lon":5.39027,"is_reserved":false,"is_disabled":false,"rental_uris":{"android":"levelo://app?vid=60ebb411-8674-4bbf-a15a-146fbe6d0029","ios":"levelo://app?vid=60ebb411-8674-4bbf-a15a-146fbe6d0029"},"vehicle_type_id":"4","last_reported":1758183250,"current_range_meters":4400,"station_id":"ce4bgup2rcd13ifvqco0","pricing_plan_id":"cebpf4jnsgd1na2vs0mg"},{"bike_id":"b23bc0bc-fb1e-48bc-8d84-38a341b6b445","system_id":"levelo_inurba_marseille","lat":43.26784,"lon":5.39417,"is_reserved":false,"is_disabled":false,"rental_uris":{"android":"levelo://app?vid=b23bc0bc-fb1e-48bc-8d84-38a341b6b445","ios":"levelo://app?vid=b23bc0bc-fb1e-48bc-8d84-38a341b6b445"},"vehicle_type_id":"4","last_reported":1758183250,"current_range_meters":5600,"station_id":"ce4bhh12rcd13ifvqfg0","pricing_plan_id":"cebpf4jnsgd1na2vs0mg"},{"bike_id":"3b26aa0d-3679-4b4c-9b55-1096f6d08a9d","system_id":"levelo_inurba_marseille","lat":43.312932,"lon":5.393923,"is_reserved":false,"is_disabled":false,"rental_uris":{"android":"levelo://app?vid=3b26aa0d-3679-4b4c-9b55-1096f6d08a9d","ios":"levelo://app?vid=3b26aa0d-3679-4b4c-9b55-1096f6d08a9d"},"vehicle_type_id":"4","last_reported":1758183250,"current_range_meters":5600,"station_id":"","pricing_plan_id":"cebpf4jnsgd1na2vs0mg"},{"bike_id":"45837e5f-786d-4e26-a632-ec1e029c37a1","system_id":"levelo_inurba_marseille","lat":43.30547,"lon":5.38431,"is_reserved":false,"is_disabled":false,"rental_uris":{"android":"levelo://app?vid=45837e5f-786d-4e26-a632-ec1e029c37a1","ios":"levelo://app?vid=45837e5f-786d-4e26-a632-ec1e029c37a1"},"vehicle_type_id":"4","last_reported":1758183250,"current_range_meters":5600,"station_id":"ce4bgg92rcd13ifvqb30","pricing_plan_id":"cebpf4jnsgd1na2vs0mg"},{"bike_id":"c954df22-ee4c-466d-8659-8b2793037813","system_id":"levelo_inurba_marseille","lat":43.314882,"lon":5.373058,"is_reserved":false,"is_disabled":false,"rental_uris":{"android":"levelo://app?vid=c954df22-ee4c-466d-8659-8b2793037813","ios":"levelo://app?vid=c954df22-ee4c-466d-8659-8b2793037813"},"vehicle_type_id":"4","last_reported":1758183250,"current_range_meters":6000,"station_id":"ce4bgt12rcd13ifvqcd0","pricing_plan_id":"cebpf4jnsgd1na2vs0mg"},{"bike_id":"2f4159be-912d-473b-b1be-6117bbe03198","system_id":"levelo_inurba_marseille","lat":43.243852,"lon":5.370584,"is_reserved":false,"is_disabled":false,"rental_uris":{"android":"levelo://app?vid=2f4159be-912d-473b-b1be-6117bbe03198","ios":"levelo://app?vid=2f4159be-912d-473b-b1be-6117bbe03198"},"vehicle_type_id":"4","last_reported":1758183250,"current_range_meters":5600,"station_id":"ce4bhhh2rcd13ifvqfk0","pricing_plan_id":"cebpf4jnsgd1na2vs0mg"},{"bike_id":"336c74d9-d9c9-46d7-a94b-134b36ad023a","system_id":"levelo_inurba_marseille","lat":43.29842,"lon":5.37874,"is_reserved":false,"is_disabled":false,"rental_uris":{"android":"levelo://app?vid=336c74d9-d9c9-46d7-a94b-134b36ad023a","ios":"levelo://app?vid=336c74d9-d9c9-46d7-a94b-134b36ad023a"},"vehicle_type_id":"4","last_reported":1758183250,"current_range_meters":6000,"station_id":"","pricing_plan_id":"cebpf4jnsgd1na2vs0mg"},{"bike_id":"5f3fa102-e811-4afe-8be6-9792148ce4ba","system_id":"levelo_inurba_marseille","lat":43.33767,"lon":5.37475,"is_reserved":false,"is_disabled":false,"rental_uris":{"android":"levelo://app?vid=5f3fa102-e811-4afe-8be6-9792148ce4ba","ios":"levelo://app?vid=5f3fa102-e811-4afe-8be6-9792148ce4ba"},"vehicle_type_id":"4","last_reported":1758183250,"current_range_meters":6400,"station_id":"","pricing_plan_id":"cebpf4jnsgd1na2vs0mg"},{"bike_id":"2b42bb44-0adc-43a5-b930-41e397e93cfe","system_id":"levelo_inurba_marseille","lat":43.30952,"lon":5.39027,"is_reserved":false,"is_disabled":false,"rental_uris":{"android":"levelo://app?vid=2b42bb44-0adc-43a5-b930-41e397e93cfe","ios":"levelo://app?vid=2b42bb44-0adc-43a5-b930-41e397e93cfe"},"vehicle_type_id":"4","last_reported":1758183250,"current_range_meters":6400,"station_id":"ce4bgup2rcd13ifvqco0","pricing_plan_id":"cebpf4jnsgd1na2vs0mg"},{"bike_id":"775af279-8ac9-4585-9121-809be9b13265","system_id":"levelo_inurba_marseille","lat":43.33781,"lon":5.37444,"is_reserved":false,"is_disabled":false,"rental_uris":{"android":"levelo://app?vid=775af279-8ac9-4585-9121-809be9b13265","ios":"levelo://app?vid=775af279-8ac9-4585-9121-809be9b13265"},"vehicle_type_id":"4","last_reported":1758183250,"current_range_meters":6800,"station_id":"","pricing_plan_id":"cebpf4jnsgd1na2vs0mg"},{"bike_id":"93c985ca-e232-4f5e-b22d-c0cfe77a2a83","system_id":"levelo_inurba_marseille","lat":43.29528,"lon":5.39021,"is_reserved":false,"is_disabled":false,"rental_uris":{"android":"levelo://app?vid=93c985ca-e232-4f5e-b22d-c0cfe77a2a83","ios":"levelo://app?vid=93c985ca-e232-4f5e-b22d-c0cfe77a2a83"},"vehicle_type_id":"4","last_reported":1758183250,"current_range_meters":6800,"station_id":"ce4bh3p2rcd13ifvqdp0","pricing_plan_id":"cebpf4jnsgd1na2vs0mg"},{"bike_id":"035689de-0699-45ef-a331-ba5c26dfe512","system_id":"levelo_inurba_marseille","lat":43.23155,"lon":5.43704,"is_reserved":false,"is_disabled":false,"rental_uris":{"android":"levelo://app?vid=035689de-0699-45ef-a331-ba5c26dfe512","ios":"levelo://app?vid=035689de-0699-45ef-a331-ba5c26dfe512"},"vehicle_type_id":"4","last_reported":1758183250,"current_range_meters":6800,"station_id":"ce4bhmp2rcd13ifvqgog","pricing_plan_id":"cebpf4jnsgd1na2vs0mg"},{"bike_id":"c84ece6d-8a76-4d44-841a-18acf0ddf184","system_id":"levelo_inurba_marseille","lat":43.271413,"lon":5.389174,"is_reserved":false,"is_disabled":false,"rental_uris":{"android":"levelo://app?vid=c84ece6d-8a76-4d44-841a-18acf0ddf184","ios":"levelo://app?vid=c84ece6d-8a76-4d44-841a-18acf0ddf184"},"vehicle_type_id":"4","last_reported":1758183250,"current_range_meters":6800,"station_id":"ce4bhu92rcd13ifvqi70","pricing_plan_id":"cebpf4jnsgd1na2vs0mg"},{"bike_id":"658a7cc3-180e-4d68-b1dc-cc9732c65126","system_id":"levelo_inurba_marseille","lat":43.28619,"lon":5.35093,"is_reserved":false,"is_disabled":false,"rental_uris":{"android":"levelo://app?vid=658a7cc3-180e-4d68-b1dc-cc9732c65126","ios":"levelo://app?vid=658a7cc3-180e-4d68-b1dc-cc9732c65126"},"vehicle_type_id":"4","last_reported":1758183250,"current_range_meters":6800,"station_id":"ce4bhch2rcd13ifvqeug","pricing_plan_id":"cebpf4jnsgd1na2vs0mg"},{"bike_id":"003515e8-8117-44bb-979d-5f47e8d50fda","system_id":"levelo_inurba_marseille","lat":43.306,"lon":5.37577,"is_reserved":false,"is_disabled":false,"rental_uris":{"android":"levelo://app?vid=003515e8-8117-44bb-979d-5f47e8d50fda","ios":"levelo://app?vid=003515e8-8117-44bb-979d-5f47e8d50fda"},"vehicle_type_id":"4","last_reported":1758183250,"current_range_meters":7200,"station_id":"","pricing_plan_id":"cebpf4jnsgd1na2vs0mg"},{"bike_id":"046ba709-b940-4fa3-9690-1d81db536e4b","system_id":"levelo_inurba_marseille","lat":43.22556,"lon":5.4163,"is_reserved":false,"is_disabled":false,"rental_uris":{"android":"levelo://app?vid=046ba709-b940-4fa3-9690-1d81db536e4b","ios":"levelo://app?vid=046ba709-b940-4fa3-9690-1d81db536e4b"},"vehicle_type_id":"4","last_reported":1758183250,"current_range_meters":8000,"station_id":"st_d2o4gvlbi1j2169b742g","pricing_plan_id":"cebpf4jnsgd1na2vs0mg"},{"bike_id":"6509f066-8493-4574-9bdb-4b7ffae08973","system_id":"levelo_inurba_marseille","lat":43.29035,"lon":5.37543,"is_reserved":false,"is_disabled":false,"rental_uris":{"android":"levelo://app?vid=6509f066-8493-4574-9bdb-4b7ffae08973","ios":"levelo://app?vid=6509f066-8493-4574-9bdb-4b7ffae08973"},"vehicle_type_id":"4","last_reported":1758183250,"current_range_meters":8000,"station_id":"ce4bh692rcd13ifvqe90","pricing_plan_id":"cebpf4jnsgd1na2vs0mg"},{"bike_id":"5cebaa99-7be9-4a3f-9cc0-5cdfdaef03f0","system_id":"levelo_inurba_marseille","lat":43.225319,"lon":5.348348,"is_reserved":false,"is_disabled":false,"rental_uris":{"android":"levelo://app?vid=5cebaa99-7be9-4a3f-9cc0-5cdfdaef03f0","ios":"levelo://app?vid=5cebaa99-7be9-4a3f-9cc0-5cdfdaef03f0"},"vehicle_type_id":"4","last_reported":1758183250,"current_range_meters":8000,"station_id":"","pricing_plan_id":"cebpf4jnsgd1na2vs0mg"},{"bike_id":"45d6bb40-7fcf-4977-8f62-3af339efe94c","system_id":"levelo_inurba_marseille","lat":43.29853,"lon":5.36252,"is_reserved":false,"is_disabled":false,"rental_uris":{"android":"levelo://app?vid=45d6bb40-7fcf-4977-8f62-3af339efe94c","ios":"levelo://app?vid=45d6bb40-7fcf-4977-8f62-3af339efe94c"},"vehicle_type_id":"4","last_reported":1758183250,"current_range_meters":8000,"station_id":"ce4bgpp2rcd13ifvqc3g","pricing_plan_id":"cebpf4jnsgd1na2vs0mg"},{"bike_id":"dc056a5f-dd0c-437c-bb54-187cc2a010ce","system_id":"levelo_inurba_marseille","lat":43.29789,"lon":5.39356,"is_reserved":false,"is_disabled":true,"rental_uris":{"android":"levelo://app?vid=dc056a5f-dd0c-437c-bb54-187cc2a010ce","ios":"levelo://app?vid=dc056a5f-dd0c-437c-bb54-187cc2a010ce"},"vehicle_type_id":"4","last_reported":1758183250,"current_range_meters":8400,"station_id":"chh1huq6cuj3fo74tm60","pricing_plan_id":"cebpf4jnsgd1na2vs0mg"},{"bike_id":"ca5a1340-d41e-49f3-95f8-599734e0a36c","system_id":"levelo_inurba_marseille","lat":43.225336,"lon":5.348339,"is_reserved":false,"is_disabled":false,"rental_uris":{"android":"levelo://app?vid=ca5a1340-d41e-49f3-95f8-599734e0a36c","ios":"levelo://app?vid=ca5a1340-d41e-49f3-95f8-599734e0a36c"},"vehicle_type_id":"4","last_reported":1758183250,"current_range_meters":8800,"station_id":"","pricing_plan_id":"cebpf4jnsgd1na2vs0mg"},{"bike_id":"05deee42-38f8-4f34-874c-fcd76d6fb332","system_id":"levelo_inurba_marseille","lat":43.29327,"lon":5.37432,"is_reserved":false,"is_disabled":false,"rental_uris":{"android":"levelo://app?vid=05deee42-38f8-4f34-874c-fcd76d6fb332","ios":"levelo://app?vid=05deee42-38f8-4f34-874c-fcd76d6fb332"},"vehicle_type_id":"4","last_reported":1758183250,"current_range_meters":8800,"station_id":"","pricing_plan_id":"cebpf4jnsgd1na2vs0mg"},{"bike_id":"425e8e51-5107-4a68-a489-1721865d1e99","system_id":"levelo_inurba_marseille","lat":43.29026,"lon":5.40002,"is_reserved":false,"is_disabled":false,"rental_uris":{"android":"levelo://app?vid=425e8e51-5107-4a68-a489-1721865d1e99","ios":"levelo://app?vid=425e8e51-5107-4a68-a489-1721865d1e99"},"vehicle_type_id":"4","last_reported":1758183250,"current_range_meters":8800,"station_id":"ce4bh392rcd13ifvqdm0","pricing_plan_id":"cebpf4jnsgd1na2vs0mg"},{"bike_id":"97fac187-45a1-4e8f-be9b-a5c24559a733","system_id":"levelo_inurba_marseille","lat":43.21778,"lon":5.34617,"is_reserved":false,"is_disabled":false,"rental_uris":{"android":"levelo://app?vid=97fac187-45a1-4e8f-be9b-a5c24559a733","ios":"levelo://app?vid=97fac187-45a1-4e8f-be9b-a5c24559a733"},"vehicle_type_id":"4","last_reported":1758183250,"current_range_meters":9200,"station_id":"st_cvj6r9ubvosntc0bgbag","pricing_plan_id":"cebpf4jnsgd1na2vs0mg"},{"bike_id":"9ab33538-e4df-4fc5-8651-57f46eeae2c4","system_id":"levelo_inurba_marseille","lat":43.23179,"lon":5.3999,"is_reserved":false,"is_disabled":false,"rental_uris":{"android":"levelo://app?vid=9ab33538-e4df-4fc5-8651-57f46eeae2c4","ios":"levelo://app?vid=9ab33538-e4df-4fc5-8651-57f46eeae2c4"},"vehicle_type_id":"4","last_reported":1758183250,"current_range_meters":9200,"station_id":"ce4bhn12rcd13ifvqgqg","pricing_plan_id":"cebpf4jnsgd1na2vs0mg"},{"bike_id":"0a714f01-7287-46f8-bbb6-81d9c8aaefe2","system_id":"levelo_inurba_marseille","lat":43.296924,"lon":5.391612,"is_reserved":false,"is_disabled":false,"rental_uris":{"android":"levelo://app?vid=0a714f01-7287-46f8-bbb6-81d9c8aaefe2","ios":"levelo://app?vid=0a714f01-7287-46f8-bbb6-81d9c8aaefe2"},"vehicle_type_id":"4","last_reported":1758183250,"current_range_meters":9200,"station_id":"","pricing_plan_id":"cebpf4jnsgd1na2vs0mg"},{"bike_id":"d2d21405-7d84-46d6-9542-57aa659023fa","system_id":"levelo_inurba_marseille","lat":43.33115,"lon":5.37876,"is_reserved":false,"is_disabled":false,"rental_uris":{"android":"levelo://app?vid=d2d21405-7d84-46d6-9542-57aa659023fa","ios":"levelo://app?vid=d2d21405-7d84-46d6-9542-57aa659023fa"},"vehicle_type_id":"4","last_reported":1758183250,"current_range_meters":9200,"station_id":"","pricing_plan_id":"cebpf4jnsgd1na2vs0mg"},{"bike_id":"9dd09dd6-4599-4966-88e3-557e85655b9f","system_id":"levelo_inurba_marseille","lat":43.33765,"lon":5.37474,"is_reserved":false,"is_disabled":false,"rental_uris":{"android":"levelo://app?vid=9dd09dd6-4599-4966-88e3-557e85655b9f","ios":"levelo://app?vid=9dd09dd6-4599-4966-88e3-557e85655b9f"},"vehicle_type_id":"4","last_reported":1758183250,"current_range_meters":9600,"station_id":"","pricing_plan_id":"cebpf4jnsgd1na2vs0mg"},{"bike_id":"c1374ea9-2c25-4a97-b87a-404a12c168ed","system_id":"levelo_inurba_marseille","lat":43.32113,"lon":5.36775,"is_reserved":false,"is_disabled":false,"rental_uris":{"android":"levelo://app?vid=c1374ea9-2c25-4a97-b87a-404a12c168ed","ios":"levelo://app?vid=c1374ea9-2c25-4a97-b87a-404a12c168ed"},"vehicle_type_id":"4","last_reported":1758183250,"current_range_meters":9600,"station_id":"ce4bhrh2rcd13ifvqhug","pricing_plan_id":"cebpf4jnsgd1na2vs0mg"},{"bike_id":"2a5e641a-ca90-4f3a-9350-63bb94d9cebf","system_id":"levelo_inurba_marseille","lat":43.25557,"lon":5.39191,"is_reserved":false,"is_disabled":false,"rental_uris":{"android":"levelo://app?vid=2a5e641a-ca90-4f3a-9350-63bb94d9cebf","ios":"levelo://app?vid=2a5e641a-ca90-4f3a-9350-63bb94d9cebf"},"vehicle_type_id":"4","last_reported":1758183250,"current_range_meters":9600,"station_id":"","pricing_plan_id":"cebpf4jnsgd1na2vs0mg"},{"bike_id":"5701fe9c-3e98-4b9f-a910-5eb395d4e5d3","system_id":"levelo_inurba_marseille","lat":43.305389,"lon":5.384223,"is_reserved":false,"is_disabled":false,"rental_uris":{"android":"levelo://app?vid=5701fe9c-3e98-4b9f-a910-5eb395d4e5d3","ios":"levelo://app?vid=5701fe9c-3e98-4b9f-a910-5eb395d4e5d3"},"vehicle_type_id":"4","last_reported":1758183250,"current_range_meters":9600,"station_id":"ce4bgg92rcd13ifvqb30","pricing_plan_id":"cebpf4jnsgd1na2vs0mg"},{"bike_id":"a2cc1c2f-1d11-48db-982e-b4e7fb30e192","system_id":"levelo_inurba_marseille","lat":43.32465,"lon":5.36611,"is_reserved":false,"is_disabled":false,"rental_uris":{"android":"levelo://app?vid=a2cc1c2f-1d11-48db-982e-b4e7fb30e192","ios":"levelo://app?vid=a2cc1c2f-1d11-48db-982e-b4e7fb30e192"},"vehicle_type_id":"4","last_reported":1758183250,"current_range_meters":10000,"station_id":"ce4bhs12rcd13ifvqhvg","pricing_plan_id":"cebpf4jnsgd1na2vs0mg"},{"bike_id":"be7e6a52-5f32-4f5d-ab19-09bbc34d35a2","system_id":"levelo_inurba_marseille","lat":43.21194,"lon":5.35081,"is_reserved":false,"is_disabled":false,"rental_uris":{"android":"levelo://app?vid=be7e6a52-5f32-4f5d-ab19-09bbc34d35a2","ios":"levelo://app?vid=be7e6a52-5f32-4f5d-ab19-09bbc34d35a2"},"vehicle_type_id":"4","last_reported":1758183250,"current_range_meters":10000,"station_id":"st_cvj6sg6p6f1abm77japg","pricing_plan_id":"cebpf4jnsgd1na2vs0mg"},{"bike_id":"9850aecc-4cd2-453b-9717-d5a124261510","system_id":"levelo_inurba_marseille","lat":43.29024,"lon":5.38127,"is_reserved":false,"is_disabled":false,"rental_uris":{"android":"levelo://app?vid=9850aecc-4cd2-453b-9717-d5a124261510","ios":"levelo://app?vid=9850aecc-4cd2-453b-9717-d5a124261510"},"vehicle_type_id":"4","last_reported":1758183250,"current_range_meters":10000,"station_id":"ce4bh4p2rcd13ifvqe1g","pricing_plan_id":"cebpf4jnsgd1na2vs0mg"},{"bike_id":"35506b1c-197a-4db9-8b25-acfbcc997837","system_id":"levelo_inurba_marseille","lat":43.30721,"lon":5.37111,"is_reserved":false,"is_disabled":false,"rental_uris":{"android":"levelo://app?vid=35506b1c-197a-4db9-8b25-acfbcc997837","ios":"levelo://app?vid=35506b1c-197a-4db9-8b25-acfbcc997837"},"vehicle_type_id":"4","last_reported":1758183250,"current_range_meters":10800,"station_id":"","pricing_plan_id":"cebpf4jnsgd1na2vs0mg"},{"bike_id":"cdfb8f2e-bc01-439b-8145-f6aa4302cb16","system_id":"levelo_inurba_marseille","lat":43.30794,"lon":5.4353,"is_reserved":false,"is_disabled":false,"rental_uris":{"android":"levelo://app?vid=cdfb8f2e-bc01-439b-8145-f6aa4302cb16","ios":"levelo://app?vid=cdfb8f2e-bc01-439b-8145-f6aa4302cb16"},"vehicle_type_id":"4","last_reported":1758183250,"current_range_meters":10800,"station_id":"ce4bhph2rcd13ifvqheg","pricing_plan_id":"cebpf4jnsgd1na2vs0mg"},{"bike_id":"14edc8c5-8d58-4301-96c9-2fbe25f2d477","system_id":"levelo_inurba_marseille","lat":43.31163,"lon":5.38729,"is_reserved":false,"is_disabled":false,"rental_uris":{"android":"levelo://app?vid=14edc8c5-8d58-4301-96c9-2fbe25f2d477","ios":"levelo://app?vid=14edc8c5-8d58-4301-96c9-2fbe25f2d477"},"vehicle_type_id":"4","last_reported":1758183250,"current_range_meters":10000,"station_id":"ce4bgv12rcd13ifvqcp0","pricing_plan_id":"cebpf4jnsgd1na2vs0mg"},{"bike_id":"7c53e1e0-9efc-4c15-9c29-668d4dac4c59","system_id":"levelo_inurba_marseille","lat":43.22511,"lon":5.34848,"is_reserved":false,"is_disabled":false,"rental_uris":{"android":"levelo://app?vid=7c53e1e0-9efc-4c15-9c29-668d4dac4c59","ios":"levelo://app?vid=7c53e1e0-9efc-4c15-9c29-668d4dac4c59"},"vehicle_type_id":"4","last_reported":1758183250,"current_range_meters":10800,"station_id":"","pricing_plan_id":"cebpf4jnsgd1na2vs0mg"},{"bike_id":"45afe5f4-5cbe-49c2-a913-33c967100178","system_id":"levelo_inurba_marseille","lat":43.29776,"lon":5.380931,"is_reserved":false,"is_disabled":false,"rental_uris":{"android":"levelo://app?vid=45afe5f4-5cbe-49c2-a913-33c967100178","ios":"levelo://app?vid=45afe5f4-5cbe-49c2-a913-33c967100178"},"vehicle_type_id":"4","last_reported":1758183250,"current_range_meters":10800,"station_id":"","pricing_plan_id":"cebpf4jnsgd1na2vs0mg"},{"bike_id":"453b4315-d305-44bf-9375-25fec1c96598","system_id":"levelo_inurba_marseille","lat":43.30326,"lon":5.40435,"is_reserved":false,"is_disabled":false,"rental_uris":{"android":"levelo://app?vid=453b4315-d305-44bf-9375-25fec1c96598","ios":"levelo://app?vid=453b4315-d305-44bf-9375-25fec1c96598"},"vehicle_type_id":"4","last_reported":1758183250,"current_range_meters":11200,"station_id":"ce4bh012rcd13ifvqd10","pricing_plan_id":"cebpf4jnsgd1na2vs0mg"},{"bike_id":"c9f6af51-eff5-4f79-aca9-3e8e6ef0e8f6","system_id":"levelo_inurba_marseille","lat":43.33761,"lon":5.37476,"is_reserved":false,"is_disabled":false,"rental_uris":{"android":"levelo://app?vid=c9f6af51-eff5-4f79-aca9-3e8e6ef0e8f6","ios":"levelo://app?vid=c9f6af51-eff5-4f79-aca9-3e8e6ef0e8f6"},"vehicle_type_id":"4","last_reported":1758183250,"current_range_meters":11200,"station_id":"","pricing_plan_id":"cebpf4jnsgd1na2vs0mg"},{"bike_id":"5dfa5df5-8414-4ecf-9b9a-118301df1722","system_id":"levelo_inurba_marseille","lat":43.31083,"lon":5.42429,"is_reserved":false,"is_disabled":false,"rental_uris":{"android":"levelo://app?vid=5dfa5df5-8414-4ecf-9b9a-118301df1722","ios":"levelo://app?vid=5dfa5df5-8414-4ecf-9b9a-118301df1722"},"vehicle_type_id":"4","last_reported":1758183250,"current_range_meters":11200,"station_id":"ce4bhp92rcd13ifvqhag","pricing_plan_id":"cebpf4jnsgd1na2vs0mg"},{"bike_id":"f7254990-f51d-45fe-83e3-57aceffccbc4","system_id":"levelo_inurba_marseille","lat":43.22569,"lon":5.41641,"is_reserved":false,"is_disabled":false,"rental_uris":{"android":"levelo://app?vid=f7254990-f51d-45fe-83e3-57aceffccbc4","ios":"levelo://app?vid=f7254990-f51d-45fe-83e3-57aceffccbc4"},"vehicle_type_id":"4","last_reported":1758183250,"current_range_meters":11600,"station_id":"st_d2o4gvlbi1j2169b742g","pricing_plan_id":"cebpf4jnsgd1na2vs0mg"},{"bike_id":"49230824-e0b0-4942-b254-aed72b06d282","system_id":"levelo_inurba_marseille","lat":43.2696,"lon":5.40526,"is_reserved":false,"is_disabled":false,"rental_uris":{"android":"levelo://app?vid=49230824-e0b0-4942-b254-aed72b06d282","ios":"levelo://app?vid=49230824-e0b0-4942-b254-aed72b06d282"},"vehicle_type_id":"4","last_reported":1758183250,"current_range_meters":11600,"station_id":"","pricing_plan_id":"cebpf4jnsgd1na2vs0mg"},{"bike_id":"bb37e979-a73b-4fc8-9056-45809115d4b7","system_id":"levelo_inurba_marseille","lat":43.27074,"lon":5.42283,"is_reserved":false,"is_disabled":false,"rental_uris":{"android":"levelo://app?vid=bb37e979-a73b-4fc8-9056-45809115d4b7","ios":"levelo://app?vid=bb37e979-a73b-4fc8-9056-45809115d4b7"},"vehicle_type_id":"4","last_reported":1758183250,"current_range_meters":11200,"station_id":"ce4bhk92rcd13ifvqgb0","pricing_plan_id":"cebpf4jnsgd1na2vs0mg"},{"bike_id":"55dfb17a-dc13-4669-82ac-2c676d600c2d","system_id":"levelo_inurba_marseille","lat":43.31351,"lon":5.37936,"is_reserved":false,"is_disabled":false,"rental_uris":{"android":"levelo://app?vid=55dfb17a-dc13-4669-82ac-2c676d600c2d","ios":"levelo://app?vid=55dfb17a-dc13-4669-82ac-2c676d600c2d"},"vehicle_type_id":"4","last_reported":1758183250,"current_range_meters":11600,"station_id":"","pricing_plan_id":"cebpf4jnsgd1na2vs0mg"},{"bike_id":"c0a65d77-cf6c-4adf-bf16-4838f4f6a471","system_id":"levelo_inurba_marseille","lat":43.23153,"lon":5.43724,"is_reserved":false,"is_disabled":false,"rental_uris":{"android":"levelo://app?vid=c0a65d77-cf6c-4adf-bf16-4838f4f6a471","ios":"levelo://app?vid=c0a65d77-cf6c-4adf-bf16-4838f4f6a471"},"vehicle_type_id":"4","last_reported":1758183250,"current_range_meters":11600,"station_id":"ce4bhmp2rcd13ifvqgog","pricing_plan_id":"cebpf4jnsgd1na2vs0mg"},{"bike_id":"8683fccb-9858-44cf-9f27-b3df7b5ea886","system_id":"levelo_inurba_marseille","lat":43.26029,"lon":5.37547,"is_reserved":false,"is_disabled":false,"rental_uris":{"android":"levelo://app?vid=8683fccb-9858-44cf-9f27-b3df7b5ea886","ios":"levelo://app?vid=8683fccb-9858-44cf-9f27-b3df7b5ea886"},"vehicle_type_id":"4","last_reported":1758183250,"current_range_meters":11600,"station_id":"ce4bhgh2rcd13ifvqfa0","pricing_plan_id":"cebpf4jnsgd1na2vs0mg"},{"bike_id":"eaa1152f-a76e-41b7-a75c-53adab8ef88a","system_id":"levelo_inurba_marseille","lat":43.25583,"lon":5.38207,"is_reserved":false,"is_disabled":false,"rental_uris":{"android":"levelo://app?vid=eaa1152f-a76e-41b7-a75c-53adab8ef88a","ios":"levelo://app?vid=eaa1152f-a76e-41b7-a75c-53adab8ef88a"},"vehicle_type_id":"4","last_reported":1758183250,"current_range_meters":11600,"station_id":"ce4bhih2rcd13ifvqfs0","pricing_plan_id":"cebpf4jnsgd1na2vs0mg"},{"bike_id":"bde23529-7d0d-4771-8e19-356273b5df54","system_id":"levelo_inurba_marseille","lat":43.3009,"lon":5.39074,"is_reserved":false,"is_disabled":false,"rental_uris":{"android":"levelo://app?vid=bde23529-7d0d-4771-8e19-356273b5df54","ios":"levelo://app?vid=bde23529-7d0d-4771-8e19-356273b5df54"},"vehicle_type_id":"4","last_reported":1758183250,"current_range_meters":12000,"station_id":"ce4bh192rcd13ifvqdb0","pricing_plan_id":"cebpf4jnsgd1na2vs0mg"},{"bike_id":"c73969ce-2998-4c07-b942-3d286314c7d8","system_id":"levelo_inurba_marseille","lat":43.32336,"lon":5.40625,"is_reserved":false,"is_disabled":false,"rental_uris":{"android":"levelo://app?vid=c73969ce-2998-4c07-b942-3d286314c7d8","ios":"levelo://app?vid=c73969ce-2998-4c07-b942-3d286314c7d8"},"vehicle_type_id":"4","last_reported":1758183250,"current_range_meters":12000,"station_id":"ce4bhq92rcd13ifvqhjg","pricing_plan_id":"cebpf4jnsgd1na2vs0mg"},{"bike_id":"4e0f533d-b7b0-43df-8261-cec02349a2da","system_id":"levelo_inurba_marseille","lat":43.27061,"lon":5.40258,"is_reserved":false,"is_disabled":false,"rental_uris":{"android":"levelo://app?vid=4e0f533d-b7b0-43df-8261-cec02349a2da","ios":"levelo://app?vid=4e0f533d-b7b0-43df-8261-cec02349a2da"},"vehicle_type_id":"4","last_reported":1758183250,"current_range_meters":12000,"station_id":"ce4bhk92rcd13ifvqgc0","pricing_plan_id":"cebpf4jnsgd1na2vs0mg"},{"bike_id":"a74e0f84-49f6-4a1d-9d52-b8d8640b038c","system_id":"levelo_inurba_marseille","lat":43.23153,"lon":5.43716,"is_reserved":false,"is_disabled":false,"rental_uris":{"android":"levelo://app?vid=a74e0f84-49f6-4a1d-9d52-b8d8640b038c","ios":"levelo://app?vid=a74e0f84-49f6-4a1d-9d52-b8d8640b038c"},"vehicle_type_id":"4","last_reported":1758183250,"current_range_meters":12000,"station_id":"ce4bhmp2rcd13ifvqgog","pricing_plan_id":"cebpf4jnsgd1na2vs0mg"},{"bike_id":"cf66592a-d8fa-4c6c-9927-5d7a9fef5026","system_id":"levelo_inurba_marseille","lat":43.26266,"lon":5.39861,"is_reserved":false,"is_disabled":false,"rental_uris":{"android":"levelo://app?vid=cf66592a-d8fa-4c6c-9927-5d7a9fef5026","ios":"levelo://app?vid=cf66592a-d8fa-4c6c-9927-5d7a9fef5026"},"vehicle_type_id":"4","last_reported":1758183250,"current_range_meters":12000,"station_id":"","pricing_plan_id":"cebpf4jnsgd1na2vs0mg"},{"bike_id":"74b0fffa-d027-4ac4-a8c2-abc00f12f9bd","system_id":"levelo_inurba_marseille","lat":43.24169,"lon":5.36399,"is_reserved":false,"is_disabled":false,"rental_uris":{"android":"levelo://app?vid=74b0fffa-d027-4ac4-a8c2-abc00f12f9bd","ios":"levelo://app?vid=74b0fffa-d027-4ac4-a8c2-abc00f12f9bd"},"vehicle_type_id":"4","last_reported":1758183250,"current_range_meters":12000,"station_id":"cpo36qri1sfpv3e86is0","pricing_plan_id":"cebpf4jnsgd1na2vs0mg"},{"bike_id":"22f0687d-25d3-4094-9c4a-293a61e189a6","system_id":"levelo_inurba_marseille","lat":43.24711,"lon":5.3977,"is_reserved":false,"is_disabled":false,"rental_uris":{"android":"levelo://app?vid=22f0687d-25d3-4094-9c4a-293a61e189a6","ios":"levelo://app?vid=22f0687d-25d3-4094-9c4a-293a61e189a6"},"vehicle_type_id":"4","last_reported":1758183250,"current_range_meters":12400,"station_id":"","pricing_plan_id":"cebpf4jnsgd1na2vs0mg"},{"bike_id":"ec7caa36-adb7-4865-846d-e04b1d8a4107","system_id":"levelo_inurba_marseille","lat":43.290042,"lon":5.356101,"is_reserved":false,"is_disabled":false,"rental_uris":{"android":"levelo://app?vid=ec7caa36-adb7-4865-846d-e04b1d8a4107","ios":"levelo://app?vid=ec7caa36-adb7-4865-846d-e04b1d8a4107"},"vehicle_type_id":"4","last_reported":1758183250,"current_range_meters":12400,"station_id":"ce4bhb92rcd13ifvqen0","pricing_plan_id":"cebpf4jnsgd1na2vs0mg"},{"bike_id":"09d364ee-f7ea-49a3-93ab-e30fbf1be499","system_id":"levelo_inurba_marseille","lat":43.29175,"lon":5.37155,"is_reserved":false,"is_disabled":false,"rental_uris":{"android":"levelo://app?vid=09d364ee-f7ea-49a3-93ab-e30fbf1be499","ios":"levelo://app?vid=09d364ee-f7ea-49a3-93ab-e30fbf1be499"},"vehicle_type_id":"4","last_reported":1758183250,"current_range_meters":12800,"station_id":"ce4bha92rcd13ifvqeh0","pricing_plan_id":"cebpf4jnsgd1na2vs0mg"},{"bike_id":"3d158815-0ba1-449f-90dd-2b69cf190d13","system_id":"levelo_inurba_marseille","lat":43.32505,"lon":5.38925,"is_reserved":false,"is_disabled":false,"rental_uris":{"android":"levelo://app?vid=3d158815-0ba1-449f-90dd-2b69cf190d13","ios":"levelo://app?vid=3d158815-0ba1-449f-90dd-2b69cf190d13"},"vehicle_type_id":"4","last_reported":1758183250,"current_range_meters":13600,"station_id":"","pricing_plan_id":"cebpf4jnsgd1na2vs0mg"},{"bike_id":"7d63a98e-f963-4416-aed7-ec2ec0c80a5b","system_id":"levelo_inurba_marseille","lat":43.27175,"lon":5.4099,"is_reserved":false,"is_disabled":false,"rental_uris":{"android":"levelo://app?vid=7d63a98e-f963-4416-aed7-ec2ec0c80a5b","ios":"levelo://app?vid=7d63a98e-f963-4416-aed7-ec2ec0c80a5b"},"vehicle_type_id":"4","last_reported":1758183250,"current_range_meters":13600,"station_id":"ce4bhl12rcd13ifvqgf0","pricing_plan_id":"cebpf4jnsgd1na2vs0mg"},{"bike_id":"9241b4d7-6508-4a71-9e9d-e71724041a54","system_id":"levelo_inurba_marseille","lat":43.25127,"lon":5.403357,"is_reserved":false,"is_disabled":false,"rental_uris":{"android":"levelo://app?vid=9241b4d7-6508-4a71-9e9d-e71724041a54","ios":"levelo://app?vid=9241b4d7-6508-4a71-9e9d-e71724041a54"},"vehicle_type_id":"4","last_reported":1758183250,"current_range_meters":13600,"station_id":"ce4bhlh2rcd13ifvqgig","pricing_plan_id":"cebpf4jnsgd1na2vs0mg"},{"bike_id":"152b725d-6f61-44b0-bc66-f31437aa6fe9","system_id":"levelo_inurba_marseille","lat":43.22558,"lon":5.41631,"is_reserved":false,"is_disabled":true,"rental_uris":{"android":"levelo://app?vid=152b725d-6f61-44b0-bc66-f31437aa6fe9","ios":"levelo://app?vid=152b725d-6f61-44b0-bc66-f31437aa6fe9"},"vehicle_type_id":"4","last_reported":1758183250,"current_range_meters":13600,"station_id":"st_d2o4gvlbi1j2169b742g","pricing_plan_id":"cebpf4jnsgd1na2vs0mg"},{"bike_id":"387c8295-5c1a-4e62-91c6-560b703e4279","system_id":"levelo_inurba_marseille","lat":43.32443,"lon":5.42688,"is_reserved":false,"is_disabled":false,"rental_uris":{"android":"levelo://app?vid=387c8295-5c1a-4e62-91c6-560b703e4279","ios":"levelo://app?vid=387c8295-5c1a-4e62-91c6-560b703e4279"},"vehicle_type_id":"4","last_reported":1758183250,"current_range_meters":13600,"station_id":"","pricing_plan_id":"cebpf4jnsgd1na2vs0mg"},{"bike_id":"80332322-52bb-49f4-b738-0ea587c53538","system_id":"levelo_inurba_marseille","lat":43.225357,"lon":5.34837,"is_reserved":false,"is_disabled":false,"rental_uris":{"android":"levelo://app?vid=80332322-52bb-49f4-b738-0ea587c53538","ios":"levelo://app?vid=80332322-52bb-49f4-b738-0ea587c53538"},"vehicle_type_id":"4","last_reported":1758183250,"current_range_meters":13600,"station_id":"","pricing_plan_id":"cebpf4jnsgd1na2vs0mg"},{"bike_id":"3a5880cd-3aaa-45e3-acd9-2ccd914d29dd","system_id":"levelo_inurba_marseille","lat":43.24069,"lon":5.37754,"is_reserved":false,"is_disabled":false,"rental_uris":{"android":"levelo://app?vid=3a5880cd-3aaa-45e3-acd9-2ccd914d29dd","ios":"levelo://app?vid=3a5880cd-3aaa-45e3-acd9-2ccd914d29dd"},"vehicle_type_id":"4","last_reported":1758183250,"current_range_meters":14000,"station_id":"ce4bhnp2rcd13ifvqgvg","pricing_plan_id":"cebpf4jnsgd1na2vs0mg"},{"bike_id":"d1788760-0706-4b90-8999-db00a9e42210","system_id":"levelo_inurba_marseille","lat":43.32797,"lon":5.41011,"is_reserved":false,"is_disabled":false,"rental_uris":{"android":"levelo://app?vid=d1788760-0706-4b90-8999-db00a9e42210","ios":"levelo://app?vid=d1788760-0706-4b90-8999-db00a9e42210"},"vehicle_type_id":"4","last_reported":1758183250,"current_range_meters":13600,"station_id":"","pricing_plan_id":"cebpf4jnsgd1na2vs0mg"},{"bike_id":"dde2e91e-5084-4b39-b78f-82b1ce36a209","system_id":"levelo_inurba_marseille","lat":43.21195,"lon":5.35079,"is_reserved":false,"is_disabled":false,"rental_uris":{"android":"levelo://app?vid=dde2e91e-5084-4b39-b78f-82b1ce36a209","ios":"levelo://app?vid=dde2e91e-5084-4b39-b78f-82b1ce36a209"},"vehicle_type_id":"4","last_reported":1758183250,"current_range_meters":13600,"station_id":"","pricing_plan_id":"cebpf4jnsgd1na2vs0mg"},{"bike_id":"37180e6f-2b29-4482-8125-8e33b4b9e3c7","system_id":"levelo_inurba_marseille","lat":43.28785,"lon":5.37906,"is_reserved":false,"is_disabled":false,"rental_uris":{"android":"levelo://app?vid=37180e6f-2b29-4482-8125-8e33b4b9e3c7","ios":"levelo://app?vid=37180e6f-2b29-4482-8125-8e33b4b9e3c7"},"vehicle_type_id":"4","last_reported":1758183250,"current_range_meters":12800,"station_id":"ce4bgi12rcd13ifvqb70","pricing_plan_id":"cebpf4jnsgd1na2vs0mg"},{"bike_id":"207905e1-691f-4c97-83da-644391e059be","system_id":"levelo_inurba_marseille","lat":43.32476,"lon":5.36571,"is_reserved":false,"is_disabled":false,"rental_uris":{"android":"levelo://app?vid=207905e1-691f-4c97-83da-644391e059be","ios":"levelo://app?vid=207905e1-691f-4c97-83da-644391e059be"},"vehicle_type_id":"4","last_reported":1758183250,"current_range_meters":13600,"station_id":"ce4bhs12rcd13ifvqhvg","pricing_plan_id":"cebpf4jnsgd1na2vs0mg"},{"bike_id":"dce7a019-b3f6-405b-b3bc-21a7980b0399","system_id":"levelo_inurba_marseille","lat":43.33758,"lon":5.37465,"is_reserved":false,"is_disabled":false,"rental_uris":{"android":"levelo://app?vid=dce7a019-b3f6-405b-b3bc-21a7980b0399","ios":"levelo://app?vid=dce7a019-b3f6-405b-b3bc-21a7980b0399"},"vehicle_type_id":"4","last_reported":1758183250,"current_range_meters":14400,"station_id":"","pricing_plan_id":"cebpf4jnsgd1na2vs0mg"},{"bike_id":"adf19941-6925-49e3-b023-4f911ffc887f","system_id":"levelo_inurba_marseille","lat":43.32365,"lon":5.36755,"is_reserved":false,"is_disabled":true,"rental_uris":{"android":"levelo://app?vid=adf19941-6925-49e3-b023-4f911ffc887f","ios":"levelo://app?vid=adf19941-6925-49e3-b023-4f911ffc887f"},"vehicle_type_id":"4","last_reported":1758183250,"current_range_meters":14400,"station_id":"ce4bhsh2rcd13ifvqi2g","pricing_plan_id":"cebpf4jnsgd1na2vs0mg"},{"bike_id":"66609f68-f383-4e06-8644-c6b0f8fd341d","system_id":"levelo_inurba_marseille","lat":43.32659,"lon":5.40994,"is_reserved":false,"is_disabled":false,"rental_uris":{"android":"levelo://app?vid=66609f68-f383-4e06-8644-c6b0f8fd341d","ios":"levelo://app?vid=66609f68-f383-4e06-8644-c6b0f8fd341d"},"vehicle_type_id":"4","last_reported":1758183250,"current_range_meters":14800,"station_id":"ce4bhpp2rcd13ifvqhgg","pricing_plan_id":"cebpf4jnsgd1na2vs0mg"},{"bike_id":"80a9a218-f77f-42ce-8136-b0dceb9fc366","system_id":"levelo_inurba_marseille","lat":43.267867,"lon":5.394102,"is_reserved":false,"is_disabled":false,"rental_uris":{"android":"levelo://app?vid=80a9a218-f77f-42ce-8136-b0dceb9fc366","ios":"levelo://app?vid=80a9a218-f77f-42ce-8136-b0dceb9fc366"},"vehicle_type_id":"4","last_reported":1758183250,"current_range_meters":15200,"station_id":"ce4bhh12rcd13ifvqfg0","pricing_plan_id":"cebpf4jnsgd1na2vs0mg"},{"bike_id":"42323a1a-489c-43cb-90ae-c675b27444d5","system_id":"levelo_inurba_marseille","lat":43.2163,"lon":5.34383,"is_reserved":false,"is_disabled":false,"rental_uris":{"android":"levelo://app?vid=42323a1a-489c-43cb-90ae-c675b27444d5","ios":"levelo://app?vid=42323a1a-489c-43cb-90ae-c675b27444d5"},"vehicle_type_id":"4","last_reported":1758183250,"current_range_meters":15200,"station_id":"","pricing_plan_id":"cebpf4jnsgd1na2vs0mg"},{"bike_id":"40495e59-b743-486e-987c-cb0c3ab2f191","system_id":"levelo_inurba_marseille","lat":43.332,"lon":5.41075,"is_reserved":false,"is_disabled":false,"rental_uris":{"android":"levelo://app?vid=40495e59-b743-486e-987c-cb0c3ab2f191","ios":"levelo://app?vid=40495e59-b743-486e-987c-cb0c3ab2f191"},"vehicle_type_id":"4","last_reported":1758183250,"current_range_meters":15200,"station_id":"","pricing_plan_id":"cebpf4jnsgd1na2vs0mg"},{"bike_id":"66128ef0-7de2-44c0-bd9e-04c33ffd62a0","system_id":"levelo_inurba_marseille","lat":43.2799,"lon":5.41661,"is_reserved":false,"is_disabled":true,"rental_uris":{"android":"levelo://app?vid=66128ef0-7de2-44c0-bd9e-04c33ffd62a0","ios":"levelo://app?vid=66128ef0-7de2-44c0-bd9e-04c33ffd62a0"},"vehicle_type_id":"4","last_reported":1758183250,"current_range_meters":16000,"station_id":"ce4bho12rcd13ifvqh1g","pricing_plan_id":"cebpf4jnsgd1na2vs0mg"},{"bike_id":"9d625d54-132c-4459-a4c0-dc005972a7a7","system_id":"levelo_inurba_marseille","lat":43.32692,"lon":5.39232,"is_reserved":false,"is_disabled":false,"rental_uris":{"android":"levelo://app?vid=9d625d54-132c-4459-a4c0-dc005972a7a7","ios":"levelo://app?vid=9d625d54-132c-4459-a4c0-dc005972a7a7"},"vehicle_type_id":"4","last_reported":1758183250,"current_range_meters":16000,"station_id":"","pricing_plan_id":"cebpf4jnsgd1na2vs0mg"},{"bike_id":"a4faa1fd-62ee-404a-aff8-b79ea6b6b5d2","system_id":"levelo_inurba_marseille","lat":43.32986,"lon":5.39245,"is_reserved":false,"is_disabled":false,"rental_uris":{"android":"levelo://app?vid=a4faa1fd-62ee-404a-aff8-b79ea6b6b5d2","ios":"levelo://app?vid=a4faa1fd-62ee-404a-aff8-b79ea6b6b5d2"},"vehicle_type_id":"4","last_reported":1758183250,"current_range_meters":16000,"station_id":"","pricing_plan_id":"cebpf4jnsgd1na2vs0mg"},{"bike_id":"d9f0ae84-d732-44f5-b420-064e325a0d60","system_id":"levelo_inurba_marseille","lat":43.320183,"lon":5.381343,"is_reserved":false,"is_disabled":false,"rental_uris":{"android":"levelo://app?vid=d9f0ae84-d732-44f5-b420-064e325a0d60","ios":"levelo://app?vid=d9f0ae84-d732-44f5-b420-064e325a0d60"},"vehicle_type_id":"4","last_reported":1758183250,"current_range_meters":16000,"station_id":"","pricing_plan_id":"cebpf4jnsgd1na2vs0mg"},{"bike_id":"fa0847a4-8d8b-47a2-9c0d-c16fe7a48c9b","system_id":"levelo_inurba_marseille","lat":43.330285,"lon":5.390556,"is_reserved":false,"is_disabled":false,"rental_uris":{"android":"levelo://app?vid=fa0847a4-8d8b-47a2-9c0d-c16fe7a48c9b","ios":"levelo://app?vid=fa0847a4-8d8b-47a2-9c0d-c16fe7a48c9b"},"vehicle_type_id":"4","last_reported":1758183250,"current_range_meters":16000,"station_id":"","pricing_plan_id":"cebpf4jnsgd1na2vs0mg"},{"bike_id":"08128352-d0a0-4f5f-a684-879e4974aa4c","system_id":"levelo_inurba_marseille","lat":43.22565,"lon":5.41631,"is_reserved":false,"is_disabled":false,"rental_uris":{"android":"levelo://app?vid=08128352-d0a0-4f5f-a684-879e4974aa4c","ios":"levelo://app?vid=08128352-d0a0-4f5f-a684-879e4974aa4c"},"vehicle_type_id":"4","last_reported":1758183250,"current_range_meters":16000,"station_id":"st_d2o4gvlbi1j2169b742g","pricing_plan_id":"cebpf4jnsgd1na2vs0mg"},{"bike_id":"be9ee84b-9ec1-497c-800c-5907ad1418ae","system_id":"levelo_inurba_marseille","lat":43.22555,"lon":5.41702,"is_reserved":false,"is_disabled":false,"rental_uris":{"android":"levelo://app?vid=be9ee84b-9ec1-497c-800c-5907ad1418ae","ios":"levelo://app?vid=be9ee84b-9ec1-497c-800c-5907ad1418ae"},"vehicle_type_id":"4","last_reported":1758183250,"current_range_meters":16000,"station_id":"st_d2o4gvlbi1j2169b742g","pricing_plan_id":"cebpf4jnsgd1na2vs0mg"},{"bike_id":"53af326b-31f6-450f-abc9-91e5f87a42a0","system_id":"levelo_inurba_marseille","lat":43.23153,"lon":5.43718,"is_reserved":false,"is_disabled":false,"rental_uris":{"android":"levelo://app?vid=53af326b-31f6-450f-abc9-91e5f87a42a0","ios":"levelo://app?vid=53af326b-31f6-450f-abc9-91e5f87a42a0"},"vehicle_type_id":"4","last_reported":1758183250,"current_range_meters":16000,"station_id":"ce4bhmp2rcd13ifvqgog","pricing_plan_id":"cebpf4jnsgd1na2vs0mg"},{"bike_id":"1da37b3a-d772-478a-a85c-fb719c8bc7a9","system_id":"levelo_inurba_marseille","lat":43.26557,"lon":5.39667,"is_reserved":false,"is_disabled":false,"rental_uris":{"android":"levelo://app?vid=1da37b3a-d772-478a-a85c-fb719c8bc7a9","ios":"levelo://app?vid=1da37b3a-d772-478a-a85c-fb719c8bc7a9"},"vehicle_type_id":"4","last_reported":1758183250,"current_range_meters":16000,"station_id":"","pricing_plan_id":"cebpf4jnsgd1na2vs0mg"},{"bike_id":"963157e2-b62e-400f-a97e-47ea561d1e9f","system_id":"levelo_inurba_marseille","lat":43.23152,"lon":5.43717,"is_reserved":false,"is_disabled":false,"rental_uris":{"android":"levelo://app?vid=963157e2-b62e-400f-a97e-47ea561d1e9f","ios":"levelo://app?vid=963157e2-b62e-400f-a97e-47ea561d1e9f"},"vehicle_type_id":"4","last_reported":1758183250,"current_range_meters":16000,"station_id":"ce4bhmp2rcd13ifvqgog","pricing_plan_id":"cebpf4jnsgd1na2vs0mg"},{"bike_id":"d93f6aec-282b-42a6-9be0-fe23bad38a2b","system_id":"levelo_inurba_marseille","lat":43.24625,"lon":5.43137,"is_reserved":false,"is_disabled":true,"rental_uris":{"android":"levelo://app?vid=d93f6aec-282b-42a6-9be0-fe23bad38a2b","ios":"levelo://app?vid=d93f6aec-282b-42a6-9be0-fe23bad38a2b"},"vehicle_type_id":"4","last_reported":1758183250,"current_range_meters":16400,"station_id":"st_d2m6c4gdas8pm72e190g","pricing_plan_id":"cebpf4jnsgd1na2vs0mg"},{"bike_id":"153ab0c4-f882-4624-9ff5-289e8b0ce013","system_id":"levelo_inurba_marseille","lat":43.25942,"lon":5.40903,"is_reserved":false,"is_disabled":false,"rental_uris":{"android":"levelo://app?vid=153ab0c4-f882-4624-9ff5-289e8b0ce013","ios":"levelo://app?vid=153ab0c4-f882-4624-9ff5-289e8b0ce013"},"vehicle_type_id":"4","last_reported":1758183250,"current_range_meters":16400,"station_id":"ce4bhm92rcd13ifvqglg","pricing_plan_id":"cebpf4jnsgd1na2vs0mg"},{"bike_id":"9d8b4944-013e-4958-9415-40d7b5ee9701","system_id":"levelo_inurba_marseille","lat":43.31588,"lon":5.38176,"is_reserved":false,"is_disabled":false,"rental_uris":{"android":"levelo://app?vid=9d8b4944-013e-4958-9415-40d7b5ee9701","ios":"levelo://app?vid=9d8b4944-013e-4958-9415-40d7b5ee9701"},"vehicle_type_id":"4","last_reported":1758183250,"current_range_meters":16400,"station_id":"","pricing_plan_id":"cebpf4jnsgd1na2vs0mg"},{"bike_id":"2e2ae28d-dee5-4d7d-94ef-359eeb19688f","system_id":"levelo_inurba_marseille","lat":43.3199,"lon":5.38151,"is_reserved":false,"is_disabled":false,"rental_uris":{"android":"levelo://app?vid=2e2ae28d-dee5-4d7d-94ef-359eeb19688f","ios":"levelo://app?vid=2e2ae28d-dee5-4d7d-94ef-359eeb19688f"},"vehicle_type_id":"4","last_reported":1758183250,"current_range_meters":16400,"station_id":"ce4bhr12rcd13ifvqhpg","pricing_plan_id":"cebpf4jnsgd1na2vs0mg"},{"bike_id":"e1f51025-1404-4cca-96b7-273119670d5f","system_id":"levelo_inurba_marseille","lat":43.2528,"lon":5.42909,"is_reserved":false,"is_disabled":false,"rental_uris":{"android":"levelo://app?vid=e1f51025-1404-4cca-96b7-273119670d5f","ios":"levelo://app?vid=e1f51025-1404-4cca-96b7-273119670d5f"},"vehicle_type_id":"4","last_reported":1758183250,"current_range_meters":16400,"station_id":"","pricing_plan_id":"cebpf4jnsgd1na2vs0mg"},{"bike_id":"73b98966-d250-435e-a834-c75566220ac8","system_id":"levelo_inurba_marseille","lat":43.23155,"lon":5.43731,"is_reserved":false,"is_disabled":false,"rental_uris":{"android":"levelo://app?vid=73b98966-d250-435e-a834-c75566220ac8","ios":"levelo://app?vid=73b98966-d250-435e-a834-c75566220ac8"},"vehicle_type_id":"4","last_reported":1758183250,"current_range_meters":16400,"station_id":"ce4bhmp2rcd13ifvqgog","pricing_plan_id":"cebpf4jnsgd1na2vs0mg"},{"bike_id":"acfec73f-5435-48eb-a869-eeb3dc5252c8","system_id":"levelo_inurba_marseille","lat":43.31297,"lon":5.37867,"is_reserved":false,"is_disabled":false,"rental_uris":{"android":"levelo://app?vid=acfec73f-5435-48eb-a869-eeb3dc5252c8","ios":"levelo://app?vid=acfec73f-5435-48eb-a869-eeb3dc5252c8"},"vehicle_type_id":"4","last_reported":1758183250,"current_range_meters":16400,"station_id":"","pricing_plan_id":"cebpf4jnsgd1na2vs0mg"},{"bike_id":"ca5b9659-7fae-41c3-8d6e-655bc114232a","system_id":"levelo_inurba_marseille","lat":43.26232,"lon":5.40467,"is_reserved":false,"is_disabled":false,"rental_uris":{"android":"levelo://app?vid=ca5b9659-7fae-41c3-8d6e-655bc114232a","ios":"levelo://app?vid=ca5b9659-7fae-41c3-8d6e-655bc114232a"},"vehicle_type_id":"4","last_reported":1758183250,"current_range_meters":16400,"station_id":"ce4bhmh2rcd13ifvqgmg","pricing_plan_id":"cebpf4jnsgd1na2vs0mg"},{"bike_id":"7055d3b2-83d7-4558-aa7a-584610ffb397","system_id":"levelo_inurba_marseille","lat":43.2315,"lon":5.43703,"is_reserved":false,"is_disabled":false,"rental_uris":{"android":"levelo://app?vid=7055d3b2-83d7-4558-aa7a-584610ffb397","ios":"levelo://app?vid=7055d3b2-83d7-4558-aa7a-584610ffb397"},"vehicle_type_id":"4","last_reported":1758183250,"current_range_meters":16800,"station_id":"ce4bhmp2rcd13ifvqgog","pricing_plan_id":"cebpf4jnsgd1na2vs0mg"},{"bike_id":"bd185fbb-729f-4221-8aa9-562ca885c1f5","system_id":"levelo_inurba_marseille","lat":43.22564,"lon":5.41622,"is_reserved":false,"is_disabled":false,"rental_uris":{"android":"levelo://app?vid=bd185fbb-729f-4221-8aa9-562ca885c1f5","ios":"levelo://app?vid=bd185fbb-729f-4221-8aa9-562ca885c1f5"},"vehicle_type_id":"4","last_reported":1758183250,"current_range_meters":16800,"station_id":"st_d2o4gvlbi1j2169b742g","pricing_plan_id":"cebpf4jnsgd1na2vs0mg"},{"bike_id":"985c013e-9710-46d5-9093-f3ae38039ef8","system_id":"levelo_inurba_marseille","lat":43.29038,"lon":5.39965,"is_reserved":false,"is_disabled":false,"rental_uris":{"android":"levelo://app?vid=985c013e-9710-46d5-9093-f3ae38039ef8","ios":"levelo://app?vid=985c013e-9710-46d5-9093-f3ae38039ef8"},"vehicle_type_id":"4","last_reported":1758183250,"current_range_meters":17200,"station_id":"ce4bh392rcd13ifvqdm0","pricing_plan_id":"cebpf4jnsgd1na2vs0mg"},{"bike_id":"7eed94c4-182d-4460-826b-78b4ef60c719","system_id":"levelo_inurba_marseille","lat":43.295859,"lon":5.375163,"is_reserved":false,"is_disabled":false,"rental_uris":{"android":"levelo://app?vid=7eed94c4-182d-4460-826b-78b4ef60c719","ios":"levelo://app?vid=7eed94c4-182d-4460-826b-78b4ef60c719"},"vehicle_type_id":"4","last_reported":1758183250,"current_range_meters":17200,"station_id":"","pricing_plan_id":"cebpf4jnsgd1na2vs0mg"},{"bike_id":"96a10da0-9785-4c45-b0f6-69de562e23fa","system_id":"levelo_inurba_marseille","lat":43.23155,"lon":5.43719,"is_reserved":false,"is_disabled":false,"rental_uris":{"android":"levelo://app?vid=96a10da0-9785-4c45-b0f6-69de562e23fa","ios":"levelo://app?vid=96a10da0-9785-4c45-b0f6-69de562e23fa"},"vehicle_type_id":"4","last_reported":1758183250,"current_range_meters":17200,"station_id":"ce4bhmp2rcd13ifvqgog","pricing_plan_id":"cebpf4jnsgd1na2vs0mg"},{"bike_id":"40a16e10-c9dd-40a9-80de-0bbe781e2b83","system_id":"levelo_inurba_marseille","lat":43.25926,"lon":5.40897,"is_reserved":false,"is_disabled":false,"rental_uris":{"android":"levelo://app?vid=40a16e10-c9dd-40a9-80de-0bbe781e2b83","ios":"levelo://app?vid=40a16e10-c9dd-40a9-80de-0bbe781e2b83"},"vehicle_type_id":"4","last_reported":1758183250,"current_range_meters":17200,"station_id":"ce4bhm92rcd13ifvqglg","pricing_plan_id":"cebpf4jnsgd1na2vs0mg"},{"bike_id":"e7493bf2-b1fc-437c-872f-375df696de97","system_id":"levelo_inurba_marseille","lat":43.30882,"lon":5.37206,"is_reserved":false,"is_disabled":true,"rental_uris":{"android":"levelo://app?vid=e7493bf2-b1fc-437c-872f-375df696de97","ios":"levelo://app?vid=e7493bf2-b1fc-437c-872f-375df696de97"},"vehicle_type_id":"4","last_reported":1758183250,"current_range_meters":17200,"station_id":"ce4bguh2rcd13ifvqckg","pricing_plan_id":"cebpf4jnsgd1na2vs0mg"},{"bike_id":"f9418cc9-c64d-43d9-9060-3aeedd69cdee","system_id":"levelo_inurba_marseille","lat":43.330794,"lon":5.378585,"is_reserved":false,"is_disabled":false,"rental_uris":{"android":"levelo://app?vid=f9418cc9-c64d-43d9-9060-3aeedd69cdee","ios":"levelo://app?vid=f9418cc9-c64d-43d9-9060-3aeedd69cdee"},"vehicle_type_id":"4","last_reported":1758183250,"current_range_meters":17200,"station_id":"","pricing_plan_id":"cebpf4jnsgd1na2vs0mg"},{"bike_id":"d3da840a-ced3-4f78-95b1-fbc9ad8fac4c","system_id":"levelo_inurba_marseille","lat":43.259427,"lon":5.409351,"is_reserved":false,"is_disabled":true,"rental_uris":{"android":"levelo://app?vid=d3da840a-ced3-4f78-95b1-fbc9ad8fac4c","ios":"levelo://app?vid=d3da840a-ced3-4f78-95b1-fbc9ad8fac4c"},"vehicle_type_id":"4","last_reported":1758183250,"current_range_meters":17600,"station_id":"ce4bhm92rcd13ifvqglg","pricing_plan_id":"cebpf4jnsgd1na2vs0mg"},{"bike_id":"79dd30e9-1036-4dcc-b18f-c846423441d5","system_id":"levelo_inurba_marseille","lat":43.24066,"lon":5.37755,"is_reserved":false,"is_disabled":false,"rental_uris":{"android":"levelo://app?vid=79dd30e9-1036-4dcc-b18f-c846423441d5","ios":"levelo://app?vid=79dd30e9-1036-4dcc-b18f-c846423441d5"},"vehicle_type_id":"4","last_reported":1758183250,"current_range_meters":17600,"station_id":"ce4bhnp2rcd13ifvqgvg","pricing_plan_id":"cebpf4jnsgd1na2vs0mg"},{"bike_id":"53e32093-87d7-47a8-a5be-30a834c8135a","system_id":"levelo_inurba_marseille","lat":43.32359,"lon":5.36744,"is_reserved":false,"is_disabled":false,"rental_uris":{"android":"levelo://app?vid=53e32093-87d7-47a8-a5be-30a834c8135a","ios":"levelo://app?vid=53e32093-87d7-47a8-a5be-30a834c8135a"},"vehicle_type_id":"4","last_reported":1758183250,"current_range_meters":17600,"station_id":"ce4bhsh2rcd13ifvqi2g","pricing_plan_id":"cebpf4jnsgd1na2vs0mg"},{"bike_id":"44301f6a-a195-4779-a6ec-aa7e5cad8169","system_id":"levelo_inurba_marseille","lat":43.24062,"lon":5.37748,"is_reserved":false,"is_disabled":false,"rental_uris":{"android":"levelo://app?vid=44301f6a-a195-4779-a6ec-aa7e5cad8169","ios":"levelo://app?vid=44301f6a-a195-4779-a6ec-aa7e5cad8169"},"vehicle_type_id":"4","last_reported":1758183250,"current_range_meters":16800,"station_id":"ce4bhnp2rcd13ifvqgvg","pricing_plan_id":"cebpf4jnsgd1na2vs0mg"},{"bike_id":"fb78ea42-e26f-45b3-a617-d3474b811b72","system_id":"levelo_inurba_marseille","lat":43.29877,"lon":5.37966,"is_reserved":false,"is_disabled":false,"rental_uris":{"android":"levelo://app?vid=fb78ea42-e26f-45b3-a617-d3474b811b72","ios":"levelo://app?vid=fb78ea42-e26f-45b3-a617-d3474b811b72"},"vehicle_type_id":"4","last_reported":1758183250,"current_range_meters":17600,"station_id":"","pricing_plan_id":"cebpf4jnsgd1na2vs0mg"},{"bike_id":"4167e0ba-d6ff-48da-83b1-d040a252492e","system_id":"levelo_inurba_marseille","lat":43.29041,"lon":5.38195,"is_reserved":false,"is_disabled":false,"rental_uris":{"android":"levelo://app?vid=4167e0ba-d6ff-48da-83b1-d040a252492e","ios":"levelo://app?vid=4167e0ba-d6ff-48da-83b1-d040a252492e"},"vehicle_type_id":"4","last_reported":1758183250,"current_range_meters":17600,"station_id":"","pricing_plan_id":"cebpf4jnsgd1na2vs0mg"},{"bike_id":"e942f984-8fe7-48d1-8f04-3806656b9996","system_id":"levelo_inurba_marseille","lat":43.3361,"lon":5.37939,"is_reserved":false,"is_disabled":false,"rental_uris":{"android":"levelo://app?vid=e942f984-8fe7-48d1-8f04-3806656b9996","ios":"levelo://app?vid=e942f984-8fe7-48d1-8f04-3806656b9996"},"vehicle_type_id":"4","last_reported":1758183250,"current_range_meters":17600,"station_id":"","pricing_plan_id":"cebpf4jnsgd1na2vs0mg"},{"bike_id":"b3a3fdbc-4291-4540-b60f-7e98f1937ed3","system_id":"levelo_inurba_marseille","lat":43.23139,"lon":5.4372,"is_reserved":false,"is_disabled":false,"rental_uris":{"android":"levelo://app?vid=b3a3fdbc-4291-4540-b60f-7e98f1937ed3","ios":"levelo://app?vid=b3a3fdbc-4291-4540-b60f-7e98f1937ed3"},"vehicle_type_id":"4","last_reported":1758183250,"current_range_meters":17600,"station_id":"ce4bhmp2rcd13ifvqgog","pricing_plan_id":"cebpf4jnsgd1na2vs0mg"},{"bike_id":"79d9ebc0-8a83-4f00-ae73-98f120ac4caf","system_id":"levelo_inurba_marseille","lat":43.239627,"lon":5.366278,"is_reserved":false,"is_disabled":false,"rental_uris":{"android":"levelo://app?vid=79d9ebc0-8a83-4f00-ae73-98f120ac4caf","ios":"levelo://app?vid=79d9ebc0-8a83-4f00-ae73-98f120ac4caf"},"vehicle_type_id":"4","last_reported":1758183250,"current_range_meters":17600,"station_id":"ce4bhi12rcd13ifvqfp0","pricing_plan_id":"cebpf4jnsgd1na2vs0mg"},{"bike_id":"46e89d11-c05c-46a8-952a-3349a961fbf1","system_id":"levelo_inurba_marseille","lat":43.33765,"lon":5.37472,"is_reserved":false,"is_disabled":false,"rental_uris":{"android":"levelo://app?vid=46e89d11-c05c-46a8-952a-3349a961fbf1","ios":"levelo://app?vid=46e89d11-c05c-46a8-952a-3349a961fbf1"},"vehicle_type_id":"4","last_reported":1758183250,"current_range_meters":18000,"station_id":"","pricing_plan_id":"cebpf4jnsgd1na2vs0mg"},{"bike_id":"2c734c36-442f-468e-ab47-e34ad5183e32","system_id":"levelo_inurba_marseille","lat":43.27256,"lon":5.38008,"is_reserved":false,"is_disabled":false,"rental_uris":{"android":"levelo://app?vid=2c734c36-442f-468e-ab47-e34ad5183e32","ios":"levelo://app?vid=2c734c36-442f-468e-ab47-e34ad5183e32"},"vehicle_type_id":"4","last_reported":1758183250,"current_range_meters":18000,"station_id":"","pricing_plan_id":"cebpf4jnsgd1na2vs0mg"},{"bike_id":"2b53bf84-e1a9-4eca-ba44-2614697379c7","system_id":"levelo_inurba_marseille","lat":43.24633,"lon":5.43146,"is_reserved":false,"is_disabled":false,"rental_uris":{"android":"levelo://app?vid=2b53bf84-e1a9-4eca-ba44-2614697379c7","ios":"levelo://app?vid=2b53bf84-e1a9-4eca-ba44-2614697379c7"},"vehicle_type_id":"4","last_reported":1758183250,"current_range_meters":18000,"station_id":"st_d2m6c4gdas8pm72e190g","pricing_plan_id":"cebpf4jnsgd1na2vs0mg"},{"bike_id":"8f257254-7b0a-49bd-aada-d2d9938b608c","system_id":"levelo_inurba_marseille","lat":43.274933,"lon":5.424528,"is_reserved":false,"is_disabled":true,"rental_uris":{"android":"levelo://app?vid=8f257254-7b0a-49bd-aada-d2d9938b608c","ios":"levelo://app?vid=8f257254-7b0a-49bd-aada-d2d9938b608c"},"vehicle_type_id":"4","last_reported":1758183250,"current_range_meters":18000,"station_id":"ce4bhn92rcd13ifvqgrg","pricing_plan_id":"cebpf4jnsgd1na2vs0mg"},{"bike_id":"20779ce2-c509-48f8-99ef-118fe3e2bd5b","system_id":"levelo_inurba_marseille","lat":43.25934,"lon":5.40914,"is_reserved":false,"is_disabled":false,"rental_uris":{"android":"levelo://app?vid=20779ce2-c509-48f8-99ef-118fe3e2bd5b","ios":"levelo://app?vid=20779ce2-c509-48f8-99ef-118fe3e2bd5b"},"vehicle_type_id":"4","last_reported":1758183250,"current_range_meters":18000,"station_id":"ce4bhm92rcd13ifvqglg","pricing_plan_id":"cebpf4jnsgd1na2vs0mg"},{"bike_id":"9d181f5a-58ca-49a0-bbcc-8286d3ed3228","system_id":"levelo_inurba_marseille","lat":43.31366,"lon":5.38373,"is_reserved":false,"is_disabled":false,"rental_uris":{"android":"levelo://app?vid=9d181f5a-58ca-49a0-bbcc-8286d3ed3228","ios":"levelo://app?vid=9d181f5a-58ca-49a0-bbcc-8286d3ed3228"},"vehicle_type_id":"4","last_reported":1758183250,"current_range_meters":18000,"station_id":"","pricing_plan_id":"cebpf4jnsgd1na2vs0mg"},{"bike_id":"74169614-5c1c-4161-9857-095f922cf840","system_id":"levelo_inurba_marseille","lat":43.29097,"lon":5.37225,"is_reserved":false,"is_disabled":false,"rental_uris":{"android":"levelo://app?vid=74169614-5c1c-4161-9857-095f922cf840","ios":"levelo://app?vid=74169614-5c1c-4161-9857-095f922cf840"},"vehicle_type_id":"4","last_reported":1758183250,"current_range_meters":18000,"station_id":"","pricing_plan_id":"cebpf4jnsgd1na2vs0mg"},{"bike_id":"553f8368-9fc7-4fab-ab6b-4ab64407d3bf","system_id":"levelo_inurba_marseille","lat":43.2887,"lon":5.42531,"is_reserved":false,"is_disabled":false,"rental_uris":{"android":"levelo://app?vid=553f8368-9fc7-4fab-ab6b-4ab64407d3bf","ios":"levelo://app?vid=553f8368-9fc7-4fab-ab6b-4ab64407d3bf"},"vehicle_type_id":"4","last_reported":1758183250,"current_range_meters":18000,"station_id":"","pricing_plan_id":"cebpf4jnsgd1na2vs0mg"},{"bike_id":"ab150341-034c-4ca7-ac9b-404ec891e126","system_id":"levelo_inurba_marseille","lat":43.28935,"lon":5.36657,"is_reserved":false,"is_disabled":false,"rental_uris":{"android":"levelo://app?vid=ab150341-034c-4ca7-ac9b-404ec891e126","ios":"levelo://app?vid=ab150341-034c-4ca7-ac9b-404ec891e126"},"vehicle_type_id":"4","last_reported":1758183250,"current_range_meters":17600,"station_id":"ce4bhap2rcd13ifvqek0","pricing_plan_id":"cebpf4jnsgd1na2vs0mg"},{"bike_id":"47c22245-345e-4b55-8db6-e460226dbf31","system_id":"levelo_inurba_marseille","lat":43.27493,"lon":5.42454,"is_reserved":false,"is_disabled":false,"rental_uris":{"android":"levelo://app?vid=47c22245-345e-4b55-8db6-e460226dbf31","ios":"levelo://app?vid=47c22245-345e-4b55-8db6-e460226dbf31"},"vehicle_type_id":"4","last_reported":1758183250,"current_range_meters":18800,"station_id":"ce4bhn92rcd13ifvqgrg","pricing_plan_id":"cebpf4jnsgd1na2vs0mg"},{"bike_id":"3a2fd072-55c6-4292-8ade-97d21356d4ed","system_id":"levelo_inurba_marseille","lat":43.23146,"lon":5.43724,"is_reserved":false,"is_disabled":false,"rental_uris":{"android":"levelo://app?vid=3a2fd072-55c6-4292-8ade-97d21356d4ed","ios":"levelo://app?vid=3a2fd072-55c6-4292-8ade-97d21356d4ed"},"vehicle_type_id":"4","last_reported":1758183250,"current_range_meters":18800,"station_id":"ce4bhmp2rcd13ifvqgog","pricing_plan_id":"cebpf4jnsgd1na2vs0mg"},{"bike_id":"550893d5-c010-4eb2-894b-6f812de0bb03","system_id":"levelo_inurba_marseille","lat":43.2315,"lon":5.43708,"is_reserved":false,"is_disabled":false,"rental_uris":{"android":"levelo://app?vid=550893d5-c010-4eb2-894b-6f812de0bb03","ios":"levelo://app?vid=550893d5-c010-4eb2-894b-6f812de0bb03"},"vehicle_type_id":"4","last_reported":1758183250,"current_range_meters":18800,"station_id":"ce4bhmp2rcd13ifvqgog","pricing_plan_id":"cebpf4jnsgd1na2vs0mg"},{"bike_id":"bf6e6d27-c09e-4725-9fbc-20073fd5a515","system_id":"levelo_inurba_marseille","lat":43.289376,"lon":5.396214,"is_reserved":false,"is_disabled":false,"rental_uris":{"android":"levelo://app?vid=bf6e6d27-c09e-4725-9fbc-20073fd5a515","ios":"levelo://app?vid=bf6e6d27-c09e-4725-9fbc-20073fd5a515"},"vehicle_type_id":"4","last_reported":1758183250,"current_range_meters":18800,"station_id":"","pricing_plan_id":"cebpf4jnsgd1na2vs0mg"},{"bike_id":"0960e3dd-c358-4474-bd10-8223758e1f6b","system_id":"levelo_inurba_marseille","lat":43.296996,"lon":5.376855,"is_reserved":false,"is_disabled":false,"rental_uris":{"android":"levelo://app?vid=0960e3dd-c358-4474-bd10-8223758e1f6b","ios":"levelo://app?vid=0960e3dd-c358-4474-bd10-8223758e1f6b"},"vehicle_type_id":"4","last_reported":1758183250,"current_range_meters":18800,"station_id":"","pricing_plan_id":"cebpf4jnsgd1na2vs0mg"},{"bike_id":"58c835b4-daa7-48bf-a0f3-9899714e667a","system_id":"levelo_inurba_marseille","lat":43.29785,"lon":5.38109,"is_reserved":false,"is_disabled":false,"rental_uris":{"android":"levelo://app?vid=58c835b4-daa7-48bf-a0f3-9899714e667a","ios":"levelo://app?vid=58c835b4-daa7-48bf-a0f3-9899714e667a"},"vehicle_type_id":"4","last_reported":1758183250,"current_range_meters":18800,"station_id":"","pricing_plan_id":"cebpf4jnsgd1na2vs0mg"},{"bike_id":"7ea23340-4c19-4cdf-a95c-d6498e16cab2","system_id":"levelo_inurba_marseille","lat":43.25936,"lon":5.40917,"is_reserved":false,"is_disabled":false,"rental_uris":{"android":"levelo://app?vid=7ea23340-4c19-4cdf-a95c-d6498e16cab2","ios":"levelo://app?vid=7ea23340-4c19-4cdf-a95c-d6498e16cab2"},"vehicle_type_id":"4","last_reported":1758183250,"current_range_meters":19200,"station_id":"ce4bhm92rcd13ifvqglg","pricing_plan_id":"cebpf4jnsgd1na2vs0mg"},{"bike_id":"e2688e72-cda6-4015-a88b-f0e32c31b357","system_id":"levelo_inurba_marseille","lat":43.33782,"lon":5.37461,"is_reserved":false,"is_disabled":false,"rental_uris":{"android":"levelo://app?vid=e2688e72-cda6-4015-a88b-f0e32c31b357","ios":"levelo://app?vid=e2688e72-cda6-4015-a88b-f0e32c31b357"},"vehicle_type_id":"4","last_reported":1758183250,"current_range_meters":19200,"station_id":"","pricing_plan_id":"cebpf4jnsgd1na2vs0mg"},{"bike_id":"4cb6774a-f732-4788-b580-425b07f14d7e","system_id":"levelo_inurba_marseille","lat":43.292335,"lon":5.360615,"is_reserved":false,"is_disabled":false,"rental_uris":{"android":"levelo://app?vid=4cb6774a-f732-4788-b580-425b07f14d7e","ios":"levelo://app?vid=4cb6774a-f732-4788-b580-425b07f14d7e"},"vehicle_type_id":"4","last_reported":1758183250,"current_range_meters":19200,"station_id":"","pricing_plan_id":"cebpf4jnsgd1na2vs0mg"},{"bike_id":"435ff4e0-8d24-4c74-8dc1-b1d8f315f71c","system_id":"levelo_inurba_marseille","lat":43.27499,"lon":5.42473,"is_reserved":false,"is_disabled":false,"rental_uris":{"android":"levelo://app?vid=435ff4e0-8d24-4c74-8dc1-b1d8f315f71c","ios":"levelo://app?vid=435ff4e0-8d24-4c74-8dc1-b1d8f315f71c"},"vehicle_type_id":"4","last_reported":1758183250,"current_range_meters":19200,"station_id":"ce4bhn92rcd13ifvqgrg","pricing_plan_id":"cebpf4jnsgd1na2vs0mg"},{"bike_id":"32bad0a0-410f-4bd9-a9f8-4140049937bd","system_id":"levelo_inurba_marseille","lat":43.28128,"lon":5.43217,"is_reserved":false,"is_disabled":false,"rental_uris":{"android":"levelo://app?vid=32bad0a0-410f-4bd9-a9f8-4140049937bd","ios":"levelo://app?vid=32bad0a0-410f-4bd9-a9f8-4140049937bd"},"vehicle_type_id":"4","last_reported":1758183250,"current_range_meters":19200,"station_id":"","pricing_plan_id":"cebpf4jnsgd1na2vs0mg"},{"bike_id":"763bce21-7c3a-4713-a992-823d94ddf3db","system_id":"levelo_inurba_marseille","lat":43.28615,"lon":5.37064,"is_reserved":false,"is_disabled":false,"rental_uris":{"android":"levelo://app?vid=763bce21-7c3a-4713-a992-823d94ddf3db","ios":"levelo://app?vid=763bce21-7c3a-4713-a992-823d94ddf3db"},"vehicle_type_id":"4","last_reported":1758183250,"current_range_meters":19200,"station_id":"ce4bht12rcd13ifvqi60","pricing_plan_id":"cebpf4jnsgd1na2vs0mg"},{"bike_id":"38a99c37-fbf1-49a6-8b4f-4208231ceae3","system_id":"levelo_inurba_marseille","lat":43.241637,"lon":5.363977,"is_reserved":false,"is_disabled":false,"rental_uris":{"android":"levelo://app?vid=38a99c37-fbf1-49a6-8b4f-4208231ceae3","ios":"levelo://app?vid=38a99c37-fbf1-49a6-8b4f-4208231ceae3"},"vehicle_type_id":"4","last_reported":1758183250,"current_range_meters":19600,"station_id":"cpo36qri1sfpv3e86is0","pricing_plan_id":"cebpf4jnsgd1na2vs0mg"},{"bike_id":"b10dee2c-6835-4d9a-a95c-bee0c824800a","system_id":"levelo_inurba_marseille","lat":43.26947,"lon":5.38656,"is_reserved":false,"is_disabled":false,"rental_uris":{"android":"levelo://app?vid=b10dee2c-6835-4d9a-a95c-bee0c824800a","ios":"levelo://app?vid=b10dee2c-6835-4d9a-a95c-bee0c824800a"},"vehicle_type_id":"4","last_reported":1758183250,"current_range_meters":19600,"station_id":"ce4bhh92rcd13ifvqfh0","pricing_plan_id":"cebpf4jnsgd1na2vs0mg"},{"bike_id":"4f240803-5d92-4ae3-abc8-f3967e402474","system_id":"levelo_inurba_marseille","lat":43.2594,"lon":5.40908,"is_reserved":false,"is_disabled":false,"rental_uris":{"android":"levelo://app?vid=4f240803-5d92-4ae3-abc8-f3967e402474","ios":"levelo://app?vid=4f240803-5d92-4ae3-abc8-f3967e402474"},"vehicle_type_id":"4","last_reported":1758183250,"current_range_meters":19600,"station_id":"ce4bhm92rcd13ifvqglg","pricing_plan_id":"cebpf4jnsgd1na2vs0mg"},{"bike_id":"fc407023-5868-46e8-85cf-edd69ce1aa39","system_id":"levelo_inurba_marseille","lat":43.27367,"lon":5.39054,"is_reserved":false,"is_disabled":false,"rental_uris":{"android":"levelo://app?vid=fc407023-5868-46e8-85cf-edd69ce1aa39","ios":"levelo://app?vid=fc407023-5868-46e8-85cf-edd69ce1aa39"},"vehicle_type_id":"4","last_reported":1758183250,"current_range_meters":19600,"station_id":"","pricing_plan_id":"cebpf4jnsgd1na2vs0mg"},{"bike_id":"c8dba32d-5874-475a-8590-f1962b5dc97f","system_id":"levelo_inurba_marseille","lat":43.259331,"lon":5.409012,"is_reserved":false,"is_disabled":false,"rental_uris":{"android":"levelo://app?vid=c8dba32d-5874-475a-8590-f1962b5dc97f","ios":"levelo://app?vid=c8dba32d-5874-475a-8590-f1962b5dc97f"},"vehicle_type_id":"4","last_reported":1758183250,"current_range_meters":19600,"station_id":"ce4bhm92rcd13ifvqglg","pricing_plan_id":"cebpf4jnsgd1na2vs0mg"},{"bike_id":"d0346f65-14a7-4f1f-b68e-24e77122e54b","system_id":"levelo_inurba_marseille","lat":43.33758,"lon":5.37471,"is_reserved":false,"is_disabled":false,"rental_uris":{"android":"levelo://app?vid=d0346f65-14a7-4f1f-b68e-24e77122e54b","ios":"levelo://app?vid=d0346f65-14a7-4f1f-b68e-24e77122e54b"},"vehicle_type_id":"4","last_reported":1758183250,"current_range_meters":19600,"station_id":"","pricing_plan_id":"cebpf4jnsgd1na2vs0mg"},{"bike_id":"7373168a-6106-45da-bd67-c5ad27bd6854","system_id":"levelo_inurba_marseille","lat":43.25905,"lon":5.40895,"is_reserved":false,"is_disabled":false,"rental_uris":{"android":"levelo://app?vid=7373168a-6106-45da-bd67-c5ad27bd6854","ios":"levelo://app?vid=7373168a-6106-45da-bd67-c5ad27bd6854"},"vehicle_type_id":"4","last_reported":1758183250,"current_range_meters":19600,"station_id":"ce4bhm92rcd13ifvqglg","pricing_plan_id":"cebpf4jnsgd1na2vs0mg"},{"bike_id":"d9435b91-12c0-4430-a234-b3c775136dc8","system_id":"levelo_inurba_marseille","lat":43.27205,"lon":5.41004,"is_reserved":false,"is_disabled":true,"rental_uris":{"android":"levelo://app?vid=d9435b91-12c0-4430-a234-b3c775136dc8","ios":"levelo://app?vid=d9435b91-12c0-4430-a234-b3c775136dc8"},"vehicle_type_id":"4","last_reported":1758183250,"current_range_meters":19600,"station_id":"ce4bhl12rcd13ifvqgf0","pricing_plan_id":"cebpf4jnsgd1na2vs0mg"},{"bike_id":"e601bba7-444a-4412-be54-ba6356b28ad5","system_id":"levelo_inurba_marseille","lat":43.30945,"lon":5.39034,"is_reserved":false,"is_disabled":false,"rental_uris":{"android":"levelo://app?vid=e601bba7-444a-4412-be54-ba6356b28ad5","ios":"levelo://app?vid=e601bba7-444a-4412-be54-ba6356b28ad5"},"vehicle_type_id":"4","last_reported":1758183250,"current_range_meters":19600,"station_id":"ce4bgup2rcd13ifvqco0","pricing_plan_id":"cebpf4jnsgd1na2vs0mg"},{"bike_id":"b0519531-dfa9-409f-a2d0-d87440a09095","system_id":"levelo_inurba_marseille","lat":43.23149,"lon":5.43706,"is_reserved":false,"is_disabled":false,"rental_uris":{"android":"levelo://app?vid=b0519531-dfa9-409f-a2d0-d87440a09095","ios":"levelo://app?vid=b0519531-dfa9-409f-a2d0-d87440a09095"},"vehicle_type_id":"4","last_reported":1758183250,"current_range_meters":19600,"station_id":"ce4bhmp2rcd13ifvqgog","pricing_plan_id":"cebpf4jnsgd1na2vs0mg"},{"bike_id":"9b77757b-a8f2-4c93-a14e-e6083861628a","system_id":"levelo_inurba_marseille","lat":43.21755,"lon":5.34615,"is_reserved":false,"is_disabled":false,"rental_uris":{"android":"levelo://app?vid=9b77757b-a8f2-4c93-a14e-e6083861628a","ios":"levelo://app?vid=9b77757b-a8f2-4c93-a14e-e6083861628a"},"vehicle_type_id":"4","last_reported":1758183250,"current_range_meters":19600,"station_id":"st_cvj6r9ubvosntc0bgbag","pricing_plan_id":"cebpf4jnsgd1na2vs0mg"},{"bike_id":"6153d3cd-e2a0-4cfb-9f07-5646e648695a","system_id":"levelo_inurba_marseille","lat":43.30879,"lon":5.372,"is_reserved":false,"is_disabled":false,"rental_uris":{"android":"levelo://app?vid=6153d3cd-e2a0-4cfb-9f07-5646e648695a","ios":"levelo://app?vid=6153d3cd-e2a0-4cfb-9f07-5646e648695a"},"vehicle_type_id":"4","last_reported":1758183250,"current_range_meters":20000,"station_id":"ce4bguh2rcd13ifvqckg","pricing_plan_id":"cebpf4jnsgd1na2vs0mg"},{"bike_id":"f85a8c4d-f9d0-4136-9b57-8bfb28db950c","system_id":"levelo_inurba_marseille","lat":43.31873,"lon":5.37442,"is_reserved":false,"is_disabled":false,"rental_uris":{"android":"levelo://app?vid=f85a8c4d-f9d0-4136-9b57-8bfb28db950c","ios":"levelo://app?vid=f85a8c4d-f9d0-4136-9b57-8bfb28db950c"},"vehicle_type_id":"4","last_reported":1758183250,"current_range_meters":20000,"station_id":"","pricing_plan_id":"cebpf4jnsgd1na2vs0mg"},{"bike_id":"2c664d9e-f9a8-4a6a-8400-da79db47185e","system_id":"levelo_inurba_marseille","lat":43.22551,"lon":5.41623,"is_reserved":false,"is_disabled":false,"rental_uris":{"android":"levelo://app?vid=2c664d9e-f9a8-4a6a-8400-da79db47185e","ios":"levelo://app?vid=2c664d9e-f9a8-4a6a-8400-da79db47185e"},"vehicle_type_id":"4","last_reported":1758183250,"current_range_meters":20000,"station_id":"st_d2o4gvlbi1j2169b742g","pricing_plan_id":"cebpf4jnsgd1na2vs0mg"},{"bike_id":"f688d35d-8d9b-4e7c-88d0-98f63bd44f2d","system_id":"levelo_inurba_marseille","lat":43.34154,"lon":5.40918,"is_reserved":false,"is_disabled":false,"rental_uris":{"android":"levelo://app?vid=f688d35d-8d9b-4e7c-88d0-98f63bd44f2d","ios":"levelo://app?vid=f688d35d-8d9b-4e7c-88d0-98f63bd44f2d"},"vehicle_type_id":"4","last_reported":1758183250,"current_range_meters":20000,"station_id":"ce4bhqh2rcd13ifvqhlg","pricing_plan_id":"cebpf4jnsgd1na2vs0mg"},{"bike_id":"96ba8869-d188-4ca1-bf0d-9bec4f2a4b86","system_id":"levelo_inurba_marseille","lat":43.29529,"lon":5.37512,"is_reserved":false,"is_disabled":false,"rental_uris":{"android":"levelo://app?vid=96ba8869-d188-4ca1-bf0d-9bec4f2a4b86","ios":"levelo://app?vid=96ba8869-d188-4ca1-bf0d-9bec4f2a4b86"},"vehicle_type_id":"4","last_reported":1758183250,"current_range_meters":20000,"station_id":"","pricing_plan_id":"cebpf4jnsgd1na2vs0mg"},{"bike_id":"9c0693b2-33f4-40d9-85fa-754a770a9d54","system_id":"levelo_inurba_marseille","lat":43.295188,"lon":5.390328,"is_reserved":false,"is_disabled":false,"rental_uris":{"android":"levelo://app?vid=9c0693b2-33f4-40d9-85fa-754a770a9d54","ios":"levelo://app?vid=9c0693b2-33f4-40d9-85fa-754a770a9d54"},"vehicle_type_id":"4","last_reported":1758183250,"current_range_meters":20000,"station_id":"ce4bh312rcd13ifvqdj0","pricing_plan_id":"cebpf4jnsgd1na2vs0mg"},{"bike_id":"d65baa26-0f35-46f5-ae09-e2bcec272830","system_id":"levelo_inurba_marseille","lat":43.25942,"lon":5.40898,"is_reserved":false,"is_disabled":false,"rental_uris":{"android":"levelo://app?vid=d65baa26-0f35-46f5-ae09-e2bcec272830","ios":"levelo://app?vid=d65baa26-0f35-46f5-ae09-e2bcec272830"},"vehicle_type_id":"4","last_reported":1758183250,"current_range_meters":20000,"station_id":"ce4bhm92rcd13ifvqglg","pricing_plan_id":"cebpf4jnsgd1na2vs0mg"},{"bike_id":"22e4fe68-79a3-4e28-81b9-8e879d3f0c81","system_id":"levelo_inurba_marseille","lat":43.24179,"lon":5.39732,"is_reserved":false,"is_disabled":false,"rental_uris":{"android":"levelo://app?vid=22e4fe68-79a3-4e28-81b9-8e879d3f0c81","ios":"levelo://app?vid=22e4fe68-79a3-4e28-81b9-8e879d3f0c81"},"vehicle_type_id":"4","last_reported":1758183250,"current_range_meters":20000,"station_id":"ce4bhn12rcd13ifvqgpg","pricing_plan_id":"cebpf4jnsgd1na2vs0mg"},{"bike_id":"4d81a0f6-d133-47b7-b106-eb188a2ed5f0","system_id":"levelo_inurba_marseille","lat":43.34149,"lon":5.40913,"is_reserved":false,"is_disabled":false,"rental_uris":{"android":"levelo://app?vid=4d81a0f6-d133-47b7-b106-eb188a2ed5f0","ios":"levelo://app?vid=4d81a0f6-d133-47b7-b106-eb188a2ed5f0"},"vehicle_type_id":"4","last_reported":1758183250,"current_range_meters":20400,"station_id":"ce4bhqh2rcd13ifvqhlg","pricing_plan_id":"cebpf4jnsgd1na2vs0mg"},{"bike_id":"6cd8ad3d-c254-4910-9677-e3e487a49d92","system_id":"levelo_inurba_marseille","lat":43.254983,"lon":5.376473,"is_reserved":false,"is_disabled":false,"rental_uris":{"android":"levelo://app?vid=6cd8ad3d-c254-4910-9677-e3e487a49d92","ios":"levelo://app?vid=6cd8ad3d-c254-4910-9677-e3e487a49d92"},"vehicle_type_id":"4","last_reported":1758183250,"current_range_meters":20400,"station_id":"","pricing_plan_id":"cebpf4jnsgd1na2vs0mg"},{"bike_id":"bb945bc0-0083-4341-bdc3-1cc8e8c582ec","system_id":"levelo_inurba_marseille","lat":43.23151,"lon":5.43718,"is_reserved":false,"is_disabled":false,"rental_uris":{"android":"levelo://app?vid=bb945bc0-0083-4341-bdc3-1cc8e8c582ec","ios":"levelo://app?vid=bb945bc0-0083-4341-bdc3-1cc8e8c582ec"},"vehicle_type_id":"4","last_reported":1758183250,"current_range_meters":20400,"station_id":"ce4bhmp2rcd13ifvqgog","pricing_plan_id":"cebpf4jnsgd1na2vs0mg"},{"bike_id":"8455a810-3c7b-4e99-bee1-51697042a6fa","system_id":"levelo_inurba_marseille","lat":43.33755,"lon":5.37467,"is_reserved":false,"is_disabled":false,"rental_uris":{"android":"levelo://app?vid=8455a810-3c7b-4e99-bee1-51697042a6fa","ios":"levelo://app?vid=8455a810-3c7b-4e99-bee1-51697042a6fa"},"vehicle_type_id":"4","last_reported":1758183250,"current_range_meters":20400,"station_id":"","pricing_plan_id":"cebpf4jnsgd1na2vs0mg"},{"bike_id":"b9ae8c93-c745-413a-9386-68df571f8cad","system_id":"levelo_inurba_marseille","lat":43.21743,"lon":5.34613,"is_reserved":false,"is_disabled":false,"rental_uris":{"android":"levelo://app?vid=b9ae8c93-c745-413a-9386-68df571f8cad","ios":"levelo://app?vid=b9ae8c93-c745-413a-9386-68df571f8cad"},"vehicle_type_id":"4","last_reported":1758183250,"current_range_meters":20800,"station_id":"","pricing_plan_id":"cebpf4jnsgd1na2vs0mg"},{"bike_id":"9a7830cd-ca7d-41ad-88d6-c1e88b6d3725","system_id":"levelo_inurba_marseille","lat":43.260305,"lon":5.375486,"is_reserved":false,"is_disabled":false,"rental_uris":{"android":"levelo://app?vid=9a7830cd-ca7d-41ad-88d6-c1e88b6d3725","ios":"levelo://app?vid=9a7830cd-ca7d-41ad-88d6-c1e88b6d3725"},"vehicle_type_id":"4","last_reported":1758183250,"current_range_meters":20400,"station_id":"ce4bhgh2rcd13ifvqfa0","pricing_plan_id":"cebpf4jnsgd1na2vs0mg"},{"bike_id":"b82bf3df-f7ed-4d1f-b169-2c0a971af31c","system_id":"levelo_inurba_marseille","lat":43.27157,"lon":5.41009,"is_reserved":false,"is_disabled":false,"rental_uris":{"android":"levelo://app?vid=b82bf3df-f7ed-4d1f-b169-2c0a971af31c","ios":"levelo://app?vid=b82bf3df-f7ed-4d1f-b169-2c0a971af31c"},"vehicle_type_id":"4","last_reported":1758183250,"current_range_meters":20800,"station_id":"ce4bhl12rcd13ifvqgf0","pricing_plan_id":"cebpf4jnsgd1na2vs0mg"},{"bike_id":"939d2df9-e1af-42ce-93f9-cecaa01b9004","system_id":"levelo_inurba_marseille","lat":43.33244,"lon":5.41102,"is_reserved":false,"is_disabled":false,"rental_uris":{"android":"levelo://app?vid=939d2df9-e1af-42ce-93f9-cecaa01b9004","ios":"levelo://app?vid=939d2df9-e1af-42ce-93f9-cecaa01b9004"},"vehicle_type_id":"4","last_reported":1758183250,"current_range_meters":20800,"station_id":"","pricing_plan_id":"cebpf4jnsgd1na2vs0mg"},{"bike_id":"2b71aeb6-9975-49ef-91cb-594905aa4d79","system_id":"levelo_inurba_marseille","lat":43.27467,"lon":5.42455,"is_reserved":false,"is_disabled":false,"rental_uris":{"android":"levelo://app?vid=2b71aeb6-9975-49ef-91cb-594905aa4d79","ios":"levelo://app?vid=2b71aeb6-9975-49ef-91cb-594905aa4d79"},"vehicle_type_id":"4","last_reported":1758183250,"current_range_meters":20800,"station_id":"ce4bhn92rcd13ifvqgrg","pricing_plan_id":"cebpf4jnsgd1na2vs0mg"},{"bike_id":"87a12f30-7b0d-475a-ba7a-d47bc6799cfd","system_id":"levelo_inurba_marseille","lat":43.25581,"lon":5.38244,"is_reserved":false,"is_disabled":false,"rental_uris":{"android":"levelo://app?vid=87a12f30-7b0d-475a-ba7a-d47bc6799cfd","ios":"levelo://app?vid=87a12f30-7b0d-475a-ba7a-d47bc6799cfd"},"vehicle_type_id":"4","last_reported":1758183250,"current_range_meters":20800,"station_id":"ce4bhih2rcd13ifvqfs0","pricing_plan_id":"cebpf4jnsgd1na2vs0mg"},{"bike_id":"c55149d1-3b14-4190-9685-929bf5d49c1e","system_id":"levelo_inurba_marseille","lat":43.2174,"lon":5.34628,"is_reserved":false,"is_disabled":false,"rental_uris":{"android":"levelo://app?vid=c55149d1-3b14-4190-9685-929bf5d49c1e","ios":"levelo://app?vid=c55149d1-3b14-4190-9685-929bf5d49c1e"},"vehicle_type_id":"4","last_reported":1758183250,"current_range_meters":21600,"station_id":"st_cvj6r9ubvosntc0bgbag","pricing_plan_id":"cebpf4jnsgd1na2vs0mg"},{"bike_id":"1ff7675e-9017-4bcb-bf3a-134c675a0275","system_id":"levelo_inurba_marseille","lat":43.29534,"lon":5.37514,"is_reserved":false,"is_disabled":false,"rental_uris":{"android":"levelo://app?vid=1ff7675e-9017-4bcb-bf3a-134c675a0275","ios":"levelo://app?vid=1ff7675e-9017-4bcb-bf3a-134c675a0275"},"vehicle_type_id":"4","last_reported":1758183250,"current_range_meters":21600,"station_id":"ce4bgkp2rcd13ifvqbmg","pricing_plan_id":"cebpf4jnsgd1na2vs0mg"},{"bike_id":"91d7fe7c-c61e-4eb9-a437-54937a9c5eab","system_id":"levelo_inurba_marseille","lat":43.315153,"lon":5.373046,"is_reserved":false,"is_disabled":false,"rental_uris":{"android":"levelo://app?vid=91d7fe7c-c61e-4eb9-a437-54937a9c5eab","ios":"levelo://app?vid=91d7fe7c-c61e-4eb9-a437-54937a9c5eab"},"vehicle_type_id":"4","last_reported":1758183250,"current_range_meters":21600,"station_id":"ce4bgt12rcd13ifvqcd0","pricing_plan_id":"cebpf4jnsgd1na2vs0mg"},{"bike_id":"83bb81ff-5699-4fc8-ada9-6750abfca97f","system_id":"levelo_inurba_marseille","lat":43.23155,"lon":5.4372,"is_reserved":false,"is_disabled":false,"rental_uris":{"android":"levelo://app?vid=83bb81ff-5699-4fc8-ada9-6750abfca97f","ios":"levelo://app?vid=83bb81ff-5699-4fc8-ada9-6750abfca97f"},"vehicle_type_id":"4","last_reported":1758183250,"current_range_meters":21600,"station_id":"ce4bhmp2rcd13ifvqgog","pricing_plan_id":"cebpf4jnsgd1na2vs0mg"},{"bike_id":"6c041fd8-c79d-4610-ad95-c003c7c3f921","system_id":"levelo_inurba_marseille","lat":43.32517,"lon":5.3891,"is_reserved":false,"is_disabled":true,"rental_uris":{"android":"levelo://app?vid=6c041fd8-c79d-4610-ad95-c003c7c3f921","ios":"levelo://app?vid=6c041fd8-c79d-4610-ad95-c003c7c3f921"},"vehicle_type_id":"4","last_reported":1758183250,"current_range_meters":21600,"station_id":"","pricing_plan_id":"cebpf4jnsgd1na2vs0mg"},{"bike_id":"74ca63b8-846f-4e1e-accd-d5e26d84e612","system_id":"levelo_inurba_marseille","lat":43.31488,"lon":5.37328,"is_reserved":false,"is_disabled":false,"rental_uris":{"android":"levelo://app?vid=74ca63b8-846f-4e1e-accd-d5e26d84e612","ios":"levelo://app?vid=74ca63b8-846f-4e1e-accd-d5e26d84e612"},"vehicle_type_id":"4","last_reported":1758183250,"current_range_meters":21600,"station_id":"ce4bgt12rcd13ifvqcd0","pricing_plan_id":"cebpf4jnsgd1na2vs0mg"},{"bike_id":"4f22ce80-9bf1-4526-a2b8-d5b5e67bb7f7","system_id":"levelo_inurba_marseille","lat":43.29071,"lon":5.37168,"is_reserved":false,"is_disabled":false,"rental_uris":{"android":"levelo://app?vid=4f22ce80-9bf1-4526-a2b8-d5b5e67bb7f7","ios":"levelo://app?vid=4f22ce80-9bf1-4526-a2b8-d5b5e67bb7f7"},"vehicle_type_id":"4","last_reported":1758183250,"current_range_meters":22000,"station_id":"ce4bh5p2rcd13ifvqe4g","pricing_plan_id":"cebpf4jnsgd1na2vs0mg"},{"bike_id":"7043d694-4783-4b93-b641-8f9588aec89b","system_id":"levelo_inurba_marseille","lat":43.32339,"lon":5.40626,"is_reserved":false,"is_disabled":false,"rental_uris":{"android":"levelo://app?vid=7043d694-4783-4b93-b641-8f9588aec89b","ios":"levelo://app?vid=7043d694-4783-4b93-b641-8f9588aec89b"},"vehicle_type_id":"4","last_reported":1758183250,"current_range_meters":22000,"station_id":"ce4bhq92rcd13ifvqhjg","pricing_plan_id":"cebpf4jnsgd1na2vs0mg"},{"bike_id":"c4706891-6ce1-4440-91ff-a3ecf2ff007e","system_id":"levelo_inurba_marseille","lat":43.26374,"lon":5.40075,"is_reserved":false,"is_disabled":false,"rental_uris":{"android":"levelo://app?vid=c4706891-6ce1-4440-91ff-a3ecf2ff007e","ios":"levelo://app?vid=c4706891-6ce1-4440-91ff-a3ecf2ff007e"},"vehicle_type_id":"4","last_reported":1758183250,"current_range_meters":22000,"station_id":"","pricing_plan_id":"cebpf4jnsgd1na2vs0mg"},{"bike_id":"3c59fca0-1e43-4d43-bb61-7c7933df9473","system_id":"levelo_inurba_marseille","lat":43.29963,"lon":5.37765,"is_reserved":false,"is_disabled":false,"rental_uris":{"android":"levelo://app?vid=3c59fca0-1e43-4d43-bb61-7c7933df9473","ios":"levelo://app?vid=3c59fca0-1e43-4d43-bb61-7c7933df9473"},"vehicle_type_id":"4","last_reported":1758183250,"current_range_meters":22000,"station_id":"","pricing_plan_id":"cebpf4jnsgd1na2vs0mg"},{"bike_id":"c7c53f30-1b51-4369-825f-53837e7a6abe","system_id":"levelo_inurba_marseille","lat":43.24648,"lon":5.38896,"is_reserved":false,"is_disabled":false,"rental_uris":{"android":"levelo://app?vid=c7c53f30-1b51-4369-825f-53837e7a6abe","ios":"levelo://app?vid=c7c53f30-1b51-4369-825f-53837e7a6abe"},"vehicle_type_id":"4","last_reported":1758183250,"current_range_meters":21600,"station_id":"ce4bhg12rcd13ifvqf60","pricing_plan_id":"cebpf4jnsgd1na2vs0mg"},{"bike_id":"835975a0-27c7-47e7-bc1c-b8ba0b505127","system_id":"levelo_inurba_marseille","lat":43.3259,"lon":5.37793,"is_reserved":false,"is_disabled":false,"rental_uris":{"android":"levelo://app?vid=835975a0-27c7-47e7-bc1c-b8ba0b505127","ios":"levelo://app?vid=835975a0-27c7-47e7-bc1c-b8ba0b505127"},"vehicle_type_id":"4","last_reported":1758183250,"current_range_meters":22000,"station_id":"","pricing_plan_id":"cebpf4jnsgd1na2vs0mg"},{"bike_id":"af92115d-6f7a-49ce-a65e-77f9182df835","system_id":"levelo_inurba_marseille","lat":43.21744,"lon":5.34596,"is_reserved":false,"is_disabled":true,"rental_uris":{"android":"levelo://app?vid=af92115d-6f7a-49ce-a65e-77f9182df835","ios":"levelo://app?vid=af92115d-6f7a-49ce-a65e-77f9182df835"},"vehicle_type_id":"4","last_reported":1758183250,"current_range_meters":22400,"station_id":"st_cvj6r9ubvosntc0bgbag","pricing_plan_id":"cebpf4jnsgd1na2vs0mg"},{"bike_id":"93c46886-4b1d-4ebe-9c54-eead91fe0ebd","system_id":"levelo_inurba_marseille","lat":43.27493,"lon":5.42452,"is_reserved":false,"is_disabled":false,"rental_uris":{"android":"levelo://app?vid=93c46886-4b1d-4ebe-9c54-eead91fe0ebd","ios":"levelo://app?vid=93c46886-4b1d-4ebe-9c54-eead91fe0ebd"},"vehicle_type_id":"4","last_reported":1758183250,"current_range_meters":22400,"station_id":"ce4bhn92rcd13ifvqgrg","pricing_plan_id":"cebpf4jnsgd1na2vs0mg"},{"bike_id":"66a3da1f-dd9a-43e3-af75-68882f7670e5","system_id":"levelo_inurba_marseille","lat":43.22531,"lon":5.348338,"is_reserved":false,"is_disabled":false,"rental_uris":{"android":"levelo://app?vid=66a3da1f-dd9a-43e3-af75-68882f7670e5","ios":"levelo://app?vid=66a3da1f-dd9a-43e3-af75-68882f7670e5"},"vehicle_type_id":"4","last_reported":1758183250,"current_range_meters":22400,"station_id":"","pricing_plan_id":"cebpf4jnsgd1na2vs0mg"},{"bike_id":"e4e711dd-5fc6-4ccd-b645-2a3b1979388c","system_id":"levelo_inurba_marseille","lat":43.23157,"lon":5.43714,"is_reserved":false,"is_disabled":false,"rental_uris":{"android":"levelo://app?vid=e4e711dd-5fc6-4ccd-b645-2a3b1979388c","ios":"levelo://app?vid=e4e711dd-5fc6-4ccd-b645-2a3b1979388c"},"vehicle_type_id":"4","last_reported":1758183250,"current_range_meters":22400,"station_id":"ce4bhmp2rcd13ifvqgog","pricing_plan_id":"cebpf4jnsgd1na2vs0mg"},{"bike_id":"9e94aedc-b4f2-4726-ba08-9f764b9bac0c","system_id":"levelo_inurba_marseille","lat":43.25925,"lon":5.40882,"is_reserved":false,"is_disabled":false,"rental_uris":{"android":"levelo://app?vid=9e94aedc-b4f2-4726-ba08-9f764b9bac0c","ios":"levelo://app?vid=9e94aedc-b4f2-4726-ba08-9f764b9bac0c"},"vehicle_type_id":"4","last_reported":1758183250,"current_range_meters":22400,"station_id":"ce4bhm92rcd13ifvqglg","pricing_plan_id":"cebpf4jnsgd1na2vs0mg"},{"bike_id":"561a25b9-4374-4389-9393-481e4a6f2234","system_id":"levelo_inurba_marseille","lat":43.25714,"lon":5.41124,"is_reserved":false,"is_disabled":false,"rental_uris":{"android":"levelo://app?vid=561a25b9-4374-4389-9393-481e4a6f2234","ios":"levelo://app?vid=561a25b9-4374-4389-9393-481e4a6f2234"},"vehicle_type_id":"4","last_reported":1758183250,"current_range_meters":22400,"station_id":"ce4bhkp2rcd13ifvqgd0","pricing_plan_id":"cebpf4jnsgd1na2vs0mg"},{"bike_id":"603f2459-e3ec-4548-a5d8-f4c3e39ee5d5","system_id":"levelo_inurba_marseille","lat":43.29612,"lon":5.3772,"is_reserved":false,"is_disabled":false,"rental_uris":{"android":"levelo://app?vid=603f2459-e3ec-4548-a5d8-f4c3e39ee5d5","ios":"levelo://app?vid=603f2459-e3ec-4548-a5d8-f4c3e39ee5d5"},"vehicle_type_id":"4","last_reported":1758183250,"current_range_meters":22400,"station_id":"","pricing_plan_id":"cebpf4jnsgd1na2vs0mg"},{"bike_id":"816ec06c-780c-4eae-b7d6-4a30263cd8c1","system_id":"levelo_inurba_marseille","lat":43.33767,"lon":5.37478,"is_reserved":false,"is_disabled":false,"rental_uris":{"android":"levelo://app?vid=816ec06c-780c-4eae-b7d6-4a30263cd8c1","ios":"levelo://app?vid=816ec06c-780c-4eae-b7d6-4a30263cd8c1"},"vehicle_type_id":"4","last_reported":1758183250,"current_range_meters":22800,"station_id":"","pricing_plan_id":"cebpf4jnsgd1na2vs0mg"},{"bike_id":"b7b13eff-41e2-4095-9b6e-f9b148928896","system_id":"levelo_inurba_marseille","lat":43.28847,"lon":5.39316,"is_reserved":false,"is_disabled":true,"rental_uris":{"android":"levelo://app?vid=b7b13eff-41e2-4095-9b6e-f9b148928896","ios":"levelo://app?vid=b7b13eff-41e2-4095-9b6e-f9b148928896"},"vehicle_type_id":"4","last_reported":1758183250,"current_range_meters":22800,"station_id":"ce4bh2p2rcd13ifvqdi0","pricing_plan_id":"cebpf4jnsgd1na2vs0mg"},{"bike_id":"cf81e322-c44d-449e-8f1d-da3ee36f3155","system_id":"levelo_inurba_marseille","lat":43.30929,"lon":5.40143,"is_reserved":false,"is_disabled":false,"rental_uris":{"android":"levelo://app?vid=cf81e322-c44d-449e-8f1d-da3ee36f3155","ios":"levelo://app?vid=cf81e322-c44d-449e-8f1d-da3ee36f3155"},"vehicle_type_id":"4","last_reported":1758183250,"current_range_meters":22800,"station_id":"ce4bgvp2rcd13ifvqct0","pricing_plan_id":"cebpf4jnsgd1na2vs0mg"},{"bike_id":"401d6bf1-c635-4571-881f-63c516ca3fcd","system_id":"levelo_inurba_marseille","lat":43.23158,"lon":5.4371,"is_reserved":false,"is_disabled":false,"rental_uris":{"android":"levelo://app?vid=401d6bf1-c635-4571-881f-63c516ca3fcd","ios":"levelo://app?vid=401d6bf1-c635-4571-881f-63c516ca3fcd"},"vehicle_type_id":"4","last_reported":1758183250,"current_range_meters":22800,"station_id":"ce4bhmp2rcd13ifvqgog","pricing_plan_id":"cebpf4jnsgd1na2vs0mg"},{"bike_id":"5f578bde-f2e9-4adf-a307-9cf7a7d32656","system_id":"levelo_inurba_marseille","lat":43.26215,"lon":5.4046,"is_reserved":false,"is_disabled":false,"rental_uris":{"android":"levelo://app?vid=5f578bde-f2e9-4adf-a307-9cf7a7d32656","ios":"levelo://app?vid=5f578bde-f2e9-4adf-a307-9cf7a7d32656"},"vehicle_type_id":"4","last_reported":1758183250,"current_range_meters":22800,"station_id":"ce4bhmh2rcd13ifvqgmg","pricing_plan_id":"cebpf4jnsgd1na2vs0mg"},{"bike_id":"4a868259-8b49-4780-98ed-ba2f2673c7a8","system_id":"levelo_inurba_marseille","lat":43.287197,"lon":5.379385,"is_reserved":false,"is_disabled":false,"rental_uris":{"android":"levelo://app?vid=4a868259-8b49-4780-98ed-ba2f2673c7a8","ios":"levelo://app?vid=4a868259-8b49-4780-98ed-ba2f2673c7a8"},"vehicle_type_id":"4","last_reported":1758183250,"current_range_meters":22000,"station_id":"ce4bh9p2rcd13ifvqec0","pricing_plan_id":"cebpf4jnsgd1na2vs0mg"},{"bike_id":"c3529636-2531-4062-8f65-5d2b63d15133","system_id":"levelo_inurba_marseille","lat":43.27495,"lon":5.4245,"is_reserved":false,"is_disabled":false,"rental_uris":{"android":"levelo://app?vid=c3529636-2531-4062-8f65-5d2b63d15133","ios":"levelo://app?vid=c3529636-2531-4062-8f65-5d2b63d15133"},"vehicle_type_id":"4","last_reported":1758183250,"current_range_meters":23200,"station_id":"ce4bhn92rcd13ifvqgrg","pricing_plan_id":"cebpf4jnsgd1na2vs0mg"},{"bike_id":"ffb8656c-f827-4e96-989b-3be17fe38a5f","system_id":"levelo_inurba_marseille","lat":43.337444,"lon":5.374475,"is_reserved":false,"is_disabled":false,"rental_uris":{"android":"levelo://app?vid=ffb8656c-f827-4e96-989b-3be17fe38a5f","ios":"levelo://app?vid=ffb8656c-f827-4e96-989b-3be17fe38a5f"},"vehicle_type_id":"4","last_reported":1758183250,"current_range_meters":23200,"station_id":"","pricing_plan_id":"cebpf4jnsgd1na2vs0mg"},{"bike_id":"77220845-d4da-4dd0-af51-3f9c65c54509","system_id":"levelo_inurba_marseille","lat":43.21752,"lon":5.34611,"is_reserved":false,"is_disabled":false,"rental_uris":{"android":"levelo://app?vid=77220845-d4da-4dd0-af51-3f9c65c54509","ios":"levelo://app?vid=77220845-d4da-4dd0-af51-3f9c65c54509"},"vehicle_type_id":"4","last_reported":1758183250,"current_range_meters":24000,"station_id":"","pricing_plan_id":"cebpf4jnsgd1na2vs0mg"},{"bike_id":"7d116418-660a-4365-b486-3aae951da852","system_id":"levelo_inurba_marseille","lat":43.34733,"lon":5.3609,"is_reserved":false,"is_disabled":false,"rental_uris":{"android":"levelo://app?vid=7d116418-660a-4365-b486-3aae951da852","ios":"levelo://app?vid=7d116418-660a-4365-b486-3aae951da852"},"vehicle_type_id":"4","last_reported":1758183250,"current_range_meters":23200,"station_id":"","pricing_plan_id":"cebpf4jnsgd1na2vs0mg"},{"bike_id":"0327d28a-8e34-4c6a-baf1-5a58c7caa968","system_id":"levelo_inurba_marseille","lat":43.29309,"lon":5.37172,"is_reserved":false,"is_disabled":false,"rental_uris":{"android":"levelo://app?vid=0327d28a-8e34-4c6a-baf1-5a58c7caa968","ios":"levelo://app?vid=0327d28a-8e34-4c6a-baf1-5a58c7caa968"},"vehicle_type_id":"4","last_reported":1758183250,"current_range_meters":23200,"station_id":"ce4bgh92rcd13ifvqb40","pricing_plan_id":"cebpf4jnsgd1na2vs0mg"},{"bike_id":"18eeb948-ddeb-4efa-9c22-1c7d5102eced","system_id":"levelo_inurba_marseille","lat":43.297058,"lon":5.376943,"is_reserved":false,"is_disabled":true,"rental_uris":{"android":"levelo://app?vid=18eeb948-ddeb-4efa-9c22-1c7d5102eced","ios":"levelo://app?vid=18eeb948-ddeb-4efa-9c22-1c7d5102eced"},"vehicle_type_id":"4","last_reported":1758183250,"current_range_meters":23200,"station_id":"","pricing_plan_id":"cebpf4jnsgd1na2vs0mg"},{"bike_id":"3d158a28-bece-4b10-9f82-ab3eb3313408","system_id":"levelo_inurba_marseille","lat":43.337485,"lon":5.374512,"is_reserved":false,"is_disabled":false,"rental_uris":{"android":"levelo://app?vid=3d158a28-bece-4b10-9f82-ab3eb3313408","ios":"levelo://app?vid=3d158a28-bece-4b10-9f82-ab3eb3313408"},"vehicle_type_id":"4","last_reported":1758183250,"current_range_meters":23200,"station_id":"","pricing_plan_id":"cebpf4jnsgd1na2vs0mg"},{"bike_id":"fa0fd2b4-c4b5-46c0-882e-56ffbf7182ec","system_id":"levelo_inurba_marseille","lat":43.2418,"lon":5.39735,"is_reserved":false,"is_disabled":false,"rental_uris":{"android":"levelo://app?vid=fa0fd2b4-c4b5-46c0-882e-56ffbf7182ec","ios":"levelo://app?vid=fa0fd2b4-c4b5-46c0-882e-56ffbf7182ec"},"vehicle_type_id":"4","last_reported":1758183250,"current_range_meters":23200,"station_id":"ce4bhn12rcd13ifvqgpg","pricing_plan_id":"cebpf4jnsgd1na2vs0mg"},{"bike_id":"5613f75e-13dd-421b-b027-149ea8b149c7","system_id":"levelo_inurba_marseille","lat":43.24623,"lon":5.43141,"is_reserved":false,"is_disabled":false,"rental_uris":{"android":"levelo://app?vid=5613f75e-13dd-421b-b027-149ea8b149c7","ios":"levelo://app?vid=5613f75e-13dd-421b-b027-149ea8b149c7"},"vehicle_type_id":"4","last_reported":1758183250,"current_range_meters":23200,"station_id":"st_d2m6c4gdas8pm72e190g","pricing_plan_id":"cebpf4jnsgd1na2vs0mg"},{"bike_id":"57e3f949-fa06-40f0-8200-4d19e6e988da","system_id":"levelo_inurba_marseille","lat":43.2595,"lon":5.40893,"is_reserved":false,"is_disabled":false,"rental_uris":{"android":"levelo://app?vid=57e3f949-fa06-40f0-8200-4d19e6e988da","ios":"levelo://app?vid=57e3f949-fa06-40f0-8200-4d19e6e988da"},"vehicle_type_id":"4","last_reported":1758183250,"current_range_meters":23200,"station_id":"ce4bhm92rcd13ifvqglg","pricing_plan_id":"cebpf4jnsgd1na2vs0mg"},{"bike_id":"b7170a85-b8a7-4ac0-93bb-8ce921ee0ef4","system_id":"levelo_inurba_marseille","lat":43.23163,"lon":5.43723,"is_reserved":false,"is_disabled":false,"rental_uris":{"android":"levelo://app?vid=b7170a85-b8a7-4ac0-93bb-8ce921ee0ef4","ios":"levelo://app?vid=b7170a85-b8a7-4ac0-93bb-8ce921ee0ef4"},"vehicle_type_id":"4","last_reported":1758183250,"current_range_meters":23200,"station_id":"ce4bhmp2rcd13ifvqgog","pricing_plan_id":"cebpf4jnsgd1na2vs0mg"},{"bike_id":"f70279b6-173c-4d71-8078-09bbc72adf09","system_id":"levelo_inurba_marseille","lat":43.29609,"lon":5.38101,"is_reserved":false,"is_disabled":false,"rental_uris":{"android":"levelo://app?vid=f70279b6-173c-4d71-8078-09bbc72adf09","ios":"levelo://app?vid=f70279b6-173c-4d71-8078-09bbc72adf09"},"vehicle_type_id":"4","last_reported":1758183250,"current_range_meters":23200,"station_id":"ce4bgl12rcd13ifvqbo0","pricing_plan_id":"cebpf4jnsgd1na2vs0mg"},{"bike_id":"fb6f7bea-8df6-4988-a21b-2ba64c9b85f8","system_id":"levelo_inurba_marseille","lat":43.23152,"lon":5.43733,"is_reserved":false,"is_disabled":false,"rental_uris":{"android":"levelo://app?vid=fb6f7bea-8df6-4988-a21b-2ba64c9b85f8","ios":"levelo://app?vid=fb6f7bea-8df6-4988-a21b-2ba64c9b85f8"},"vehicle_type_id":"4","last_reported":1758183250,"current_range_meters":24000,"station_id":"ce4bhmp2rcd13ifvqgog","pricing_plan_id":"cebpf4jnsgd1na2vs0mg"},{"bike_id":"b810ec46-97ab-4356-95f9-0c9d02506d5a","system_id":"levelo_inurba_marseille","lat":43.24458,"lon":5.39039,"is_reserved":false,"is_disabled":false,"rental_uris":{"android":"levelo://app?vid=b810ec46-97ab-4356-95f9-0c9d02506d5a","ios":"levelo://app?vid=b810ec46-97ab-4356-95f9-0c9d02506d5a"},"vehicle_type_id":"4","last_reported":1758183250,"current_range_meters":24000,"station_id":"","pricing_plan_id":"cebpf4jnsgd1na2vs0mg"},{"bike_id":"95d962d9-cb2b-4eb0-9057-df7f94fd1747","system_id":"levelo_inurba_marseille","lat":43.25938,"lon":5.40888,"is_reserved":false,"is_disabled":false,"rental_uris":{"android":"levelo://app?vid=95d962d9-cb2b-4eb0-9057-df7f94fd1747","ios":"levelo://app?vid=95d962d9-cb2b-4eb0-9057-df7f94fd1747"},"vehicle_type_id":"4","last_reported":1758183250,"current_range_meters":24000,"station_id":"ce4bhm92rcd13ifvqglg","pricing_plan_id":"cebpf4jnsgd1na2vs0mg"},{"bike_id":"af0490b6-c1c9-4895-8a15-568d23e0a730","system_id":"levelo_inurba_marseille","lat":43.28057,"lon":5.40838,"is_reserved":false,"is_disabled":false,"rental_uris":{"android":"levelo://app?vid=af0490b6-c1c9-4895-8a15-568d23e0a730","ios":"levelo://app?vid=af0490b6-c1c9-4895-8a15-568d23e0a730"},"vehicle_type_id":"4","last_reported":1758183250,"current_range_meters":24000,"station_id":"","pricing_plan_id":"cebpf4jnsgd1na2vs0mg"},{"bike_id":"fa04fbd4-83e8-40b3-968d-fa7925a28ab2","system_id":"levelo_inurba_marseille","lat":43.225335,"lon":5.348288,"is_reserved":false,"is_disabled":false,"rental_uris":{"android":"levelo://app?vid=fa04fbd4-83e8-40b3-968d-fa7925a28ab2","ios":"levelo://app?vid=fa04fbd4-83e8-40b3-968d-fa7925a28ab2"},"vehicle_type_id":"4","last_reported":1758183250,"current_range_meters":24000,"station_id":"","pricing_plan_id":"cebpf4jnsgd1na2vs0mg"},{"bike_id":"67df8158-2909-41b3-8de5-88ec92603a08","system_id":"levelo_inurba_marseille","lat":43.293422,"lon":5.377594,"is_reserved":false,"is_disabled":false,"rental_uris":{"android":"levelo://app?vid=67df8158-2909-41b3-8de5-88ec92603a08","ios":"levelo://app?vid=67df8158-2909-41b3-8de5-88ec92603a08"},"vehicle_type_id":"4","last_reported":1758183250,"current_range_meters":24000,"station_id":"","pricing_plan_id":"cebpf4jnsgd1na2vs0mg"},{"bike_id":"779cbdfc-0907-4255-9426-6b1caa47fe77","system_id":"levelo_inurba_marseille","lat":43.35804,"lon":5.35775,"is_reserved":false,"is_disabled":false,"rental_uris":{"android":"levelo://app?vid=779cbdfc-0907-4255-9426-6b1caa47fe77","ios":"levelo://app?vid=779cbdfc-0907-4255-9426-6b1caa47fe77"},"vehicle_type_id":"4","last_reported":1758183250,"current_range_meters":24000,"station_id":"","pricing_plan_id":"cebpf4jnsgd1na2vs0mg"},{"bike_id":"8a7479f3-e4af-465c-b040-3cf71a80f261","system_id":"levelo_inurba_marseille","lat":43.26956,"lon":5.38627,"is_reserved":false,"is_disabled":false,"rental_uris":{"android":"levelo://app?vid=8a7479f3-e4af-465c-b040-3cf71a80f261","ios":"levelo://app?vid=8a7479f3-e4af-465c-b040-3cf71a80f261"},"vehicle_type_id":"4","last_reported":1758183250,"current_range_meters":24000,"station_id":"ce4bhh92rcd13ifvqfh0","pricing_plan_id":"cebpf4jnsgd1na2vs0mg"},{"bike_id":"fcd22a45-7624-418f-93af-bb0096d9df97","system_id":"levelo_inurba_marseille","lat":43.30716,"lon":5.37099,"is_reserved":false,"is_disabled":false,"rental_uris":{"android":"levelo://app?vid=fcd22a45-7624-418f-93af-bb0096d9df97","ios":"levelo://app?vid=fcd22a45-7624-418f-93af-bb0096d9df97"},"vehicle_type_id":"4","last_reported":1758183250,"current_range_meters":24000,"station_id":"","pricing_plan_id":"cebpf4jnsgd1na2vs0mg"},{"bike_id":"d8575b74-9fb0-4ed8-ac01-d0dc1632eb1c","system_id":"levelo_inurba_marseille","lat":43.33773,"lon":5.37477,"is_reserved":false,"is_disabled":false,"rental_uris":{"android":"levelo://app?vid=d8575b74-9fb0-4ed8-ac01-d0dc1632eb1c","ios":"levelo://app?vid=d8575b74-9fb0-4ed8-ac01-d0dc1632eb1c"},"vehicle_type_id":"4","last_reported":1758183250,"current_range_meters":24400,"station_id":"","pricing_plan_id":"cebpf4jnsgd1na2vs0mg"},{"bike_id":"b9703ded-23c7-4e80-b05e-8f242dbcbffa","system_id":"levelo_inurba_marseille","lat":43.33771,"lon":5.37462,"is_reserved":false,"is_disabled":false,"rental_uris":{"android":"levelo://app?vid=b9703ded-23c7-4e80-b05e-8f242dbcbffa","ios":"levelo://app?vid=b9703ded-23c7-4e80-b05e-8f242dbcbffa"},"vehicle_type_id":"4","last_reported":1758183250,"current_range_meters":24400,"station_id":"","pricing_plan_id":"cebpf4jnsgd1na2vs0mg"},{"bike_id":"dcb28453-9e69-4332-a131-11b8454a7683","system_id":"levelo_inurba_marseille","lat":43.25721,"lon":5.38286,"is_reserved":false,"is_disabled":false,"rental_uris":{"android":"levelo://app?vid=dcb28453-9e69-4332-a131-11b8454a7683","ios":"levelo://app?vid=dcb28453-9e69-4332-a131-11b8454a7683"},"vehicle_type_id":"4","last_reported":1758183250,"current_range_meters":24400,"station_id":"ce4bhih2rcd13ifvqfs0","pricing_plan_id":"cebpf4jnsgd1na2vs0mg"},{"bike_id":"4fd35759-f50e-4c81-8d77-ca7eebd00d4c","system_id":"levelo_inurba_marseille","lat":43.27495,"lon":5.42443,"is_reserved":false,"is_disabled":false,"rental_uris":{"android":"levelo://app?vid=4fd35759-f50e-4c81-8d77-ca7eebd00d4c","ios":"levelo://app?vid=4fd35759-f50e-4c81-8d77-ca7eebd00d4c"},"vehicle_type_id":"4","last_reported":1758183250,"current_range_meters":24400,"station_id":"ce4bhn92rcd13ifvqgrg","pricing_plan_id":"cebpf4jnsgd1na2vs0mg"},{"bike_id":"a9e5bd31-90fc-43db-89e1-58ca218f86c9","system_id":"levelo_inurba_marseille","lat":43.240759,"lon":5.377574,"is_reserved":false,"is_disabled":false,"rental_uris":{"android":"levelo://app?vid=a9e5bd31-90fc-43db-89e1-58ca218f86c9","ios":"levelo://app?vid=a9e5bd31-90fc-43db-89e1-58ca218f86c9"},"vehicle_type_id":"4","last_reported":1758183250,"current_range_meters":24400,"station_id":"ce4bhnp2rcd13ifvqgvg","pricing_plan_id":"cebpf4jnsgd1na2vs0mg"},{"bike_id":"a0826990-c8da-4478-b081-3c0239354bc0","system_id":"levelo_inurba_marseille","lat":43.28543,"lon":5.37798,"is_reserved":false,"is_disabled":false,"rental_uris":{"android":"levelo://app?vid=a0826990-c8da-4478-b081-3c0239354bc0","ios":"levelo://app?vid=a0826990-c8da-4478-b081-3c0239354bc0"},"vehicle_type_id":"4","last_reported":1758183250,"current_range_meters":24400,"station_id":"","pricing_plan_id":"cebpf4jnsgd1na2vs0mg"},{"bike_id":"830b9b55-b582-49a9-8acf-457ace5fb670","system_id":"levelo_inurba_marseille","lat":43.22553,"lon":5.41629,"is_reserved":false,"is_disabled":false,"rental_uris":{"android":"levelo://app?vid=830b9b55-b582-49a9-8acf-457ace5fb670","ios":"levelo://app?vid=830b9b55-b582-49a9-8acf-457ace5fb670"},"vehicle_type_id":"4","last_reported":1758183250,"current_range_meters":24400,"station_id":"st_d2o4gvlbi1j2169b742g","pricing_plan_id":"cebpf4jnsgd1na2vs0mg"},{"bike_id":"50e16c80-85d7-472e-87d8-b23869972ed1","system_id":"levelo_inurba_marseille","lat":43.25933,"lon":5.40879,"is_reserved":false,"is_disabled":false,"rental_uris":{"android":"levelo://app?vid=50e16c80-85d7-472e-87d8-b23869972ed1","ios":"levelo://app?vid=50e16c80-85d7-472e-87d8-b23869972ed1"},"vehicle_type_id":"4","last_reported":1758183250,"current_range_meters":24400,"station_id":"ce4bhm92rcd13ifvqglg","pricing_plan_id":"cebpf4jnsgd1na2vs0mg"},{"bike_id":"14beb8ea-5fb5-43b7-8c2a-0ca4c80d2872","system_id":"levelo_inurba_marseille","lat":43.27492,"lon":5.42441,"is_reserved":false,"is_disabled":false,"rental_uris":{"android":"levelo://app?vid=14beb8ea-5fb5-43b7-8c2a-0ca4c80d2872","ios":"levelo://app?vid=14beb8ea-5fb5-43b7-8c2a-0ca4c80d2872"},"vehicle_type_id":"4","last_reported":1758183250,"current_range_meters":24400,"station_id":"ce4bhn92rcd13ifvqgrg","pricing_plan_id":"cebpf4jnsgd1na2vs0mg"},