{"last_updated":1703037984,"ttl":30,"version":"2.2","data":{"bikes":[{"bike_id":"9d52a925-323b-4a5e-9c24-9e0718f8c66b","system_id":"levelo_inurba_marseille","lat":43.313391,"lon":5.36706,"is_reserved":false,"is_disabled":false,"rental_uris":{"android":"levelo://app?vid=9d52a925-323b-4a5e-9c24-9e0718f8c66b","ios":"levelo://app?vid=9d52a925-323b-4a5e-9c24-9e0718f8c66b"},"vehicle_type_id":"4","last_reported":1703037985,"current_range_meters":30400,"station_id":"ce4bgr92rcd13ifvqc6g","pricing_plan_id":"free"},{"bike_id":"15c7edea-86ab-4b62-9286-30eaeca9bae0","system_id":"levelo_inurba_marseille","lat":43.31341,"lon":5.367098,"is_reserved":false,"is_disabled":false,"rental_uris":{"android":"levelo://app?vid=15c7edea-86ab-4b62-9286-30eaeca9bae0","ios":"levelo://app?vid=15c7edea-86ab-4b62-9286-30eaeca9bae0"},"vehicle_type_id":"4","last_reported":1703037985,"current_range_meters":30400,"station_id":"ce4bgr92rcd13ifvqc6g","pricing_plan_id":"free"},{"bike_id":"487edd01-717a-4feb-82dc-313a472c4731","system_id":"levelo_inurba_marseille","lat":43.312239,"lon":5.368562,"is_reserved":false,"is_disabled":false,"rental_uris":{"android":"levelo://app?vid=487edd01-717a-4feb-82dc-313a472c4731","ios":"levelo://app?vid=487edd01-717a-4feb-82dc-313a472c4731"},"vehicle_type_id":"4","last_reported":1703037985,"current_range_meters":27200,"station_id":"ce4bgl92rcd13ifvqbq0","pricing_plan_id":"free"},{"bike_id":"49a7213e-f202-4ae9-a02e-8476e46dc090","system_id":"levelo_inurba_marseille","lat":43.314811,"lon":5.373103,"is_reserved":false,"is_disabled":false,"rental_uris":{"android":"levelo://app?vid=49a7213e-f202-4ae9-a02e-8476e46dc090","ios":"levelo://app?vid=49a7213e-f202-4ae9-a02e-8476e46dc090"},"vehicle_type_id":"4","last_reported":1703037985,"current_range_meters":8400,"station_id":"ce4bgt12rcd13ifvqcd0","pricing_plan_id":"free"},{"bike_id":"17cf3649-3971-46dc-8de0-65cef6070421","system_id":"levelo_inurba_marseille","lat":43.314811,"lon":5.373103,"is_reserved":false,"is_disabled":false,"rental_uris":{"android":"levelo://app?vid=17cf3649-3971-46dc-8de0-65cef6070421","ios":"levelo://app?vid=17cf3649-3971-46dc-8de0-65cef6070421"},"vehicle_type_id":"4","last_reported":1703037985,"current_range_meters":5200,"station_id":"ce4bgt12rcd13ifvqcd0","pricing_plan_id":"free"},{"bike_id":"e3562f3f-c099-4590-af38-291dea871588","system_id":"levelo_inurba_marseille","lat":43.3089,"lon":5.37187,"is_reserved":false,"is_disabled":false,"rental_uris":{"android":"levelo://app?vid=e3562f3f-c099-4590-af38-291dea871588","ios":"levelo://app?vid=e3562f3f-c099-4590-af38-291dea871588"},"vehicle_type_id":"4","last_reported":1703037985,"current_range_meters":2000,"station_id":"ce4bguh2rcd13ifvqckg","pricing_plan_id":"free"},{"bike_id":"aa3eb507-db67-47ed-a100-b64174be716f","system_id":"levelo_inurba_marseille","lat":43.309039,"lon":5.371797,"is_reserved":false,"is_disabled":false,"rental_uris":{"android":"levelo://app?vid=aa3eb507-db67-47ed-a100-b64174be716f","ios":"levelo://app?vid=aa3eb507-db67-47ed-a100-b64174be716f"},"vehicle_type_id":"4","last_reported":1703037985,"current_range_meters":31200,"station_id":"ce4bguh2rcd13ifvqckg","pricing_plan_id":"free"},{"bike_id":"dbc05aaf-d7cf-4120-b642-7f61140a9031","system_id":"levelo_inurba_marseille","lat":43.309039,"lon":5.371797,"is_reserved":false,"is_disabled":false,"rental_uris":{"android":"levelo://app?vid=dbc05aaf-d7cf-4120-b642-7f61140a9031","ios":"levelo://app?vid=dbc05aaf-d7cf-4120-b642-7f61140a9031"},"vehicle_type_id":"4","last_reported":1703037985,"current_range_meters":26000,"station_id":"ce4bguh2rcd13ifvqckg","pricing_plan_id":"free"},{"bike_id":"42fb947b-962f-4d02-981a-637a0730667e","system_id":"levelo_inurba_marseille","lat":43.305989,"lon":5.37225,"is_reserved":false,"is_disabled":false,"rental_uris":{"android":"levelo://app?vid=42fb947b-962f-4d02-981a-637a0730667e","ios":"levelo://app?vid=42fb947b-962f-4d02-981a-637a0730667e"},"vehicle_type_id":"4","last_reported":1703037985,"current_range_meters":27600,"station_id":"ce4bgqh2rcd13ifvqc4g","pricing_plan_id":"free"},{"bike_id":"76f57f91-7dd0-4af1-9e81-19a996735e29","system_id":"levelo_inurba_marseille","lat":43.311131,"lon":5.377651,"is_reserved":false,"is_disabled":false,"rental_uris":{"android":"levelo://app?vid=76f57f91-7dd0-4af1-9e81-19a996735e29","ios":"levelo://app?vid=76f57f91-7dd0-4af1-9e81-19a996735e29"},"vehicle_type_id":"4","last_reported":1703037985,"current_range_meters":4800,"station_id":"ce4bgt92rcd13ifvqcg0","pricing_plan_id":"free"},{"bike_id":"36bc3a6f-e0a3-4e73-bf7b-b4e943af5378","system_id":"levelo_inurba_marseille","lat":43.311131,"lon":5.377651,"is_reserved":false,"is_disabled":false,"rental_uris":{"android":"levelo://app?vid=36bc3a6f-e0a3-4e73-bf7b-b4e943af5378","ios":"levelo://app?vid=36bc3a6f-e0a3-4e73-bf7b-b4e943af5378"},"vehicle_type_id":"4","last_reported":1703037985,"current_range_meters":4800,"station_id":"ce4bgt92rcd13ifvqcg0","pricing_plan_id":"free"},{"bike_id":"5510b0c8-05c1-4dfe-9aab-b506a84c6d92","system_id":"levelo_inurba_marseille","lat":43.311125,"lon":5.377624,"is_reserved":false,"is_disabled":false,"rental_uris":{"android":"levelo://app?vid=5510b0c8-05c1-4dfe-9aab-b506a84c6d92","ios":"levelo://app?vid=5510b0c8-05c1-4dfe-9aab-b506a84c6d92"},"vehicle_type_id":"4","last_reported":1703037985,"current_range_meters":31600,"station_id":"ce4bgt92rcd13ifvqcg0","pricing_plan_id":"free"},{"bike_id":"d3c76c0b-1e61-4476-af96-e51c36ad476b","system_id":"levelo_inurba_marseille","lat":43.311125,"lon":5.377624,"is_reserved":false,"is_disabled":false,"rental_uris":{"android":"levelo://app?vid=d3c76c0b-1e61-4476-af96-e51c36ad476b","ios":"levelo://app?vid=d3c76c0b-1e61-4476-af96-e51c36ad476b"},"vehicle_type_id":"4","last_reported":1703037985,"current_range_meters":17200,"station_id":"ce4bgt92rcd13ifvqcg0","pricing_plan_id":"free"},{"bike_id":"1a7cb780-8155-4861-bcaa-a9ba117bbd75","system_id":"levelo_inurba_marseille","lat":43.311125,"lon":5.377624,"is_reserved":false,"is_disabled":false,"rental_uris":{"android":"levelo://app?vid=1a7cb780-8155-4861-bcaa-a9ba117bbd75","ios":"levelo://app?vid=1a7cb780-8155-4861-bcaa-a9ba117bbd75"},"vehicle_type_id":"4","last_reported":1703037985,"current_range_meters":29600,"station_id":"ce4bgt92rcd13ifvqcg0","pricing_plan_id":"free"},{"bike_id":"de4a27c9-84f8-41ad-a15e-e1f4c0790c0c","system_id":"levelo_inurba_marseille","lat":43.311131,"lon":5.377651,"is_reserved":false,"is_disabled":false,"rental_uris":{"android":"levelo://app?vid=de4a27c9-84f8-41ad-a15e-e1f4c0790c0c","ios":"levelo://app?vid=de4a27c9-84f8-41ad-a15e-e1f4c0790c0c"},"vehicle_type_id":"4","last_reported":1703037985,"current_range_meters":0,"station_id":"ce4bgt92rcd13ifvqcg0","pricing_plan_id":"free"},{"bike_id":"8521b70a-a518-4475-80eb-a48709ebb7ce","system_id":"levelo_inurba_marseille","lat":43.307945,"lon":5.376487,"is_reserved":false,"is_disabled":false,"rental_uris":{"android":"levelo://app?vid=8521b70a-a518-4475-80eb-a48709ebb7ce","ios":"levelo://app?vid=8521b70a-a518-4475-80eb-a48709ebb7ce"},"vehicle_type_id":"4","last_reported":1703037985,"current_range_meters":28000,"station_id":"ce4bgv92rcd13ifvqcq0","pricing_plan_id":"free"},{"bike_id":"12b9661f-5f96-454f-b18c-c8d7ba4b04ca","system_id":"levelo_inurba_marseille","lat":43.317075,"lon":5.377367,"is_reserved":false,"is_disabled":false,"rental_uris":{"android":"levelo://app?vid=12b9661f-5f96-454f-b18c-c8d7ba4b04ca","ios":"levelo://app?vid=12b9661f-5f96-454f-b18c-c8d7ba4b04ca"},"vehicle_type_id":"4","last_reported":1703037985,"current_range_meters":26400,"station_id":"ce4bgth2rcd13ifvqch0","pricing_plan_id":"free"},{"bike_id":"434ac7bc-c4ee-4178-8066-57cd65d9dfc7","system_id":"levelo_inurba_marseille","lat":43.312509,"lon":5.379734,"is_reserved":false,"is_disabled":false,"rental_uris":{"android":"levelo://app?vid=434ac7bc-c4ee-4178-8066-57cd65d9dfc7","ios":"levelo://app?vid=434ac7bc-c4ee-4178-8066-57cd65d9dfc7"},"vehicle_type_id":"4","last_reported":1703037985,"current_range_meters":1200,"station_id":"","pricing_plan_id":"free"},{"bike_id":"9e249952-7758-4b90-a632-f16e4793f6c2","system_id":"levelo_inurba_marseille","lat":43.308012,"lon":5.381511,"is_reserved":false,"is_disabled":false,"rental_uris":{"android":"levelo://app?vid=9e249952-7758-4b90-a632-f16e4793f6c2","ios":"levelo://app?vid=9e249952-7758-4b90-a632-f16e4793f6c2"},"vehicle_type_id":"4","last_reported":1703037985,"current_range_meters":22400,"station_id":"ce4bgt12rcd13ifvqce0","pricing_plan_id":"free"},{"bike_id":"7ca31d4b-cacb-4270-aa14-b48d361a4439","system_id":"levelo_inurba_marseille","lat":43.308012,"lon":5.381511,"is_reserved":false,"is_disabled":false,"rental_uris":{"android":"levelo://app?vid=7ca31d4b-cacb-4270-aa14-b48d361a4439","ios":"levelo://app?vid=7ca31d4b-cacb-4270-aa14-b48d361a4439"},"vehicle_type_id":"4","last_reported":1703037985,"current_range_meters":4800,"station_id":"ce4bgt12rcd13ifvqce0","pricing_plan_id":"free"},{"bike_id":"2990c6f7-6871-4caf-8bc4-0a3e2011d734","system_id":"levelo_inurba_marseille","lat":43.308012,"lon":5.381511,"is_reserved":false,"is_disabled":false,"rental_uris":{"android":"levelo://app?vid=2990c6f7-6871-4caf-8bc4-0a3e2011d734","ios":"levelo://app?vid=2990c6f7-6871-4caf-8bc4-0a3e2011d734"},"vehicle_type_id":"4","last_reported":1703037985,"current_range_meters":31200,"station_id":"ce4bgt12rcd13ifvqce0","pricing_plan_id":"free"},{"bike_id":"2fac39b2-7454-494c-a0ea-7cbb5c0f1cfa","system_id":"levelo_inurba_marseille","lat":43.308012,"lon":5.381511,"is_reserved":false,"is_disabled":false,"rental_uris":{"android":"levelo://app?vid=2fac39b2-7454-494c-a0ea-7cbb5c0f1cfa","ios":"levelo://app?vid=2fac39b2-7454-494c-a0ea-7cbb5c0f1cfa"},"vehicle_type_id":"4","last_reported":1703037985,"current_range_meters":10400,"station_id":"ce4bgt12rcd13ifvqce0","pricing_plan_id":"free"},{"bike_id":"ba4cc1b8-5157-4c9d-a330-1b82cbd2d0eb","system_id":"levelo_inurba_marseille","lat":43.308012,"lon":5.381511,"is_reserved":false,"is_disabled":false,"rental_uris":{"android":"levelo://app?vid=ba4cc1b8-5157-4c9d-a330-1b82cbd2d0eb","ios":"levelo://app?vid=ba4cc1b8-5157-4c9d-a330-1b82cbd2d0eb"},"vehicle_type_id":"4","last_reported":1703037985,"current_range_meters":22800,"station_id":"ce4bgt12rcd13ifvqce0","pricing_plan_id":"free"},{"bike_id":"1875081e-6897-4902-ac0f-d3640f6c60b4","system_id":"levelo_inurba_marseille","lat":43.301429,"lon":5.37413,"is_reserved":false,"is_disabled":false,"rental_uris":{"android":"levelo://app?vid=1875081e-6897-4902-ac0f-d3640f6c60b4","ios":"levelo://app?vid=1875081e-6897-4902-ac0f-d3640f6c60b4"},"vehicle_type_id":"4","last_reported":1703037985,"current_range_meters":28400,"station_id":"ce4bgs92rcd13ifvqcc0","pricing_plan_id":"free"},{"bike_id":"28e6ef66-93b9-4fe7-9561-b03094f4e31d","system_id":"levelo_inurba_marseille","lat":43.320006,"lon":5.381501,"is_reserved":false,"is_disabled":false,"rental_uris":{"android":"levelo://app?vid=28e6ef66-93b9-4fe7-9561-b03094f4e31d","ios":"levelo://app?vid=28e6ef66-93b9-4fe7-9561-b03094f4e31d"},"vehicle_type_id":"4","last_reported":1703037985,"current_range_meters":0,"station_id":"ce4bhr12rcd13ifvqhpg","pricing_plan_id":"free"},{"bike_id":"73ec7247-bcd3-4193-9351-c056112d3952","system_id":"levelo_inurba_marseille","lat":43.31997,"lon":5.381575,"is_reserved":false,"is_disabled":false,"rental_uris":{"android":"levelo://app?vid=73ec7247-bcd3-4193-9351-c056112d3952","ios":"levelo://app?vid=73ec7247-bcd3-4193-9351-c056112d3952"},"vehicle_type_id":"4","last_reported":1703037985,"current_range_meters":28800,"station_id":"ce4bhr12rcd13ifvqhpg","pricing_plan_id":"free"},{"bike_id":"ff61b42d-58ff-4b73-913b-03f3caec66e0","system_id":"levelo_inurba_marseille","lat":43.320013,"lon":5.381605,"is_reserved":false,"is_disabled":false,"rental_uris":{"android":"levelo://app?vid=ff61b42d-58ff-4b73-913b-03f3caec66e0","ios":"levelo://app?vid=ff61b42d-58ff-4b73-913b-03f3caec66e0"},"vehicle_type_id":"4","last_reported":1703037985,"current_range_meters":24400,"station_id":"ce4bhr12rcd13ifvqhpg","pricing_plan_id":"free"},{"bike_id":"da5460fd-25e7-4594-bb1a-3be3518b6305","system_id":"levelo_inurba_marseille","lat":43.313571,"lon":5.384829,"is_reserved":false,"is_disabled":false,"rental_uris":{"android":"levelo://app?vid=da5460fd-25e7-4594-bb1a-3be3518b6305","ios":"levelo://app?vid=da5460fd-25e7-4594-bb1a-3be3518b6305"},"vehicle_type_id":"4","last_reported":1703037985,"current_range_meters":30800,"station_id":"ce4bgt92rcd13ifvqcf0","pricing_plan_id":"free"},{"bike_id":"3039ab9c-c95e-47bc-8a8c-53915d3ad515","system_id":"levelo_inurba_marseille","lat":43.3136,"lon":5.38493,"is_reserved":false,"is_disabled":false,"rental_uris":{"android":"levelo://app?vid=3039ab9c-c95e-47bc-8a8c-53915d3ad515","ios":"levelo://app?vid=3039ab9c-c95e-47bc-8a8c-53915d3ad515"},"vehicle_type_id":"4","last_reported":1703037985,"current_range_meters":9200,"station_id":"ce4bgt92rcd13ifvqcf0","pricing_plan_id":"free"},{"bike_id":"b94bc742-e48d-40ea-9ed4-e39890955bc0","system_id":"levelo_inurba_marseille","lat":43.31361,"lon":5.38494,"is_reserved":false,"is_disabled":false,"rental_uris":{"android":"levelo://app?vid=b94bc742-e48d-40ea-9ed4-e39890955bc0","ios":"levelo://app?vid=b94bc742-e48d-40ea-9ed4-e39890955bc0"},"vehicle_type_id":"4","last_reported":1703037985,"current_range_meters":24400,"station_id":"ce4bgt92rcd13ifvqcf0","pricing_plan_id":"free"},{"bike_id":"3992008f-26ce-478c-be83-d6235826c771","system_id":"levelo_inurba_marseille","lat":43.313571,"lon":5.384829,"is_reserved":false,"is_disabled":false,"rental_uris":{"android":"levelo://app?vid=3992008f-26ce-478c-be83-d6235826c771","ios":"levelo://app?vid=3992008f-26ce-478c-be83-d6235826c771"},"vehicle_type_id":"4","last_reported":1703037985,"current_range_meters":15200,"station_id":"ce4bgt92rcd13ifvqcf0","pricing_plan_id":"free"},{"bike_id":"1d405565-81fe-483d-b06d-9ddd014114e3","system_id":"levelo_inurba_marseille","lat":43.313571,"lon":5.384829,"is_reserved":false,"is_disabled":false,"rental_uris":{"android":"levelo://app?vid=1d405565-81fe-483d-b06d-9ddd014114e3","ios":"levelo://app?vid=1d405565-81fe-483d-b06d-9ddd014114e3"},"vehicle_type_id":"4","last_reported":1703037985,"current_range_meters":31600,"station_id":"ce4bgt92rcd13ifvqcf0","pricing_plan_id":"free"},{"bike_id":"35b70cb9-104c-42a3-8b15-3b82f645b1d5","system_id":"levelo_inurba_marseille","lat":43.31364,"lon":5.38498,"is_reserved":false,"is_disabled":false,"rental_uris":{"android":"levelo://app?vid=35b70cb9-104c-42a3-8b15-3b82f645b1d5","ios":"levelo://app?vid=35b70cb9-104c-42a3-8b15-3b82f645b1d5"},"vehicle_type_id":"4","last_reported":1703037985,"current_range_meters":20800,"station_id":"ce4bgt92rcd13ifvqcf0","pricing_plan_id":"free"},{"bike_id":"70eb36af-de42-4fb1-a432-324b2faa8d96","system_id":"levelo_inurba_marseille","lat":43.3136,"lon":5.38499,"is_reserved":false,"is_disabled":false,"rental_uris":{"android":"levelo://app?vid=70eb36af-de42-4fb1-a432-324b2faa8d96","ios":"levelo://app?vid=70eb36af-de42-4fb1-a432-324b2faa8d96"},"vehicle_type_id":"4","last_reported":1703037985,"current_range_meters":22400,"station_id":"ce4bgt92rcd13ifvqcf0","pricing_plan_id":"free"},{"bike_id":"93e3f275-51de-4ff5-beb2-171840114c6c","system_id":"levelo_inurba_marseille","lat":43.31364,"lon":5.38499,"is_reserved":false,"is_disabled":false,"rental_uris":{"android":"levelo://app?vid=93e3f275-51de-4ff5-beb2-171840114c6c","ios":"levelo://app?vid=93e3f275-51de-4ff5-beb2-171840114c6c"},"vehicle_type_id":"4","last_reported":1703037985,"current_range_meters":19200,"station_id":"ce4bgt92rcd13ifvqcf0","pricing_plan_id":"free"},{"bike_id":"7a76918b-c600-470e-bed5-74af5e755ed5","system_id":"levelo_inurba_marseille","lat":43.313571,"lon":5.384829,"is_reserved":false,"is_disabled":false,"rental_uris":{"android":"levelo://app?vid=7a76918b-c600-470e-bed5-74af5e755ed5","ios":"levelo://app?vid=7a76918b-c600-470e-bed5-74af5e755ed5"},"vehicle_type_id":"4","last_reported":1703037985,"current_range_meters":7200,"station_id":"ce4bgt92rcd13ifvqcf0","pricing_plan_id":"free"},{"bike_id":"49e6fbff-48ad-4699-b140-c3ec3f3115ad","system_id":"levelo_inurba_marseille","lat":43.313571,"lon":5.384829,"is_reserved":false,"is_disabled":false,"rental_uris":{"android":"levelo://app?vid=49e6fbff-48ad-4699-b140-c3ec3f3115ad","ios":"levelo://app?vid=49e6fbff-48ad-4699-b140-c3ec3f3115ad"},"vehicle_type_id":"4","last_reported":1703037985,"current_range_meters":24400,"station_id":"ce4bgt92rcd13ifvqcf0","pricing_plan_id":"free"},{"bike_id":"01ee7429-cfde-4b62-856f-75cf388216af","system_id":"levelo_inurba_marseille","lat":43.313571,"lon":5.384829,"is_reserved":false,"is_disabled":false,"rental_uris":{"android":"levelo://app?vid=01ee7429-cfde-4b62-856f-75cf388216af","ios":"levelo://app?vid=01ee7429-cfde-4b62-856f-75cf388216af"},"vehicle_type_id":"4","last_reported":1703037985,"current_range_meters":28800,"station_id":"ce4bgt92rcd13ifvqcf0","pricing_plan_id":"free"},{"bike_id":"8fae39fe-f351-4775-bf17-ce9800288018","system_id":"levelo_inurba_marseille","lat":43.313571,"lon":5.384829,"is_reserved":false,"is_disabled":false,"rental_uris":{"android":"levelo://app?vid=8fae39fe-f351-4775-bf17-ce9800288018","ios":"levelo://app?vid=8fae39fe-f351-4775-bf17-ce9800288018"},"vehicle_type_id":"4","last_reported":1703037985,"current_range_meters":31200,"station_id":"ce4bgt92rcd13ifvqcf0","pricing_plan_id":"free"},{"bike_id":"2bd9047b-d0ee-4645-8806-d3a3a20cc574","system_id":"levelo_inurba_marseille","lat":43.299724,"lon":5.371829,"is_reserved":false,"is_disabled":false,"rental_uris":{"android":"levelo://app?vid=2bd9047b-d0ee-4645-8806-d3a3a20cc574","ios":"levelo://app?vid=2bd9047b-d0ee-4645-8806-d3a3a20cc574"},"vehicle_type_id":"4","last_reported":1703037985,"current_range_meters":30000,"station_id":"ce4bgr92rcd13ifvqc7g","pricing_plan_id":"free"},{"bike_id":"ca0834b0-077b-48e5-8d61-d563b65c06e3","system_id":"levelo_inurba_marseille","lat":43.305499,"lon":5.384454,"is_reserved":false,"is_disabled":false,"rental_uris":{"android":"levelo://app?vid=ca0834b0-077b-48e5-8d61-d563b65c06e3","ios":"levelo://app?vid=ca0834b0-077b-48e5-8d61-d563b65c06e3"},"vehicle_type_id":"4","last_reported":1703037985,"current_range_meters":0,"station_id":"ce4bgg92rcd13ifvqb30","pricing_plan_id":"free"},{"bike_id":"1f2c67f0-15a4-4ee2-b5e2-58311f7a5d86","system_id":"levelo_inurba_marseille","lat":43.311722,"lon":5.387247,"is_reserved":false,"is_disabled":false,"rental_uris":{"android":"levelo://app?vid=1f2c67f0-15a4-4ee2-b5e2-58311f7a5d86","ios":"levelo://app?vid=1f2c67f0-15a4-4ee2-b5e2-58311f7a5d86"},"vehicle_type_id":"4","last_reported":1703037985,"current_range_meters":11600,"station_id":"ce4bgv12rcd13ifvqcp0","pricing_plan_id":"free"},{"bike_id":"c87853fb-14eb-4bda-b52e-c8913e6670eb","system_id":"levelo_inurba_marseille","lat":43.311722,"lon":5.387247,"is_reserved":false,"is_disabled":false,"rental_uris":{"android":"levelo://app?vid=c87853fb-14eb-4bda-b52e-c8913e6670eb","ios":"levelo://app?vid=c87853fb-14eb-4bda-b52e-c8913e6670eb"},"vehicle_type_id":"4","last_reported":1703037985,"current_range_meters":30400,"station_id":"ce4bgv12rcd13ifvqcp0","pricing_plan_id":"free"},{"bike_id":"55b7bdce-f270-4ee7-8a23-96f05df61019","system_id":"levelo_inurba_marseille","lat":43.311722,"lon":5.387247,"is_reserved":false,"is_disabled":false,"rental_uris":{"android":"levelo://app?vid=55b7bdce-f270-4ee7-8a23-96f05df61019","ios":"levelo://app?vid=55b7bdce-f270-4ee7-8a23-96f05df61019"},"vehicle_type_id":"4","last_reported":1703037985,"current_range_meters":7200,"station_id":"ce4bgv12rcd13ifvqcp0","pricing_plan_id":"free"},{"bike_id":"7123a7e8-5f31-4e23-8f03-c832e5dbc450","system_id":"levelo_inurba_marseille","lat":43.31174,"lon":5.38714,"is_reserved":false,"is_disabled":false,"rental_uris":{"android":"levelo://app?vid=7123a7e8-5f31-4e23-8f03-c832e5dbc450","ios":"levelo://app?vid=7123a7e8-5f31-4e23-8f03-c832e5dbc450"},"vehicle_type_id":"4","last_reported":1703037985,"current_range_meters":24000,"station_id":"ce4bgv12rcd13ifvqcp0","pricing_plan_id":"free"},{"bike_id":"65af709a-db4b-40ee-93f5-e7767d49b3ef","system_id":"levelo_inurba_marseille","lat":43.311722,"lon":5.387247,"is_reserved":false,"is_disabled":false,"rental_uris":{"android":"levelo://app?vid=65af709a-db4b-40ee-93f5-e7767d49b3ef","ios":"levelo://app?vid=65af709a-db4b-40ee-93f5-e7767d49b3ef"},"vehicle_type_id":"4","last_reported":1703037985,"current_range_meters":26000,"station_id":"ce4bgv12rcd13ifvqcp0","pricing_plan_id":"free"},{"bike_id":"165390c2-4873-4c62-bfad-34ecf3942bde","system_id":"levelo_inurba_marseille","lat":43.31169,"lon":5.38715,"is_reserved":false,"is_disabled":false,"rental_uris":{"android":"levelo://app?vid=165390c2-4873-4c62-bfad-34ecf3942bde","ios":"levelo://app?vid=165390c2-4873-4c62-bfad-34ecf3942bde"},"vehicle_type_id":"4","last_reported":1703037985,"current_range_meters":5600,"station_id":"ce4bgv12rcd13ifvqcp0","pricing_plan_id":"free"},{"bike_id":"e46b80e7-77fe-4041-a871-d80685c89d06","system_id":"levelo_inurba_marseille","lat":43.311722,"lon":5.387247,"is_reserved":false,"is_disabled":false,"rental_uris":{"android":"levelo://app?vid=e46b80e7-77fe-4041-a871-d80685c89d06","ios":"levelo://app?vid=e46b80e7-77fe-4041-a871-d80685c89d06"},"vehicle_type_id":"4","last_reported":1703037985,"current_range_meters":27600,"station_id":"ce4bgv12rcd13ifvqcp0","pricing_plan_id":"free"},{"bike_id":"3bed26bb-0ada-42b3-9c7f-dfbaac3937fa","system_id":"levelo_inurba_marseille","lat":43.322872,"lon":5.382756,"is_reserved":false,"is_disabled":false,"rental_uris":{"android":"levelo://app?vid=3bed26bb-0ada-42b3-9c7f-dfbaac3937fa","ios":"levelo://app?vid=3bed26bb-0ada-42b3-9c7f-dfbaac3937fa"},"vehicle_type_id":"4","last_reported":1703037985,"current_range_meters":28800,"station_id":"ce4bhr12rcd13ifvqhqg","pricing_plan_id":"free"},{"bike_id":"873a287b-4e8b-4542-834f-91bce629838e","system_id":"levelo_inurba_marseille","lat":43.322916,"lon":5.382739,"is_reserved":false,"is_disabled":false,"rental_uris":{"android":"levelo://app?vid=873a287b-4e8b-4542-834f-91bce629838e","ios":"levelo://app?vid=873a287b-4e8b-4542-834f-91bce629838e"},"vehicle_type_id":"4","last_reported":1703037985,"current_range_meters":23600,"station_id":"ce4bhr12rcd13ifvqhqg","pricing_plan_id":"free"},{"bike_id":"c12df297-168e-4ca3-95d9-a300ff1ffbd9","system_id":"levelo_inurba_marseille","lat":43.328371,"lon":5.366909,"is_reserved":false,"is_disabled":false,"rental_uris":{"android":"levelo://app?vid=c12df297-168e-4ca3-95d9-a300ff1ffbd9","ios":"levelo://app?vid=c12df297-168e-4ca3-95d9-a300ff1ffbd9"},"vehicle_type_id":"4","last_reported":1703037985,"current_range_meters":31600,"station_id":"ce4bhs92rcd13ifvqi0g","pricing_plan_id":"free"},{"bike_id":"c22e4b9f-ba20-4a7c-a7c8-fd0a73d903e0","system_id":"levelo_inurba_marseille","lat":43.328371,"lon":5.366909,"is_reserved":false,"is_disabled":false,"rental_uris":{"android":"levelo://app?vid=c22e4b9f-ba20-4a7c-a7c8-fd0a73d903e0","ios":"levelo://app?vid=c22e4b9f-ba20-4a7c-a7c8-fd0a73d903e0"},"vehicle_type_id":"4","last_reported":1703037985,"current_range_meters":25200,"station_id":"ce4bhs92rcd13ifvqi0g","pricing_plan_id":"free"},{"bike_id":"48ebe570-3797-4c11-9550-8036b565ccb1","system_id":"levelo_inurba_marseille","lat":43.328371,"lon":5.366909,"is_reserved":false,"is_disabled":false,"rental_uris":{"android":"levelo://app?vid=48ebe570-3797-4c11-9550-8036b565ccb1","ios":"levelo://app?vid=48ebe570-3797-4c11-9550-8036b565ccb1"},"vehicle_type_id":"4","last_reported":1703037985,"current_range_meters":29600,"station_id":"ce4bhs92rcd13ifvqi0g","pricing_plan_id":"free"},{"bike_id":"eb8ebe7d-6983-4780-997c-9447c3c0c6e2","system_id":"levelo_inurba_marseille","lat":43.3283,"lon":5.3669,"is_reserved":false,"is_disabled":false,"rental_uris":{"android":"levelo://app?vid=eb8ebe7d-6983-4780-997c-9447c3c0c6e2","ios":"levelo://app?vid=eb8ebe7d-6983-4780-997c-9447c3c0c6e2"},"vehicle_type_id":"4","last_reported":1703037985,"current_range_meters":30400,"station_id":"ce4bhs92rcd13ifvqi0g","pricing_plan_id":"free"},{"bike_id":"cb97846c-9508-4ec4-82fd-1a637ef7dd90","system_id":"levelo_inurba_marseille","lat":43.328371,"lon":5.366909,"is_reserved":false,"is_disabled":false,"rental_uris":{"android":"levelo://app?vid=cb97846c-9508-4ec4-82fd-1a637ef7dd90","ios":"levelo://app?vid=cb97846c-9508-4ec4-82fd-1a637ef7dd90"},"vehicle_type_id":"4","last_reported":1703037985,"current_range_meters":3200,"station_id":"ce4bhs92rcd13ifvqi0g","pricing_plan_id":"free"},{"bike_id":"3faedbce-6f97-4dd1-b634-b79be13e0471","system_id":"levelo_inurba_marseille","lat":43.2968,"lon":5.37291,"is_reserved":false,"is_disabled":false,"rental_uris":{"android":"levelo://app?vid=3faedbce-6f97-4dd1-b634-b79be13e0471","ios":"levelo://app?vid=3faedbce-6f97-4dd1-b634-b79be13e0471"},"vehicle_type_id":"4","last_reported":1703037985,"current_range_meters":26800,"station_id":"ce4bgk12rcd13ifvqbj0","pricing_plan_id":"free"},{"bike_id":"13e9a3c6-9c71-40da-9199-1d9ca373ba82","system_id":"levelo_inurba_marseille","lat":43.295962,"lon":5.365744,"is_reserved":false,"is_disabled":false,"rental_uris":{"android":"levelo://app?vid=13e9a3c6-9c71-40da-9199-1d9ca373ba82","ios":"levelo://app?vid=13e9a3c6-9c71-40da-9199-1d9ca373ba82"},"vehicle_type_id":"4","last_reported":1703037985,"current_range_meters":26400,"station_id":"","pricing_plan_id":"free"},{"bike_id":"0cee73d7-23df-4a37-9e96-2d2d8460fe0e","system_id":"levelo_inurba_marseille","lat":43.309589,"lon":5.390258,"is_reserved":false,"is_disabled":false,"rental_uris":{"android":"levelo://app?vid=0cee73d7-23df-4a37-9e96-2d2d8460fe0e","ios":"levelo://app?vid=0cee73d7-23df-4a37-9e96-2d2d8460fe0e"},"vehicle_type_id":"4","last_reported":1703037985,"current_range_meters":27600,"station_id":"ce4bgup2rcd13ifvqco0","pricing_plan_id":"free"},{"bike_id":"172c4240-c7d6-4f55-b133-7596c4915fc1","system_id":"levelo_inurba_marseille","lat":43.309589,"lon":5.390258,"is_reserved":false,"is_disabled":false,"rental_uris":{"android":"levelo://app?vid=172c4240-c7d6-4f55-b133-7596c4915fc1","ios":"levelo://app?vid=172c4240-c7d6-4f55-b133-7596c4915fc1"},"vehicle_type_id":"4","last_reported":1703037985,"current_range_meters":28800,"station_id":"ce4bgup2rcd13ifvqco0","pricing_plan_id":"free"},{"bike_id":"8c4fa6df-927a-41b1-8fb1-9dac069dd028","system_id":"levelo_inurba_marseille","lat":43.317557,"lon":5.390173,"is_reserved":false,"is_disabled":false,"rental_uris":{"android":"levelo://app?vid=8c4fa6df-927a-41b1-8fb1-9dac069dd028","ios":"levelo://app?vid=8c4fa6df-927a-41b1-8fb1-9dac069dd028"},"vehicle_type_id":"4","last_reported":1703037985,"current_range_meters":31600,"station_id":"ce4bhqp2rcd13ifvqhng","pricing_plan_id":"free"},{"bike_id":"360a3f56-011b-4494-b054-b56c3c75c0e4","system_id":"levelo_inurba_marseille","lat":43.317557,"lon":5.390173,"is_reserved":false,"is_disabled":false,"rental_uris":{"android":"levelo://app?vid=360a3f56-011b-4494-b054-b56c3c75c0e4","ios":"levelo://app?vid=360a3f56-011b-4494-b054-b56c3c75c0e4"},"vehicle_type_id":"4","last_reported":1703037985,"current_range_meters":3600,"station_id":"ce4bhqp2rcd13ifvqhng","pricing_plan_id":"free"},{"bike_id":"76d47860-82dc-4abd-a29d-51face51d019","system_id":"levelo_inurba_marseille","lat":43.317557,"lon":5.390173,"is_reserved":false,"is_disabled":false,"rental_uris":{"android":"levelo://app?vid=76d47860-82dc-4abd-a29d-51face51d019","ios":"levelo://app?vid=76d47860-82dc-4abd-a29d-51face51d019"},"vehicle_type_id":"4","last_reported":1703037985,"current_range_meters":12800,"station_id":"ce4bhqp2rcd13ifvqhng","pricing_plan_id":"free"},{"bike_id":"94c41750-2032-45a7-b721-92352b43f925","system_id":"levelo_inurba_marseille","lat":43.317557,"lon":5.390173,"is_reserved":false,"is_disabled":false,"rental_uris":{"android":"levelo://app?vid=94c41750-2032-45a7-b721-92352b43f925","ios":"levelo://app?vid=94c41750-2032-45a7-b721-92352b43f925"},"vehicle_type_id":"4","last_reported":1703037985,"current_range_meters":5600,"station_id":"ce4bhqp2rcd13ifvqhng","pricing_plan_id":"free"},{"bike_id":"5eb2bd39-1f40-4daa-aef3-38b62445e1a4","system_id":"levelo_inurba_marseille","lat":43.317557,"lon":5.390173,"is_reserved":false,"is_disabled":false,"rental_uris":{"android":"levelo://app?vid=5eb2bd39-1f40-4daa-aef3-38b62445e1a4","ios":"levelo://app?vid=5eb2bd39-1f40-4daa-aef3-38b62445e1a4"},"vehicle_type_id":"4","last_reported":1703037985,"current_range_meters":3600,"station_id":"ce4bhqp2rcd13ifvqhng","pricing_plan_id":"free"},{"bike_id":"40554fe8-87bf-41d5-b75a-7fd0e2ec929c","system_id":"levelo_inurba_marseille","lat":43.317557,"lon":5.390173,"is_reserved":false,"is_disabled":false,"rental_uris":{"android":"levelo://app?vid=40554fe8-87bf-41d5-b75a-7fd0e2ec929c","ios":"levelo://app?vid=40554fe8-87bf-41d5-b75a-7fd0e2ec929c"},"vehicle_type_id":"4","last_reported":1703037985,"current_range_meters":31600,"station_id":"ce4bhqp2rcd13ifvqhng","pricing_plan_id":"free"},{"bike_id":"bd111097-6604-484b-a8d1-d0eb261e7561","system_id":"levelo_inurba_marseille","lat":43.304278,"lon":5.388868,"is_reserved":false,"is_disabled":false,"rental_uris":{"android":"levelo://app?vid=bd111097-6604-484b-a8d1-d0eb261e7561","ios":"levelo://app?vid=bd111097-6604-484b-a8d1-d0eb261e7561"},"vehicle_type_id":"4","last_reported":1703037985,"current_range_meters":18800,"station_id":"ce4bgk12rcd13ifvqbi0","pricing_plan_id":"free"},{"bike_id":"a51ff1f9-40f9-4980-ae1f-0c6a48cd43aa","system_id":"levelo_inurba_marseille","lat":43.299717,"lon":5.384845,"is_reserved":false,"is_disabled":false,"rental_uris":{"android":"levelo://app?vid=a51ff1f9-40f9-4980-ae1f-0c6a48cd43aa","ios":"levelo://app?vid=a51ff1f9-40f9-4980-ae1f-0c6a48cd43aa"},"vehicle_type_id":"4","last_reported":1703037985,"current_range_meters":21600,"station_id":"ce4bgj92rcd13ifvqbd0","pricing_plan_id":"free"},{"bike_id":"f6c944ac-76c5-4af7-bad2-2080808a45f4","system_id":"levelo_inurba_marseille","lat":43.32367,"lon":5.388836,"is_reserved":false,"is_disabled":false,"rental_uris":{"android":"levelo://app?vid=f6c944ac-76c5-4af7-bad2-2080808a45f4","ios":"levelo://app?vid=f6c944ac-76c5-4af7-bad2-2080808a45f4"},"vehicle_type_id":"4","last_reported":1703037985,"current_range_meters":29600,"station_id":"ce4bhqp2rcd13ifvqhog","pricing_plan_id":"free"},{"bike_id":"3d1d3c26-3eee-4f46-8b83-98834acf6735","system_id":"levelo_inurba_marseille","lat":43.32367,"lon":5.388836,"is_reserved":false,"is_disabled":false,"rental_uris":{"android":"levelo://app?vid=3d1d3c26-3eee-4f46-8b83-98834acf6735","ios":"levelo://app?vid=3d1d3c26-3eee-4f46-8b83-98834acf6735"},"vehicle_type_id":"4","last_reported":1703037985,"current_range_meters":12400,"station_id":"ce4bhqp2rcd13ifvqhog","pricing_plan_id":"free"},{"bike_id":"22a4fc37-cd0c-439a-9715-4a11508bb4b3","system_id":"levelo_inurba_marseille","lat":43.32367,"lon":5.388836,"is_reserved":false,"is_disabled":false,"rental_uris":{"android":"levelo://app?vid=22a4fc37-cd0c-439a-9715-4a11508bb4b3","ios":"levelo://app?vid=22a4fc37-cd0c-439a-9715-4a11508bb4b3"},"vehicle_type_id":"4","last_reported":1703037985,"current_range_meters":21200,"station_id":"ce4bhqp2rcd13ifvqhog","pricing_plan_id":"free"},{"bike_id":"a775bccf-6ab3-40d4-9ac0-69fd3ea81263","system_id":"levelo_inurba_marseille","lat":43.323683,"lon":5.38881,"is_reserved":false,"is_disabled":false,"rental_uris":{"android":"levelo://app?vid=a775bccf-6ab3-40d4-9ac0-69fd3ea81263","ios":"levelo://app?vid=a775bccf-6ab3-40d4-9ac0-69fd3ea81263"},"vehicle_type_id":"4","last_reported":1703037985,"current_range_meters":10800,"station_id":"ce4bhqp2rcd13ifvqhog","pricing_plan_id":"free"},{"bike_id":"70fda661-87d6-419e-9b40-f9c4076436b5","system_id":"levelo_inurba_marseille","lat":43.32367,"lon":5.388836,"is_reserved":false,"is_disabled":false,"rental_uris":{"android":"levelo://app?vid=70fda661-87d6-419e-9b40-f9c4076436b5","ios":"levelo://app?vid=70fda661-87d6-419e-9b40-f9c4076436b5"},"vehicle_type_id":"4","last_reported":1703037985,"current_range_meters":29600,"station_id":"ce4bhqp2rcd13ifvqhog","pricing_plan_id":"free"},{"bike_id":"e0983d70-8c86-42db-b740-0227f8722ebb","system_id":"levelo_inurba_marseille","lat":43.29601,"lon":5.381084,"is_reserved":false,"is_disabled":false,"rental_uris":{"android":"levelo://app?vid=e0983d70-8c86-42db-b740-0227f8722ebb","ios":"levelo://app?vid=e0983d70-8c86-42db-b740-0227f8722ebb"},"vehicle_type_id":"4","last_reported":1703037985,"current_range_meters":30400,"station_id":"ce4bgl12rcd13ifvqbo0","pricing_plan_id":"free"},{"bike_id":"c667f402-7b41-4cb4-9712-0bd059a3bcf1","system_id":"levelo_inurba_marseille","lat":43.292749,"lon":5.368402,"is_reserved":false,"is_disabled":false,"rental_uris":{"android":"levelo://app?vid=c667f402-7b41-4cb4-9712-0bd059a3bcf1","ios":"levelo://app?vid=c667f402-7b41-4cb4-9712-0bd059a3bcf1"},"vehicle_type_id":"4","last_reported":1703037985,"current_range_meters":22800,"station_id":"ce4bhbp2rcd13ifvqesg","pricing_plan_id":"free"},{"bike_id":"02012d4e-4733-4194-943a-f51d441b4058","system_id":"levelo_inurba_marseille","lat":43.303002,"lon":5.392142,"is_reserved":false,"is_disabled":false,"rental_uris":{"android":"levelo://app?vid=02012d4e-4733-4194-943a-f51d441b4058","ios":"levelo://app?vid=02012d4e-4733-4194-943a-f51d441b4058"},"vehicle_type_id":"4","last_reported":1703037985,"current_range_meters":28800,"station_id":"ce4bgkh2rcd13ifvqbk0","pricing_plan_id":"free"},{"bike_id":"3aae2b91-aff2-45cf-98d0-4096be38d29a","system_id":"levelo_inurba_marseille","lat":43.300961,"lon":5.390836,"is_reserved":false,"is_disabled":false,"rental_uris":{"android":"levelo://app?vid=3aae2b91-aff2-45cf-98d0-4096be38d29a","ios":"levelo://app?vid=3aae2b91-aff2-45cf-98d0-4096be38d29a"},"vehicle_type_id":"4","last_reported":1703037985,"current_range_meters":26800,"station_id":"","pricing_plan_id":"free"},{"bike_id":"67dbc710-e248-4701-92da-b94e6f063a32","system_id":"levelo_inurba_marseille","lat":43.323006,"lon":5.392408,"is_reserved":false,"is_disabled":false,"rental_uris":{"android":"levelo://app?vid=67dbc710-e248-4701-92da-b94e6f063a32","ios":"levelo://app?vid=67dbc710-e248-4701-92da-b94e6f063a32"},"vehicle_type_id":"4","last_reported":1703037985,"current_range_meters":6400,"station_id":"","pricing_plan_id":"free"},{"bike_id":"9fef07b5-f14a-447a-b396-eeadc64a5474","system_id":"levelo_inurba_marseille","lat":43.309047,"lon":5.396551,"is_reserved":false,"is_disabled":false,"rental_uris":{"android":"levelo://app?vid=9fef07b5-f14a-447a-b396-eeadc64a5474","ios":"levelo://app?vid=9fef07b5-f14a-447a-b396-eeadc64a5474"},"vehicle_type_id":"4","last_reported":1703037985,"current_range_meters":30400,"station_id":"ce4bh012rcd13ifvqcv0","pricing_plan_id":"free"},{"bike_id":"f2410063-9401-44bb-9627-6471ca1f9221","system_id":"levelo_inurba_marseille","lat":43.309038,"lon":5.396546,"is_reserved":false,"is_disabled":false,"rental_uris":{"android":"levelo://app?vid=f2410063-9401-44bb-9627-6471ca1f9221","ios":"levelo://app?vid=f2410063-9401-44bb-9627-6471ca1f9221"},"vehicle_type_id":"4","last_reported":1703037985,"current_range_meters":28000,"station_id":"ce4bh012rcd13ifvqcv0","pricing_plan_id":"free"},{"bike_id":"f5079527-0dca-4ebe-bbbb-7bc2e62b1226","system_id":"levelo_inurba_marseille","lat":43.309038,"lon":5.396546,"is_reserved":false,"is_disabled":false,"rental_uris":{"android":"levelo://app?vid=f5079527-0dca-4ebe-bbbb-7bc2e62b1226","ios":"levelo://app?vid=f5079527-0dca-4ebe-bbbb-7bc2e62b1226"},"vehicle_type_id":"4","last_reported":1703037985,"current_range_meters":16000,"station_id":"ce4bh012rcd13ifvqcv0","pricing_plan_id":"free"},{"bike_id":"269c9be6-1557-4ea6-9a7e-6b575d4289f4","system_id":"levelo_inurba_marseille","lat":43.309047,"lon":5.396551,"is_reserved":false,"is_disabled":false,"rental_uris":{"android":"levelo://app?vid=269c9be6-1557-4ea6-9a7e-6b575d4289f4","ios":"levelo://app?vid=269c9be6-1557-4ea6-9a7e-6b575d4289f4"},"vehicle_type_id":"4","last_reported":1703037985,"current_range_meters":31200,"station_id":"ce4bh012rcd13ifvqcv0","pricing_plan_id":"free"},{"bike_id":"8930ff92-a86e-4c3e-8f69-d488bd7eabec","system_id":"levelo_inurba_marseille","lat":43.309038,"lon":5.396546,"is_reserved":false,"is_disabled":false,"rental_uris":{"android":"levelo://app?vid=8930ff92-a86e-4c3e-8f69-d488bd7eabec","ios":"levelo://app?vid=8930ff92-a86e-4c3e-8f69-d488bd7eabec"},"vehicle_type_id":"4","last_reported":1703037985,"current_range_meters":800,"station_id":"ce4bh012rcd13ifvqcv0","pricing_plan_id":"free"},{"bike_id":"71ccdf22-e951-42c0-bdfb-c1282a8d3baf","system_id":"levelo_inurba_marseille","lat":43.309038,"lon":5.396546,"is_reserved":false,"is_disabled":false,"rental_uris":{"android":"levelo://app?vid=71ccdf22-e951-42c0-bdfb-c1282a8d3baf","ios":"levelo://app?vid=71ccdf22-e951-42c0-bdfb-c1282a8d3baf"},"vehicle_type_id":"4","last_reported":1703037985,"current_range_meters":12000,"station_id":"ce4bh012rcd13ifvqcv0","pricing_plan_id":"free"},{"bike_id":"236b9f88-a5c0-497e-bf63-2d6d03718c5f","system_id":"levelo_inurba_marseille","lat":43.313291,"lon":5.396838,"is_reserved":false,"is_disabled":false,"rental_uris":{"android":"levelo://app?vid=236b9f88-a5c0-497e-bf63-2d6d03718c5f","ios":"levelo://app?vid=236b9f88-a5c0-497e-bf63-2d6d03718c5f"},"vehicle_type_id":"4","last_reported":1703037985,"current_range_meters":21200,"station_id":"ce4bgvp2rcd13ifvqcu0","pricing_plan_id":"free"},{"bike_id":"fc637857-b4e1-46ce-94c4-f58efaa99ced","system_id":"levelo_inurba_marseille","lat":43.309038,"lon":5.396546,"is_reserved":false,"is_disabled":false,"rental_uris":{"android":"levelo://app?vid=fc637857-b4e1-46ce-94c4-f58efaa99ced","ios":"levelo://app?vid=fc637857-b4e1-46ce-94c4-f58efaa99ced"},"vehicle_type_id":"4","last_reported":1703037985,"current_range_meters":10400,"station_id":"ce4bh012rcd13ifvqcv0","pricing_plan_id":"free"},{"bike_id":"f01b7913-d3e2-4790-84af-919cebf057d0","system_id":"levelo_inurba_marseille","lat":43.313291,"lon":5.396838,"is_reserved":false,"is_disabled":false,"rental_uris":{"android":"levelo://app?vid=f01b7913-d3e2-4790-84af-919cebf057d0","ios":"levelo://app?vid=f01b7913-d3e2-4790-84af-919cebf057d0"},"vehicle_type_id":"4","last_reported":1703037985,"current_range_meters":4000,"station_id":"ce4bgvp2rcd13ifvqcu0","pricing_plan_id":"free"},{"bike_id":"22b40698-d531-4709-89e7-e042dd03be31","system_id":"levelo_inurba_marseille","lat":43.313291,"lon":5.396838,"is_reserved":false,"is_disabled":false,"rental_uris":{"android":"levelo://app?vid=22b40698-d531-4709-89e7-e042dd03be31","ios":"levelo://app?vid=22b40698-d531-4709-89e7-e042dd03be31"},"vehicle_type_id":"4","last_reported":1703037985,"current_range_meters":22400,"station_id":"ce4bgvp2rcd13ifvqcu0","pricing_plan_id":"free"},{"bike_id":"d81c8e9a-f7c9-4134-81f9-650c637d35eb","system_id":"levelo_inurba_marseille","lat":43.313291,"lon":5.396838,"is_reserved":false,"is_disabled":false,"rental_uris":{"android":"levelo://app?vid=d81c8e9a-f7c9-4134-81f9-650c637d35eb","ios":"levelo://app?vid=d81c8e9a-f7c9-4134-81f9-650c637d35eb"},"vehicle_type_id":"4","last_reported":1703037985,"current_range_meters":14400,"station_id":"ce4bgvp2rcd13ifvqcu0","pricing_plan_id":"free"},{"bike_id":"93a7f955-5141-4f99-8a1c-eb0d18a7a74f","system_id":"levelo_inurba_marseille","lat":43.313291,"lon":5.396838,"is_reserved":false,"is_disabled":false,"rental_uris":{"android":"levelo://app?vid=93a7f955-5141-4f99-8a1c-eb0d18a7a74f","ios":"levelo://app?vid=93a7f955-5141-4f99-8a1c-eb0d18a7a74f"},"vehicle_type_id":"4","last_reported":1703037985,"current_range_meters":20800,"station_id":"ce4bgvp2rcd13ifvqcu0","pricing_plan_id":"free"},{"bike_id":"123f6846-4316-4d20-a0b1-d9640ea3a43d","system_id":"levelo_inurba_marseille","lat":43.313291,"lon":5.396838,"is_reserved":false,"is_disabled":false,"rental_uris":{"android":"levelo://app?vid=123f6846-4316-4d20-a0b1-d9640ea3a43d","ios":"levelo://app?vid=123f6846-4316-4d20-a0b1-d9640ea3a43d"},"vehicle_type_id":"4","last_reported":1703037985,"current_range_meters":31600,"station_id":"ce4bgvp2rcd13ifvqcu0","pricing_plan_id":"free"},{"bike_id":"c376ed8d-7d11-4af4-96fa-774d41172371","system_id":"levelo_inurba_marseille","lat":43.313291,"lon":5.396838,"is_reserved":false,"is_disabled":false,"rental_uris":{"android":"levelo://app?vid=c376ed8d-7d11-4af4-96fa-774d41172371","ios":"levelo://app?vid=c376ed8d-7d11-4af4-96fa-774d41172371"},"vehicle_type_id":"4","last_reported":1703037985,"current_range_meters":31200,"station_id":"ce4bgvp2rcd13ifvqcu0","pricing_plan_id":"free"},{"bike_id":"71f40a5e-c9f4-43c3-8ccd-542905db1e5a","system_id":"levelo_inurba_marseille","lat":43.313291,"lon":5.396838,"is_reserved":false,"is_disabled":false,"rental_uris":{"android":"levelo://app?vid=71f40a5e-c9f4-43c3-8ccd-542905db1e5a","ios":"levelo://app?vid=71f40a5e-c9f4-43c3-8ccd-542905db1e5a"},"vehicle_type_id":"4","last_reported":1703037985,"current_range_meters":30400,"station_id":"ce4bgvp2rcd13ifvqcu0","pricing_plan_id":"free"},{"bike_id":"16ef38b7-da85-485e-b523-6374c15d2ea0","system_id":"levelo_inurba_marseille","lat":43.290624,"lon":5.359245,"is_reserved":false,"is_disabled":false,"rental_uris":{"android":"levelo://app?vid=16ef38b7-da85-485e-b523-6374c15d2ea0","ios":"levelo://app?vid=16ef38b7-da85-485e-b523-6374c15d2ea0"},"vehicle_type_id":"4","last_reported":1703037985,"current_range_meters":27600,"station_id":"ce4bha92rcd13ifvqeg0","pricing_plan_id":"free"},{"bike_id":"49ae9bff-29ac-4095-adc2-4ddc8c00e71e","system_id":"levelo_inurba_marseille","lat":43.290624,"lon":5.359245,"is_reserved":false,"is_disabled":false,"rental_uris":{"android":"levelo://app?vid=49ae9bff-29ac-4095-adc2-4ddc8c00e71e","ios":"levelo://app?vid=49ae9bff-29ac-4095-adc2-4ddc8c00e71e"},"vehicle_type_id":"4","last_reported":1703037985,"current_range_meters":30800,"station_id":"ce4bha92rcd13ifvqeg0","pricing_plan_id":"free"},{"bike_id":"d14460ed-123f-414f-a089-5eb6d69dfed6","system_id":"levelo_inurba_marseille","lat":43.2904,"lon":5.35915,"is_reserved":false,"is_disabled":false,"rental_uris":{"android":"levelo://app?vid=d14460ed-123f-414f-a089-5eb6d69dfed6","ios":"levelo://app?vid=d14460ed-123f-414f-a089-5eb6d69dfed6"},"vehicle_type_id":"4","last_reported":1703037985,"current_range_meters":18800,"station_id":"ce4bha92rcd13ifvqeg0","pricing_plan_id":"free"},{"bike_id":"be687b3d-d9d8-4567-8837-9be773f5ed3b","system_id":"levelo_inurba_marseille","lat":43.289184,"lon":5.366408,"is_reserved":false,"is_disabled":false,"rental_uris":{"android":"levelo://app?vid=be687b3d-d9d8-4567-8837-9be773f5ed3b","ios":"levelo://app?vid=be687b3d-d9d8-4567-8837-9be773f5ed3b"},"vehicle_type_id":"4","last_reported":1703037985,"current_range_meters":26800,"station_id":"ce4bhap2rcd13ifvqek0","pricing_plan_id":"free"},{"bike_id":"5e59a68b-7245-4580-94df-2fb70558e043","system_id":"levelo_inurba_marseille","lat":43.304296,"lon":5.397513,"is_reserved":false,"is_disabled":false,"rental_uris":{"android":"levelo://app?vid=5e59a68b-7245-4580-94df-2fb70558e043","ios":"levelo://app?vid=5e59a68b-7245-4580-94df-2fb70558e043"},"vehicle_type_id":"4","last_reported":1703037985,"current_range_meters":20400,"station_id":"ce4bh092rcd13ifvqd20","pricing_plan_id":"free"},{"bike_id":"f9de8fb0-d0f9-4855-8451-afff0b454db2","system_id":"levelo_inurba_marseille","lat":43.330442,"lon":5.389148,"is_reserved":false,"is_disabled":false,"rental_uris":{"android":"levelo://app?vid=f9de8fb0-d0f9-4855-8451-afff0b454db2","ios":"levelo://app?vid=f9de8fb0-d0f9-4855-8451-afff0b454db2"},"vehicle_type_id":"4","last_reported":1703037985,"current_range_meters":25600,"station_id":"ce4bhr92rcd13ifvqhrg","pricing_plan_id":"free"},{"bike_id":"08bc5949-3096-45c9-8d3f-58d7e8ed0c24","system_id":"levelo_inurba_marseille","lat":43.330442,"lon":5.389148,"is_reserved":false,"is_disabled":false,"rental_uris":{"android":"levelo://app?vid=08bc5949-3096-45c9-8d3f-58d7e8ed0c24","ios":"levelo://app?vid=08bc5949-3096-45c9-8d3f-58d7e8ed0c24"},"vehicle_type_id":"4","last_reported":1703037985,"current_range_meters":4000,"station_id":"ce4bhr92rcd13ifvqhrg","pricing_plan_id":"free"},{"bike_id":"256fbe47-cb36-4ed4-9f8d-cfa2dbfc3a59","system_id":"levelo_inurba_marseille","lat":43.290103,"lon":5.356114,"is_reserved":false,"is_disabled":false,"rental_uris":{"android":"levelo://app?vid=256fbe47-cb36-4ed4-9f8d-cfa2dbfc3a59","ios":"levelo://app?vid=256fbe47-cb36-4ed4-9f8d-cfa2dbfc3a59"},"vehicle_type_id":"4","last_reported":1703037985,"current_range_meters":25600,"station_id":"ce4bhb92rcd13ifvqen0","pricing_plan_id":"free"},{"bike_id":"371bb4a4-5578-4cb3-bdf1-dc266646fdff","system_id":"levelo_inurba_marseille","lat":43.290104,"lon":5.356111,"is_reserved":false,"is_disabled":false,"rental_uris":{"android":"levelo://app?vid=371bb4a4-5578-4cb3-bdf1-dc266646fdff","ios":"levelo://app?vid=371bb4a4-5578-4cb3-bdf1-dc266646fdff"},"vehicle_type_id":"4","last_reported":1703037985,"current_range_meters":27200,"station_id":"ce4bhb92rcd13ifvqen0","pricing_plan_id":"free"},{"bike_id":"2fb71484-fd85-4cf1-841b-c6fa44a405e2","system_id":"levelo_inurba_marseille","lat":43.330442,"lon":5.389148,"is_reserved":false,"is_disabled":false,"rental_uris":{"android":"levelo://app?vid=2fb71484-fd85-4cf1-841b-c6fa44a405e2","ios":"levelo://app?vid=2fb71484-fd85-4cf1-841b-c6fa44a405e2"},"vehicle_type_id":"4","last_reported":1703037985,"current_range_meters":400,"station_id":"ce4bhr92rcd13ifvqhrg","pricing_plan_id":"free"},{"bike_id":"7ce82c8b-e8cc-4ee9-ae39-6c00230f93d9","system_id":"levelo_inurba_marseille","lat":43.33046,"lon":5.38919,"is_reserved":false,"is_disabled":false,"rental_uris":{"android":"levelo://app?vid=7ce82c8b-e8cc-4ee9-ae39-6c00230f93d9","ios":"levelo://app?vid=7ce82c8b-e8cc-4ee9-ae39-6c00230f93d9"},"vehicle_type_id":"4","last_reported":1703037985,"current_range_meters":4400,"station_id":"ce4bhr92rcd13ifvqhrg","pricing_plan_id":"free"},{"bike_id":"cd8937e0-40a4-455a-a789-1ed352830433","system_id":"levelo_inurba_marseille","lat":43.290104,"lon":5.356111,"is_reserved":false,"is_disabled":false,"rental_uris":{"android":"levelo://app?vid=cd8937e0-40a4-455a-a789-1ed352830433","ios":"levelo://app?vid=cd8937e0-40a4-455a-a789-1ed352830433"},"vehicle_type_id":"4","last_reported":1703037985,"current_range_meters":30000,"station_id":"ce4bhb92rcd13ifvqen0","pricing_plan_id":"free"},{"bike_id":"2d53a81d-3abb-4f68-b772-2c65d42e2eb9","system_id":"levelo_inurba_marseille","lat":43.290104,"lon":5.356111,"is_reserved":false,"is_disabled":false,"rental_uris":{"android":"levelo://app?vid=2d53a81d-3abb-4f68-b772-2c65d42e2eb9","ios":"levelo://app?vid=2d53a81d-3abb-4f68-b772-2c65d42e2eb9"},"vehicle_type_id":"4","last_reported":1703037985,"current_range_meters":31200,"station_id":"ce4bhb92rcd13ifvqen0","pricing_plan_id":"free"},{"bike_id":"7bc09cea-7633-4e85-99b4-75c504d27a28","system_id":"levelo_inurba_marseille","lat":43.290104,"lon":5.356111,"is_reserved":false,"is_disabled":false,"rental_uris":{"android":"levelo://app?vid=7bc09cea-7633-4e85-99b4-75c504d27a28","ios":"levelo://app?vid=7bc09cea-7633-4e85-99b4-75c504d27a28"},"vehicle_type_id":"4","last_reported":1703037985,"current_range_meters":26800,"station_id":"ce4bhb92rcd13ifvqen0","pricing_plan_id":"free"},{"bike_id":"5a4a09b8-dbde-4cb5-bb8e-1f38143c633b","system_id":"levelo_inurba_marseille","lat":43.297886,"lon":5.393408,"is_reserved":false,"is_disabled":false,"rental_uris":{"android":"levelo://app?vid=5a4a09b8-dbde-4cb5-bb8e-1f38143c633b","ios":"levelo://app?vid=5a4a09b8-dbde-4cb5-bb8e-1f38143c633b"},"vehicle_type_id":"4","last_reported":1703037985,"current_range_meters":22000,"station_id":"chh1huq6cuj3fo74tm60","pricing_plan_id":"free"},{"bike_id":"d6899029-d76c-4d40-ae53-6ed8cbced395","system_id":"levelo_inurba_marseille","lat":43.297869,"lon":5.393402,"is_reserved":false,"is_disabled":false,"rental_uris":{"android":"levelo://app?vid=d6899029-d76c-4d40-ae53-6ed8cbced395","ios":"levelo://app?vid=d6899029-d76c-4d40-ae53-6ed8cbced395"},"vehicle_type_id":"4","last_reported":1703037985,"current_range_meters":18000,"station_id":"chh1huq6cuj3fo74tm60","pricing_plan_id":"free"},{"bike_id":"c36244d9-b034-4069-a813-662d8dfd2f24","system_id":"levelo_inurba_marseille","lat":43.297823,"lon":5.39337,"is_reserved":false,"is_disabled":false,"rental_uris":{"android":"levelo://app?vid=c36244d9-b034-4069-a813-662d8dfd2f24","ios":"levelo://app?vid=c36244d9-b034-4069-a813-662d8dfd2f24"},"vehicle_type_id":"4","last_reported":1703037985,"current_range_meters":8400,"station_id":"chh1huq6cuj3fo74tm60","pricing_plan_id":"free"},{"bike_id":"a0cdef6e-7abe-4b85-a722-8c29fedac0b2","system_id":"levelo_inurba_marseille","lat":43.297815,"lon":5.393548,"is_reserved":false,"is_disabled":false,"rental_uris":{"android":"levelo://app?vid=a0cdef6e-7abe-4b85-a722-8c29fedac0b2","ios":"levelo://app?vid=a0cdef6e-7abe-4b85-a722-8c29fedac0b2"},"vehicle_type_id":"4","last_reported":1703037985,"current_range_meters":29600,"station_id":"chh1huq6cuj3fo74tm60","pricing_plan_id":"free"},{"bike_id":"2d19a8fb-59d1-433e-8c91-599ec7948d0c","system_id":"levelo_inurba_marseille","lat":43.28856,"lon":5.358371,"is_reserved":false,"is_disabled":false,"rental_uris":{"android":"levelo://app?vid=2d19a8fb-59d1-433e-8c91-599ec7948d0c","ios":"levelo://app?vid=2d19a8fb-59d1-433e-8c91-599ec7948d0c"},"vehicle_type_id":"4","last_reported":1703037985,"current_range_meters":30000,"station_id":"ce4bhb12rcd13ifvqem0","pricing_plan_id":"free"},{"bike_id":"7cd9bc95-cdf4-4168-89a3-a4c1cd772a29","system_id":"levelo_inurba_marseille","lat":43.28856,"lon":5.358371,"is_reserved":false,"is_disabled":false,"rental_uris":{"android":"levelo://app?vid=7cd9bc95-cdf4-4168-89a3-a4c1cd772a29","ios":"levelo://app?vid=7cd9bc95-cdf4-4168-89a3-a4c1cd772a29"},"vehicle_type_id":"4","last_reported":1703037985,"current_range_meters":18000,"station_id":"ce4bhb12rcd13ifvqem0","pricing_plan_id":"free"},{"bike_id":"26cbe8b2-c5f0-4c97-930c-392b1efadd21","system_id":"levelo_inurba_marseille","lat":43.312609,"lon":5.401662,"is_reserved":false,"is_disabled":false,"rental_uris":{"android":"levelo://app?vid=26cbe8b2-c5f0-4c97-930c-392b1efadd21","ios":"levelo://app?vid=26cbe8b2-c5f0-4c97-930c-392b1efadd21"},"vehicle_type_id":"4","last_reported":1703037985,"current_range_meters":5200,"station_id":"ce4bh092rcd13ifvqd30","pricing_plan_id":"free"},{"bike_id":"efc8b483-666b-48da-afa0-0447382868fd","system_id":"levelo_inurba_marseille","lat":43.337432,"lon":5.374749,"is_reserved":false,"is_disabled":false,"rental_uris":{"android":"levelo://app?vid=efc8b483-666b-48da-afa0-0447382868fd","ios":"levelo://app?vid=efc8b483-666b-48da-afa0-0447382868fd"},"vehicle_type_id":"4","last_reported":1703037985,"current_range_meters":28800,"station_id":"","pricing_plan_id":"free"},{"bike_id":"f2e2d772-8917-4548-9b6e-fef35e4d712b","system_id":"levelo_inurba_marseille","lat":43.30642,"lon":5.401031,"is_reserved":false,"is_disabled":false,"rental_uris":{"android":"levelo://app?vid=f2e2d772-8917-4548-9b6e-fef35e4d712b","ios":"levelo://app?vid=f2e2d772-8917-4548-9b6e-fef35e4d712b"},"vehicle_type_id":"4","last_reported":1703037985,"current_range_meters":28000,"station_id":"ce4bh112rcd13ifvqda0","pricing_plan_id":"free"},{"bike_id":"5fa020a0-b1b2-46a1-84ac-c939d0ea5e1f","system_id":"levelo_inurba_marseille","lat":43.30642,"lon":5.401031,"is_reserved":false,"is_disabled":false,"rental_uris":{"android":"levelo://app?vid=5fa020a0-b1b2-46a1-84ac-c939d0ea5e1f","ios":"levelo://app?vid=5fa020a0-b1b2-46a1-84ac-c939d0ea5e1f"},"vehicle_type_id":"4","last_reported":1703037985,"current_range_meters":26800,"station_id":"ce4bh112rcd13ifvqda0","pricing_plan_id":"free"},{"bike_id":"7170fd9a-e3f4-4a5a-9823-136c1b35a41f","system_id":"levelo_inurba_marseille","lat":43.306412,"lon":5.401035,"is_reserved":false,"is_disabled":false,"rental_uris":{"android":"levelo://app?vid=7170fd9a-e3f4-4a5a-9823-136c1b35a41f","ios":"levelo://app?vid=7170fd9a-e3f4-4a5a-9823-136c1b35a41f"},"vehicle_type_id":"4","last_reported":1703037985,"current_range_meters":30000,"station_id":"ce4bh112rcd13ifvqda0","pricing_plan_id":"free"},{"bike_id":"b928e8f0-5cfc-4105-a69d-8b07fd154e70","system_id":"levelo_inurba_marseille","lat":43.33758,"lon":5.37468,"is_reserved":false,"is_disabled":false,"rental_uris":{"android":"levelo://app?vid=b928e8f0-5cfc-4105-a69d-8b07fd154e70","ios":"levelo://app?vid=b928e8f0-5cfc-4105-a69d-8b07fd154e70"},"vehicle_type_id":"4","last_reported":1703037985,"current_range_meters":29600,"station_id":"","pricing_plan_id":"free"},{"bike_id":"c3c3cbbb-aa08-4874-94d9-d40777882ceb","system_id":"levelo_inurba_marseille","lat":43.337641,"lon":5.374367,"is_reserved":false,"is_disabled":false,"rental_uris":{"android":"levelo://app?vid=c3c3cbbb-aa08-4874-94d9-d40777882ceb","ios":"levelo://app?vid=c3c3cbbb-aa08-4874-94d9-d40777882ceb"},"vehicle_type_id":"4","last_reported":1703037985,"current_range_meters":6400,"station_id":"","pricing_plan_id":"free"},{"bike_id":"25d32a4e-2431-4469-aff9-239e16262af8","system_id":"levelo_inurba_marseille","lat":43.309371,"lon":5.401449,"is_reserved":false,"is_disabled":false,"rental_uris":{"android":"levelo://app?vid=25d32a4e-2431-4469-aff9-239e16262af8","ios":"levelo://app?vid=25d32a4e-2431-4469-aff9-239e16262af8"},"vehicle_type_id":"4","last_reported":1703037985,"current_range_meters":23200,"station_id":"ce4bgvp2rcd13ifvqct0","pricing_plan_id":"free"},{"bike_id":"e022b510-9ad1-46d1-bc5e-7e679b230662","system_id":"levelo_inurba_marseille","lat":43.28727,"lon":5.36078,"is_reserved":false,"is_disabled":false,"rental_uris":{"android":"levelo://app?vid=e022b510-9ad1-46d1-bc5e-7e679b230662","ios":"levelo://app?vid=e022b510-9ad1-46d1-bc5e-7e679b230662"},"vehicle_type_id":"4","last_reported":1703037985,"current_range_meters":27600,"station_id":"cki0cbj6b192h4jlfktg","pricing_plan_id":"free"},{"bike_id":"3609f89c-3889-45c6-9aaa-45f614634c53","system_id":"levelo_inurba_marseille","lat":43.28727,"lon":5.36078,"is_reserved":false,"is_disabled":false,"rental_uris":{"android":"levelo://app?vid=3609f89c-3889-45c6-9aaa-45f614634c53","ios":"levelo://app?vid=3609f89c-3889-45c6-9aaa-45f614634c53"},"vehicle_type_id":"4","last_reported":1703037985,"current_range_meters":400,"station_id":"cki0cbj6b192h4jlfktg","pricing_plan_id":"free"},{"bike_id":"088146c4-68d1-4d15-964b-03879b0208c3","system_id":"levelo_inurba_marseille","lat":43.28727,"lon":5.36078,"is_reserved":false,"is_disabled":false,"rental_uris":{"android":"levelo://app?vid=088146c4-68d1-4d15-964b-03879b0208c3","ios":"levelo://app?vid=088146c4-68d1-4d15-964b-03879b0208c3"},"vehicle_type_id":"4","last_reported":1703037985,"current_range_meters":25200,"station_id":"cki0cbj6b192h4jlfktg","pricing_plan_id":"free"},{"bike_id":"93babcef-643d-4d1a-8e05-f7aa03d32b72","system_id":"levelo_inurba_marseille","lat":43.28727,"lon":5.36078,"is_reserved":false,"is_disabled":false,"rental_uris":{"android":"levelo://app?vid=93babcef-643d-4d1a-8e05-f7aa03d32b72","ios":"levelo://app?vid=93babcef-643d-4d1a-8e05-f7aa03d32b72"},"vehicle_type_id":"4","last_reported":1703037985,"current_range_meters":29600,"station_id":"cki0cbj6b192h4jlfktg","pricing_plan_id":"free"},{"bike_id":"6316a659-1a20-417c-aabc-66b2d346745a","system_id":"levelo_inurba_marseille","lat":43.28727,"lon":5.36078,"is_reserved":false,"is_disabled":false,"rental_uris":{"android":"levelo://app?vid=6316a659-1a20-417c-aabc-66b2d346745a","ios":"levelo://app?vid=6316a659-1a20-417c-aabc-66b2d346745a"},"vehicle_type_id":"4","last_reported":1703037985,"current_range_meters":8000,"station_id":"cki0cbj6b192h4jlfktg","pricing_plan_id":"free"},{"bike_id":"8e831c61-f2e8-4724-ae27-c3491d4ff0cb","system_id":"levelo_inurba_marseille","lat":43.298681,"lon":5.397225,"is_reserved":false,"is_disabled":false,"rental_uris":{"android":"levelo://app?vid=8e831c61-f2e8-4724-ae27-c3491d4ff0cb","ios":"levelo://app?vid=8e831c61-f2e8-4724-ae27-c3491d4ff0cb"},"vehicle_type_id":"4","last_reported":1703037985,"current_range_meters":28800,"station_id":"ce4bh0h2rcd13ifvqd50","pricing_plan_id":"free"},{"bike_id":"32fb72b9-8d78-4b2b-a711-552a859de64f","system_id":"levelo_inurba_marseille","lat":43.287069,"lon":5.374084,"is_reserved":false,"is_disabled":false,"rental_uris":{"android":"levelo://app?vid=32fb72b9-8d78-4b2b-a711-552a859de64f","ios":"levelo://app?vid=32fb72b9-8d78-4b2b-a711-552a859de64f"},"vehicle_type_id":"4","last_reported":1703037985,"current_range_meters":4000,"station_id":"ce4bh3p2rcd13ifvqdq0","pricing_plan_id":"free"},{"bike_id":"e48162bb-f4d1-49e5-90ab-3072a6ae921d","system_id":"levelo_inurba_marseille","lat":43.302759,"lon":5.400793,"is_reserved":false,"is_disabled":false,"rental_uris":{"android":"levelo://app?vid=e48162bb-f4d1-49e5-90ab-3072a6ae921d","ios":"levelo://app?vid=e48162bb-f4d1-49e5-90ab-3072a6ae921d"},"vehicle_type_id":"4","last_reported":1703037985,"current_range_meters":5200,"station_id":"ce4bgvh2rcd13ifvqcs0","pricing_plan_id":"free"},{"bike_id":"72586fa1-7c49-43a9-bc7b-f5c8eb87adff","system_id":"levelo_inurba_marseille","lat":43.302759,"lon":5.400793,"is_reserved":false,"is_disabled":false,"rental_uris":{"android":"levelo://app?vid=72586fa1-7c49-43a9-bc7b-f5c8eb87adff","ios":"levelo://app?vid=72586fa1-7c49-43a9-bc7b-f5c8eb87adff"},"vehicle_type_id":"4","last_reported":1703037985,"current_range_meters":31200,"station_id":"ce4bgvh2rcd13ifvqcs0","pricing_plan_id":"free"},{"bike_id":"fe07ad69-26fc-4a09-a11c-a968e28ae259","system_id":"levelo_inurba_marseille","lat":43.302759,"lon":5.400793,"is_reserved":false,"is_disabled":false,"rental_uris":{"android":"levelo://app?vid=fe07ad69-26fc-4a09-a11c-a968e28ae259","ios":"levelo://app?vid=fe07ad69-26fc-4a09-a11c-a968e28ae259"},"vehicle_type_id":"4","last_reported":1703037985,"current_range_meters":20400,"station_id":"ce4bgvh2rcd13ifvqcs0","pricing_plan_id":"free"},{"bike_id":"6270875a-7dc2-4d70-b340-dfb0ad5475bc","system_id":"levelo_inurba_marseille","lat":43.302759,"lon":5.400793,"is_reserved":false,"is_disabled":false,"rental_uris":{"android":"levelo://app?vid=6270875a-7dc2-4d70-b340-dfb0ad5475bc","ios":"levelo://app?vid=6270875a-7dc2-4d70-b340-dfb0ad5475bc"},"vehicle_type_id":"4","last_reported":1703037985,"current_range_meters":0,"station_id":"ce4bgvh2rcd13ifvqcs0","pricing_plan_id":"free"},{"bike_id":"3bf2ea02-e0bd-4c5e-b18d-455712b7549f","system_id":"levelo_inurba_marseille","lat":43.302759,"lon":5.400793,"is_reserved":false,"is_disabled":false,"rental_uris":{"android":"levelo://app?vid=3bf2ea02-e0bd-4c5e-b18d-455712b7549f","ios":"levelo://app?vid=3bf2ea02-e0bd-4c5e-b18d-455712b7549f"},"vehicle_type_id":"4","last_reported":1703037985,"current_range_meters":27200,"station_id":"ce4bgvh2rcd13ifvqcs0","pricing_plan_id":"free"},{"bike_id":"13363de0-cf7c-433a-9fda-6f67bf3f965e","system_id":"levelo_inurba_marseille","lat":43.302553,"lon":5.400808,"is_reserved":false,"is_disabled":false,"rental_uris":{"android":"levelo://app?vid=13363de0-cf7c-433a-9fda-6f67bf3f965e","ios":"levelo://app?vid=13363de0-cf7c-433a-9fda-6f67bf3f965e"},"vehicle_type_id":"4","last_reported":1703037985,"current_range_meters":4400,"station_id":"ce4bgvh2rcd13ifvqcs0","pricing_plan_id":"free"},{"bike_id":"258cad6a-fc83-42a9-b82b-c34a32766e79","system_id":"levelo_inurba_marseille","lat":43.302759,"lon":5.400793,"is_reserved":false,"is_disabled":false,"rental_uris":{"android":"levelo://app?vid=258cad6a-fc83-42a9-b82b-c34a32766e79","ios":"levelo://app?vid=258cad6a-fc83-42a9-b82b-c34a32766e79"},"vehicle_type_id":"4","last_reported":1703037985,"current_range_meters":29600,"station_id":"ce4bgvh2rcd13ifvqcs0","pricing_plan_id":"free"},{"bike_id":"dd4d805a-cb06-4d21-9fe6-494f9b6b3f1e","system_id":"levelo_inurba_marseille","lat":43.302759,"lon":5.400793,"is_reserved":false,"is_disabled":false,"rental_uris":{"android":"levelo://app?vid=dd4d805a-cb06-4d21-9fe6-494f9b6b3f1e","ios":"levelo://app?vid=dd4d805a-cb06-4d21-9fe6-494f9b6b3f1e"},"vehicle_type_id":"4","last_reported":1703037985,"current_range_meters":28800,"station_id":"ce4bgvh2rcd13ifvqcs0","pricing_plan_id":"free"},{"bike_id":"361cb02a-b41e-43a1-8356-4ac256608be8","system_id":"levelo_inurba_marseille","lat":43.302502,"lon":5.400816,"is_reserved":false,"is_disabled":false,"rental_uris":{"android":"levelo://app?vid=361cb02a-b41e-43a1-8356-4ac256608be8","ios":"levelo://app?vid=361cb02a-b41e-43a1-8356-4ac256608be8"},"vehicle_type_id":"4","last_reported":1703037985,"current_range_meters":0,"station_id":"ce4bgvh2rcd13ifvqcs0","pricing_plan_id":"free"},{"bike_id":"d417c79a-0704-4023-9dce-158e67fa1ba0","system_id":"levelo_inurba_marseille","lat":43.302759,"lon":5.400793,"is_reserved":false,"is_disabled":false,"rental_uris":{"android":"levelo://app?vid=d417c79a-0704-4023-9dce-158e67fa1ba0","ios":"levelo://app?vid=d417c79a-0704-4023-9dce-158e67fa1ba0"},"vehicle_type_id":"4","last_reported":1703037985,"current_range_meters":21200,"station_id":"ce4bgvh2rcd13ifvqcs0","pricing_plan_id":"free"},{"bike_id":"a5ab0f6e-cb1e-43c6-8bca-1c02e17f1b90","system_id":"levelo_inurba_marseille","lat":43.286039,"lon":5.370679,"is_reserved":false,"is_disabled":false,"rental_uris":{"android":"levelo://app?vid=a5ab0f6e-cb1e-43c6-8bca-1c02e17f1b90","ios":"levelo://app?vid=a5ab0f6e-cb1e-43c6-8bca-1c02e17f1b90"},"vehicle_type_id":"4","last_reported":1703037985,"current_range_meters":29200,"station_id":"ce4bht12rcd13ifvqi60","pricing_plan_id":"free"},{"bike_id":"10fc34a7-d9d4-4f90-aaf6-927d62168c66","system_id":"levelo_inurba_marseille","lat":43.316828,"lon":5.404723,"is_reserved":false,"is_disabled":false,"rental_uris":{"android":"levelo://app?vid=10fc34a7-d9d4-4f90-aaf6-927d62168c66","ios":"levelo://app?vid=10fc34a7-d9d4-4f90-aaf6-927d62168c66"},"vehicle_type_id":"4","last_reported":1703037985,"current_range_meters":19600,"station_id":"ce4bh012rcd13ifvqd00","pricing_plan_id":"free"},{"bike_id":"c8e989eb-43dd-4602-b5dc-0961e2317655","system_id":"levelo_inurba_marseille","lat":43.316828,"lon":5.404723,"is_reserved":false,"is_disabled":false,"rental_uris":{"android":"levelo://app?vid=c8e989eb-43dd-4602-b5dc-0961e2317655","ios":"levelo://app?vid=c8e989eb-43dd-4602-b5dc-0961e2317655"},"vehicle_type_id":"4","last_reported":1703037985,"current_range_meters":5600,"station_id":"ce4bh012rcd13ifvqd00","pricing_plan_id":"free"},{"bike_id":"41fabfb3-5169-4553-9970-02ec807d047d","system_id":"levelo_inurba_marseille","lat":43.284538,"lon":5.358657,"is_reserved":false,"is_disabled":false,"rental_uris":{"android":"levelo://app?vid=41fabfb3-5169-4553-9970-02ec807d047d","ios":"levelo://app?vid=41fabfb3-5169-4553-9970-02ec807d047d"},"vehicle_type_id":"4","last_reported":1703037985,"current_range_meters":31200,"station_id":"ce4bhah2rcd13ifvqei0","pricing_plan_id":"free"},{"bike_id":"b0dedcdb-2aea-4822-a02a-4b1879fff4cc","system_id":"levelo_inurba_marseille","lat":43.284538,"lon":5.358657,"is_reserved":false,"is_disabled":false,"rental_uris":{"android":"levelo://app?vid=b0dedcdb-2aea-4822-a02a-4b1879fff4cc","ios":"levelo://app?vid=b0dedcdb-2aea-4822-a02a-4b1879fff4cc"},"vehicle_type_id":"4","last_reported":1703037985,"current_range_meters":30400,"station_id":"ce4bhah2rcd13ifvqei0","pricing_plan_id":"free"},{"bike_id":"672406b4-1d0b-40dd-b0df-9eec67ee92cc","system_id":"levelo_inurba_marseille","lat":43.284534,"lon":5.358662,"is_reserved":false,"is_disabled":false,"rental_uris":{"android":"levelo://app?vid=672406b4-1d0b-40dd-b0df-9eec67ee92cc","ios":"levelo://app?vid=672406b4-1d0b-40dd-b0df-9eec67ee92cc"},"vehicle_type_id":"4","last_reported":1703037985,"current_range_meters":31200,"station_id":"ce4bhah2rcd13ifvqei0","pricing_plan_id":"free"},{"bike_id":"c16f135c-1c77-4916-b2f0-f4f2e93aed48","system_id":"levelo_inurba_marseille","lat":43.28463,"lon":5.35882,"is_reserved":false,"is_disabled":false,"rental_uris":{"android":"levelo://app?vid=c16f135c-1c77-4916-b2f0-f4f2e93aed48","ios":"levelo://app?vid=c16f135c-1c77-4916-b2f0-f4f2e93aed48"},"vehicle_type_id":"4","last_reported":1703037985,"current_range_meters":31200,"station_id":"ce4bhah2rcd13ifvqei0","pricing_plan_id":"free"},{"bike_id":"2a1492ad-9c02-4403-b6db-92a45723e300","system_id":"levelo_inurba_marseille","lat":43.284538,"lon":5.358657,"is_reserved":false,"is_disabled":false,"rental_uris":{"android":"levelo://app?vid=2a1492ad-9c02-4403-b6db-92a45723e300","ios":"levelo://app?vid=2a1492ad-9c02-4403-b6db-92a45723e300"},"vehicle_type_id":"4","last_reported":1703037985,"current_range_meters":25200,"station_id":"ce4bhah2rcd13ifvqei0","pricing_plan_id":"free"},{"bike_id":"7ce4601e-8da9-44da-a9dd-5e79f529ad1d","system_id":"levelo_inurba_marseille","lat":43.284538,"lon":5.358657,"is_reserved":false,"is_disabled":false,"rental_uris":{"android":"levelo://app?vid=7ce4601e-8da9-44da-a9dd-5e79f529ad1d","ios":"levelo://app?vid=7ce4601e-8da9-44da-a9dd-5e79f529ad1d"},"vehicle_type_id":"4","last_reported":1703037985,"current_range_meters":22000,"station_id":"ce4bhah2rcd13ifvqei0","pricing_plan_id":"free"},{"bike_id":"4f946f46-741c-4d61-bd02-7a44d1e81d43","system_id":"levelo_inurba_marseille","lat":43.284603,"lon":5.358942,"is_reserved":false,"is_disabled":false,"rental_uris":{"android":"levelo://app?vid=4f946f46-741c-4d61-bd02-7a44d1e81d43","ios":"levelo://app?vid=4f946f46-741c-4d61-bd02-7a44d1e81d43"},"vehicle_type_id":"4","last_reported":1703037985,"current_range_meters":30800,"station_id":"ce4bhah2rcd13ifvqei0","pricing_plan_id":"free"},{"bike_id":"1392dc3f-0742-430c-a7fe-9fa8238e9cfb","system_id":"levelo_inurba_marseille","lat":43.284534,"lon":5.358662,"is_reserved":false,"is_disabled":false,"rental_uris":{"android":"levelo://app?vid=1392dc3f-0742-430c-a7fe-9fa8238e9cfb","ios":"levelo://app?vid=1392dc3f-0742-430c-a7fe-9fa8238e9cfb"},"vehicle_type_id":"4","last_reported":1703037985,"current_range_meters":16400,"station_id":"ce4bhah2rcd13ifvqei0","pricing_plan_id":"free"},{"bike_id":"12c43f26-ce93-4288-82f5-858edd0411ec","system_id":"levelo_inurba_marseille","lat":43.284538,"lon":5.358657,"is_reserved":false,"is_disabled":false,"rental_uris":{"android":"levelo://app?vid=12c43f26-ce93-4288-82f5-858edd0411ec","ios":"levelo://app?vid=12c43f26-ce93-4288-82f5-858edd0411ec"},"vehicle_type_id":"4","last_reported":1703037985,"current_range_meters":18800,"station_id":"ce4bhah2rcd13ifvqei0","pricing_plan_id":"free"},{"bike_id":"d95ef21e-3fa1-4672-8a4c-858d3af696ad","system_id":"levelo_inurba_marseille","lat":43.284538,"lon":5.358657,"is_reserved":false,"is_disabled":false,"rental_uris":{"android":"levelo://app?vid=d95ef21e-3fa1-4672-8a4c-858d3af696ad","ios":"levelo://app?vid=d95ef21e-3fa1-4672-8a4c-858d3af696ad"},"vehicle_type_id":"4","last_reported":1703037985,"current_range_meters":31200,"station_id":"ce4bhah2rcd13ifvqei0","pricing_plan_id":"free"},{"bike_id":"21cfbf38-3e03-4239-8331-800fb1eef88f","system_id":"levelo_inurba_marseille","lat":43.294314,"lon":5.397498,"is_reserved":false,"is_disabled":false,"rental_uris":{"android":"levelo://app?vid=21cfbf38-3e03-4239-8331-800fb1eef88f","ios":"levelo://app?vid=21cfbf38-3e03-4239-8331-800fb1eef88f"},"vehicle_type_id":"4","last_reported":1703037985,"current_range_meters":27200,"station_id":"ce4bh3h2rcd13ifvqdo0","pricing_plan_id":"free"},{"bike_id":"2acde9e2-f6b7-458c-b7a4-dbdb04ee1b9a","system_id":"levelo_inurba_marseille","lat":43.284534,"lon":5.358662,"is_reserved":false,"is_disabled":false,"rental_uris":{"android":"levelo://app?vid=2acde9e2-f6b7-458c-b7a4-dbdb04ee1b9a","ios":"levelo://app?vid=2acde9e2-f6b7-458c-b7a4-dbdb04ee1b9a"},"vehicle_type_id":"4","last_reported":1703037985,"current_range_meters":31200,"station_id":"ce4bhah2rcd13ifvqei0","pricing_plan_id":"free"},{"bike_id":"dcbaa54b-76f8-41a1-8840-96b74b43d922","system_id":"levelo_inurba_marseille","lat":43.285856,"lon":5.350771,"is_reserved":false,"is_disabled":false,"rental_uris":{"android":"levelo://app?vid=dcbaa54b-76f8-41a1-8840-96b74b43d922","ios":"levelo://app?vid=dcbaa54b-76f8-41a1-8840-96b74b43d922"},"vehicle_type_id":"4","last_reported":1703037985,"current_range_meters":29200,"station_id":"ce4bhch2rcd13ifvqeug","pricing_plan_id":"free"},{"bike_id":"4a3bf0b1-66fa-4ba1-95be-5c0a76ccad27","system_id":"levelo_inurba_marseille","lat":43.285856,"lon":5.350771,"is_reserved":false,"is_disabled":false,"rental_uris":{"android":"levelo://app?vid=4a3bf0b1-66fa-4ba1-95be-5c0a76ccad27","ios":"levelo://app?vid=4a3bf0b1-66fa-4ba1-95be-5c0a76ccad27"},"vehicle_type_id":"4","last_reported":1703037985,"current_range_meters":21600,"station_id":"ce4bhch2rcd13ifvqeug","pricing_plan_id":"free"},{"bike_id":"f3b85f34-8342-42b3-9689-e6718d9bce90","system_id":"levelo_inurba_marseille","lat":43.285856,"lon":5.350771,"is_reserved":false,"is_disabled":false,"rental_uris":{"android":"levelo://app?vid=f3b85f34-8342-42b3-9689-e6718d9bce90","ios":"levelo://app?vid=f3b85f34-8342-42b3-9689-e6718d9bce90"},"vehicle_type_id":"4","last_reported":1703037985,"current_range_meters":12000,"station_id":"ce4bhch2rcd13ifvqeug","pricing_plan_id":"free"},{"bike_id":"abb97eaa-26df-4b6b-a3c4-e5a55b75ec4c","system_id":"levelo_inurba_marseille","lat":43.285856,"lon":5.350771,"is_reserved":false,"is_disabled":false,"rental_uris":{"android":"levelo://app?vid=abb97eaa-26df-4b6b-a3c4-e5a55b75ec4c","ios":"levelo://app?vid=abb97eaa-26df-4b6b-a3c4-e5a55b75ec4c"},"vehicle_type_id":"4","last_reported":1703037985,"current_range_meters":30400,"station_id":"ce4bhch2rcd13ifvqeug","pricing_plan_id":"free"},{"bike_id":"43a18414-05dc-4173-9c6c-7d98ce041873","system_id":"levelo_inurba_marseille","lat":43.283998,"lon":5.375062,"is_reserved":false,"is_disabled":false,"rental_uris":{"android":"levelo://app?vid=43a18414-05dc-4173-9c6c-7d98ce041873","ios":"levelo://app?vid=43a18414-05dc-4173-9c6c-7d98ce041873"},"vehicle_type_id":"4","last_reported":1703037985,"current_range_meters":22400,"station_id":"ce4bh412rcd13ifvqds0","pricing_plan_id":"free"},{"bike_id":"8538e6dd-dbef-4a5a-a119-9a857fd021ad","system_id":"levelo_inurba_marseille","lat":43.33218,"lon":5.397067,"is_reserved":false,"is_disabled":false,"rental_uris":{"android":"levelo://app?vid=8538e6dd-dbef-4a5a-a119-9a857fd021ad","ios":"levelo://app?vid=8538e6dd-dbef-4a5a-a119-9a857fd021ad"},"vehicle_type_id":"4","last_reported":1703037985,"current_range_meters":0,"station_id":"","pricing_plan_id":"free"},{"bike_id":"7f5d2159-596b-49cd-91d6-92e50943176a","system_id":"levelo_inurba_marseille","lat":43.319179,"lon":5.407725,"is_reserved":false,"is_disabled":false,"rental_uris":{"android":"levelo://app?vid=7f5d2159-596b-49cd-91d6-92e50943176a","ios":"levelo://app?vid=7f5d2159-596b-49cd-91d6-92e50943176a"},"vehicle_type_id":"4","last_reported":1703037985,"current_range_meters":27200,"station_id":"ce4bhq12rcd13ifvqhig","pricing_plan_id":"free"},{"bike_id":"b4c63eff-1a57-458d-ba63-bedda4db5de4","system_id":"levelo_inurba_marseille","lat":43.319179,"lon":5.407725,"is_reserved":false,"is_disabled":false,"rental_uris":{"android":"levelo://app?vid=b4c63eff-1a57-458d-ba63-bedda4db5de4","ios":"levelo://app?vid=b4c63eff-1a57-458d-ba63-bedda4db5de4"},"vehicle_type_id":"4","last_reported":1703037985,"current_range_meters":18400,"station_id":"ce4bhq12rcd13ifvqhig","pricing_plan_id":"free"},{"bike_id":"6ef1931b-9751-4a0e-9f83-360587689828","system_id":"levelo_inurba_marseille","lat":43.319179,"lon":5.407725,"is_reserved":false,"is_disabled":false,"rental_uris":{"android":"levelo://app?vid=6ef1931b-9751-4a0e-9f83-360587689828","ios":"levelo://app?vid=6ef1931b-9751-4a0e-9f83-360587689828"},"vehicle_type_id":"4","last_reported":1703037985,"current_range_meters":31600,"station_id":"ce4bhq12rcd13ifvqhig","pricing_plan_id":"free"},{"bike_id":"48c26f68-8e4e-48e8-9d62-a6e759f89761","system_id":"levelo_inurba_marseille","lat":43.323464,"lon":5.406297,"is_reserved":false,"is_disabled":false,"rental_uris":{"android":"levelo://app?vid=48c26f68-8e4e-48e8-9d62-a6e759f89761","ios":"levelo://app?vid=48c26f68-8e4e-48e8-9d62-a6e759f89761"},"vehicle_type_id":"4","last_reported":1703037985,"current_range_meters":6400,"station_id":"ce4bhq92rcd13ifvqhjg","pricing_plan_id":"free"},{"bike_id":"69705908-4b6a-4709-a265-798e5697b8bf","system_id":"levelo_inurba_marseille","lat":43.323464,"lon":5.406297,"is_reserved":false,"is_disabled":false,"rental_uris":{"android":"levelo://app?vid=69705908-4b6a-4709-a265-798e5697b8bf","ios":"levelo://app?vid=69705908-4b6a-4709-a265-798e5697b8bf"},"vehicle_type_id":"4","last_reported":1703037985,"current_range_meters":31600,"station_id":"ce4bhq92rcd13ifvqhjg","pricing_plan_id":"free"},{"bike_id":"ba39ecb4-b984-477f-87cf-fcce02f73044","system_id":"levelo_inurba_marseille","lat":43.323464,"lon":5.406297,"is_reserved":false,"is_disabled":false,"rental_uris":{"android":"levelo://app?vid=ba39ecb4-b984-477f-87cf-fcce02f73044","ios":"levelo://app?vid=ba39ecb4-b984-477f-87cf-fcce02f73044"},"vehicle_type_id":"4","last_reported":1703037985,"current_range_meters":22800,"station_id":"ce4bhq92rcd13ifvqhjg","pricing_plan_id":"free"},{"bike_id":"a38131d3-4b62-473a-b999-9b1ea0af85e3","system_id":"levelo_inurba_marseille","lat":43.297946,"lon":5.404063,"is_reserved":false,"is_disabled":false,"rental_uris":{"android":"levelo://app?vid=a38131d3-4b62-473a-b999-9b1ea0af85e3","ios":"levelo://app?vid=a38131d3-4b62-473a-b999-9b1ea0af85e3"},"vehicle_type_id":"4","last_reported":1703037985,"current_range_meters":27200,"station_id":"ce4bh112rcd13ifvqd90","pricing_plan_id":"free"},{"bike_id":"e52f08b0-673c-400f-8c4a-1e601fa1dcba","system_id":"levelo_inurba_marseille","lat":43.288501,"lon":5.393087,"is_reserved":false,"is_disabled":false,"rental_uris":{"android":"levelo://app?vid=e52f08b0-673c-400f-8c4a-1e601fa1dcba","ios":"levelo://app?vid=e52f08b0-673c-400f-8c4a-1e601fa1dcba"},"vehicle_type_id":"4","last_reported":1703037985,"current_range_meters":22400,"station_id":"ce4bh2p2rcd13ifvqdi0","pricing_plan_id":"free"},{"bike_id":"45fee384-512b-40e7-8b42-bd1616fa64bb","system_id":"levelo_inurba_marseille","lat":43.29795,"lon":5.404086,"is_reserved":false,"is_disabled":false,"rental_uris":{"android":"levelo://app?vid=45fee384-512b-40e7-8b42-bd1616fa64bb","ios":"levelo://app?vid=45fee384-512b-40e7-8b42-bd1616fa64bb"},"vehicle_type_id":"4","last_reported":1703037985,"current_range_meters":26800,"station_id":"ce4bh112rcd13ifvqd90","pricing_plan_id":"free"},{"bike_id":"ff818dd1-c810-4aac-b697-f267428fcf5d","system_id":"levelo_inurba_marseille","lat":43.28854,"lon":5.393207,"is_reserved":false,"is_disabled":false,"rental_uris":{"android":"levelo://app?vid=ff818dd1-c810-4aac-b697-f267428fcf5d","ios":"levelo://app?vid=ff818dd1-c810-4aac-b697-f267428fcf5d"},"vehicle_type_id":"4","last_reported":1703037985,"current_range_meters":0,"station_id":"ce4bh2p2rcd13ifvqdi0","pricing_plan_id":"free"},{"bike_id":"f251c644-cb80-4e9e-88f3-78bb6e7f6ded","system_id":"levelo_inurba_marseille","lat":43.28863,"lon":5.39343,"is_reserved":false,"is_disabled":false,"rental_uris":{"android":"levelo://app?vid=f251c644-cb80-4e9e-88f3-78bb6e7f6ded","ios":"levelo://app?vid=f251c644-cb80-4e9e-88f3-78bb6e7f6ded"},"vehicle_type_id":"4","last_reported":1703037985,"current_range_meters":11200,"station_id":"ce4bh2p2rcd13ifvqdi0","pricing_plan_id":"free"},{"bike_id":"027e1422-e01f-4dc0-9957-c65281930e97","system_id":"levelo_inurba_marseille","lat":43.288501,"lon":5.393087,"is_reserved":false,"is_disabled":false,"rental_uris":{"android":"levelo://app?vid=027e1422-e01f-4dc0-9957-c65281930e97","ios":"levelo://app?vid=027e1422-e01f-4dc0-9957-c65281930e97"},"vehicle_type_id":"4","last_reported":1703037985,"current_range_meters":28800,"station_id":"ce4bh2p2rcd13ifvqdi0","pricing_plan_id":"free"},{"bike_id":"b30b4287-5c16-4334-981c-465c24c05d06","system_id":"levelo_inurba_marseille","lat":43.288428,"lon":5.393186,"is_reserved":false,"is_disabled":false,"rental_uris":{"android":"levelo://app?vid=b30b4287-5c16-4334-981c-465c24c05d06","ios":"levelo://app?vid=b30b4287-5c16-4334-981c-465c24c05d06"},"vehicle_type_id":"4","last_reported":1703037985,"current_range_meters":25600,"station_id":"ce4bh2p2rcd13ifvqdi0","pricing_plan_id":"free"},{"bike_id":"eed03dce-e6cc-46b1-8527-45439af6f114","system_id":"levelo_inurba_marseille","lat":43.284214,"lon":5.349706,"is_reserved":false,"is_disabled":false,"rental_uris":{"android":"levelo://app?vid=eed03dce-e6cc-46b1-8527-45439af6f114","ios":"levelo://app?vid=eed03dce-e6cc-46b1-8527-45439af6f114"},"vehicle_type_id":"4","last_reported":1703037985,"current_range_meters":22400,"station_id":"ce4bhbh2rcd13ifvqepg","pricing_plan_id":"free"},{"bike_id":"35e5c977-c3ec-4302-85e4-7f44ba15ca6f","system_id":"levelo_inurba_marseille","lat":43.306412,"lon":5.401035,"is_reserved":false,"is_disabled":false,"rental_uris":{"android":"levelo://app?vid=35e5c977-c3ec-4302-85e4-7f44ba15ca6f","ios":"levelo://app?vid=35e5c977-c3ec-4302-85e4-7f44ba15ca6f"},"vehicle_type_id":"4","last_reported":1703037985,"current_range_meters":21200,"station_id":"ce4bh112rcd13ifvqda0","pricing_plan_id":"free"},{"bike_id":"be2b393b-ed35-4dda-9627-00ae99e8070a","system_id":"levelo_inurba_marseille","lat":43.289363,"lon":5.396322,"is_reserved":false,"is_disabled":false,"rental_uris":{"android":"levelo://app?vid=be2b393b-ed35-4dda-9627-00ae99e8070a","ios":"levelo://app?vid=be2b393b-ed35-4dda-9627-00ae99e8070a"},"vehicle_type_id":"4","last_reported":1703037985,"current_range_meters":28800,"station_id":"ce4bh3h2rcd13ifvqdn0","pricing_plan_id":"free"},{"bike_id":"7cfc102d-3e17-4f27-991e-919043420bcd","system_id":"levelo_inurba_marseille","lat":43.292724,"lon":5.401131,"is_reserved":false,"is_disabled":false,"rental_uris":{"android":"levelo://app?vid=7cfc102d-3e17-4f27-991e-919043420bcd","ios":"levelo://app?vid=7cfc102d-3e17-4f27-991e-919043420bcd"},"vehicle_type_id":"4","last_reported":1703037985,"current_range_meters":28400,"station_id":"ce4bh312rcd13ifvqdk0","pricing_plan_id":"free"},{"bike_id":"380a1900-034e-4caf-891e-722fda393987","system_id":"levelo_inurba_marseille","lat":43.292724,"lon":5.401131,"is_reserved":false,"is_disabled":false,"rental_uris":{"android":"levelo://app?vid=380a1900-034e-4caf-891e-722fda393987","ios":"levelo://app?vid=380a1900-034e-4caf-891e-722fda393987"},"vehicle_type_id":"4","last_reported":1703037985,"current_range_meters":25600,"station_id":"ce4bh312rcd13ifvqdk0","pricing_plan_id":"free"},{"bike_id":"0971e090-7a1d-40f4-8100-b9dcb55c1c0e","system_id":"levelo_inurba_marseille","lat":43.292724,"lon":5.401131,"is_reserved":false,"is_disabled":false,"rental_uris":{"android":"levelo://app?vid=0971e090-7a1d-40f4-8100-b9dcb55c1c0e","ios":"levelo://app?vid=0971e090-7a1d-40f4-8100-b9dcb55c1c0e"},"vehicle_type_id":"4","last_reported":1703037985,"current_range_meters":27200,"station_id":"ce4bh312rcd13ifvqdk0","pricing_plan_id":"free"},{"bike_id":"b47f70bf-8cef-44df-b33e-fc16db45b739","system_id":"levelo_inurba_marseille","lat":43.283502,"lon":5.386471,"is_reserved":false,"is_disabled":false,"rental_uris":{"android":"levelo://app?vid=b47f70bf-8cef-44df-b33e-fc16db45b739","ios":"levelo://app?vid=b47f70bf-8cef-44df-b33e-fc16db45b739"},"vehicle_type_id":"4","last_reported":1703037985,"current_range_meters":27200,"station_id":"ce4bh492rcd13ifvqdvg","pricing_plan_id":"free"},{"bike_id":"7415b361-4875-4231-90b5-c9caee2a9d88","system_id":"levelo_inurba_marseille","lat":43.282754,"lon":5.350519,"is_reserved":false,"is_disabled":false,"rental_uris":{"android":"levelo://app?vid=7415b361-4875-4231-90b5-c9caee2a9d88","ios":"levelo://app?vid=7415b361-4875-4231-90b5-c9caee2a9d88"},"vehicle_type_id":"4","last_reported":1703037985,"current_range_meters":23200,"station_id":"ce4bhbp2rcd13ifvqerg","pricing_plan_id":"free"},{"bike_id":"2fe4c2f8-c94b-46f7-b569-e5e3379780c6","system_id":"levelo_inurba_marseille","lat":43.282754,"lon":5.350519,"is_reserved":false,"is_disabled":false,"rental_uris":{"android":"levelo://app?vid=2fe4c2f8-c94b-46f7-b569-e5e3379780c6","ios":"levelo://app?vid=2fe4c2f8-c94b-46f7-b569-e5e3379780c6"},"vehicle_type_id":"4","last_reported":1703037985,"current_range_meters":25600,"station_id":"ce4bhbp2rcd13ifvqerg","pricing_plan_id":"free"},{"bike_id":"3c7e21be-52ca-4f31-b25a-94d45be13004","system_id":"levelo_inurba_marseille","lat":43.282691,"lon":5.350694,"is_reserved":false,"is_disabled":false,"rental_uris":{"android":"levelo://app?vid=3c7e21be-52ca-4f31-b25a-94d45be13004","ios":"levelo://app?vid=3c7e21be-52ca-4f31-b25a-94d45be13004"},"vehicle_type_id":"4","last_reported":1703037985,"current_range_meters":30800,"station_id":"ce4bhbp2rcd13ifvqerg","pricing_plan_id":"free"},{"bike_id":"3893f7e2-448d-4607-bfb6-f15637357b83","system_id":"levelo_inurba_marseille","lat":43.282683,"lon":5.350685,"is_reserved":false,"is_disabled":false,"rental_uris":{"android":"levelo://app?vid=3893f7e2-448d-4607-bfb6-f15637357b83","ios":"levelo://app?vid=3893f7e2-448d-4607-bfb6-f15637357b83"},"vehicle_type_id":"4","last_reported":1703037985,"current_range_meters":31200,"station_id":"ce4bhbp2rcd13ifvqerg","pricing_plan_id":"free"},{"bike_id":"7a9c501a-a88f-4b20-a3be-0f05afe0b8e1","system_id":"levelo_inurba_marseille","lat":43.282754,"lon":5.350519,"is_reserved":false,"is_disabled":false,"rental_uris":{"android":"levelo://app?vid=7a9c501a-a88f-4b20-a3be-0f05afe0b8e1","ios":"levelo://app?vid=7a9c501a-a88f-4b20-a3be-0f05afe0b8e1"},"vehicle_type_id":"4","last_reported":1703037985,"current_range_meters":24800,"station_id":"ce4bhbp2rcd13ifvqerg","pricing_plan_id":"free"},{"bike_id":"725c62a2-53d1-4c72-8be5-a3f6a6bd9459","system_id":"levelo_inurba_marseille","lat":43.282744,"lon":5.350533,"is_reserved":false,"is_disabled":false,"rental_uris":{"android":"levelo://app?vid=725c62a2-53d1-4c72-8be5-a3f6a6bd9459","ios":"levelo://app?vid=725c62a2-53d1-4c72-8be5-a3f6a6bd9459"},"vehicle_type_id":"4","last_reported":1703037985,"current_range_meters":29600,"station_id":"ce4bhbp2rcd13ifvqerg","pricing_plan_id":"free"},{"bike_id":"486a5fac-3bbb-4c7f-8c72-da84800714a2","system_id":"levelo_inurba_marseille","lat":43.282744,"lon":5.350533,"is_reserved":false,"is_disabled":false,"rental_uris":{"android":"levelo://app?vid=486a5fac-3bbb-4c7f-8c72-da84800714a2","ios":"levelo://app?vid=486a5fac-3bbb-4c7f-8c72-da84800714a2"},"vehicle_type_id":"4","last_reported":1703037985,"current_range_meters":29200,"station_id":"ce4bhbp2rcd13ifvqerg","pricing_plan_id":"free"},{"bike_id":"a53f681d-51b5-4ecc-bca6-1cb8d12861b1","system_id":"levelo_inurba_marseille","lat":43.282744,"lon":5.350533,"is_reserved":false,"is_disabled":false,"rental_uris":{"android":"levelo://app?vid=a53f681d-51b5-4ecc-bca6-1cb8d12861b1","ios":"levelo://app?vid=a53f681d-51b5-4ecc-bca6-1cb8d12861b1"},"vehicle_type_id":"4","last_reported":1703037985,"current_range_meters":22800,"station_id":"ce4bhbp2rcd13ifvqerg","pricing_plan_id":"free"},{"bike_id":"910ac004-db28-4f6a-93d9-3d28545880b6","system_id":"levelo_inurba_marseille","lat":43.290412,"lon":5.399633,"is_reserved":false,"is_disabled":false,"rental_uris":{"android":"levelo://app?vid=910ac004-db28-4f6a-93d9-3d28545880b6","ios":"levelo://app?vid=910ac004-db28-4f6a-93d9-3d28545880b6"},"vehicle_type_id":"4","last_reported":1703037985,"current_range_meters":25200,"station_id":"ce4bh392rcd13ifvqdm0","pricing_plan_id":"free"},{"bike_id":"aec38d07-e287-44e0-ab37-fae24742f21d","system_id":"levelo_inurba_marseille","lat":43.296263,"lon":5.40601,"is_reserved":false,"is_disabled":false,"rental_uris":{"android":"levelo://app?vid=aec38d07-e287-44e0-ab37-fae24742f21d","ios":"levelo://app?vid=aec38d07-e287-44e0-ab37-fae24742f21d"},"vehicle_type_id":"4","last_reported":1703037985,"current_range_meters":29600,"station_id":"ce4bh0h2rcd13ifvqd60","pricing_plan_id":"free"},{"bike_id":"84f97242-3baa-4a26-b332-bb1b0ceedf67","system_id":"levelo_inurba_marseille","lat":43.296263,"lon":5.40601,"is_reserved":false,"is_disabled":false,"rental_uris":{"android":"levelo://app?vid=84f97242-3baa-4a26-b332-bb1b0ceedf67","ios":"levelo://app?vid=84f97242-3baa-4a26-b332-bb1b0ceedf67"},"vehicle_type_id":"4","last_reported":1703037985,"current_range_meters":30400,"station_id":"ce4bh0h2rcd13ifvqd60","pricing_plan_id":"free"},{"bike_id":"112d2357-0ed0-445f-ab80-cd38b1aabd86","system_id":"levelo_inurba_marseille","lat":43.284462,"lon":5.392121,"is_reserved":false,"is_disabled":false,"rental_uris":{"android":"levelo://app?vid=112d2357-0ed0-445f-ab80-cd38b1aabd86","ios":"levelo://app?vid=112d2357-0ed0-445f-ab80-cd38b1aabd86"},"vehicle_type_id":"4","last_reported":1703037985,"current_range_meters":24800,"station_id":"ce4bhoh2rcd13ifvqh5g","pricing_plan_id":"free"},{"bike_id":"11af8c0c-f130-426a-bd52-51e7a92e1866","system_id":"levelo_inurba_marseille","lat":43.304188,"lon":5.412904,"is_reserved":false,"is_disabled":false,"rental_uris":{"android":"levelo://app?vid=11af8c0c-f130-426a-bd52-51e7a92e1866","ios":"levelo://app?vid=11af8c0c-f130-426a-bd52-51e7a92e1866"},"vehicle_type_id":"4","last_reported":1703037985,"current_range_meters":21600,"station_id":"ce4bhop2rcd13ifvqh8g","pricing_plan_id":"free"},{"bike_id":"d876af96-5744-47cb-86eb-5a0ecfae3873","system_id":"levelo_inurba_marseille","lat":43.304188,"lon":5.412904,"is_reserved":false,"is_disabled":false,"rental_uris":{"android":"levelo://app?vid=d876af96-5744-47cb-86eb-5a0ecfae3873","ios":"levelo://app?vid=d876af96-5744-47cb-86eb-5a0ecfae3873"},"vehicle_type_id":"4","last_reported":1703037985,"current_range_meters":31600,"station_id":"ce4bhop2rcd13ifvqh8g","pricing_plan_id":"free"},{"bike_id":"ba8ccf0d-1720-4419-8ea4-e40b7c0c1f2d","system_id":"levelo_inurba_marseille","lat":43.304188,"lon":5.412904,"is_reserved":false,"is_disabled":false,"rental_uris":{"android":"levelo://app?vid=ba8ccf0d-1720-4419-8ea4-e40b7c0c1f2d","ios":"levelo://app?vid=ba8ccf0d-1720-4419-8ea4-e40b7c0c1f2d"},"vehicle_type_id":"4","last_reported":1703037985,"current_range_meters":5200,"station_id":"ce4bhop2rcd13ifvqh8g","pricing_plan_id":"free"},{"bike_id":"7b4c0bd2-2eed-4afc-9574-cbbc343eb1b6","system_id":"levelo_inurba_marseille","lat":43.287154,"lon":5.399979,"is_reserved":false,"is_disabled":false,"rental_uris":{"android":"levelo://app?vid=7b4c0bd2-2eed-4afc-9574-cbbc343eb1b6","ios":"levelo://app?vid=7b4c0bd2-2eed-4afc-9574-cbbc343eb1b6"},"vehicle_type_id":"4","last_reported":1703037985,"current_range_meters":25600,"station_id":"ce4bho92rcd13ifvqh3g","pricing_plan_id":"free"},{"bike_id":"3fff00b1-d768-4a50-b0f2-2f1533cff555","system_id":"levelo_inurba_marseille","lat":43.287154,"lon":5.399979,"is_reserved":false,"is_disabled":false,"rental_uris":{"android":"levelo://app?vid=3fff00b1-d768-4a50-b0f2-2f1533cff555","ios":"levelo://app?vid=3fff00b1-d768-4a50-b0f2-2f1533cff555"},"vehicle_type_id":"4","last_reported":1703037985,"current_range_meters":1200,"station_id":"ce4bho92rcd13ifvqh3g","pricing_plan_id":"free"},{"bike_id":"ede44fe4-1ee9-4919-8f88-655bdf61dbfa","system_id":"levelo_inurba_marseille","lat":43.287154,"lon":5.399979,"is_reserved":false,"is_disabled":false,"rental_uris":{"android":"levelo://app?vid=ede44fe4-1ee9-4919-8f88-655bdf61dbfa","ios":"levelo://app?vid=ede44fe4-1ee9-4919-8f88-655bdf61dbfa"},"vehicle_type_id":"4","last_reported":1703037985,"current_range_meters":1200,"station_id":"ce4bho92rcd13ifvqh3g","pricing_plan_id":"free"},{"bike_id":"ce34ad47-7e44-499f-a057-2f36616b01f5","system_id":"levelo_inurba_marseille","lat":43.287154,"lon":5.399979,"is_reserved":false,"is_disabled":false,"rental_uris":{"android":"levelo://app?vid=ce34ad47-7e44-499f-a057-2f36616b01f5","ios":"levelo://app?vid=ce34ad47-7e44-499f-a057-2f36616b01f5"},"vehicle_type_id":"4","last_reported":1703037985,"current_range_meters":31200,"station_id":"ce4bho92rcd13ifvqh3g","pricing_plan_id":"free"},{"bike_id":"cb0668d4-d46c-4efe-a7e0-185ebe495ab4","system_id":"levelo_inurba_marseille","lat":43.280513,"lon":5.389169,"is_reserved":false,"is_disabled":false,"rental_uris":{"android":"levelo://app?vid=cb0668d4-d46c-4efe-a7e0-185ebe495ab4","ios":"levelo://app?vid=cb0668d4-d46c-4efe-a7e0-185ebe495ab4"},"vehicle_type_id":"4","last_reported":1703037985,"current_range_meters":9600,"station_id":"","pricing_plan_id":"free"},{"bike_id":"067e4013-863f-4f7f-8206-d057a414c3dd","system_id":"levelo_inurba_marseille","lat":43.299579,"lon":5.413255,"is_reserved":false,"is_disabled":false,"rental_uris":{"android":"levelo://app?vid=067e4013-863f-4f7f-8206-d057a414c3dd","ios":"levelo://app?vid=067e4013-863f-4f7f-8206-d057a414c3dd"},"vehicle_type_id":"4","last_reported":1703037985,"current_range_meters":26800,"station_id":"ce4bhp12rcd13ifvqh9g","pricing_plan_id":"free"},{"bike_id":"d6481748-376b-4964-b85f-d25e8e4d292b","system_id":"levelo_inurba_marseille","lat":43.292569,"lon":5.409107,"is_reserved":false,"is_disabled":false,"rental_uris":{"android":"levelo://app?vid=d6481748-376b-4964-b85f-d25e8e4d292b","ios":"levelo://app?vid=d6481748-376b-4964-b85f-d25e8e4d292b"},"vehicle_type_id":"4","last_reported":1703037985,"current_range_meters":15200,"station_id":"ce4bh192rcd13ifvqdc0","pricing_plan_id":"free"},{"bike_id":"2d8d7f97-5841-464f-95fc-0479b7c6fd0d","system_id":"levelo_inurba_marseille","lat":43.292569,"lon":5.409107,"is_reserved":false,"is_disabled":false,"rental_uris":{"android":"levelo://app?vid=2d8d7f97-5841-464f-95fc-0479b7c6fd0d","ios":"levelo://app?vid=2d8d7f97-5841-464f-95fc-0479b7c6fd0d"},"vehicle_type_id":"4","last_reported":1703037985,"current_range_meters":27200,"station_id":"ce4bh192rcd13ifvqdc0","pricing_plan_id":"free"},{"bike_id":"efe93038-7e76-4d0b-8e3b-82f8935bfbd8","system_id":"levelo_inurba_marseille","lat":43.292569,"lon":5.409107,"is_reserved":false,"is_disabled":false,"rental_uris":{"android":"levelo://app?vid=efe93038-7e76-4d0b-8e3b-82f8935bfbd8","ios":"levelo://app?vid=efe93038-7e76-4d0b-8e3b-82f8935bfbd8"},"vehicle_type_id":"4","last_reported":1703037985,"current_range_meters":31600,"station_id":"ce4bh192rcd13ifvqdc0","pricing_plan_id":"free"},{"bike_id":"32aee3d2-c46b-4008-8070-429bd3ffde79","system_id":"levelo_inurba_marseille","lat":43.292569,"lon":5.409107,"is_reserved":false,"is_disabled":false,"rental_uris":{"android":"levelo://app?vid=32aee3d2-c46b-4008-8070-429bd3ffde79","ios":"levelo://app?vid=32aee3d2-c46b-4008-8070-429bd3ffde79"},"vehicle_type_id":"4","last_reported":1703037985,"current_range_meters":27600,"station_id":"ce4bh192rcd13ifvqdc0","pricing_plan_id":"free"},{"bike_id":"6f33ed31-2cf3-4c0d-986d-ea050982e803","system_id":"levelo_inurba_marseille","lat":43.325243,"lon":5.414326,"is_reserved":false,"is_disabled":false,"rental_uris":{"android":"levelo://app?vid=6f33ed31-2cf3-4c0d-986d-ea050982e803","ios":"levelo://app?vid=6f33ed31-2cf3-4c0d-986d-ea050982e803"},"vehicle_type_id":"4","last_reported":1703037985,"current_range_meters":29600,"station_id":"ce4bhq12rcd13ifvqhhg","pricing_plan_id":"free"},{"bike_id":"0121c00f-66de-4472-970c-6ae9ae14cf86","system_id":"levelo_inurba_marseille","lat":43.276179,"lon":5.361009,"is_reserved":false,"is_disabled":false,"rental_uris":{"android":"levelo://app?vid=0121c00f-66de-4472-970c-6ae9ae14cf86","ios":"levelo://app?vid=0121c00f-66de-4472-970c-6ae9ae14cf86"},"vehicle_type_id":"4","last_reported":1703037985,"current_range_meters":30800,"station_id":"ce4bgj92rcd13ifvqbe0","pricing_plan_id":"free"},{"bike_id":"faeb5ae7-5f04-40f0-9ed4-f1cb6d203a38","system_id":"levelo_inurba_marseille","lat":43.280784,"lon":5.396622,"is_reserved":false,"is_disabled":false,"rental_uris":{"android":"levelo://app?vid=faeb5ae7-5f04-40f0-9ed4-f1cb6d203a38","ios":"levelo://app?vid=faeb5ae7-5f04-40f0-9ed4-f1cb6d203a38"},"vehicle_type_id":"4","last_reported":1703037985,"current_range_meters":26800,"station_id":"ce4bho12rcd13ifvqh2g","pricing_plan_id":"free"},{"bike_id":"3dcf97fd-44a8-42eb-bc8a-faaaf7e19bd7","system_id":"levelo_inurba_marseille","lat":43.275625,"lon":5.384392,"is_reserved":false,"is_disabled":false,"rental_uris":{"android":"levelo://app?vid=3dcf97fd-44a8-42eb-bc8a-faaaf7e19bd7","ios":"levelo://app?vid=3dcf97fd-44a8-42eb-bc8a-faaaf7e19bd7"},"vehicle_type_id":"4","last_reported":1703037985,"current_range_meters":30800,"station_id":"ce4bhh92rcd13ifvqfi0","pricing_plan_id":"free"},{"bike_id":"a453e506-6946-4623-9512-82735d696064","system_id":"levelo_inurba_marseille","lat":43.273609,"lon":5.362708,"is_reserved":false,"is_disabled":false,"rental_uris":{"android":"levelo://app?vid=a453e506-6946-4623-9512-82735d696064","ios":"levelo://app?vid=a453e506-6946-4623-9512-82735d696064"},"vehicle_type_id":"4","last_reported":1703037985,"current_range_meters":28400,"station_id":"ce4bhbh2rcd13ifvqeo0","pricing_plan_id":"free"},{"bike_id":"eb472509-e724-4615-a624-bbe3df62e068","system_id":"levelo_inurba_marseille","lat":43.275625,"lon":5.384392,"is_reserved":false,"is_disabled":false,"rental_uris":{"android":"levelo://app?vid=eb472509-e724-4615-a624-bbe3df62e068","ios":"levelo://app?vid=eb472509-e724-4615-a624-bbe3df62e068"},"vehicle_type_id":"4","last_reported":1703037985,"current_range_meters":20800,"station_id":"ce4bhh92rcd13ifvqfi0","pricing_plan_id":"free"},{"bike_id":"50ac1de3-173a-4c90-b2a2-d3778c114966","system_id":"levelo_inurba_marseille","lat":43.336134,"lon":5.410341,"is_reserved":false,"is_disabled":false,"rental_uris":{"android":"levelo://app?vid=50ac1de3-173a-4c90-b2a2-d3778c114966","ios":"levelo://app?vid=50ac1de3-173a-4c90-b2a2-d3778c114966"},"vehicle_type_id":"4","last_reported":1703037985,"current_range_meters":24400,"station_id":"ce4bhqh2rcd13ifvqhmg","pricing_plan_id":"free"},{"bike_id":"da05d800-2757-4912-a8e7-33be7ec98b41","system_id":"levelo_inurba_marseille","lat":43.336148,"lon":5.410349,"is_reserved":false,"is_disabled":false,"rental_uris":{"android":"levelo://app?vid=da05d800-2757-4912-a8e7-33be7ec98b41","ios":"levelo://app?vid=da05d800-2757-4912-a8e7-33be7ec98b41"},"vehicle_type_id":"4","last_reported":1703037985,"current_range_meters":30400,"station_id":"ce4bhqh2rcd13ifvqhmg","pricing_plan_id":"free"},{"bike_id":"9e4e6b0a-9b9d-46eb-b64e-ef2f747d42f3","system_id":"levelo_inurba_marseille","lat":43.336134,"lon":5.410341,"is_reserved":false,"is_disabled":false,"rental_uris":{"android":"levelo://app?vid=9e4e6b0a-9b9d-46eb-b64e-ef2f747d42f3","ios":"levelo://app?vid=9e4e6b0a-9b9d-46eb-b64e-ef2f747d42f3"},"vehicle_type_id":"4","last_reported":1703037985,"current_range_meters":28000,"station_id":"ce4bhqh2rcd13ifvqhmg","pricing_plan_id":"free"},{"bike_id":"905a6c74-af0c-489d-930a-338c6f3bbfd5","system_id":"levelo_inurba_marseille","lat":43.317193,"lon":5.423954,"is_reserved":false,"is_disabled":false,"rental_uris":{"android":"levelo://app?vid=905a6c74-af0c-489d-930a-338c6f3bbfd5","ios":"levelo://app?vid=905a6c74-af0c-489d-930a-338c6f3bbfd5"},"vehicle_type_id":"4","last_reported":1703037985,"current_range_meters":10000,"station_id":"ce4bhp92rcd13ifvqhbg","pricing_plan_id":"free"},{"bike_id":"6aeb72c6-7795-421e-8c99-8e89a08bfac6","system_id":"levelo_inurba_marseille","lat":43.317121,"lon":5.423936,"is_reserved":false,"is_disabled":false,"rental_uris":{"android":"levelo://app?vid=6aeb72c6-7795-421e-8c99-8e89a08bfac6","ios":"levelo://app?vid=6aeb72c6-7795-421e-8c99-8e89a08bfac6"},"vehicle_type_id":"4","last_reported":1703037985,"current_range_meters":30400,"station_id":"ce4bhp92rcd13ifvqhbg","pricing_plan_id":"free"},{"bike_id":"a186b623-a02e-4b49-b9f8-d08ed118be67","system_id":"levelo_inurba_marseille","lat":43.310785,"lon":5.424305,"is_reserved":false,"is_disabled":false,"rental_uris":{"android":"levelo://app?vid=a186b623-a02e-4b49-b9f8-d08ed118be67","ios":"levelo://app?vid=a186b623-a02e-4b49-b9f8-d08ed118be67"},"vehicle_type_id":"4","last_reported":1703037985,"current_range_meters":17600,"station_id":"ce4bhp92rcd13ifvqhag","pricing_plan_id":"free"},{"bike_id":"8aaafce3-32e4-45e5-9f96-e6fe6d7e4f5b","system_id":"levelo_inurba_marseille","lat":43.31713,"lon":5.42405,"is_reserved":false,"is_disabled":false,"rental_uris":{"android":"levelo://app?vid=8aaafce3-32e4-45e5-9f96-e6fe6d7e4f5b","ios":"levelo://app?vid=8aaafce3-32e4-45e5-9f96-e6fe6d7e4f5b"},"vehicle_type_id":"4","last_reported":1703037985,"current_range_meters":17600,"station_id":"ce4bhp92rcd13ifvqhbg","pricing_plan_id":"free"},{"bike_id":"af2bfa4a-dd0b-4ea4-a7b9-5a41e65701bc","system_id":"levelo_inurba_marseille","lat":43.340804,"lon":5.410219,"is_reserved":false,"is_disabled":false,"rental_uris":{"android":"levelo://app?vid=af2bfa4a-dd0b-4ea4-a7b9-5a41e65701bc","ios":"levelo://app?vid=af2bfa4a-dd0b-4ea4-a7b9-5a41e65701bc"},"vehicle_type_id":"4","last_reported":1703037985,"current_range_meters":30400,"station_id":"ce4bhqh2rcd13ifvqhlg","pricing_plan_id":"free"},{"bike_id":"974dc7db-ff3c-4554-8964-132f9db52d9b","system_id":"levelo_inurba_marseille","lat":43.276092,"lon":5.395289,"is_reserved":false,"is_disabled":false,"rental_uris":{"android":"levelo://app?vid=974dc7db-ff3c-4554-8964-132f9db52d9b","ios":"levelo://app?vid=974dc7db-ff3c-4554-8964-132f9db52d9b"},"vehicle_type_id":"4","last_reported":1703037985,"current_range_meters":5200,"station_id":"","pricing_plan_id":"free"},{"bike_id":"cc6f4ccb-a02c-4c62-8f36-93c11fae1473","system_id":"levelo_inurba_marseille","lat":43.304096,"lon":5.425385,"is_reserved":false,"is_disabled":false,"rental_uris":{"android":"levelo://app?vid=cc6f4ccb-a02c-4c62-8f36-93c11fae1473","ios":"levelo://app?vid=cc6f4ccb-a02c-4c62-8f36-93c11fae1473"},"vehicle_type_id":"4","last_reported":1703037985,"current_range_meters":2000,"station_id":"ce4bhoh2rcd13ifvqh6g","pricing_plan_id":"free"},{"bike_id":"fd0dd902-7995-4994-be20-ebe58cf190f3","system_id":"levelo_inurba_marseille","lat":43.295511,"lon":5.422926,"is_reserved":false,"is_disabled":false,"rental_uris":{"android":"levelo://app?vid=fd0dd902-7995-4994-be20-ebe58cf190f3","ios":"levelo://app?vid=fd0dd902-7995-4994-be20-ebe58cf190f3"},"vehicle_type_id":"4","last_reported":1703037985,"current_range_meters":26000,"station_id":"ce4bhph2rcd13ifvqhdg","pricing_plan_id":"free"},{"bike_id":"33e9525d-ba3e-4536-91b0-71b7f8684d82","system_id":"levelo_inurba_marseille","lat":43.295523,"lon":5.422926,"is_reserved":false,"is_disabled":false,"rental_uris":{"android":"levelo://app?vid=33e9525d-ba3e-4536-91b0-71b7f8684d82","ios":"levelo://app?vid=33e9525d-ba3e-4536-91b0-71b7f8684d82"},"vehicle_type_id":"4","last_reported":1703037985,"current_range_meters":19600,"station_id":"ce4bhph2rcd13ifvqhdg","pricing_plan_id":"free"},{"bike_id":"ca314493-3848-477b-95b3-e1722a7aef04","system_id":"levelo_inurba_marseille","lat":43.295165,"lon":5.422666,"is_reserved":false,"is_disabled":false,"rental_uris":{"android":"levelo://app?vid=ca314493-3848-477b-95b3-e1722a7aef04","ios":"levelo://app?vid=ca314493-3848-477b-95b3-e1722a7aef04"},"vehicle_type_id":"4","last_reported":1703037985,"current_range_meters":12800,"station_id":"ce4bhph2rcd13ifvqhdg","pricing_plan_id":"free"},{"bike_id":"3596ffe6-624b-4dc7-9170-dafc2adf1848","system_id":"levelo_inurba_marseille","lat":43.27188,"lon":5.39224,"is_reserved":false,"is_disabled":false,"rental_uris":{"android":"levelo://app?vid=3596ffe6-624b-4dc7-9170-dafc2adf1848","ios":"levelo://app?vid=3596ffe6-624b-4dc7-9170-dafc2adf1848"},"vehicle_type_id":"4","last_reported":1703037985,"current_range_meters":8400,"station_id":"ce4bhhp2rcd13ifvqfm0","pricing_plan_id":"free"},{"bike_id":"a8fcc8a6-5665-4904-b944-4f0d966a182a","system_id":"levelo_inurba_marseille","lat":43.278128,"lon":5.407195,"is_reserved":false,"is_disabled":false,"rental_uris":{"android":"levelo://app?vid=a8fcc8a6-5665-4904-b944-4f0d966a182a","ios":"levelo://app?vid=a8fcc8a6-5665-4904-b944-4f0d966a182a"},"vehicle_type_id":"4","last_reported":1703037985,"current_range_meters":31600,"station_id":"ce4bhnh2rcd13ifvqgtg","pricing_plan_id":"free"},{"bike_id":"d384718e-2448-496e-ae14-df440692b3fa","system_id":"levelo_inurba_marseille","lat":43.278128,"lon":5.407195,"is_reserved":false,"is_disabled":false,"rental_uris":{"android":"levelo://app?vid=d384718e-2448-496e-ae14-df440692b3fa","ios":"levelo://app?vid=d384718e-2448-496e-ae14-df440692b3fa"},"vehicle_type_id":"4","last_reported":1703037985,"current_range_meters":16000,"station_id":"ce4bhnh2rcd13ifvqgtg","pricing_plan_id":"free"},{"bike_id":"d2b95e8a-c18d-44c4-ab96-4e53aa3122fa","system_id":"levelo_inurba_marseille","lat":43.278128,"lon":5.407195,"is_reserved":false,"is_disabled":false,"rental_uris":{"android":"levelo://app?vid=d2b95e8a-c18d-44c4-ab96-4e53aa3122fa","ios":"levelo://app?vid=d2b95e8a-c18d-44c4-ab96-4e53aa3122fa"},"vehicle_type_id":"4","last_reported":1703037985,"current_range_meters":3200,"station_id":"ce4bhnh2rcd13ifvqgtg","pricing_plan_id":"free"},