{"last_updated":1773270946,"ttl":60,"version":"2.2","data":{"bikes":[{"bike_id":"89d1fa59-ae62-4cc3-9579-ecd8ebb9f737","system_id":"levelo_inurba_marseille","lat":43.27841,"lon":5.39201,"is_reserved":false,"is_disabled":false,"rental_uris":{"android":"levelo://app?vid=89d1fa59-ae62-4cc3-9579-ecd8ebb9f737","ios":"levelo://app?vid=89d1fa59-ae62-4cc3-9579-ecd8ebb9f737"},"vehicle_type_id":"4","last_reported":1773270946,"current_range_meters":9200,"station_id":"ce4bhjp2rcd13ifvqga0","pricing_plan_id":"cebpf4jnsgd1na2vs0mg"},{"bike_id":"6768b180-bce9-4c1c-8522-6e9ab135b4f0","system_id":"levelo_inurba_marseille","lat":43.29046,"lon":5.3994,"is_reserved":false,"is_disabled":false,"rental_uris":{"android":"levelo://app?vid=6768b180-bce9-4c1c-8522-6e9ab135b4f0","ios":"levelo://app?vid=6768b180-bce9-4c1c-8522-6e9ab135b4f0"},"vehicle_type_id":"4","last_reported":1773270946,"current_range_meters":37600,"station_id":"ce4bh392rcd13ifvqdm0","pricing_plan_id":"cebpf4jnsgd1na2vs0mg"},{"bike_id":"e44ebc0e-01f0-45a4-a7c8-8bad86acb26d","system_id":"levelo_inurba_marseille","lat":43.28945,"lon":5.36393,"is_reserved":false,"is_disabled":false,"rental_uris":{"android":"levelo://app?vid=e44ebc0e-01f0-45a4-a7c8-8bad86acb26d","ios":"levelo://app?vid=e44ebc0e-01f0-45a4-a7c8-8bad86acb26d"},"vehicle_type_id":"4","last_reported":1773270946,"current_range_meters":40000,"station_id":"ce4bhc92rcd13ifvqetg","pricing_plan_id":"cebpf4jnsgd1na2vs0mg"},{"bike_id":"bee65f70-4238-4232-b9a1-93b8d57b8f96","system_id":"levelo_inurba_marseille","lat":43.28604,"lon":5.39875,"is_reserved":false,"is_disabled":false,"rental_uris":{"android":"levelo://app?vid=bee65f70-4238-4232-b9a1-93b8d57b8f96","ios":"levelo://app?vid=bee65f70-4238-4232-b9a1-93b8d57b8f96"},"vehicle_type_id":"4","last_reported":1773270946,"current_range_meters":10800,"station_id":"st_d4a7ka997mjs738ck50g","pricing_plan_id":"cebpf4jnsgd1na2vs0mg"},{"bike_id":"06d5bf4d-518b-443d-af7b-0b7593a559c0","system_id":"levelo_inurba_marseille","lat":43.30139,"lon":5.38783,"is_reserved":false,"is_disabled":false,"rental_uris":{"android":"levelo://app?vid=06d5bf4d-518b-443d-af7b-0b7593a559c0","ios":"levelo://app?vid=06d5bf4d-518b-443d-af7b-0b7593a559c0"},"vehicle_type_id":"4","last_reported":1773270946,"current_range_meters":33200,"station_id":"ce4bghh2rcd13ifvqb60","pricing_plan_id":"cebpf4jnsgd1na2vs0mg"},{"bike_id":"30c4f22b-f532-425d-9f66-ac38104cea9d","system_id":"levelo_inurba_marseille","lat":43.28536,"lon":5.44103,"is_reserved":false,"is_disabled":false,"rental_uris":{"android":"levelo://app?vid=30c4f22b-f532-425d-9f66-ac38104cea9d","ios":"levelo://app?vid=30c4f22b-f532-425d-9f66-ac38104cea9d"},"vehicle_type_id":"4","last_reported":1773270946,"current_range_meters":15200,"station_id":"st_d3j3df2ikq2c7380ej80","pricing_plan_id":"cebpf4jnsgd1na2vs0mg"},{"bike_id":"3d3fa552-438c-43d1-ba2f-621213653149","system_id":"levelo_inurba_marseille","lat":43.28119,"lon":5.37823,"is_reserved":false,"is_disabled":false,"rental_uris":{"android":"levelo://app?vid=3d3fa552-438c-43d1-ba2f-621213653149","ios":"levelo://app?vid=3d3fa552-438c-43d1-ba2f-621213653149"},"vehicle_type_id":"4","last_reported":1773270946,"current_range_meters":39200,"station_id":"ce4bha12rcd13ifvqee0","pricing_plan_id":"cebpf4jnsgd1na2vs0mg"},{"bike_id":"4d2ed247-c300-416c-8c6f-d2ecc9f55d1f","system_id":"levelo_inurba_marseille","lat":43.2927,"lon":5.40116,"is_reserved":false,"is_disabled":false,"rental_uris":{"android":"levelo://app?vid=4d2ed247-c300-416c-8c6f-d2ecc9f55d1f","ios":"levelo://app?vid=4d2ed247-c300-416c-8c6f-d2ecc9f55d1f"},"vehicle_type_id":"4","last_reported":1773270946,"current_range_meters":10800,"station_id":"ce4bh312rcd13ifvqdk0","pricing_plan_id":"cebpf4jnsgd1na2vs0mg"},{"bike_id":"ebe32b8b-34b1-4a29-844f-bfc9e0c7e715","system_id":"levelo_inurba_marseille","lat":43.28448,"lon":5.35873,"is_reserved":false,"is_disabled":false,"rental_uris":{"android":"levelo://app?vid=ebe32b8b-34b1-4a29-844f-bfc9e0c7e715","ios":"levelo://app?vid=ebe32b8b-34b1-4a29-844f-bfc9e0c7e715"},"vehicle_type_id":"4","last_reported":1773270946,"current_range_meters":24400,"station_id":"ce4bhah2rcd13ifvqei0","pricing_plan_id":"cebpf4jnsgd1na2vs0mg"},{"bike_id":"2dde38a6-7040-4591-b258-f00f6d384fc3","system_id":"levelo_inurba_marseille","lat":43.33019,"lon":5.39018,"is_reserved":false,"is_disabled":false,"rental_uris":{"android":"levelo://app?vid=2dde38a6-7040-4591-b258-f00f6d384fc3","ios":"levelo://app?vid=2dde38a6-7040-4591-b258-f00f6d384fc3"},"vehicle_type_id":"4","last_reported":1773270946,"current_range_meters":38400,"station_id":"ce4bhr92rcd13ifvqhrg","pricing_plan_id":"cebpf4jnsgd1na2vs0mg"},{"bike_id":"5061e64b-7a6f-416d-95f6-434ea56b6a99","system_id":"levelo_inurba_marseille","lat":43.3464,"lon":5.36722,"is_reserved":false,"is_disabled":false,"rental_uris":{"android":"levelo://app?vid=5061e64b-7a6f-416d-95f6-434ea56b6a99","ios":"levelo://app?vid=5061e64b-7a6f-416d-95f6-434ea56b6a99"},"vehicle_type_id":"4","last_reported":1773270946,"current_range_meters":27600,"station_id":"","pricing_plan_id":"cebpf4jnsgd1na2vs0mg"},{"bike_id":"5c298fe6-372f-4b3b-95ff-02114e580bd2","system_id":"levelo_inurba_marseille","lat":43.31532,"lon":5.38026,"is_reserved":false,"is_disabled":false,"rental_uris":{"android":"levelo://app?vid=5c298fe6-372f-4b3b-95ff-02114e580bd2","ios":"levelo://app?vid=5c298fe6-372f-4b3b-95ff-02114e580bd2"},"vehicle_type_id":"4","last_reported":1773270946,"current_range_meters":38400,"station_id":"ce4bhsp2rcd13ifvqi50","pricing_plan_id":"cebpf4jnsgd1na2vs0mg"},{"bike_id":"9faea34b-1c48-4a1b-8f51-2bafe5184a50","system_id":"levelo_inurba_marseille","lat":43.28478,"lon":5.48391,"is_reserved":false,"is_disabled":false,"rental_uris":{"android":"levelo://app?vid=9faea34b-1c48-4a1b-8f51-2bafe5184a50","ios":"levelo://app?vid=9faea34b-1c48-4a1b-8f51-2bafe5184a50"},"vehicle_type_id":"4","last_reported":1773270946,"current_range_meters":33200,"station_id":"st_d3svhcjqgbts73a3dn0g","pricing_plan_id":"cebpf4jnsgd1na2vs0mg"},{"bike_id":"f6aab1a6-bca6-41c1-89e6-0a624aa47df5","system_id":"levelo_inurba_marseille","lat":43.29485,"lon":5.37612,"is_reserved":false,"is_disabled":false,"rental_uris":{"android":"levelo://app?vid=f6aab1a6-bca6-41c1-89e6-0a624aa47df5","ios":"levelo://app?vid=f6aab1a6-bca6-41c1-89e6-0a624aa47df5"},"vehicle_type_id":"4","last_reported":1773270946,"current_range_meters":25600,"station_id":"","pricing_plan_id":"cebpf4jnsgd1na2vs0mg"},{"bike_id":"d427d34d-e739-4c0f-a843-74b85111544b","system_id":"levelo_inurba_marseille","lat":43.33138,"lon":5.37734,"is_reserved":false,"is_disabled":false,"rental_uris":{"android":"levelo://app?vid=d427d34d-e739-4c0f-a843-74b85111544b","ios":"levelo://app?vid=d427d34d-e739-4c0f-a843-74b85111544b"},"vehicle_type_id":"4","last_reported":1773270946,"current_range_meters":24800,"station_id":"","pricing_plan_id":"cebpf4jnsgd1na2vs0mg"},{"bike_id":"9315b6b2-babf-4aeb-b7cd-e35eb9bf53cd","system_id":"levelo_inurba_marseille","lat":43.28754,"lon":5.383,"is_reserved":false,"is_disabled":true,"rental_uris":{"android":"levelo://app?vid=9315b6b2-babf-4aeb-b7cd-e35eb9bf53cd","ios":"levelo://app?vid=9315b6b2-babf-4aeb-b7cd-e35eb9bf53cd"},"vehicle_type_id":"4","last_reported":1773270946,"current_range_meters":37600,"station_id":"","pricing_plan_id":"cebpf4jnsgd1na2vs0mg"},{"bike_id":"6d331a83-28a7-4754-bf56-1eec6384f11e","system_id":"levelo_inurba_marseille","lat":43.31498,"lon":5.37327,"is_reserved":false,"is_disabled":true,"rental_uris":{"android":"levelo://app?vid=6d331a83-28a7-4754-bf56-1eec6384f11e","ios":"levelo://app?vid=6d331a83-28a7-4754-bf56-1eec6384f11e"},"vehicle_type_id":"4","last_reported":1773270946,"current_range_meters":8000,"station_id":"ce4bgt12rcd13ifvqcd0","pricing_plan_id":"cebpf4jnsgd1na2vs0mg"},{"bike_id":"c943c8f2-fd97-497f-b02c-47e60712859d","system_id":"levelo_inurba_marseille","lat":43.25832,"lon":5.39441,"is_reserved":false,"is_disabled":false,"rental_uris":{"android":"levelo://app?vid=c943c8f2-fd97-497f-b02c-47e60712859d","ios":"levelo://app?vid=c943c8f2-fd97-497f-b02c-47e60712859d"},"vehicle_type_id":"4","last_reported":1773270946,"current_range_meters":26000,"station_id":"ce4bhip2rcd13ifvqft0","pricing_plan_id":"cebpf4jnsgd1na2vs0mg"},{"bike_id":"56c68e25-4665-4a2d-a0c8-6e5c0e7586df","system_id":"levelo_inurba_marseille","lat":43.28461,"lon":5.35907,"is_reserved":false,"is_disabled":false,"rental_uris":{"android":"levelo://app?vid=56c68e25-4665-4a2d-a0c8-6e5c0e7586df","ios":"levelo://app?vid=56c68e25-4665-4a2d-a0c8-6e5c0e7586df"},"vehicle_type_id":"4","last_reported":1773270946,"current_range_meters":9600,"station_id":"ce4bhah2rcd13ifvqei0","pricing_plan_id":"cebpf4jnsgd1na2vs0mg"},{"bike_id":"eddd78b7-791b-4491-a468-96f474cfeb56","system_id":"levelo_inurba_marseille","lat":43.29262,"lon":5.40155,"is_reserved":false,"is_disabled":false,"rental_uris":{"android":"levelo://app?vid=eddd78b7-791b-4491-a468-96f474cfeb56","ios":"levelo://app?vid=eddd78b7-791b-4491-a468-96f474cfeb56"},"vehicle_type_id":"4","last_reported":1773270946,"current_range_meters":27200,"station_id":"ce4bh312rcd13ifvqdk0","pricing_plan_id":"cebpf4jnsgd1na2vs0mg"},{"bike_id":"63aca6ef-d155-4097-bdd2-67385409e872","system_id":"levelo_inurba_marseille","lat":43.30081,"lon":5.3865,"is_reserved":false,"is_disabled":false,"rental_uris":{"android":"levelo://app?vid=63aca6ef-d155-4097-bdd2-67385409e872","ios":"levelo://app?vid=63aca6ef-d155-4097-bdd2-67385409e872"},"vehicle_type_id":"4","last_reported":1773270946,"current_range_meters":5600,"station_id":"","pricing_plan_id":"cebpf4jnsgd1na2vs0mg"},{"bike_id":"6817a9da-9214-48d8-a346-d5c658bb35d2","system_id":"levelo_inurba_marseille","lat":43.29719,"lon":5.37673,"is_reserved":false,"is_disabled":false,"rental_uris":{"android":"levelo://app?vid=6817a9da-9214-48d8-a346-d5c658bb35d2","ios":"levelo://app?vid=6817a9da-9214-48d8-a346-d5c658bb35d2"},"vehicle_type_id":"4","last_reported":1773270946,"current_range_meters":21600,"station_id":"ce4bgkh2rcd13ifvqbl0","pricing_plan_id":"cebpf4jnsgd1na2vs0mg"},{"bike_id":"45df21b1-9e7e-479d-b0dd-e7327dfa836b","system_id":"levelo_inurba_marseille","lat":43.29775,"lon":5.392,"is_reserved":false,"is_disabled":false,"rental_uris":{"android":"levelo://app?vid=45df21b1-9e7e-479d-b0dd-e7327dfa836b","ios":"levelo://app?vid=45df21b1-9e7e-479d-b0dd-e7327dfa836b"},"vehicle_type_id":"4","last_reported":1773270946,"current_range_meters":30400,"station_id":"","pricing_plan_id":"cebpf4jnsgd1na2vs0mg"},{"bike_id":"b93a357c-54e0-4442-be00-cbc58767907f","system_id":"levelo_inurba_marseille","lat":43.32063,"lon":5.41551,"is_reserved":false,"is_disabled":false,"rental_uris":{"android":"levelo://app?vid=b93a357c-54e0-4442-be00-cbc58767907f","ios":"levelo://app?vid=b93a357c-54e0-4442-be00-cbc58767907f"},"vehicle_type_id":"4","last_reported":1773270946,"current_range_meters":36800,"station_id":"ce4bhq92rcd13ifvqhkg","pricing_plan_id":"cebpf4jnsgd1na2vs0mg"},{"bike_id":"c1ec77a3-84f4-47db-94b6-6aec401b4b2a","system_id":"levelo_inurba_marseille","lat":43.29591,"lon":5.3811,"is_reserved":false,"is_disabled":false,"rental_uris":{"android":"levelo://app?vid=c1ec77a3-84f4-47db-94b6-6aec401b4b2a","ios":"levelo://app?vid=c1ec77a3-84f4-47db-94b6-6aec401b4b2a"},"vehicle_type_id":"4","last_reported":1773270946,"current_range_meters":19200,"station_id":"ce4bgl12rcd13ifvqbo0","pricing_plan_id":"cebpf4jnsgd1na2vs0mg"},{"bike_id":"eb3dc260-13f4-4cf1-9ff3-a06b05abbcb6","system_id":"levelo_inurba_marseille","lat":43.28101,"lon":5.37834,"is_reserved":false,"is_disabled":false,"rental_uris":{"android":"levelo://app?vid=eb3dc260-13f4-4cf1-9ff3-a06b05abbcb6","ios":"levelo://app?vid=eb3dc260-13f4-4cf1-9ff3-a06b05abbcb6"},"vehicle_type_id":"4","last_reported":1773270946,"current_range_meters":19200,"station_id":"ce4bha12rcd13ifvqee0","pricing_plan_id":"cebpf4jnsgd1na2vs0mg"},{"bike_id":"55bcc017-9e41-40f3-a9de-397b47690482","system_id":"levelo_inurba_marseille","lat":43.32642,"lon":5.41015,"is_reserved":false,"is_disabled":false,"rental_uris":{"android":"levelo://app?vid=55bcc017-9e41-40f3-a9de-397b47690482","ios":"levelo://app?vid=55bcc017-9e41-40f3-a9de-397b47690482"},"vehicle_type_id":"4","last_reported":1773270946,"current_range_meters":38800,"station_id":"ce4bhpp2rcd13ifvqhgg","pricing_plan_id":"cebpf4jnsgd1na2vs0mg"},{"bike_id":"0fac1ee2-7b00-493e-80ea-8b4c3c2d6dd6","system_id":"levelo_inurba_marseille","lat":43.27928,"lon":5.3958,"is_reserved":false,"is_disabled":false,"rental_uris":{"android":"levelo://app?vid=0fac1ee2-7b00-493e-80ea-8b4c3c2d6dd6","ios":"levelo://app?vid=0fac1ee2-7b00-493e-80ea-8b4c3c2d6dd6"},"vehicle_type_id":"4","last_reported":1773270946,"current_range_meters":35200,"station_id":"ce4bhf92rcd13ifvqf40","pricing_plan_id":"cebpf4jnsgd1na2vs0mg"},{"bike_id":"ed701d5d-010e-43b3-aff1-bb3197aa0d5a","system_id":"levelo_inurba_marseille","lat":43.30353,"lon":5.4188,"is_reserved":false,"is_disabled":false,"rental_uris":{"android":"levelo://app?vid=ed701d5d-010e-43b3-aff1-bb3197aa0d5a","ios":"levelo://app?vid=ed701d5d-010e-43b3-aff1-bb3197aa0d5a"},"vehicle_type_id":"4","last_reported":1773270946,"current_range_meters":39200,"station_id":"ce4bhop2rcd13ifvqh7g","pricing_plan_id":"cebpf4jnsgd1na2vs0mg"},{"bike_id":"f18a97ed-e43a-4a4a-9a1c-f27f3fa368f5","system_id":"levelo_inurba_marseille","lat":43.27956,"lon":5.41056,"is_reserved":false,"is_disabled":false,"rental_uris":{"android":"levelo://app?vid=f18a97ed-e43a-4a4a-9a1c-f27f3fa368f5","ios":"levelo://app?vid=f18a97ed-e43a-4a4a-9a1c-f27f3fa368f5"},"vehicle_type_id":"4","last_reported":1773270946,"current_range_meters":19200,"station_id":"ce4bhnp2rcd13ifvqh0g","pricing_plan_id":"cebpf4jnsgd1na2vs0mg"},{"bike_id":"dff113db-6a7a-461e-b72f-90f51c696866","system_id":"levelo_inurba_marseille","lat":43.31063,"lon":5.4242,"is_reserved":false,"is_disabled":false,"rental_uris":{"android":"levelo://app?vid=dff113db-6a7a-461e-b72f-90f51c696866","ios":"levelo://app?vid=dff113db-6a7a-461e-b72f-90f51c696866"},"vehicle_type_id":"4","last_reported":1773270946,"current_range_meters":31200,"station_id":"ce4bhp92rcd13ifvqhag","pricing_plan_id":"cebpf4jnsgd1na2vs0mg"},{"bike_id":"2910c25c-8e17-4198-83e3-9b82182f5216","system_id":"levelo_inurba_marseille","lat":43.24158,"lon":5.36422,"is_reserved":false,"is_disabled":false,"rental_uris":{"android":"levelo://app?vid=2910c25c-8e17-4198-83e3-9b82182f5216","ios":"levelo://app?vid=2910c25c-8e17-4198-83e3-9b82182f5216"},"vehicle_type_id":"4","last_reported":1773270946,"current_range_meters":31200,"station_id":"cpo36qri1sfpv3e86is0","pricing_plan_id":"cebpf4jnsgd1na2vs0mg"},{"bike_id":"b4c5f4b8-a1ad-40fa-afb2-512ebcf9ac7a","system_id":"levelo_inurba_marseille","lat":43.30143,"lon":5.38773,"is_reserved":false,"is_disabled":true,"rental_uris":{"android":"levelo://app?vid=b4c5f4b8-a1ad-40fa-afb2-512ebcf9ac7a","ios":"levelo://app?vid=b4c5f4b8-a1ad-40fa-afb2-512ebcf9ac7a"},"vehicle_type_id":"4","last_reported":1773270946,"current_range_meters":34000,"station_id":"ce4bghh2rcd13ifvqb60","pricing_plan_id":"cebpf4jnsgd1na2vs0mg"},{"bike_id":"9c251fdd-ca74-4c8d-8d71-2df5ef872bbc","system_id":"levelo_inurba_marseille","lat":43.2447,"lon":5.42536,"is_reserved":false,"is_disabled":false,"rental_uris":{"android":"levelo://app?vid=9c251fdd-ca74-4c8d-8d71-2df5ef872bbc","ios":"levelo://app?vid=9c251fdd-ca74-4c8d-8d71-2df5ef872bbc"},"vehicle_type_id":"4","last_reported":1773270946,"current_range_meters":28000,"station_id":"st_d4a3vfp97mjs738cd8kg","pricing_plan_id":"cebpf4jnsgd1na2vs0mg"},{"bike_id":"920eab66-768a-4f43-a73f-009330a788c2","system_id":"levelo_inurba_marseille","lat":43.30252,"lon":5.40054,"is_reserved":false,"is_disabled":false,"rental_uris":{"android":"levelo://app?vid=920eab66-768a-4f43-a73f-009330a788c2","ios":"levelo://app?vid=920eab66-768a-4f43-a73f-009330a788c2"},"vehicle_type_id":"4","last_reported":1773270946,"current_range_meters":14000,"station_id":"ce4bgvh2rcd13ifvqcs0","pricing_plan_id":"cebpf4jnsgd1na2vs0mg"},{"bike_id":"22048dba-791d-40fe-8f4b-149144b0d986","system_id":"levelo_inurba_marseille","lat":43.30179,"lon":5.36632,"is_reserved":false,"is_disabled":false,"rental_uris":{"android":"levelo://app?vid=22048dba-791d-40fe-8f4b-149144b0d986","ios":"levelo://app?vid=22048dba-791d-40fe-8f4b-149144b0d986"},"vehicle_type_id":"4","last_reported":1773270946,"current_range_meters":19200,"station_id":"ce4bgrh2rcd13ifvqc8g","pricing_plan_id":"cebpf4jnsgd1na2vs0mg"},{"bike_id":"685652b3-4e5a-4f02-9096-367949dc6676","system_id":"levelo_inurba_marseille","lat":43.29595,"lon":5.3769,"is_reserved":false,"is_disabled":false,"rental_uris":{"android":"levelo://app?vid=685652b3-4e5a-4f02-9096-367949dc6676","ios":"levelo://app?vid=685652b3-4e5a-4f02-9096-367949dc6676"},"vehicle_type_id":"4","last_reported":1773270946,"current_range_meters":32000,"station_id":"ce4bgi92rcd13ifvqb90","pricing_plan_id":"cebpf4jnsgd1na2vs0mg"},{"bike_id":"cfdcc226-98a9-40cc-ab94-5dcbeb67234b","system_id":"levelo_inurba_marseille","lat":43.29922,"lon":5.37494,"is_reserved":false,"is_disabled":false,"rental_uris":{"android":"levelo://app?vid=cfdcc226-98a9-40cc-ab94-5dcbeb67234b","ios":"levelo://app?vid=cfdcc226-98a9-40cc-ab94-5dcbeb67234b"},"vehicle_type_id":"4","last_reported":1773270946,"current_range_meters":32000,"station_id":"ce4bgjh2rcd13ifvqbg0","pricing_plan_id":"cebpf4jnsgd1na2vs0mg"},{"bike_id":"c2441c59-7373-49a0-a4bd-68048c9164f3","system_id":"levelo_inurba_marseille","lat":43.25334,"lon":5.42199,"is_reserved":false,"is_disabled":false,"rental_uris":{"android":"levelo://app?vid=c2441c59-7373-49a0-a4bd-68048c9164f3","ios":"levelo://app?vid=c2441c59-7373-49a0-a4bd-68048c9164f3"},"vehicle_type_id":"4","last_reported":1773270946,"current_range_meters":30000,"station_id":"st_d2m65c5bi1j21697t3ng","pricing_plan_id":"cebpf4jnsgd1na2vs0mg"},{"bike_id":"182982c2-ad4b-4720-99b5-ac2ca378f95a","system_id":"levelo_inurba_marseille","lat":43.24674,"lon":5.38158,"is_reserved":false,"is_disabled":false,"rental_uris":{"android":"levelo://app?vid=182982c2-ad4b-4720-99b5-ac2ca378f95a","ios":"levelo://app?vid=182982c2-ad4b-4720-99b5-ac2ca378f95a"},"vehicle_type_id":"4","last_reported":1773270946,"current_range_meters":39200,"station_id":"ce4bhih2rcd13ifvqfr0","pricing_plan_id":"cebpf4jnsgd1na2vs0mg"},{"bike_id":"41834bd0-65ff-485a-b7be-49ad004e4f13","system_id":"levelo_inurba_marseille","lat":43.2534,"lon":5.42165,"is_reserved":false,"is_disabled":false,"rental_uris":{"android":"levelo://app?vid=41834bd0-65ff-485a-b7be-49ad004e4f13","ios":"levelo://app?vid=41834bd0-65ff-485a-b7be-49ad004e4f13"},"vehicle_type_id":"4","last_reported":1773270946,"current_range_meters":12400,"station_id":"st_d2m65c5bi1j21697t3ng","pricing_plan_id":"cebpf4jnsgd1na2vs0mg"},{"bike_id":"2d139dbe-4a51-46ac-bf7e-5e630dc6608b","system_id":"levelo_inurba_marseille","lat":43.30953,"lon":5.38298,"is_reserved":false,"is_disabled":false,"rental_uris":{"android":"levelo://app?vid=2d139dbe-4a51-46ac-bf7e-5e630dc6608b","ios":"levelo://app?vid=2d139dbe-4a51-46ac-bf7e-5e630dc6608b"},"vehicle_type_id":"4","last_reported":1773270946,"current_range_meters":17200,"station_id":"","pricing_plan_id":"cebpf4jnsgd1na2vs0mg"},{"bike_id":"a983c60c-0cf3-463e-837f-b2230284e269","system_id":"levelo_inurba_marseille","lat":43.29612,"lon":5.37744,"is_reserved":false,"is_disabled":false,"rental_uris":{"android":"levelo://app?vid=a983c60c-0cf3-463e-837f-b2230284e269","ios":"levelo://app?vid=a983c60c-0cf3-463e-837f-b2230284e269"},"vehicle_type_id":"4","last_reported":1773270946,"current_range_meters":26800,"station_id":"ce4bgi92rcd13ifvqb90","pricing_plan_id":"cebpf4jnsgd1na2vs0mg"},{"bike_id":"1203a036-e28c-4847-b52e-5b6c307c477b","system_id":"levelo_inurba_marseille","lat":43.33154,"lon":5.37705,"is_reserved":false,"is_disabled":false,"rental_uris":{"android":"levelo://app?vid=1203a036-e28c-4847-b52e-5b6c307c477b","ios":"levelo://app?vid=1203a036-e28c-4847-b52e-5b6c307c477b"},"vehicle_type_id":"4","last_reported":1773270946,"current_range_meters":8400,"station_id":"st_d46cu089ee8s73dldbu0","pricing_plan_id":"cebpf4jnsgd1na2vs0mg"},{"bike_id":"17ce7070-d813-4eaf-a544-6259968aa271","system_id":"levelo_inurba_marseille","lat":43.31169,"lon":5.36912,"is_reserved":false,"is_disabled":false,"rental_uris":{"android":"levelo://app?vid=17ce7070-d813-4eaf-a544-6259968aa271","ios":"levelo://app?vid=17ce7070-d813-4eaf-a544-6259968aa271"},"vehicle_type_id":"4","last_reported":1773270946,"current_range_meters":8000,"station_id":"","pricing_plan_id":"cebpf4jnsgd1na2vs0mg"},{"bike_id":"149775d8-c772-45f9-afbd-6e4a652723d7","system_id":"levelo_inurba_marseille","lat":43.337444,"lon":5.374475,"is_reserved":false,"is_disabled":true,"rental_uris":{"android":"levelo://app?vid=149775d8-c772-45f9-afbd-6e4a652723d7","ios":"levelo://app?vid=149775d8-c772-45f9-afbd-6e4a652723d7"},"vehicle_type_id":"4","last_reported":1773270946,"current_range_meters":4000,"station_id":"","pricing_plan_id":"cebpf4jnsgd1na2vs0mg"},{"bike_id":"5b982e73-93cb-4774-a2c5-3fb863897aff","system_id":"levelo_inurba_marseille","lat":43.30207,"lon":5.39481,"is_reserved":false,"is_disabled":false,"rental_uris":{"android":"levelo://app?vid=5b982e73-93cb-4774-a2c5-3fb863897aff","ios":"levelo://app?vid=5b982e73-93cb-4774-a2c5-3fb863897aff"},"vehicle_type_id":"4","last_reported":1773270946,"current_range_meters":39200,"station_id":"ce4bh0p2rcd13ifvqd70","pricing_plan_id":"cebpf4jnsgd1na2vs0mg"},{"bike_id":"84edac93-97f0-4f16-980c-7e1b057bc44a","system_id":"levelo_inurba_marseille","lat":43.25828,"lon":5.39415,"is_reserved":false,"is_disabled":false,"rental_uris":{"android":"levelo://app?vid=84edac93-97f0-4f16-980c-7e1b057bc44a","ios":"levelo://app?vid=84edac93-97f0-4f16-980c-7e1b057bc44a"},"vehicle_type_id":"4","last_reported":1773270946,"current_range_meters":25200,"station_id":"ce4bhip2rcd13ifvqft0","pricing_plan_id":"cebpf4jnsgd1na2vs0mg"},{"bike_id":"16ced00d-b75b-480f-bfe3-587817c52078","system_id":"levelo_inurba_marseille","lat":43.24633,"lon":5.38922,"is_reserved":false,"is_disabled":false,"rental_uris":{"android":"levelo://app?vid=16ced00d-b75b-480f-bfe3-587817c52078","ios":"levelo://app?vid=16ced00d-b75b-480f-bfe3-587817c52078"},"vehicle_type_id":"4","last_reported":1773270946,"current_range_meters":37600,"station_id":"ce4bhg12rcd13ifvqf60","pricing_plan_id":"cebpf4jnsgd1na2vs0mg"},{"bike_id":"27861645-d5eb-4817-a0ae-26e334136522","system_id":"levelo_inurba_marseille","lat":43.28356,"lon":5.38101,"is_reserved":false,"is_disabled":false,"rental_uris":{"android":"levelo://app?vid=27861645-d5eb-4817-a0ae-26e334136522","ios":"levelo://app?vid=27861645-d5eb-4817-a0ae-26e334136522"},"vehicle_type_id":"4","last_reported":1773270946,"current_range_meters":8000,"station_id":"ce4bh412rcd13ifvqdr0","pricing_plan_id":"cebpf4jnsgd1na2vs0mg"},{"bike_id":"566d1d1a-0852-4e0d-907b-e1334e0d6bf9","system_id":"levelo_inurba_marseille","lat":43.23784,"lon":5.36621,"is_reserved":false,"is_disabled":false,"rental_uris":{"android":"levelo://app?vid=566d1d1a-0852-4e0d-907b-e1334e0d6bf9","ios":"levelo://app?vid=566d1d1a-0852-4e0d-907b-e1334e0d6bf9"},"vehicle_type_id":"4","last_reported":1773270946,"current_range_meters":39200,"station_id":"st_d3nk18o9ro0c73en2l3g","pricing_plan_id":"cebpf4jnsgd1na2vs0mg"},{"bike_id":"ba4d6291-f191-48b7-a6a8-ceee01b66f96","system_id":"levelo_inurba_marseille","lat":43.28112,"lon":5.38259,"is_reserved":false,"is_disabled":false,"rental_uris":{"android":"levelo://app?vid=ba4d6291-f191-48b7-a6a8-ceee01b66f96","ios":"levelo://app?vid=ba4d6291-f191-48b7-a6a8-ceee01b66f96"},"vehicle_type_id":"4","last_reported":1773270946,"current_range_meters":19600,"station_id":"","pricing_plan_id":"cebpf4jnsgd1na2vs0mg"},{"bike_id":"1d184e7b-b9ab-48c7-a958-311d7c32192b","system_id":"levelo_inurba_marseille","lat":43.2869,"lon":5.37947,"is_reserved":false,"is_disabled":false,"rental_uris":{"android":"levelo://app?vid=1d184e7b-b9ab-48c7-a958-311d7c32192b","ios":"levelo://app?vid=1d184e7b-b9ab-48c7-a958-311d7c32192b"},"vehicle_type_id":"4","last_reported":1773270946,"current_range_meters":31200,"station_id":"ce4bh9p2rcd13ifvqec0","pricing_plan_id":"cebpf4jnsgd1na2vs0mg"},{"bike_id":"f96117d6-7d22-4b57-9564-78f617580e63","system_id":"levelo_inurba_marseille","lat":43.29181,"lon":5.35817,"is_reserved":false,"is_disabled":false,"rental_uris":{"android":"levelo://app?vid=f96117d6-7d22-4b57-9564-78f617580e63","ios":"levelo://app?vid=f96117d6-7d22-4b57-9564-78f617580e63"},"vehicle_type_id":"4","last_reported":1773270946,"current_range_meters":16800,"station_id":"ce4bhb12rcd13ifvqel0","pricing_plan_id":"cebpf4jnsgd1na2vs0mg"},{"bike_id":"02ffd4f8-78d0-4f83-92f5-2d0d7babe79f","system_id":"levelo_inurba_marseille","lat":43.30642,"lon":5.40082,"is_reserved":false,"is_disabled":false,"rental_uris":{"android":"levelo://app?vid=02ffd4f8-78d0-4f83-92f5-2d0d7babe79f","ios":"levelo://app?vid=02ffd4f8-78d0-4f83-92f5-2d0d7babe79f"},"vehicle_type_id":"4","last_reported":1773270946,"current_range_meters":8000,"station_id":"ce4bh112rcd13ifvqda0","pricing_plan_id":"cebpf4jnsgd1na2vs0mg"},{"bike_id":"1c573354-cf53-44d3-9111-eb37080df88e","system_id":"levelo_inurba_marseille","lat":43.31569,"lon":5.37392,"is_reserved":false,"is_disabled":false,"rental_uris":{"android":"levelo://app?vid=1c573354-cf53-44d3-9111-eb37080df88e","ios":"levelo://app?vid=1c573354-cf53-44d3-9111-eb37080df88e"},"vehicle_type_id":"4","last_reported":1773270946,"current_range_meters":15200,"station_id":"","pricing_plan_id":"cebpf4jnsgd1na2vs0mg"},{"bike_id":"74ac0a3e-5d07-4a64-ace3-8c1c26f2feff","system_id":"levelo_inurba_marseille","lat":43.30906,"lon":5.36849,"is_reserved":false,"is_disabled":true,"rental_uris":{"android":"levelo://app?vid=74ac0a3e-5d07-4a64-ace3-8c1c26f2feff","ios":"levelo://app?vid=74ac0a3e-5d07-4a64-ace3-8c1c26f2feff"},"vehicle_type_id":"4","last_reported":1773270946,"current_range_meters":39200,"station_id":"ce4bgn92rcd13ifvqbvg","pricing_plan_id":"cebpf4jnsgd1na2vs0mg"},{"bike_id":"a5488d65-566e-4618-8b27-f7b8c4578db2","system_id":"levelo_inurba_marseille","lat":43.23192,"lon":5.39984,"is_reserved":false,"is_disabled":false,"rental_uris":{"android":"levelo://app?vid=a5488d65-566e-4618-8b27-f7b8c4578db2","ios":"levelo://app?vid=a5488d65-566e-4618-8b27-f7b8c4578db2"},"vehicle_type_id":"4","last_reported":1773270946,"current_range_meters":39200,"station_id":"ce4bhn12rcd13ifvqgqg","pricing_plan_id":"cebpf4jnsgd1na2vs0mg"},{"bike_id":"969b32d1-6601-49f4-ad5b-5870b4d098ed","system_id":"levelo_inurba_marseille","lat":43.25579,"lon":5.38226,"is_reserved":false,"is_disabled":false,"rental_uris":{"android":"levelo://app?vid=969b32d1-6601-49f4-ad5b-5870b4d098ed","ios":"levelo://app?vid=969b32d1-6601-49f4-ad5b-5870b4d098ed"},"vehicle_type_id":"4","last_reported":1773270946,"current_range_meters":24800,"station_id":"ce4bhih2rcd13ifvqfs0","pricing_plan_id":"cebpf4jnsgd1na2vs0mg"},{"bike_id":"c33732c3-34b3-43cf-9550-258c10091c04","system_id":"levelo_inurba_marseille","lat":43.31431,"lon":5.37236,"is_reserved":false,"is_disabled":false,"rental_uris":{"android":"levelo://app?vid=c33732c3-34b3-43cf-9550-258c10091c04","ios":"levelo://app?vid=c33732c3-34b3-43cf-9550-258c10091c04"},"vehicle_type_id":"4","last_reported":1773270946,"current_range_meters":36800,"station_id":"","pricing_plan_id":"cebpf4jnsgd1na2vs0mg"},{"bike_id":"03e5cd96-a287-4389-8f35-9081662224a5","system_id":"levelo_inurba_marseille","lat":43.28832,"lon":5.35862,"is_reserved":false,"is_disabled":false,"rental_uris":{"android":"levelo://app?vid=03e5cd96-a287-4389-8f35-9081662224a5","ios":"levelo://app?vid=03e5cd96-a287-4389-8f35-9081662224a5"},"vehicle_type_id":"4","last_reported":1773270946,"current_range_meters":17200,"station_id":"ce4bhb12rcd13ifvqem0","pricing_plan_id":"cebpf4jnsgd1na2vs0mg"},{"bike_id":"774246e5-6c3b-412d-b7de-13468189fb2d","system_id":"levelo_inurba_marseille","lat":43.29736,"lon":5.380232,"is_reserved":false,"is_disabled":false,"rental_uris":{"android":"levelo://app?vid=774246e5-6c3b-412d-b7de-13468189fb2d","ios":"levelo://app?vid=774246e5-6c3b-412d-b7de-13468189fb2d"},"vehicle_type_id":"4","last_reported":1773270946,"current_range_meters":28800,"station_id":"ce4bgip2rcd13ifvqbb0","pricing_plan_id":"cebpf4jnsgd1na2vs0mg"},{"bike_id":"c0f5bd4a-cbc2-427a-92f0-0be45de4abfd","system_id":"levelo_inurba_marseille","lat":43.28538,"lon":5.44107,"is_reserved":false,"is_disabled":false,"rental_uris":{"android":"levelo://app?vid=c0f5bd4a-cbc2-427a-92f0-0be45de4abfd","ios":"levelo://app?vid=c0f5bd4a-cbc2-427a-92f0-0be45de4abfd"},"vehicle_type_id":"4","last_reported":1773270946,"current_range_meters":4000,"station_id":"st_d3j3df2ikq2c7380ej80","pricing_plan_id":"cebpf4jnsgd1na2vs0mg"},{"bike_id":"98a69b82-3426-4662-b314-8ddb62a05de5","system_id":"levelo_inurba_marseille","lat":43.30068,"lon":5.43721,"is_reserved":false,"is_disabled":false,"rental_uris":{"android":"levelo://app?vid=98a69b82-3426-4662-b314-8ddb62a05de5","ios":"levelo://app?vid=98a69b82-3426-4662-b314-8ddb62a05de5"},"vehicle_type_id":"4","last_reported":1773270946,"current_range_meters":24000,"station_id":"","pricing_plan_id":"cebpf4jnsgd1na2vs0mg"},{"bike_id":"c6c0ebab-0295-4a0b-844e-e34d619beca3","system_id":"levelo_inurba_marseille","lat":43.23199,"lon":5.39984,"is_reserved":false,"is_disabled":false,"rental_uris":{"android":"levelo://app?vid=c6c0ebab-0295-4a0b-844e-e34d619beca3","ios":"levelo://app?vid=c6c0ebab-0295-4a0b-844e-e34d619beca3"},"vehicle_type_id":"4","last_reported":1773270946,"current_range_meters":36400,"station_id":"ce4bhn12rcd13ifvqgqg","pricing_plan_id":"cebpf4jnsgd1na2vs0mg"},{"bike_id":"86316f23-48af-47c9-9efb-f042c127ce18","system_id":"levelo_inurba_marseille","lat":43.30212,"lon":5.39465,"is_reserved":false,"is_disabled":false,"rental_uris":{"android":"levelo://app?vid=86316f23-48af-47c9-9efb-f042c127ce18","ios":"levelo://app?vid=86316f23-48af-47c9-9efb-f042c127ce18"},"vehicle_type_id":"4","last_reported":1773270946,"current_range_meters":9200,"station_id":"ce4bh0p2rcd13ifvqd70","pricing_plan_id":"cebpf4jnsgd1na2vs0mg"},{"bike_id":"a5eb7e2e-f45f-42c7-8ba3-bf76c2472338","system_id":"levelo_inurba_marseille","lat":43.30207,"lon":5.39438,"is_reserved":false,"is_disabled":false,"rental_uris":{"android":"levelo://app?vid=a5eb7e2e-f45f-42c7-8ba3-bf76c2472338","ios":"levelo://app?vid=a5eb7e2e-f45f-42c7-8ba3-bf76c2472338"},"vehicle_type_id":"4","last_reported":1773270946,"current_range_meters":22400,"station_id":"ce4bh0p2rcd13ifvqd70","pricing_plan_id":"cebpf4jnsgd1na2vs0mg"},{"bike_id":"a6bf6a0e-804b-4f95-903f-d306eb4acdb5","system_id":"levelo_inurba_marseille","lat":43.30216,"lon":5.37073,"is_reserved":false,"is_disabled":false,"rental_uris":{"android":"levelo://app?vid=a6bf6a0e-804b-4f95-903f-d306eb4acdb5","ios":"levelo://app?vid=a6bf6a0e-804b-4f95-903f-d306eb4acdb5"},"vehicle_type_id":"4","last_reported":1773270946,"current_range_meters":38000,"station_id":"","pricing_plan_id":"cebpf4jnsgd1na2vs0mg"},{"bike_id":"7e1abbe1-756e-46e7-ba29-550f152b4425","system_id":"levelo_inurba_marseille","lat":43.29318,"lon":5.37146,"is_reserved":false,"is_disabled":true,"rental_uris":{"android":"levelo://app?vid=7e1abbe1-756e-46e7-ba29-550f152b4425","ios":"levelo://app?vid=7e1abbe1-756e-46e7-ba29-550f152b4425"},"vehicle_type_id":"4","last_reported":1773270946,"current_range_meters":39200,"station_id":"ce4bgh92rcd13ifvqb40","pricing_plan_id":"cebpf4jnsgd1na2vs0mg"},{"bike_id":"38dbf5c5-7b3b-4110-912e-b9968c019577","system_id":"levelo_inurba_marseille","lat":43.31323,"lon":5.39702,"is_reserved":false,"is_disabled":false,"rental_uris":{"android":"levelo://app?vid=38dbf5c5-7b3b-4110-912e-b9968c019577","ios":"levelo://app?vid=38dbf5c5-7b3b-4110-912e-b9968c019577"},"vehicle_type_id":"4","last_reported":1773270946,"current_range_meters":38400,"station_id":"ce4bgvp2rcd13ifvqcu0","pricing_plan_id":"cebpf4jnsgd1na2vs0mg"},{"bike_id":"bab2e5a2-c939-475b-a84c-18023a665078","system_id":"levelo_inurba_marseille","lat":43.27551,"lon":5.38421,"is_reserved":false,"is_disabled":false,"rental_uris":{"android":"levelo://app?vid=bab2e5a2-c939-475b-a84c-18023a665078","ios":"levelo://app?vid=bab2e5a2-c939-475b-a84c-18023a665078"},"vehicle_type_id":"4","last_reported":1773270946,"current_range_meters":7200,"station_id":"ce4bhh92rcd13ifvqfi0","pricing_plan_id":"cebpf4jnsgd1na2vs0mg"},{"bike_id":"7272f0fa-7b62-4f37-b37e-da1481ef307c","system_id":"levelo_inurba_marseille","lat":43.30951,"lon":5.39036,"is_reserved":false,"is_disabled":false,"rental_uris":{"android":"levelo://app?vid=7272f0fa-7b62-4f37-b37e-da1481ef307c","ios":"levelo://app?vid=7272f0fa-7b62-4f37-b37e-da1481ef307c"},"vehicle_type_id":"4","last_reported":1773270946,"current_range_meters":17200,"station_id":"ce4bgup2rcd13ifvqco0","pricing_plan_id":"cebpf4jnsgd1na2vs0mg"},{"bike_id":"05e6bf88-7186-450c-bdbe-c79ec1bfcaf0","system_id":"levelo_inurba_marseille","lat":43.29276,"lon":5.40094,"is_reserved":false,"is_disabled":false,"rental_uris":{"android":"levelo://app?vid=05e6bf88-7186-450c-bdbe-c79ec1bfcaf0","ios":"levelo://app?vid=05e6bf88-7186-450c-bdbe-c79ec1bfcaf0"},"vehicle_type_id":"4","last_reported":1773270946,"current_range_meters":8800,"station_id":"ce4bh312rcd13ifvqdk0","pricing_plan_id":"cebpf4jnsgd1na2vs0mg"},{"bike_id":"9742faba-d8f0-4e78-84a4-7b1f0d90d2b9","system_id":"levelo_inurba_marseille","lat":43.28424,"lon":5.34991,"is_reserved":false,"is_disabled":true,"rental_uris":{"android":"levelo://app?vid=9742faba-d8f0-4e78-84a4-7b1f0d90d2b9","ios":"levelo://app?vid=9742faba-d8f0-4e78-84a4-7b1f0d90d2b9"},"vehicle_type_id":"4","last_reported":1773270946,"current_range_meters":22800,"station_id":"ce4bhbh2rcd13ifvqepg","pricing_plan_id":"cebpf4jnsgd1na2vs0mg"},{"bike_id":"3d7b1bec-2a06-47da-a7d0-796cda99d14f","system_id":"levelo_inurba_marseille","lat":43.27069,"lon":5.38303,"is_reserved":false,"is_disabled":false,"rental_uris":{"android":"levelo://app?vid=3d7b1bec-2a06-47da-a7d0-796cda99d14f","ios":"levelo://app?vid=3d7b1bec-2a06-47da-a7d0-796cda99d14f"},"vehicle_type_id":"4","last_reported":1773270946,"current_range_meters":18800,"station_id":"st_d3n2fo6cfp8s73cte1j0","pricing_plan_id":"cebpf4jnsgd1na2vs0mg"},{"bike_id":"e6b20c19-514f-40dc-9b48-4675190607e5","system_id":"levelo_inurba_marseille","lat":43.29278,"lon":5.36832,"is_reserved":false,"is_disabled":false,"rental_uris":{"android":"levelo://app?vid=e6b20c19-514f-40dc-9b48-4675190607e5","ios":"levelo://app?vid=e6b20c19-514f-40dc-9b48-4675190607e5"},"vehicle_type_id":"4","last_reported":1773270946,"current_range_meters":31200,"station_id":"ce4bhbp2rcd13ifvqesg","pricing_plan_id":"cebpf4jnsgd1na2vs0mg"},{"bike_id":"3e18c48d-b4e3-42bd-b6e2-fcc499cb9624","system_id":"levelo_inurba_marseille","lat":43.28563,"lon":5.39514,"is_reserved":false,"is_disabled":false,"rental_uris":{"android":"levelo://app?vid=3e18c48d-b4e3-42bd-b6e2-fcc499cb9624","ios":"levelo://app?vid=3e18c48d-b4e3-42bd-b6e2-fcc499cb9624"},"vehicle_type_id":"4","last_reported":1773270946,"current_range_meters":18000,"station_id":"ce4bh292rcd13ifvqdg0","pricing_plan_id":"cebpf4jnsgd1na2vs0mg"},{"bike_id":"988db3b8-861f-418c-a7ec-7ae78131696e","system_id":"levelo_inurba_marseille","lat":43.24678,"lon":5.43356,"is_reserved":false,"is_disabled":false,"rental_uris":{"android":"levelo://app?vid=988db3b8-861f-418c-a7ec-7ae78131696e","ios":"levelo://app?vid=988db3b8-861f-418c-a7ec-7ae78131696e"},"vehicle_type_id":"4","last_reported":1773270946,"current_range_meters":28000,"station_id":"","pricing_plan_id":"cebpf4jnsgd1na2vs0mg"},{"bike_id":"c3843561-2c67-41fb-a1f7-6df5ffc75638","system_id":"levelo_inurba_marseille","lat":43.29029,"lon":5.3864,"is_reserved":false,"is_disabled":false,"rental_uris":{"android":"levelo://app?vid=c3843561-2c67-41fb-a1f7-6df5ffc75638","ios":"levelo://app?vid=c3843561-2c67-41fb-a1f7-6df5ffc75638"},"vehicle_type_id":"4","last_reported":1773270946,"current_range_meters":39200,"station_id":"ce4bh4p2rcd13ifvqe0g","pricing_plan_id":"cebpf4jnsgd1na2vs0mg"},{"bike_id":"dd854777-f378-4132-94e6-63027cc18b82","system_id":"levelo_inurba_marseille","lat":43.29727,"lon":5.41059,"is_reserved":false,"is_disabled":false,"rental_uris":{"android":"levelo://app?vid=dd854777-f378-4132-94e6-63027cc18b82","ios":"levelo://app?vid=dd854777-f378-4132-94e6-63027cc18b82"},"vehicle_type_id":"4","last_reported":1773270946,"current_range_meters":27200,"station_id":"","pricing_plan_id":"cebpf4jnsgd1na2vs0mg"},{"bike_id":"0dfbe7ef-b6ff-411a-9597-c501dde94bcd","system_id":"levelo_inurba_marseille","lat":43.2954,"lon":5.39041,"is_reserved":false,"is_disabled":false,"rental_uris":{"android":"levelo://app?vid=0dfbe7ef-b6ff-411a-9597-c501dde94bcd","ios":"levelo://app?vid=0dfbe7ef-b6ff-411a-9597-c501dde94bcd"},"vehicle_type_id":"4","last_reported":1773270946,"current_range_meters":33600,"station_id":"ce4bh3p2rcd13ifvqdp0","pricing_plan_id":"cebpf4jnsgd1na2vs0mg"},{"bike_id":"61923e1f-87aa-45fd-a287-484a4f729e2f","system_id":"levelo_inurba_marseille","lat":43.30168,"lon":5.3662,"is_reserved":false,"is_disabled":false,"rental_uris":{"android":"levelo://app?vid=61923e1f-87aa-45fd-a287-484a4f729e2f","ios":"levelo://app?vid=61923e1f-87aa-45fd-a287-484a4f729e2f"},"vehicle_type_id":"4","last_reported":1773270946,"current_range_meters":17600,"station_id":"ce4bgrh2rcd13ifvqc8g","pricing_plan_id":"cebpf4jnsgd1na2vs0mg"},{"bike_id":"85b5b118-e47b-4adc-aa0c-e9bbc2d708e9","system_id":"levelo_inurba_marseille","lat":43.27495,"lon":5.42451,"is_reserved":false,"is_disabled":false,"rental_uris":{"android":"levelo://app?vid=85b5b118-e47b-4adc-aa0c-e9bbc2d708e9","ios":"levelo://app?vid=85b5b118-e47b-4adc-aa0c-e9bbc2d708e9"},"vehicle_type_id":"4","last_reported":1773270946,"current_range_meters":20400,"station_id":"ce4bhn92rcd13ifvqgrg","pricing_plan_id":"cebpf4jnsgd1na2vs0mg"},{"bike_id":"bc54ed14-e159-405f-908b-c5020f892e99","system_id":"levelo_inurba_marseille","lat":43.30971,"lon":5.43881,"is_reserved":false,"is_disabled":false,"rental_uris":{"android":"levelo://app?vid=bc54ed14-e159-405f-908b-c5020f892e99","ios":"levelo://app?vid=bc54ed14-e159-405f-908b-c5020f892e99"},"vehicle_type_id":"4","last_reported":1773270946,"current_range_meters":27600,"station_id":"","pricing_plan_id":"cebpf4jnsgd1na2vs0mg"},{"bike_id":"532f1fe9-6384-4056-88f3-ddfdd084688a","system_id":"levelo_inurba_marseille","lat":43.29811,"lon":5.4188,"is_reserved":false,"is_disabled":false,"rental_uris":{"android":"levelo://app?vid=532f1fe9-6384-4056-88f3-ddfdd084688a","ios":"levelo://app?vid=532f1fe9-6384-4056-88f3-ddfdd084688a"},"vehicle_type_id":"4","last_reported":1773270946,"current_range_meters":27600,"station_id":"","pricing_plan_id":"cebpf4jnsgd1na2vs0mg"},{"bike_id":"1168962b-1d6c-4b98-9fe9-a58b7d08b7bc","system_id":"levelo_inurba_marseille","lat":43.28472,"lon":5.35864,"is_reserved":false,"is_disabled":false,"rental_uris":{"android":"levelo://app?vid=1168962b-1d6c-4b98-9fe9-a58b7d08b7bc","ios":"levelo://app?vid=1168962b-1d6c-4b98-9fe9-a58b7d08b7bc"},"vehicle_type_id":"4","last_reported":1773270946,"current_range_meters":10800,"station_id":"ce4bhah2rcd13ifvqei0","pricing_plan_id":"cebpf4jnsgd1na2vs0mg"},{"bike_id":"4c0ccf91-bafb-4cb2-ada9-07d388c5af7c","system_id":"levelo_inurba_marseille","lat":43.29613,"lon":5.37724,"is_reserved":false,"is_disabled":false,"rental_uris":{"android":"levelo://app?vid=4c0ccf91-bafb-4cb2-ada9-07d388c5af7c","ios":"levelo://app?vid=4c0ccf91-bafb-4cb2-ada9-07d388c5af7c"},"vehicle_type_id":"4","last_reported":1773270946,"current_range_meters":9200,"station_id":"ce4bgi92rcd13ifvqb90","pricing_plan_id":"cebpf4jnsgd1na2vs0mg"},{"bike_id":"fc4795bd-7fd3-4c14-9a9b-bcc5f999d4b0","system_id":"levelo_inurba_marseille","lat":43.23969,"lon":5.36619,"is_reserved":false,"is_disabled":false,"rental_uris":{"android":"levelo://app?vid=fc4795bd-7fd3-4c14-9a9b-bcc5f999d4b0","ios":"levelo://app?vid=fc4795bd-7fd3-4c14-9a9b-bcc5f999d4b0"},"vehicle_type_id":"4","last_reported":1773270946,"current_range_meters":4800,"station_id":"ce4bhi12rcd13ifvqfp0","pricing_plan_id":"cebpf4jnsgd1na2vs0mg"},{"bike_id":"f3aa073f-48b3-4a32-af09-7955b12779b7","system_id":"levelo_inurba_marseille","lat":43.23166,"lon":5.40011,"is_reserved":false,"is_disabled":false,"rental_uris":{"android":"levelo://app?vid=f3aa073f-48b3-4a32-af09-7955b12779b7","ios":"levelo://app?vid=f3aa073f-48b3-4a32-af09-7955b12779b7"},"vehicle_type_id":"4","last_reported":1773270946,"current_range_meters":30400,"station_id":"ce4bhn12rcd13ifvqgqg","pricing_plan_id":"cebpf4jnsgd1na2vs0mg"},{"bike_id":"fee5e17c-0503-4e58-88a2-7484a6df0deb","system_id":"levelo_inurba_marseille","lat":43.28663,"lon":5.36359,"is_reserved":false,"is_disabled":false,"rental_uris":{"android":"levelo://app?vid=fee5e17c-0503-4e58-88a2-7484a6df0deb","ios":"levelo://app?vid=fee5e17c-0503-4e58-88a2-7484a6df0deb"},"vehicle_type_id":"4","last_reported":1773270946,"current_range_meters":40000,"station_id":"ce4bhah2rcd13ifvqej0","pricing_plan_id":"cebpf4jnsgd1na2vs0mg"},{"bike_id":"5ff4eed9-cc94-417e-b8b0-f370f495b41d","system_id":"levelo_inurba_marseille","lat":43.28149,"lon":5.42644,"is_reserved":false,"is_disabled":false,"rental_uris":{"android":"levelo://app?vid=5ff4eed9-cc94-417e-b8b0-f370f495b41d","ios":"levelo://app?vid=5ff4eed9-cc94-417e-b8b0-f370f495b41d"},"vehicle_type_id":"4","last_reported":1773270946,"current_range_meters":21600,"station_id":"ce4bhnh2rcd13ifvqgug","pricing_plan_id":"cebpf4jnsgd1na2vs0mg"},{"bike_id":"f105b2be-1018-4256-9c05-61f61c53dcf1","system_id":"levelo_inurba_marseille","lat":43.29533,"lon":5.38546,"is_reserved":false,"is_disabled":true,"rental_uris":{"android":"levelo://app?vid=f105b2be-1018-4256-9c05-61f61c53dcf1","ios":"levelo://app?vid=f105b2be-1018-4256-9c05-61f61c53dcf1"},"vehicle_type_id":"4","last_reported":1773270946,"current_range_meters":25600,"station_id":"ce4bgih2rcd13ifvqba0","pricing_plan_id":"cebpf4jnsgd1na2vs0mg"},{"bike_id":"16ffc567-2229-437e-b279-e16d978b57a1","system_id":"levelo_inurba_marseille","lat":43.31186,"lon":5.38715,"is_reserved":false,"is_disabled":false,"rental_uris":{"android":"levelo://app?vid=16ffc567-2229-437e-b279-e16d978b57a1","ios":"levelo://app?vid=16ffc567-2229-437e-b279-e16d978b57a1"},"vehicle_type_id":"4","last_reported":1773270946,"current_range_meters":24800,"station_id":"ce4bgv12rcd13ifvqcp0","pricing_plan_id":"cebpf4jnsgd1na2vs0mg"},{"bike_id":"e8cfc960-6b81-4fc9-81a5-40ee7862baf8","system_id":"levelo_inurba_marseille","lat":43.32082,"lon":5.41565,"is_reserved":false,"is_disabled":false,"rental_uris":{"android":"levelo://app?vid=e8cfc960-6b81-4fc9-81a5-40ee7862baf8","ios":"levelo://app?vid=e8cfc960-6b81-4fc9-81a5-40ee7862baf8"},"vehicle_type_id":"4","last_reported":1773270946,"current_range_meters":37600,"station_id":"ce4bhq92rcd13ifvqhkg","pricing_plan_id":"cebpf4jnsgd1na2vs0mg"},{"bike_id":"b94c3b6d-7912-4bb7-bd16-b874ff101a3d","system_id":"levelo_inurba_marseille","lat":43.24808,"lon":5.37442,"is_reserved":false,"is_disabled":false,"rental_uris":{"android":"levelo://app?vid=b94c3b6d-7912-4bb7-bd16-b874ff101a3d","ios":"levelo://app?vid=b94c3b6d-7912-4bb7-bd16-b874ff101a3d"},"vehicle_type_id":"4","last_reported":1773270946,"current_range_meters":27600,"station_id":"ce4bhgh2rcd13ifvqfb0","pricing_plan_id":"cebpf4jnsgd1na2vs0mg"},{"bike_id":"1866c223-50ab-4283-b8a6-28a247e511e9","system_id":"levelo_inurba_marseille","lat":43.33013,"lon":5.39029,"is_reserved":false,"is_disabled":false,"rental_uris":{"android":"levelo://app?vid=1866c223-50ab-4283-b8a6-28a247e511e9","ios":"levelo://app?vid=1866c223-50ab-4283-b8a6-28a247e511e9"},"vehicle_type_id":"4","last_reported":1773270946,"current_range_meters":28800,"station_id":"ce4bhr92rcd13ifvqhrg","pricing_plan_id":"cebpf4jnsgd1na2vs0mg"},{"bike_id":"6994b374-5940-471e-a4f1-64d45a68f73b","system_id":"levelo_inurba_marseille","lat":43.29025,"lon":5.39979,"is_reserved":false,"is_disabled":false,"rental_uris":{"android":"levelo://app?vid=6994b374-5940-471e-a4f1-64d45a68f73b","ios":"levelo://app?vid=6994b374-5940-471e-a4f1-64d45a68f73b"},"vehicle_type_id":"4","last_reported":1773270946,"current_range_meters":38000,"station_id":"ce4bh392rcd13ifvqdm0","pricing_plan_id":"cebpf4jnsgd1na2vs0mg"},{"bike_id":"46581b5c-227f-4c93-a496-16c893b115c2","system_id":"levelo_inurba_marseille","lat":43.30311,"lon":5.40458,"is_reserved":false,"is_disabled":false,"rental_uris":{"android":"levelo://app?vid=46581b5c-227f-4c93-a496-16c893b115c2","ios":"levelo://app?vid=46581b5c-227f-4c93-a496-16c893b115c2"},"vehicle_type_id":"4","last_reported":1773270946,"current_range_meters":28400,"station_id":"ce4bh012rcd13ifvqd10","pricing_plan_id":"cebpf4jnsgd1na2vs0mg"},{"bike_id":"c52459fc-dfb2-4ddf-a65d-9bbba8809c07","system_id":"levelo_inurba_marseille","lat":43.22533,"lon":5.34831,"is_reserved":false,"is_disabled":true,"rental_uris":{"android":"levelo://app?vid=c52459fc-dfb2-4ddf-a65d-9bbba8809c07","ios":"levelo://app?vid=c52459fc-dfb2-4ddf-a65d-9bbba8809c07"},"vehicle_type_id":"4","last_reported":1773270946,"current_range_meters":0,"station_id":"st_cvj5dfep6f1abm77gieg","pricing_plan_id":"cebpf4jnsgd1na2vs0mg"},{"bike_id":"5d0dcbca-099b-4fec-956d-3577d108f5a0","system_id":"levelo_inurba_marseille","lat":43.29441,"lon":5.39746,"is_reserved":false,"is_disabled":false,"rental_uris":{"android":"levelo://app?vid=5d0dcbca-099b-4fec-956d-3577d108f5a0","ios":"levelo://app?vid=5d0dcbca-099b-4fec-956d-3577d108f5a0"},"vehicle_type_id":"4","last_reported":1773270946,"current_range_meters":38000,"station_id":"ce4bh3h2rcd13ifvqdo0","pricing_plan_id":"cebpf4jnsgd1na2vs0mg"},{"bike_id":"d78dec4b-8880-4cf0-a251-49540defddd0","system_id":"levelo_inurba_marseille","lat":43.28034,"lon":5.36947,"is_reserved":false,"is_disabled":false,"rental_uris":{"android":"levelo://app?vid=d78dec4b-8880-4cf0-a251-49540defddd0","ios":"levelo://app?vid=d78dec4b-8880-4cf0-a251-49540defddd0"},"vehicle_type_id":"4","last_reported":1773270946,"current_range_meters":14000,"station_id":"ce4bha12rcd13ifvqef0","pricing_plan_id":"cebpf4jnsgd1na2vs0mg"},{"bike_id":"74cb2b6f-9305-47f1-bb68-6c880d035389","system_id":"levelo_inurba_marseille","lat":43.29625,"lon":5.37148,"is_reserved":false,"is_disabled":false,"rental_uris":{"android":"levelo://app?vid=74cb2b6f-9305-47f1-bb68-6c880d035389","ios":"levelo://app?vid=74cb2b6f-9305-47f1-bb68-6c880d035389"},"vehicle_type_id":"4","last_reported":1773270946,"current_range_meters":38800,"station_id":"ce4bgnh2rcd13ifvqc0g","pricing_plan_id":"cebpf4jnsgd1na2vs0mg"},{"bike_id":"aca408d2-46d7-414b-b3c9-db9700be46b8","system_id":"levelo_inurba_marseille","lat":43.29772,"lon":5.37051,"is_reserved":false,"is_disabled":false,"rental_uris":{"android":"levelo://app?vid=aca408d2-46d7-414b-b3c9-db9700be46b8","ios":"levelo://app?vid=aca408d2-46d7-414b-b3c9-db9700be46b8"},"vehicle_type_id":"4","last_reported":1773270946,"current_range_meters":10000,"station_id":"ce4bgop2rcd13ifvqc1g","pricing_plan_id":"cebpf4jnsgd1na2vs0mg"},{"bike_id":"70014ff1-2570-4680-8d8c-6578de7f27e9","system_id":"levelo_inurba_marseille","lat":43.29741,"lon":5.37686,"is_reserved":false,"is_disabled":false,"rental_uris":{"android":"levelo://app?vid=70014ff1-2570-4680-8d8c-6578de7f27e9","ios":"levelo://app?vid=70014ff1-2570-4680-8d8c-6578de7f27e9"},"vehicle_type_id":"4","last_reported":1773270946,"current_range_meters":16000,"station_id":"ce4bgkh2rcd13ifvqbl0","pricing_plan_id":"cebpf4jnsgd1na2vs0mg"},{"bike_id":"301345cd-f643-41af-a7b0-a8b8d5041ee0","system_id":"levelo_inurba_marseille","lat":43.25573,"lon":5.38225,"is_reserved":false,"is_disabled":false,"rental_uris":{"android":"levelo://app?vid=301345cd-f643-41af-a7b0-a8b8d5041ee0","ios":"levelo://app?vid=301345cd-f643-41af-a7b0-a8b8d5041ee0"},"vehicle_type_id":"4","last_reported":1773270946,"current_range_meters":32800,"station_id":"ce4bhih2rcd13ifvqfs0","pricing_plan_id":"cebpf4jnsgd1na2vs0mg"},{"bike_id":"d2bcd2b3-b9c0-44b8-b65e-328220c5307e","system_id":"levelo_inurba_marseille","lat":43.29141,"lon":5.43307,"is_reserved":false,"is_disabled":false,"rental_uris":{"android":"levelo://app?vid=d2bcd2b3-b9c0-44b8-b65e-328220c5307e","ios":"levelo://app?vid=d2bcd2b3-b9c0-44b8-b65e-328220c5307e"},"vehicle_type_id":"4","last_reported":1773270946,"current_range_meters":38000,"station_id":"","pricing_plan_id":"cebpf4jnsgd1na2vs0mg"},{"bike_id":"d9d746bb-af2b-4196-b0d7-cbaa7e0ad14b","system_id":"levelo_inurba_marseille","lat":43.30307,"lon":5.3689,"is_reserved":false,"is_disabled":false,"rental_uris":{"android":"levelo://app?vid=d9d746bb-af2b-4196-b0d7-cbaa7e0ad14b","ios":"levelo://app?vid=d9d746bb-af2b-4196-b0d7-cbaa7e0ad14b"},"vehicle_type_id":"4","last_reported":1773270946,"current_range_meters":8400,"station_id":"ce4bgqh2rcd13ifvqc5g","pricing_plan_id":"cebpf4jnsgd1na2vs0mg"},{"bike_id":"a73d5b8f-fa70-4709-9cb1-394ba61b13c7","system_id":"levelo_inurba_marseille","lat":43.2931,"lon":5.37144,"is_reserved":false,"is_disabled":false,"rental_uris":{"android":"levelo://app?vid=a73d5b8f-fa70-4709-9cb1-394ba61b13c7","ios":"levelo://app?vid=a73d5b8f-fa70-4709-9cb1-394ba61b13c7"},"vehicle_type_id":"4","last_reported":1773270946,"current_range_meters":21600,"station_id":"ce4bgh92rcd13ifvqb40","pricing_plan_id":"cebpf4jnsgd1na2vs0mg"},{"bike_id":"0fb23761-1e2a-42d2-b6d7-eb56f77a67f3","system_id":"levelo_inurba_marseille","lat":43.29278,"lon":5.4013,"is_reserved":false,"is_disabled":false,"rental_uris":{"android":"levelo://app?vid=0fb23761-1e2a-42d2-b6d7-eb56f77a67f3","ios":"levelo://app?vid=0fb23761-1e2a-42d2-b6d7-eb56f77a67f3"},"vehicle_type_id":"4","last_reported":1773270946,"current_range_meters":36400,"station_id":"ce4bh312rcd13ifvqdk0","pricing_plan_id":"cebpf4jnsgd1na2vs0mg"},{"bike_id":"896440e6-cef8-4268-bb86-ac2c6e2de747","system_id":"levelo_inurba_marseille","lat":43.2848,"lon":5.48406,"is_reserved":false,"is_disabled":false,"rental_uris":{"android":"levelo://app?vid=896440e6-cef8-4268-bb86-ac2c6e2de747","ios":"levelo://app?vid=896440e6-cef8-4268-bb86-ac2c6e2de747"},"vehicle_type_id":"4","last_reported":1773270946,"current_range_meters":28400,"station_id":"","pricing_plan_id":"cebpf4jnsgd1na2vs0mg"},{"bike_id":"50e88752-c7bd-4fa9-a753-b251ac9437ac","system_id":"levelo_inurba_marseille","lat":43.28448,"lon":5.35899,"is_reserved":false,"is_disabled":false,"rental_uris":{"android":"levelo://app?vid=50e88752-c7bd-4fa9-a753-b251ac9437ac","ios":"levelo://app?vid=50e88752-c7bd-4fa9-a753-b251ac9437ac"},"vehicle_type_id":"4","last_reported":1773270946,"current_range_meters":25200,"station_id":"ce4bhah2rcd13ifvqei0","pricing_plan_id":"cebpf4jnsgd1na2vs0mg"},{"bike_id":"4883f2fa-ff4d-458d-a69c-b996898e1365","system_id":"levelo_inurba_marseille","lat":43.31118,"lon":5.3777,"is_reserved":false,"is_disabled":false,"rental_uris":{"android":"levelo://app?vid=4883f2fa-ff4d-458d-a69c-b996898e1365","ios":"levelo://app?vid=4883f2fa-ff4d-458d-a69c-b996898e1365"},"vehicle_type_id":"4","last_reported":1773270946,"current_range_meters":25600,"station_id":"ce4bgt92rcd13ifvqcg0","pricing_plan_id":"cebpf4jnsgd1na2vs0mg"},{"bike_id":"2c1215f2-9624-4e50-bbbb-a53264cdd31e","system_id":"levelo_inurba_marseille","lat":43.2849,"lon":5.48441,"is_reserved":false,"is_disabled":false,"rental_uris":{"android":"levelo://app?vid=2c1215f2-9624-4e50-bbbb-a53264cdd31e","ios":"levelo://app?vid=2c1215f2-9624-4e50-bbbb-a53264cdd31e"},"vehicle_type_id":"4","last_reported":1773270946,"current_range_meters":24400,"station_id":"st_d3svhcjqgbts73a3dn0g","pricing_plan_id":"cebpf4jnsgd1na2vs0mg"},{"bike_id":"3b950439-ce2b-43b7-96e0-5e3328bee72e","system_id":"levelo_inurba_marseille","lat":43.31748,"lon":5.39048,"is_reserved":false,"is_disabled":false,"rental_uris":{"android":"levelo://app?vid=3b950439-ce2b-43b7-96e0-5e3328bee72e","ios":"levelo://app?vid=3b950439-ce2b-43b7-96e0-5e3328bee72e"},"vehicle_type_id":"4","last_reported":1773270946,"current_range_meters":38800,"station_id":"ce4bhqp2rcd13ifvqhng","pricing_plan_id":"cebpf4jnsgd1na2vs0mg"},{"bike_id":"c1db54c2-038e-4f3d-a503-c0e3fc6c96ed","system_id":"levelo_inurba_marseille","lat":43.33561,"lon":5.37471,"is_reserved":false,"is_disabled":false,"rental_uris":{"android":"levelo://app?vid=c1db54c2-038e-4f3d-a503-c0e3fc6c96ed","ios":"levelo://app?vid=c1db54c2-038e-4f3d-a503-c0e3fc6c96ed"},"vehicle_type_id":"4","last_reported":1773270946,"current_range_meters":13600,"station_id":"st_d46tts09ee8s73dlu43g","pricing_plan_id":"cebpf4jnsgd1na2vs0mg"},{"bike_id":"a0ab89fd-d4e3-4039-8377-577b0acf001d","system_id":"levelo_inurba_marseille","lat":43.24378,"lon":5.44099,"is_reserved":false,"is_disabled":true,"rental_uris":{"android":"levelo://app?vid=a0ab89fd-d4e3-4039-8377-577b0acf001d","ios":"levelo://app?vid=a0ab89fd-d4e3-4039-8377-577b0acf001d"},"vehicle_type_id":"4","last_reported":1773270946,"current_range_meters":9200,"station_id":"","pricing_plan_id":"cebpf4jnsgd1na2vs0mg"},{"bike_id":"0d8d3dbb-5af6-4a67-8b6e-f757bc26edc4","system_id":"levelo_inurba_marseille","lat":43.29686,"lon":5.36606,"is_reserved":false,"is_disabled":false,"rental_uris":{"android":"levelo://app?vid=0d8d3dbb-5af6-4a67-8b6e-f757bc26edc4","ios":"levelo://app?vid=0d8d3dbb-5af6-4a67-8b6e-f757bc26edc4"},"vehicle_type_id":"4","last_reported":1773270946,"current_range_meters":40000,"station_id":"ce4bgn12rcd13ifvqbt0","pricing_plan_id":"cebpf4jnsgd1na2vs0mg"},{"bike_id":"c826cb68-eba2-468d-8ed7-3d2806708ba9","system_id":"levelo_inurba_marseille","lat":43.29196,"lon":5.39319,"is_reserved":false,"is_disabled":false,"rental_uris":{"android":"levelo://app?vid=c826cb68-eba2-468d-8ed7-3d2806708ba9","ios":"levelo://app?vid=c826cb68-eba2-468d-8ed7-3d2806708ba9"},"vehicle_type_id":"4","last_reported":1773270946,"current_range_meters":36800,"station_id":"ce4bh192rcd13ifvqdd0","pricing_plan_id":"cebpf4jnsgd1na2vs0mg"},{"bike_id":"074abf32-ac3f-4657-8880-be02438a7ff0","system_id":"levelo_inurba_marseille","lat":43.23186,"lon":5.39985,"is_reserved":false,"is_disabled":false,"rental_uris":{"android":"levelo://app?vid=074abf32-ac3f-4657-8880-be02438a7ff0","ios":"levelo://app?vid=074abf32-ac3f-4657-8880-be02438a7ff0"},"vehicle_type_id":"4","last_reported":1773270946,"current_range_meters":40000,"station_id":"ce4bhn12rcd13ifvqgqg","pricing_plan_id":"cebpf4jnsgd1na2vs0mg"},{"bike_id":"be14ecc1-b865-445e-920a-cda54ddcc0d6","system_id":"levelo_inurba_marseille","lat":43.30549,"lon":5.38457,"is_reserved":false,"is_disabled":false,"rental_uris":{"android":"levelo://app?vid=be14ecc1-b865-445e-920a-cda54ddcc0d6","ios":"levelo://app?vid=be14ecc1-b865-445e-920a-cda54ddcc0d6"},"vehicle_type_id":"4","last_reported":1773270946,"current_range_meters":28400,"station_id":"ce4bgg92rcd13ifvqb30","pricing_plan_id":"cebpf4jnsgd1na2vs0mg"},{"bike_id":"e8b7d766-9ece-4870-a1b8-5b316a1b8e67","system_id":"levelo_inurba_marseille","lat":43.22572,"lon":5.41626,"is_reserved":false,"is_disabled":false,"rental_uris":{"android":"levelo://app?vid=e8b7d766-9ece-4870-a1b8-5b316a1b8e67","ios":"levelo://app?vid=e8b7d766-9ece-4870-a1b8-5b316a1b8e67"},"vehicle_type_id":"4","last_reported":1773270946,"current_range_meters":17200,"station_id":"st_d2o4gvlbi1j2169b742g","pricing_plan_id":"cebpf4jnsgd1na2vs0mg"},{"bike_id":"3ec29e2e-9f07-482a-be09-30e539a4dc16","system_id":"levelo_inurba_marseille","lat":43.27815,"lon":5.4071,"is_reserved":false,"is_disabled":true,"rental_uris":{"android":"levelo://app?vid=3ec29e2e-9f07-482a-be09-30e539a4dc16","ios":"levelo://app?vid=3ec29e2e-9f07-482a-be09-30e539a4dc16"},"vehicle_type_id":"4","last_reported":1773270946,"current_range_meters":39200,"station_id":"ce4bhnh2rcd13ifvqgtg","pricing_plan_id":"cebpf4jnsgd1na2vs0mg"},{"bike_id":"7fec08d5-ee68-460a-ac18-925555054430","system_id":"levelo_inurba_marseille","lat":43.2418,"lon":5.36421,"is_reserved":false,"is_disabled":false,"rental_uris":{"android":"levelo://app?vid=7fec08d5-ee68-460a-ac18-925555054430","ios":"levelo://app?vid=7fec08d5-ee68-460a-ac18-925555054430"},"vehicle_type_id":"4","last_reported":1773270946,"current_range_meters":15200,"station_id":"cpo36qri1sfpv3e86is0","pricing_plan_id":"cebpf4jnsgd1na2vs0mg"},{"bike_id":"f1d55826-9a6a-4509-b741-df7b777e40b3","system_id":"levelo_inurba_marseille","lat":43.30604,"lon":5.37213,"is_reserved":false,"is_disabled":false,"rental_uris":{"android":"levelo://app?vid=f1d55826-9a6a-4509-b741-df7b777e40b3","ios":"levelo://app?vid=f1d55826-9a6a-4509-b741-df7b777e40b3"},"vehicle_type_id":"4","last_reported":1773270946,"current_range_meters":40000,"station_id":"ce4bgqh2rcd13ifvqc4g","pricing_plan_id":"cebpf4jnsgd1na2vs0mg"},{"bike_id":"42c7566c-76f3-4d25-afba-2891e97d1239","system_id":"levelo_inurba_marseille","lat":43.31365,"lon":5.38498,"is_reserved":false,"is_disabled":false,"rental_uris":{"android":"levelo://app?vid=42c7566c-76f3-4d25-afba-2891e97d1239","ios":"levelo://app?vid=42c7566c-76f3-4d25-afba-2891e97d1239"},"vehicle_type_id":"4","last_reported":1773270946,"current_range_meters":4000,"station_id":"ce4bgt92rcd13ifvqcf0","pricing_plan_id":"cebpf4jnsgd1na2vs0mg"},{"bike_id":"e50c6797-fb66-441b-97d0-c7fbbc3eb9c6","system_id":"levelo_inurba_marseille","lat":43.31713,"lon":5.43717,"is_reserved":false,"is_disabled":false,"rental_uris":{"android":"levelo://app?vid=e50c6797-fb66-441b-97d0-c7fbbc3eb9c6","ios":"levelo://app?vid=e50c6797-fb66-441b-97d0-c7fbbc3eb9c6"},"vehicle_type_id":"4","last_reported":1773270946,"current_range_meters":29600,"station_id":"ce4bhp92rcd13ifvqhcg","pricing_plan_id":"cebpf4jnsgd1na2vs0mg"},{"bike_id":"486154fe-3489-4a13-9146-054eb1e1ad06","system_id":"levelo_inurba_marseille","lat":43.29571,"lon":5.39982,"is_reserved":false,"is_disabled":false,"rental_uris":{"android":"levelo://app?vid=486154fe-3489-4a13-9146-054eb1e1ad06","ios":"levelo://app?vid=486154fe-3489-4a13-9146-054eb1e1ad06"},"vehicle_type_id":"4","last_reported":1773270946,"current_range_meters":37600,"station_id":"ce4bh312rcd13ifvqdj0","pricing_plan_id":"cebpf4jnsgd1na2vs0mg"},{"bike_id":"d936ee88-e6c5-41eb-94c9-c0f089a32b91","system_id":"levelo_inurba_marseille","lat":43.31182,"lon":5.37721,"is_reserved":false,"is_disabled":false,"rental_uris":{"android":"levelo://app?vid=d936ee88-e6c5-41eb-94c9-c0f089a32b91","ios":"levelo://app?vid=d936ee88-e6c5-41eb-94c9-c0f089a32b91"},"vehicle_type_id":"4","last_reported":1773270946,"current_range_meters":32000,"station_id":"","pricing_plan_id":"cebpf4jnsgd1na2vs0mg"},{"bike_id":"c0526d26-50df-439f-8930-4a211810a3de","system_id":"levelo_inurba_marseille","lat":43.28611,"lon":5.39874,"is_reserved":false,"is_disabled":false,"rental_uris":{"android":"levelo://app?vid=c0526d26-50df-439f-8930-4a211810a3de","ios":"levelo://app?vid=c0526d26-50df-439f-8930-4a211810a3de"},"vehicle_type_id":"4","last_reported":1773270946,"current_range_meters":22000,"station_id":"st_d4a7ka997mjs738ck50g","pricing_plan_id":"cebpf4jnsgd1na2vs0mg"},{"bike_id":"28368de5-f99a-4131-872b-db4b9c333326","system_id":"levelo_inurba_marseille","lat":43.27812,"lon":5.40706,"is_reserved":false,"is_disabled":false,"rental_uris":{"android":"levelo://app?vid=28368de5-f99a-4131-872b-db4b9c333326","ios":"levelo://app?vid=28368de5-f99a-4131-872b-db4b9c333326"},"vehicle_type_id":"4","last_reported":1773270946,"current_range_meters":6000,"station_id":"ce4bhnh2rcd13ifvqgtg","pricing_plan_id":"cebpf4jnsgd1na2vs0mg"},{"bike_id":"527cd3ff-d70c-47e1-ab19-036f4aa6c5ec","system_id":"levelo_inurba_marseille","lat":43.29512,"lon":5.3753,"is_reserved":false,"is_disabled":false,"rental_uris":{"android":"levelo://app?vid=527cd3ff-d70c-47e1-ab19-036f4aa6c5ec","ios":"levelo://app?vid=527cd3ff-d70c-47e1-ab19-036f4aa6c5ec"},"vehicle_type_id":"4","last_reported":1773270946,"current_range_meters":38800,"station_id":"ce4bgkp2rcd13ifvqbmg","pricing_plan_id":"cebpf4jnsgd1na2vs0mg"},{"bike_id":"7c5d90d1-8ba7-4d11-a859-9263fa5d367b","system_id":"levelo_inurba_marseille","lat":43.337444,"lon":5.374475,"is_reserved":false,"is_disabled":true,"rental_uris":{"android":"levelo://app?vid=7c5d90d1-8ba7-4d11-a859-9263fa5d367b","ios":"levelo://app?vid=7c5d90d1-8ba7-4d11-a859-9263fa5d367b"},"vehicle_type_id":"4","last_reported":1773270946,"current_range_meters":9600,"station_id":"","pricing_plan_id":"cebpf4jnsgd1na2vs0mg"},{"bike_id":"31dcbbef-8b04-4595-b97a-04716353a42c","system_id":"levelo_inurba_marseille","lat":43.27915,"lon":5.39574,"is_reserved":false,"is_disabled":false,"rental_uris":{"android":"levelo://app?vid=31dcbbef-8b04-4595-b97a-04716353a42c","ios":"levelo://app?vid=31dcbbef-8b04-4595-b97a-04716353a42c"},"vehicle_type_id":"4","last_reported":1773270946,"current_range_meters":38400,"station_id":"ce4bhf92rcd13ifvqf40","pricing_plan_id":"cebpf4jnsgd1na2vs0mg"},{"bike_id":"bc5fc204-33d9-491a-8fdb-a6c359ee55cc","system_id":"levelo_inurba_marseille","lat":43.290282,"lon":5.386555,"is_reserved":false,"is_disabled":false,"rental_uris":{"android":"levelo://app?vid=bc5fc204-33d9-491a-8fdb-a6c359ee55cc","ios":"levelo://app?vid=bc5fc204-33d9-491a-8fdb-a6c359ee55cc"},"vehicle_type_id":"4","last_reported":1773270946,"current_range_meters":30400,"station_id":"ce4bh4p2rcd13ifvqe0g","pricing_plan_id":"cebpf4jnsgd1na2vs0mg"},{"bike_id":"3107859d-1495-4aad-80eb-703d2e7dc114","system_id":"levelo_inurba_marseille","lat":43.28622,"lon":5.37065,"is_reserved":false,"is_disabled":false,"rental_uris":{"android":"levelo://app?vid=3107859d-1495-4aad-80eb-703d2e7dc114","ios":"levelo://app?vid=3107859d-1495-4aad-80eb-703d2e7dc114"},"vehicle_type_id":"4","last_reported":1773270946,"current_range_meters":39200,"station_id":"ce4bht12rcd13ifvqi60","pricing_plan_id":"cebpf4jnsgd1na2vs0mg"},{"bike_id":"f62cbee2-12e5-4cdd-bfbc-04088f9f32fa","system_id":"levelo_inurba_marseille","lat":43.28481,"lon":5.48387,"is_reserved":false,"is_disabled":false,"rental_uris":{"android":"levelo://app?vid=f62cbee2-12e5-4cdd-bfbc-04088f9f32fa","ios":"levelo://app?vid=f62cbee2-12e5-4cdd-bfbc-04088f9f32fa"},"vehicle_type_id":"4","last_reported":1773270946,"current_range_meters":18800,"station_id":"","pricing_plan_id":"cebpf4jnsgd1na2vs0mg"},{"bike_id":"bee700c7-1392-47d2-897a-f8ba605c3dfc","system_id":"levelo_inurba_marseille","lat":43.29272,"lon":5.36842,"is_reserved":false,"is_disabled":false,"rental_uris":{"android":"levelo://app?vid=bee700c7-1392-47d2-897a-f8ba605c3dfc","ios":"levelo://app?vid=bee700c7-1392-47d2-897a-f8ba605c3dfc"},"vehicle_type_id":"4","last_reported":1773270946,"current_range_meters":34800,"station_id":"ce4bhbp2rcd13ifvqesg","pricing_plan_id":"cebpf4jnsgd1na2vs0mg"},{"bike_id":"bee33239-5c3c-4b65-9c48-8fa3b957f997","system_id":"levelo_inurba_marseille","lat":43.28002,"lon":5.40009,"is_reserved":false,"is_disabled":false,"rental_uris":{"android":"levelo://app?vid=bee33239-5c3c-4b65-9c48-8fa3b957f997","ios":"levelo://app?vid=bee33239-5c3c-4b65-9c48-8fa3b957f997"},"vehicle_type_id":"4","last_reported":1773270946,"current_range_meters":39200,"station_id":"ce4bho92rcd13ifvqh4g","pricing_plan_id":"cebpf4jnsgd1na2vs0mg"},{"bike_id":"19789858-1ce6-4714-be96-8a45f06c1294","system_id":"levelo_inurba_marseille","lat":43.29553,"lon":5.42273,"is_reserved":false,"is_disabled":false,"rental_uris":{"android":"levelo://app?vid=19789858-1ce6-4714-be96-8a45f06c1294","ios":"levelo://app?vid=19789858-1ce6-4714-be96-8a45f06c1294"},"vehicle_type_id":"4","last_reported":1773270946,"current_range_meters":39200,"station_id":"ce4bhph2rcd13ifvqhdg","pricing_plan_id":"cebpf4jnsgd1na2vs0mg"},{"bike_id":"681fca49-d7d0-4d64-ba5f-a1615360789c","system_id":"levelo_inurba_marseille","lat":43.25857,"lon":5.39524,"is_reserved":false,"is_disabled":false,"rental_uris":{"android":"levelo://app?vid=681fca49-d7d0-4d64-ba5f-a1615360789c","ios":"levelo://app?vid=681fca49-d7d0-4d64-ba5f-a1615360789c"},"vehicle_type_id":"4","last_reported":1773270946,"current_range_meters":35600,"station_id":"","pricing_plan_id":"cebpf4jnsgd1na2vs0mg"},{"bike_id":"b304f5ef-6bee-4a95-9ff4-888db4b66c72","system_id":"levelo_inurba_marseille","lat":43.24067,"lon":5.37773,"is_reserved":false,"is_disabled":false,"rental_uris":{"android":"levelo://app?vid=b304f5ef-6bee-4a95-9ff4-888db4b66c72","ios":"levelo://app?vid=b304f5ef-6bee-4a95-9ff4-888db4b66c72"},"vehicle_type_id":"4","last_reported":1773270946,"current_range_meters":19600,"station_id":"ce4bhnp2rcd13ifvqgvg","pricing_plan_id":"cebpf4jnsgd1na2vs0mg"},{"bike_id":"1918b481-90ac-4db8-ab90-5b674b0129ea","system_id":"levelo_inurba_marseille","lat":43.29535,"lon":5.38566,"is_reserved":false,"is_disabled":true,"rental_uris":{"android":"levelo://app?vid=1918b481-90ac-4db8-ab90-5b674b0129ea","ios":"levelo://app?vid=1918b481-90ac-4db8-ab90-5b674b0129ea"},"vehicle_type_id":"4","last_reported":1773270946,"current_range_meters":39200,"station_id":"ce4bgih2rcd13ifvqba0","pricing_plan_id":"cebpf4jnsgd1na2vs0mg"},{"bike_id":"ba3a231f-10a0-4302-b0e7-08f11861cd04","system_id":"levelo_inurba_marseille","lat":43.28482,"lon":5.48391,"is_reserved":false,"is_disabled":false,"rental_uris":{"android":"levelo://app?vid=ba3a231f-10a0-4302-b0e7-08f11861cd04","ios":"levelo://app?vid=ba3a231f-10a0-4302-b0e7-08f11861cd04"},"vehicle_type_id":"4","last_reported":1773270946,"current_range_meters":38000,"station_id":"","pricing_plan_id":"cebpf4jnsgd1na2vs0mg"},{"bike_id":"2f280020-4fd0-4c35-a3e5-87e99fea2ecd","system_id":"levelo_inurba_marseille","lat":43.29621,"lon":5.37706,"is_reserved":false,"is_disabled":false,"rental_uris":{"android":"levelo://app?vid=2f280020-4fd0-4c35-a3e5-87e99fea2ecd","ios":"levelo://app?vid=2f280020-4fd0-4c35-a3e5-87e99fea2ecd"},"vehicle_type_id":"4","last_reported":1773270946,"current_range_meters":34800,"station_id":"ce4bgi92rcd13ifvqb90","pricing_plan_id":"cebpf4jnsgd1na2vs0mg"},{"bike_id":"2e75c005-5175-48a0-82e8-e3519aa32705","system_id":"levelo_inurba_marseille","lat":43.28032,"lon":5.36946,"is_reserved":false,"is_disabled":false,"rental_uris":{"android":"levelo://app?vid=2e75c005-5175-48a0-82e8-e3519aa32705","ios":"levelo://app?vid=2e75c005-5175-48a0-82e8-e3519aa32705"},"vehicle_type_id":"4","last_reported":1773270946,"current_range_meters":38400,"station_id":"ce4bha12rcd13ifvqef0","pricing_plan_id":"cebpf4jnsgd1na2vs0mg"},{"bike_id":"be671c5b-fb45-47d4-8232-4da9e39592ca","system_id":"levelo_inurba_marseille","lat":43.24165,"lon":5.36392,"is_reserved":false,"is_disabled":false,"rental_uris":{"android":"levelo://app?vid=be671c5b-fb45-47d4-8232-4da9e39592ca","ios":"levelo://app?vid=be671c5b-fb45-47d4-8232-4da9e39592ca"},"vehicle_type_id":"4","last_reported":1773270946,"current_range_meters":16800,"station_id":"cpo36qri1sfpv3e86is0","pricing_plan_id":"cebpf4jnsgd1na2vs0mg"},{"bike_id":"352c9f7d-89b4-42e5-9e2e-76d972a274bd","system_id":"levelo_inurba_marseille","lat":43.28898,"lon":5.43258,"is_reserved":false,"is_disabled":false,"rental_uris":{"android":"levelo://app?vid=352c9f7d-89b4-42e5-9e2e-76d972a274bd","ios":"levelo://app?vid=352c9f7d-89b4-42e5-9e2e-76d972a274bd"},"vehicle_type_id":"4","last_reported":1773270946,"current_range_meters":9200,"station_id":"","pricing_plan_id":"cebpf4jnsgd1na2vs0mg"},{"bike_id":"8095d99b-77e2-403b-90e4-77fb486014bb","system_id":"levelo_inurba_marseille","lat":43.30888,"lon":5.39636,"is_reserved":false,"is_disabled":false,"rental_uris":{"android":"levelo://app?vid=8095d99b-77e2-403b-90e4-77fb486014bb","ios":"levelo://app?vid=8095d99b-77e2-403b-90e4-77fb486014bb"},"vehicle_type_id":"4","last_reported":1773270946,"current_range_meters":32400,"station_id":"ce4bh012rcd13ifvqcv0","pricing_plan_id":"cebpf4jnsgd1na2vs0mg"},{"bike_id":"9f80a822-225d-4c57-92f9-03d4899dcd53","system_id":"levelo_inurba_marseille","lat":43.24806,"lon":5.37453,"is_reserved":false,"is_disabled":false,"rental_uris":{"android":"levelo://app?vid=9f80a822-225d-4c57-92f9-03d4899dcd53","ios":"levelo://app?vid=9f80a822-225d-4c57-92f9-03d4899dcd53"},"vehicle_type_id":"4","last_reported":1773270946,"current_range_meters":4000,"station_id":"ce4bhgh2rcd13ifvqfb0","pricing_plan_id":"cebpf4jnsgd1na2vs0mg"},{"bike_id":"c59a5209-1b70-42df-8250-859beecf23e1","system_id":"levelo_inurba_marseille","lat":43.23193,"lon":5.35547,"is_reserved":false,"is_disabled":false,"rental_uris":{"android":"levelo://app?vid=c59a5209-1b70-42df-8250-859beecf23e1","ios":"levelo://app?vid=c59a5209-1b70-42df-8250-859beecf23e1"},"vehicle_type_id":"4","last_reported":1773270946,"current_range_meters":34800,"station_id":"ce4bhu92rcd13ifvqi70","pricing_plan_id":"cebpf4jnsgd1na2vs0mg"},{"bike_id":"0c76fbae-93a6-4566-9ada-7fa59433bfd4","system_id":"levelo_inurba_marseille","lat":43.29786,"lon":5.37635,"is_reserved":false,"is_disabled":false,"rental_uris":{"android":"levelo://app?vid=0c76fbae-93a6-4566-9ada-7fa59433bfd4","ios":"levelo://app?vid=0c76fbae-93a6-4566-9ada-7fa59433bfd4"},"vehicle_type_id":"4","last_reported":1773270946,"current_range_meters":8000,"station_id":"","pricing_plan_id":"cebpf4jnsgd1na2vs0mg"},{"bike_id":"0cd66d28-7e82-45b0-8ff1-67acc098f64b","system_id":"levelo_inurba_marseille","lat":43.28421,"lon":5.34981,"is_reserved":false,"is_disabled":false,"rental_uris":{"android":"levelo://app?vid=0cd66d28-7e82-45b0-8ff1-67acc098f64b","ios":"levelo://app?vid=0cd66d28-7e82-45b0-8ff1-67acc098f64b"},"vehicle_type_id":"4","last_reported":1773270946,"current_range_meters":30800,"station_id":"ce4bhbh2rcd13ifvqepg","pricing_plan_id":"cebpf4jnsgd1na2vs0mg"},{"bike_id":"fed428a6-a508-4132-94d7-783075e10fe3","system_id":"levelo_inurba_marseille","lat":43.32354,"lon":5.36748,"is_reserved":false,"is_disabled":false,"rental_uris":{"android":"levelo://app?vid=fed428a6-a508-4132-94d7-783075e10fe3","ios":"levelo://app?vid=fed428a6-a508-4132-94d7-783075e10fe3"},"vehicle_type_id":"4","last_reported":1773270946,"current_range_meters":33600,"station_id":"ce4bhsh2rcd13ifvqi2g","pricing_plan_id":"cebpf4jnsgd1na2vs0mg"},{"bike_id":"e0cad5ff-0965-4148-85a7-09b70d6a0cfc","system_id":"levelo_inurba_marseille","lat":43.31322,"lon":5.39705,"is_reserved":false,"is_disabled":false,"rental_uris":{"android":"levelo://app?vid=e0cad5ff-0965-4148-85a7-09b70d6a0cfc","ios":"levelo://app?vid=e0cad5ff-0965-4148-85a7-09b70d6a0cfc"},"vehicle_type_id":"4","last_reported":1773270946,"current_range_meters":37600,"station_id":"ce4bgvp2rcd13ifvqcu0","pricing_plan_id":"cebpf4jnsgd1na2vs0mg"},{"bike_id":"b77fb604-0801-47d9-99a2-3844aa44df9a","system_id":"levelo_inurba_marseille","lat":43.25307,"lon":5.42154,"is_reserved":false,"is_disabled":false,"rental_uris":{"android":"levelo://app?vid=b77fb604-0801-47d9-99a2-3844aa44df9a","ios":"levelo://app?vid=b77fb604-0801-47d9-99a2-3844aa44df9a"},"vehicle_type_id":"4","last_reported":1773270946,"current_range_meters":27200,"station_id":"st_d2m65c5bi1j21697t3ng","pricing_plan_id":"cebpf4jnsgd1na2vs0mg"},{"bike_id":"dcad9259-a4d3-4cc7-94fc-0c8a7321317d","system_id":"levelo_inurba_marseille","lat":43.27085,"lon":5.38293,"is_reserved":false,"is_disabled":false,"rental_uris":{"android":"levelo://app?vid=dcad9259-a4d3-4cc7-94fc-0c8a7321317d","ios":"levelo://app?vid=dcad9259-a4d3-4cc7-94fc-0c8a7321317d"},"vehicle_type_id":"4","last_reported":1773270946,"current_range_meters":28400,"station_id":"st_d3n2fo6cfp8s73cte1j0","pricing_plan_id":"cebpf4jnsgd1na2vs0mg"},{"bike_id":"27ecee27-727d-4330-8451-696e74ffa99a","system_id":"levelo_inurba_marseille","lat":43.28493,"lon":5.38556,"is_reserved":false,"is_disabled":false,"rental_uris":{"android":"levelo://app?vid=27ecee27-727d-4330-8451-696e74ffa99a","ios":"levelo://app?vid=27ecee27-727d-4330-8451-696e74ffa99a"},"vehicle_type_id":"4","last_reported":1773270946,"current_range_meters":39200,"station_id":"ce4bh8p2rcd13ifvqeb0","pricing_plan_id":"cebpf4jnsgd1na2vs0mg"},{"bike_id":"a6308c57-1a36-41de-bb48-5ab4640b043f","system_id":"levelo_inurba_marseille","lat":43.29587,"lon":5.3672,"is_reserved":false,"is_disabled":false,"rental_uris":{"android":"levelo://app?vid=a6308c57-1a36-41de-bb48-5ab4640b043f","ios":"levelo://app?vid=a6308c57-1a36-41de-bb48-5ab4640b043f"},"vehicle_type_id":"4","last_reported":1773270946,"current_range_meters":24800,"station_id":"ce4bgph2rcd13ifvqc2g","pricing_plan_id":"cebpf4jnsgd1na2vs0mg"},{"bike_id":"9a5a20c9-c46b-40d2-a143-af69d8e707b2","system_id":"levelo_inurba_marseille","lat":43.28653,"lon":5.36349,"is_reserved":false,"is_disabled":false,"rental_uris":{"android":"levelo://app?vid=9a5a20c9-c46b-40d2-a143-af69d8e707b2","ios":"levelo://app?vid=9a5a20c9-c46b-40d2-a143-af69d8e707b2"},"vehicle_type_id":"4","last_reported":1773270946,"current_range_meters":39200,"station_id":"ce4bhah2rcd13ifvqej0","pricing_plan_id":"cebpf4jnsgd1na2vs0mg"},{"bike_id":"e8e891cf-164b-4375-8667-e5eaa1ef09df","system_id":"levelo_inurba_marseille","lat":43.31744,"lon":5.3903,"is_reserved":false,"is_disabled":false,"rental_uris":{"android":"levelo://app?vid=e8e891cf-164b-4375-8667-e5eaa1ef09df","ios":"levelo://app?vid=e8e891cf-164b-4375-8667-e5eaa1ef09df"},"vehicle_type_id":"4","last_reported":1773270946,"current_range_meters":36800,"station_id":"ce4bhqp2rcd13ifvqhng","pricing_plan_id":"cebpf4jnsgd1na2vs0mg"},{"bike_id":"d54dd028-8c0c-4475-883d-9121345203c0","system_id":"levelo_inurba_marseille","lat":43.28434,"lon":5.39184,"is_reserved":false,"is_disabled":false,"rental_uris":{"android":"levelo://app?vid=d54dd028-8c0c-4475-883d-9121345203c0","ios":"levelo://app?vid=d54dd028-8c0c-4475-883d-9121345203c0"},"vehicle_type_id":"4","last_reported":1773270946,"current_range_meters":38000,"station_id":"ce4bhoh2rcd13ifvqh5g","pricing_plan_id":"cebpf4jnsgd1na2vs0mg"},{"bike_id":"a540b441-3928-4042-84dc-78cbd8de6fd0","system_id":"levelo_inurba_marseille","lat":43.2439,"lon":5.37079,"is_reserved":false,"is_disabled":false,"rental_uris":{"android":"levelo://app?vid=a540b441-3928-4042-84dc-78cbd8de6fd0","ios":"levelo://app?vid=a540b441-3928-4042-84dc-78cbd8de6fd0"},"vehicle_type_id":"4","last_reported":1773270946,"current_range_meters":32400,"station_id":"ce4bhhh2rcd13ifvqfk0","pricing_plan_id":"cebpf4jnsgd1na2vs0mg"},{"bike_id":"ef8a725e-5a72-4194-a622-63624b018fbd","system_id":"levelo_inurba_marseille","lat":43.30413,"lon":5.4128,"is_reserved":false,"is_disabled":false,"rental_uris":{"android":"levelo://app?vid=ef8a725e-5a72-4194-a622-63624b018fbd","ios":"levelo://app?vid=ef8a725e-5a72-4194-a622-63624b018fbd"},"vehicle_type_id":"4","last_reported":1773270946,"current_range_meters":40000,"station_id":"ce4bhop2rcd13ifvqh8g","pricing_plan_id":"cebpf4jnsgd1na2vs0mg"},{"bike_id":"809b7623-0e13-4184-a3c5-f483d3816773","system_id":"levelo_inurba_marseille","lat":43.29561,"lon":5.37526,"is_reserved":false,"is_disabled":true,"rental_uris":{"android":"levelo://app?vid=809b7623-0e13-4184-a3c5-f483d3816773","ios":"levelo://app?vid=809b7623-0e13-4184-a3c5-f483d3816773"},"vehicle_type_id":"4","last_reported":1773270946,"current_range_meters":14000,"station_id":"ce4bgh92rcd13ifvqb50","pricing_plan_id":"cebpf4jnsgd1na2vs0mg"},{"bike_id":"08131f05-e3b5-4642-99ed-147f9e94babc","system_id":"levelo_inurba_marseille","lat":43.29598,"lon":5.37726,"is_reserved":false,"is_disabled":false,"rental_uris":{"android":"levelo://app?vid=08131f05-e3b5-4642-99ed-147f9e94babc","ios":"levelo://app?vid=08131f05-e3b5-4642-99ed-147f9e94babc"},"vehicle_type_id":"4","last_reported":1773270946,"current_range_meters":28800,"station_id":"ce4bgi92rcd13ifvqb90","pricing_plan_id":"cebpf4jnsgd1na2vs0mg"},{"bike_id":"9ed62411-c179-4c18-ba71-7f45a17284f6","system_id":"levelo_inurba_marseille","lat":43.29091,"lon":5.38133,"is_reserved":false,"is_disabled":false,"rental_uris":{"android":"levelo://app?vid=9ed62411-c179-4c18-ba71-7f45a17284f6","ios":"levelo://app?vid=9ed62411-c179-4c18-ba71-7f45a17284f6"},"vehicle_type_id":"4","last_reported":1773270946,"current_range_meters":8000,"station_id":"ce4bh512rcd13ifvqe2g","pricing_plan_id":"cebpf4jnsgd1na2vs0mg"},{"bike_id":"1c31415f-55c9-420c-99e5-3d6d3a388b62","system_id":"levelo_inurba_marseille","lat":43.28944,"lon":5.36633,"is_reserved":false,"is_disabled":false,"rental_uris":{"android":"levelo://app?vid=1c31415f-55c9-420c-99e5-3d6d3a388b62","ios":"levelo://app?vid=1c31415f-55c9-420c-99e5-3d6d3a388b62"},"vehicle_type_id":"4","last_reported":1773270946,"current_range_meters":33600,"station_id":"ce4bhap2rcd13ifvqek0","pricing_plan_id":"cebpf4jnsgd1na2vs0mg"},{"bike_id":"8505865a-c4bd-4a09-b976-92961f8a1bc8","system_id":"levelo_inurba_marseille","lat":43.29263,"lon":5.40135,"is_reserved":false,"is_disabled":false,"rental_uris":{"android":"levelo://app?vid=8505865a-c4bd-4a09-b976-92961f8a1bc8","ios":"levelo://app?vid=8505865a-c4bd-4a09-b976-92961f8a1bc8"},"vehicle_type_id":"4","last_reported":1773270946,"current_range_meters":22400,"station_id":"ce4bh312rcd13ifvqdk0","pricing_plan_id":"cebpf4jnsgd1na2vs0mg"},{"bike_id":"412ebc32-5589-4f6e-8ac6-13ac9134d8c4","system_id":"levelo_inurba_marseille","lat":43.279694,"lon":5.387333,"is_reserved":false,"is_disabled":true,"rental_uris":{"android":"levelo://app?vid=412ebc32-5589-4f6e-8ac6-13ac9134d8c4","ios":"levelo://app?vid=412ebc32-5589-4f6e-8ac6-13ac9134d8c4"},"vehicle_type_id":"4","last_reported":1773270946,"current_range_meters":12000,"station_id":"ce4bhg12rcd13ifvqf80","pricing_plan_id":"cebpf4jnsgd1na2vs0mg"},{"bike_id":"333c6d19-9b97-49d6-a310-23161fb58ed2","system_id":"levelo_inurba_marseille","lat":43.25542,"lon":5.37684,"is_reserved":false,"is_disabled":false,"rental_uris":{"android":"levelo://app?vid=333c6d19-9b97-49d6-a310-23161fb58ed2","ios":"levelo://app?vid=333c6d19-9b97-49d6-a310-23161fb58ed2"},"vehicle_type_id":"4","last_reported":1773270946,"current_range_meters":9200,"station_id":"ce4bhh12rcd13ifvqff0","pricing_plan_id":"cebpf4jnsgd1na2vs0mg"},{"bike_id":"9c37c959-e40e-4036-bb6d-05b7579986fd","system_id":"levelo_inurba_marseille","lat":43.23205,"lon":5.3557,"is_reserved":false,"is_disabled":false,"rental_uris":{"android":"levelo://app?vid=9c37c959-e40e-4036-bb6d-05b7579986fd","ios":"levelo://app?vid=9c37c959-e40e-4036-bb6d-05b7579986fd"},"vehicle_type_id":"4","last_reported":1773270946,"current_range_meters":30800,"station_id":"ce4bhu92rcd13ifvqi70","pricing_plan_id":"cebpf4jnsgd1na2vs0mg"},{"bike_id":"2cdcfbc6-615c-4cf6-9cc2-92bbf35eafca","system_id":"levelo_inurba_marseille","lat":43.24809,"lon":5.37453,"is_reserved":false,"is_disabled":false,"rental_uris":{"android":"levelo://app?vid=2cdcfbc6-615c-4cf6-9cc2-92bbf35eafca","ios":"levelo://app?vid=2cdcfbc6-615c-4cf6-9cc2-92bbf35eafca"},"vehicle_type_id":"4","last_reported":1773270946,"current_range_meters":24000,"station_id":"ce4bhgh2rcd13ifvqfb0","pricing_plan_id":"cebpf4jnsgd1na2vs0mg"},{"bike_id":"d551195e-f5b0-490f-bac9-9dae68d902a4","system_id":"levelo_inurba_marseille","lat":43.21753,"lon":5.34631,"is_reserved":false,"is_disabled":false,"rental_uris":{"android":"levelo://app?vid=d551195e-f5b0-490f-bac9-9dae68d902a4","ios":"levelo://app?vid=d551195e-f5b0-490f-bac9-9dae68d902a4"},"vehicle_type_id":"4","last_reported":1773270946,"current_range_meters":36000,"station_id":"st_cvj6r9ubvosntc0bgbag","pricing_plan_id":"cebpf4jnsgd1na2vs0mg"},{"bike_id":"50e8eb5a-a6c5-4896-9752-0f9616a44921","system_id":"levelo_inurba_marseille","lat":43.29349,"lon":5.37888,"is_reserved":false,"is_disabled":false,"rental_uris":{"android":"levelo://app?vid=50e8eb5a-a6c5-4896-9752-0f9616a44921","ios":"levelo://app?vid=50e8eb5a-a6c5-4896-9752-0f9616a44921"},"vehicle_type_id":"4","last_reported":1773270946,"current_range_meters":39200,"station_id":"ce4bgjh2rcd13ifvqbf0","pricing_plan_id":"cebpf4jnsgd1na2vs0mg"},{"bike_id":"0a2f9b28-6219-4106-b011-3026133a767c","system_id":"levelo_inurba_marseille","lat":43.29595,"lon":5.38106,"is_reserved":false,"is_disabled":true,"rental_uris":{"android":"levelo://app?vid=0a2f9b28-6219-4106-b011-3026133a767c","ios":"levelo://app?vid=0a2f9b28-6219-4106-b011-3026133a767c"},"vehicle_type_id":"4","last_reported":1773270946,"current_range_meters":21600,"station_id":"ce4bgl12rcd13ifvqbo0","pricing_plan_id":"cebpf4jnsgd1na2vs0mg"},{"bike_id":"e1ae6a1f-4385-43f0-b768-42fb30614bb3","system_id":"levelo_inurba_marseille","lat":43.27905,"lon":5.37999,"is_reserved":false,"is_disabled":false,"rental_uris":{"android":"levelo://app?vid=e1ae6a1f-4385-43f0-b768-42fb30614bb3","ios":"levelo://app?vid=e1ae6a1f-4385-43f0-b768-42fb30614bb3"},"vehicle_type_id":"4","last_reported":1773270946,"current_range_meters":38400,"station_id":"ce4bhf92rcd13ifvqf50","pricing_plan_id":"cebpf4jnsgd1na2vs0mg"},{"bike_id":"7562c67a-07c1-4f48-b744-86e2323691c3","system_id":"levelo_inurba_marseille","lat":43.30324,"lon":5.36901,"is_reserved":false,"is_disabled":false,"rental_uris":{"android":"levelo://app?vid=7562c67a-07c1-4f48-b744-86e2323691c3","ios":"levelo://app?vid=7562c67a-07c1-4f48-b744-86e2323691c3"},"vehicle_type_id":"4","last_reported":1773270946,"current_range_meters":27600,"station_id":"ce4bgqh2rcd13ifvqc5g","pricing_plan_id":"cebpf4jnsgd1na2vs0mg"},{"bike_id":"698d9a52-efc3-47db-9af6-f5c36a11a425","system_id":"levelo_inurba_marseille","lat":43.29874,"lon":5.39738,"is_reserved":false,"is_disabled":false,"rental_uris":{"android":"levelo://app?vid=698d9a52-efc3-47db-9af6-f5c36a11a425","ios":"levelo://app?vid=698d9a52-efc3-47db-9af6-f5c36a11a425"},"vehicle_type_id":"4","last_reported":1773270946,"current_range_meters":22400,"station_id":"ce4bh0h2rcd13ifvqd50","pricing_plan_id":"cebpf4jnsgd1na2vs0mg"},{"bike_id":"8f12366d-bd54-40c2-8054-8aef3d861465","system_id":"levelo_inurba_marseille","lat":43.31318,"lon":5.39708,"is_reserved":false,"is_disabled":false,"rental_uris":{"android":"levelo://app?vid=8f12366d-bd54-40c2-8054-8aef3d861465","ios":"levelo://app?vid=8f12366d-bd54-40c2-8054-8aef3d861465"},"vehicle_type_id":"4","last_reported":1773270946,"current_range_meters":16400,"station_id":"ce4bgvp2rcd13ifvqcu0","pricing_plan_id":"cebpf4jnsgd1na2vs0mg"},{"bike_id":"c73dc152-9938-46ce-972e-77003c30697b","system_id":"levelo_inurba_marseille","lat":43.25824,"lon":5.39428,"is_reserved":false,"is_disabled":false,"rental_uris":{"android":"levelo://app?vid=c73dc152-9938-46ce-972e-77003c30697b","ios":"levelo://app?vid=c73dc152-9938-46ce-972e-77003c30697b"},"vehicle_type_id":"4","last_reported":1773270946,"current_range_meters":38000,"station_id":"ce4bhip2rcd13ifvqft0","pricing_plan_id":"cebpf4jnsgd1na2vs0mg"},{"bike_id":"1ca4f37a-c665-4f5a-bf5a-4bcd8eeadb2f","system_id":"levelo_inurba_marseille","lat":43.2408,"lon":5.37734,"is_reserved":false,"is_disabled":false,"rental_uris":{"android":"levelo://app?vid=1ca4f37a-c665-4f5a-bf5a-4bcd8eeadb2f","ios":"levelo://app?vid=1ca4f37a-c665-4f5a-bf5a-4bcd8eeadb2f"},"vehicle_type_id":"4","last_reported":1773270946,"current_range_meters":3600,"station_id":"ce4bhnp2rcd13ifvqgvg","pricing_plan_id":"cebpf4jnsgd1na2vs0mg"},{"bike_id":"a975d39d-4a14-4e0c-8235-9aa6495c9757","system_id":"levelo_inurba_marseille","lat":43.27506,"lon":5.42448,"is_reserved":false,"is_disabled":false,"rental_uris":{"android":"levelo://app?vid=a975d39d-4a14-4e0c-8235-9aa6495c9757","ios":"levelo://app?vid=a975d39d-4a14-4e0c-8235-9aa6495c9757"},"vehicle_type_id":"4","last_reported":1773270946,"current_range_meters":32800,"station_id":"ce4bhn92rcd13ifvqgrg","pricing_plan_id":"cebpf4jnsgd1na2vs0mg"},{"bike_id":"42c23f21-e078-4684-bab5-a30fd2bf0118","system_id":"levelo_inurba_marseille","lat":43.29771,"lon":5.37723,"is_reserved":false,"is_disabled":false,"rental_uris":{"android":"levelo://app?vid=42c23f21-e078-4684-bab5-a30fd2bf0118","ios":"levelo://app?vid=42c23f21-e078-4684-bab5-a30fd2bf0118"},"vehicle_type_id":"4","last_reported":1773270946,"current_range_meters":4800,"station_id":"","pricing_plan_id":"cebpf4jnsgd1na2vs0mg"},{"bike_id":"b053ad76-7b6f-48c8-a73c-e18966b4cc2b","system_id":"levelo_inurba_marseille","lat":43.3117,"lon":5.38719,"is_reserved":false,"is_disabled":false,"rental_uris":{"android":"levelo://app?vid=b053ad76-7b6f-48c8-a73c-e18966b4cc2b","ios":"levelo://app?vid=b053ad76-7b6f-48c8-a73c-e18966b4cc2b"},"vehicle_type_id":"4","last_reported":1773270946,"current_range_meters":30000,"station_id":"ce4bgv12rcd13ifvqcp0","pricing_plan_id":"cebpf4jnsgd1na2vs0mg"},{"bike_id":"75472d9d-d8e8-4034-8b13-32f6fc9daed2","system_id":"levelo_inurba_marseille","lat":43.27069,"lon":5.42275,"is_reserved":false,"is_disabled":false,"rental_uris":{"android":"levelo://app?vid=75472d9d-d8e8-4034-8b13-32f6fc9daed2","ios":"levelo://app?vid=75472d9d-d8e8-4034-8b13-32f6fc9daed2"},"vehicle_type_id":"4","last_reported":1773270946,"current_range_meters":38400,"station_id":"ce4bhk92rcd13ifvqgb0","pricing_plan_id":"cebpf4jnsgd1na2vs0mg"},{"bike_id":"a19f2c98-487b-4c9d-b545-04fae76c91bb","system_id":"levelo_inurba_marseille","lat":43.29263,"lon":5.38466,"is_reserved":false,"is_disabled":false,"rental_uris":{"android":"levelo://app?vid=a19f2c98-487b-4c9d-b545-04fae76c91bb","ios":"levelo://app?vid=a19f2c98-487b-4c9d-b545-04fae76c91bb"},"vehicle_type_id":"4","last_reported":1773270946,"current_range_meters":36800,"station_id":"ce4bh692rcd13ifvqea0","pricing_plan_id":"cebpf4jnsgd1na2vs0mg"},{"bike_id":"35bbe3b9-a413-4bf0-8ca9-b2b6b9d1f60d","system_id":"levelo_inurba_marseille","lat":43.29282,"lon":5.40144,"is_reserved":false,"is_disabled":false,"rental_uris":{"android":"levelo://app?vid=35bbe3b9-a413-4bf0-8ca9-b2b6b9d1f60d","ios":"levelo://app?vid=35bbe3b9-a413-4bf0-8ca9-b2b6b9d1f60d"},"vehicle_type_id":"4","last_reported":1773270946,"current_range_meters":37600,"station_id":"ce4bh312rcd13ifvqdk0","pricing_plan_id":"cebpf4jnsgd1na2vs0mg"},{"bike_id":"e0a31661-3884-4f1e-8b17-8ab88bd486c3","system_id":"levelo_inurba_marseille","lat":43.2929,"lon":5.40127,"is_reserved":false,"is_disabled":false,"rental_uris":{"android":"levelo://app?vid=e0a31661-3884-4f1e-8b17-8ab88bd486c3","ios":"levelo://app?vid=e0a31661-3884-4f1e-8b17-8ab88bd486c3"},"vehicle_type_id":"4","last_reported":1773270946,"current_range_meters":22800,"station_id":"ce4bh312rcd13ifvqdk0","pricing_plan_id":"cebpf4jnsgd1na2vs0mg"},{"bike_id":"6e6a11b7-c6a2-43bb-9b3d-8cae64a5805a","system_id":"levelo_inurba_marseille","lat":43.28926,"lon":5.35866,"is_reserved":false,"is_disabled":false,"rental_uris":{"android":"levelo://app?vid=6e6a11b7-c6a2-43bb-9b3d-8cae64a5805a","ios":"levelo://app?vid=6e6a11b7-c6a2-43bb-9b3d-8cae64a5805a"},"vehicle_type_id":"4","last_reported":1773270946,"current_range_meters":40000,"station_id":"ce4bhb12rcd13ifvqem0","pricing_plan_id":"cebpf4jnsgd1na2vs0mg"},{"bike_id":"6fb5ab57-ef29-41f3-8acd-c554076c0bbe","system_id":"levelo_inurba_marseille","lat":43.29234,"lon":5.36895,"is_reserved":false,"is_disabled":true,"rental_uris":{"android":"levelo://app?vid=6fb5ab57-ef29-41f3-8acd-c554076c0bbe","ios":"levelo://app?vid=6fb5ab57-ef29-41f3-8acd-c554076c0bbe"},"vehicle_type_id":"4","last_reported":1773270946,"current_range_meters":37600,"station_id":"ce4bhbp2rcd13ifvqesg","pricing_plan_id":"cebpf4jnsgd1na2vs0mg"},{"bike_id":"841ff32f-7656-4dac-bf2f-0ce77f8d7bff","system_id":"levelo_inurba_marseille","lat":43.27189,"lon":5.41,"is_reserved":false,"is_disabled":false,"rental_uris":{"android":"levelo://app?vid=841ff32f-7656-4dac-bf2f-0ce77f8d7bff","ios":"levelo://app?vid=841ff32f-7656-4dac-bf2f-0ce77f8d7bff"},"vehicle_type_id":"4","last_reported":1773270946,"current_range_meters":37600,"station_id":"ce4bhl12rcd13ifvqgf0","pricing_plan_id":"cebpf4jnsgd1na2vs0mg"},{"bike_id":"2f366023-0485-43bc-98b5-e57cb9119606","system_id":"levelo_inurba_marseille","lat":43.30628,"lon":5.40103,"is_reserved":false,"is_disabled":false,"rental_uris":{"android":"levelo://app?vid=2f366023-0485-43bc-98b5-e57cb9119606","ios":"levelo://app?vid=2f366023-0485-43bc-98b5-e57cb9119606"},"vehicle_type_id":"4","last_reported":1773270946,"current_range_meters":30000,"station_id":"ce4bh112rcd13ifvqda0","pricing_plan_id":"cebpf4jnsgd1na2vs0mg"},{"bike_id":"34f67e69-6b22-4c95-8433-44ed5a9fe043","system_id":"levelo_inurba_marseille","lat":43.23199,"lon":5.35533,"is_reserved":false,"is_disabled":false,"rental_uris":{"android":"levelo://app?vid=34f67e69-6b22-4c95-8433-44ed5a9fe043","ios":"levelo://app?vid=34f67e69-6b22-4c95-8433-44ed5a9fe043"},"vehicle_type_id":"4","last_reported":1773270946,"current_range_meters":14800,"station_id":"ce4bhu92rcd13ifvqi70","pricing_plan_id":"cebpf4jnsgd1na2vs0mg"},{"bike_id":"bf1928a7-9675-4e72-b8af-9fcd53605e19","system_id":"levelo_inurba_marseille","lat":43.27564,"lon":5.38424,"is_reserved":false,"is_disabled":false,"rental_uris":{"android":"levelo://app?vid=bf1928a7-9675-4e72-b8af-9fcd53605e19","ios":"levelo://app?vid=bf1928a7-9675-4e72-b8af-9fcd53605e19"},"vehicle_type_id":"4","last_reported":1773270946,"current_range_meters":21600,"station_id":"ce4bhh92rcd13ifvqfi0","pricing_plan_id":"cebpf4jnsgd1na2vs0mg"},{"bike_id":"a63d22a1-9803-47da-97c5-9eb5069b8019","system_id":"levelo_inurba_marseille","lat":43.25839,"lon":5.39442,"is_reserved":false,"is_disabled":false,"rental_uris":{"android":"levelo://app?vid=a63d22a1-9803-47da-97c5-9eb5069b8019","ios":"levelo://app?vid=a63d22a1-9803-47da-97c5-9eb5069b8019"},"vehicle_type_id":"4","last_reported":1773270946,"current_range_meters":38000,"station_id":"ce4bhip2rcd13ifvqft0","pricing_plan_id":"cebpf4jnsgd1na2vs0mg"},{"bike_id":"dca5e579-20a1-445a-b2af-4f6dc2e8ffa0","system_id":"levelo_inurba_marseille","lat":43.29596,"lon":5.38091,"is_reserved":false,"is_disabled":false,"rental_uris":{"android":"levelo://app?vid=dca5e579-20a1-445a-b2af-4f6dc2e8ffa0","ios":"levelo://app?vid=dca5e579-20a1-445a-b2af-4f6dc2e8ffa0"},"vehicle_type_id":"4","last_reported":1773270946,"current_range_meters":16400,"station_id":"ce4bgl12rcd13ifvqbo0","pricing_plan_id":"cebpf4jnsgd1na2vs0mg"},{"bike_id":"712f73a5-ccbd-4df8-a2bf-f8199628c205","system_id":"levelo_inurba_marseille","lat":43.25958,"lon":5.40856,"is_reserved":false,"is_disabled":true,"rental_uris":{"android":"levelo://app?vid=712f73a5-ccbd-4df8-a2bf-f8199628c205","ios":"levelo://app?vid=712f73a5-ccbd-4df8-a2bf-f8199628c205"},"vehicle_type_id":"4","last_reported":1773270946,"current_range_meters":800,"station_id":"ce4bhm92rcd13ifvqglg","pricing_plan_id":"cebpf4jnsgd1na2vs0mg"},{"bike_id":"e88d7249-fc05-43d0-a19d-d01cd8d06e66","system_id":"levelo_inurba_marseille","lat":43.28569,"lon":5.39499,"is_reserved":false,"is_disabled":false,"rental_uris":{"android":"levelo://app?vid=e88d7249-fc05-43d0-a19d-d01cd8d06e66","ios":"levelo://app?vid=e88d7249-fc05-43d0-a19d-d01cd8d06e66"},"vehicle_type_id":"4","last_reported":1773270946,"current_range_meters":29600,"station_id":"ce4bh292rcd13ifvqdg0","pricing_plan_id":"cebpf4jnsgd1na2vs0mg"},{"bike_id":"8b2e521b-1101-44fe-9d4a-0344f080c81c","system_id":"levelo_inurba_marseille","lat":43.28483,"lon":5.484,"is_reserved":false,"is_disabled":false,"rental_uris":{"android":"levelo://app?vid=8b2e521b-1101-44fe-9d4a-0344f080c81c","ios":"levelo://app?vid=8b2e521b-1101-44fe-9d4a-0344f080c81c"},"vehicle_type_id":"4","last_reported":1773270946,"current_range_meters":35600,"station_id":"","pricing_plan_id":"cebpf4jnsgd1na2vs0mg"},{"bike_id":"95589260-830c-4b7a-b45f-29b29c821038","system_id":"levelo_inurba_marseille","lat":43.29879,"lon":5.38912,"is_reserved":false,"is_disabled":false,"rental_uris":{"android":"levelo://app?vid=95589260-830c-4b7a-b45f-29b29c821038","ios":"levelo://app?vid=95589260-830c-4b7a-b45f-29b29c821038"},"vehicle_type_id":"4","last_reported":1773270946,"current_range_meters":24800,"station_id":"ce4bh392rcd13ifvqdl0","pricing_plan_id":"cebpf4jnsgd1na2vs0mg"},{"bike_id":"1697678c-c8a4-4c47-ade7-901915c540a8","system_id":"levelo_inurba_marseille","lat":43.29593,"lon":5.38111,"is_reserved":false,"is_disabled":true,"rental_uris":{"android":"levelo://app?vid=1697678c-c8a4-4c47-ade7-901915c540a8","ios":"levelo://app?vid=1697678c-c8a4-4c47-ade7-901915c540a8"},"vehicle_type_id":"4","last_reported":1773270946,"current_range_meters":4800,"station_id":"ce4bgl12rcd13ifvqbo0","pricing_plan_id":"cebpf4jnsgd1na2vs0mg"},{"bike_id":"d80f8b21-307b-47a6-b275-9c8747f4f8fb","system_id":"levelo_inurba_marseille","lat":43.25099,"lon":5.39512,"is_reserved":false,"is_disabled":false,"rental_uris":{"android":"levelo://app?vid=d80f8b21-307b-47a6-b275-9c8747f4f8fb","ios":"levelo://app?vid=d80f8b21-307b-47a6-b275-9c8747f4f8fb"},"vehicle_type_id":"4","last_reported":1773270946,"current_range_meters":12000,"station_id":"ce4bhm12rcd13ifvqgkg","pricing_plan_id":"cebpf4jnsgd1na2vs0mg"},{"bike_id":"66528f80-fb68-498d-bd2d-ca4ea15bdef0","system_id":"levelo_inurba_marseille","lat":43.26499,"lon":5.39544,"is_reserved":false,"is_disabled":false,"rental_uris":{"android":"levelo://app?vid=66528f80-fb68-498d-bd2d-ca4ea15bdef0","ios":"levelo://app?vid=66528f80-fb68-498d-bd2d-ca4ea15bdef0"},"vehicle_type_id":"4","last_reported":1773270946,"current_range_meters":36400,"station_id":"ce4bhi12rcd13ifvqfq0","pricing_plan_id":"cebpf4jnsgd1na2vs0mg"},{"bike_id":"026385b7-1732-40c7-8f8b-8bf58e88baca","system_id":"levelo_inurba_marseille","lat":43.265,"lon":5.39535,"is_reserved":false,"is_disabled":false,"rental_uris":{"android":"levelo://app?vid=026385b7-1732-40c7-8f8b-8bf58e88baca","ios":"levelo://app?vid=026385b7-1732-40c7-8f8b-8bf58e88baca"},"vehicle_type_id":"4","last_reported":1773270946,"current_range_meters":26800,"station_id":"ce4bhi12rcd13ifvqfq0","pricing_plan_id":"cebpf4jnsgd1na2vs0mg"},{"bike_id":"bb8124a1-0ae2-4b9c-bb20-077c007658c6","system_id":"levelo_inurba_marseille","lat":43.29462,"lon":5.39734,"is_reserved":false,"is_disabled":false,"rental_uris":{"android":"levelo://app?vid=bb8124a1-0ae2-4b9c-bb20-077c007658c6","ios":"levelo://app?vid=bb8124a1-0ae2-4b9c-bb20-077c007658c6"},"vehicle_type_id":"4","last_reported":1773270946,"current_range_meters":28400,"station_id":"ce4bh3h2rcd13ifvqdo0","pricing_plan_id":"cebpf4jnsgd1na2vs0mg"},{"bike_id":"cb6cccbe-5f44-4b6e-a9b7-32582ca4b7c1","system_id":"levelo_inurba_marseille","lat":43.31892,"lon":5.40722,"is_reserved":false,"is_disabled":false,"rental_uris":{"android":"levelo://app?vid=cb6cccbe-5f44-4b6e-a9b7-32582ca4b7c1","ios":"levelo://app?vid=cb6cccbe-5f44-4b6e-a9b7-32582ca4b7c1"},"vehicle_type_id":"4","last_reported":1773270946,"current_range_meters":18800,"station_id":"ce4bhq12rcd13ifvqhig","pricing_plan_id":"cebpf4jnsgd1na2vs0mg"},{"bike_id":"65a7fe50-2450-4c8f-8e44-981be7bdae37","system_id":"levelo_inurba_marseille","lat":43.24741,"lon":5.38347,"is_reserved":false,"is_disabled":false,"rental_uris":{"android":"levelo://app?vid=65a7fe50-2450-4c8f-8e44-981be7bdae37","ios":"levelo://app?vid=65a7fe50-2450-4c8f-8e44-981be7bdae37"},"vehicle_type_id":"4","last_reported":1773270946,"current_range_meters":16000,"station_id":"","pricing_plan_id":"cebpf4jnsgd1na2vs0mg"},{"bike_id":"655eaa9e-f2b4-4b65-b0f5-7b1069ee048a","system_id":"levelo_inurba_marseille","lat":43.28619,"lon":5.35116,"is_reserved":false,"is_disabled":false,"rental_uris":{"android":"levelo://app?vid=655eaa9e-f2b4-4b65-b0f5-7b1069ee048a","ios":"levelo://app?vid=655eaa9e-f2b4-4b65-b0f5-7b1069ee048a"},"vehicle_type_id":"4","last_reported":1773270946,"current_range_meters":39200,"station_id":"ce4bhch2rcd13ifvqeug","pricing_plan_id":"cebpf4jnsgd1na2vs0mg"},{"bike_id":"c67ea42e-7de9-481c-81f7-f0ae210e353e","system_id":"levelo_inurba_marseille","lat":43.32006,"lon":5.38171,"is_reserved":false,"is_disabled":false,"rental_uris":{"android":"levelo://app?vid=c67ea42e-7de9-481c-81f7-f0ae210e353e","ios":"levelo://app?vid=c67ea42e-7de9-481c-81f7-f0ae210e353e"},"vehicle_type_id":"4","last_reported":1773270946,"current_range_meters":39200,"station_id":"ce4bhr12rcd13ifvqhpg","pricing_plan_id":"cebpf4jnsgd1na2vs0mg"},{"bike_id":"9e792793-12ef-456b-b432-616d9ed0f361","system_id":"levelo_inurba_marseille","lat":43.27913,"lon":5.39589,"is_reserved":false,"is_disabled":false,"rental_uris":{"android":"levelo://app?vid=9e792793-12ef-456b-b432-616d9ed0f361","ios":"levelo://app?vid=9e792793-12ef-456b-b432-616d9ed0f361"},"vehicle_type_id":"4","last_reported":1773270946,"current_range_meters":25600,"station_id":"ce4bhf92rcd13ifvqf40","pricing_plan_id":"cebpf4jnsgd1na2vs0mg"},{"bike_id":"a76fd0bc-5142-4d71-8a90-0cc97361118e","system_id":"levelo_inurba_marseille","lat":43.28945,"lon":5.36612,"is_reserved":false,"is_disabled":false,"rental_uris":{"android":"levelo://app?vid=a76fd0bc-5142-4d71-8a90-0cc97361118e","ios":"levelo://app?vid=a76fd0bc-5142-4d71-8a90-0cc97361118e"},"vehicle_type_id":"4","last_reported":1773270946,"current_range_meters":39200,"station_id":"ce4bhap2rcd13ifvqek0","pricing_plan_id":"cebpf4jnsgd1na2vs0mg"},{"bike_id":"20ef9d47-9471-4c6c-9fe4-852f5a927718","system_id":"levelo_inurba_marseille","lat":43.26374,"lon":5.4107,"is_reserved":false,"is_disabled":false,"rental_uris":{"android":"levelo://app?vid=20ef9d47-9471-4c6c-9fe4-852f5a927718","ios":"levelo://app?vid=20ef9d47-9471-4c6c-9fe4-852f5a927718"},"vehicle_type_id":"4","last_reported":1773270946,"current_range_meters":24800,"station_id":"st_d4e5ca6na9uc73bfl5fg","pricing_plan_id":"cebpf4jnsgd1na2vs0mg"},{"bike_id":"2ec0d240-9fa8-4251-9c9b-1cc6d98b3d6c","system_id":"levelo_inurba_marseille","lat":43.25574,"lon":5.38222,"is_reserved":false,"is_disabled":false,"rental_uris":{"android":"levelo://app?vid=2ec0d240-9fa8-4251-9c9b-1cc6d98b3d6c","ios":"levelo://app?vid=2ec0d240-9fa8-4251-9c9b-1cc6d98b3d6c"},"vehicle_type_id":"4","last_reported":1773270946,"current_range_meters":23200,"station_id":"ce4bhih2rcd13ifvqfs0","pricing_plan_id":"cebpf4jnsgd1na2vs0mg"},{"bike_id":"26a6b2e2-002a-4072-a1a2-b594f4e8b66c","system_id":"levelo_inurba_marseille","lat":43.30879,"lon":5.37342,"is_reserved":false,"is_disabled":false,"rental_uris":{"android":"levelo://app?vid=26a6b2e2-002a-4072-a1a2-b594f4e8b66c","ios":"levelo://app?vid=26a6b2e2-002a-4072-a1a2-b594f4e8b66c"},"vehicle_type_id":"4","last_reported":1773270946,"current_range_meters":28400,"station_id":"","pricing_plan_id":"cebpf4jnsgd1na2vs0mg"},{"bike_id":"9d6b0a0d-9ea8-4712-86fd-0b13ec8374a3","system_id":"levelo_inurba_marseille","lat":43.28731,"lon":5.36078,"is_reserved":false,"is_disabled":false,"rental_uris":{"android":"levelo://app?vid=9d6b0a0d-9ea8-4712-86fd-0b13ec8374a3","ios":"levelo://app?vid=9d6b0a0d-9ea8-4712-86fd-0b13ec8374a3"},"vehicle_type_id":"4","last_reported":1773270946,"current_range_meters":35200,"station_id":"cki0cbj6b192h4jlfktg","pricing_plan_id":"cebpf4jnsgd1na2vs0mg"},{"bike_id":"5427f33b-9c12-4d35-9e4f-95e705df3b08","system_id":"levelo_inurba_marseille","lat":43.30259,"lon":5.40061,"is_reserved":false,"is_disabled":false,"rental_uris":{"android":"levelo://app?vid=5427f33b-9c12-4d35-9e4f-95e705df3b08","ios":"levelo://app?vid=5427f33b-9c12-4d35-9e4f-95e705df3b08"},"vehicle_type_id":"4","last_reported":1773270946,"current_range_meters":22800,"station_id":"ce4bgvh2rcd13ifvqcs0","pricing_plan_id":"cebpf4jnsgd1na2vs0mg"},{"bike_id":"270d1b7c-42f5-4a51-af79-d949686283d3","system_id":"levelo_inurba_marseille","lat":43.27545,"lon":5.38459,"is_reserved":false,"is_disabled":false,"rental_uris":{"android":"levelo://app?vid=270d1b7c-42f5-4a51-af79-d949686283d3","ios":"levelo://app?vid=270d1b7c-42f5-4a51-af79-d949686283d3"},"vehicle_type_id":"4","last_reported":1773270946,"current_range_meters":26800,"station_id":"ce4bhh92rcd13ifvqfi0","pricing_plan_id":"cebpf4jnsgd1na2vs0mg"},{"bike_id":"16b990bd-4606-4271-8a2e-8a3444597059","system_id":"levelo_inurba_marseille","lat":43.24667,"lon":5.38168,"is_reserved":false,"is_disabled":false,"rental_uris":{"android":"levelo://app?vid=16b990bd-4606-4271-8a2e-8a3444597059","ios":"levelo://app?vid=16b990bd-4606-4271-8a2e-8a3444597059"},"vehicle_type_id":"4","last_reported":1773270946,"current_range_meters":12800,"station_id":"ce4bhih2rcd13ifvqfr0","pricing_plan_id":"cebpf4jnsgd1na2vs0mg"},{"bike_id":"43dec2c9-0ed1-464f-872a-fff85f3760db","system_id":"levelo_inurba_marseille","lat":43.29583,"lon":5.3674,"is_reserved":false,"is_disabled":false,"rental_uris":{"android":"levelo://app?vid=43dec2c9-0ed1-464f-872a-fff85f3760db","ios":"levelo://app?vid=43dec2c9-0ed1-464f-872a-fff85f3760db"},"vehicle_type_id":"4","last_reported":1773270946,"current_range_meters":30400,"station_id":"ce4bgph2rcd13ifvqc2g","pricing_plan_id":"cebpf4jnsgd1na2vs0mg"},{"bike_id":"7048f9c1-889a-4e47-9529-315e5bb5693c","system_id":"levelo_inurba_marseille","lat":43.24402,"lon":5.37064,"is_reserved":false,"is_disabled":false,"rental_uris":{"android":"levelo://app?vid=7048f9c1-889a-4e47-9529-315e5bb5693c","ios":"levelo://app?vid=7048f9c1-889a-4e47-9529-315e5bb5693c"},"vehicle_type_id":"4","last_reported":1773270946,"current_range_meters":39200,"station_id":"ce4bhhh2rcd13ifvqfk0","pricing_plan_id":"cebpf4jnsgd1na2vs0mg"},