{"last_updated":1687457321,"ttl":30,"version":"2.2","data":{"bikes":[{"bike_id":"9324c328-a03e-49f0-9628-bf075ceddffb","system_id":"levelo_inurba_marseille","lat":43.305706,"lon":5.365654,"is_reserved":false,"is_disabled":false,"rental_uris":{"android":"levelo://app?vid=9324c328-a03e-49f0-9628-bf075ceddffb","ios":"levelo://app?vid=9324c328-a03e-49f0-9628-bf075ceddffb"},"vehicle_type_id":"4","last_reported":1687457322,"current_range_meters":20000,"station_id":"ce4bgs12rcd13ifvqcag","pricing_plan_id":"free"},{"bike_id":"6373b849-5307-469a-be82-ced3c0131b58","system_id":"levelo_inurba_marseille","lat":43.30603,"lon":5.37229,"is_reserved":false,"is_disabled":false,"rental_uris":{"android":"levelo://app?vid=6373b849-5307-469a-be82-ced3c0131b58","ios":"levelo://app?vid=6373b849-5307-469a-be82-ced3c0131b58"},"vehicle_type_id":"4","last_reported":1687457322,"current_range_meters":1600,"station_id":"ce4bgqh2rcd13ifvqc4g","pricing_plan_id":"free"},{"bike_id":"2cebafeb-12a0-4cb6-83ce-4e34dcefc158","system_id":"levelo_inurba_marseille","lat":43.317075,"lon":5.377367,"is_reserved":false,"is_disabled":false,"rental_uris":{"android":"levelo://app?vid=2cebafeb-12a0-4cb6-83ce-4e34dcefc158","ios":"levelo://app?vid=2cebafeb-12a0-4cb6-83ce-4e34dcefc158"},"vehicle_type_id":"4","last_reported":1687457322,"current_range_meters":27600,"station_id":"ce4bgth2rcd13ifvqch0","pricing_plan_id":"free"},{"bike_id":"bdf6da01-d178-47aa-910c-a6d8d9305f3b","system_id":"levelo_inurba_marseille","lat":43.31535,"lon":5.38039,"is_reserved":false,"is_disabled":false,"rental_uris":{"android":"levelo://app?vid=bdf6da01-d178-47aa-910c-a6d8d9305f3b","ios":"levelo://app?vid=bdf6da01-d178-47aa-910c-a6d8d9305f3b"},"vehicle_type_id":"4","last_reported":1687457322,"current_range_meters":29200,"station_id":"ce4bhsp2rcd13ifvqi50","pricing_plan_id":"free"},{"bike_id":"c98c824a-5a21-41d7-a2b3-cfad705b7985","system_id":"levelo_inurba_marseille","lat":43.292642,"lon":5.384254,"is_reserved":false,"is_disabled":false,"rental_uris":{"android":"levelo://app?vid=c98c824a-5a21-41d7-a2b3-cfad705b7985","ios":"levelo://app?vid=c98c824a-5a21-41d7-a2b3-cfad705b7985"},"vehicle_type_id":"4","last_reported":1687457322,"current_range_meters":1600,"station_id":"ce4bh692rcd13ifvqea0","pricing_plan_id":"free"},{"bike_id":"6a17a204-d09a-45e9-a86e-00250e57f0d0","system_id":"levelo_inurba_marseille","lat":43.304606,"lon":5.379026,"is_reserved":false,"is_disabled":false,"rental_uris":{"android":"levelo://app?vid=6a17a204-d09a-45e9-a86e-00250e57f0d0","ios":"levelo://app?vid=6a17a204-d09a-45e9-a86e-00250e57f0d0"},"vehicle_type_id":"4","last_reported":1687457322,"current_range_meters":3200,"station_id":"ce4bgup2rcd13ifvqcn0","pricing_plan_id":"free"},{"bike_id":"593c4e0b-0848-4299-960b-46e880a35e40","system_id":"levelo_inurba_marseille","lat":43.304616,"lon":5.379009,"is_reserved":false,"is_disabled":false,"rental_uris":{"android":"levelo://app?vid=593c4e0b-0848-4299-960b-46e880a35e40","ios":"levelo://app?vid=593c4e0b-0848-4299-960b-46e880a35e40"},"vehicle_type_id":"4","last_reported":1687457322,"current_range_meters":31200,"station_id":"ce4bgup2rcd13ifvqcn0","pricing_plan_id":"free"},{"bike_id":"43fc693e-f2a9-4aec-8fd9-d094bb02cb70","system_id":"levelo_inurba_marseille","lat":43.304606,"lon":5.379026,"is_reserved":false,"is_disabled":false,"rental_uris":{"android":"levelo://app?vid=43fc693e-f2a9-4aec-8fd9-d094bb02cb70","ios":"levelo://app?vid=43fc693e-f2a9-4aec-8fd9-d094bb02cb70"},"vehicle_type_id":"4","last_reported":1687457322,"current_range_meters":1200,"station_id":"ce4bgup2rcd13ifvqcn0","pricing_plan_id":"free"},{"bike_id":"688dddbd-f47f-472a-a201-eb2b35f9fd23","system_id":"levelo_inurba_marseille","lat":43.30281,"lon":5.37691,"is_reserved":false,"is_disabled":false,"rental_uris":{"android":"levelo://app?vid=688dddbd-f47f-472a-a201-eb2b35f9fd23","ios":"levelo://app?vid=688dddbd-f47f-472a-a201-eb2b35f9fd23"},"vehicle_type_id":"4","last_reported":1687457322,"current_range_meters":30400,"station_id":"ce4bguh2rcd13ifvqcj0","pricing_plan_id":"free"},{"bike_id":"6d9a90bc-71d5-487b-a825-2b3b90d1504f","system_id":"levelo_inurba_marseille","lat":43.30149,"lon":5.37422,"is_reserved":false,"is_disabled":false,"rental_uris":{"android":"levelo://app?vid=6d9a90bc-71d5-487b-a825-2b3b90d1504f","ios":"levelo://app?vid=6d9a90bc-71d5-487b-a825-2b3b90d1504f"},"vehicle_type_id":"4","last_reported":1687457322,"current_range_meters":14000,"station_id":"ce4bgs92rcd13ifvqcc0","pricing_plan_id":"free"},{"bike_id":"dd0223fc-e3b2-4277-9a36-68031be99e8b","system_id":"levelo_inurba_marseille","lat":43.319935,"lon":5.381699,"is_reserved":false,"is_disabled":false,"rental_uris":{"android":"levelo://app?vid=dd0223fc-e3b2-4277-9a36-68031be99e8b","ios":"levelo://app?vid=dd0223fc-e3b2-4277-9a36-68031be99e8b"},"vehicle_type_id":"4","last_reported":1687457322,"current_range_meters":12800,"station_id":"ce4bhr12rcd13ifvqhpg","pricing_plan_id":"free"},{"bike_id":"7deee56c-9315-446d-9bb0-655b3a7b2977","system_id":"levelo_inurba_marseille","lat":43.319935,"lon":5.381699,"is_reserved":false,"is_disabled":false,"rental_uris":{"android":"levelo://app?vid=7deee56c-9315-446d-9bb0-655b3a7b2977","ios":"levelo://app?vid=7deee56c-9315-446d-9bb0-655b3a7b2977"},"vehicle_type_id":"4","last_reported":1687457322,"current_range_meters":6800,"station_id":"ce4bhr12rcd13ifvqhpg","pricing_plan_id":"free"},{"bike_id":"e4a03f53-3461-4018-b3f6-da58e13ddec8","system_id":"levelo_inurba_marseille","lat":43.313571,"lon":5.384829,"is_reserved":false,"is_disabled":false,"rental_uris":{"android":"levelo://app?vid=e4a03f53-3461-4018-b3f6-da58e13ddec8","ios":"levelo://app?vid=e4a03f53-3461-4018-b3f6-da58e13ddec8"},"vehicle_type_id":"4","last_reported":1687457322,"current_range_meters":16000,"station_id":"ce4bgt92rcd13ifvqcf0","pricing_plan_id":"free"},{"bike_id":"3d53054e-afa7-4658-869f-d7494f47b3a5","system_id":"levelo_inurba_marseille","lat":43.313571,"lon":5.384829,"is_reserved":false,"is_disabled":false,"rental_uris":{"android":"levelo://app?vid=3d53054e-afa7-4658-869f-d7494f47b3a5","ios":"levelo://app?vid=3d53054e-afa7-4658-869f-d7494f47b3a5"},"vehicle_type_id":"4","last_reported":1687457322,"current_range_meters":28400,"station_id":"ce4bgt92rcd13ifvqcf0","pricing_plan_id":"free"},{"bike_id":"fee6c8dd-c751-4479-9350-369deb58946f","system_id":"levelo_inurba_marseille","lat":43.31365,"lon":5.38498,"is_reserved":false,"is_disabled":false,"rental_uris":{"android":"levelo://app?vid=fee6c8dd-c751-4479-9350-369deb58946f","ios":"levelo://app?vid=fee6c8dd-c751-4479-9350-369deb58946f"},"vehicle_type_id":"4","last_reported":1687457322,"current_range_meters":4000,"station_id":"ce4bgt92rcd13ifvqcf0","pricing_plan_id":"free"},{"bike_id":"0ed6dca5-82e5-4ac7-a304-07e1ec74ef1a","system_id":"levelo_inurba_marseille","lat":43.29936,"lon":5.36525,"is_reserved":false,"is_disabled":false,"rental_uris":{"android":"levelo://app?vid=0ed6dca5-82e5-4ac7-a304-07e1ec74ef1a","ios":"levelo://app?vid=0ed6dca5-82e5-4ac7-a304-07e1ec74ef1a"},"vehicle_type_id":"4","last_reported":1687457322,"current_range_meters":14800,"station_id":"","pricing_plan_id":"free"},{"bike_id":"cc7ccaed-aeac-4fb6-a249-e3eec1cb8751","system_id":"levelo_inurba_marseille","lat":43.32284,"lon":5.37943,"is_reserved":false,"is_disabled":false,"rental_uris":{"android":"levelo://app?vid=cc7ccaed-aeac-4fb6-a249-e3eec1cb8751","ios":"levelo://app?vid=cc7ccaed-aeac-4fb6-a249-e3eec1cb8751"},"vehicle_type_id":"4","last_reported":1687457322,"current_range_meters":30000,"station_id":"","pricing_plan_id":"free"},{"bike_id":"73d4fc10-25c5-41a2-a408-2346ebfbb5de","system_id":"levelo_inurba_marseille","lat":43.299243,"lon":5.37481,"is_reserved":false,"is_disabled":false,"rental_uris":{"android":"levelo://app?vid=73d4fc10-25c5-41a2-a408-2346ebfbb5de","ios":"levelo://app?vid=73d4fc10-25c5-41a2-a408-2346ebfbb5de"},"vehicle_type_id":"4","last_reported":1687457322,"current_range_meters":4800,"station_id":"ce4bgjh2rcd13ifvqbg0","pricing_plan_id":"free"},{"bike_id":"564e34e9-4f17-47f3-9218-8f52e5a67b3f","system_id":"levelo_inurba_marseille","lat":43.305364,"lon":5.384119,"is_reserved":false,"is_disabled":false,"rental_uris":{"android":"levelo://app?vid=564e34e9-4f17-47f3-9218-8f52e5a67b3f","ios":"levelo://app?vid=564e34e9-4f17-47f3-9218-8f52e5a67b3f"},"vehicle_type_id":"4","last_reported":1687457322,"current_range_meters":31200,"station_id":"ce4bgg92rcd13ifvqb30","pricing_plan_id":"free"},{"bike_id":"996fa3bd-3452-45d6-8e06-7df65ce740bf","system_id":"levelo_inurba_marseille","lat":43.311722,"lon":5.387247,"is_reserved":false,"is_disabled":false,"rental_uris":{"android":"levelo://app?vid=996fa3bd-3452-45d6-8e06-7df65ce740bf","ios":"levelo://app?vid=996fa3bd-3452-45d6-8e06-7df65ce740bf"},"vehicle_type_id":"4","last_reported":1687457322,"current_range_meters":2000,"station_id":"ce4bgv12rcd13ifvqcp0","pricing_plan_id":"free"},{"bike_id":"3b7a1085-b837-4fc4-8a9c-9000710c0eb2","system_id":"levelo_inurba_marseille","lat":43.311722,"lon":5.387247,"is_reserved":false,"is_disabled":false,"rental_uris":{"android":"levelo://app?vid=3b7a1085-b837-4fc4-8a9c-9000710c0eb2","ios":"levelo://app?vid=3b7a1085-b837-4fc4-8a9c-9000710c0eb2"},"vehicle_type_id":"4","last_reported":1687457322,"current_range_meters":0,"station_id":"ce4bgv12rcd13ifvqcp0","pricing_plan_id":"free"},{"bike_id":"f5100f51-1ea2-459e-8063-9e4fa9c25920","system_id":"levelo_inurba_marseille","lat":43.311722,"lon":5.387247,"is_reserved":false,"is_disabled":false,"rental_uris":{"android":"levelo://app?vid=f5100f51-1ea2-459e-8063-9e4fa9c25920","ios":"levelo://app?vid=f5100f51-1ea2-459e-8063-9e4fa9c25920"},"vehicle_type_id":"4","last_reported":1687457322,"current_range_meters":3600,"station_id":"ce4bgv12rcd13ifvqcp0","pricing_plan_id":"free"},{"bike_id":"f2496b54-44fd-459e-85e4-5598eae56454","system_id":"levelo_inurba_marseille","lat":43.311722,"lon":5.387247,"is_reserved":false,"is_disabled":false,"rental_uris":{"android":"levelo://app?vid=f2496b54-44fd-459e-85e4-5598eae56454","ios":"levelo://app?vid=f2496b54-44fd-459e-85e4-5598eae56454"},"vehicle_type_id":"4","last_reported":1687457322,"current_range_meters":11600,"station_id":"ce4bgv12rcd13ifvqcp0","pricing_plan_id":"free"},{"bike_id":"969a62af-d74b-4336-9bac-534fb8175aca","system_id":"levelo_inurba_marseille","lat":43.311722,"lon":5.387247,"is_reserved":false,"is_disabled":false,"rental_uris":{"android":"levelo://app?vid=969a62af-d74b-4336-9bac-534fb8175aca","ios":"levelo://app?vid=969a62af-d74b-4336-9bac-534fb8175aca"},"vehicle_type_id":"4","last_reported":1687457322,"current_range_meters":31200,"station_id":"ce4bgv12rcd13ifvqcp0","pricing_plan_id":"free"},{"bike_id":"284a0cf7-0a55-4ec6-93da-63f4c891ba8a","system_id":"levelo_inurba_marseille","lat":43.311722,"lon":5.387247,"is_reserved":false,"is_disabled":false,"rental_uris":{"android":"levelo://app?vid=284a0cf7-0a55-4ec6-93da-63f4c891ba8a","ios":"levelo://app?vid=284a0cf7-0a55-4ec6-93da-63f4c891ba8a"},"vehicle_type_id":"4","last_reported":1687457322,"current_range_meters":18000,"station_id":"ce4bgv12rcd13ifvqcp0","pricing_plan_id":"free"},{"bike_id":"1e74c1d8-2ce0-4861-9d54-0f86a54daeb6","system_id":"levelo_inurba_marseille","lat":43.311722,"lon":5.387247,"is_reserved":false,"is_disabled":false,"rental_uris":{"android":"levelo://app?vid=1e74c1d8-2ce0-4861-9d54-0f86a54daeb6","ios":"levelo://app?vid=1e74c1d8-2ce0-4861-9d54-0f86a54daeb6"},"vehicle_type_id":"4","last_reported":1687457322,"current_range_meters":15600,"station_id":"ce4bgv12rcd13ifvqcp0","pricing_plan_id":"free"},{"bike_id":"e6ea61d5-da20-4ad2-b344-94c2975133fa","system_id":"levelo_inurba_marseille","lat":43.3228,"lon":5.38223,"is_reserved":false,"is_disabled":false,"rental_uris":{"android":"levelo://app?vid=e6ea61d5-da20-4ad2-b344-94c2975133fa","ios":"levelo://app?vid=e6ea61d5-da20-4ad2-b344-94c2975133fa"},"vehicle_type_id":"4","last_reported":1687457322,"current_range_meters":400,"station_id":"","pricing_plan_id":"free"},{"bike_id":"b80a5975-31f0-41cc-be13-a6774525357b","system_id":"levelo_inurba_marseille","lat":43.29772,"lon":5.37113,"is_reserved":false,"is_disabled":false,"rental_uris":{"android":"levelo://app?vid=b80a5975-31f0-41cc-be13-a6774525357b","ios":"levelo://app?vid=b80a5975-31f0-41cc-be13-a6774525357b"},"vehicle_type_id":"4","last_reported":1687457322,"current_range_meters":2000,"station_id":"ce4bgop2rcd13ifvqc1g","pricing_plan_id":"free"},{"bike_id":"41235149-f42e-4673-9d1a-055ac92c3df6","system_id":"levelo_inurba_marseille","lat":43.328371,"lon":5.366909,"is_reserved":false,"is_disabled":false,"rental_uris":{"android":"levelo://app?vid=41235149-f42e-4673-9d1a-055ac92c3df6","ios":"levelo://app?vid=41235149-f42e-4673-9d1a-055ac92c3df6"},"vehicle_type_id":"4","last_reported":1687457322,"current_range_meters":28400,"station_id":"ce4bhs92rcd13ifvqi0g","pricing_plan_id":"free"},{"bike_id":"32fb0018-b29a-47a1-a2ea-48d2b3ff842c","system_id":"levelo_inurba_marseille","lat":43.328371,"lon":5.366909,"is_reserved":false,"is_disabled":false,"rental_uris":{"android":"levelo://app?vid=32fb0018-b29a-47a1-a2ea-48d2b3ff842c","ios":"levelo://app?vid=32fb0018-b29a-47a1-a2ea-48d2b3ff842c"},"vehicle_type_id":"4","last_reported":1687457322,"current_range_meters":0,"station_id":"ce4bhs92rcd13ifvqi0g","pricing_plan_id":"free"},{"bike_id":"9cdb0aaa-0c2a-4e5d-ae36-cf04a66695ef","system_id":"levelo_inurba_marseille","lat":43.328371,"lon":5.366909,"is_reserved":false,"is_disabled":false,"rental_uris":{"android":"levelo://app?vid=9cdb0aaa-0c2a-4e5d-ae36-cf04a66695ef","ios":"levelo://app?vid=9cdb0aaa-0c2a-4e5d-ae36-cf04a66695ef"},"vehicle_type_id":"4","last_reported":1687457322,"current_range_meters":14000,"station_id":"ce4bhs92rcd13ifvqi0g","pricing_plan_id":"free"},{"bike_id":"d6aa4b8f-0fbd-492f-a726-f1b64033634e","system_id":"levelo_inurba_marseille","lat":43.29686,"lon":5.36429,"is_reserved":false,"is_disabled":false,"rental_uris":{"android":"levelo://app?vid=d6aa4b8f-0fbd-492f-a726-f1b64033634e","ios":"levelo://app?vid=d6aa4b8f-0fbd-492f-a726-f1b64033634e"},"vehicle_type_id":"4","last_reported":1687457322,"current_range_meters":14400,"station_id":"","pricing_plan_id":"free"},{"bike_id":"b959bcbc-33d0-42e2-a629-e97681c065a5","system_id":"levelo_inurba_marseille","lat":43.311722,"lon":5.387247,"is_reserved":false,"is_disabled":false,"rental_uris":{"android":"levelo://app?vid=b959bcbc-33d0-42e2-a629-e97681c065a5","ios":"levelo://app?vid=b959bcbc-33d0-42e2-a629-e97681c065a5"},"vehicle_type_id":"4","last_reported":1687457322,"current_range_meters":0,"station_id":"ce4bgv12rcd13ifvqcp0","pricing_plan_id":"free"},{"bike_id":"20fe7060-1161-4b5f-bea7-89ca915c42b9","system_id":"levelo_inurba_marseille","lat":43.29573,"lon":5.367355,"is_reserved":false,"is_disabled":false,"rental_uris":{"android":"levelo://app?vid=20fe7060-1161-4b5f-bea7-89ca915c42b9","ios":"levelo://app?vid=20fe7060-1161-4b5f-bea7-89ca915c42b9"},"vehicle_type_id":"4","last_reported":1687457322,"current_range_meters":800,"station_id":"ce4bgph2rcd13ifvqc2g","pricing_plan_id":"free"},{"bike_id":"8bc1f4a9-1fd8-4837-a716-f211e6689792","system_id":"levelo_inurba_marseille","lat":43.309589,"lon":5.390258,"is_reserved":false,"is_disabled":false,"rental_uris":{"android":"levelo://app?vid=8bc1f4a9-1fd8-4837-a716-f211e6689792","ios":"levelo://app?vid=8bc1f4a9-1fd8-4837-a716-f211e6689792"},"vehicle_type_id":"4","last_reported":1687457322,"current_range_meters":14400,"station_id":"ce4bgup2rcd13ifvqco0","pricing_plan_id":"free"},{"bike_id":"aca99abf-68d0-4991-8d1a-902e490f2887","system_id":"levelo_inurba_marseille","lat":43.30967,"lon":5.39023,"is_reserved":false,"is_disabled":false,"rental_uris":{"android":"levelo://app?vid=aca99abf-68d0-4991-8d1a-902e490f2887","ios":"levelo://app?vid=aca99abf-68d0-4991-8d1a-902e490f2887"},"vehicle_type_id":"4","last_reported":1687457322,"current_range_meters":2000,"station_id":"ce4bh0p2rcd13ifvqd80","pricing_plan_id":"free"},{"bike_id":"79999bf5-a0b5-4d32-8a56-fba656bbf8b6","system_id":"levelo_inurba_marseille","lat":43.309589,"lon":5.390258,"is_reserved":false,"is_disabled":false,"rental_uris":{"android":"levelo://app?vid=79999bf5-a0b5-4d32-8a56-fba656bbf8b6","ios":"levelo://app?vid=79999bf5-a0b5-4d32-8a56-fba656bbf8b6"},"vehicle_type_id":"4","last_reported":1687457322,"current_range_meters":5200,"station_id":"ce4bgup2rcd13ifvqco0","pricing_plan_id":"free"},{"bike_id":"142836e3-859d-41d9-80dd-03a4c2dcb966","system_id":"levelo_inurba_marseille","lat":43.30967,"lon":5.39027,"is_reserved":false,"is_disabled":false,"rental_uris":{"android":"levelo://app?vid=142836e3-859d-41d9-80dd-03a4c2dcb966","ios":"levelo://app?vid=142836e3-859d-41d9-80dd-03a4c2dcb966"},"vehicle_type_id":"4","last_reported":1687457322,"current_range_meters":0,"station_id":"ce4bgup2rcd13ifvqco0","pricing_plan_id":"free"},{"bike_id":"33cb0ca8-d2f8-4751-a08b-cb7596e8f710","system_id":"levelo_inurba_marseille","lat":43.309589,"lon":5.390258,"is_reserved":false,"is_disabled":false,"rental_uris":{"android":"levelo://app?vid=33cb0ca8-d2f8-4751-a08b-cb7596e8f710","ios":"levelo://app?vid=33cb0ca8-d2f8-4751-a08b-cb7596e8f710"},"vehicle_type_id":"4","last_reported":1687457322,"current_range_meters":10800,"station_id":"ce4bgup2rcd13ifvqco0","pricing_plan_id":"free"},{"bike_id":"041bc147-ef2f-419b-bb81-deca3bdf89e2","system_id":"levelo_inurba_marseille","lat":43.29611,"lon":5.36046,"is_reserved":false,"is_disabled":false,"rental_uris":{"android":"levelo://app?vid=041bc147-ef2f-419b-bb81-deca3bdf89e2","ios":"levelo://app?vid=041bc147-ef2f-419b-bb81-deca3bdf89e2"},"vehicle_type_id":"4","last_reported":1687457322,"current_range_meters":13600,"station_id":"","pricing_plan_id":"free"},{"bike_id":"dd07eb0f-bf06-41d7-a132-ea747aca65a7","system_id":"levelo_inurba_marseille","lat":43.309589,"lon":5.390258,"is_reserved":false,"is_disabled":false,"rental_uris":{"android":"levelo://app?vid=dd07eb0f-bf06-41d7-a132-ea747aca65a7","ios":"levelo://app?vid=dd07eb0f-bf06-41d7-a132-ea747aca65a7"},"vehicle_type_id":"4","last_reported":1687457322,"current_range_meters":2800,"station_id":"ce4bgup2rcd13ifvqco0","pricing_plan_id":"free"},{"bike_id":"d23bee67-d34f-4e58-a259-ca0262701a12","system_id":"levelo_inurba_marseille","lat":43.295752,"lon":5.375148,"is_reserved":false,"is_disabled":false,"rental_uris":{"android":"levelo://app?vid=d23bee67-d34f-4e58-a259-ca0262701a12","ios":"levelo://app?vid=d23bee67-d34f-4e58-a259-ca0262701a12"},"vehicle_type_id":"4","last_reported":1687457322,"current_range_meters":800,"station_id":"","pricing_plan_id":"free"},{"bike_id":"9c8497e8-4a62-4213-aa12-3d3f72e2b3fa","system_id":"levelo_inurba_marseille","lat":43.304274,"lon":5.388873,"is_reserved":false,"is_disabled":false,"rental_uris":{"android":"levelo://app?vid=9c8497e8-4a62-4213-aa12-3d3f72e2b3fa","ios":"levelo://app?vid=9c8497e8-4a62-4213-aa12-3d3f72e2b3fa"},"vehicle_type_id":"4","last_reported":1687457322,"current_range_meters":31200,"station_id":"ce4bgk12rcd13ifvqbi0","pricing_plan_id":"free"},{"bike_id":"57ef74e7-dc4c-4c99-8885-e798792eeba1","system_id":"levelo_inurba_marseille","lat":43.30442,"lon":5.38899,"is_reserved":false,"is_disabled":false,"rental_uris":{"android":"levelo://app?vid=57ef74e7-dc4c-4c99-8885-e798792eeba1","ios":"levelo://app?vid=57ef74e7-dc4c-4c99-8885-e798792eeba1"},"vehicle_type_id":"4","last_reported":1687457322,"current_range_meters":31200,"station_id":"ce4bgk12rcd13ifvqbi0","pricing_plan_id":"free"},{"bike_id":"f200231e-1d0e-4d5e-950f-4e8ec01fc4a4","system_id":"levelo_inurba_marseille","lat":43.296263,"lon":5.377094,"is_reserved":false,"is_disabled":false,"rental_uris":{"android":"levelo://app?vid=f200231e-1d0e-4d5e-950f-4e8ec01fc4a4","ios":"levelo://app?vid=f200231e-1d0e-4d5e-950f-4e8ec01fc4a4"},"vehicle_type_id":"4","last_reported":1687457322,"current_range_meters":0,"station_id":"ce4bgi92rcd13ifvqb90","pricing_plan_id":"free"},{"bike_id":"c345287a-3c55-4ffa-9f12-a6b3c2a52702","system_id":"levelo_inurba_marseille","lat":43.29599,"lon":5.37714,"is_reserved":false,"is_disabled":false,"rental_uris":{"android":"levelo://app?vid=c345287a-3c55-4ffa-9f12-a6b3c2a52702","ios":"levelo://app?vid=c345287a-3c55-4ffa-9f12-a6b3c2a52702"},"vehicle_type_id":"4","last_reported":1687457322,"current_range_meters":0,"station_id":"","pricing_plan_id":"free"},{"bike_id":"008a53d2-e093-46c5-b44a-7dd8d5e5c60b","system_id":"levelo_inurba_marseille","lat":43.309589,"lon":5.390258,"is_reserved":false,"is_disabled":false,"rental_uris":{"android":"levelo://app?vid=008a53d2-e093-46c5-b44a-7dd8d5e5c60b","ios":"levelo://app?vid=008a53d2-e093-46c5-b44a-7dd8d5e5c60b"},"vehicle_type_id":"4","last_reported":1687457322,"current_range_meters":9600,"station_id":"ce4bgup2rcd13ifvqco0","pricing_plan_id":"free"},{"bike_id":"9c01e023-7357-4377-b904-d0661aa499b3","system_id":"levelo_inurba_marseille","lat":43.32366,"lon":5.38873,"is_reserved":false,"is_disabled":false,"rental_uris":{"android":"levelo://app?vid=9c01e023-7357-4377-b904-d0661aa499b3","ios":"levelo://app?vid=9c01e023-7357-4377-b904-d0661aa499b3"},"vehicle_type_id":"4","last_reported":1687457322,"current_range_meters":23600,"station_id":"ce4bhqp2rcd13ifvqhog","pricing_plan_id":"free"},{"bike_id":"cf7014bc-49c1-465b-a116-1efbbe1210c8","system_id":"levelo_inurba_marseille","lat":43.32364,"lon":5.3888,"is_reserved":false,"is_disabled":false,"rental_uris":{"android":"levelo://app?vid=cf7014bc-49c1-465b-a116-1efbbe1210c8","ios":"levelo://app?vid=cf7014bc-49c1-465b-a116-1efbbe1210c8"},"vehicle_type_id":"4","last_reported":1687457322,"current_range_meters":22800,"station_id":"ce4bhqp2rcd13ifvqhog","pricing_plan_id":"free"},{"bike_id":"fe0efc2f-dafd-46c3-b01b-b7b8dd1e78b9","system_id":"levelo_inurba_marseille","lat":43.32366,"lon":5.38883,"is_reserved":false,"is_disabled":false,"rental_uris":{"android":"levelo://app?vid=fe0efc2f-dafd-46c3-b01b-b7b8dd1e78b9","ios":"levelo://app?vid=fe0efc2f-dafd-46c3-b01b-b7b8dd1e78b9"},"vehicle_type_id":"4","last_reported":1687457322,"current_range_meters":25200,"station_id":"ce4bhqp2rcd13ifvqhog","pricing_plan_id":"free"},{"bike_id":"ba9bcc13-30a6-41ee-ab87-c9d21de1e9f5","system_id":"levelo_inurba_marseille","lat":43.32367,"lon":5.388836,"is_reserved":false,"is_disabled":false,"rental_uris":{"android":"levelo://app?vid=ba9bcc13-30a6-41ee-ab87-c9d21de1e9f5","ios":"levelo://app?vid=ba9bcc13-30a6-41ee-ab87-c9d21de1e9f5"},"vehicle_type_id":"4","last_reported":1687457322,"current_range_meters":22800,"station_id":"ce4bhqp2rcd13ifvqhog","pricing_plan_id":"free"},{"bike_id":"e041460a-54ae-4871-ad9f-b6135e0ef88f","system_id":"levelo_inurba_marseille","lat":43.32365,"lon":5.38887,"is_reserved":false,"is_disabled":false,"rental_uris":{"android":"levelo://app?vid=e041460a-54ae-4871-ad9f-b6135e0ef88f","ios":"levelo://app?vid=e041460a-54ae-4871-ad9f-b6135e0ef88f"},"vehicle_type_id":"4","last_reported":1687457322,"current_range_meters":28000,"station_id":"ce4bhqp2rcd13ifvqhog","pricing_plan_id":"free"},{"bike_id":"e9a5f79a-69b5-4c7c-81b9-81e43f3bff7b","system_id":"levelo_inurba_marseille","lat":43.32366,"lon":5.38887,"is_reserved":false,"is_disabled":false,"rental_uris":{"android":"levelo://app?vid=e9a5f79a-69b5-4c7c-81b9-81e43f3bff7b","ios":"levelo://app?vid=e9a5f79a-69b5-4c7c-81b9-81e43f3bff7b"},"vehicle_type_id":"4","last_reported":1687457322,"current_range_meters":20800,"station_id":"ce4bhqp2rcd13ifvqhog","pricing_plan_id":"free"},{"bike_id":"f8d117a1-c743-478d-8735-98497e56f27d","system_id":"levelo_inurba_marseille","lat":43.32361,"lon":5.38893,"is_reserved":false,"is_disabled":false,"rental_uris":{"android":"levelo://app?vid=f8d117a1-c743-478d-8735-98497e56f27d","ios":"levelo://app?vid=f8d117a1-c743-478d-8735-98497e56f27d"},"vehicle_type_id":"4","last_reported":1687457322,"current_range_meters":7200,"station_id":"ce4bhqp2rcd13ifvqhog","pricing_plan_id":"free"},{"bike_id":"c7cd9850-b7d2-4cd4-8282-7da1d14f9e27","system_id":"levelo_inurba_marseille","lat":43.3237,"lon":5.38885,"is_reserved":false,"is_disabled":false,"rental_uris":{"android":"levelo://app?vid=c7cd9850-b7d2-4cd4-8282-7da1d14f9e27","ios":"levelo://app?vid=c7cd9850-b7d2-4cd4-8282-7da1d14f9e27"},"vehicle_type_id":"4","last_reported":1687457322,"current_range_meters":31200,"station_id":"ce4bhqp2rcd13ifvqhog","pricing_plan_id":"free"},{"bike_id":"a4c04ed7-cab4-4ea0-9634-ee9e7e7d7c83","system_id":"levelo_inurba_marseille","lat":43.32366,"lon":5.38889,"is_reserved":false,"is_disabled":false,"rental_uris":{"android":"levelo://app?vid=a4c04ed7-cab4-4ea0-9634-ee9e7e7d7c83","ios":"levelo://app?vid=a4c04ed7-cab4-4ea0-9634-ee9e7e7d7c83"},"vehicle_type_id":"4","last_reported":1687457322,"current_range_meters":31200,"station_id":"ce4bhqp2rcd13ifvqhog","pricing_plan_id":"free"},{"bike_id":"87554ed8-98b3-4db3-9fdf-5492a339858d","system_id":"levelo_inurba_marseille","lat":43.305994,"lon":5.393687,"is_reserved":false,"is_disabled":false,"rental_uris":{"android":"levelo://app?vid=87554ed8-98b3-4db3-9fdf-5492a339858d","ios":"levelo://app?vid=87554ed8-98b3-4db3-9fdf-5492a339858d"},"vehicle_type_id":"4","last_reported":1687457322,"current_range_meters":8000,"station_id":"ce4bh0p2rcd13ifvqd80","pricing_plan_id":"free"},{"bike_id":"2916f38d-7d41-4f8c-9adb-aca097267434","system_id":"levelo_inurba_marseille","lat":43.293009,"lon":5.374584,"is_reserved":false,"is_disabled":false,"rental_uris":{"android":"levelo://app?vid=2916f38d-7d41-4f8c-9adb-aca097267434","ios":"levelo://app?vid=2916f38d-7d41-4f8c-9adb-aca097267434"},"vehicle_type_id":"4","last_reported":1687457322,"current_range_meters":0,"station_id":"ce4bgi12rcd13ifvqb70","pricing_plan_id":"free"},{"bike_id":"82962bf2-4310-4efb-af0e-e0c2985b458f","system_id":"levelo_inurba_marseille","lat":43.29264,"lon":5.35974,"is_reserved":false,"is_disabled":false,"rental_uris":{"android":"levelo://app?vid=82962bf2-4310-4efb-af0e-e0c2985b458f","ios":"levelo://app?vid=82962bf2-4310-4efb-af0e-e0c2985b458f"},"vehicle_type_id":"4","last_reported":1687457322,"current_range_meters":28400,"station_id":"","pricing_plan_id":"free"},{"bike_id":"e57d81ca-f33b-4a94-87a0-fdf98ca78aed","system_id":"levelo_inurba_marseille","lat":43.29224,"lon":5.36049,"is_reserved":false,"is_disabled":false,"rental_uris":{"android":"levelo://app?vid=e57d81ca-f33b-4a94-87a0-fdf98ca78aed","ios":"levelo://app?vid=e57d81ca-f33b-4a94-87a0-fdf98ca78aed"},"vehicle_type_id":"4","last_reported":1687457322,"current_range_meters":31200,"station_id":"ce4bhbh2rcd13ifvqeqg","pricing_plan_id":"free"},{"bike_id":"5eae5bf3-0fd2-4c82-9f99-53e83bd47fca","system_id":"levelo_inurba_marseille","lat":43.29224,"lon":5.36049,"is_reserved":false,"is_disabled":false,"rental_uris":{"android":"levelo://app?vid=5eae5bf3-0fd2-4c82-9f99-53e83bd47fca","ios":"levelo://app?vid=5eae5bf3-0fd2-4c82-9f99-53e83bd47fca"},"vehicle_type_id":"4","last_reported":1687457322,"current_range_meters":2400,"station_id":"ce4bhbh2rcd13ifvqeqg","pricing_plan_id":"free"},{"bike_id":"3e45a641-03d1-4942-bc3e-5cbd1739728d","system_id":"levelo_inurba_marseille","lat":43.2922,"lon":5.36043,"is_reserved":false,"is_disabled":false,"rental_uris":{"android":"levelo://app?vid=3e45a641-03d1-4942-bc3e-5cbd1739728d","ios":"levelo://app?vid=3e45a641-03d1-4942-bc3e-5cbd1739728d"},"vehicle_type_id":"4","last_reported":1687457322,"current_range_meters":16400,"station_id":"","pricing_plan_id":"free"},{"bike_id":"5e9a6ada-1ad1-41ff-a63d-7a604f69a85d","system_id":"levelo_inurba_marseille","lat":43.30664,"lon":5.39471,"is_reserved":false,"is_disabled":false,"rental_uris":{"android":"levelo://app?vid=5e9a6ada-1ad1-41ff-a63d-7a604f69a85d","ios":"levelo://app?vid=5e9a6ada-1ad1-41ff-a63d-7a604f69a85d"},"vehicle_type_id":"4","last_reported":1687457322,"current_range_meters":15200,"station_id":"","pricing_plan_id":"free"},{"bike_id":"78f5fff4-d819-43f6-881d-8860f5ac8b99","system_id":"levelo_inurba_marseille","lat":43.298764,"lon":5.388973,"is_reserved":false,"is_disabled":false,"rental_uris":{"android":"levelo://app?vid=78f5fff4-d819-43f6-881d-8860f5ac8b99","ios":"levelo://app?vid=78f5fff4-d819-43f6-881d-8860f5ac8b99"},"vehicle_type_id":"4","last_reported":1687457322,"current_range_meters":24400,"station_id":"ce4bh392rcd13ifvqdl0","pricing_plan_id":"free"},{"bike_id":"518d7e8e-ec34-4b6e-82ab-7cfefcaffd39","system_id":"levelo_inurba_marseille","lat":43.291671,"lon":5.371575,"is_reserved":false,"is_disabled":false,"rental_uris":{"android":"levelo://app?vid=518d7e8e-ec34-4b6e-82ab-7cfefcaffd39","ios":"levelo://app?vid=518d7e8e-ec34-4b6e-82ab-7cfefcaffd39"},"vehicle_type_id":"4","last_reported":1687457322,"current_range_meters":21600,"station_id":"ce4bha92rcd13ifvqeh0","pricing_plan_id":"free"},{"bike_id":"4b5150b5-4796-4e1c-9bd4-79316e6d4556","system_id":"levelo_inurba_marseille","lat":43.298764,"lon":5.388973,"is_reserved":false,"is_disabled":false,"rental_uris":{"android":"levelo://app?vid=4b5150b5-4796-4e1c-9bd4-79316e6d4556","ios":"levelo://app?vid=4b5150b5-4796-4e1c-9bd4-79316e6d4556"},"vehicle_type_id":"4","last_reported":1687457322,"current_range_meters":4800,"station_id":"ce4bh392rcd13ifvqdl0","pricing_plan_id":"free"},{"bike_id":"f29a7205-f2cc-4d14-9e6e-ba20e6495f15","system_id":"levelo_inurba_marseille","lat":43.313291,"lon":5.396838,"is_reserved":false,"is_disabled":false,"rental_uris":{"android":"levelo://app?vid=f29a7205-f2cc-4d14-9e6e-ba20e6495f15","ios":"levelo://app?vid=f29a7205-f2cc-4d14-9e6e-ba20e6495f15"},"vehicle_type_id":"4","last_reported":1687457322,"current_range_meters":8000,"station_id":"ce4bgvp2rcd13ifvqcu0","pricing_plan_id":"free"},{"bike_id":"ccdef319-681e-48c9-a8c4-a58f4dcb1114","system_id":"levelo_inurba_marseille","lat":43.313291,"lon":5.396838,"is_reserved":false,"is_disabled":false,"rental_uris":{"android":"levelo://app?vid=ccdef319-681e-48c9-a8c4-a58f4dcb1114","ios":"levelo://app?vid=ccdef319-681e-48c9-a8c4-a58f4dcb1114"},"vehicle_type_id":"4","last_reported":1687457322,"current_range_meters":19200,"station_id":"ce4bgvp2rcd13ifvqcu0","pricing_plan_id":"free"},{"bike_id":"2353c093-38ef-40dd-afd2-cb80772e2bf7","system_id":"levelo_inurba_marseille","lat":43.309038,"lon":5.396546,"is_reserved":false,"is_disabled":false,"rental_uris":{"android":"levelo://app?vid=2353c093-38ef-40dd-afd2-cb80772e2bf7","ios":"levelo://app?vid=2353c093-38ef-40dd-afd2-cb80772e2bf7"},"vehicle_type_id":"4","last_reported":1687457322,"current_range_meters":8400,"station_id":"ce4bh012rcd13ifvqcv0","pricing_plan_id":"free"},{"bike_id":"10c13be0-054e-40b4-88ff-a0643d4b254e","system_id":"levelo_inurba_marseille","lat":43.29529,"lon":5.385581,"is_reserved":false,"is_disabled":false,"rental_uris":{"android":"levelo://app?vid=10c13be0-054e-40b4-88ff-a0643d4b254e","ios":"levelo://app?vid=10c13be0-054e-40b4-88ff-a0643d4b254e"},"vehicle_type_id":"4","last_reported":1687457322,"current_range_meters":0,"station_id":"ce4bgih2rcd13ifvqba0","pricing_plan_id":"free"},{"bike_id":"dd0b2b5d-d787-43d5-a978-4f4919e332e0","system_id":"levelo_inurba_marseille","lat":43.29529,"lon":5.385581,"is_reserved":false,"is_disabled":false,"rental_uris":{"android":"levelo://app?vid=dd0b2b5d-d787-43d5-a978-4f4919e332e0","ios":"levelo://app?vid=dd0b2b5d-d787-43d5-a978-4f4919e332e0"},"vehicle_type_id":"4","last_reported":1687457322,"current_range_meters":2000,"station_id":"ce4bgih2rcd13ifvqba0","pricing_plan_id":"free"},{"bike_id":"43a3b5bf-8a11-49b3-8fd0-7bec0db3879c","system_id":"levelo_inurba_marseille","lat":43.290779,"lon":5.371482,"is_reserved":false,"is_disabled":false,"rental_uris":{"android":"levelo://app?vid=43a3b5bf-8a11-49b3-8fd0-7bec0db3879c","ios":"levelo://app?vid=43a3b5bf-8a11-49b3-8fd0-7bec0db3879c"},"vehicle_type_id":"4","last_reported":1687457322,"current_range_meters":24000,"station_id":"ce4bh5p2rcd13ifvqe4g","pricing_plan_id":"free"},{"bike_id":"68520477-6151-418d-a2dd-a6182029db29","system_id":"levelo_inurba_marseille","lat":43.290779,"lon":5.371482,"is_reserved":false,"is_disabled":false,"rental_uris":{"android":"levelo://app?vid=68520477-6151-418d-a2dd-a6182029db29","ios":"levelo://app?vid=68520477-6151-418d-a2dd-a6182029db29"},"vehicle_type_id":"4","last_reported":1687457322,"current_range_meters":0,"station_id":"ce4bh5p2rcd13ifvqe4g","pricing_plan_id":"free"},{"bike_id":"30f531e0-f8a6-4b8b-aa26-95df9a4941f8","system_id":"levelo_inurba_marseille","lat":43.3021,"lon":5.39465,"is_reserved":false,"is_disabled":false,"rental_uris":{"android":"levelo://app?vid=30f531e0-f8a6-4b8b-aa26-95df9a4941f8","ios":"levelo://app?vid=30f531e0-f8a6-4b8b-aa26-95df9a4941f8"},"vehicle_type_id":"4","last_reported":1687457322,"current_range_meters":18800,"station_id":"ce4bh0p2rcd13ifvqd70","pricing_plan_id":"free"},{"bike_id":"2718c40a-414c-4537-8675-07e068b9d7e2","system_id":"levelo_inurba_marseille","lat":43.302008,"lon":5.394694,"is_reserved":false,"is_disabled":false,"rental_uris":{"android":"levelo://app?vid=2718c40a-414c-4537-8675-07e068b9d7e2","ios":"levelo://app?vid=2718c40a-414c-4537-8675-07e068b9d7e2"},"vehicle_type_id":"4","last_reported":1687457322,"current_range_meters":1200,"station_id":"ce4bh0p2rcd13ifvqd70","pricing_plan_id":"free"},{"bike_id":"d1de257a-a1b7-4d2c-87f8-2544ab6ad4fc","system_id":"levelo_inurba_marseille","lat":43.302172,"lon":5.394773,"is_reserved":false,"is_disabled":false,"rental_uris":{"android":"levelo://app?vid=d1de257a-a1b7-4d2c-87f8-2544ab6ad4fc","ios":"levelo://app?vid=d1de257a-a1b7-4d2c-87f8-2544ab6ad4fc"},"vehicle_type_id":"4","last_reported":1687457322,"current_range_meters":4800,"station_id":"","pricing_plan_id":"free"},{"bike_id":"d72ace48-53fc-45af-a6b1-19d46aae8972","system_id":"levelo_inurba_marseille","lat":43.28952,"lon":5.36634,"is_reserved":false,"is_disabled":false,"rental_uris":{"android":"levelo://app?vid=d72ace48-53fc-45af-a6b1-19d46aae8972","ios":"levelo://app?vid=d72ace48-53fc-45af-a6b1-19d46aae8972"},"vehicle_type_id":"4","last_reported":1687457322,"current_range_meters":12400,"station_id":"","pricing_plan_id":"free"},{"bike_id":"3e36dbd4-61ec-4a46-95ce-ef63a3cb073e","system_id":"levelo_inurba_marseille","lat":43.29411,"lon":5.38614,"is_reserved":false,"is_disabled":false,"rental_uris":{"android":"levelo://app?vid=3e36dbd4-61ec-4a46-95ce-ef63a3cb073e","ios":"levelo://app?vid=3e36dbd4-61ec-4a46-95ce-ef63a3cb073e"},"vehicle_type_id":"4","last_reported":1687457322,"current_range_meters":26000,"station_id":"","pricing_plan_id":"free"},{"bike_id":"b0af963c-aedf-4489-88b6-ddef09556ab5","system_id":"levelo_inurba_marseille","lat":43.290327,"lon":5.375711,"is_reserved":false,"is_disabled":false,"rental_uris":{"android":"levelo://app?vid=b0af963c-aedf-4489-88b6-ddef09556ab5","ios":"levelo://app?vid=b0af963c-aedf-4489-88b6-ddef09556ab5"},"vehicle_type_id":"4","last_reported":1687457322,"current_range_meters":0,"station_id":"ce4bh692rcd13ifvqe90","pricing_plan_id":"free"},{"bike_id":"2dedcce1-5a57-4665-9fb3-64c51e19c7b4","system_id":"levelo_inurba_marseille","lat":43.2894,"lon":5.36639,"is_reserved":false,"is_disabled":false,"rental_uris":{"android":"levelo://app?vid=2dedcce1-5a57-4665-9fb3-64c51e19c7b4","ios":"levelo://app?vid=2dedcce1-5a57-4665-9fb3-64c51e19c7b4"},"vehicle_type_id":"4","last_reported":1687457322,"current_range_meters":23600,"station_id":"ce4bhap2rcd13ifvqek0","pricing_plan_id":"free"},{"bike_id":"e0cb42ad-c391-4855-93ce-90f4c7289d15","system_id":"levelo_inurba_marseille","lat":43.28934,"lon":5.36644,"is_reserved":false,"is_disabled":false,"rental_uris":{"android":"levelo://app?vid=e0cb42ad-c391-4855-93ce-90f4c7289d15","ios":"levelo://app?vid=e0cb42ad-c391-4855-93ce-90f4c7289d15"},"vehicle_type_id":"4","last_reported":1687457322,"current_range_meters":28400,"station_id":"ce4bhap2rcd13ifvqek0","pricing_plan_id":"free"},{"bike_id":"a35fc5fc-4c3d-4d98-b363-22b3204495e6","system_id":"levelo_inurba_marseille","lat":43.289468,"lon":5.363719,"is_reserved":false,"is_disabled":false,"rental_uris":{"android":"levelo://app?vid=a35fc5fc-4c3d-4d98-b363-22b3204495e6","ios":"levelo://app?vid=a35fc5fc-4c3d-4d98-b363-22b3204495e6"},"vehicle_type_id":"4","last_reported":1687457322,"current_range_meters":24000,"station_id":"ce4bhc92rcd13ifvqetg","pricing_plan_id":"free"},{"bike_id":"c9eb28c5-b435-4ff0-b888-d96663410e76","system_id":"levelo_inurba_marseille","lat":43.292642,"lon":5.384254,"is_reserved":false,"is_disabled":false,"rental_uris":{"android":"levelo://app?vid=c9eb28c5-b435-4ff0-b888-d96663410e76","ios":"levelo://app?vid=c9eb28c5-b435-4ff0-b888-d96663410e76"},"vehicle_type_id":"4","last_reported":1687457322,"current_range_meters":7200,"station_id":"ce4bh692rcd13ifvqea0","pricing_plan_id":"free"},{"bike_id":"7e3caa77-2ce4-4a2e-9692-9221539eeaaa","system_id":"levelo_inurba_marseille","lat":43.292642,"lon":5.384254,"is_reserved":false,"is_disabled":false,"rental_uris":{"android":"levelo://app?vid=7e3caa77-2ce4-4a2e-9692-9221539eeaaa","ios":"levelo://app?vid=7e3caa77-2ce4-4a2e-9692-9221539eeaaa"},"vehicle_type_id":"4","last_reported":1687457322,"current_range_meters":0,"station_id":"ce4bh692rcd13ifvqea0","pricing_plan_id":"free"},{"bike_id":"6412e207-a812-4bcc-a5ad-79d45aa200e3","system_id":"levelo_inurba_marseille","lat":43.292644,"lon":5.384257,"is_reserved":false,"is_disabled":false,"rental_uris":{"android":"levelo://app?vid=6412e207-a812-4bcc-a5ad-79d45aa200e3","ios":"levelo://app?vid=6412e207-a812-4bcc-a5ad-79d45aa200e3"},"vehicle_type_id":"4","last_reported":1687457322,"current_range_meters":13200,"station_id":"ce4bh692rcd13ifvqea0","pricing_plan_id":"free"},{"bike_id":"7fbb9bcd-267e-4b51-a282-7909f1d05f07","system_id":"levelo_inurba_marseille","lat":43.292642,"lon":5.384254,"is_reserved":false,"is_disabled":false,"rental_uris":{"android":"levelo://app?vid=7fbb9bcd-267e-4b51-a282-7909f1d05f07","ios":"levelo://app?vid=7fbb9bcd-267e-4b51-a282-7909f1d05f07"},"vehicle_type_id":"4","last_reported":1687457322,"current_range_meters":800,"station_id":"ce4bh692rcd13ifvqea0","pricing_plan_id":"free"},{"bike_id":"ce8816e9-26f0-4cca-a1cd-14def6e3c0ac","system_id":"levelo_inurba_marseille","lat":43.33049,"lon":5.38906,"is_reserved":false,"is_disabled":false,"rental_uris":{"android":"levelo://app?vid=ce8816e9-26f0-4cca-a1cd-14def6e3c0ac","ios":"levelo://app?vid=ce8816e9-26f0-4cca-a1cd-14def6e3c0ac"},"vehicle_type_id":"4","last_reported":1687457322,"current_range_meters":31200,"station_id":"ce4bhr92rcd13ifvqhrg","pricing_plan_id":"free"},{"bike_id":"8f3f2ae0-cf34-439b-818d-2c39a055cbf9","system_id":"levelo_inurba_marseille","lat":43.33045,"lon":5.38915,"is_reserved":false,"is_disabled":false,"rental_uris":{"android":"levelo://app?vid=8f3f2ae0-cf34-439b-818d-2c39a055cbf9","ios":"levelo://app?vid=8f3f2ae0-cf34-439b-818d-2c39a055cbf9"},"vehicle_type_id":"4","last_reported":1687457322,"current_range_meters":0,"station_id":"ce4bhr92rcd13ifvqhrg","pricing_plan_id":"free"},{"bike_id":"ab990c51-1ffe-43dd-a6cd-9353811d08e6","system_id":"levelo_inurba_marseille","lat":43.3304,"lon":5.38923,"is_reserved":false,"is_disabled":false,"rental_uris":{"android":"levelo://app?vid=ab990c51-1ffe-43dd-a6cd-9353811d08e6","ios":"levelo://app?vid=ab990c51-1ffe-43dd-a6cd-9353811d08e6"},"vehicle_type_id":"4","last_reported":1687457322,"current_range_meters":10800,"station_id":"ce4bhr92rcd13ifvqhrg","pricing_plan_id":"free"},{"bike_id":"dad31a05-ed11-4caa-b71d-1ac29a76b991","system_id":"levelo_inurba_marseille","lat":43.29008,"lon":5.35613,"is_reserved":false,"is_disabled":false,"rental_uris":{"android":"levelo://app?vid=dad31a05-ed11-4caa-b71d-1ac29a76b991","ios":"levelo://app?vid=dad31a05-ed11-4caa-b71d-1ac29a76b991"},"vehicle_type_id":"4","last_reported":1687457322,"current_range_meters":11200,"station_id":"ce4bhb92rcd13ifvqen0","pricing_plan_id":"free"},{"bike_id":"9593f617-15f5-4991-a040-8db943e84ae4","system_id":"levelo_inurba_marseille","lat":43.33044,"lon":5.38919,"is_reserved":false,"is_disabled":false,"rental_uris":{"android":"levelo://app?vid=9593f617-15f5-4991-a040-8db943e84ae4","ios":"levelo://app?vid=9593f617-15f5-4991-a040-8db943e84ae4"},"vehicle_type_id":"4","last_reported":1687457322,"current_range_meters":17600,"station_id":"ce4bhr92rcd13ifvqhrg","pricing_plan_id":"free"},{"bike_id":"c54fbd3e-208e-47df-af26-714f2d22e730","system_id":"levelo_inurba_marseille","lat":43.33043,"lon":5.38921,"is_reserved":false,"is_disabled":false,"rental_uris":{"android":"levelo://app?vid=c54fbd3e-208e-47df-af26-714f2d22e730","ios":"levelo://app?vid=c54fbd3e-208e-47df-af26-714f2d22e730"},"vehicle_type_id":"4","last_reported":1687457322,"current_range_meters":9600,"station_id":"ce4bhr92rcd13ifvqhrg","pricing_plan_id":"free"},{"bike_id":"a58bf0bd-7a44-4383-a7d8-c3c2143f811f","system_id":"levelo_inurba_marseille","lat":43.33047,"lon":5.38916,"is_reserved":false,"is_disabled":false,"rental_uris":{"android":"levelo://app?vid=a58bf0bd-7a44-4383-a7d8-c3c2143f811f","ios":"levelo://app?vid=a58bf0bd-7a44-4383-a7d8-c3c2143f811f"},"vehicle_type_id":"4","last_reported":1687457322,"current_range_meters":14000,"station_id":"ce4bhr92rcd13ifvqhrg","pricing_plan_id":"free"},{"bike_id":"c73d2cc7-61ec-4fd2-a002-ffa050603a67","system_id":"levelo_inurba_marseille","lat":43.33038,"lon":5.38937,"is_reserved":false,"is_disabled":false,"rental_uris":{"android":"levelo://app?vid=c73d2cc7-61ec-4fd2-a002-ffa050603a67","ios":"levelo://app?vid=c73d2cc7-61ec-4fd2-a002-ffa050603a67"},"vehicle_type_id":"4","last_reported":1687457322,"current_range_meters":31200,"station_id":"ce4bhr92rcd13ifvqhrg","pricing_plan_id":"free"},{"bike_id":"53c86059-6751-4e35-b89d-f39f99e065bb","system_id":"levelo_inurba_marseille","lat":43.28997,"lon":5.35625,"is_reserved":false,"is_disabled":false,"rental_uris":{"android":"levelo://app?vid=53c86059-6751-4e35-b89d-f39f99e065bb","ios":"levelo://app?vid=53c86059-6751-4e35-b89d-f39f99e065bb"},"vehicle_type_id":"4","last_reported":1687457322,"current_range_meters":8000,"station_id":"ce4bhb92rcd13ifvqen0","pricing_plan_id":"free"},{"bike_id":"46eb20ff-8452-4224-af2b-84196ee1ba45","system_id":"levelo_inurba_marseille","lat":43.28982,"lon":5.37831,"is_reserved":false,"is_disabled":false,"rental_uris":{"android":"levelo://app?vid=46eb20ff-8452-4224-af2b-84196ee1ba45","ios":"levelo://app?vid=46eb20ff-8452-4224-af2b-84196ee1ba45"},"vehicle_type_id":"4","last_reported":1687457322,"current_range_meters":11200,"station_id":"ce4bh9p2rcd13ifvqed0","pricing_plan_id":"free"},{"bike_id":"3e03ee84-5b03-4ba4-879e-bb57f9eda760","system_id":"levelo_inurba_marseille","lat":43.295169,"lon":5.390426,"is_reserved":false,"is_disabled":false,"rental_uris":{"android":"levelo://app?vid=3e03ee84-5b03-4ba4-879e-bb57f9eda760","ios":"levelo://app?vid=3e03ee84-5b03-4ba4-879e-bb57f9eda760"},"vehicle_type_id":"4","last_reported":1687457322,"current_range_meters":0,"station_id":"ce4bh3p2rcd13ifvqdp0","pricing_plan_id":"free"},{"bike_id":"3f8a925a-6a54-4259-a38f-9cf091aab246","system_id":"levelo_inurba_marseille","lat":43.29261,"lon":5.38751,"is_reserved":false,"is_disabled":false,"rental_uris":{"android":"levelo://app?vid=3f8a925a-6a54-4259-a38f-9cf091aab246","ios":"levelo://app?vid=3f8a925a-6a54-4259-a38f-9cf091aab246"},"vehicle_type_id":"4","last_reported":1687457322,"current_range_meters":28800,"station_id":"","pricing_plan_id":"free"},{"bike_id":"d74b2965-ed98-44b7-a16d-e6350f86c3ec","system_id":"levelo_inurba_marseille","lat":43.309371,"lon":5.401449,"is_reserved":false,"is_disabled":false,"rental_uris":{"android":"levelo://app?vid=d74b2965-ed98-44b7-a16d-e6350f86c3ec","ios":"levelo://app?vid=d74b2965-ed98-44b7-a16d-e6350f86c3ec"},"vehicle_type_id":"4","last_reported":1687457322,"current_range_meters":2800,"station_id":"ce4bgvp2rcd13ifvqct0","pricing_plan_id":"free"},{"bike_id":"d74474a7-d1ea-4940-94c7-db1e07163ef0","system_id":"levelo_inurba_marseille","lat":43.337482,"lon":5.374726,"is_reserved":false,"is_disabled":false,"rental_uris":{"android":"levelo://app?vid=d74474a7-d1ea-4940-94c7-db1e07163ef0","ios":"levelo://app?vid=d74474a7-d1ea-4940-94c7-db1e07163ef0"},"vehicle_type_id":"4","last_reported":1687457322,"current_range_meters":11600,"station_id":"","pricing_plan_id":"free"},{"bike_id":"3433a528-dd6a-4ac7-b9d2-b8d42e81ea38","system_id":"levelo_inurba_marseille","lat":43.33752,"lon":5.37465,"is_reserved":false,"is_disabled":false,"rental_uris":{"android":"levelo://app?vid=3433a528-dd6a-4ac7-b9d2-b8d42e81ea38","ios":"levelo://app?vid=3433a528-dd6a-4ac7-b9d2-b8d42e81ea38"},"vehicle_type_id":"4","last_reported":1687457322,"current_range_meters":26800,"station_id":"","pricing_plan_id":"free"},{"bike_id":"71a50c1f-09f0-47f2-bd28-cfcd0711a6bd","system_id":"levelo_inurba_marseille","lat":43.33755,"lon":5.3745,"is_reserved":false,"is_disabled":false,"rental_uris":{"android":"levelo://app?vid=71a50c1f-09f0-47f2-bd28-cfcd0711a6bd","ios":"levelo://app?vid=71a50c1f-09f0-47f2-bd28-cfcd0711a6bd"},"vehicle_type_id":"4","last_reported":1687457322,"current_range_meters":30000,"station_id":"","pricing_plan_id":"free"},{"bike_id":"cb1e0ed8-8d30-427a-8811-913fe60a0394","system_id":"levelo_inurba_marseille","lat":43.33753,"lon":5.37464,"is_reserved":false,"is_disabled":false,"rental_uris":{"android":"levelo://app?vid=cb1e0ed8-8d30-427a-8811-913fe60a0394","ios":"levelo://app?vid=cb1e0ed8-8d30-427a-8811-913fe60a0394"},"vehicle_type_id":"4","last_reported":1687457322,"current_range_meters":12000,"station_id":"","pricing_plan_id":"free"},{"bike_id":"b0bd3bcb-bd35-4f75-8285-8f528f09b8d5","system_id":"levelo_inurba_marseille","lat":43.337575,"lon":5.374489,"is_reserved":false,"is_disabled":false,"rental_uris":{"android":"levelo://app?vid=b0bd3bcb-bd35-4f75-8285-8f528f09b8d5","ios":"levelo://app?vid=b0bd3bcb-bd35-4f75-8285-8f528f09b8d5"},"vehicle_type_id":"4","last_reported":1687457322,"current_range_meters":15200,"station_id":"","pricing_plan_id":"free"},{"bike_id":"c5e815b3-f31d-478f-bdef-5593e5bd4a3b","system_id":"levelo_inurba_marseille","lat":43.30145,"lon":5.3984,"is_reserved":false,"is_disabled":false,"rental_uris":{"android":"levelo://app?vid=c5e815b3-f31d-478f-bdef-5593e5bd4a3b","ios":"levelo://app?vid=c5e815b3-f31d-478f-bdef-5593e5bd4a3b"},"vehicle_type_id":"4","last_reported":1687457322,"current_range_meters":10800,"station_id":"","pricing_plan_id":"free"},{"bike_id":"3877e472-5098-47c5-8acc-308da5e851ce","system_id":"levelo_inurba_marseille","lat":43.30144,"lon":5.39856,"is_reserved":false,"is_disabled":false,"rental_uris":{"android":"levelo://app?vid=3877e472-5098-47c5-8acc-308da5e851ce","ios":"levelo://app?vid=3877e472-5098-47c5-8acc-308da5e851ce"},"vehicle_type_id":"4","last_reported":1687457322,"current_range_meters":26800,"station_id":"","pricing_plan_id":"free"},{"bike_id":"2622eac0-4dc9-42b9-a40a-c0d0957906c8","system_id":"levelo_inurba_marseille","lat":43.301117,"lon":5.398795,"is_reserved":false,"is_disabled":false,"rental_uris":{"android":"levelo://app?vid=2622eac0-4dc9-42b9-a40a-c0d0957906c8","ios":"levelo://app?vid=2622eac0-4dc9-42b9-a40a-c0d0957906c8"},"vehicle_type_id":"4","last_reported":1687457322,"current_range_meters":1200,"station_id":"ce4bh0h2rcd13ifvqd40","pricing_plan_id":"free"},{"bike_id":"d253c0e2-4162-4ec3-9bc9-0dd9cb9258c5","system_id":"levelo_inurba_marseille","lat":43.301117,"lon":5.398795,"is_reserved":false,"is_disabled":false,"rental_uris":{"android":"levelo://app?vid=d253c0e2-4162-4ec3-9bc9-0dd9cb9258c5","ios":"levelo://app?vid=d253c0e2-4162-4ec3-9bc9-0dd9cb9258c5"},"vehicle_type_id":"4","last_reported":1687457322,"current_range_meters":8000,"station_id":"ce4bh0h2rcd13ifvqd40","pricing_plan_id":"free"},{"bike_id":"2e25ab8d-a95a-44eb-9ce3-9d42d74fac4b","system_id":"levelo_inurba_marseille","lat":43.286593,"lon":5.363346,"is_reserved":false,"is_disabled":false,"rental_uris":{"android":"levelo://app?vid=2e25ab8d-a95a-44eb-9ce3-9d42d74fac4b","ios":"levelo://app?vid=2e25ab8d-a95a-44eb-9ce3-9d42d74fac4b"},"vehicle_type_id":"4","last_reported":1687457322,"current_range_meters":9200,"station_id":"ce4bhah2rcd13ifvqej0","pricing_plan_id":"free"},{"bike_id":"0ff21d80-c62f-4643-8a50-1807549b26fc","system_id":"levelo_inurba_marseille","lat":43.286591,"lon":5.363346,"is_reserved":false,"is_disabled":false,"rental_uris":{"android":"levelo://app?vid=0ff21d80-c62f-4643-8a50-1807549b26fc","ios":"levelo://app?vid=0ff21d80-c62f-4643-8a50-1807549b26fc"},"vehicle_type_id":"4","last_reported":1687457322,"current_range_meters":30800,"station_id":"ce4bhah2rcd13ifvqej0","pricing_plan_id":"free"},{"bike_id":"3d4f0e56-d4b2-4e60-84fa-aecd714a4d58","system_id":"levelo_inurba_marseille","lat":43.302759,"lon":5.400793,"is_reserved":false,"is_disabled":false,"rental_uris":{"android":"levelo://app?vid=3d4f0e56-d4b2-4e60-84fa-aecd714a4d58","ios":"levelo://app?vid=3d4f0e56-d4b2-4e60-84fa-aecd714a4d58"},"vehicle_type_id":"4","last_reported":1687457322,"current_range_meters":4800,"station_id":"ce4bgvh2rcd13ifvqcs0","pricing_plan_id":"free"},{"bike_id":"80aa5114-0dde-44e9-bcff-faf53a040351","system_id":"levelo_inurba_marseille","lat":43.302759,"lon":5.400793,"is_reserved":false,"is_disabled":false,"rental_uris":{"android":"levelo://app?vid=80aa5114-0dde-44e9-bcff-faf53a040351","ios":"levelo://app?vid=80aa5114-0dde-44e9-bcff-faf53a040351"},"vehicle_type_id":"4","last_reported":1687457322,"current_range_meters":0,"station_id":"ce4bgvh2rcd13ifvqcs0","pricing_plan_id":"free"},{"bike_id":"5524ffb0-e41e-4fe3-a47d-be7a4c222b8e","system_id":"levelo_inurba_marseille","lat":43.302759,"lon":5.400793,"is_reserved":false,"is_disabled":false,"rental_uris":{"android":"levelo://app?vid=5524ffb0-e41e-4fe3-a47d-be7a4c222b8e","ios":"levelo://app?vid=5524ffb0-e41e-4fe3-a47d-be7a4c222b8e"},"vehicle_type_id":"4","last_reported":1687457322,"current_range_meters":1200,"station_id":"ce4bgvh2rcd13ifvqcs0","pricing_plan_id":"free"},{"bike_id":"ffa095f5-d9f5-40e4-aba9-4b85b6cf8212","system_id":"levelo_inurba_marseille","lat":43.302759,"lon":5.400793,"is_reserved":false,"is_disabled":false,"rental_uris":{"android":"levelo://app?vid=ffa095f5-d9f5-40e4-aba9-4b85b6cf8212","ios":"levelo://app?vid=ffa095f5-d9f5-40e4-aba9-4b85b6cf8212"},"vehicle_type_id":"4","last_reported":1687457322,"current_range_meters":0,"station_id":"ce4bgvh2rcd13ifvqcs0","pricing_plan_id":"free"},{"bike_id":"ab010165-f7e9-4c63-bff5-2af05fac4cfa","system_id":"levelo_inurba_marseille","lat":43.286039,"lon":5.370681,"is_reserved":false,"is_disabled":false,"rental_uris":{"android":"levelo://app?vid=ab010165-f7e9-4c63-bff5-2af05fac4cfa","ios":"levelo://app?vid=ab010165-f7e9-4c63-bff5-2af05fac4cfa"},"vehicle_type_id":"4","last_reported":1687457322,"current_range_meters":24800,"station_id":"ce4bht12rcd13ifvqi60","pricing_plan_id":"free"},{"bike_id":"8f0dd8ea-b0fc-45cc-8dee-bb99ee523711","system_id":"levelo_inurba_marseille","lat":43.28624,"lon":5.37425,"is_reserved":false,"is_disabled":false,"rental_uris":{"android":"levelo://app?vid=8f0dd8ea-b0fc-45cc-8dee-bb99ee523711","ios":"levelo://app?vid=8f0dd8ea-b0fc-45cc-8dee-bb99ee523711"},"vehicle_type_id":"4","last_reported":1687457322,"current_range_meters":400,"station_id":"","pricing_plan_id":"free"},{"bike_id":"4dea4b11-edc8-430b-9267-d62896cfb473","system_id":"levelo_inurba_marseille","lat":43.29205,"lon":5.39321,"is_reserved":false,"is_disabled":false,"rental_uris":{"android":"levelo://app?vid=4dea4b11-edc8-430b-9267-d62896cfb473","ios":"levelo://app?vid=4dea4b11-edc8-430b-9267-d62896cfb473"},"vehicle_type_id":"4","last_reported":1687457322,"current_range_meters":13600,"station_id":"ce4bh192rcd13ifvqdd0","pricing_plan_id":"free"},{"bike_id":"725eb368-1643-4e85-b338-8698e9cd74af","system_id":"levelo_inurba_marseille","lat":43.284534,"lon":5.358662,"is_reserved":false,"is_disabled":false,"rental_uris":{"android":"levelo://app?vid=725eb368-1643-4e85-b338-8698e9cd74af","ios":"levelo://app?vid=725eb368-1643-4e85-b338-8698e9cd74af"},"vehicle_type_id":"4","last_reported":1687457322,"current_range_meters":28800,"station_id":"ce4bhah2rcd13ifvqei0","pricing_plan_id":"free"},{"bike_id":"29306571-2e45-4f1d-b544-ac7300e21bef","system_id":"levelo_inurba_marseille","lat":43.284534,"lon":5.358662,"is_reserved":false,"is_disabled":false,"rental_uris":{"android":"levelo://app?vid=29306571-2e45-4f1d-b544-ac7300e21bef","ios":"levelo://app?vid=29306571-2e45-4f1d-b544-ac7300e21bef"},"vehicle_type_id":"4","last_reported":1687457322,"current_range_meters":11600,"station_id":"ce4bhah2rcd13ifvqei0","pricing_plan_id":"free"},{"bike_id":"2e1a67f1-7946-4a7d-ac77-093fef00ad00","system_id":"levelo_inurba_marseille","lat":43.28456,"lon":5.35889,"is_reserved":false,"is_disabled":false,"rental_uris":{"android":"levelo://app?vid=2e1a67f1-7946-4a7d-ac77-093fef00ad00","ios":"levelo://app?vid=2e1a67f1-7946-4a7d-ac77-093fef00ad00"},"vehicle_type_id":"4","last_reported":1687457322,"current_range_meters":6800,"station_id":"ce4bhah2rcd13ifvqei0","pricing_plan_id":"free"},{"bike_id":"cb27c4aa-b4e2-42c9-bc1f-03a16e319d84","system_id":"levelo_inurba_marseille","lat":43.28455,"lon":5.35883,"is_reserved":false,"is_disabled":false,"rental_uris":{"android":"levelo://app?vid=cb27c4aa-b4e2-42c9-bc1f-03a16e319d84","ios":"levelo://app?vid=cb27c4aa-b4e2-42c9-bc1f-03a16e319d84"},"vehicle_type_id":"4","last_reported":1687457322,"current_range_meters":0,"station_id":"ce4bhah2rcd13ifvqei0","pricing_plan_id":"free"},{"bike_id":"a9e3a32b-e89b-4983-baea-ebccb96d5e5f","system_id":"levelo_inurba_marseille","lat":43.2863,"lon":5.35113,"is_reserved":false,"is_disabled":false,"rental_uris":{"android":"levelo://app?vid=a9e3a32b-e89b-4983-baea-ebccb96d5e5f","ios":"levelo://app?vid=a9e3a32b-e89b-4983-baea-ebccb96d5e5f"},"vehicle_type_id":"4","last_reported":1687457322,"current_range_meters":13200,"station_id":"ce4bhch2rcd13ifvqeug","pricing_plan_id":"free"},{"bike_id":"1d634fb9-30e2-4452-8c4e-1131c835d29e","system_id":"levelo_inurba_marseille","lat":43.285856,"lon":5.350771,"is_reserved":false,"is_disabled":false,"rental_uris":{"android":"levelo://app?vid=1d634fb9-30e2-4452-8c4e-1131c835d29e","ios":"levelo://app?vid=1d634fb9-30e2-4452-8c4e-1131c835d29e"},"vehicle_type_id":"4","last_reported":1687457322,"current_range_meters":12800,"station_id":"ce4bhch2rcd13ifvqeug","pricing_plan_id":"free"},{"bike_id":"8eb28708-2b36-4d40-bed9-1e9a9e4513c1","system_id":"levelo_inurba_marseille","lat":43.285856,"lon":5.350771,"is_reserved":false,"is_disabled":false,"rental_uris":{"android":"levelo://app?vid=8eb28708-2b36-4d40-bed9-1e9a9e4513c1","ios":"levelo://app?vid=8eb28708-2b36-4d40-bed9-1e9a9e4513c1"},"vehicle_type_id":"4","last_reported":1687457322,"current_range_meters":31200,"station_id":"ce4bhch2rcd13ifvqeug","pricing_plan_id":"free"},{"bike_id":"e50b9b38-1de5-48ff-95e0-477f2032bb77","system_id":"levelo_inurba_marseille","lat":43.285856,"lon":5.350771,"is_reserved":false,"is_disabled":false,"rental_uris":{"android":"levelo://app?vid=e50b9b38-1de5-48ff-95e0-477f2032bb77","ios":"levelo://app?vid=e50b9b38-1de5-48ff-95e0-477f2032bb77"},"vehicle_type_id":"4","last_reported":1687457322,"current_range_meters":18000,"station_id":"ce4bhch2rcd13ifvqeug","pricing_plan_id":"free"},{"bike_id":"5447abc7-2d42-4bfa-85c1-f86e1b6d4d70","system_id":"levelo_inurba_marseille","lat":43.285856,"lon":5.350771,"is_reserved":false,"is_disabled":false,"rental_uris":{"android":"levelo://app?vid=5447abc7-2d42-4bfa-85c1-f86e1b6d4d70","ios":"levelo://app?vid=5447abc7-2d42-4bfa-85c1-f86e1b6d4d70"},"vehicle_type_id":"4","last_reported":1687457322,"current_range_meters":31200,"station_id":"ce4bhch2rcd13ifvqeug","pricing_plan_id":"free"},{"bike_id":"92d40f6c-3bdd-43bd-b8b1-0eabd8202846","system_id":"levelo_inurba_marseille","lat":43.28616,"lon":5.35106,"is_reserved":false,"is_disabled":false,"rental_uris":{"android":"levelo://app?vid=92d40f6c-3bdd-43bd-b8b1-0eabd8202846","ios":"levelo://app?vid=92d40f6c-3bdd-43bd-b8b1-0eabd8202846"},"vehicle_type_id":"4","last_reported":1687457322,"current_range_meters":13600,"station_id":"","pricing_plan_id":"free"},{"bike_id":"70741aa3-48f9-4ca9-9ad5-4e41b14c6feb","system_id":"levelo_inurba_marseille","lat":43.285856,"lon":5.350771,"is_reserved":false,"is_disabled":false,"rental_uris":{"android":"levelo://app?vid=70741aa3-48f9-4ca9-9ad5-4e41b14c6feb","ios":"levelo://app?vid=70741aa3-48f9-4ca9-9ad5-4e41b14c6feb"},"vehicle_type_id":"4","last_reported":1687457322,"current_range_meters":24800,"station_id":"ce4bhch2rcd13ifvqeug","pricing_plan_id":"free"},{"bike_id":"8a0fd6b3-b4ec-47c5-9a9a-40b654ab7353","system_id":"levelo_inurba_marseille","lat":43.28617,"lon":5.35102,"is_reserved":false,"is_disabled":false,"rental_uris":{"android":"levelo://app?vid=8a0fd6b3-b4ec-47c5-9a9a-40b654ab7353","ios":"levelo://app?vid=8a0fd6b3-b4ec-47c5-9a9a-40b654ab7353"},"vehicle_type_id":"4","last_reported":1687457322,"current_range_meters":10400,"station_id":"ce4bhch2rcd13ifvqeug","pricing_plan_id":"free"},{"bike_id":"898c61c0-686d-4752-a4b3-44be80d755a5","system_id":"levelo_inurba_marseille","lat":43.28615,"lon":5.35107,"is_reserved":false,"is_disabled":false,"rental_uris":{"android":"levelo://app?vid=898c61c0-686d-4752-a4b3-44be80d755a5","ios":"levelo://app?vid=898c61c0-686d-4752-a4b3-44be80d755a5"},"vehicle_type_id":"4","last_reported":1687457322,"current_range_meters":31200,"station_id":"ce4bhch2rcd13ifvqeug","pricing_plan_id":"free"},{"bike_id":"c3fc86b7-75df-4025-909c-001c141a4ca6","system_id":"levelo_inurba_marseille","lat":43.285856,"lon":5.350771,"is_reserved":false,"is_disabled":false,"rental_uris":{"android":"levelo://app?vid=c3fc86b7-75df-4025-909c-001c141a4ca6","ios":"levelo://app?vid=c3fc86b7-75df-4025-909c-001c141a4ca6"},"vehicle_type_id":"4","last_reported":1687457322,"current_range_meters":7200,"station_id":"ce4bhch2rcd13ifvqeug","pricing_plan_id":"free"},{"bike_id":"f8122ffb-3904-4771-839b-080556c28238","system_id":"levelo_inurba_marseille","lat":43.28614,"lon":5.35104,"is_reserved":false,"is_disabled":false,"rental_uris":{"android":"levelo://app?vid=f8122ffb-3904-4771-839b-080556c28238","ios":"levelo://app?vid=f8122ffb-3904-4771-839b-080556c28238"},"vehicle_type_id":"4","last_reported":1687457322,"current_range_meters":19600,"station_id":"ce4bhch2rcd13ifvqeug","pricing_plan_id":"free"},{"bike_id":"981589d7-f396-46fc-b80f-95b64654dc81","system_id":"levelo_inurba_marseille","lat":43.28613,"lon":5.35107,"is_reserved":false,"is_disabled":false,"rental_uris":{"android":"levelo://app?vid=981589d7-f396-46fc-b80f-95b64654dc81","ios":"levelo://app?vid=981589d7-f396-46fc-b80f-95b64654dc81"},"vehicle_type_id":"4","last_reported":1687457322,"current_range_meters":0,"station_id":"ce4bhch2rcd13ifvqeug","pricing_plan_id":"free"},{"bike_id":"d50e724c-72c9-416d-ba6d-8967d4846434","system_id":"levelo_inurba_marseille","lat":43.2861,"lon":5.35104,"is_reserved":false,"is_disabled":false,"rental_uris":{"android":"levelo://app?vid=d50e724c-72c9-416d-ba6d-8967d4846434","ios":"levelo://app?vid=d50e724c-72c9-416d-ba6d-8967d4846434"},"vehicle_type_id":"4","last_reported":1687457322,"current_range_meters":31200,"station_id":"ce4bhch2rcd13ifvqeug","pricing_plan_id":"free"},{"bike_id":"4d2a5477-9537-4fb7-ab49-73ac44c83da7","system_id":"levelo_inurba_marseille","lat":43.28414,"lon":5.37518,"is_reserved":false,"is_disabled":false,"rental_uris":{"android":"levelo://app?vid=4d2a5477-9537-4fb7-ab49-73ac44c83da7","ios":"levelo://app?vid=4d2a5477-9537-4fb7-ab49-73ac44c83da7"},"vehicle_type_id":"4","last_reported":1687457322,"current_range_meters":2400,"station_id":"ce4bh412rcd13ifvqds0","pricing_plan_id":"free"},{"bike_id":"8d13c950-9df6-4e27-89dd-5cb4c6df2daa","system_id":"levelo_inurba_marseille","lat":43.28409,"lon":5.37511,"is_reserved":false,"is_disabled":false,"rental_uris":{"android":"levelo://app?vid=8d13c950-9df6-4e27-89dd-5cb4c6df2daa","ios":"levelo://app?vid=8d13c950-9df6-4e27-89dd-5cb4c6df2daa"},"vehicle_type_id":"4","last_reported":1687457322,"current_range_meters":20800,"station_id":"ce4bh412rcd13ifvqds0","pricing_plan_id":"free"},{"bike_id":"cbb9007c-c7e3-469a-994f-31d30e4a6ce6","system_id":"levelo_inurba_marseille","lat":43.28401,"lon":5.37507,"is_reserved":false,"is_disabled":false,"rental_uris":{"android":"levelo://app?vid=cbb9007c-c7e3-469a-994f-31d30e4a6ce6","ios":"levelo://app?vid=cbb9007c-c7e3-469a-994f-31d30e4a6ce6"},"vehicle_type_id":"4","last_reported":1687457322,"current_range_meters":0,"station_id":"ce4bh412rcd13ifvqds0","pricing_plan_id":"free"},{"bike_id":"2a529030-238d-43d0-83e9-e05430ca411f","system_id":"levelo_inurba_marseille","lat":43.28403,"lon":5.37523,"is_reserved":false,"is_disabled":false,"rental_uris":{"android":"levelo://app?vid=2a529030-238d-43d0-83e9-e05430ca411f","ios":"levelo://app?vid=2a529030-238d-43d0-83e9-e05430ca411f"},"vehicle_type_id":"4","last_reported":1687457322,"current_range_meters":14400,"station_id":"ce4bh412rcd13ifvqds0","pricing_plan_id":"free"},{"bike_id":"a9e37fd6-11f8-4673-b696-56b49e9c9709","system_id":"levelo_inurba_marseille","lat":43.284,"lon":5.37516,"is_reserved":false,"is_disabled":false,"rental_uris":{"android":"levelo://app?vid=a9e37fd6-11f8-4673-b696-56b49e9c9709","ios":"levelo://app?vid=a9e37fd6-11f8-4673-b696-56b49e9c9709"},"vehicle_type_id":"4","last_reported":1687457322,"current_range_meters":14800,"station_id":"ce4bh412rcd13ifvqds0","pricing_plan_id":"free"},{"bike_id":"d06c02ec-5e66-4bca-b31f-df139737c34b","system_id":"levelo_inurba_marseille","lat":43.295713,"lon":5.399639,"is_reserved":false,"is_disabled":false,"rental_uris":{"android":"levelo://app?vid=d06c02ec-5e66-4bca-b31f-df139737c34b","ios":"levelo://app?vid=d06c02ec-5e66-4bca-b31f-df139737c34b"},"vehicle_type_id":"4","last_reported":1687457322,"current_range_meters":12800,"station_id":"ce4bh312rcd13ifvqdj0","pricing_plan_id":"free"},{"bike_id":"70e43c6e-3af6-43b6-a1f1-b0bc52d5a78a","system_id":"levelo_inurba_marseille","lat":43.28399,"lon":5.37515,"is_reserved":false,"is_disabled":false,"rental_uris":{"android":"levelo://app?vid=70e43c6e-3af6-43b6-a1f1-b0bc52d5a78a","ios":"levelo://app?vid=70e43c6e-3af6-43b6-a1f1-b0bc52d5a78a"},"vehicle_type_id":"4","last_reported":1687457322,"current_range_meters":1600,"station_id":"ce4bh412rcd13ifvqds0","pricing_plan_id":"free"},{"bike_id":"4c7ef82d-5367-4e72-81b2-03fe9ac88a42","system_id":"levelo_inurba_marseille","lat":43.29571,"lon":5.39989,"is_reserved":false,"is_disabled":false,"rental_uris":{"android":"levelo://app?vid=4c7ef82d-5367-4e72-81b2-03fe9ac88a42","ios":"levelo://app?vid=4c7ef82d-5367-4e72-81b2-03fe9ac88a42"},"vehicle_type_id":"4","last_reported":1687457322,"current_range_meters":10400,"station_id":"ce4bh312rcd13ifvqdj0","pricing_plan_id":"free"},{"bike_id":"dcaceb21-b1f1-462e-aaed-e42a9a7fe3e4","system_id":"levelo_inurba_marseille","lat":43.283998,"lon":5.375062,"is_reserved":false,"is_disabled":false,"rental_uris":{"android":"levelo://app?vid=dcaceb21-b1f1-462e-aaed-e42a9a7fe3e4","ios":"levelo://app?vid=dcaceb21-b1f1-462e-aaed-e42a9a7fe3e4"},"vehicle_type_id":"4","last_reported":1687457322,"current_range_meters":4000,"station_id":"ce4bh412rcd13ifvqds0","pricing_plan_id":"free"},{"bike_id":"f6fda2f2-04f1-4377-bae3-2fc212d95c47","system_id":"levelo_inurba_marseille","lat":43.34227,"lon":5.36197,"is_reserved":false,"is_disabled":false,"rental_uris":{"android":"levelo://app?vid=f6fda2f2-04f1-4377-bae3-2fc212d95c47","ios":"levelo://app?vid=f6fda2f2-04f1-4377-bae3-2fc212d95c47"},"vehicle_type_id":"4","last_reported":1687457322,"current_range_meters":400,"station_id":"","pricing_plan_id":"free"},{"bike_id":"cb298553-0288-4abf-9848-a10ad2814502","system_id":"levelo_inurba_marseille","lat":43.286595,"lon":5.386795,"is_reserved":false,"is_disabled":false,"rental_uris":{"android":"levelo://app?vid=cb298553-0288-4abf-9848-a10ad2814502","ios":"levelo://app?vid=cb298553-0288-4abf-9848-a10ad2814502"},"vehicle_type_id":"4","last_reported":1687457322,"current_range_meters":400,"station_id":"ce4bh492rcd13ifvqdug","pricing_plan_id":"free"},{"bike_id":"8e570d9f-2e82-4434-b516-d11bfa239e75","system_id":"levelo_inurba_marseille","lat":43.286595,"lon":5.386795,"is_reserved":false,"is_disabled":false,"rental_uris":{"android":"levelo://app?vid=8e570d9f-2e82-4434-b516-d11bfa239e75","ios":"levelo://app?vid=8e570d9f-2e82-4434-b516-d11bfa239e75"},"vehicle_type_id":"4","last_reported":1687457322,"current_range_meters":0,"station_id":"ce4bh492rcd13ifvqdug","pricing_plan_id":"free"},{"bike_id":"4f3e6020-f26a-4100-bafa-6cb1594b90e3","system_id":"levelo_inurba_marseille","lat":43.323464,"lon":5.406297,"is_reserved":false,"is_disabled":false,"rental_uris":{"android":"levelo://app?vid=4f3e6020-f26a-4100-bafa-6cb1594b90e3","ios":"levelo://app?vid=4f3e6020-f26a-4100-bafa-6cb1594b90e3"},"vehicle_type_id":"4","last_reported":1687457322,"current_range_meters":23200,"station_id":"ce4bhq92rcd13ifvqhjg","pricing_plan_id":"free"},{"bike_id":"0ed91cf0-65b4-485f-bb66-78ee8d9b9ac7","system_id":"levelo_inurba_marseille","lat":43.32332,"lon":5.40624,"is_reserved":false,"is_disabled":false,"rental_uris":{"android":"levelo://app?vid=0ed91cf0-65b4-485f-bb66-78ee8d9b9ac7","ios":"levelo://app?vid=0ed91cf0-65b4-485f-bb66-78ee8d9b9ac7"},"vehicle_type_id":"4","last_reported":1687457322,"current_range_meters":8800,"station_id":"ce4bhq92rcd13ifvqhjg","pricing_plan_id":"free"},{"bike_id":"e07d3948-f069-42ee-b4ea-627a4bfdbb33","system_id":"levelo_inurba_marseille","lat":43.323464,"lon":5.406297,"is_reserved":false,"is_disabled":false,"rental_uris":{"android":"levelo://app?vid=e07d3948-f069-42ee-b4ea-627a4bfdbb33","ios":"levelo://app?vid=e07d3948-f069-42ee-b4ea-627a4bfdbb33"},"vehicle_type_id":"4","last_reported":1687457322,"current_range_meters":26800,"station_id":"ce4bhq92rcd13ifvqhjg","pricing_plan_id":"free"},{"bike_id":"c61de91b-8ef9-4a3f-8cb3-5a7913c77ea2","system_id":"levelo_inurba_marseille","lat":43.284793,"lon":5.384113,"is_reserved":false,"is_disabled":false,"rental_uris":{"android":"levelo://app?vid=c61de91b-8ef9-4a3f-8cb3-5a7913c77ea2","ios":"levelo://app?vid=c61de91b-8ef9-4a3f-8cb3-5a7913c77ea2"},"vehicle_type_id":"4","last_reported":1687457322,"current_range_meters":0,"station_id":"ce4bh512rcd13ifvqe3g","pricing_plan_id":"free"},{"bike_id":"b4c950db-352f-4a1a-8e3c-c05101a6dad0","system_id":"levelo_inurba_marseille","lat":43.288497,"lon":5.393089,"is_reserved":false,"is_disabled":false,"rental_uris":{"android":"levelo://app?vid=b4c950db-352f-4a1a-8e3c-c05101a6dad0","ios":"levelo://app?vid=b4c950db-352f-4a1a-8e3c-c05101a6dad0"},"vehicle_type_id":"4","last_reported":1687457322,"current_range_meters":31200,"station_id":"ce4bh2p2rcd13ifvqdi0","pricing_plan_id":"free"},{"bike_id":"c14a8848-a171-4806-bd42-41a149f10879","system_id":"levelo_inurba_marseille","lat":43.28422,"lon":5.34994,"is_reserved":false,"is_disabled":false,"rental_uris":{"android":"levelo://app?vid=c14a8848-a171-4806-bd42-41a149f10879","ios":"levelo://app?vid=c14a8848-a171-4806-bd42-41a149f10879"},"vehicle_type_id":"4","last_reported":1687457322,"current_range_meters":15200,"station_id":"ce4bhbh2rcd13ifvqepg","pricing_plan_id":"free"},{"bike_id":"e9d4c090-7798-472d-a59f-09cba5820d16","system_id":"levelo_inurba_marseille","lat":43.284217,"lon":5.349697,"is_reserved":false,"is_disabled":false,"rental_uris":{"android":"levelo://app?vid=e9d4c090-7798-472d-a59f-09cba5820d16","ios":"levelo://app?vid=e9d4c090-7798-472d-a59f-09cba5820d16"},"vehicle_type_id":"4","last_reported":1687457322,"current_range_meters":18000,"station_id":"ce4bhbh2rcd13ifvqepg","pricing_plan_id":"free"},{"bike_id":"1d2fb6df-0646-45a0-ad2a-5b24a4060d22","system_id":"levelo_inurba_marseille","lat":43.2842,"lon":5.34993,"is_reserved":false,"is_disabled":false,"rental_uris":{"android":"levelo://app?vid=1d2fb6df-0646-45a0-ad2a-5b24a4060d22","ios":"levelo://app?vid=1d2fb6df-0646-45a0-ad2a-5b24a4060d22"},"vehicle_type_id":"4","last_reported":1687457322,"current_range_meters":5600,"station_id":"ce4bhbh2rcd13ifvqepg","pricing_plan_id":"free"},{"bike_id":"348f1c18-0ef2-491e-83f9-e1876ff5affe","system_id":"levelo_inurba_marseille","lat":43.28421,"lon":5.34989,"is_reserved":false,"is_disabled":false,"rental_uris":{"android":"levelo://app?vid=348f1c18-0ef2-491e-83f9-e1876ff5affe","ios":"levelo://app?vid=348f1c18-0ef2-491e-83f9-e1876ff5affe"},"vehicle_type_id":"4","last_reported":1687457322,"current_range_meters":19600,"station_id":"ce4bhbh2rcd13ifvqepg","pricing_plan_id":"free"},{"bike_id":"798ff125-43bd-4d30-bb2a-a7d48a1e8283","system_id":"levelo_inurba_marseille","lat":43.284213,"lon":5.349876,"is_reserved":false,"is_disabled":false,"rental_uris":{"android":"levelo://app?vid=798ff125-43bd-4d30-bb2a-a7d48a1e8283","ios":"levelo://app?vid=798ff125-43bd-4d30-bb2a-a7d48a1e8283"},"vehicle_type_id":"4","last_reported":1687457322,"current_range_meters":27200,"station_id":"ce4bhbh2rcd13ifvqepg","pricing_plan_id":"free"},{"bike_id":"fa989877-752e-4f60-b55c-e7664f4ad75f","system_id":"levelo_inurba_marseille","lat":43.284196,"lon":5.349902,"is_reserved":false,"is_disabled":false,"rental_uris":{"android":"levelo://app?vid=fa989877-752e-4f60-b55c-e7664f4ad75f","ios":"levelo://app?vid=fa989877-752e-4f60-b55c-e7664f4ad75f"},"vehicle_type_id":"4","last_reported":1687457322,"current_range_meters":29200,"station_id":"ce4bhbh2rcd13ifvqepg","pricing_plan_id":"free"},{"bike_id":"d66ea138-e37e-4c47-9721-f5f0c3a18f42","system_id":"levelo_inurba_marseille","lat":43.2842,"lon":5.34989,"is_reserved":false,"is_disabled":false,"rental_uris":{"android":"levelo://app?vid=d66ea138-e37e-4c47-9721-f5f0c3a18f42","ios":"levelo://app?vid=d66ea138-e37e-4c47-9721-f5f0c3a18f42"},"vehicle_type_id":"4","last_reported":1687457322,"current_range_meters":31200,"station_id":"ce4bhbh2rcd13ifvqepg","pricing_plan_id":"free"},{"bike_id":"f7947dc3-914b-4878-bc3b-7c0da7e86621","system_id":"levelo_inurba_marseille","lat":43.28419,"lon":5.34992,"is_reserved":false,"is_disabled":false,"rental_uris":{"android":"levelo://app?vid=f7947dc3-914b-4878-bc3b-7c0da7e86621","ios":"levelo://app?vid=f7947dc3-914b-4878-bc3b-7c0da7e86621"},"vehicle_type_id":"4","last_reported":1687457322,"current_range_meters":31200,"station_id":"ce4bhbh2rcd13ifvqepg","pricing_plan_id":"free"},{"bike_id":"7d19eedb-6976-4964-bbdd-c38c4ae81069","system_id":"levelo_inurba_marseille","lat":43.28417,"lon":5.3499,"is_reserved":false,"is_disabled":false,"rental_uris":{"android":"levelo://app?vid=7d19eedb-6976-4964-bbdd-c38c4ae81069","ios":"levelo://app?vid=7d19eedb-6976-4964-bbdd-c38c4ae81069"},"vehicle_type_id":"4","last_reported":1687457322,"current_range_meters":24000,"station_id":"ce4bhbh2rcd13ifvqepg","pricing_plan_id":"free"},{"bike_id":"c7bee30f-d5d3-4eb4-a830-21bf47b7042a","system_id":"levelo_inurba_marseille","lat":43.284217,"lon":5.349697,"is_reserved":false,"is_disabled":false,"rental_uris":{"android":"levelo://app?vid=c7bee30f-d5d3-4eb4-a830-21bf47b7042a","ios":"levelo://app?vid=c7bee30f-d5d3-4eb4-a830-21bf47b7042a"},"vehicle_type_id":"4","last_reported":1687457322,"current_range_meters":2400,"station_id":"ce4bhbh2rcd13ifvqepg","pricing_plan_id":"free"},{"bike_id":"f197e484-7138-4511-9738-5caf10280015","system_id":"levelo_inurba_marseille","lat":43.284217,"lon":5.349697,"is_reserved":false,"is_disabled":false,"rental_uris":{"android":"levelo://app?vid=f197e484-7138-4511-9738-5caf10280015","ios":"levelo://app?vid=f197e484-7138-4511-9738-5caf10280015"},"vehicle_type_id":"4","last_reported":1687457322,"current_range_meters":14400,"station_id":"ce4bhbh2rcd13ifvqepg","pricing_plan_id":"free"},{"bike_id":"a6272987-bdf1-48f4-880b-ea5c5721c047","system_id":"levelo_inurba_marseille","lat":43.28412,"lon":5.34996,"is_reserved":false,"is_disabled":false,"rental_uris":{"android":"levelo://app?vid=a6272987-bdf1-48f4-880b-ea5c5721c047","ios":"levelo://app?vid=a6272987-bdf1-48f4-880b-ea5c5721c047"},"vehicle_type_id":"4","last_reported":1687457322,"current_range_meters":31200,"station_id":"ce4bhbh2rcd13ifvqepg","pricing_plan_id":"free"},{"bike_id":"2ae130bc-1155-4d36-b37f-0d14b6bc1c96","system_id":"levelo_inurba_marseille","lat":43.28417,"lon":5.34976,"is_reserved":false,"is_disabled":false,"rental_uris":{"android":"levelo://app?vid=2ae130bc-1155-4d36-b37f-0d14b6bc1c96","ios":"levelo://app?vid=2ae130bc-1155-4d36-b37f-0d14b6bc1c96"},"vehicle_type_id":"4","last_reported":1687457322,"current_range_meters":12000,"station_id":"ce4bhbh2rcd13ifvqepg","pricing_plan_id":"free"},{"bike_id":"efea3996-08eb-416d-8b37-d836bd62d6a8","system_id":"levelo_inurba_marseille","lat":43.284129,"lon":5.349864,"is_reserved":false,"is_disabled":false,"rental_uris":{"android":"levelo://app?vid=efea3996-08eb-416d-8b37-d836bd62d6a8","ios":"levelo://app?vid=efea3996-08eb-416d-8b37-d836bd62d6a8"},"vehicle_type_id":"4","last_reported":1687457322,"current_range_meters":31200,"station_id":"ce4bhbh2rcd13ifvqepg","pricing_plan_id":"free"},{"bike_id":"3453ff98-63ec-437d-8624-f590fc18ab47","system_id":"levelo_inurba_marseille","lat":43.284127,"lon":5.349803,"is_reserved":false,"is_disabled":false,"rental_uris":{"android":"levelo://app?vid=3453ff98-63ec-437d-8624-f590fc18ab47","ios":"levelo://app?vid=3453ff98-63ec-437d-8624-f590fc18ab47"},"vehicle_type_id":"4","last_reported":1687457322,"current_range_meters":10000,"station_id":"","pricing_plan_id":"free"},{"bike_id":"64dc27f5-2856-46a9-a657-741733cde281","system_id":"levelo_inurba_marseille","lat":43.28286,"lon":5.35067,"is_reserved":false,"is_disabled":false,"rental_uris":{"android":"levelo://app?vid=64dc27f5-2856-46a9-a657-741733cde281","ios":"levelo://app?vid=64dc27f5-2856-46a9-a657-741733cde281"},"vehicle_type_id":"4","last_reported":1687457322,"current_range_meters":30400,"station_id":"ce4bhbp2rcd13ifvqerg","pricing_plan_id":"free"},{"bike_id":"63f3b64f-d8f3-4c30-a711-267a88b0fb41","system_id":"levelo_inurba_marseille","lat":43.280382,"lon":5.369291,"is_reserved":false,"is_disabled":false,"rental_uris":{"android":"levelo://app?vid=63f3b64f-d8f3-4c30-a711-267a88b0fb41","ios":"levelo://app?vid=63f3b64f-d8f3-4c30-a711-267a88b0fb41"},"vehicle_type_id":"4","last_reported":1687457322,"current_range_meters":23600,"station_id":"ce4bha12rcd13ifvqef0","pricing_plan_id":"free"},{"bike_id":"d78ebf94-c47b-4adf-a4a6-e1ea03a5cc7b","system_id":"levelo_inurba_marseille","lat":43.282754,"lon":5.350519,"is_reserved":false,"is_disabled":false,"rental_uris":{"android":"levelo://app?vid=d78ebf94-c47b-4adf-a4a6-e1ea03a5cc7b","ios":"levelo://app?vid=d78ebf94-c47b-4adf-a4a6-e1ea03a5cc7b"},"vehicle_type_id":"4","last_reported":1687457322,"current_range_meters":31200,"station_id":"ce4bhbp2rcd13ifvqerg","pricing_plan_id":"free"},{"bike_id":"3c951801-bcdb-4724-a1b9-c3005587d453","system_id":"levelo_inurba_marseille","lat":43.28039,"lon":5.369297,"is_reserved":false,"is_disabled":false,"rental_uris":{"android":"levelo://app?vid=3c951801-bcdb-4724-a1b9-c3005587d453","ios":"levelo://app?vid=3c951801-bcdb-4724-a1b9-c3005587d453"},"vehicle_type_id":"4","last_reported":1687457322,"current_range_meters":18400,"station_id":"ce4bha12rcd13ifvqef0","pricing_plan_id":"free"},{"bike_id":"64a1cc16-5547-4742-8c4a-3c8b5ac3c993","system_id":"levelo_inurba_marseille","lat":43.28255,"lon":5.35076,"is_reserved":false,"is_disabled":false,"rental_uris":{"android":"levelo://app?vid=64a1cc16-5547-4742-8c4a-3c8b5ac3c993","ios":"levelo://app?vid=64a1cc16-5547-4742-8c4a-3c8b5ac3c993"},"vehicle_type_id":"4","last_reported":1687457322,"current_range_meters":31200,"station_id":"ce4bhbp2rcd13ifvqerg","pricing_plan_id":"free"},{"bike_id":"35babcb6-b911-4bcb-a6c1-c2f599761888","system_id":"levelo_inurba_marseille","lat":43.28039,"lon":5.369297,"is_reserved":false,"is_disabled":false,"rental_uris":{"android":"levelo://app?vid=35babcb6-b911-4bcb-a6c1-c2f599761888","ios":"levelo://app?vid=35babcb6-b911-4bcb-a6c1-c2f599761888"},"vehicle_type_id":"4","last_reported":1687457322,"current_range_meters":400,"station_id":"ce4bha12rcd13ifvqef0","pricing_plan_id":"free"},{"bike_id":"8732715f-39db-4c6f-a4f6-1acf24b1480c","system_id":"levelo_inurba_marseille","lat":43.28039,"lon":5.369297,"is_reserved":false,"is_disabled":false,"rental_uris":{"android":"levelo://app?vid=8732715f-39db-4c6f-a4f6-1acf24b1480c","ios":"levelo://app?vid=8732715f-39db-4c6f-a4f6-1acf24b1480c"},"vehicle_type_id":"4","last_reported":1687457322,"current_range_meters":31200,"station_id":"ce4bha12rcd13ifvqef0","pricing_plan_id":"free"},{"bike_id":"6ceb940d-e01f-48f2-8994-5040b63e432a","system_id":"levelo_inurba_marseille","lat":43.28038,"lon":5.36944,"is_reserved":false,"is_disabled":false,"rental_uris":{"android":"levelo://app?vid=6ceb940d-e01f-48f2-8994-5040b63e432a","ios":"levelo://app?vid=6ceb940d-e01f-48f2-8994-5040b63e432a"},"vehicle_type_id":"4","last_reported":1687457322,"current_range_meters":12400,"station_id":"ce4bha12rcd13ifvqef0","pricing_plan_id":"free"},{"bike_id":"f802147e-26b4-49a9-b6c5-60b58d6ee1bb","system_id":"levelo_inurba_marseille","lat":43.28039,"lon":5.369297,"is_reserved":false,"is_disabled":false,"rental_uris":{"android":"levelo://app?vid=f802147e-26b4-49a9-b6c5-60b58d6ee1bb","ios":"levelo://app?vid=f802147e-26b4-49a9-b6c5-60b58d6ee1bb"},"vehicle_type_id":"4","last_reported":1687457322,"current_range_meters":14800,"station_id":"ce4bha12rcd13ifvqef0","pricing_plan_id":"free"},{"bike_id":"50f3a798-ec79-4fe0-b285-1326ae52c348","system_id":"levelo_inurba_marseille","lat":43.290426,"lon":5.399584,"is_reserved":false,"is_disabled":false,"rental_uris":{"android":"levelo://app?vid=50f3a798-ec79-4fe0-b285-1326ae52c348","ios":"levelo://app?vid=50f3a798-ec79-4fe0-b285-1326ae52c348"},"vehicle_type_id":"4","last_reported":1687457322,"current_range_meters":0,"station_id":"","pricing_plan_id":"free"},{"bike_id":"f01b6fcb-0dba-4671-abd7-651ca2ff8deb","system_id":"levelo_inurba_marseille","lat":43.290412,"lon":5.399633,"is_reserved":false,"is_disabled":false,"rental_uris":{"android":"levelo://app?vid=f01b6fcb-0dba-4671-abd7-651ca2ff8deb","ios":"levelo://app?vid=f01b6fcb-0dba-4671-abd7-651ca2ff8deb"},"vehicle_type_id":"4","last_reported":1687457322,"current_range_meters":11600,"station_id":"ce4bh392rcd13ifvqdm0","pricing_plan_id":"free"},{"bike_id":"8e8b4708-d5d8-4dd9-8e88-382f97e919c5","system_id":"levelo_inurba_marseille","lat":43.28105,"lon":5.37839,"is_reserved":false,"is_disabled":false,"rental_uris":{"android":"levelo://app?vid=8e8b4708-d5d8-4dd9-8e88-382f97e919c5","ios":"levelo://app?vid=8e8b4708-d5d8-4dd9-8e88-382f97e919c5"},"vehicle_type_id":"4","last_reported":1687457322,"current_range_meters":26800,"station_id":"ce4bha12rcd13ifvqee0","pricing_plan_id":"free"},{"bike_id":"3cd10ad7-a316-4ed6-a3d9-f31d3f3622ac","system_id":"levelo_inurba_marseille","lat":43.3447,"lon":5.37813,"is_reserved":false,"is_disabled":false,"rental_uris":{"android":"levelo://app?vid=3cd10ad7-a316-4ed6-a3d9-f31d3f3622ac","ios":"levelo://app?vid=3cd10ad7-a316-4ed6-a3d9-f31d3f3622ac"},"vehicle_type_id":"4","last_reported":1687457322,"current_range_meters":4800,"station_id":"","pricing_plan_id":"free"},{"bike_id":"ff60adae-f71a-4e2f-9c03-c28e9ecc3c45","system_id":"levelo_inurba_marseille","lat":43.32729,"lon":5.40762,"is_reserved":false,"is_disabled":false,"rental_uris":{"android":"levelo://app?vid=ff60adae-f71a-4e2f-9c03-c28e9ecc3c45","ios":"levelo://app?vid=ff60adae-f71a-4e2f-9c03-c28e9ecc3c45"},"vehicle_type_id":"4","last_reported":1687457322,"current_range_meters":14000,"station_id":"","pricing_plan_id":"free"},{"bike_id":"07b3664f-3d42-49b6-97d6-006edec96f50","system_id":"levelo_inurba_marseille","lat":43.32564,"lon":5.4094,"is_reserved":false,"is_disabled":false,"rental_uris":{"android":"levelo://app?vid=07b3664f-3d42-49b6-97d6-006edec96f50","ios":"levelo://app?vid=07b3664f-3d42-49b6-97d6-006edec96f50"},"vehicle_type_id":"4","last_reported":1687457322,"current_range_meters":0,"station_id":"","pricing_plan_id":"free"},{"bike_id":"a6b022b0-b15b-4916-8f56-90748933d01a","system_id":"levelo_inurba_marseille","lat":43.285742,"lon":5.395004,"is_reserved":false,"is_disabled":false,"rental_uris":{"android":"levelo://app?vid=a6b022b0-b15b-4916-8f56-90748933d01a","ios":"levelo://app?vid=a6b022b0-b15b-4916-8f56-90748933d01a"},"vehicle_type_id":"4","last_reported":1687457322,"current_range_meters":31200,"station_id":"ce4bh292rcd13ifvqdg0","pricing_plan_id":"free"},{"bike_id":"58bfd030-2cb2-497f-9bd4-c4aad083b2ab","system_id":"levelo_inurba_marseille","lat":43.28573,"lon":5.394992,"is_reserved":false,"is_disabled":false,"rental_uris":{"android":"levelo://app?vid=58bfd030-2cb2-497f-9bd4-c4aad083b2ab","ios":"levelo://app?vid=58bfd030-2cb2-497f-9bd4-c4aad083b2ab"},"vehicle_type_id":"4","last_reported":1687457322,"current_range_meters":800,"station_id":"ce4bh292rcd13ifvqdg0","pricing_plan_id":"free"},{"bike_id":"fc2a51fe-3bf8-46f3-9fe8-f24612d4a02a","system_id":"levelo_inurba_marseille","lat":43.326565,"lon":5.409975,"is_reserved":false,"is_disabled":false,"rental_uris":{"android":"levelo://app?vid=fc2a51fe-3bf8-46f3-9fe8-f24612d4a02a","ios":"levelo://app?vid=fc2a51fe-3bf8-46f3-9fe8-f24612d4a02a"},"vehicle_type_id":"4","last_reported":1687457322,"current_range_meters":10400,"station_id":"ce4bhpp2rcd13ifvqhgg","pricing_plan_id":"free"},{"bike_id":"d7c450e5-27ff-4a1a-8fbe-6db1bab22b66","system_id":"levelo_inurba_marseille","lat":43.304188,"lon":5.412904,"is_reserved":false,"is_disabled":false,"rental_uris":{"android":"levelo://app?vid=d7c450e5-27ff-4a1a-8fbe-6db1bab22b66","ios":"levelo://app?vid=d7c450e5-27ff-4a1a-8fbe-6db1bab22b66"},"vehicle_type_id":"4","last_reported":1687457322,"current_range_meters":17200,"station_id":"ce4bhop2rcd13ifvqh8g","pricing_plan_id":"free"},{"bike_id":"f47d889e-f3a7-4cf7-b89b-498d12032e77","system_id":"levelo_inurba_marseille","lat":43.2929,"lon":5.40667,"is_reserved":false,"is_disabled":false,"rental_uris":{"android":"levelo://app?vid=f47d889e-f3a7-4cf7-b89b-498d12032e77","ios":"levelo://app?vid=f47d889e-f3a7-4cf7-b89b-498d12032e77"},"vehicle_type_id":"4","last_reported":1687457322,"current_range_meters":12800,"station_id":"","pricing_plan_id":"free"},{"bike_id":"50fd953c-9754-45f4-aec7-ae52bb9eb6fe","system_id":"levelo_inurba_marseille","lat":43.287154,"lon":5.399979,"is_reserved":false,"is_disabled":false,"rental_uris":{"android":"levelo://app?vid=50fd953c-9754-45f4-aec7-ae52bb9eb6fe","ios":"levelo://app?vid=50fd953c-9754-45f4-aec7-ae52bb9eb6fe"},"vehicle_type_id":"4","last_reported":1687457322,"current_range_meters":23600,"station_id":"ce4bho92rcd13ifvqh3g","pricing_plan_id":"free"},{"bike_id":"218244fe-8c07-4ab5-83d2-ab545d5ee131","system_id":"levelo_inurba_marseille","lat":43.27893,"lon":5.38026,"is_reserved":false,"is_disabled":false,"rental_uris":{"android":"levelo://app?vid=218244fe-8c07-4ab5-83d2-ab545d5ee131","ios":"levelo://app?vid=218244fe-8c07-4ab5-83d2-ab545d5ee131"},"vehicle_type_id":"4","last_reported":1687457322,"current_range_meters":30800,"station_id":"ce4bhf92rcd13ifvqf50","pricing_plan_id":"free"},{"bike_id":"e705b5ea-fb1e-4074-8980-a910ae970e29","system_id":"levelo_inurba_marseille","lat":43.287154,"lon":5.399979,"is_reserved":false,"is_disabled":false,"rental_uris":{"android":"levelo://app?vid=e705b5ea-fb1e-4074-8980-a910ae970e29","ios":"levelo://app?vid=e705b5ea-fb1e-4074-8980-a910ae970e29"},"vehicle_type_id":"4","last_reported":1687457322,"current_range_meters":0,"station_id":"ce4bho92rcd13ifvqh3g","pricing_plan_id":"free"},{"bike_id":"5728f05d-89f6-4f2a-8982-a41b883ddd9a","system_id":"levelo_inurba_marseille","lat":43.317104,"lon":5.436818,"is_reserved":false,"is_disabled":false,"rental_uris":{"android":"levelo://app?vid=5728f05d-89f6-4f2a-8982-a41b883ddd9a","ios":"levelo://app?vid=5728f05d-89f6-4f2a-8982-a41b883ddd9a"},"vehicle_type_id":"4","last_reported":1687457322,"current_range_meters":10000,"station_id":"ce4bhp92rcd13ifvqhcg","pricing_plan_id":"free"},{"bike_id":"03b39e26-ef2d-4822-b506-1f5f8428b700","system_id":"levelo_inurba_marseille","lat":43.299579,"lon":5.413255,"is_reserved":false,"is_disabled":false,"rental_uris":{"android":"levelo://app?vid=03b39e26-ef2d-4822-b506-1f5f8428b700","ios":"levelo://app?vid=03b39e26-ef2d-4822-b506-1f5f8428b700"},"vehicle_type_id":"4","last_reported":1687457322,"current_range_meters":22400,"station_id":"ce4bhp12rcd13ifvqh9g","pricing_plan_id":"free"},{"bike_id":"3a247063-8bc9-4137-a050-14b0949d560a","system_id":"levelo_inurba_marseille","lat":43.32073,"lon":5.41567,"is_reserved":false,"is_disabled":false,"rental_uris":{"android":"levelo://app?vid=3a247063-8bc9-4137-a050-14b0949d560a","ios":"levelo://app?vid=3a247063-8bc9-4137-a050-14b0949d560a"},"vehicle_type_id":"4","last_reported":1687457322,"current_range_meters":28800,"station_id":"","pricing_plan_id":"free"},{"bike_id":"3d253cd3-e7e8-4b8b-b293-f470775b19d3","system_id":"levelo_inurba_marseille","lat":43.325233,"lon":5.414318,"is_reserved":false,"is_disabled":false,"rental_uris":{"android":"levelo://app?vid=3d253cd3-e7e8-4b8b-b293-f470775b19d3","ios":"levelo://app?vid=3d253cd3-e7e8-4b8b-b293-f470775b19d3"},"vehicle_type_id":"4","last_reported":1687457322,"current_range_meters":26800,"station_id":"ce4bhq12rcd13ifvqhhg","pricing_plan_id":"free"},{"bike_id":"ffa3560c-9a0e-44ac-935c-a9ec6be6a0f5","system_id":"levelo_inurba_marseille","lat":43.292569,"lon":5.409107,"is_reserved":false,"is_disabled":false,"rental_uris":{"android":"levelo://app?vid=ffa3560c-9a0e-44ac-935c-a9ec6be6a0f5","ios":"levelo://app?vid=ffa3560c-9a0e-44ac-935c-a9ec6be6a0f5"},"vehicle_type_id":"4","last_reported":1687457322,"current_range_meters":6000,"station_id":"ce4bh192rcd13ifvqdc0","pricing_plan_id":"free"},{"bike_id":"c4fbca9b-1ef7-4c50-b3a3-cd5c9677076c","system_id":"levelo_inurba_marseille","lat":43.27618,"lon":5.361009,"is_reserved":false,"is_disabled":false,"rental_uris":{"android":"levelo://app?vid=c4fbca9b-1ef7-4c50-b3a3-cd5c9677076c","ios":"levelo://app?vid=c4fbca9b-1ef7-4c50-b3a3-cd5c9677076c"},"vehicle_type_id":"4","last_reported":1687457322,"current_range_meters":30400,"station_id":"ce4bgj92rcd13ifvqbe0","pricing_plan_id":"free"},{"bike_id":"b2c25e40-09f8-43d3-8955-74346676b375","system_id":"levelo_inurba_marseille","lat":43.27618,"lon":5.361009,"is_reserved":false,"is_disabled":false,"rental_uris":{"android":"levelo://app?vid=b2c25e40-09f8-43d3-8955-74346676b375","ios":"levelo://app?vid=b2c25e40-09f8-43d3-8955-74346676b375"},"vehicle_type_id":"4","last_reported":1687457322,"current_range_meters":6800,"station_id":"ce4bgj92rcd13ifvqbe0","pricing_plan_id":"free"},{"bike_id":"6fd6af5e-219d-4115-a182-0ec1b06926ab","system_id":"levelo_inurba_marseille","lat":43.27618,"lon":5.361009,"is_reserved":false,"is_disabled":false,"rental_uris":{"android":"levelo://app?vid=6fd6af5e-219d-4115-a182-0ec1b06926ab","ios":"levelo://app?vid=6fd6af5e-219d-4115-a182-0ec1b06926ab"},"vehicle_type_id":"4","last_reported":1687457322,"current_range_meters":26400,"station_id":"ce4bgj92rcd13ifvqbe0","pricing_plan_id":"free"},{"bike_id":"a1482ac7-6688-4a80-93c8-9aa72617681d","system_id":"levelo_inurba_marseille","lat":43.27618,"lon":5.361009,"is_reserved":false,"is_disabled":false,"rental_uris":{"android":"levelo://app?vid=a1482ac7-6688-4a80-93c8-9aa72617681d","ios":"levelo://app?vid=a1482ac7-6688-4a80-93c8-9aa72617681d"},"vehicle_type_id":"4","last_reported":1687457322,"current_range_meters":26400,"station_id":"ce4bgj92rcd13ifvqbe0","pricing_plan_id":"free"},{"bike_id":"4d495793-33ca-4df4-85fa-9470e76f969d","system_id":"levelo_inurba_marseille","lat":43.27616,"lon":5.36116,"is_reserved":false,"is_disabled":false,"rental_uris":{"android":"levelo://app?vid=4d495793-33ca-4df4-85fa-9470e76f969d","ios":"levelo://app?vid=4d495793-33ca-4df4-85fa-9470e76f969d"},"vehicle_type_id":"4","last_reported":1687457322,"current_range_meters":18000,"station_id":"ce4bgj92rcd13ifvqbe0","pricing_plan_id":"free"},{"bike_id":"ab2fec04-5a72-4bcd-bb4b-2936cc5a78cf","system_id":"levelo_inurba_marseille","lat":43.27834,"lon":5.39208,"is_reserved":false,"is_disabled":false,"rental_uris":{"android":"levelo://app?vid=ab2fec04-5a72-4bcd-bb4b-2936cc5a78cf","ios":"levelo://app?vid=ab2fec04-5a72-4bcd-bb4b-2936cc5a78cf"},"vehicle_type_id":"4","last_reported":1687457322,"current_range_meters":0,"station_id":"ce4bhjp2rcd13ifvqga0","pricing_plan_id":"free"},{"bike_id":"8949aea7-c608-447a-96bc-f7206b5db43c","system_id":"levelo_inurba_marseille","lat":43.27832,"lon":5.39205,"is_reserved":false,"is_disabled":false,"rental_uris":{"android":"levelo://app?vid=8949aea7-c608-447a-96bc-f7206b5db43c","ios":"levelo://app?vid=8949aea7-c608-447a-96bc-f7206b5db43c"},"vehicle_type_id":"4","last_reported":1687457322,"current_range_meters":15200,"station_id":"ce4bhjp2rcd13ifvqga0","pricing_plan_id":"free"},{"bike_id":"7776270e-1686-4e7e-baf2-029448761ca2","system_id":"levelo_inurba_marseille","lat":43.27378,"lon":5.36268,"is_reserved":false,"is_disabled":false,"rental_uris":{"android":"levelo://app?vid=7776270e-1686-4e7e-baf2-029448761ca2","ios":"levelo://app?vid=7776270e-1686-4e7e-baf2-029448761ca2"},"vehicle_type_id":"4","last_reported":1687457322,"current_range_meters":21600,"station_id":"ce4bhbh2rcd13ifvqeo0","pricing_plan_id":"free"},{"bike_id":"543f7a2c-bc88-4c2f-ad52-cb5b8c1b7fba","system_id":"levelo_inurba_marseille","lat":43.27377,"lon":5.36251,"is_reserved":false,"is_disabled":false,"rental_uris":{"android":"levelo://app?vid=543f7a2c-bc88-4c2f-ad52-cb5b8c1b7fba","ios":"levelo://app?vid=543f7a2c-bc88-4c2f-ad52-cb5b8c1b7fba"},"vehicle_type_id":"4","last_reported":1687457322,"current_range_meters":31200,"station_id":"ce4bhbh2rcd13ifvqeo0","pricing_plan_id":"free"},{"bike_id":"2500abc4-5fc1-41af-8838-e772a23c24c4","system_id":"levelo_inurba_marseille","lat":43.27374,"lon":5.36254,"is_reserved":false,"is_disabled":false,"rental_uris":{"android":"levelo://app?vid=2500abc4-5fc1-41af-8838-e772a23c24c4","ios":"levelo://app?vid=2500abc4-5fc1-41af-8838-e772a23c24c4"},"vehicle_type_id":"4","last_reported":1687457322,"current_range_meters":31200,"station_id":"ce4bhbh2rcd13ifvqeo0","pricing_plan_id":"free"},{"bike_id":"dd464660-27f4-4fd6-aaa7-01e9256b4b49","system_id":"levelo_inurba_marseille","lat":43.27368,"lon":5.36261,"is_reserved":false,"is_disabled":false,"rental_uris":{"android":"levelo://app?vid=dd464660-27f4-4fd6-aaa7-01e9256b4b49","ios":"levelo://app?vid=dd464660-27f4-4fd6-aaa7-01e9256b4b49"},"vehicle_type_id":"4","last_reported":1687457322,"current_range_meters":31200,"station_id":"ce4bhbh2rcd13ifvqeo0","pricing_plan_id":"free"},{"bike_id":"909c5dd7-70aa-460d-a038-32de51a9d9d9","system_id":"levelo_inurba_marseille","lat":43.27368,"lon":5.36255,"is_reserved":false,"is_disabled":false,"rental_uris":{"android":"levelo://app?vid=909c5dd7-70aa-460d-a038-32de51a9d9d9","ios":"levelo://app?vid=909c5dd7-70aa-460d-a038-32de51a9d9d9"},"vehicle_type_id":"4","last_reported":1687457322,"current_range_meters":31200,"station_id":"ce4bhbh2rcd13ifvqeo0","pricing_plan_id":"free"},{"bike_id":"8056bcbd-14c6-42d1-9526-bbc5048a5619","system_id":"levelo_inurba_marseille","lat":43.33612,"lon":5.410321,"is_reserved":false,"is_disabled":false,"rental_uris":{"android":"levelo://app?vid=8056bcbd-14c6-42d1-9526-bbc5048a5619","ios":"levelo://app?vid=8056bcbd-14c6-42d1-9526-bbc5048a5619"},"vehicle_type_id":"4","last_reported":1687457322,"current_range_meters":14400,"station_id":"ce4bhqh2rcd13ifvqhmg","pricing_plan_id":"free"},{"bike_id":"7159048f-887f-40b5-9d20-b12a57befb2a","system_id":"levelo_inurba_marseille","lat":43.336134,"lon":5.410341,"is_reserved":false,"is_disabled":false,"rental_uris":{"android":"levelo://app?vid=7159048f-887f-40b5-9d20-b12a57befb2a","ios":"levelo://app?vid=7159048f-887f-40b5-9d20-b12a57befb2a"},"vehicle_type_id":"4","last_reported":1687457322,"current_range_meters":21600,"station_id":"ce4bhqh2rcd13ifvqhmg","pricing_plan_id":"free"},{"bike_id":"3a2cc989-b77a-45d3-81de-29109e85461b","system_id":"levelo_inurba_marseille","lat":43.27676,"lon":5.38869,"is_reserved":false,"is_disabled":false,"rental_uris":{"android":"levelo://app?vid=3a2cc989-b77a-45d3-81de-29109e85461b","ios":"levelo://app?vid=3a2cc989-b77a-45d3-81de-29109e85461b"},"vehicle_type_id":"4","last_reported":1687457322,"current_range_meters":0,"station_id":"ce4bhi12rcd13ifvqfo0","pricing_plan_id":"free"},{"bike_id":"c6e0f6a4-d948-4c21-9a34-dea1eade76e3","system_id":"levelo_inurba_marseille","lat":43.317121,"lon":5.423936,"is_reserved":false,"is_disabled":false,"rental_uris":{"android":"levelo://app?vid=c6e0f6a4-d948-4c21-9a34-dea1eade76e3","ios":"levelo://app?vid=c6e0f6a4-d948-4c21-9a34-dea1eade76e3"},"vehicle_type_id":"4","last_reported":1687457322,"current_range_meters":6800,"station_id":"ce4bhp92rcd13ifvqhbg","pricing_plan_id":"free"},{"bike_id":"96af19eb-1eb6-44fb-85c0-fdac670e83eb","system_id":"levelo_inurba_marseille","lat":43.30417,"lon":5.42534,"is_reserved":false,"is_disabled":false,"rental_uris":{"android":"levelo://app?vid=96af19eb-1eb6-44fb-85c0-fdac670e83eb","ios":"levelo://app?vid=96af19eb-1eb6-44fb-85c0-fdac670e83eb"},"vehicle_type_id":"4","last_reported":1687457322,"current_range_meters":2400,"station_id":"ce4bhoh2rcd13ifvqh6g","pricing_plan_id":"free"},{"bike_id":"4f146034-59e2-4d4d-8c02-281a4bdd206d","system_id":"levelo_inurba_marseille","lat":43.304096,"lon":5.425385,"is_reserved":false,"is_disabled":false,"rental_uris":{"android":"levelo://app?vid=4f146034-59e2-4d4d-8c02-281a4bdd206d","ios":"levelo://app?vid=4f146034-59e2-4d4d-8c02-281a4bdd206d"},"vehicle_type_id":"4","last_reported":1687457322,"current_range_meters":2000,"station_id":"ce4bhoh2rcd13ifvqh6g","pricing_plan_id":"free"},{"bike_id":"b2e5ba23-2f06-4fbc-956e-9b60e0a77bbb","system_id":"levelo_inurba_marseille","lat":43.30412,"lon":5.42549,"is_reserved":false,"is_disabled":false,"rental_uris":{"android":"levelo://app?vid=b2e5ba23-2f06-4fbc-956e-9b60e0a77bbb","ios":"levelo://app?vid=b2e5ba23-2f06-4fbc-956e-9b60e0a77bbb"},"vehicle_type_id":"4","last_reported":1687457322,"current_range_meters":14400,"station_id":"ce4bhoh2rcd13ifvqh6g","pricing_plan_id":"free"},{"bike_id":"ed898fe2-1846-4ba4-b17d-1d157bc41ae4","system_id":"levelo_inurba_marseille","lat":43.30409,"lon":5.42556,"is_reserved":false,"is_disabled":false,"rental_uris":{"android":"levelo://app?vid=ed898fe2-1846-4ba4-b17d-1d157bc41ae4","ios":"levelo://app?vid=ed898fe2-1846-4ba4-b17d-1d157bc41ae4"},"vehicle_type_id":"4","last_reported":1687457322,"current_range_meters":31200,"station_id":"ce4bhoh2rcd13ifvqh6g","pricing_plan_id":"free"},{"bike_id":"b895ab25-e390-40f9-b916-874d54ae3979","system_id":"levelo_inurba_marseille","lat":43.295511,"lon":5.422926,"is_reserved":false,"is_disabled":false,"rental_uris":{"android":"levelo://app?vid=b895ab25-e390-40f9-b916-874d54ae3979","ios":"levelo://app?vid=b895ab25-e390-40f9-b916-874d54ae3979"},"vehicle_type_id":"4","last_reported":1687457322,"current_range_meters":26800,"station_id":"ce4bhph2rcd13ifvqhdg","pricing_plan_id":"free"},{"bike_id":"a8134a16-c2e2-4c87-aa7e-52d3459071e6","system_id":"levelo_inurba_marseille","lat":43.295523,"lon":5.422926,"is_reserved":false,"is_disabled":false,"rental_uris":{"android":"levelo://app?vid=a8134a16-c2e2-4c87-aa7e-52d3459071e6","ios":"levelo://app?vid=a8134a16-c2e2-4c87-aa7e-52d3459071e6"},"vehicle_type_id":"4","last_reported":1687457322,"current_range_meters":19200,"station_id":"ce4bhph2rcd13ifvqhdg","pricing_plan_id":"free"},{"bike_id":"fbe6be2d-ad14-4c10-8fac-6704b79e573a","system_id":"levelo_inurba_marseille","lat":43.295523,"lon":5.422926,"is_reserved":false,"is_disabled":false,"rental_uris":{"android":"levelo://app?vid=fbe6be2d-ad14-4c10-8fac-6704b79e573a","ios":"levelo://app?vid=fbe6be2d-ad14-4c10-8fac-6704b79e573a"},"vehicle_type_id":"4","last_reported":1687457322,"current_range_meters":19600,"station_id":"ce4bhph2rcd13ifvqhdg","pricing_plan_id":"free"},{"bike_id":"03f015ac-48c5-4d75-a4d6-5fb150497ae5","system_id":"levelo_inurba_marseille","lat":43.295511,"lon":5.422926,"is_reserved":false,"is_disabled":false,"rental_uris":{"android":"levelo://app?vid=03f015ac-48c5-4d75-a4d6-5fb150497ae5","ios":"levelo://app?vid=03f015ac-48c5-4d75-a4d6-5fb150497ae5"},"vehicle_type_id":"4","last_reported":1687457322,"current_range_meters":3200,"station_id":"ce4bhph2rcd13ifvqhdg","pricing_plan_id":"free"},{"bike_id":"117da0a9-497b-46b4-a3ef-21503836e9cc","system_id":"levelo_inurba_marseille","lat":43.295511,"lon":5.422926,"is_reserved":false,"is_disabled":false,"rental_uris":{"android":"levelo://app?vid=117da0a9-497b-46b4-a3ef-21503836e9cc","ios":"levelo://app?vid=117da0a9-497b-46b4-a3ef-21503836e9cc"},"vehicle_type_id":"4","last_reported":1687457322,"current_range_meters":29600,"station_id":"ce4bhph2rcd13ifvqhdg","pricing_plan_id":"free"},{"bike_id":"7806116f-0885-4c8f-95b5-384b83169ccf","system_id":"levelo_inurba_marseille","lat":43.27203,"lon":5.39191,"is_reserved":false,"is_disabled":false,"rental_uris":{"android":"levelo://app?vid=7806116f-0885-4c8f-95b5-384b83169ccf","ios":"levelo://app?vid=7806116f-0885-4c8f-95b5-384b83169ccf"},"vehicle_type_id":"4","last_reported":1687457322,"current_range_meters":26800,"station_id":"ce4bhhp2rcd13ifvqfm0","pricing_plan_id":"free"},{"bike_id":"3bc983e7-8956-47b7-84d7-853d10cdd671","system_id":"levelo_inurba_marseille","lat":43.278128,"lon":5.407195,"is_reserved":false,"is_disabled":false,"rental_uris":{"android":"levelo://app?vid=3bc983e7-8956-47b7-84d7-853d10cdd671","ios":"levelo://app?vid=3bc983e7-8956-47b7-84d7-853d10cdd671"},"vehicle_type_id":"4","last_reported":1687457322,"current_range_meters":8800,"station_id":"ce4bhnh2rcd13ifvqgtg","pricing_plan_id":"free"},{"bike_id":"5aeb4b91-75de-4451-87ad-b6f9fd04eee9","system_id":"levelo_inurba_marseille","lat":43.278128,"lon":5.407195,"is_reserved":false,"is_disabled":false,"rental_uris":{"android":"levelo://app?vid=5aeb4b91-75de-4451-87ad-b6f9fd04eee9","ios":"levelo://app?vid=5aeb4b91-75de-4451-87ad-b6f9fd04eee9"},"vehicle_type_id":"4","last_reported":1687457322,"current_range_meters":28800,"station_id":"ce4bhnh2rcd13ifvqgtg","pricing_plan_id":"free"},{"bike_id":"52c43074-5939-47a6-84a9-aef4ed8dd5f9","system_id":"levelo_inurba_marseille","lat":43.278128,"lon":5.407195,"is_reserved":false,"is_disabled":false,"rental_uris":{"android":"levelo://app?vid=52c43074-5939-47a6-84a9-aef4ed8dd5f9","ios":"levelo://app?vid=52c43074-5939-47a6-84a9-aef4ed8dd5f9"},"vehicle_type_id":"4","last_reported":1687457322,"current_range_meters":27200,"station_id":"ce4bhnh2rcd13ifvqgtg","pricing_plan_id":"free"},{"bike_id":"8f097285-6245-4f81-ab03-c4c1429e2b3a","system_id":"levelo_inurba_marseille","lat":43.278128,"lon":5.407195,"is_reserved":false,"is_disabled":false,"rental_uris":{"android":"levelo://app?vid=8f097285-6245-4f81-ab03-c4c1429e2b3a","ios":"levelo://app?vid=8f097285-6245-4f81-ab03-c4c1429e2b3a"},"vehicle_type_id":"4","last_reported":1687457322,"current_range_meters":29600,"station_id":"ce4bhnh2rcd13ifvqgtg","pricing_plan_id":"free"},{"bike_id":"bc0cd962-74b5-47c7-ad00-7321b59a168f","system_id":"levelo_inurba_marseille","lat":43.27996,"lon":5.416624,"is_reserved":false,"is_disabled":false,"rental_uris":{"android":"levelo://app?vid=bc0cd962-74b5-47c7-ad00-7321b59a168f","ios":"levelo://app?vid=bc0cd962-74b5-47c7-ad00-7321b59a168f"},"vehicle_type_id":"4","last_reported":1687457322,"current_range_meters":13600,"station_id":"ce4bho12rcd13ifvqh1g","pricing_plan_id":"free"},{"bike_id":"a3d9afe1-3ec9-4799-8d98-8209690a0b55","system_id":"levelo_inurba_marseille","lat":43.27996,"lon":5.416624,"is_reserved":false,"is_disabled":false,"rental_uris":{"android":"levelo://app?vid=a3d9afe1-3ec9-4799-8d98-8209690a0b55","ios":"levelo://app?vid=a3d9afe1-3ec9-4799-8d98-8209690a0b55"},"vehicle_type_id":"4","last_reported":1687457322,"current_range_meters":13600,"station_id":"ce4bho12rcd13ifvqh1g","pricing_plan_id":"free"},{"bike_id":"1f6fa915-b063-407a-8572-bf49c8119dbb","system_id":"levelo_inurba_marseille","lat":43.26383,"lon":5.36821,"is_reserved":false,"is_disabled":false,"rental_uris":{"android":"levelo://app?vid=1f6fa915-b063-407a-8572-bf49c8119dbb","ios":"levelo://app?vid=1f6fa915-b063-407a-8572-bf49c8119dbb"},"vehicle_type_id":"4","last_reported":1687457322,"current_range_meters":28800,"station_id":"","pricing_plan_id":"free"},{"bike_id":"463690ca-1c7d-4db6-8b8b-aff2f2017c13","system_id":"levelo_inurba_marseille","lat":43.26383,"lon":5.36912,"is_reserved":false,"is_disabled":false,"rental_uris":{"android":"levelo://app?vid=463690ca-1c7d-4db6-8b8b-aff2f2017c13","ios":"levelo://app?vid=463690ca-1c7d-4db6-8b8b-aff2f2017c13"},