{"last_updated":1752430421,"ttl":60,"version":"2.2","data":{"bikes":[{"bike_id":"1fa7edc5-9bd1-4d94-b8dd-36aaa1eeb33a","system_id":"levelo_inurba_marseille","lat":43.2842,"lon":5.34976,"is_reserved":false,"is_disabled":false,"rental_uris":{"android":"levelo://app?vid=1fa7edc5-9bd1-4d94-b8dd-36aaa1eeb33a","ios":"levelo://app?vid=1fa7edc5-9bd1-4d94-b8dd-36aaa1eeb33a"},"vehicle_type_id":"4","last_reported":1752430421,"current_range_meters":2800,"station_id":"ce4bhbh2rcd13ifvqepg","pricing_plan_id":"cebpf4jnsgd1na2vs0mg"},{"bike_id":"524f6326-2f8f-462a-89c0-1f06a7d07ae7","system_id":"levelo_inurba_marseille","lat":43.254995,"lon":5.37607,"is_reserved":false,"is_disabled":true,"rental_uris":{"android":"levelo://app?vid=524f6326-2f8f-462a-89c0-1f06a7d07ae7","ios":"levelo://app?vid=524f6326-2f8f-462a-89c0-1f06a7d07ae7"},"vehicle_type_id":"4","last_reported":1752430421,"current_range_meters":3200,"station_id":"ce4bhh12rcd13ifvqff0","pricing_plan_id":"cebpf4jnsgd1na2vs0mg"},{"bike_id":"a3427122-1acd-457e-b437-90ce89c8aa81","system_id":"levelo_inurba_marseille","lat":43.276245,"lon":5.361026,"is_reserved":false,"is_disabled":false,"rental_uris":{"android":"levelo://app?vid=a3427122-1acd-457e-b437-90ce89c8aa81","ios":"levelo://app?vid=a3427122-1acd-457e-b437-90ce89c8aa81"},"vehicle_type_id":"4","last_reported":1752430421,"current_range_meters":3200,"station_id":"ce4bgj92rcd13ifvqbe0","pricing_plan_id":"cebpf4jnsgd1na2vs0mg"},{"bike_id":"3c8bede8-0e83-4fa0-bd46-8e12e2280b9c","system_id":"levelo_inurba_marseille","lat":43.25494,"lon":5.37649,"is_reserved":false,"is_disabled":false,"rental_uris":{"android":"levelo://app?vid=3c8bede8-0e83-4fa0-bd46-8e12e2280b9c","ios":"levelo://app?vid=3c8bede8-0e83-4fa0-bd46-8e12e2280b9c"},"vehicle_type_id":"4","last_reported":1752430421,"current_range_meters":3600,"station_id":"ce4bhh12rcd13ifvqff0","pricing_plan_id":"cebpf4jnsgd1na2vs0mg"},{"bike_id":"2f0ba75c-aff3-43f4-857b-fc7c66f4e426","system_id":"levelo_inurba_marseille","lat":43.309531,"lon":5.390237,"is_reserved":false,"is_disabled":true,"rental_uris":{"android":"levelo://app?vid=2f0ba75c-aff3-43f4-857b-fc7c66f4e426","ios":"levelo://app?vid=2f0ba75c-aff3-43f4-857b-fc7c66f4e426"},"vehicle_type_id":"4","last_reported":1752430421,"current_range_meters":3600,"station_id":"ce4bgup2rcd13ifvqco0","pricing_plan_id":"cebpf4jnsgd1na2vs0mg"},{"bike_id":"c9e11efa-bfee-46be-b4d8-4b2c0b3de801","system_id":"levelo_inurba_marseille","lat":43.31326,"lon":5.39696,"is_reserved":false,"is_disabled":false,"rental_uris":{"android":"levelo://app?vid=c9e11efa-bfee-46be-b4d8-4b2c0b3de801","ios":"levelo://app?vid=c9e11efa-bfee-46be-b4d8-4b2c0b3de801"},"vehicle_type_id":"4","last_reported":1752430421,"current_range_meters":3600,"station_id":"ce4bgvp2rcd13ifvqcu0","pricing_plan_id":"cebpf4jnsgd1na2vs0mg"},{"bike_id":"5864a880-7c56-45b8-8b3d-95b45ecce376","system_id":"levelo_inurba_marseille","lat":43.27917,"lon":5.39579,"is_reserved":false,"is_disabled":false,"rental_uris":{"android":"levelo://app?vid=5864a880-7c56-45b8-8b3d-95b45ecce376","ios":"levelo://app?vid=5864a880-7c56-45b8-8b3d-95b45ecce376"},"vehicle_type_id":"4","last_reported":1752430421,"current_range_meters":4000,"station_id":"ce4bhf92rcd13ifvqf40","pricing_plan_id":"cebpf4jnsgd1na2vs0mg"},{"bike_id":"9051380b-14a7-4140-84fa-06c717492a00","system_id":"levelo_inurba_marseille","lat":43.31074,"lon":5.4009,"is_reserved":false,"is_disabled":false,"rental_uris":{"android":"levelo://app?vid=9051380b-14a7-4140-84fa-06c717492a00","ios":"levelo://app?vid=9051380b-14a7-4140-84fa-06c717492a00"},"vehicle_type_id":"4","last_reported":1752430421,"current_range_meters":4000,"station_id":"","pricing_plan_id":"cebpf4jnsgd1na2vs0mg"},{"bike_id":"e3a75ee9-c614-467b-8cc2-f813bcef2ab1","system_id":"levelo_inurba_marseille","lat":43.33743,"lon":5.3919,"is_reserved":false,"is_disabled":true,"rental_uris":{"android":"levelo://app?vid=e3a75ee9-c614-467b-8cc2-f813bcef2ab1","ios":"levelo://app?vid=e3a75ee9-c614-467b-8cc2-f813bcef2ab1"},"vehicle_type_id":"4","last_reported":1752430421,"current_range_meters":4400,"station_id":"ce4bhr92rcd13ifvqhsg","pricing_plan_id":"cebpf4jnsgd1na2vs0mg"},{"bike_id":"7c3cbc81-8f33-4e67-aade-bddbe0de5af1","system_id":"levelo_inurba_marseille","lat":43.306928,"lon":5.3951,"is_reserved":false,"is_disabled":false,"rental_uris":{"android":"levelo://app?vid=7c3cbc81-8f33-4e67-aade-bddbe0de5af1","ios":"levelo://app?vid=7c3cbc81-8f33-4e67-aade-bddbe0de5af1"},"vehicle_type_id":"4","last_reported":1752430421,"current_range_meters":4400,"station_id":"ce4bh012rcd13ifvqcv0","pricing_plan_id":"cebpf4jnsgd1na2vs0mg"},{"bike_id":"7952e591-2d05-46c5-a754-26b2974f685b","system_id":"levelo_inurba_marseille","lat":43.3095,"lon":5.39031,"is_reserved":false,"is_disabled":false,"rental_uris":{"android":"levelo://app?vid=7952e591-2d05-46c5-a754-26b2974f685b","ios":"levelo://app?vid=7952e591-2d05-46c5-a754-26b2974f685b"},"vehicle_type_id":"4","last_reported":1752430421,"current_range_meters":4800,"station_id":"ce4bgup2rcd13ifvqco0","pricing_plan_id":"cebpf4jnsgd1na2vs0mg"},{"bike_id":"30414441-350b-4c2f-83d5-67c68d75a2dd","system_id":"levelo_inurba_marseille","lat":43.29273,"lon":5.38438,"is_reserved":false,"is_disabled":false,"rental_uris":{"android":"levelo://app?vid=30414441-350b-4c2f-83d5-67c68d75a2dd","ios":"levelo://app?vid=30414441-350b-4c2f-83d5-67c68d75a2dd"},"vehicle_type_id":"4","last_reported":1752430421,"current_range_meters":4800,"station_id":"ce4bh692rcd13ifvqea0","pricing_plan_id":"cebpf4jnsgd1na2vs0mg"},{"bike_id":"69a98ef8-9b4f-490a-b1e7-11ae49fc387b","system_id":"levelo_inurba_marseille","lat":43.21195,"lon":5.35072,"is_reserved":false,"is_disabled":false,"rental_uris":{"android":"levelo://app?vid=69a98ef8-9b4f-490a-b1e7-11ae49fc387b","ios":"levelo://app?vid=69a98ef8-9b4f-490a-b1e7-11ae49fc387b"},"vehicle_type_id":"4","last_reported":1752430421,"current_range_meters":4800,"station_id":"st_cvj6sg6p6f1abm77japg","pricing_plan_id":"cebpf4jnsgd1na2vs0mg"},{"bike_id":"56483549-de0f-41fc-8fd6-3805312770e8","system_id":"levelo_inurba_marseille","lat":43.28998,"lon":5.35608,"is_reserved":false,"is_disabled":false,"rental_uris":{"android":"levelo://app?vid=56483549-de0f-41fc-8fd6-3805312770e8","ios":"levelo://app?vid=56483549-de0f-41fc-8fd6-3805312770e8"},"vehicle_type_id":"4","last_reported":1752430421,"current_range_meters":4800,"station_id":"ce4bhb92rcd13ifvqen0","pricing_plan_id":"cebpf4jnsgd1na2vs0mg"},{"bike_id":"36fb1df1-91db-411d-a9d2-e416abc243af","system_id":"levelo_inurba_marseille","lat":43.29176,"lon":5.38459,"is_reserved":false,"is_disabled":false,"rental_uris":{"android":"levelo://app?vid=36fb1df1-91db-411d-a9d2-e416abc243af","ios":"levelo://app?vid=36fb1df1-91db-411d-a9d2-e416abc243af"},"vehicle_type_id":"4","last_reported":1752430421,"current_range_meters":4800,"station_id":"","pricing_plan_id":"cebpf4jnsgd1na2vs0mg"},{"bike_id":"10015259-9f2d-4038-97e3-ad3e1160d9b6","system_id":"levelo_inurba_marseille","lat":43.30186,"lon":5.3662,"is_reserved":false,"is_disabled":false,"rental_uris":{"android":"levelo://app?vid=10015259-9f2d-4038-97e3-ad3e1160d9b6","ios":"levelo://app?vid=10015259-9f2d-4038-97e3-ad3e1160d9b6"},"vehicle_type_id":"4","last_reported":1752430421,"current_range_meters":5600,"station_id":"ce4bgrh2rcd13ifvqc8g","pricing_plan_id":"cebpf4jnsgd1na2vs0mg"},{"bike_id":"df61839a-7a72-4634-9960-e8ea0d9a8d35","system_id":"levelo_inurba_marseille","lat":43.239474,"lon":5.366089,"is_reserved":false,"is_disabled":true,"rental_uris":{"android":"levelo://app?vid=df61839a-7a72-4634-9960-e8ea0d9a8d35","ios":"levelo://app?vid=df61839a-7a72-4634-9960-e8ea0d9a8d35"},"vehicle_type_id":"4","last_reported":1752430421,"current_range_meters":5600,"station_id":"","pricing_plan_id":"cebpf4jnsgd1na2vs0mg"},{"bike_id":"884708cc-4b4b-4d6a-81fd-3047466d64de","system_id":"levelo_inurba_marseille","lat":43.21734,"lon":5.34539,"is_reserved":false,"is_disabled":false,"rental_uris":{"android":"levelo://app?vid=884708cc-4b4b-4d6a-81fd-3047466d64de","ios":"levelo://app?vid=884708cc-4b4b-4d6a-81fd-3047466d64de"},"vehicle_type_id":"4","last_reported":1752430421,"current_range_meters":6000,"station_id":"","pricing_plan_id":"cebpf4jnsgd1na2vs0mg"},{"bike_id":"d6090a26-e4d2-4eb9-8b9e-89429f2b74e0","system_id":"levelo_inurba_marseille","lat":43.29228,"lon":5.36205,"is_reserved":false,"is_disabled":false,"rental_uris":{"android":"levelo://app?vid=d6090a26-e4d2-4eb9-8b9e-89429f2b74e0","ios":"levelo://app?vid=d6090a26-e4d2-4eb9-8b9e-89429f2b74e0"},"vehicle_type_id":"4","last_reported":1752430421,"current_range_meters":6000,"station_id":"","pricing_plan_id":"cebpf4jnsgd1na2vs0mg"},{"bike_id":"bffcb9b8-f0d2-4bce-947a-729d619957a5","system_id":"levelo_inurba_marseille","lat":43.23438,"lon":5.41246,"is_reserved":false,"is_disabled":false,"rental_uris":{"android":"levelo://app?vid=bffcb9b8-f0d2-4bce-947a-729d619957a5","ios":"levelo://app?vid=bffcb9b8-f0d2-4bce-947a-729d619957a5"},"vehicle_type_id":"4","last_reported":1752430421,"current_range_meters":6000,"station_id":"","pricing_plan_id":"cebpf4jnsgd1na2vs0mg"},{"bike_id":"0bc35421-ce88-41c3-978f-f5c179adaa0d","system_id":"levelo_inurba_marseille","lat":43.29298,"lon":5.37173,"is_reserved":false,"is_disabled":false,"rental_uris":{"android":"levelo://app?vid=0bc35421-ce88-41c3-978f-f5c179adaa0d","ios":"levelo://app?vid=0bc35421-ce88-41c3-978f-f5c179adaa0d"},"vehicle_type_id":"4","last_reported":1752430421,"current_range_meters":6000,"station_id":"ce4bgh92rcd13ifvqb40","pricing_plan_id":"cebpf4jnsgd1na2vs0mg"},{"bike_id":"cb9282c9-0a04-426f-af4a-9dc494a82650","system_id":"levelo_inurba_marseille","lat":43.225,"lon":5.3478,"is_reserved":false,"is_disabled":false,"rental_uris":{"android":"levelo://app?vid=cb9282c9-0a04-426f-af4a-9dc494a82650","ios":"levelo://app?vid=cb9282c9-0a04-426f-af4a-9dc494a82650"},"vehicle_type_id":"4","last_reported":1752430421,"current_range_meters":6000,"station_id":"","pricing_plan_id":"cebpf4jnsgd1na2vs0mg"},{"bike_id":"8929c1bf-fd4d-44e4-aa66-b3eb6538c998","system_id":"levelo_inurba_marseille","lat":43.28579,"lon":5.42936,"is_reserved":false,"is_disabled":false,"rental_uris":{"android":"levelo://app?vid=8929c1bf-fd4d-44e4-aa66-b3eb6538c998","ios":"levelo://app?vid=8929c1bf-fd4d-44e4-aa66-b3eb6538c998"},"vehicle_type_id":"4","last_reported":1752430421,"current_range_meters":6400,"station_id":"","pricing_plan_id":"cebpf4jnsgd1na2vs0mg"},{"bike_id":"14a1dddd-7003-4b71-8091-ba93f06d79ad","system_id":"levelo_inurba_marseille","lat":43.26028,"lon":5.37551,"is_reserved":false,"is_disabled":false,"rental_uris":{"android":"levelo://app?vid=14a1dddd-7003-4b71-8091-ba93f06d79ad","ios":"levelo://app?vid=14a1dddd-7003-4b71-8091-ba93f06d79ad"},"vehicle_type_id":"4","last_reported":1752430421,"current_range_meters":6000,"station_id":"ce4bhgh2rcd13ifvqfa0","pricing_plan_id":"cebpf4jnsgd1na2vs0mg"},{"bike_id":"3440e539-2a25-45a6-91a1-9c3e29b7b1e2","system_id":"levelo_inurba_marseille","lat":43.31386,"lon":5.3852,"is_reserved":false,"is_disabled":true,"rental_uris":{"android":"levelo://app?vid=3440e539-2a25-45a6-91a1-9c3e29b7b1e2","ios":"levelo://app?vid=3440e539-2a25-45a6-91a1-9c3e29b7b1e2"},"vehicle_type_id":"4","last_reported":1752430421,"current_range_meters":6400,"station_id":"ce4bgt92rcd13ifvqcf0","pricing_plan_id":"cebpf4jnsgd1na2vs0mg"},{"bike_id":"4b3c3088-af2c-418b-a431-898c1a622ab2","system_id":"levelo_inurba_marseille","lat":43.29857,"lon":5.36255,"is_reserved":false,"is_disabled":false,"rental_uris":{"android":"levelo://app?vid=4b3c3088-af2c-418b-a431-898c1a622ab2","ios":"levelo://app?vid=4b3c3088-af2c-418b-a431-898c1a622ab2"},"vehicle_type_id":"4","last_reported":1752430421,"current_range_meters":6400,"station_id":"ce4bgpp2rcd13ifvqc3g","pricing_plan_id":"cebpf4jnsgd1na2vs0mg"},{"bike_id":"186e4a83-c41e-4d8d-9b4c-7b56474278a0","system_id":"levelo_inurba_marseille","lat":43.25123,"lon":5.40319,"is_reserved":false,"is_disabled":false,"rental_uris":{"android":"levelo://app?vid=186e4a83-c41e-4d8d-9b4c-7b56474278a0","ios":"levelo://app?vid=186e4a83-c41e-4d8d-9b4c-7b56474278a0"},"vehicle_type_id":"4","last_reported":1752430421,"current_range_meters":6800,"station_id":"ce4bhlh2rcd13ifvqgig","pricing_plan_id":"cebpf4jnsgd1na2vs0mg"},{"bike_id":"a52f605f-fb26-4553-ad26-6f4e0b77d048","system_id":"levelo_inurba_marseille","lat":43.323492,"lon":5.406168,"is_reserved":false,"is_disabled":false,"rental_uris":{"android":"levelo://app?vid=a52f605f-fb26-4553-ad26-6f4e0b77d048","ios":"levelo://app?vid=a52f605f-fb26-4553-ad26-6f4e0b77d048"},"vehicle_type_id":"4","last_reported":1752430421,"current_range_meters":6800,"station_id":"ce4bhq92rcd13ifvqhjg","pricing_plan_id":"cebpf4jnsgd1na2vs0mg"},{"bike_id":"45652238-377a-44ea-947c-fd24ceaa076d","system_id":"levelo_inurba_marseille","lat":43.29455,"lon":5.39734,"is_reserved":false,"is_disabled":false,"rental_uris":{"android":"levelo://app?vid=45652238-377a-44ea-947c-fd24ceaa076d","ios":"levelo://app?vid=45652238-377a-44ea-947c-fd24ceaa076d"},"vehicle_type_id":"4","last_reported":1752430421,"current_range_meters":6800,"station_id":"ce4bh3h2rcd13ifvqdo0","pricing_plan_id":"cebpf4jnsgd1na2vs0mg"},{"bike_id":"422ac485-bc7b-4361-b00c-af28364f94e4","system_id":"levelo_inurba_marseille","lat":43.22815,"lon":5.34969,"is_reserved":false,"is_disabled":false,"rental_uris":{"android":"levelo://app?vid=422ac485-bc7b-4361-b00c-af28364f94e4","ios":"levelo://app?vid=422ac485-bc7b-4361-b00c-af28364f94e4"},"vehicle_type_id":"4","last_reported":1752430421,"current_range_meters":6800,"station_id":"","pricing_plan_id":"cebpf4jnsgd1na2vs0mg"},{"bike_id":"7d979f4d-837d-4923-bea4-9309987ed4f7","system_id":"levelo_inurba_marseille","lat":43.27922,"lon":5.39592,"is_reserved":false,"is_disabled":true,"rental_uris":{"android":"levelo://app?vid=7d979f4d-837d-4923-bea4-9309987ed4f7","ios":"levelo://app?vid=7d979f4d-837d-4923-bea4-9309987ed4f7"},"vehicle_type_id":"4","last_reported":1752430421,"current_range_meters":6800,"station_id":"ce4bhf92rcd13ifvqf40","pricing_plan_id":"cebpf4jnsgd1na2vs0mg"},{"bike_id":"7b624790-b21b-46d1-a9ca-774e836eea2b","system_id":"levelo_inurba_marseille","lat":43.29718,"lon":5.36605,"is_reserved":false,"is_disabled":true,"rental_uris":{"android":"levelo://app?vid=7b624790-b21b-46d1-a9ca-774e836eea2b","ios":"levelo://app?vid=7b624790-b21b-46d1-a9ca-774e836eea2b"},"vehicle_type_id":"4","last_reported":1752430421,"current_range_meters":6800,"station_id":"ce4bgn12rcd13ifvqbt0","pricing_plan_id":"cebpf4jnsgd1na2vs0mg"},{"bike_id":"dbba3321-20c7-4989-a7b5-ea9ab2c4b3e8","system_id":"levelo_inurba_marseille","lat":43.261935,"lon":5.374477,"is_reserved":false,"is_disabled":true,"rental_uris":{"android":"levelo://app?vid=dbba3321-20c7-4989-a7b5-ea9ab2c4b3e8","ios":"levelo://app?vid=dbba3321-20c7-4989-a7b5-ea9ab2c4b3e8"},"vehicle_type_id":"4","last_reported":1752430421,"current_range_meters":6800,"station_id":"ce4bhgp2rcd13ifvqfc0","pricing_plan_id":"cebpf4jnsgd1na2vs0mg"},{"bike_id":"f4142783-a960-4036-8b5b-b4924022ac7e","system_id":"levelo_inurba_marseille","lat":43.29421,"lon":5.38626,"is_reserved":false,"is_disabled":false,"rental_uris":{"android":"levelo://app?vid=f4142783-a960-4036-8b5b-b4924022ac7e","ios":"levelo://app?vid=f4142783-a960-4036-8b5b-b4924022ac7e"},"vehicle_type_id":"4","last_reported":1752430421,"current_range_meters":6800,"station_id":"ce4bh2h2rcd13ifvqdh0","pricing_plan_id":"cebpf4jnsgd1na2vs0mg"},{"bike_id":"ae6b9bb3-31c8-4302-91c6-0e6b059eb0f3","system_id":"levelo_inurba_marseille","lat":43.33791,"lon":5.37381,"is_reserved":false,"is_disabled":true,"rental_uris":{"android":"levelo://app?vid=ae6b9bb3-31c8-4302-91c6-0e6b059eb0f3","ios":"levelo://app?vid=ae6b9bb3-31c8-4302-91c6-0e6b059eb0f3"},"vehicle_type_id":"4","last_reported":1752430421,"current_range_meters":7200,"station_id":"","pricing_plan_id":"cebpf4jnsgd1na2vs0mg"},{"bike_id":"74082c92-f138-4147-9fca-f0f30fb826a7","system_id":"levelo_inurba_marseille","lat":43.29874,"lon":5.38905,"is_reserved":false,"is_disabled":false,"rental_uris":{"android":"levelo://app?vid=74082c92-f138-4147-9fca-f0f30fb826a7","ios":"levelo://app?vid=74082c92-f138-4147-9fca-f0f30fb826a7"},"vehicle_type_id":"4","last_reported":1752430421,"current_range_meters":7200,"station_id":"ce4bh392rcd13ifvqdl0","pricing_plan_id":"cebpf4jnsgd1na2vs0mg"},{"bike_id":"5a71ab42-51f6-4d74-8942-e5c8339f2255","system_id":"levelo_inurba_marseille","lat":43.31762,"lon":5.39007,"is_reserved":false,"is_disabled":true,"rental_uris":{"android":"levelo://app?vid=5a71ab42-51f6-4d74-8942-e5c8339f2255","ios":"levelo://app?vid=5a71ab42-51f6-4d74-8942-e5c8339f2255"},"vehicle_type_id":"4","last_reported":1752430421,"current_range_meters":7200,"station_id":"ce4bhqp2rcd13ifvqhng","pricing_plan_id":"cebpf4jnsgd1na2vs0mg"},{"bike_id":"897a5269-2865-4fe1-b0d8-1508ca8098cd","system_id":"levelo_inurba_marseille","lat":43.29359,"lon":5.37837,"is_reserved":false,"is_disabled":false,"rental_uris":{"android":"levelo://app?vid=897a5269-2865-4fe1-b0d8-1508ca8098cd","ios":"levelo://app?vid=897a5269-2865-4fe1-b0d8-1508ca8098cd"},"vehicle_type_id":"4","last_reported":1752430421,"current_range_meters":7200,"station_id":"ce4bgjh2rcd13ifvqbf0","pricing_plan_id":"cebpf4jnsgd1na2vs0mg"},{"bike_id":"736e5b98-3923-4981-809c-a00465245e2b","system_id":"levelo_inurba_marseille","lat":43.29619,"lon":5.37735,"is_reserved":false,"is_disabled":false,"rental_uris":{"android":"levelo://app?vid=736e5b98-3923-4981-809c-a00465245e2b","ios":"levelo://app?vid=736e5b98-3923-4981-809c-a00465245e2b"},"vehicle_type_id":"4","last_reported":1752430421,"current_range_meters":8000,"station_id":"ce4bgi92rcd13ifvqb90","pricing_plan_id":"cebpf4jnsgd1na2vs0mg"},{"bike_id":"4e18f6a0-cf0a-4e54-823e-14d073e25d70","system_id":"levelo_inurba_marseille","lat":43.28042,"lon":5.36914,"is_reserved":false,"is_disabled":true,"rental_uris":{"android":"levelo://app?vid=4e18f6a0-cf0a-4e54-823e-14d073e25d70","ios":"levelo://app?vid=4e18f6a0-cf0a-4e54-823e-14d073e25d70"},"vehicle_type_id":"4","last_reported":1752430421,"current_range_meters":8000,"station_id":"ce4bha12rcd13ifvqef0","pricing_plan_id":"cebpf4jnsgd1na2vs0mg"},{"bike_id":"02883b92-225f-428d-a8a6-4844ec1f2d26","system_id":"levelo_inurba_marseille","lat":43.30594,"lon":5.3723,"is_reserved":false,"is_disabled":true,"rental_uris":{"android":"levelo://app?vid=02883b92-225f-428d-a8a6-4844ec1f2d26","ios":"levelo://app?vid=02883b92-225f-428d-a8a6-4844ec1f2d26"},"vehicle_type_id":"4","last_reported":1752430421,"current_range_meters":8000,"station_id":"ce4bgqh2rcd13ifvqc4g","pricing_plan_id":"cebpf4jnsgd1na2vs0mg"},{"bike_id":"4d30ffe9-3a9e-480e-8455-f935bd1aaed5","system_id":"levelo_inurba_marseille","lat":43.2985,"lon":5.36286,"is_reserved":false,"is_disabled":false,"rental_uris":{"android":"levelo://app?vid=4d30ffe9-3a9e-480e-8455-f935bd1aaed5","ios":"levelo://app?vid=4d30ffe9-3a9e-480e-8455-f935bd1aaed5"},"vehicle_type_id":"4","last_reported":1752430421,"current_range_meters":8400,"station_id":"ce4bgpp2rcd13ifvqc3g","pricing_plan_id":"cebpf4jnsgd1na2vs0mg"},{"bike_id":"696aca5a-f985-42f2-b5f7-74ca3a442dcb","system_id":"levelo_inurba_marseille","lat":43.30958,"lon":5.37155,"is_reserved":false,"is_disabled":false,"rental_uris":{"android":"levelo://app?vid=696aca5a-f985-42f2-b5f7-74ca3a442dcb","ios":"levelo://app?vid=696aca5a-f985-42f2-b5f7-74ca3a442dcb"},"vehicle_type_id":"4","last_reported":1752430421,"current_range_meters":8400,"station_id":"","pricing_plan_id":"cebpf4jnsgd1na2vs0mg"},{"bike_id":"9b947d78-cacd-4e31-b908-0ec3327b90c8","system_id":"levelo_inurba_marseille","lat":43.27562,"lon":5.38405,"is_reserved":false,"is_disabled":false,"rental_uris":{"android":"levelo://app?vid=9b947d78-cacd-4e31-b908-0ec3327b90c8","ios":"levelo://app?vid=9b947d78-cacd-4e31-b908-0ec3327b90c8"},"vehicle_type_id":"4","last_reported":1752430421,"current_range_meters":8400,"station_id":"ce4bhh92rcd13ifvqfi0","pricing_plan_id":"cebpf4jnsgd1na2vs0mg"},{"bike_id":"44dd919c-32df-4fe9-8b1c-c9988fb68d5b","system_id":"levelo_inurba_marseille","lat":43.2696,"lon":5.40282,"is_reserved":false,"is_disabled":true,"rental_uris":{"android":"levelo://app?vid=44dd919c-32df-4fe9-8b1c-c9988fb68d5b","ios":"levelo://app?vid=44dd919c-32df-4fe9-8b1c-c9988fb68d5b"},"vehicle_type_id":"4","last_reported":1752430421,"current_range_meters":8800,"station_id":"cjm6bp8fraef2m0cb0m0","pricing_plan_id":"cebpf4jnsgd1na2vs0mg"},{"bike_id":"96d54fdb-5835-4cd8-9827-093c0b08e4ca","system_id":"levelo_inurba_marseille","lat":43.21194,"lon":5.35065,"is_reserved":false,"is_disabled":false,"rental_uris":{"android":"levelo://app?vid=96d54fdb-5835-4cd8-9827-093c0b08e4ca","ios":"levelo://app?vid=96d54fdb-5835-4cd8-9827-093c0b08e4ca"},"vehicle_type_id":"4","last_reported":1752430421,"current_range_meters":8800,"station_id":"st_cvj6sg6p6f1abm77japg","pricing_plan_id":"cebpf4jnsgd1na2vs0mg"},{"bike_id":"ed5ded24-e844-4b3c-9892-b19c2907c178","system_id":"levelo_inurba_marseille","lat":43.29196,"lon":5.35802,"is_reserved":false,"is_disabled":false,"rental_uris":{"android":"levelo://app?vid=ed5ded24-e844-4b3c-9892-b19c2907c178","ios":"levelo://app?vid=ed5ded24-e844-4b3c-9892-b19c2907c178"},"vehicle_type_id":"4","last_reported":1752430421,"current_range_meters":8800,"station_id":"ce4bhb12rcd13ifvqel0","pricing_plan_id":"cebpf4jnsgd1na2vs0mg"},{"bike_id":"73e2d7c5-216c-4d0c-8d4d-13db3862aab0","system_id":"levelo_inurba_marseille","lat":43.25,"lon":5.38925,"is_reserved":false,"is_disabled":false,"rental_uris":{"android":"levelo://app?vid=73e2d7c5-216c-4d0c-8d4d-13db3862aab0","ios":"levelo://app?vid=73e2d7c5-216c-4d0c-8d4d-13db3862aab0"},"vehicle_type_id":"4","last_reported":1752430421,"current_range_meters":8800,"station_id":"ce4bhgp2rcd13ifvqfd0","pricing_plan_id":"cebpf4jnsgd1na2vs0mg"},{"bike_id":"1085b486-3d70-4640-8a6b-92ec19a4fde7","system_id":"levelo_inurba_marseille","lat":43.29522,"lon":5.39055,"is_reserved":false,"is_disabled":false,"rental_uris":{"android":"levelo://app?vid=1085b486-3d70-4640-8a6b-92ec19a4fde7","ios":"levelo://app?vid=1085b486-3d70-4640-8a6b-92ec19a4fde7"},"vehicle_type_id":"4","last_reported":1752430421,"current_range_meters":9200,"station_id":"ce4bh3p2rcd13ifvqdp0","pricing_plan_id":"cebpf4jnsgd1na2vs0mg"},{"bike_id":"fe5e3cc4-7269-47dc-bb1e-2be389730cd8","system_id":"levelo_inurba_marseille","lat":43.295258,"lon":5.38543,"is_reserved":false,"is_disabled":false,"rental_uris":{"android":"levelo://app?vid=fe5e3cc4-7269-47dc-bb1e-2be389730cd8","ios":"levelo://app?vid=fe5e3cc4-7269-47dc-bb1e-2be389730cd8"},"vehicle_type_id":"4","last_reported":1752430421,"current_range_meters":9200,"station_id":"ce4bgih2rcd13ifvqba0","pricing_plan_id":"cebpf4jnsgd1na2vs0mg"},{"bike_id":"0b0f1962-1ccb-4bc3-895b-70f8484b3602","system_id":"levelo_inurba_marseille","lat":43.28734,"lon":5.36094,"is_reserved":false,"is_disabled":true,"rental_uris":{"android":"levelo://app?vid=0b0f1962-1ccb-4bc3-895b-70f8484b3602","ios":"levelo://app?vid=0b0f1962-1ccb-4bc3-895b-70f8484b3602"},"vehicle_type_id":"4","last_reported":1752430421,"current_range_meters":9200,"station_id":"cki0cbj6b192h4jlfktg","pricing_plan_id":"cebpf4jnsgd1na2vs0mg"},{"bike_id":"8c3d1c6e-776e-4dec-9f85-d8161ab29232","system_id":"levelo_inurba_marseille","lat":43.2997,"lon":5.38493,"is_reserved":false,"is_disabled":false,"rental_uris":{"android":"levelo://app?vid=8c3d1c6e-776e-4dec-9f85-d8161ab29232","ios":"levelo://app?vid=8c3d1c6e-776e-4dec-9f85-d8161ab29232"},"vehicle_type_id":"4","last_reported":1752430421,"current_range_meters":9200,"station_id":"ce4bgj92rcd13ifvqbd0","pricing_plan_id":"cebpf4jnsgd1na2vs0mg"},{"bike_id":"3b571a53-9fbd-4fbc-912d-aa08057c44c9","system_id":"levelo_inurba_marseille","lat":43.30187,"lon":5.3661,"is_reserved":false,"is_disabled":false,"rental_uris":{"android":"levelo://app?vid=3b571a53-9fbd-4fbc-912d-aa08057c44c9","ios":"levelo://app?vid=3b571a53-9fbd-4fbc-912d-aa08057c44c9"},"vehicle_type_id":"4","last_reported":1752430421,"current_range_meters":9200,"station_id":"ce4bgrh2rcd13ifvqc8g","pricing_plan_id":"cebpf4jnsgd1na2vs0mg"},{"bike_id":"470d1e9d-8c05-40b8-a6b2-039f183b9f6a","system_id":"levelo_inurba_marseille","lat":43.23212,"lon":5.35529,"is_reserved":false,"is_disabled":true,"rental_uris":{"android":"levelo://app?vid=470d1e9d-8c05-40b8-a6b2-039f183b9f6a","ios":"levelo://app?vid=470d1e9d-8c05-40b8-a6b2-039f183b9f6a"},"vehicle_type_id":"4","last_reported":1752430421,"current_range_meters":9200,"station_id":"ce4bhu92rcd13ifvqi70","pricing_plan_id":"cebpf4jnsgd1na2vs0mg"},{"bike_id":"1288cc26-647b-442a-8738-27633b70f4d5","system_id":"levelo_inurba_marseille","lat":43.30132,"lon":5.38782,"is_reserved":false,"is_disabled":false,"rental_uris":{"android":"levelo://app?vid=1288cc26-647b-442a-8738-27633b70f4d5","ios":"levelo://app?vid=1288cc26-647b-442a-8738-27633b70f4d5"},"vehicle_type_id":"4","last_reported":1752430421,"current_range_meters":9600,"station_id":"ce4bghh2rcd13ifvqb60","pricing_plan_id":"cebpf4jnsgd1na2vs0mg"},{"bike_id":"9c9cf26e-0cc6-42b4-94f4-55acbea76c08","system_id":"levelo_inurba_marseille","lat":43.30134,"lon":5.38773,"is_reserved":false,"is_disabled":false,"rental_uris":{"android":"levelo://app?vid=9c9cf26e-0cc6-42b4-94f4-55acbea76c08","ios":"levelo://app?vid=9c9cf26e-0cc6-42b4-94f4-55acbea76c08"},"vehicle_type_id":"4","last_reported":1752430421,"current_range_meters":9600,"station_id":"ce4bghh2rcd13ifvqb60","pricing_plan_id":"cebpf4jnsgd1na2vs0mg"},{"bike_id":"ab20484e-0f4b-4c77-86d0-bd6ac1b7185a","system_id":"levelo_inurba_marseille","lat":43.32047,"lon":5.4155,"is_reserved":false,"is_disabled":false,"rental_uris":{"android":"levelo://app?vid=ab20484e-0f4b-4c77-86d0-bd6ac1b7185a","ios":"levelo://app?vid=ab20484e-0f4b-4c77-86d0-bd6ac1b7185a"},"vehicle_type_id":"4","last_reported":1752430421,"current_range_meters":9600,"station_id":"ce4bhq92rcd13ifvqhkg","pricing_plan_id":"cebpf4jnsgd1na2vs0mg"},{"bike_id":"1df6cd36-78e2-40aa-b4fc-72c99480c788","system_id":"levelo_inurba_marseille","lat":43.30139,"lon":5.38779,"is_reserved":false,"is_disabled":false,"rental_uris":{"android":"levelo://app?vid=1df6cd36-78e2-40aa-b4fc-72c99480c788","ios":"levelo://app?vid=1df6cd36-78e2-40aa-b4fc-72c99480c788"},"vehicle_type_id":"4","last_reported":1752430421,"current_range_meters":9600,"station_id":"ce4bghh2rcd13ifvqb60","pricing_plan_id":"cebpf4jnsgd1na2vs0mg"},{"bike_id":"afb3e3b0-3b35-40a1-a3d9-2a416ca6d8c0","system_id":"levelo_inurba_marseille","lat":43.27391,"lon":5.36249,"is_reserved":false,"is_disabled":true,"rental_uris":{"android":"levelo://app?vid=afb3e3b0-3b35-40a1-a3d9-2a416ca6d8c0","ios":"levelo://app?vid=afb3e3b0-3b35-40a1-a3d9-2a416ca6d8c0"},"vehicle_type_id":"4","last_reported":1752430421,"current_range_meters":9600,"station_id":"ce4bhbh2rcd13ifvqeo0","pricing_plan_id":"cebpf4jnsgd1na2vs0mg"},{"bike_id":"1bfa1b76-fa6d-4cdd-aff5-612b86c512c4","system_id":"levelo_inurba_marseille","lat":43.26571,"lon":5.39,"is_reserved":false,"is_disabled":true,"rental_uris":{"android":"levelo://app?vid=1bfa1b76-fa6d-4cdd-aff5-612b86c512c4","ios":"levelo://app?vid=1bfa1b76-fa6d-4cdd-aff5-612b86c512c4"},"vehicle_type_id":"4","last_reported":1752430421,"current_range_meters":9600,"station_id":"ce4bhe12rcd13ifvqf30","pricing_plan_id":"cebpf4jnsgd1na2vs0mg"},{"bike_id":"47589524-995d-4598-9ac7-74133cc9d373","system_id":"levelo_inurba_marseille","lat":43.299146,"lon":5.374946,"is_reserved":false,"is_disabled":false,"rental_uris":{"android":"levelo://app?vid=47589524-995d-4598-9ac7-74133cc9d373","ios":"levelo://app?vid=47589524-995d-4598-9ac7-74133cc9d373"},"vehicle_type_id":"4","last_reported":1752430421,"current_range_meters":9600,"station_id":"ce4bgjh2rcd13ifvqbg0","pricing_plan_id":"cebpf4jnsgd1na2vs0mg"},{"bike_id":"383a2485-518e-4235-b1cd-0ebf65ba74a5","system_id":"levelo_inurba_marseille","lat":43.29564,"lon":5.38522,"is_reserved":false,"is_disabled":true,"rental_uris":{"android":"levelo://app?vid=383a2485-518e-4235-b1cd-0ebf65ba74a5","ios":"levelo://app?vid=383a2485-518e-4235-b1cd-0ebf65ba74a5"},"vehicle_type_id":"4","last_reported":1752430421,"current_range_meters":9600,"station_id":"ce4bgih2rcd13ifvqba0","pricing_plan_id":"cebpf4jnsgd1na2vs0mg"},{"bike_id":"65ea60aa-a9a6-4816-82dc-8f2c6c255879","system_id":"levelo_inurba_marseille","lat":43.28412,"lon":5.37515,"is_reserved":false,"is_disabled":false,"rental_uris":{"android":"levelo://app?vid=65ea60aa-a9a6-4816-82dc-8f2c6c255879","ios":"levelo://app?vid=65ea60aa-a9a6-4816-82dc-8f2c6c255879"},"vehicle_type_id":"4","last_reported":1752430421,"current_range_meters":9600,"station_id":"ce4bh412rcd13ifvqds0","pricing_plan_id":"cebpf4jnsgd1na2vs0mg"},{"bike_id":"3212f54e-a7ec-4d86-ae22-7bdf70a3b007","system_id":"levelo_inurba_marseille","lat":43.30524,"lon":5.38417,"is_reserved":false,"is_disabled":false,"rental_uris":{"android":"levelo://app?vid=3212f54e-a7ec-4d86-ae22-7bdf70a3b007","ios":"levelo://app?vid=3212f54e-a7ec-4d86-ae22-7bdf70a3b007"},"vehicle_type_id":"4","last_reported":1752430421,"current_range_meters":10000,"station_id":"ce4bgg92rcd13ifvqb30","pricing_plan_id":"cebpf4jnsgd1na2vs0mg"},{"bike_id":"cb21efef-49fe-42b6-9110-4d4e78f261b5","system_id":"levelo_inurba_marseille","lat":43.29573,"lon":5.37515,"is_reserved":false,"is_disabled":false,"rental_uris":{"android":"levelo://app?vid=cb21efef-49fe-42b6-9110-4d4e78f261b5","ios":"levelo://app?vid=cb21efef-49fe-42b6-9110-4d4e78f261b5"},"vehicle_type_id":"4","last_reported":1752430421,"current_range_meters":10000,"station_id":"ce4bgh92rcd13ifvqb50","pricing_plan_id":"cebpf4jnsgd1na2vs0mg"},{"bike_id":"d68cb5ad-8aaa-4601-a9a5-ee20b2b16bef","system_id":"levelo_inurba_marseille","lat":43.295337,"lon":5.38541,"is_reserved":false,"is_disabled":false,"rental_uris":{"android":"levelo://app?vid=d68cb5ad-8aaa-4601-a9a5-ee20b2b16bef","ios":"levelo://app?vid=d68cb5ad-8aaa-4601-a9a5-ee20b2b16bef"},"vehicle_type_id":"4","last_reported":1752430421,"current_range_meters":10000,"station_id":"ce4bgih2rcd13ifvqba0","pricing_plan_id":"cebpf4jnsgd1na2vs0mg"},{"bike_id":"49801dc2-618a-44b8-84ae-416cd87fdbe9","system_id":"levelo_inurba_marseille","lat":43.33776,"lon":5.37436,"is_reserved":false,"is_disabled":false,"rental_uris":{"android":"levelo://app?vid=49801dc2-618a-44b8-84ae-416cd87fdbe9","ios":"levelo://app?vid=49801dc2-618a-44b8-84ae-416cd87fdbe9"},"vehicle_type_id":"4","last_reported":1752430421,"current_range_meters":10000,"station_id":"","pricing_plan_id":"cebpf4jnsgd1na2vs0mg"},{"bike_id":"31f76825-7b9f-439a-a66c-521eb63e58c1","system_id":"levelo_inurba_marseille","lat":43.29442,"lon":5.43863,"is_reserved":false,"is_disabled":false,"rental_uris":{"android":"levelo://app?vid=31f76825-7b9f-439a-a66c-521eb63e58c1","ios":"levelo://app?vid=31f76825-7b9f-439a-a66c-521eb63e58c1"},"vehicle_type_id":"4","last_reported":1752430421,"current_range_meters":10000,"station_id":"","pricing_plan_id":"cebpf4jnsgd1na2vs0mg"},{"bike_id":"4ec7ff84-b3bf-49a5-9071-937cdc3737f8","system_id":"levelo_inurba_marseille","lat":43.2848,"lon":5.38432,"is_reserved":false,"is_disabled":false,"rental_uris":{"android":"levelo://app?vid=4ec7ff84-b3bf-49a5-9071-937cdc3737f8","ios":"levelo://app?vid=4ec7ff84-b3bf-49a5-9071-937cdc3737f8"},"vehicle_type_id":"4","last_reported":1752430421,"current_range_meters":10800,"station_id":"ce4bh512rcd13ifvqe3g","pricing_plan_id":"cebpf4jnsgd1na2vs0mg"},{"bike_id":"7a888645-4b0c-4379-98d8-380a5347b74c","system_id":"levelo_inurba_marseille","lat":43.27387,"lon":5.36227,"is_reserved":false,"is_disabled":true,"rental_uris":{"android":"levelo://app?vid=7a888645-4b0c-4379-98d8-380a5347b74c","ios":"levelo://app?vid=7a888645-4b0c-4379-98d8-380a5347b74c"},"vehicle_type_id":"4","last_reported":1752430421,"current_range_meters":11200,"station_id":"ce4bhbh2rcd13ifvqeo0","pricing_plan_id":"cebpf4jnsgd1na2vs0mg"},{"bike_id":"9ced7cef-3bc5-448c-839e-b886f2597d41","system_id":"levelo_inurba_marseille","lat":43.28998,"lon":5.3561,"is_reserved":false,"is_disabled":false,"rental_uris":{"android":"levelo://app?vid=9ced7cef-3bc5-448c-839e-b886f2597d41","ios":"levelo://app?vid=9ced7cef-3bc5-448c-839e-b886f2597d41"},"vehicle_type_id":"4","last_reported":1752430421,"current_range_meters":11200,"station_id":"ce4bhb92rcd13ifvqen0","pricing_plan_id":"cebpf4jnsgd1na2vs0mg"},{"bike_id":"446f2805-806a-48cd-a87d-d09378866819","system_id":"levelo_inurba_marseille","lat":43.27943,"lon":5.4105,"is_reserved":false,"is_disabled":false,"rental_uris":{"android":"levelo://app?vid=446f2805-806a-48cd-a87d-d09378866819","ios":"levelo://app?vid=446f2805-806a-48cd-a87d-d09378866819"},"vehicle_type_id":"4","last_reported":1752430421,"current_range_meters":11200,"station_id":"ce4bhnp2rcd13ifvqh0g","pricing_plan_id":"cebpf4jnsgd1na2vs0mg"},{"bike_id":"b2c7a224-3f21-4650-8aa8-3807e875ae76","system_id":"levelo_inurba_marseille","lat":43.28922,"lon":5.38384,"is_reserved":false,"is_disabled":false,"rental_uris":{"android":"levelo://app?vid=b2c7a224-3f21-4650-8aa8-3807e875ae76","ios":"levelo://app?vid=b2c7a224-3f21-4650-8aa8-3807e875ae76"},"vehicle_type_id":"4","last_reported":1752430421,"current_range_meters":11200,"station_id":"ce4bh612rcd13ifvqe6g","pricing_plan_id":"cebpf4jnsgd1na2vs0mg"},{"bike_id":"76f1a9c9-1999-436f-bae5-740b4195bf05","system_id":"levelo_inurba_marseille","lat":43.29276,"lon":5.38422,"is_reserved":false,"is_disabled":false,"rental_uris":{"android":"levelo://app?vid=76f1a9c9-1999-436f-bae5-740b4195bf05","ios":"levelo://app?vid=76f1a9c9-1999-436f-bae5-740b4195bf05"},"vehicle_type_id":"4","last_reported":1752430421,"current_range_meters":11200,"station_id":"ce4bh692rcd13ifvqea0","pricing_plan_id":"cebpf4jnsgd1na2vs0mg"},{"bike_id":"17f39723-34d0-447b-865d-7d0a878512a8","system_id":"levelo_inurba_marseille","lat":43.31271,"lon":5.40166,"is_reserved":false,"is_disabled":false,"rental_uris":{"android":"levelo://app?vid=17f39723-34d0-447b-865d-7d0a878512a8","ios":"levelo://app?vid=17f39723-34d0-447b-865d-7d0a878512a8"},"vehicle_type_id":"4","last_reported":1752430421,"current_range_meters":11200,"station_id":"ce4bh092rcd13ifvqd30","pricing_plan_id":"cebpf4jnsgd1na2vs0mg"},{"bike_id":"8b37f03f-f226-4bbc-8648-b109da7ba145","system_id":"levelo_inurba_marseille","lat":43.30536,"lon":5.366999,"is_reserved":false,"is_disabled":false,"rental_uris":{"android":"levelo://app?vid=8b37f03f-f226-4bbc-8648-b109da7ba145","ios":"levelo://app?vid=8b37f03f-f226-4bbc-8648-b109da7ba145"},"vehicle_type_id":"4","last_reported":1752430421,"current_range_meters":11600,"station_id":"","pricing_plan_id":"cebpf4jnsgd1na2vs0mg"},{"bike_id":"f23760ff-ab61-4853-aa67-28aac93822c1","system_id":"levelo_inurba_marseille","lat":43.337444,"lon":5.374475,"is_reserved":false,"is_disabled":false,"rental_uris":{"android":"levelo://app?vid=f23760ff-ab61-4853-aa67-28aac93822c1","ios":"levelo://app?vid=f23760ff-ab61-4853-aa67-28aac93822c1"},"vehicle_type_id":"4","last_reported":1752430421,"current_range_meters":11600,"station_id":"","pricing_plan_id":"cebpf4jnsgd1na2vs0mg"},{"bike_id":"6d3f299a-d341-49bc-a1f9-7534528d9b67","system_id":"levelo_inurba_marseille","lat":43.23205,"lon":5.35539,"is_reserved":false,"is_disabled":false,"rental_uris":{"android":"levelo://app?vid=6d3f299a-d341-49bc-a1f9-7534528d9b67","ios":"levelo://app?vid=6d3f299a-d341-49bc-a1f9-7534528d9b67"},"vehicle_type_id":"4","last_reported":1752430421,"current_range_meters":12000,"station_id":"ce4bhu92rcd13ifvqi70","pricing_plan_id":"cebpf4jnsgd1na2vs0mg"},{"bike_id":"15b4ffaf-419c-4946-9840-e430e0d24dab","system_id":"levelo_inurba_marseille","lat":43.2763,"lon":5.36077,"is_reserved":false,"is_disabled":false,"rental_uris":{"android":"levelo://app?vid=15b4ffaf-419c-4946-9840-e430e0d24dab","ios":"levelo://app?vid=15b4ffaf-419c-4946-9840-e430e0d24dab"},"vehicle_type_id":"4","last_reported":1752430421,"current_range_meters":12000,"station_id":"ce4bgj92rcd13ifvqbe0","pricing_plan_id":"cebpf4jnsgd1na2vs0mg"},{"bike_id":"f70d4eb7-0483-4b22-b4af-6857c0805839","system_id":"levelo_inurba_marseille","lat":43.29904,"lon":5.38107,"is_reserved":false,"is_disabled":true,"rental_uris":{"android":"levelo://app?vid=f70d4eb7-0483-4b22-b4af-6857c0805839","ios":"levelo://app?vid=f70d4eb7-0483-4b22-b4af-6857c0805839"},"vehicle_type_id":"4","last_reported":1752430421,"current_range_meters":12000,"station_id":"ce4bgj12rcd13ifvqbc0","pricing_plan_id":"cebpf4jnsgd1na2vs0mg"},{"bike_id":"c700f998-7cbc-457a-a56a-699ac5e6fc9a","system_id":"levelo_inurba_marseille","lat":43.25121,"lon":5.4033,"is_reserved":false,"is_disabled":false,"rental_uris":{"android":"levelo://app?vid=c700f998-7cbc-457a-a56a-699ac5e6fc9a","ios":"levelo://app?vid=c700f998-7cbc-457a-a56a-699ac5e6fc9a"},"vehicle_type_id":"4","last_reported":1752430421,"current_range_meters":12400,"station_id":"ce4bhlh2rcd13ifvqgig","pricing_plan_id":"cebpf4jnsgd1na2vs0mg"},{"bike_id":"5735e65d-6b28-42b7-8508-14cb644baf47","system_id":"levelo_inurba_marseille","lat":43.29909,"lon":5.38154,"is_reserved":false,"is_disabled":false,"rental_uris":{"android":"levelo://app?vid=5735e65d-6b28-42b7-8508-14cb644baf47","ios":"levelo://app?vid=5735e65d-6b28-42b7-8508-14cb644baf47"},"vehicle_type_id":"4","last_reported":1752430421,"current_range_meters":12400,"station_id":"ce4bgj12rcd13ifvqbc0","pricing_plan_id":"cebpf4jnsgd1na2vs0mg"},{"bike_id":"e2ce6e8a-ef9f-4211-8776-042780e4931d","system_id":"levelo_inurba_marseille","lat":43.28454,"lon":5.34993,"is_reserved":false,"is_disabled":true,"rental_uris":{"android":"levelo://app?vid=e2ce6e8a-ef9f-4211-8776-042780e4931d","ios":"levelo://app?vid=e2ce6e8a-ef9f-4211-8776-042780e4931d"},"vehicle_type_id":"4","last_reported":1752430421,"current_range_meters":12800,"station_id":"ce4bhbh2rcd13ifvqepg","pricing_plan_id":"cebpf4jnsgd1na2vs0mg"},{"bike_id":"59bd944e-8158-4d03-98d6-e97af0707782","system_id":"levelo_inurba_marseille","lat":43.21204,"lon":5.35049,"is_reserved":false,"is_disabled":false,"rental_uris":{"android":"levelo://app?vid=59bd944e-8158-4d03-98d6-e97af0707782","ios":"levelo://app?vid=59bd944e-8158-4d03-98d6-e97af0707782"},"vehicle_type_id":"4","last_reported":1752430421,"current_range_meters":12800,"station_id":"st_cvj6sg6p6f1abm77japg","pricing_plan_id":"cebpf4jnsgd1na2vs0mg"},{"bike_id":"b191c6a6-bd01-440f-b9f3-d77399e9140a","system_id":"levelo_inurba_marseille","lat":43.31892,"lon":5.40739,"is_reserved":false,"is_disabled":false,"rental_uris":{"android":"levelo://app?vid=b191c6a6-bd01-440f-b9f3-d77399e9140a","ios":"levelo://app?vid=b191c6a6-bd01-440f-b9f3-d77399e9140a"},"vehicle_type_id":"4","last_reported":1752430421,"current_range_meters":12400,"station_id":"ce4bhq12rcd13ifvqhig","pricing_plan_id":"cebpf4jnsgd1na2vs0mg"},{"bike_id":"6f06c981-4e8f-4fb1-b3ea-e465da24c06f","system_id":"levelo_inurba_marseille","lat":43.249998,"lon":5.389284,"is_reserved":false,"is_disabled":false,"rental_uris":{"android":"levelo://app?vid=6f06c981-4e8f-4fb1-b3ea-e465da24c06f","ios":"levelo://app?vid=6f06c981-4e8f-4fb1-b3ea-e465da24c06f"},"vehicle_type_id":"4","last_reported":1752430421,"current_range_meters":13600,"station_id":"ce4bhgp2rcd13ifvqfd0","pricing_plan_id":"cebpf4jnsgd1na2vs0mg"},{"bike_id":"601412b0-6528-47af-965e-1711a93589ae","system_id":"levelo_inurba_marseille","lat":43.29549,"lon":5.42287,"is_reserved":false,"is_disabled":false,"rental_uris":{"android":"levelo://app?vid=601412b0-6528-47af-965e-1711a93589ae","ios":"levelo://app?vid=601412b0-6528-47af-965e-1711a93589ae"},"vehicle_type_id":"4","last_reported":1752430421,"current_range_meters":13600,"station_id":"ce4bhph2rcd13ifvqhdg","pricing_plan_id":"cebpf4jnsgd1na2vs0mg"},{"bike_id":"1366d683-1ebd-44a1-9e66-5d68d4b85ee8","system_id":"levelo_inurba_marseille","lat":43.25712,"lon":5.41119,"is_reserved":false,"is_disabled":false,"rental_uris":{"android":"levelo://app?vid=1366d683-1ebd-44a1-9e66-5d68d4b85ee8","ios":"levelo://app?vid=1366d683-1ebd-44a1-9e66-5d68d4b85ee8"},"vehicle_type_id":"4","last_reported":1752430421,"current_range_meters":13600,"station_id":"ce4bhkp2rcd13ifvqgd0","pricing_plan_id":"cebpf4jnsgd1na2vs0mg"},{"bike_id":"c09ade1e-27fe-4a7d-a0c4-7cfcf9b9fac8","system_id":"levelo_inurba_marseille","lat":43.29302,"lon":5.37171,"is_reserved":false,"is_disabled":false,"rental_uris":{"android":"levelo://app?vid=c09ade1e-27fe-4a7d-a0c4-7cfcf9b9fac8","ios":"levelo://app?vid=c09ade1e-27fe-4a7d-a0c4-7cfcf9b9fac8"},"vehicle_type_id":"4","last_reported":1752430421,"current_range_meters":13600,"station_id":"ce4bgh92rcd13ifvqb40","pricing_plan_id":"cebpf4jnsgd1na2vs0mg"},{"bike_id":"a44f68aa-b920-4eb6-845e-df1183944a6b","system_id":"levelo_inurba_marseille","lat":43.28602,"lon":5.35048,"is_reserved":false,"is_disabled":true,"rental_uris":{"android":"levelo://app?vid=a44f68aa-b920-4eb6-845e-df1183944a6b","ios":"levelo://app?vid=a44f68aa-b920-4eb6-845e-df1183944a6b"},"vehicle_type_id":"4","last_reported":1752430421,"current_range_meters":13600,"station_id":"","pricing_plan_id":"cebpf4jnsgd1na2vs0mg"},{"bike_id":"7048b274-bb73-4f78-bd84-2dffe4927289","system_id":"levelo_inurba_marseille","lat":43.29792,"lon":5.39351,"is_reserved":false,"is_disabled":true,"rental_uris":{"android":"levelo://app?vid=7048b274-bb73-4f78-bd84-2dffe4927289","ios":"levelo://app?vid=7048b274-bb73-4f78-bd84-2dffe4927289"},"vehicle_type_id":"4","last_reported":1752430421,"current_range_meters":13600,"station_id":"chh1huq6cuj3fo74tm60","pricing_plan_id":"cebpf4jnsgd1na2vs0mg"},{"bike_id":"9ad0ecd9-cfdd-4a62-a46e-fbedad6593d8","system_id":"levelo_inurba_marseille","lat":43.262268,"lon":5.404511,"is_reserved":false,"is_disabled":false,"rental_uris":{"android":"levelo://app?vid=9ad0ecd9-cfdd-4a62-a46e-fbedad6593d8","ios":"levelo://app?vid=9ad0ecd9-cfdd-4a62-a46e-fbedad6593d8"},"vehicle_type_id":"4","last_reported":1752430421,"current_range_meters":13600,"station_id":"ce4bhmh2rcd13ifvqgmg","pricing_plan_id":"cebpf4jnsgd1na2vs0mg"},{"bike_id":"90d18b6e-d67b-4b9f-86ae-5ab20e5bdfd0","system_id":"levelo_inurba_marseille","lat":43.29201,"lon":5.35794,"is_reserved":false,"is_disabled":false,"rental_uris":{"android":"levelo://app?vid=90d18b6e-d67b-4b9f-86ae-5ab20e5bdfd0","ios":"levelo://app?vid=90d18b6e-d67b-4b9f-86ae-5ab20e5bdfd0"},"vehicle_type_id":"4","last_reported":1752430421,"current_range_meters":13600,"station_id":"ce4bhb12rcd13ifvqel0","pricing_plan_id":"cebpf4jnsgd1na2vs0mg"},{"bike_id":"3e1d7310-a8ff-41e8-9683-8361f31b84d6","system_id":"levelo_inurba_marseille","lat":43.27319,"lon":5.39108,"is_reserved":false,"is_disabled":false,"rental_uris":{"android":"levelo://app?vid=3e1d7310-a8ff-41e8-9683-8361f31b84d6","ios":"levelo://app?vid=3e1d7310-a8ff-41e8-9683-8361f31b84d6"},"vehicle_type_id":"4","last_reported":1752430421,"current_range_meters":12800,"station_id":"ce4bhgp2rcd13ifvqfe0","pricing_plan_id":"cebpf4jnsgd1na2vs0mg"},{"bike_id":"62fac614-47b6-4ccf-9920-6cea6ff3d419","system_id":"levelo_inurba_marseille","lat":43.230594,"lon":5.35491,"is_reserved":false,"is_disabled":true,"rental_uris":{"android":"levelo://app?vid=62fac614-47b6-4ccf-9920-6cea6ff3d419","ios":"levelo://app?vid=62fac614-47b6-4ccf-9920-6cea6ff3d419"},"vehicle_type_id":"4","last_reported":1752430421,"current_range_meters":13600,"station_id":"cpo3532slgdg3j2ikp40","pricing_plan_id":"cebpf4jnsgd1na2vs0mg"},{"bike_id":"03a871fc-2ac6-46eb-935c-1a4e567c4df3","system_id":"levelo_inurba_marseille","lat":43.31263,"lon":5.40165,"is_reserved":false,"is_disabled":false,"rental_uris":{"android":"levelo://app?vid=03a871fc-2ac6-46eb-935c-1a4e567c4df3","ios":"levelo://app?vid=03a871fc-2ac6-46eb-935c-1a4e567c4df3"},"vehicle_type_id":"4","last_reported":1752430421,"current_range_meters":13600,"station_id":"ce4bh092rcd13ifvqd30","pricing_plan_id":"cebpf4jnsgd1na2vs0mg"},{"bike_id":"b43b2136-b460-4889-aedd-7488171725a4","system_id":"levelo_inurba_marseille","lat":43.29533,"lon":5.38542,"is_reserved":false,"is_disabled":false,"rental_uris":{"android":"levelo://app?vid=b43b2136-b460-4889-aedd-7488171725a4","ios":"levelo://app?vid=b43b2136-b460-4889-aedd-7488171725a4"},"vehicle_type_id":"4","last_reported":1752430421,"current_range_meters":14000,"station_id":"ce4bgih2rcd13ifvqba0","pricing_plan_id":"cebpf4jnsgd1na2vs0mg"},{"bike_id":"bcbf738f-1bc3-4516-85da-8f9c93fbde21","system_id":"levelo_inurba_marseille","lat":43.29607,"lon":5.38082,"is_reserved":false,"is_disabled":false,"rental_uris":{"android":"levelo://app?vid=bcbf738f-1bc3-4516-85da-8f9c93fbde21","ios":"levelo://app?vid=bcbf738f-1bc3-4516-85da-8f9c93fbde21"},"vehicle_type_id":"4","last_reported":1752430421,"current_range_meters":14000,"station_id":"ce4bgl12rcd13ifvqbo0","pricing_plan_id":"cebpf4jnsgd1na2vs0mg"},{"bike_id":"010ba6e4-d772-4201-b118-5a9e063169f4","system_id":"levelo_inurba_marseille","lat":43.27219,"lon":5.39184,"is_reserved":false,"is_disabled":false,"rental_uris":{"android":"levelo://app?vid=010ba6e4-d772-4201-b118-5a9e063169f4","ios":"levelo://app?vid=010ba6e4-d772-4201-b118-5a9e063169f4"},"vehicle_type_id":"4","last_reported":1752430421,"current_range_meters":14000,"station_id":"ce4bhhp2rcd13ifvqfm0","pricing_plan_id":"cebpf4jnsgd1na2vs0mg"},{"bike_id":"ba38233d-2a83-42cc-97f9-090bf4b65e75","system_id":"levelo_inurba_marseille","lat":43.30212,"lon":5.39472,"is_reserved":false,"is_disabled":false,"rental_uris":{"android":"levelo://app?vid=ba38233d-2a83-42cc-97f9-090bf4b65e75","ios":"levelo://app?vid=ba38233d-2a83-42cc-97f9-090bf4b65e75"},"vehicle_type_id":"4","last_reported":1752430421,"current_range_meters":14000,"station_id":"ce4bh0p2rcd13ifvqd70","pricing_plan_id":"cebpf4jnsgd1na2vs0mg"},{"bike_id":"947f6994-5216-4191-afd1-9c7412197203","system_id":"levelo_inurba_marseille","lat":43.28412,"lon":5.37502,"is_reserved":false,"is_disabled":false,"rental_uris":{"android":"levelo://app?vid=947f6994-5216-4191-afd1-9c7412197203","ios":"levelo://app?vid=947f6994-5216-4191-afd1-9c7412197203"},"vehicle_type_id":"4","last_reported":1752430421,"current_range_meters":14400,"station_id":"ce4bh412rcd13ifvqds0","pricing_plan_id":"cebpf4jnsgd1na2vs0mg"},{"bike_id":"0e483935-2d83-4006-b98d-47da1e59091a","system_id":"levelo_inurba_marseille","lat":43.21201,"lon":5.35046,"is_reserved":false,"is_disabled":false,"rental_uris":{"android":"levelo://app?vid=0e483935-2d83-4006-b98d-47da1e59091a","ios":"levelo://app?vid=0e483935-2d83-4006-b98d-47da1e59091a"},"vehicle_type_id":"4","last_reported":1752430421,"current_range_meters":14400,"station_id":"st_cvj6sg6p6f1abm77japg","pricing_plan_id":"cebpf4jnsgd1na2vs0mg"},{"bike_id":"3d3ea070-b919-4de5-9526-ad603ea753ff","system_id":"levelo_inurba_marseille","lat":43.284061,"lon":5.349846,"is_reserved":false,"is_disabled":false,"rental_uris":{"android":"levelo://app?vid=3d3ea070-b919-4de5-9526-ad603ea753ff","ios":"levelo://app?vid=3d3ea070-b919-4de5-9526-ad603ea753ff"},"vehicle_type_id":"4","last_reported":1752430421,"current_range_meters":14800,"station_id":"ce4bhbh2rcd13ifvqepg","pricing_plan_id":"cebpf4jnsgd1na2vs0mg"},{"bike_id":"b30f557f-86ee-402f-8069-a6c63ab6c1c2","system_id":"levelo_inurba_marseille","lat":43.267147,"lon":5.382995,"is_reserved":false,"is_disabled":false,"rental_uris":{"android":"levelo://app?vid=b30f557f-86ee-402f-8069-a6c63ab6c1c2","ios":"levelo://app?vid=b30f557f-86ee-402f-8069-a6c63ab6c1c2"},"vehicle_type_id":"4","last_reported":1752430421,"current_range_meters":14800,"station_id":"ce4bh512rcd13ifvqe3g","pricing_plan_id":"cebpf4jnsgd1na2vs0mg"},{"bike_id":"9a46b9ab-a60b-45fc-88a3-caad63ae5b94","system_id":"levelo_inurba_marseille","lat":43.33768,"lon":5.37456,"is_reserved":false,"is_disabled":true,"rental_uris":{"android":"levelo://app?vid=9a46b9ab-a60b-45fc-88a3-caad63ae5b94","ios":"levelo://app?vid=9a46b9ab-a60b-45fc-88a3-caad63ae5b94"},"vehicle_type_id":"4","last_reported":1752430421,"current_range_meters":14800,"station_id":"","pricing_plan_id":"cebpf4jnsgd1na2vs0mg"},{"bike_id":"a28e3f46-8ff6-4013-b6f4-b5843c95dc41","system_id":"levelo_inurba_marseille","lat":43.30134,"lon":5.3878,"is_reserved":false,"is_disabled":false,"rental_uris":{"android":"levelo://app?vid=a28e3f46-8ff6-4013-b6f4-b5843c95dc41","ios":"levelo://app?vid=a28e3f46-8ff6-4013-b6f4-b5843c95dc41"},"vehicle_type_id":"4","last_reported":1752430421,"current_range_meters":15200,"station_id":"ce4bghh2rcd13ifvqb60","pricing_plan_id":"cebpf4jnsgd1na2vs0mg"},{"bike_id":"b6b4025c-2b12-4277-8fa6-0fe4de6c9b5e","system_id":"levelo_inurba_marseille","lat":43.27177,"lon":5.40999,"is_reserved":false,"is_disabled":false,"rental_uris":{"android":"levelo://app?vid=b6b4025c-2b12-4277-8fa6-0fe4de6c9b5e","ios":"levelo://app?vid=b6b4025c-2b12-4277-8fa6-0fe4de6c9b5e"},"vehicle_type_id":"4","last_reported":1752430421,"current_range_meters":15200,"station_id":"ce4bhl12rcd13ifvqgf0","pricing_plan_id":"cebpf4jnsgd1na2vs0mg"},{"bike_id":"1a469edf-5352-481f-91e3-cfaef6ee1547","system_id":"levelo_inurba_marseille","lat":43.21222,"lon":5.35058,"is_reserved":false,"is_disabled":false,"rental_uris":{"android":"levelo://app?vid=1a469edf-5352-481f-91e3-cfaef6ee1547","ios":"levelo://app?vid=1a469edf-5352-481f-91e3-cfaef6ee1547"},"vehicle_type_id":"4","last_reported":1752430421,"current_range_meters":15200,"station_id":"","pricing_plan_id":"cebpf4jnsgd1na2vs0mg"},{"bike_id":"a00b7c62-e01b-451c-95ee-14401cde6d9c","system_id":"levelo_inurba_marseille","lat":43.30928,"lon":5.40147,"is_reserved":false,"is_disabled":false,"rental_uris":{"android":"levelo://app?vid=a00b7c62-e01b-451c-95ee-14401cde6d9c","ios":"levelo://app?vid=a00b7c62-e01b-451c-95ee-14401cde6d9c"},"vehicle_type_id":"4","last_reported":1752430421,"current_range_meters":15200,"station_id":"ce4bgvp2rcd13ifvqct0","pricing_plan_id":"cebpf4jnsgd1na2vs0mg"},{"bike_id":"63eba6df-50ae-42ea-af5a-e362c0efb0d0","system_id":"levelo_inurba_marseille","lat":43.320558,"lon":5.415313,"is_reserved":false,"is_disabled":false,"rental_uris":{"android":"levelo://app?vid=63eba6df-50ae-42ea-af5a-e362c0efb0d0","ios":"levelo://app?vid=63eba6df-50ae-42ea-af5a-e362c0efb0d0"},"vehicle_type_id":"4","last_reported":1752430421,"current_range_meters":15200,"station_id":"ce4bhq92rcd13ifvqhkg","pricing_plan_id":"cebpf4jnsgd1na2vs0mg"},{"bike_id":"b6cb44fa-7804-47bb-bf59-8f820008d6df","system_id":"levelo_inurba_marseille","lat":43.292655,"lon":5.407933,"is_reserved":false,"is_disabled":false,"rental_uris":{"android":"levelo://app?vid=b6cb44fa-7804-47bb-bf59-8f820008d6df","ios":"levelo://app?vid=b6cb44fa-7804-47bb-bf59-8f820008d6df"},"vehicle_type_id":"4","last_reported":1752430421,"current_range_meters":15200,"station_id":"ce4bh192rcd13ifvqdc0","pricing_plan_id":"cebpf4jnsgd1na2vs0mg"},{"bike_id":"e723e134-ef04-464d-8865-0acdcaaf20c3","system_id":"levelo_inurba_marseille","lat":43.29274,"lon":5.36841,"is_reserved":false,"is_disabled":false,"rental_uris":{"android":"levelo://app?vid=e723e134-ef04-464d-8865-0acdcaaf20c3","ios":"levelo://app?vid=e723e134-ef04-464d-8865-0acdcaaf20c3"},"vehicle_type_id":"4","last_reported":1752430421,"current_range_meters":16000,"station_id":"","pricing_plan_id":"cebpf4jnsgd1na2vs0mg"},{"bike_id":"bd4a3348-813c-4744-b0f0-e91d2bad37f3","system_id":"levelo_inurba_marseille","lat":43.26499,"lon":5.39537,"is_reserved":false,"is_disabled":false,"rental_uris":{"android":"levelo://app?vid=bd4a3348-813c-4744-b0f0-e91d2bad37f3","ios":"levelo://app?vid=bd4a3348-813c-4744-b0f0-e91d2bad37f3"},"vehicle_type_id":"4","last_reported":1752430421,"current_range_meters":16000,"station_id":"ce4bhi12rcd13ifvqfq0","pricing_plan_id":"cebpf4jnsgd1na2vs0mg"},{"bike_id":"79ac9d5c-87ca-42a3-a25e-34606432c125","system_id":"levelo_inurba_marseille","lat":43.21187,"lon":5.35069,"is_reserved":false,"is_disabled":false,"rental_uris":{"android":"levelo://app?vid=79ac9d5c-87ca-42a3-a25e-34606432c125","ios":"levelo://app?vid=79ac9d5c-87ca-42a3-a25e-34606432c125"},"vehicle_type_id":"4","last_reported":1752430421,"current_range_meters":16000,"station_id":"st_cvj6sg6p6f1abm77japg","pricing_plan_id":"cebpf4jnsgd1na2vs0mg"},{"bike_id":"07f619f1-d02f-4048-8e0f-2341b2806242","system_id":"levelo_inurba_marseille","lat":43.29535,"lon":5.38537,"is_reserved":false,"is_disabled":false,"rental_uris":{"android":"levelo://app?vid=07f619f1-d02f-4048-8e0f-2341b2806242","ios":"levelo://app?vid=07f619f1-d02f-4048-8e0f-2341b2806242"},"vehicle_type_id":"4","last_reported":1752430421,"current_range_meters":16000,"station_id":"ce4bgih2rcd13ifvqba0","pricing_plan_id":"cebpf4jnsgd1na2vs0mg"},{"bike_id":"1700fcd6-30ad-4b74-a158-50e5dcb60b9b","system_id":"levelo_inurba_marseille","lat":43.28951,"lon":5.3664,"is_reserved":false,"is_disabled":true,"rental_uris":{"android":"levelo://app?vid=1700fcd6-30ad-4b74-a158-50e5dcb60b9b","ios":"levelo://app?vid=1700fcd6-30ad-4b74-a158-50e5dcb60b9b"},"vehicle_type_id":"4","last_reported":1752430421,"current_range_meters":16000,"station_id":"ce4bhap2rcd13ifvqek0","pricing_plan_id":"cebpf4jnsgd1na2vs0mg"},{"bike_id":"c13dad9f-0b37-49fd-8d2b-58954c93fd73","system_id":"levelo_inurba_marseille","lat":43.27208,"lon":5.39182,"is_reserved":false,"is_disabled":false,"rental_uris":{"android":"levelo://app?vid=c13dad9f-0b37-49fd-8d2b-58954c93fd73","ios":"levelo://app?vid=c13dad9f-0b37-49fd-8d2b-58954c93fd73"},"vehicle_type_id":"4","last_reported":1752430421,"current_range_meters":16000,"station_id":"ce4bhhp2rcd13ifvqfm0","pricing_plan_id":"cebpf4jnsgd1na2vs0mg"},{"bike_id":"3fea8079-7225-4e64-a43d-d85234502029","system_id":"levelo_inurba_marseille","lat":43.27918,"lon":5.39578,"is_reserved":false,"is_disabled":false,"rental_uris":{"android":"levelo://app?vid=3fea8079-7225-4e64-a43d-d85234502029","ios":"levelo://app?vid=3fea8079-7225-4e64-a43d-d85234502029"},"vehicle_type_id":"4","last_reported":1752430421,"current_range_meters":16000,"station_id":"ce4bhf92rcd13ifvqf40","pricing_plan_id":"cebpf4jnsgd1na2vs0mg"},{"bike_id":"bfa12c31-1a7d-4ff9-9e9a-e56395392d12","system_id":"levelo_inurba_marseille","lat":43.23202,"lon":5.35546,"is_reserved":false,"is_disabled":true,"rental_uris":{"android":"levelo://app?vid=bfa12c31-1a7d-4ff9-9e9a-e56395392d12","ios":"levelo://app?vid=bfa12c31-1a7d-4ff9-9e9a-e56395392d12"},"vehicle_type_id":"4","last_reported":1752430421,"current_range_meters":16000,"station_id":"ce4bhu92rcd13ifvqi70","pricing_plan_id":"cebpf4jnsgd1na2vs0mg"},{"bike_id":"79724c7a-8951-4858-8e03-5dd8592df824","system_id":"levelo_inurba_marseille","lat":43.303108,"lon":5.36905,"is_reserved":false,"is_disabled":true,"rental_uris":{"android":"levelo://app?vid=79724c7a-8951-4858-8e03-5dd8592df824","ios":"levelo://app?vid=79724c7a-8951-4858-8e03-5dd8592df824"},"vehicle_type_id":"4","last_reported":1752430421,"current_range_meters":16400,"station_id":"","pricing_plan_id":"cebpf4jnsgd1na2vs0mg"},{"bike_id":"7b60e2b3-fe60-4caf-8d3e-4c917054d448","system_id":"levelo_inurba_marseille","lat":43.28436,"lon":5.34975,"is_reserved":false,"is_disabled":true,"rental_uris":{"android":"levelo://app?vid=7b60e2b3-fe60-4caf-8d3e-4c917054d448","ios":"levelo://app?vid=7b60e2b3-fe60-4caf-8d3e-4c917054d448"},"vehicle_type_id":"4","last_reported":1752430421,"current_range_meters":16400,"station_id":"ce4bhbh2rcd13ifvqepg","pricing_plan_id":"cebpf4jnsgd1na2vs0mg"},{"bike_id":"bbc4bb3b-9a5b-4e80-814f-6f774b422422","system_id":"levelo_inurba_marseille","lat":43.27392,"lon":5.36248,"is_reserved":false,"is_disabled":false,"rental_uris":{"android":"levelo://app?vid=bbc4bb3b-9a5b-4e80-814f-6f774b422422","ios":"levelo://app?vid=bbc4bb3b-9a5b-4e80-814f-6f774b422422"},"vehicle_type_id":"4","last_reported":1752430421,"current_range_meters":16400,"station_id":"ce4bhbh2rcd13ifvqeo0","pricing_plan_id":"cebpf4jnsgd1na2vs0mg"},{"bike_id":"a7f266e1-ee65-41f8-9c40-a9cb116db8cd","system_id":"levelo_inurba_marseille","lat":43.2572,"lon":5.41113,"is_reserved":false,"is_disabled":false,"rental_uris":{"android":"levelo://app?vid=a7f266e1-ee65-41f8-9c40-a9cb116db8cd","ios":"levelo://app?vid=a7f266e1-ee65-41f8-9c40-a9cb116db8cd"},"vehicle_type_id":"4","last_reported":1752430421,"current_range_meters":16400,"station_id":"ce4bhkp2rcd13ifvqgd0","pricing_plan_id":"cebpf4jnsgd1na2vs0mg"},{"bike_id":"b053f929-7efb-49cd-9959-74ef096980bb","system_id":"levelo_inurba_marseille","lat":43.33784,"lon":5.37471,"is_reserved":false,"is_disabled":true,"rental_uris":{"android":"levelo://app?vid=b053f929-7efb-49cd-9959-74ef096980bb","ios":"levelo://app?vid=b053f929-7efb-49cd-9959-74ef096980bb"},"vehicle_type_id":"4","last_reported":1752430421,"current_range_meters":16400,"station_id":"","pricing_plan_id":"cebpf4jnsgd1na2vs0mg"},{"bike_id":"58375fde-ca97-4dab-be52-59caf98323d3","system_id":"levelo_inurba_marseille","lat":43.26563,"lon":5.37243,"is_reserved":false,"is_disabled":true,"rental_uris":{"android":"levelo://app?vid=58375fde-ca97-4dab-be52-59caf98323d3","ios":"levelo://app?vid=58375fde-ca97-4dab-be52-59caf98323d3"},"vehicle_type_id":"4","last_reported":1752430421,"current_range_meters":16400,"station_id":"ce4bhg12rcd13ifvqf70","pricing_plan_id":"cebpf4jnsgd1na2vs0mg"},{"bike_id":"2ee4bceb-5e6b-4926-882e-97629c7a5539","system_id":"levelo_inurba_marseille","lat":43.29785,"lon":5.38109,"is_reserved":false,"is_disabled":false,"rental_uris":{"android":"levelo://app?vid=2ee4bceb-5e6b-4926-882e-97629c7a5539","ios":"levelo://app?vid=2ee4bceb-5e6b-4926-882e-97629c7a5539"},"vehicle_type_id":"4","last_reported":1752430421,"current_range_meters":16400,"station_id":"ce4bgip2rcd13ifvqbb0","pricing_plan_id":"cebpf4jnsgd1na2vs0mg"},{"bike_id":"6c4d305e-ec05-4d07-86c5-4a1b85f4689b","system_id":"levelo_inurba_marseille","lat":43.30922,"lon":5.40148,"is_reserved":false,"is_disabled":false,"rental_uris":{"android":"levelo://app?vid=6c4d305e-ec05-4d07-86c5-4a1b85f4689b","ios":"levelo://app?vid=6c4d305e-ec05-4d07-86c5-4a1b85f4689b"},"vehicle_type_id":"4","last_reported":1752430421,"current_range_meters":16400,"station_id":"ce4bgvp2rcd13ifvqct0","pricing_plan_id":"cebpf4jnsgd1na2vs0mg"},{"bike_id":"5d23c092-bbbc-4bad-a720-a681c91d001d","system_id":"levelo_inurba_marseille","lat":43.29199,"lon":5.3931,"is_reserved":false,"is_disabled":false,"rental_uris":{"android":"levelo://app?vid=5d23c092-bbbc-4bad-a720-a681c91d001d","ios":"levelo://app?vid=5d23c092-bbbc-4bad-a720-a681c91d001d"},"vehicle_type_id":"4","last_reported":1752430421,"current_range_meters":16400,"station_id":"ce4bh192rcd13ifvqdd0","pricing_plan_id":"cebpf4jnsgd1na2vs0mg"},{"bike_id":"f2183f19-3763-4a25-8229-a828f773ef0d","system_id":"levelo_inurba_marseille","lat":43.231921,"lon":5.355546,"is_reserved":false,"is_disabled":false,"rental_uris":{"android":"levelo://app?vid=f2183f19-3763-4a25-8229-a828f773ef0d","ios":"levelo://app?vid=f2183f19-3763-4a25-8229-a828f773ef0d"},"vehicle_type_id":"4","last_reported":1752430421,"current_range_meters":16400,"station_id":"ce4bhu92rcd13ifvqi70","pricing_plan_id":"cebpf4jnsgd1na2vs0mg"},{"bike_id":"abc379cc-cdf0-4535-9bc7-623bc3224059","system_id":"levelo_inurba_marseille","lat":43.30311,"lon":5.39213,"is_reserved":false,"is_disabled":false,"rental_uris":{"android":"levelo://app?vid=abc379cc-cdf0-4535-9bc7-623bc3224059","ios":"levelo://app?vid=abc379cc-cdf0-4535-9bc7-623bc3224059"},"vehicle_type_id":"4","last_reported":1752430421,"current_range_meters":16400,"station_id":"ce4bgkh2rcd13ifvqbk0","pricing_plan_id":"cebpf4jnsgd1na2vs0mg"},{"bike_id":"a6fa9713-d2f8-451b-8103-5c717137aa40","system_id":"levelo_inurba_marseille","lat":43.26201,"lon":5.3793,"is_reserved":false,"is_disabled":false,"rental_uris":{"android":"levelo://app?vid=a6fa9713-d2f8-451b-8103-5c717137aa40","ios":"levelo://app?vid=a6fa9713-d2f8-451b-8103-5c717137aa40"},"vehicle_type_id":"4","last_reported":1752430421,"current_range_meters":16400,"station_id":"ce4bhjp2rcd13ifvqg90","pricing_plan_id":"cebpf4jnsgd1na2vs0mg"},{"bike_id":"62e04f8d-4a20-45ae-8118-d47bf351cefe","system_id":"levelo_inurba_marseille","lat":43.29707,"lon":5.36584,"is_reserved":false,"is_disabled":false,"rental_uris":{"android":"levelo://app?vid=62e04f8d-4a20-45ae-8118-d47bf351cefe","ios":"levelo://app?vid=62e04f8d-4a20-45ae-8118-d47bf351cefe"},"vehicle_type_id":"4","last_reported":1752430421,"current_range_meters":16800,"station_id":"ce4bgn12rcd13ifvqbt0","pricing_plan_id":"cebpf4jnsgd1na2vs0mg"},{"bike_id":"28f6661f-fa05-4b8f-8f5e-cb4158aac2c7","system_id":"levelo_inurba_marseille","lat":43.2943,"lon":5.37849,"is_reserved":false,"is_disabled":true,"rental_uris":{"android":"levelo://app?vid=28f6661f-fa05-4b8f-8f5e-cb4158aac2c7","ios":"levelo://app?vid=28f6661f-fa05-4b8f-8f5e-cb4158aac2c7"},"vehicle_type_id":"4","last_reported":1752430421,"current_range_meters":16800,"station_id":"ce4bgjh2rcd13ifvqbf0","pricing_plan_id":"cebpf4jnsgd1na2vs0mg"},{"bike_id":"31c710b8-59c4-4592-9629-b8ad795fae60","system_id":"levelo_inurba_marseille","lat":43.30248,"lon":5.400517,"is_reserved":false,"is_disabled":true,"rental_uris":{"android":"levelo://app?vid=31c710b8-59c4-4592-9629-b8ad795fae60","ios":"levelo://app?vid=31c710b8-59c4-4592-9629-b8ad795fae60"},"vehicle_type_id":"4","last_reported":1752430421,"current_range_meters":16800,"station_id":"","pricing_plan_id":"cebpf4jnsgd1na2vs0mg"},{"bike_id":"350baf57-19b6-4304-9c57-75c381c047e9","system_id":"levelo_inurba_marseille","lat":43.30315,"lon":5.3689,"is_reserved":false,"is_disabled":false,"rental_uris":{"android":"levelo://app?vid=350baf57-19b6-4304-9c57-75c381c047e9","ios":"levelo://app?vid=350baf57-19b6-4304-9c57-75c381c047e9"},"vehicle_type_id":"4","last_reported":1752430421,"current_range_meters":16800,"station_id":"ce4bgqh2rcd13ifvqc5g","pricing_plan_id":"cebpf4jnsgd1na2vs0mg"},{"bike_id":"f5a47db5-6fb2-46bd-a2de-efa4ad13bf60","system_id":"levelo_inurba_marseille","lat":43.21207,"lon":5.3505,"is_reserved":false,"is_disabled":false,"rental_uris":{"android":"levelo://app?vid=f5a47db5-6fb2-46bd-a2de-efa4ad13bf60","ios":"levelo://app?vid=f5a47db5-6fb2-46bd-a2de-efa4ad13bf60"},"vehicle_type_id":"4","last_reported":1752430421,"current_range_meters":16800,"station_id":"st_cvj6sg6p6f1abm77japg","pricing_plan_id":"cebpf4jnsgd1na2vs0mg"},{"bike_id":"fc8fbef1-e5f1-4c91-bc01-e5efe553b8aa","system_id":"levelo_inurba_marseille","lat":43.249911,"lon":5.389517,"is_reserved":false,"is_disabled":false,"rental_uris":{"android":"levelo://app?vid=fc8fbef1-e5f1-4c91-bc01-e5efe553b8aa","ios":"levelo://app?vid=fc8fbef1-e5f1-4c91-bc01-e5efe553b8aa"},"vehicle_type_id":"4","last_reported":1752430421,"current_range_meters":16800,"station_id":"ce4bhgp2rcd13ifvqfd0","pricing_plan_id":"cebpf4jnsgd1na2vs0mg"},{"bike_id":"a5dd5f98-e456-4bd9-aa7e-4ef6bcdcb956","system_id":"levelo_inurba_marseille","lat":43.23199,"lon":5.35548,"is_reserved":false,"is_disabled":false,"rental_uris":{"android":"levelo://app?vid=a5dd5f98-e456-4bd9-aa7e-4ef6bcdcb956","ios":"levelo://app?vid=a5dd5f98-e456-4bd9-aa7e-4ef6bcdcb956"},"vehicle_type_id":"4","last_reported":1752430421,"current_range_meters":16800,"station_id":"ce4bhu92rcd13ifvqi70","pricing_plan_id":"cebpf4jnsgd1na2vs0mg"},{"bike_id":"1aedaa42-1f03-48cc-8e38-d983e72f730b","system_id":"levelo_inurba_marseille","lat":43.27097,"lon":5.42234,"is_reserved":false,"is_disabled":false,"rental_uris":{"android":"levelo://app?vid=1aedaa42-1f03-48cc-8e38-d983e72f730b","ios":"levelo://app?vid=1aedaa42-1f03-48cc-8e38-d983e72f730b"},"vehicle_type_id":"4","last_reported":1752430421,"current_range_meters":16800,"station_id":"ce4bhk92rcd13ifvqgb0","pricing_plan_id":"cebpf4jnsgd1na2vs0mg"},{"bike_id":"ac8e7129-dea3-4c6f-b0ab-64b9f9d1fd0b","system_id":"levelo_inurba_marseille","lat":43.30888,"lon":5.396684,"is_reserved":false,"is_disabled":false,"rental_uris":{"android":"levelo://app?vid=ac8e7129-dea3-4c6f-b0ab-64b9f9d1fd0b","ios":"levelo://app?vid=ac8e7129-dea3-4c6f-b0ab-64b9f9d1fd0b"},"vehicle_type_id":"4","last_reported":1752430421,"current_range_meters":16800,"station_id":"ce4bh012rcd13ifvqcv0","pricing_plan_id":"cebpf4jnsgd1na2vs0mg"},{"bike_id":"e083971e-8892-4464-9f88-a7902557aa4d","system_id":"levelo_inurba_marseille","lat":43.23201,"lon":5.35525,"is_reserved":false,"is_disabled":false,"rental_uris":{"android":"levelo://app?vid=e083971e-8892-4464-9f88-a7902557aa4d","ios":"levelo://app?vid=e083971e-8892-4464-9f88-a7902557aa4d"},"vehicle_type_id":"4","last_reported":1752430421,"current_range_meters":16800,"station_id":"ce4bhu92rcd13ifvqi70","pricing_plan_id":"cebpf4jnsgd1na2vs0mg"},{"bike_id":"2ec427da-b403-4a7e-86be-3f48ba535d18","system_id":"levelo_inurba_marseille","lat":43.21196,"lon":5.35048,"is_reserved":false,"is_disabled":false,"rental_uris":{"android":"levelo://app?vid=2ec427da-b403-4a7e-86be-3f48ba535d18","ios":"levelo://app?vid=2ec427da-b403-4a7e-86be-3f48ba535d18"},"vehicle_type_id":"4","last_reported":1752430421,"current_range_meters":17200,"station_id":"st_cvj6sg6p6f1abm77japg","pricing_plan_id":"cebpf4jnsgd1na2vs0mg"},{"bike_id":"91e36618-f857-45af-ac89-91d909da2db3","system_id":"levelo_inurba_marseille","lat":43.294216,"lon":5.386154,"is_reserved":false,"is_disabled":true,"rental_uris":{"android":"levelo://app?vid=91e36618-f857-45af-ac89-91d909da2db3","ios":"levelo://app?vid=91e36618-f857-45af-ac89-91d909da2db3"},"vehicle_type_id":"4","last_reported":1752430421,"current_range_meters":17200,"station_id":"ce4bh2h2rcd13ifvqdh0","pricing_plan_id":"cebpf4jnsgd1na2vs0mg"},{"bike_id":"e6e8e037-464f-404b-ad6d-3aa0d9d404aa","system_id":"levelo_inurba_marseille","lat":43.25122,"lon":5.40319,"is_reserved":false,"is_disabled":false,"rental_uris":{"android":"levelo://app?vid=e6e8e037-464f-404b-ad6d-3aa0d9d404aa","ios":"levelo://app?vid=e6e8e037-464f-404b-ad6d-3aa0d9d404aa"},"vehicle_type_id":"4","last_reported":1752430421,"current_range_meters":17200,"station_id":"ce4bhlh2rcd13ifvqgig","pricing_plan_id":"cebpf4jnsgd1na2vs0mg"},{"bike_id":"0186202f-a6cc-437c-b373-407b57a8b334","system_id":"levelo_inurba_marseille","lat":43.225,"lon":5.3479,"is_reserved":false,"is_disabled":false,"rental_uris":{"android":"levelo://app?vid=0186202f-a6cc-437c-b373-407b57a8b334","ios":"levelo://app?vid=0186202f-a6cc-437c-b373-407b57a8b334"},"vehicle_type_id":"4","last_reported":1752430421,"current_range_meters":17200,"station_id":"st_cvj5dfep6f1abm77gieg","pricing_plan_id":"cebpf4jnsgd1na2vs0mg"},{"bike_id":"e91ced2f-2041-4b38-8446-0d5d97adec95","system_id":"levelo_inurba_marseille","lat":43.25582,"lon":5.38233,"is_reserved":false,"is_disabled":true,"rental_uris":{"android":"levelo://app?vid=e91ced2f-2041-4b38-8446-0d5d97adec95","ios":"levelo://app?vid=e91ced2f-2041-4b38-8446-0d5d97adec95"},"vehicle_type_id":"4","last_reported":1752430421,"current_range_meters":17200,"station_id":"ce4bhih2rcd13ifvqfs0","pricing_plan_id":"cebpf4jnsgd1na2vs0mg"},{"bike_id":"40392a3b-1d10-4dd5-b1d6-6477ad9a4c60","system_id":"levelo_inurba_marseille","lat":43.29106,"lon":5.38141,"is_reserved":false,"is_disabled":false,"rental_uris":{"android":"levelo://app?vid=40392a3b-1d10-4dd5-b1d6-6477ad9a4c60","ios":"levelo://app?vid=40392a3b-1d10-4dd5-b1d6-6477ad9a4c60"},"vehicle_type_id":"4","last_reported":1752430421,"current_range_meters":17200,"station_id":"ce4bh512rcd13ifvqe2g","pricing_plan_id":"cebpf4jnsgd1na2vs0mg"},{"bike_id":"e83439d2-4642-48a2-8689-7a894582417f","system_id":"levelo_inurba_marseille","lat":43.21227,"lon":5.35066,"is_reserved":false,"is_disabled":false,"rental_uris":{"android":"levelo://app?vid=e83439d2-4642-48a2-8689-7a894582417f","ios":"levelo://app?vid=e83439d2-4642-48a2-8689-7a894582417f"},"vehicle_type_id":"4","last_reported":1752430421,"current_range_meters":17200,"station_id":"","pricing_plan_id":"cebpf4jnsgd1na2vs0mg"},{"bike_id":"c8c4de1a-846f-4f5b-aace-9fb14bf7ad52","system_id":"levelo_inurba_marseille","lat":43.21194,"lon":5.35065,"is_reserved":false,"is_disabled":false,"rental_uris":{"android":"levelo://app?vid=c8c4de1a-846f-4f5b-aace-9fb14bf7ad52","ios":"levelo://app?vid=c8c4de1a-846f-4f5b-aace-9fb14bf7ad52"},"vehicle_type_id":"4","last_reported":1752430421,"current_range_meters":17200,"station_id":"st_cvj6sg6p6f1abm77japg","pricing_plan_id":"cebpf4jnsgd1na2vs0mg"},{"bike_id":"45583b9b-98ff-4d18-a778-0d792c89bae3","system_id":"levelo_inurba_marseille","lat":43.2858,"lon":5.39487,"is_reserved":false,"is_disabled":true,"rental_uris":{"android":"levelo://app?vid=45583b9b-98ff-4d18-a778-0d792c89bae3","ios":"levelo://app?vid=45583b9b-98ff-4d18-a778-0d792c89bae3"},"vehicle_type_id":"4","last_reported":1752430421,"current_range_meters":17600,"station_id":"ce4bh292rcd13ifvqdg0","pricing_plan_id":"cebpf4jnsgd1na2vs0mg"},{"bike_id":"b1f565f2-83c4-4631-9b4d-1d683a0261ef","system_id":"levelo_inurba_marseille","lat":43.21202,"lon":5.35087,"is_reserved":false,"is_disabled":false,"rental_uris":{"android":"levelo://app?vid=b1f565f2-83c4-4631-9b4d-1d683a0261ef","ios":"levelo://app?vid=b1f565f2-83c4-4631-9b4d-1d683a0261ef"},"vehicle_type_id":"4","last_reported":1752430421,"current_range_meters":17600,"station_id":"st_cvj6sg6p6f1abm77japg","pricing_plan_id":"cebpf4jnsgd1na2vs0mg"},{"bike_id":"406373a1-591f-45b4-988d-bb44263a4ad6","system_id":"levelo_inurba_marseille","lat":43.26672,"lon":5.38273,"is_reserved":false,"is_disabled":false,"rental_uris":{"android":"levelo://app?vid=406373a1-591f-45b4-988d-bb44263a4ad6","ios":"levelo://app?vid=406373a1-591f-45b4-988d-bb44263a4ad6"},"vehicle_type_id":"4","last_reported":1752430421,"current_range_meters":17600,"station_id":"ce4bhg92rcd13ifvqf90","pricing_plan_id":"cebpf4jnsgd1na2vs0mg"},{"bike_id":"bf67854a-fc75-4bbe-84b3-70a770694533","system_id":"levelo_inurba_marseille","lat":43.28951,"lon":5.39625,"is_reserved":false,"is_disabled":true,"rental_uris":{"android":"levelo://app?vid=bf67854a-fc75-4bbe-84b3-70a770694533","ios":"levelo://app?vid=bf67854a-fc75-4bbe-84b3-70a770694533"},"vehicle_type_id":"4","last_reported":1752430421,"current_range_meters":17600,"station_id":"ce4bh3h2rcd13ifvqdn0","pricing_plan_id":"cebpf4jnsgd1na2vs0mg"},{"bike_id":"efb30991-3e7d-49a9-b262-40c0f28df793","system_id":"levelo_inurba_marseille","lat":43.28419,"lon":5.34974,"is_reserved":false,"is_disabled":false,"rental_uris":{"android":"levelo://app?vid=efb30991-3e7d-49a9-b262-40c0f28df793","ios":"levelo://app?vid=efb30991-3e7d-49a9-b262-40c0f28df793"},"vehicle_type_id":"4","last_reported":1752430421,"current_range_meters":17600,"station_id":"ce4bhbh2rcd13ifvqepg","pricing_plan_id":"cebpf4jnsgd1na2vs0mg"},{"bike_id":"8a01e88a-8371-4085-9838-47ae11897cd3","system_id":"levelo_inurba_marseille","lat":43.28152,"lon":5.42629,"is_reserved":false,"is_disabled":true,"rental_uris":{"android":"levelo://app?vid=8a01e88a-8371-4085-9838-47ae11897cd3","ios":"levelo://app?vid=8a01e88a-8371-4085-9838-47ae11897cd3"},"vehicle_type_id":"4","last_reported":1752430421,"current_range_meters":17600,"station_id":"ce4bhnh2rcd13ifvqgug","pricing_plan_id":"cebpf4jnsgd1na2vs0mg"},{"bike_id":"0cd815b2-4a6b-4596-8531-8f99465263ac","system_id":"levelo_inurba_marseille","lat":43.31754,"lon":5.39017,"is_reserved":false,"is_disabled":false,"rental_uris":{"android":"levelo://app?vid=0cd815b2-4a6b-4596-8531-8f99465263ac","ios":"levelo://app?vid=0cd815b2-4a6b-4596-8531-8f99465263ac"},"vehicle_type_id":"4","last_reported":1752430421,"current_range_meters":17600,"station_id":"ce4bhqp2rcd13ifvqhng","pricing_plan_id":"cebpf4jnsgd1na2vs0mg"},{"bike_id":"088e6b1d-8a81-47e0-9ad0-36233ed399c0","system_id":"levelo_inurba_marseille","lat":43.27919,"lon":5.39563,"is_reserved":false,"is_disabled":true,"rental_uris":{"android":"levelo://app?vid=088e6b1d-8a81-47e0-9ad0-36233ed399c0","ios":"levelo://app?vid=088e6b1d-8a81-47e0-9ad0-36233ed399c0"},"vehicle_type_id":"4","last_reported":1752430421,"current_range_meters":17600,"station_id":"ce4bhf92rcd13ifvqf40","pricing_plan_id":"cebpf4jnsgd1na2vs0mg"},{"bike_id":"697d5fc4-b988-4a4e-8323-c1ce5ed61a61","system_id":"levelo_inurba_marseille","lat":43.21191,"lon":5.35068,"is_reserved":false,"is_disabled":false,"rental_uris":{"android":"levelo://app?vid=697d5fc4-b988-4a4e-8323-c1ce5ed61a61","ios":"levelo://app?vid=697d5fc4-b988-4a4e-8323-c1ce5ed61a61"},"vehicle_type_id":"4","last_reported":1752430421,"current_range_meters":18000,"station_id":"st_cvj6sg6p6f1abm77japg","pricing_plan_id":"cebpf4jnsgd1na2vs0mg"},{"bike_id":"882199b5-8c24-44b5-aefe-9d71fcbeeeb0","system_id":"levelo_inurba_marseille","lat":43.25133,"lon":5.40318,"is_reserved":false,"is_disabled":false,"rental_uris":{"android":"levelo://app?vid=882199b5-8c24-44b5-aefe-9d71fcbeeeb0","ios":"levelo://app?vid=882199b5-8c24-44b5-aefe-9d71fcbeeeb0"},"vehicle_type_id":"4","last_reported":1752430421,"current_range_meters":18000,"station_id":"ce4bhlh2rcd13ifvqgig","pricing_plan_id":"cebpf4jnsgd1na2vs0mg"},{"bike_id":"cedbaff3-380d-470a-b9ba-9c22829c28e1","system_id":"levelo_inurba_marseille","lat":43.31109,"lon":5.37776,"is_reserved":false,"is_disabled":false,"rental_uris":{"android":"levelo://app?vid=cedbaff3-380d-470a-b9ba-9c22829c28e1","ios":"levelo://app?vid=cedbaff3-380d-470a-b9ba-9c22829c28e1"},"vehicle_type_id":"4","last_reported":1752430421,"current_range_meters":18000,"station_id":"ce4bgt92rcd13ifvqcg0","pricing_plan_id":"cebpf4jnsgd1na2vs0mg"},{"bike_id":"6982ab4d-7f29-4798-bb80-0b5e3ff2fb6e","system_id":"levelo_inurba_marseille","lat":43.27367,"lon":5.3625,"is_reserved":false,"is_disabled":false,"rental_uris":{"android":"levelo://app?vid=6982ab4d-7f29-4798-bb80-0b5e3ff2fb6e","ios":"levelo://app?vid=6982ab4d-7f29-4798-bb80-0b5e3ff2fb6e"},"vehicle_type_id":"4","last_reported":1752430421,"current_range_meters":18000,"station_id":"ce4bhbh2rcd13ifvqeo0","pricing_plan_id":"cebpf4jnsgd1na2vs0mg"},{"bike_id":"6ac174d4-75c5-4a9c-9699-97cd631c6e65","system_id":"levelo_inurba_marseille","lat":43.25473,"lon":5.3992,"is_reserved":false,"is_disabled":false,"rental_uris":{"android":"levelo://app?vid=6ac174d4-75c5-4a9c-9699-97cd631c6e65","ios":"levelo://app?vid=6ac174d4-75c5-4a9c-9699-97cd631c6e65"},"vehicle_type_id":"4","last_reported":1752430421,"current_range_meters":18000,"station_id":"","pricing_plan_id":"cebpf4jnsgd1na2vs0mg"},{"bike_id":"80955d0f-8669-4c02-b90f-c6fe20790c37","system_id":"levelo_inurba_marseille","lat":43.23204,"lon":5.35057,"is_reserved":false,"is_disabled":false,"rental_uris":{"android":"levelo://app?vid=80955d0f-8669-4c02-b90f-c6fe20790c37","ios":"levelo://app?vid=80955d0f-8669-4c02-b90f-c6fe20790c37"},"vehicle_type_id":"4","last_reported":1752430421,"current_range_meters":18000,"station_id":"","pricing_plan_id":"cebpf4jnsgd1na2vs0mg"},{"bike_id":"f59f6657-f62a-42fc-a273-bf50a25645d6","system_id":"levelo_inurba_marseille","lat":43.27376,"lon":5.36244,"is_reserved":false,"is_disabled":false,"rental_uris":{"android":"levelo://app?vid=f59f6657-f62a-42fc-a273-bf50a25645d6","ios":"levelo://app?vid=f59f6657-f62a-42fc-a273-bf50a25645d6"},"vehicle_type_id":"4","last_reported":1752430421,"current_range_meters":18000,"station_id":"ce4bhbh2rcd13ifvqeo0","pricing_plan_id":"cebpf4jnsgd1na2vs0mg"},{"bike_id":"23a0fc67-4c39-4b74-8a86-2903d79b1606","system_id":"levelo_inurba_marseille","lat":43.2322,"lon":5.35506,"is_reserved":false,"is_disabled":true,"rental_uris":{"android":"levelo://app?vid=23a0fc67-4c39-4b74-8a86-2903d79b1606","ios":"levelo://app?vid=23a0fc67-4c39-4b74-8a86-2903d79b1606"},"vehicle_type_id":"4","last_reported":1752430421,"current_range_meters":18000,"station_id":"ce4bhu92rcd13ifvqi70","pricing_plan_id":"cebpf4jnsgd1na2vs0mg"},{"bike_id":"a4d07f45-19f9-4df9-9728-be6623530a64","system_id":"levelo_inurba_marseille","lat":43.23726,"lon":5.38837,"is_reserved":false,"is_disabled":false,"rental_uris":{"android":"levelo://app?vid=a4d07f45-19f9-4df9-9728-be6623530a64","ios":"levelo://app?vid=a4d07f45-19f9-4df9-9728-be6623530a64"},"vehicle_type_id":"4","last_reported":1752430421,"current_range_meters":18000,"station_id":"","pricing_plan_id":"cebpf4jnsgd1na2vs0mg"},{"bike_id":"f7cf9aab-0ed3-4931-a48c-8d0743d0c0b9","system_id":"levelo_inurba_marseille","lat":43.22922,"lon":5.35384,"is_reserved":false,"is_disabled":true,"rental_uris":{"android":"levelo://app?vid=f7cf9aab-0ed3-4931-a48c-8d0743d0c0b9","ios":"levelo://app?vid=f7cf9aab-0ed3-4931-a48c-8d0743d0c0b9"},"vehicle_type_id":"4","last_reported":1752430421,"current_range_meters":18000,"station_id":"cpo3532slgdg3j2ikp40","pricing_plan_id":"cebpf4jnsgd1na2vs0mg"},{"bike_id":"e70eb83f-ce37-4f47-8169-209f300afa7e","system_id":"levelo_inurba_marseille","lat":43.26207,"lon":5.37443,"is_reserved":false,"is_disabled":false,"rental_uris":{"android":"levelo://app?vid=e70eb83f-ce37-4f47-8169-209f300afa7e","ios":"levelo://app?vid=e70eb83f-ce37-4f47-8169-209f300afa7e"},"vehicle_type_id":"4","last_reported":1752430421,"current_range_meters":18000,"station_id":"ce4bhgp2rcd13ifvqfc0","pricing_plan_id":"cebpf4jnsgd1na2vs0mg"},{"bike_id":"6b2d494c-6838-4a5a-b826-7ae5d383b7ab","system_id":"levelo_inurba_marseille","lat":43.26497,"lon":5.39542,"is_reserved":false,"is_disabled":false,"rental_uris":{"android":"levelo://app?vid=6b2d494c-6838-4a5a-b826-7ae5d383b7ab","ios":"levelo://app?vid=6b2d494c-6838-4a5a-b826-7ae5d383b7ab"},"vehicle_type_id":"4","last_reported":1752430421,"current_range_meters":18000,"station_id":"ce4bhi12rcd13ifvqfq0","pricing_plan_id":"cebpf4jnsgd1na2vs0mg"},{"bike_id":"d423362b-0e74-4fbc-9c1d-a31a65be94ba","system_id":"levelo_inurba_marseille","lat":43.280365,"lon":5.350964,"is_reserved":false,"is_disabled":false,"rental_uris":{"android":"levelo://app?vid=d423362b-0e74-4fbc-9c1d-a31a65be94ba","ios":"levelo://app?vid=d423362b-0e74-4fbc-9c1d-a31a65be94ba"},"vehicle_type_id":"4","last_reported":1752430421,"current_range_meters":18800,"station_id":"ce4bgup2rcd13ifvqcn0","pricing_plan_id":"cebpf4jnsgd1na2vs0mg"},{"bike_id":"b5678d91-d95a-4120-aa6c-26c122c0fe8a","system_id":"levelo_inurba_marseille","lat":43.28407,"lon":5.34991,"is_reserved":false,"is_disabled":false,"rental_uris":{"android":"levelo://app?vid=b5678d91-d95a-4120-aa6c-26c122c0fe8a","ios":"levelo://app?vid=b5678d91-d95a-4120-aa6c-26c122c0fe8a"},"vehicle_type_id":"4","last_reported":1752430421,"current_range_meters":18800,"station_id":"ce4bhbh2rcd13ifvqepg","pricing_plan_id":"cebpf4jnsgd1na2vs0mg"},{"bike_id":"12d48e4d-a291-49bb-ab45-967804b53d7b","system_id":"levelo_inurba_marseille","lat":43.27609,"lon":5.36126,"is_reserved":false,"is_disabled":true,"rental_uris":{"android":"levelo://app?vid=12d48e4d-a291-49bb-ab45-967804b53d7b","ios":"levelo://app?vid=12d48e4d-a291-49bb-ab45-967804b53d7b"},"vehicle_type_id":"4","last_reported":1752430421,"current_range_meters":18800,"station_id":"ce4bgj92rcd13ifvqbe0","pricing_plan_id":"cebpf4jnsgd1na2vs0mg"},{"bike_id":"e1442ff3-c767-4bb3-901d-e5f60873ad13","system_id":"levelo_inurba_marseille","lat":43.23193,"lon":5.39973,"is_reserved":false,"is_disabled":false,"rental_uris":{"android":"levelo://app?vid=e1442ff3-c767-4bb3-901d-e5f60873ad13","ios":"levelo://app?vid=e1442ff3-c767-4bb3-901d-e5f60873ad13"},"vehicle_type_id":"4","last_reported":1752430421,"current_range_meters":18800,"station_id":"ce4bhn12rcd13ifvqgqg","pricing_plan_id":"cebpf4jnsgd1na2vs0mg"},{"bike_id":"9b59b22f-5f4b-432f-be59-c16459c4633a","system_id":"levelo_inurba_marseille","lat":43.28037,"lon":5.36943,"is_reserved":false,"is_disabled":false,"rental_uris":{"android":"levelo://app?vid=9b59b22f-5f4b-432f-be59-c16459c4633a","ios":"levelo://app?vid=9b59b22f-5f4b-432f-be59-c16459c4633a"},"vehicle_type_id":"4","last_reported":1752430421,"current_range_meters":18800,"station_id":"ce4bha12rcd13ifvqef0","pricing_plan_id":"cebpf4jnsgd1na2vs0mg"},{"bike_id":"e1928b01-bff5-4cea-b60c-f8d9223daef3","system_id":"levelo_inurba_marseille","lat":43.27082,"lon":5.422615,"is_reserved":false,"is_disabled":false,"rental_uris":{"android":"levelo://app?vid=e1928b01-bff5-4cea-b60c-f8d9223daef3","ios":"levelo://app?vid=e1928b01-bff5-4cea-b60c-f8d9223daef3"},"vehicle_type_id":"4","last_reported":1752430421,"current_range_meters":18800,"station_id":"ce4bhk92rcd13ifvqgb0","pricing_plan_id":"cebpf4jnsgd1na2vs0mg"},{"bike_id":"bf41fac6-c182-4d27-a0d1-dfd4a50fa961","system_id":"levelo_inurba_marseille","lat":43.29851,"lon":5.36287,"is_reserved":false,"is_disabled":false,"rental_uris":{"android":"levelo://app?vid=bf41fac6-c182-4d27-a0d1-dfd4a50fa961","ios":"levelo://app?vid=bf41fac6-c182-4d27-a0d1-dfd4a50fa961"},"vehicle_type_id":"4","last_reported":1752430421,"current_range_meters":18800,"station_id":"ce4bgpp2rcd13ifvqc3g","pricing_plan_id":"cebpf4jnsgd1na2vs0mg"},{"bike_id":"3fe12894-5c6e-4969-9825-6e38cace598e","system_id":"levelo_inurba_marseille","lat":43.29262,"lon":5.38446,"is_reserved":false,"is_disabled":false,"rental_uris":{"android":"levelo://app?vid=3fe12894-5c6e-4969-9825-6e38cace598e","ios":"levelo://app?vid=3fe12894-5c6e-4969-9825-6e38cace598e"},"vehicle_type_id":"4","last_reported":1752430421,"current_range_meters":18800,"station_id":"ce4bh692rcd13ifvqea0","pricing_plan_id":"cebpf4jnsgd1na2vs0mg"},{"bike_id":"5f48d587-f9d0-43e5-b0b2-bf2fb17b1a3c","system_id":"levelo_inurba_marseille","lat":43.294129,"lon":5.386078,"is_reserved":false,"is_disabled":true,"rental_uris":{"android":"levelo://app?vid=5f48d587-f9d0-43e5-b0b2-bf2fb17b1a3c","ios":"levelo://app?vid=5f48d587-f9d0-43e5-b0b2-bf2fb17b1a3c"},"vehicle_type_id":"4","last_reported":1752430421,"current_range_meters":18800,"station_id":"ce4bh2h2rcd13ifvqdh0","pricing_plan_id":"cebpf4jnsgd1na2vs0mg"},{"bike_id":"75fa4939-5b36-4ad1-8165-e2cef2867a2f","system_id":"levelo_inurba_marseille","lat":43.26783,"lon":5.39415,"is_reserved":false,"is_disabled":false,"rental_uris":{"android":"levelo://app?vid=75fa4939-5b36-4ad1-8165-e2cef2867a2f","ios":"levelo://app?vid=75fa4939-5b36-4ad1-8165-e2cef2867a2f"},"vehicle_type_id":"4","last_reported":1752430421,"current_range_meters":18800,"station_id":"ce4bhh12rcd13ifvqfg0","pricing_plan_id":"cebpf4jnsgd1na2vs0mg"},{"bike_id":"36afecec-a91e-46ea-9246-f2d0f42bab15","system_id":"levelo_inurba_marseille","lat":43.296112,"lon":5.381058,"is_reserved":false,"is_disabled":false,"rental_uris":{"android":"levelo://app?vid=36afecec-a91e-46ea-9246-f2d0f42bab15","ios":"levelo://app?vid=36afecec-a91e-46ea-9246-f2d0f42bab15"},"vehicle_type_id":"4","last_reported":1752430421,"current_range_meters":18800,"station_id":"","pricing_plan_id":"cebpf4jnsgd1na2vs0mg"},{"bike_id":"cd807e45-cfcd-490b-9617-fd995b7dab53","system_id":"levelo_inurba_marseille","lat":43.28416,"lon":5.34982,"is_reserved":false,"is_disabled":false,"rental_uris":{"android":"levelo://app?vid=cd807e45-cfcd-490b-9617-fd995b7dab53","ios":"levelo://app?vid=cd807e45-cfcd-490b-9617-fd995b7dab53"},"vehicle_type_id":"4","last_reported":1752430421,"current_range_meters":18800,"station_id":"ce4bhbh2rcd13ifvqepg","pricing_plan_id":"cebpf4jnsgd1na2vs0mg"},{"bike_id":"a46e665e-b5ac-4342-8f73-705888ebcc8f","system_id":"levelo_inurba_marseille","lat":43.31502,"lon":5.37326,"is_reserved":false,"is_disabled":false,"rental_uris":{"android":"levelo://app?vid=a46e665e-b5ac-4342-8f73-705888ebcc8f","ios":"levelo://app?vid=a46e665e-b5ac-4342-8f73-705888ebcc8f"},"vehicle_type_id":"4","last_reported":1752430421,"current_range_meters":18800,"station_id":"ce4bgt12rcd13ifvqcd0","pricing_plan_id":"cebpf4jnsgd1na2vs0mg"},{"bike_id":"8e9ac127-bb91-42dd-9128-5e3339d18e3e","system_id":"levelo_inurba_marseille","lat":43.290604,"lon":5.359084,"is_reserved":false,"is_disabled":false,"rental_uris":{"android":"levelo://app?vid=8e9ac127-bb91-42dd-9128-5e3339d18e3e","ios":"levelo://app?vid=8e9ac127-bb91-42dd-9128-5e3339d18e3e"},"vehicle_type_id":"4","last_reported":1752430421,"current_range_meters":18800,"station_id":"ce4bha92rcd13ifvqeg0","pricing_plan_id":"cebpf4jnsgd1na2vs0mg"},{"bike_id":"2c81c752-b139-48bc-a4ee-7fa7f8526278","system_id":"levelo_inurba_marseille","lat":43.21767,"lon":5.34586,"is_reserved":false,"is_disabled":true,"rental_uris":{"android":"levelo://app?vid=2c81c752-b139-48bc-a4ee-7fa7f8526278","ios":"levelo://app?vid=2c81c752-b139-48bc-a4ee-7fa7f8526278"},"vehicle_type_id":"4","last_reported":1752430421,"current_range_meters":19200,"station_id":"st_cvj6r9ubvosntc0bgbag","pricing_plan_id":"cebpf4jnsgd1na2vs0mg"},{"bike_id":"801875f5-fec3-4f03-af39-2be0fada0009","system_id":"levelo_inurba_marseille","lat":43.27175,"lon":5.4099,"is_reserved":false,"is_disabled":false,"rental_uris":{"android":"levelo://app?vid=801875f5-fec3-4f03-af39-2be0fada0009","ios":"levelo://app?vid=801875f5-fec3-4f03-af39-2be0fada0009"},"vehicle_type_id":"4","last_reported":1752430421,"current_range_meters":19200,"station_id":"ce4bhl12rcd13ifvqgf0","pricing_plan_id":"cebpf4jnsgd1na2vs0mg"},{"bike_id":"0978e0ad-a056-4a71-b392-f3211f4f9023","system_id":"levelo_inurba_marseille","lat":43.29604,"lon":5.38106,"is_reserved":false,"is_disabled":false,"rental_uris":{"android":"levelo://app?vid=0978e0ad-a056-4a71-b392-f3211f4f9023","ios":"levelo://app?vid=0978e0ad-a056-4a71-b392-f3211f4f9023"},"vehicle_type_id":"4","last_reported":1752430421,"current_range_meters":19200,"station_id":"ce4bgl12rcd13ifvqbo0","pricing_plan_id":"cebpf4jnsgd1na2vs0mg"},{"bike_id":"cbabbe1f-5cfd-4f7e-8bf8-8ca643cd54f7","system_id":"levelo_inurba_marseille","lat":43.29535,"lon":5.38549,"is_reserved":false,"is_disabled":false,"rental_uris":{"android":"levelo://app?vid=cbabbe1f-5cfd-4f7e-8bf8-8ca643cd54f7","ios":"levelo://app?vid=cbabbe1f-5cfd-4f7e-8bf8-8ca643cd54f7"},"vehicle_type_id":"4","last_reported":1752430421,"current_range_meters":19200,"station_id":"ce4bgih2rcd13ifvqba0","pricing_plan_id":"cebpf4jnsgd1na2vs0mg"},{"bike_id":"aa260077-cb0d-43c9-8e67-329c1b69779f","system_id":"levelo_inurba_marseille","lat":43.212,"lon":5.35059,"is_reserved":false,"is_disabled":false,"rental_uris":{"android":"levelo://app?vid=aa260077-cb0d-43c9-8e67-329c1b69779f","ios":"levelo://app?vid=aa260077-cb0d-43c9-8e67-329c1b69779f"},"vehicle_type_id":"4","last_reported":1752430421,"current_range_meters":19200,"station_id":"st_cvj6sg6p6f1abm77japg","pricing_plan_id":"cebpf4jnsgd1na2vs0mg"},{"bike_id":"19653d97-ba49-4a18-8fe5-074d2259b669","system_id":"levelo_inurba_marseille","lat":43.29851,"lon":5.36291,"is_reserved":false,"is_disabled":false,"rental_uris":{"android":"levelo://app?vid=19653d97-ba49-4a18-8fe5-074d2259b669","ios":"levelo://app?vid=19653d97-ba49-4a18-8fe5-074d2259b669"},"vehicle_type_id":"4","last_reported":1752430421,"current_range_meters":19200,"station_id":"ce4bgpp2rcd13ifvqc3g","pricing_plan_id":"cebpf4jnsgd1na2vs0mg"},{"bike_id":"0327ba3d-56c5-40a2-9b87-fb20780bb2cf","system_id":"levelo_inurba_marseille","lat":43.28503,"lon":5.38421,"is_reserved":false,"is_disabled":true,"rental_uris":{"android":"levelo://app?vid=0327ba3d-56c5-40a2-9b87-fb20780bb2cf","ios":"levelo://app?vid=0327ba3d-56c5-40a2-9b87-fb20780bb2cf"},"vehicle_type_id":"4","last_reported":1752430421,"current_range_meters":19200,"station_id":"ce4bh512rcd13ifvqe3g","pricing_plan_id":"cebpf4jnsgd1na2vs0mg"},{"bike_id":"08e67338-a2ff-42fc-a939-92ad435f118e","system_id":"levelo_inurba_marseille","lat":43.27674,"lon":5.35714,"is_reserved":false,"is_disabled":false,"rental_uris":{"android":"levelo://app?vid=08e67338-a2ff-42fc-a939-92ad435f118e","ios":"levelo://app?vid=08e67338-a2ff-42fc-a939-92ad435f118e"},"vehicle_type_id":"4","last_reported":1752430421,"current_range_meters":19200,"station_id":"","pricing_plan_id":"cebpf4jnsgd1na2vs0mg"},{"bike_id":"ce5af2ea-8258-4ca5-b41b-654b290b6c7f","system_id":"levelo_inurba_marseille","lat":43.299684,"lon":5.384944,"is_reserved":false,"is_disabled":false,"rental_uris":{"android":"levelo://app?vid=ce5af2ea-8258-4ca5-b41b-654b290b6c7f","ios":"levelo://app?vid=ce5af2ea-8258-4ca5-b41b-654b290b6c7f"},"vehicle_type_id":"4","last_reported":1752430421,"current_range_meters":19200,"station_id":"ce4bgj92rcd13ifvqbd0","pricing_plan_id":"cebpf4jnsgd1na2vs0mg"},{"bike_id":"1019f655-a5b6-4089-a406-14e25b6c8ebc","system_id":"levelo_inurba_marseille","lat":43.29193,"lon":5.35806,"is_reserved":false,"is_disabled":false,"rental_uris":{"android":"levelo://app?vid=1019f655-a5b6-4089-a406-14e25b6c8ebc","ios":"levelo://app?vid=1019f655-a5b6-4089-a406-14e25b6c8ebc"},"vehicle_type_id":"4","last_reported":1752430421,"current_range_meters":19600,"station_id":"ce4bhb12rcd13ifvqel0","pricing_plan_id":"cebpf4jnsgd1na2vs0mg"},{"bike_id":"b6af48b7-ee76-4e65-bd34-91f5085ea173","system_id":"levelo_inurba_marseille","lat":43.27918,"lon":5.38024,"is_reserved":false,"is_disabled":false,"rental_uris":{"android":"levelo://app?vid=b6af48b7-ee76-4e65-bd34-91f5085ea173","ios":"levelo://app?vid=b6af48b7-ee76-4e65-bd34-91f5085ea173"},"vehicle_type_id":"4","last_reported":1752430421,"current_range_meters":19600,"station_id":"ce4bhf92rcd13ifvqf50","pricing_plan_id":"cebpf4jnsgd1na2vs0mg"},{"bike_id":"71e479f4-838c-44c9-a19e-d1950cd099a6","system_id":"levelo_inurba_marseille","lat":43.27663,"lon":5.42461,"is_reserved":false,"is_disabled":false,"rental_uris":{"android":"levelo://app?vid=71e479f4-838c-44c9-a19e-d1950cd099a6","ios":"levelo://app?vid=71e479f4-838c-44c9-a19e-d1950cd099a6"},"vehicle_type_id":"4","last_reported":1752430421,"current_range_meters":19600,"station_id":"","pricing_plan_id":"cebpf4jnsgd1na2vs0mg"},{"bike_id":"9c933e57-bc10-4c96-850a-bfd75e0cc730","system_id":"levelo_inurba_marseille","lat":43.29433,"lon":5.39748,"is_reserved":false,"is_disabled":false,"rental_uris":{"android":"levelo://app?vid=9c933e57-bc10-4c96-850a-bfd75e0cc730","ios":"levelo://app?vid=9c933e57-bc10-4c96-850a-bfd75e0cc730"},"vehicle_type_id":"4","last_reported":1752430421,"current_range_meters":19600,"station_id":"ce4bh3h2rcd13ifvqdo0","pricing_plan_id":"cebpf4jnsgd1na2vs0mg"},{"bike_id":"152306af-4144-4e36-8d4a-a7994eaa2fbe","system_id":"levelo_inurba_marseille","lat":43.230677,"lon":5.354903,"is_reserved":false,"is_disabled":false,"rental_uris":{"android":"levelo://app?vid=152306af-4144-4e36-8d4a-a7994eaa2fbe","ios":"levelo://app?vid=152306af-4144-4e36-8d4a-a7994eaa2fbe"},"vehicle_type_id":"4","last_reported":1752430421,"current_range_meters":19600,"station_id":"cpo3342slgdg3j2ifvpg","pricing_plan_id":"cebpf4jnsgd1na2vs0mg"},{"bike_id":"5394a01b-ca38-455f-88e5-3d73b0a1545f","system_id":"levelo_inurba_marseille","lat":43.301385,"lon":5.387673,"is_reserved":false,"is_disabled":false,"rental_uris":{"android":"levelo://app?vid=5394a01b-ca38-455f-88e5-3d73b0a1545f","ios":"levelo://app?vid=5394a01b-ca38-455f-88e5-3d73b0a1545f"},"vehicle_type_id":"4","last_reported":1752430421,"current_range_meters":19600,"station_id":"","pricing_plan_id":"cebpf4jnsgd1na2vs0mg"},{"bike_id":"35a9a73e-115b-46bc-b803-bf3696fd136e","system_id":"levelo_inurba_marseille","lat":43.26778,"lon":5.39418,"is_reserved":false,"is_disabled":false,"rental_uris":{"android":"levelo://app?vid=35a9a73e-115b-46bc-b803-bf3696fd136e","ios":"levelo://app?vid=35a9a73e-115b-46bc-b803-bf3696fd136e"},"vehicle_type_id":"4","last_reported":1752430421,"current_range_meters":19600,"station_id":"ce4bhh12rcd13ifvqfg0","pricing_plan_id":"cebpf4jnsgd1na2vs0mg"},{"bike_id":"04b9bbde-a145-41e7-a7b0-cd8d25714b9e","system_id":"levelo_inurba_marseille","lat":43.29218,"lon":5.35817,"is_reserved":false,"is_disabled":false,"rental_uris":{"android":"levelo://app?vid=04b9bbde-a145-41e7-a7b0-cd8d25714b9e","ios":"levelo://app?vid=04b9bbde-a145-41e7-a7b0-cd8d25714b9e"},"vehicle_type_id":"4","last_reported":1752430421,"current_range_meters":19600,"station_id":"ce4bhb12rcd13ifvqel0","pricing_plan_id":"cebpf4jnsgd1na2vs0mg"},{"bike_id":"c2857b8a-2544-48ae-936c-90bab1dd6ab6","system_id":"levelo_inurba_marseille","lat":43.21244,"lon":5.35075,"is_reserved":false,"is_disabled":false,"rental_uris":{"android":"levelo://app?vid=c2857b8a-2544-48ae-936c-90bab1dd6ab6","ios":"levelo://app?vid=c2857b8a-2544-48ae-936c-90bab1dd6ab6"},"vehicle_type_id":"4","last_reported":1752430421,"current_range_meters":19600,"station_id":"","pricing_plan_id":"cebpf4jnsgd1na2vs0mg"},{"bike_id":"8e7677ff-7e3a-4636-8c2c-f378869954ad","system_id":"levelo_inurba_marseille","lat":43.3088,"lon":5.39647,"is_reserved":false,"is_disabled":false,"rental_uris":{"android":"levelo://app?vid=8e7677ff-7e3a-4636-8c2c-f378869954ad","ios":"levelo://app?vid=8e7677ff-7e3a-4636-8c2c-f378869954ad"},"vehicle_type_id":"4","last_reported":1752430421,"current_range_meters":19600,"station_id":"ce4bh012rcd13ifvqcv0","pricing_plan_id":"cebpf4jnsgd1na2vs0mg"},{"bike_id":"bbbd7405-0e12-4512-b62c-d8d1cbbecf09","system_id":"levelo_inurba_marseille","lat":43.2996,"lon":5.38512,"is_reserved":false,"is_disabled":true,"rental_uris":{"android":"levelo://app?vid=bbbd7405-0e12-4512-b62c-d8d1cbbecf09","ios":"levelo://app?vid=bbbd7405-0e12-4512-b62c-d8d1cbbecf09"},"vehicle_type_id":"4","last_reported":1752430421,"current_range_meters":19600,"station_id":"ce4bgj92rcd13ifvqbd0","pricing_plan_id":"cebpf4jnsgd1na2vs0mg"},{"bike_id":"fd45ce6f-4b8c-407a-91aa-8c33650e607a","system_id":"levelo_inurba_marseille","lat":43.27996,"lon":5.4165,"is_reserved":false,"is_disabled":false,"rental_uris":{"android":"levelo://app?vid=fd45ce6f-4b8c-407a-91aa-8c33650e607a","ios":"levelo://app?vid=fd45ce6f-4b8c-407a-91aa-8c33650e607a"},"vehicle_type_id":"4","last_reported":1752430421,"current_range_meters":20000,"station_id":"ce4bho12rcd13ifvqh1g","pricing_plan_id":"cebpf4jnsgd1na2vs0mg"},{"bike_id":"b9e11e9f-cd87-434d-a074-6238d492d738","system_id":"levelo_inurba_marseille","lat":43.31273,"lon":5.40162,"is_reserved":false,"is_disabled":false,"rental_uris":{"android":"levelo://app?vid=b9e11e9f-cd87-434d-a074-6238d492d738","ios":"levelo://app?vid=b9e11e9f-cd87-434d-a074-6238d492d738"},"vehicle_type_id":"4","last_reported":1752430421,"current_range_meters":20000,"station_id":"ce4bh092rcd13ifvqd30","pricing_plan_id":"cebpf4jnsgd1na2vs0mg"},{"bike_id":"fdf41f87-deb0-46b3-9de1-6dd73b263487","system_id":"levelo_inurba_marseille","lat":43.25518,"lon":5.37636,"is_reserved":false,"is_disabled":true,"rental_uris":{"android":"levelo://app?vid=fdf41f87-deb0-46b3-9de1-6dd73b263487","ios":"levelo://app?vid=fdf41f87-deb0-46b3-9de1-6dd73b263487"},"vehicle_type_id":"4","last_reported":1752430421,"current_range_meters":20000,"station_id":"ce4bhh12rcd13ifvqff0","pricing_plan_id":"cebpf4jnsgd1na2vs0mg"},{"bike_id":"7596bf57-ab58-4a04-891f-12182ed6ce97","system_id":"levelo_inurba_marseille","lat":43.28153,"lon":5.42616,"is_reserved":false,"is_disabled":false,"rental_uris":{"android":"levelo://app?vid=7596bf57-ab58-4a04-891f-12182ed6ce97","ios":"levelo://app?vid=7596bf57-ab58-4a04-891f-12182ed6ce97"},"vehicle_type_id":"4","last_reported":1752430421,"current_range_meters":20000,"station_id":"ce4bhnh2rcd13ifvqgug","pricing_plan_id":"cebpf4jnsgd1na2vs0mg"},{"bike_id":"0a36eb4e-864b-481e-a07f-54eb69e5afa7","system_id":"levelo_inurba_marseille","lat":43.26587,"lon":5.39483,"is_reserved":false,"is_disabled":false,"rental_uris":{"android":"levelo://app?vid=0a36eb4e-864b-481e-a07f-54eb69e5afa7","ios":"levelo://app?vid=0a36eb4e-864b-481e-a07f-54eb69e5afa7"},"vehicle_type_id":"4","last_reported":1752430421,"current_range_meters":20000,"station_id":"","pricing_plan_id":"cebpf4jnsgd1na2vs0mg"},{"bike_id":"d2b2c346-77b3-4f1f-8442-3449de6855ff","system_id":"levelo_inurba_marseille","lat":43.2926,"lon":5.38457,"is_reserved":false,"is_disabled":false,"rental_uris":{"android":"levelo://app?vid=d2b2c346-77b3-4f1f-8442-3449de6855ff","ios":"levelo://app?vid=d2b2c346-77b3-4f1f-8442-3449de6855ff"},"vehicle_type_id":"4","last_reported":1752430421,"current_range_meters":20000,"station_id":"ce4bh692rcd13ifvqea0","pricing_plan_id":"cebpf4jnsgd1na2vs0mg"},{"bike_id":"a6a93a4a-5697-4374-a5d3-20a4e4aa6310","system_id":"levelo_inurba_marseille","lat":43.26228,"lon":5.40448,"is_reserved":false,"is_disabled":false,"rental_uris":{"android":"levelo://app?vid=a6a93a4a-5697-4374-a5d3-20a4e4aa6310","ios":"levelo://app?vid=a6a93a4a-5697-4374-a5d3-20a4e4aa6310"},"vehicle_type_id":"4","last_reported":1752430421,"current_range_meters":20400,"station_id":"ce4bhmh2rcd13ifvqgmg","pricing_plan_id":"cebpf4jnsgd1na2vs0mg"},{"bike_id":"44e10618-e1b8-4569-bc24-980853c4bf04","system_id":"levelo_inurba_marseille","lat":43.229233,"lon":5.353759,"is_reserved":false,"is_disabled":true,"rental_uris":{"android":"levelo://app?vid=44e10618-e1b8-4569-bc24-980853c4bf04","ios":"levelo://app?vid=44e10618-e1b8-4569-bc24-980853c4bf04"},"vehicle_type_id":"4","last_reported":1752430421,"current_range_meters":20400,"station_id":"cpo3532slgdg3j2ikp40","pricing_plan_id":"cebpf4jnsgd1na2vs0mg"},{"bike_id":"b557b223-dad6-4fea-8f09-4a3a9f8b1c3a","system_id":"levelo_inurba_marseille","lat":43.3031,"lon":5.39201,"is_reserved":false,"is_disabled":true,"rental_uris":{"android":"levelo://app?vid=b557b223-dad6-4fea-8f09-4a3a9f8b1c3a","ios":"levelo://app?vid=b557b223-dad6-4fea-8f09-4a3a9f8b1c3a"},"vehicle_type_id":"4","last_reported":1752430421,"current_range_meters":20400,"station_id":"ce4bgkh2rcd13ifvqbk0","pricing_plan_id":"cebpf4jnsgd1na2vs0mg"},{"bike_id":"d0f90c24-dd03-411b-9731-55305f76b7c8","system_id":"levelo_inurba_marseille","lat":43.211929,"lon":5.350723,"is_reserved":false,"is_disabled":false,"rental_uris":{"android":"levelo://app?vid=d0f90c24-dd03-411b-9731-55305f76b7c8","ios":"levelo://app?vid=d0f90c24-dd03-411b-9731-55305f76b7c8"},"vehicle_type_id":"4","last_reported":1752430421,"current_range_meters":20400,"station_id":"st_cvj6sg6p6f1abm77japg","pricing_plan_id":"cebpf4jnsgd1na2vs0mg"},{"bike_id":"2ab7d655-face-469d-b1de-b3156f48f484","system_id":"levelo_inurba_marseille","lat":43.28008,"lon":5.41642,"is_reserved":false,"is_disabled":false,"rental_uris":{"android":"levelo://app?vid=2ab7d655-face-469d-b1de-b3156f48f484","ios":"levelo://app?vid=2ab7d655-face-469d-b1de-b3156f48f484"},"vehicle_type_id":"4","last_reported":1752430421,"current_range_meters":20400,"station_id":"ce4bho12rcd13ifvqh1g","pricing_plan_id":"cebpf4jnsgd1na2vs0mg"},{"bike_id":"c76c8ff0-43c0-40a7-9b84-84c2c1d54c8e","system_id":"levelo_inurba_marseille","lat":43.294787,"lon":5.385398,"is_reserved":false,"is_disabled":false,"rental_uris":{"android":"levelo://app?vid=c76c8ff0-43c0-40a7-9b84-84c2c1d54c8e","ios":"levelo://app?vid=c76c8ff0-43c0-40a7-9b84-84c2c1d54c8e"},"vehicle_type_id":"4","last_reported":1752430421,"current_range_meters":20400,"station_id":"","pricing_plan_id":"cebpf4jnsgd1na2vs0mg"},{"bike_id":"da75db8b-8943-4abe-858e-79fbcfcae3a3","system_id":"levelo_inurba_marseille","lat":43.24083,"lon":5.37749,"is_reserved":false,"is_disabled":false,"rental_uris":{"android":"levelo://app?vid=da75db8b-8943-4abe-858e-79fbcfcae3a3","ios":"levelo://app?vid=da75db8b-8943-4abe-858e-79fbcfcae3a3"},"vehicle_type_id":"4","last_reported":1752430421,"current_range_meters":20400,"station_id":"ce4bhnp2rcd13ifvqgvg","pricing_plan_id":"cebpf4jnsgd1na2vs0mg"},{"bike_id":"00fc1402-4dd5-4160-81c9-e4ee05f4960b","system_id":"levelo_inurba_marseille","lat":43.22512,"lon":5.34796,"is_reserved":false,"is_disabled":false,"rental_uris":{"android":"levelo://app?vid=00fc1402-4dd5-4160-81c9-e4ee05f4960b","ios":"levelo://app?vid=00fc1402-4dd5-4160-81c9-e4ee05f4960b"},"vehicle_type_id":"4","last_reported":1752430421,"current_range_meters":20400,"station_id":"st_cvj5dfep6f1abm77gieg","pricing_plan_id":"cebpf4jnsgd1na2vs0mg"},{"bike_id":"f9febe58-2d84-4e0e-9f47-60324cbba2f4","system_id":"levelo_inurba_marseille","lat":43.28611,"lon":5.35109,"is_reserved":false,"is_disabled":false,"rental_uris":{"android":"levelo://app?vid=f9febe58-2d84-4e0e-9f47-60324cbba2f4","ios":"levelo://app?vid=f9febe58-2d84-4e0e-9f47-60324cbba2f4"},"vehicle_type_id":"4","last_reported":1752430421,"current_range_meters":20800,"station_id":"ce4bhch2rcd13ifvqeug","pricing_plan_id":"cebpf4jnsgd1na2vs0mg"},{"bike_id":"1527b5f2-331d-4134-96dd-e7faed68b00f","system_id":"levelo_inurba_marseille","lat":43.3169,"lon":5.4048,"is_reserved":false,"is_disabled":false,"rental_uris":{"android":"levelo://app?vid=1527b5f2-331d-4134-96dd-e7faed68b00f","ios":"levelo://app?vid=1527b5f2-331d-4134-96dd-e7faed68b00f"},"vehicle_type_id":"4","last_reported":1752430421,"current_range_meters":20800,"station_id":"ce4bh012rcd13ifvqd00","pricing_plan_id":"cebpf4jnsgd1na2vs0mg"},{"bike_id":"07fda2e3-e3fc-4516-8a15-471c77a2d45d","system_id":"levelo_inurba_marseille","lat":43.309719,"lon":5.390101,"is_reserved":false,"is_disabled":false,"rental_uris":{"android":"levelo://app?vid=07fda2e3-e3fc-4516-8a15-471c77a2d45d","ios":"levelo://app?vid=07fda2e3-e3fc-4516-8a15-471c77a2d45d"},"vehicle_type_id":"4","last_reported":1752430421,"current_range_meters":20800,"station_id":"ce4bgup2rcd13ifvqco0","pricing_plan_id":"cebpf4jnsgd1na2vs0mg"},