{"last_updated":1708203943,"ttl":30,"version":"2.2","data":{"bikes":[{"bike_id":"733c2819-e3dd-4905-9ce7-3056d47b1a25","system_id":"levelo_inurba_marseille","lat":43.313564,"lon":5.36713,"is_reserved":false,"is_disabled":false,"rental_uris":{"android":"levelo://app?vid=733c2819-e3dd-4905-9ce7-3056d47b1a25","ios":"levelo://app?vid=733c2819-e3dd-4905-9ce7-3056d47b1a25"},"vehicle_type_id":"4","last_reported":1708203943,"current_range_meters":0,"station_id":"ce4bgr92rcd13ifvqc6g","pricing_plan_id":"cebpf4jnsgd1na2vs0mg"},{"bike_id":"82da3a10-90d6-4f03-80d3-b8a2c4c7662c","system_id":"levelo_inurba_marseille","lat":43.31341,"lon":5.367098,"is_reserved":false,"is_disabled":false,"rental_uris":{"android":"levelo://app?vid=82da3a10-90d6-4f03-80d3-b8a2c4c7662c","ios":"levelo://app?vid=82da3a10-90d6-4f03-80d3-b8a2c4c7662c"},"vehicle_type_id":"4","last_reported":1708203943,"current_range_meters":28000,"station_id":"ce4bgr92rcd13ifvqc6g","pricing_plan_id":"cebpf4jnsgd1na2vs0mg"},{"bike_id":"ca26ceb1-0362-4b4f-8d6b-266c471b9c91","system_id":"levelo_inurba_marseille","lat":43.312239,"lon":5.368562,"is_reserved":false,"is_disabled":false,"rental_uris":{"android":"levelo://app?vid=ca26ceb1-0362-4b4f-8d6b-266c471b9c91","ios":"levelo://app?vid=ca26ceb1-0362-4b4f-8d6b-266c471b9c91"},"vehicle_type_id":"4","last_reported":1708203943,"current_range_meters":31200,"station_id":"ce4bgl92rcd13ifvqbq0","pricing_plan_id":"cebpf4jnsgd1na2vs0mg"},{"bike_id":"4b81384c-2689-43bd-b773-25c3f39b2d82","system_id":"levelo_inurba_marseille","lat":43.31221,"lon":5.36847,"is_reserved":false,"is_disabled":false,"rental_uris":{"android":"levelo://app?vid=4b81384c-2689-43bd-b773-25c3f39b2d82","ios":"levelo://app?vid=4b81384c-2689-43bd-b773-25c3f39b2d82"},"vehicle_type_id":"4","last_reported":1708203943,"current_range_meters":9600,"station_id":"ce4bgl92rcd13ifvqbq0","pricing_plan_id":"cebpf4jnsgd1na2vs0mg"},{"bike_id":"90f14ba1-a895-4518-9119-fbda94f7bdf7","system_id":"levelo_inurba_marseille","lat":43.312239,"lon":5.368562,"is_reserved":false,"is_disabled":false,"rental_uris":{"android":"levelo://app?vid=90f14ba1-a895-4518-9119-fbda94f7bdf7","ios":"levelo://app?vid=90f14ba1-a895-4518-9119-fbda94f7bdf7"},"vehicle_type_id":"4","last_reported":1708203943,"current_range_meters":19200,"station_id":"ce4bgl92rcd13ifvqbq0","pricing_plan_id":"cebpf4jnsgd1na2vs0mg"},{"bike_id":"f5eba063-f758-45ce-bcfb-e362612f9dec","system_id":"levelo_inurba_marseille","lat":43.309076,"lon":5.368465,"is_reserved":false,"is_disabled":false,"rental_uris":{"android":"levelo://app?vid=f5eba063-f758-45ce-bcfb-e362612f9dec","ios":"levelo://app?vid=f5eba063-f758-45ce-bcfb-e362612f9dec"},"vehicle_type_id":"4","last_reported":1708203943,"current_range_meters":10400,"station_id":"ce4bgn92rcd13ifvqbvg","pricing_plan_id":"cebpf4jnsgd1na2vs0mg"},{"bike_id":"c6ef5152-57e2-4576-8010-a4c84e4968d6","system_id":"levelo_inurba_marseille","lat":43.314811,"lon":5.373103,"is_reserved":false,"is_disabled":false,"rental_uris":{"android":"levelo://app?vid=c6ef5152-57e2-4576-8010-a4c84e4968d6","ios":"levelo://app?vid=c6ef5152-57e2-4576-8010-a4c84e4968d6"},"vehicle_type_id":"4","last_reported":1708203943,"current_range_meters":5200,"station_id":"ce4bgt12rcd13ifvqcd0","pricing_plan_id":"cebpf4jnsgd1na2vs0mg"},{"bike_id":"93c24287-664e-4b09-b766-66b8f17efdca","system_id":"levelo_inurba_marseille","lat":43.309039,"lon":5.371797,"is_reserved":false,"is_disabled":false,"rental_uris":{"android":"levelo://app?vid=93c24287-664e-4b09-b766-66b8f17efdca","ios":"levelo://app?vid=93c24287-664e-4b09-b766-66b8f17efdca"},"vehicle_type_id":"4","last_reported":1708203943,"current_range_meters":16800,"station_id":"ce4bguh2rcd13ifvqckg","pricing_plan_id":"cebpf4jnsgd1na2vs0mg"},{"bike_id":"b82e9e04-7619-41c5-a45d-12eddda98feb","system_id":"levelo_inurba_marseille","lat":43.30551,"lon":5.36695,"is_reserved":false,"is_disabled":false,"rental_uris":{"android":"levelo://app?vid=b82e9e04-7619-41c5-a45d-12eddda98feb","ios":"levelo://app?vid=b82e9e04-7619-41c5-a45d-12eddda98feb"},"vehicle_type_id":"4","last_reported":1708203943,"current_range_meters":29600,"station_id":"ce4bgrp2rcd13ifvqc9g","pricing_plan_id":"cebpf4jnsgd1na2vs0mg"},{"bike_id":"4a0d6566-c529-4794-a19e-174b16e9bb4e","system_id":"levelo_inurba_marseille","lat":43.30533,"lon":5.36723,"is_reserved":false,"is_disabled":false,"rental_uris":{"android":"levelo://app?vid=4a0d6566-c529-4794-a19e-174b16e9bb4e","ios":"levelo://app?vid=4a0d6566-c529-4794-a19e-174b16e9bb4e"},"vehicle_type_id":"4","last_reported":1708203943,"current_range_meters":29200,"station_id":"ce4bgrp2rcd13ifvqc9g","pricing_plan_id":"cebpf4jnsgd1na2vs0mg"},{"bike_id":"72664c16-e438-4daa-9d39-6994860c9a07","system_id":"levelo_inurba_marseille","lat":43.30608,"lon":5.3722,"is_reserved":false,"is_disabled":false,"rental_uris":{"android":"levelo://app?vid=72664c16-e438-4daa-9d39-6994860c9a07","ios":"levelo://app?vid=72664c16-e438-4daa-9d39-6994860c9a07"},"vehicle_type_id":"4","last_reported":1708203943,"current_range_meters":15600,"station_id":"ce4bgqh2rcd13ifvqc4g","pricing_plan_id":"cebpf4jnsgd1na2vs0mg"},{"bike_id":"7fe83e2c-d4c6-4abb-b65b-3ca4705d2471","system_id":"levelo_inurba_marseille","lat":43.305989,"lon":5.37225,"is_reserved":false,"is_disabled":false,"rental_uris":{"android":"levelo://app?vid=7fe83e2c-d4c6-4abb-b65b-3ca4705d2471","ios":"levelo://app?vid=7fe83e2c-d4c6-4abb-b65b-3ca4705d2471"},"vehicle_type_id":"4","last_reported":1708203943,"current_range_meters":18800,"station_id":"ce4bgqh2rcd13ifvqc4g","pricing_plan_id":"cebpf4jnsgd1na2vs0mg"},{"bike_id":"a430919c-6b1e-4237-82ca-81ed56dc6de3","system_id":"levelo_inurba_marseille","lat":43.311131,"lon":5.377651,"is_reserved":false,"is_disabled":false,"rental_uris":{"android":"levelo://app?vid=a430919c-6b1e-4237-82ca-81ed56dc6de3","ios":"levelo://app?vid=a430919c-6b1e-4237-82ca-81ed56dc6de3"},"vehicle_type_id":"4","last_reported":1708203943,"current_range_meters":1200,"station_id":"ce4bgt92rcd13ifvqcg0","pricing_plan_id":"cebpf4jnsgd1na2vs0mg"},{"bike_id":"538be33b-eb5c-4fd6-b06a-7f6ea78cf8fb","system_id":"levelo_inurba_marseille","lat":43.311131,"lon":5.377651,"is_reserved":false,"is_disabled":false,"rental_uris":{"android":"levelo://app?vid=538be33b-eb5c-4fd6-b06a-7f6ea78cf8fb","ios":"levelo://app?vid=538be33b-eb5c-4fd6-b06a-7f6ea78cf8fb"},"vehicle_type_id":"4","last_reported":1708203943,"current_range_meters":9600,"station_id":"ce4bgt92rcd13ifvqcg0","pricing_plan_id":"cebpf4jnsgd1na2vs0mg"},{"bike_id":"8937ab95-7ac0-47aa-91f8-e9efdfc7964a","system_id":"levelo_inurba_marseille","lat":43.311131,"lon":5.377651,"is_reserved":false,"is_disabled":false,"rental_uris":{"android":"levelo://app?vid=8937ab95-7ac0-47aa-91f8-e9efdfc7964a","ios":"levelo://app?vid=8937ab95-7ac0-47aa-91f8-e9efdfc7964a"},"vehicle_type_id":"4","last_reported":1708203943,"current_range_meters":18400,"station_id":"ce4bgt92rcd13ifvqcg0","pricing_plan_id":"cebpf4jnsgd1na2vs0mg"},{"bike_id":"b3742c49-8f7f-4944-bac2-af23368c017e","system_id":"levelo_inurba_marseille","lat":43.307945,"lon":5.376487,"is_reserved":false,"is_disabled":false,"rental_uris":{"android":"levelo://app?vid=b3742c49-8f7f-4944-bac2-af23368c017e","ios":"levelo://app?vid=b3742c49-8f7f-4944-bac2-af23368c017e"},"vehicle_type_id":"4","last_reported":1708203943,"current_range_meters":17600,"station_id":"ce4bgv92rcd13ifvqcq0","pricing_plan_id":"cebpf4jnsgd1na2vs0mg"},{"bike_id":"546ba928-045a-479b-9e21-74c08cacdaf9","system_id":"levelo_inurba_marseille","lat":43.307945,"lon":5.376487,"is_reserved":false,"is_disabled":false,"rental_uris":{"android":"levelo://app?vid=546ba928-045a-479b-9e21-74c08cacdaf9","ios":"levelo://app?vid=546ba928-045a-479b-9e21-74c08cacdaf9"},"vehicle_type_id":"4","last_reported":1708203943,"current_range_meters":20400,"station_id":"ce4bgv92rcd13ifvqcq0","pricing_plan_id":"cebpf4jnsgd1na2vs0mg"},{"bike_id":"607839eb-39cf-4fda-857b-b06fc78d422f","system_id":"levelo_inurba_marseille","lat":43.307945,"lon":5.376487,"is_reserved":false,"is_disabled":false,"rental_uris":{"android":"levelo://app?vid=607839eb-39cf-4fda-857b-b06fc78d422f","ios":"levelo://app?vid=607839eb-39cf-4fda-857b-b06fc78d422f"},"vehicle_type_id":"4","last_reported":1708203943,"current_range_meters":19600,"station_id":"ce4bgv92rcd13ifvqcq0","pricing_plan_id":"cebpf4jnsgd1na2vs0mg"},{"bike_id":"6093169a-88ed-4ffa-bcd3-15119749356c","system_id":"levelo_inurba_marseille","lat":43.307945,"lon":5.376487,"is_reserved":false,"is_disabled":false,"rental_uris":{"android":"levelo://app?vid=6093169a-88ed-4ffa-bcd3-15119749356c","ios":"levelo://app?vid=6093169a-88ed-4ffa-bcd3-15119749356c"},"vehicle_type_id":"4","last_reported":1708203943,"current_range_meters":25200,"station_id":"ce4bgv92rcd13ifvqcq0","pricing_plan_id":"cebpf4jnsgd1na2vs0mg"},{"bike_id":"a48ed7af-14da-4eeb-a730-39de8c197e54","system_id":"levelo_inurba_marseille","lat":43.307945,"lon":5.376487,"is_reserved":false,"is_disabled":false,"rental_uris":{"android":"levelo://app?vid=a48ed7af-14da-4eeb-a730-39de8c197e54","ios":"levelo://app?vid=a48ed7af-14da-4eeb-a730-39de8c197e54"},"vehicle_type_id":"4","last_reported":1708203943,"current_range_meters":4400,"station_id":"ce4bgv92rcd13ifvqcq0","pricing_plan_id":"cebpf4jnsgd1na2vs0mg"},{"bike_id":"506cae87-02c6-442b-97d3-0542cfe17fc1","system_id":"levelo_inurba_marseille","lat":43.317075,"lon":5.377367,"is_reserved":false,"is_disabled":false,"rental_uris":{"android":"levelo://app?vid=506cae87-02c6-442b-97d3-0542cfe17fc1","ios":"levelo://app?vid=506cae87-02c6-442b-97d3-0542cfe17fc1"},"vehicle_type_id":"4","last_reported":1708203943,"current_range_meters":30400,"station_id":"ce4bgth2rcd13ifvqch0","pricing_plan_id":"cebpf4jnsgd1na2vs0mg"},{"bike_id":"5d7196d7-a09a-47e5-9701-4fb8016f2bed","system_id":"levelo_inurba_marseille","lat":43.317075,"lon":5.377367,"is_reserved":false,"is_disabled":false,"rental_uris":{"android":"levelo://app?vid=5d7196d7-a09a-47e5-9701-4fb8016f2bed","ios":"levelo://app?vid=5d7196d7-a09a-47e5-9701-4fb8016f2bed"},"vehicle_type_id":"4","last_reported":1708203943,"current_range_meters":23600,"station_id":"ce4bgth2rcd13ifvqch0","pricing_plan_id":"cebpf4jnsgd1na2vs0mg"},{"bike_id":"bdd8ca95-cfb8-4541-9867-c17848173b3b","system_id":"levelo_inurba_marseille","lat":43.315293,"lon":5.380349,"is_reserved":false,"is_disabled":false,"rental_uris":{"android":"levelo://app?vid=bdd8ca95-cfb8-4541-9867-c17848173b3b","ios":"levelo://app?vid=bdd8ca95-cfb8-4541-9867-c17848173b3b"},"vehicle_type_id":"4","last_reported":1708203943,"current_range_meters":18000,"station_id":"ce4bhsp2rcd13ifvqi50","pricing_plan_id":"cebpf4jnsgd1na2vs0mg"},{"bike_id":"e9be2605-fcb5-44db-bd43-584adaeae401","system_id":"levelo_inurba_marseille","lat":43.31535,"lon":5.38042,"is_reserved":false,"is_disabled":false,"rental_uris":{"android":"levelo://app?vid=e9be2605-fcb5-44db-bd43-584adaeae401","ios":"levelo://app?vid=e9be2605-fcb5-44db-bd43-584adaeae401"},"vehicle_type_id":"4","last_reported":1708203943,"current_range_meters":18800,"station_id":"ce4bhsp2rcd13ifvqi50","pricing_plan_id":"cebpf4jnsgd1na2vs0mg"},{"bike_id":"04ec0f51-d648-4d8c-8836-ea57eb4b9ac3","system_id":"levelo_inurba_marseille","lat":43.301939,"lon":5.366286,"is_reserved":false,"is_disabled":false,"rental_uris":{"android":"levelo://app?vid=04ec0f51-d648-4d8c-8836-ea57eb4b9ac3","ios":"levelo://app?vid=04ec0f51-d648-4d8c-8836-ea57eb4b9ac3"},"vehicle_type_id":"4","last_reported":1708203943,"current_range_meters":8000,"station_id":"ce4bgrh2rcd13ifvqc8g","pricing_plan_id":"cebpf4jnsgd1na2vs0mg"},{"bike_id":"ae6a10ae-9c7b-40eb-a18f-fd7051404be7","system_id":"levelo_inurba_marseille","lat":43.308012,"lon":5.381511,"is_reserved":false,"is_disabled":false,"rental_uris":{"android":"levelo://app?vid=ae6a10ae-9c7b-40eb-a18f-fd7051404be7","ios":"levelo://app?vid=ae6a10ae-9c7b-40eb-a18f-fd7051404be7"},"vehicle_type_id":"4","last_reported":1708203943,"current_range_meters":13200,"station_id":"ce4bgt12rcd13ifvqce0","pricing_plan_id":"cebpf4jnsgd1na2vs0mg"},{"bike_id":"4b06259d-e1d8-4fd6-abf4-3a99eec7eeb9","system_id":"levelo_inurba_marseille","lat":43.308025,"lon":5.381393,"is_reserved":false,"is_disabled":false,"rental_uris":{"android":"levelo://app?vid=4b06259d-e1d8-4fd6-abf4-3a99eec7eeb9","ios":"levelo://app?vid=4b06259d-e1d8-4fd6-abf4-3a99eec7eeb9"},"vehicle_type_id":"4","last_reported":1708203943,"current_range_meters":0,"station_id":"ce4bgt12rcd13ifvqce0","pricing_plan_id":"cebpf4jnsgd1na2vs0mg"},{"bike_id":"420ef9c8-5739-45ea-8c9f-4d0e7d601d70","system_id":"levelo_inurba_marseille","lat":43.308012,"lon":5.381511,"is_reserved":false,"is_disabled":false,"rental_uris":{"android":"levelo://app?vid=420ef9c8-5739-45ea-8c9f-4d0e7d601d70","ios":"levelo://app?vid=420ef9c8-5739-45ea-8c9f-4d0e7d601d70"},"vehicle_type_id":"4","last_reported":1708203943,"current_range_meters":17200,"station_id":"ce4bgt12rcd13ifvqce0","pricing_plan_id":"cebpf4jnsgd1na2vs0mg"},{"bike_id":"f033f8af-a833-4cdf-97b9-e70a54a6cd9d","system_id":"levelo_inurba_marseille","lat":43.304606,"lon":5.379026,"is_reserved":false,"is_disabled":false,"rental_uris":{"android":"levelo://app?vid=f033f8af-a833-4cdf-97b9-e70a54a6cd9d","ios":"levelo://app?vid=f033f8af-a833-4cdf-97b9-e70a54a6cd9d"},"vehicle_type_id":"4","last_reported":1708203943,"current_range_meters":12800,"station_id":"ce4bgup2rcd13ifvqcn0","pricing_plan_id":"cebpf4jnsgd1na2vs0mg"},{"bike_id":"65261c5f-afaa-452b-bcd8-5f091d0cf5a1","system_id":"levelo_inurba_marseille","lat":43.304606,"lon":5.379026,"is_reserved":false,"is_disabled":false,"rental_uris":{"android":"levelo://app?vid=65261c5f-afaa-452b-bcd8-5f091d0cf5a1","ios":"levelo://app?vid=65261c5f-afaa-452b-bcd8-5f091d0cf5a1"},"vehicle_type_id":"4","last_reported":1708203943,"current_range_meters":2400,"station_id":"ce4bgup2rcd13ifvqcn0","pricing_plan_id":"cebpf4jnsgd1na2vs0mg"},{"bike_id":"f7db8da1-ccbd-4314-ad80-4639326d0151","system_id":"levelo_inurba_marseille","lat":43.304606,"lon":5.379026,"is_reserved":false,"is_disabled":false,"rental_uris":{"android":"levelo://app?vid=f7db8da1-ccbd-4314-ad80-4639326d0151","ios":"levelo://app?vid=f7db8da1-ccbd-4314-ad80-4639326d0151"},"vehicle_type_id":"4","last_reported":1708203943,"current_range_meters":8800,"station_id":"ce4bgup2rcd13ifvqcn0","pricing_plan_id":"cebpf4jnsgd1na2vs0mg"},{"bike_id":"52c7d0c2-438e-4f7d-9db4-ea70d4682f97","system_id":"levelo_inurba_marseille","lat":43.324771,"lon":5.36557,"is_reserved":false,"is_disabled":false,"rental_uris":{"android":"levelo://app?vid=52c7d0c2-438e-4f7d-9db4-ea70d4682f97","ios":"levelo://app?vid=52c7d0c2-438e-4f7d-9db4-ea70d4682f97"},"vehicle_type_id":"4","last_reported":1708203943,"current_range_meters":11200,"station_id":"ce4bhs12rcd13ifvqhvg","pricing_plan_id":"cebpf4jnsgd1na2vs0mg"},{"bike_id":"66c512bf-acab-4702-ba43-f4af8a53fc57","system_id":"levelo_inurba_marseille","lat":43.324771,"lon":5.36557,"is_reserved":false,"is_disabled":false,"rental_uris":{"android":"levelo://app?vid=66c512bf-acab-4702-ba43-f4af8a53fc57","ios":"levelo://app?vid=66c512bf-acab-4702-ba43-f4af8a53fc57"},"vehicle_type_id":"4","last_reported":1708203943,"current_range_meters":2000,"station_id":"ce4bhs12rcd13ifvqhvg","pricing_plan_id":"cebpf4jnsgd1na2vs0mg"},{"bike_id":"b58f9322-e72c-44cb-875a-8a661b34e40e","system_id":"levelo_inurba_marseille","lat":43.310804,"lon":5.38359,"is_reserved":false,"is_disabled":false,"rental_uris":{"android":"levelo://app?vid=b58f9322-e72c-44cb-875a-8a661b34e40e","ios":"levelo://app?vid=b58f9322-e72c-44cb-875a-8a661b34e40e"},"vehicle_type_id":"4","last_reported":1708203943,"current_range_meters":0,"station_id":"ce4bgv92rcd13ifvqcr0","pricing_plan_id":"cebpf4jnsgd1na2vs0mg"},{"bike_id":"ae6d477f-cfc3-48d6-a4b4-33959153e5fc","system_id":"levelo_inurba_marseille","lat":43.310804,"lon":5.38359,"is_reserved":false,"is_disabled":false,"rental_uris":{"android":"levelo://app?vid=ae6d477f-cfc3-48d6-a4b4-33959153e5fc","ios":"levelo://app?vid=ae6d477f-cfc3-48d6-a4b4-33959153e5fc"},"vehicle_type_id":"4","last_reported":1708203943,"current_range_meters":2000,"station_id":"ce4bgv92rcd13ifvqcr0","pricing_plan_id":"cebpf4jnsgd1na2vs0mg"},{"bike_id":"b6115d5d-f59e-47f8-8972-ec6a59cfbea9","system_id":"levelo_inurba_marseille","lat":43.302784,"lon":5.377158,"is_reserved":false,"is_disabled":false,"rental_uris":{"android":"levelo://app?vid=b6115d5d-f59e-47f8-8972-ec6a59cfbea9","ios":"levelo://app?vid=b6115d5d-f59e-47f8-8972-ec6a59cfbea9"},"vehicle_type_id":"4","last_reported":1708203943,"current_range_meters":30400,"station_id":"ce4bguh2rcd13ifvqcj0","pricing_plan_id":"cebpf4jnsgd1na2vs0mg"},{"bike_id":"5bc3aefd-5a2f-45d6-b5ad-311561c420d1","system_id":"levelo_inurba_marseille","lat":43.301429,"lon":5.37413,"is_reserved":false,"is_disabled":false,"rental_uris":{"android":"levelo://app?vid=5bc3aefd-5a2f-45d6-b5ad-311561c420d1","ios":"levelo://app?vid=5bc3aefd-5a2f-45d6-b5ad-311561c420d1"},"vehicle_type_id":"4","last_reported":1708203943,"current_range_meters":20400,"station_id":"ce4bgs92rcd13ifvqcc0","pricing_plan_id":"cebpf4jnsgd1na2vs0mg"},{"bike_id":"53e9dce0-56a0-47f5-8d9b-4ea34e0572a6","system_id":"levelo_inurba_marseille","lat":43.319935,"lon":5.381699,"is_reserved":false,"is_disabled":false,"rental_uris":{"android":"levelo://app?vid=53e9dce0-56a0-47f5-8d9b-4ea34e0572a6","ios":"levelo://app?vid=53e9dce0-56a0-47f5-8d9b-4ea34e0572a6"},"vehicle_type_id":"4","last_reported":1708203943,"current_range_meters":4400,"station_id":"ce4bhr12rcd13ifvqhpg","pricing_plan_id":"cebpf4jnsgd1na2vs0mg"},{"bike_id":"b966d316-a40f-4dd3-8e43-9f85576511d6","system_id":"levelo_inurba_marseille","lat":43.319935,"lon":5.381699,"is_reserved":false,"is_disabled":false,"rental_uris":{"android":"levelo://app?vid=b966d316-a40f-4dd3-8e43-9f85576511d6","ios":"levelo://app?vid=b966d316-a40f-4dd3-8e43-9f85576511d6"},"vehicle_type_id":"4","last_reported":1708203943,"current_range_meters":5200,"station_id":"ce4bhr12rcd13ifvqhpg","pricing_plan_id":"cebpf4jnsgd1na2vs0mg"},{"bike_id":"6b7dbe7d-596d-43e6-90c9-26ea94dfa8b7","system_id":"levelo_inurba_marseille","lat":43.304606,"lon":5.379026,"is_reserved":false,"is_disabled":false,"rental_uris":{"android":"levelo://app?vid=6b7dbe7d-596d-43e6-90c9-26ea94dfa8b7","ios":"levelo://app?vid=6b7dbe7d-596d-43e6-90c9-26ea94dfa8b7"},"vehicle_type_id":"4","last_reported":1708203943,"current_range_meters":10400,"station_id":"ce4bgup2rcd13ifvqcn0","pricing_plan_id":"cebpf4jnsgd1na2vs0mg"},{"bike_id":"67217016-2ee0-42a5-87fc-663af82f2ce9","system_id":"levelo_inurba_marseille","lat":43.319935,"lon":5.381699,"is_reserved":false,"is_disabled":false,"rental_uris":{"android":"levelo://app?vid=67217016-2ee0-42a5-87fc-663af82f2ce9","ios":"levelo://app?vid=67217016-2ee0-42a5-87fc-663af82f2ce9"},"vehicle_type_id":"4","last_reported":1708203943,"current_range_meters":17200,"station_id":"ce4bhr12rcd13ifvqhpg","pricing_plan_id":"cebpf4jnsgd1na2vs0mg"},{"bike_id":"d7122a35-34e0-4200-8fdb-176c8fed4439","system_id":"levelo_inurba_marseille","lat":43.31363,"lon":5.38488,"is_reserved":false,"is_disabled":false,"rental_uris":{"android":"levelo://app?vid=d7122a35-34e0-4200-8fdb-176c8fed4439","ios":"levelo://app?vid=d7122a35-34e0-4200-8fdb-176c8fed4439"},"vehicle_type_id":"4","last_reported":1708203943,"current_range_meters":30400,"station_id":"ce4bgt92rcd13ifvqcf0","pricing_plan_id":"cebpf4jnsgd1na2vs0mg"},{"bike_id":"470c7419-98e3-4059-adc8-fb445c6e4847","system_id":"levelo_inurba_marseille","lat":43.313636,"lon":5.384902,"is_reserved":false,"is_disabled":false,"rental_uris":{"android":"levelo://app?vid=470c7419-98e3-4059-adc8-fb445c6e4847","ios":"levelo://app?vid=470c7419-98e3-4059-adc8-fb445c6e4847"},"vehicle_type_id":"4","last_reported":1708203943,"current_range_meters":0,"station_id":"ce4bgt92rcd13ifvqcf0","pricing_plan_id":"cebpf4jnsgd1na2vs0mg"},{"bike_id":"bd4b7dd6-7470-4274-90a8-c4363f149003","system_id":"levelo_inurba_marseille","lat":43.31363,"lon":5.38493,"is_reserved":false,"is_disabled":false,"rental_uris":{"android":"levelo://app?vid=bd4b7dd6-7470-4274-90a8-c4363f149003","ios":"levelo://app?vid=bd4b7dd6-7470-4274-90a8-c4363f149003"},"vehicle_type_id":"4","last_reported":1708203943,"current_range_meters":15200,"station_id":"ce4bgt92rcd13ifvqcf0","pricing_plan_id":"cebpf4jnsgd1na2vs0mg"},{"bike_id":"c4b45808-8f51-4481-a9ed-6ce508005c9f","system_id":"levelo_inurba_marseille","lat":43.31358,"lon":5.38494,"is_reserved":false,"is_disabled":false,"rental_uris":{"android":"levelo://app?vid=c4b45808-8f51-4481-a9ed-6ce508005c9f","ios":"levelo://app?vid=c4b45808-8f51-4481-a9ed-6ce508005c9f"},"vehicle_type_id":"4","last_reported":1708203943,"current_range_meters":17200,"station_id":"ce4bgt92rcd13ifvqcf0","pricing_plan_id":"cebpf4jnsgd1na2vs0mg"},{"bike_id":"59e2cf64-f519-404e-b615-b29e9f6c4419","system_id":"levelo_inurba_marseille","lat":43.31364,"lon":5.38495,"is_reserved":false,"is_disabled":false,"rental_uris":{"android":"levelo://app?vid=59e2cf64-f519-404e-b615-b29e9f6c4419","ios":"levelo://app?vid=59e2cf64-f519-404e-b615-b29e9f6c4419"},"vehicle_type_id":"4","last_reported":1708203943,"current_range_meters":17600,"station_id":"ce4bgt92rcd13ifvqcf0","pricing_plan_id":"cebpf4jnsgd1na2vs0mg"},{"bike_id":"11298de3-ca59-4aa4-a005-860ac338509b","system_id":"levelo_inurba_marseille","lat":43.31363,"lon":5.38496,"is_reserved":false,"is_disabled":false,"rental_uris":{"android":"levelo://app?vid=11298de3-ca59-4aa4-a005-860ac338509b","ios":"levelo://app?vid=11298de3-ca59-4aa4-a005-860ac338509b"},"vehicle_type_id":"4","last_reported":1708203943,"current_range_meters":13600,"station_id":"ce4bgt92rcd13ifvqcf0","pricing_plan_id":"cebpf4jnsgd1na2vs0mg"},{"bike_id":"1dac90cc-342b-4092-8352-c42a71902b45","system_id":"levelo_inurba_marseille","lat":43.31365,"lon":5.38496,"is_reserved":false,"is_disabled":false,"rental_uris":{"android":"levelo://app?vid=1dac90cc-342b-4092-8352-c42a71902b45","ios":"levelo://app?vid=1dac90cc-342b-4092-8352-c42a71902b45"},"vehicle_type_id":"4","last_reported":1708203943,"current_range_meters":17600,"station_id":"ce4bgt92rcd13ifvqcf0","pricing_plan_id":"cebpf4jnsgd1na2vs0mg"},{"bike_id":"98c657e2-09d2-498b-a290-46fa6bddd57b","system_id":"levelo_inurba_marseille","lat":43.313571,"lon":5.384829,"is_reserved":false,"is_disabled":false,"rental_uris":{"android":"levelo://app?vid=98c657e2-09d2-498b-a290-46fa6bddd57b","ios":"levelo://app?vid=98c657e2-09d2-498b-a290-46fa6bddd57b"},"vehicle_type_id":"4","last_reported":1708203943,"current_range_meters":29600,"station_id":"ce4bgt92rcd13ifvqcf0","pricing_plan_id":"cebpf4jnsgd1na2vs0mg"},{"bike_id":"a16d2286-bc8e-42e6-8df9-92df60386e50","system_id":"levelo_inurba_marseille","lat":43.299222,"lon":5.365554,"is_reserved":false,"is_disabled":false,"rental_uris":{"android":"levelo://app?vid=a16d2286-bc8e-42e6-8df9-92df60386e50","ios":"levelo://app?vid=a16d2286-bc8e-42e6-8df9-92df60386e50"},"vehicle_type_id":"4","last_reported":1708203943,"current_range_meters":25600,"station_id":"ce4bgm92rcd13ifvqbr0","pricing_plan_id":"cebpf4jnsgd1na2vs0mg"},{"bike_id":"53e4047d-712b-4a44-ab66-44b573669b53","system_id":"levelo_inurba_marseille","lat":43.299222,"lon":5.365554,"is_reserved":false,"is_disabled":false,"rental_uris":{"android":"levelo://app?vid=53e4047d-712b-4a44-ab66-44b573669b53","ios":"levelo://app?vid=53e4047d-712b-4a44-ab66-44b573669b53"},"vehicle_type_id":"4","last_reported":1708203943,"current_range_meters":8800,"station_id":"ce4bgm92rcd13ifvqbr0","pricing_plan_id":"cebpf4jnsgd1na2vs0mg"},{"bike_id":"83450c08-d074-4623-89e0-ab5b2faeb207","system_id":"levelo_inurba_marseille","lat":43.299724,"lon":5.371829,"is_reserved":false,"is_disabled":false,"rental_uris":{"android":"levelo://app?vid=83450c08-d074-4623-89e0-ab5b2faeb207","ios":"levelo://app?vid=83450c08-d074-4623-89e0-ab5b2faeb207"},"vehicle_type_id":"4","last_reported":1708203943,"current_range_meters":21200,"station_id":"ce4bgr92rcd13ifvqc7g","pricing_plan_id":"cebpf4jnsgd1na2vs0mg"},{"bike_id":"29a5e929-1a69-46b0-aaac-56b62b0ab09d","system_id":"levelo_inurba_marseille","lat":43.305364,"lon":5.384119,"is_reserved":false,"is_disabled":false,"rental_uris":{"android":"levelo://app?vid=29a5e929-1a69-46b0-aaac-56b62b0ab09d","ios":"levelo://app?vid=29a5e929-1a69-46b0-aaac-56b62b0ab09d"},"vehicle_type_id":"4","last_reported":1708203943,"current_range_meters":22400,"station_id":"ce4bgg92rcd13ifvqb30","pricing_plan_id":"cebpf4jnsgd1na2vs0mg"},{"bike_id":"d1b0b94f-8190-4f21-92db-ef7de71cf1fa","system_id":"levelo_inurba_marseille","lat":43.299243,"lon":5.37481,"is_reserved":false,"is_disabled":false,"rental_uris":{"android":"levelo://app?vid=d1b0b94f-8190-4f21-92db-ef7de71cf1fa","ios":"levelo://app?vid=d1b0b94f-8190-4f21-92db-ef7de71cf1fa"},"vehicle_type_id":"4","last_reported":1708203943,"current_range_meters":24000,"station_id":"ce4bgjh2rcd13ifvqbg0","pricing_plan_id":"cebpf4jnsgd1na2vs0mg"},{"bike_id":"2210fc45-ed86-45f7-a5b1-1c959b32fca8","system_id":"levelo_inurba_marseille","lat":43.298433,"lon":5.362774,"is_reserved":false,"is_disabled":false,"rental_uris":{"android":"levelo://app?vid=2210fc45-ed86-45f7-a5b1-1c959b32fca8","ios":"levelo://app?vid=2210fc45-ed86-45f7-a5b1-1c959b32fca8"},"vehicle_type_id":"4","last_reported":1708203943,"current_range_meters":27600,"station_id":"ce4bgpp2rcd13ifvqc3g","pricing_plan_id":"cebpf4jnsgd1na2vs0mg"},{"bike_id":"2430d049-eb5c-4ee0-bcb6-feaece75a604","system_id":"levelo_inurba_marseille","lat":43.305364,"lon":5.384119,"is_reserved":false,"is_disabled":false,"rental_uris":{"android":"levelo://app?vid=2430d049-eb5c-4ee0-bcb6-feaece75a604","ios":"levelo://app?vid=2430d049-eb5c-4ee0-bcb6-feaece75a604"},"vehicle_type_id":"4","last_reported":1708203943,"current_range_meters":18000,"station_id":"ce4bgg92rcd13ifvqb30","pricing_plan_id":"cebpf4jnsgd1na2vs0mg"},{"bike_id":"8fb46b71-a436-4359-991f-a15f03fc453f","system_id":"levelo_inurba_marseille","lat":43.30541,"lon":5.38422,"is_reserved":false,"is_disabled":false,"rental_uris":{"android":"levelo://app?vid=8fb46b71-a436-4359-991f-a15f03fc453f","ios":"levelo://app?vid=8fb46b71-a436-4359-991f-a15f03fc453f"},"vehicle_type_id":"4","last_reported":1708203943,"current_range_meters":0,"station_id":"ce4bgg92rcd13ifvqb30","pricing_plan_id":"cebpf4jnsgd1na2vs0mg"},{"bike_id":"88c61596-6870-4232-955a-fa9f22fbc3fe","system_id":"levelo_inurba_marseille","lat":43.30541,"lon":5.38423,"is_reserved":false,"is_disabled":false,"rental_uris":{"android":"levelo://app?vid=88c61596-6870-4232-955a-fa9f22fbc3fe","ios":"levelo://app?vid=88c61596-6870-4232-955a-fa9f22fbc3fe"},"vehicle_type_id":"4","last_reported":1708203943,"current_range_meters":8800,"station_id":"ce4bgg92rcd13ifvqb30","pricing_plan_id":"cebpf4jnsgd1na2vs0mg"},{"bike_id":"e2ec84d6-bdd6-4091-8870-b8a8eaf92850","system_id":"levelo_inurba_marseille","lat":43.305364,"lon":5.384119,"is_reserved":false,"is_disabled":false,"rental_uris":{"android":"levelo://app?vid=e2ec84d6-bdd6-4091-8870-b8a8eaf92850","ios":"levelo://app?vid=e2ec84d6-bdd6-4091-8870-b8a8eaf92850"},"vehicle_type_id":"4","last_reported":1708203943,"current_range_meters":5600,"station_id":"ce4bgg92rcd13ifvqb30","pricing_plan_id":"cebpf4jnsgd1na2vs0mg"},{"bike_id":"0a813527-71a7-42dd-9a2e-e197bf1949a5","system_id":"levelo_inurba_marseille","lat":43.30533,"lon":5.3842,"is_reserved":false,"is_disabled":false,"rental_uris":{"android":"levelo://app?vid=0a813527-71a7-42dd-9a2e-e197bf1949a5","ios":"levelo://app?vid=0a813527-71a7-42dd-9a2e-e197bf1949a5"},"vehicle_type_id":"4","last_reported":1708203943,"current_range_meters":21200,"station_id":"ce4bgg92rcd13ifvqb30","pricing_plan_id":"cebpf4jnsgd1na2vs0mg"},{"bike_id":"182d013f-54ed-4e27-9033-0fc3a5d17d58","system_id":"levelo_inurba_marseille","lat":43.298433,"lon":5.362774,"is_reserved":false,"is_disabled":false,"rental_uris":{"android":"levelo://app?vid=182d013f-54ed-4e27-9033-0fc3a5d17d58","ios":"levelo://app?vid=182d013f-54ed-4e27-9033-0fc3a5d17d58"},"vehicle_type_id":"4","last_reported":1708203943,"current_range_meters":19200,"station_id":"ce4bgpp2rcd13ifvqc3g","pricing_plan_id":"cebpf4jnsgd1na2vs0mg"},{"bike_id":"707cff61-e471-4468-94bf-1e6d78035b85","system_id":"levelo_inurba_marseille","lat":43.29843,"lon":5.36265,"is_reserved":false,"is_disabled":false,"rental_uris":{"android":"levelo://app?vid=707cff61-e471-4468-94bf-1e6d78035b85","ios":"levelo://app?vid=707cff61-e471-4468-94bf-1e6d78035b85"},"vehicle_type_id":"4","last_reported":1708203943,"current_range_meters":12800,"station_id":"ce4bgpp2rcd13ifvqc3g","pricing_plan_id":"cebpf4jnsgd1na2vs0mg"},{"bike_id":"fe69fb1b-96ab-4ee8-af38-796df9fc8373","system_id":"levelo_inurba_marseille","lat":43.305364,"lon":5.384119,"is_reserved":false,"is_disabled":false,"rental_uris":{"android":"levelo://app?vid=fe69fb1b-96ab-4ee8-af38-796df9fc8373","ios":"levelo://app?vid=fe69fb1b-96ab-4ee8-af38-796df9fc8373"},"vehicle_type_id":"4","last_reported":1708203943,"current_range_meters":3600,"station_id":"ce4bgg92rcd13ifvqb30","pricing_plan_id":"cebpf4jnsgd1na2vs0mg"},{"bike_id":"608bf93d-680f-4f32-8ff4-ae87d681cb36","system_id":"levelo_inurba_marseille","lat":43.29842,"lon":5.36264,"is_reserved":false,"is_disabled":false,"rental_uris":{"android":"levelo://app?vid=608bf93d-680f-4f32-8ff4-ae87d681cb36","ios":"levelo://app?vid=608bf93d-680f-4f32-8ff4-ae87d681cb36"},"vehicle_type_id":"4","last_reported":1708203943,"current_range_meters":30000,"station_id":"ce4bgpp2rcd13ifvqc3g","pricing_plan_id":"cebpf4jnsgd1na2vs0mg"},{"bike_id":"47aff497-2976-46d5-9334-781e1964bb51","system_id":"levelo_inurba_marseille","lat":43.29839,"lon":5.36269,"is_reserved":false,"is_disabled":false,"rental_uris":{"android":"levelo://app?vid=47aff497-2976-46d5-9334-781e1964bb51","ios":"levelo://app?vid=47aff497-2976-46d5-9334-781e1964bb51"},"vehicle_type_id":"4","last_reported":1708203943,"current_range_meters":29200,"station_id":"ce4bgpp2rcd13ifvqc3g","pricing_plan_id":"cebpf4jnsgd1na2vs0mg"},{"bike_id":"b9ff7b9a-104a-4540-8290-f8fad157eb56","system_id":"levelo_inurba_marseille","lat":43.322872,"lon":5.382756,"is_reserved":false,"is_disabled":false,"rental_uris":{"android":"levelo://app?vid=b9ff7b9a-104a-4540-8290-f8fad157eb56","ios":"levelo://app?vid=b9ff7b9a-104a-4540-8290-f8fad157eb56"},"vehicle_type_id":"4","last_reported":1708203943,"current_range_meters":0,"station_id":"ce4bhr12rcd13ifvqhqg","pricing_plan_id":"cebpf4jnsgd1na2vs0mg"},{"bike_id":"70fe7047-25f5-4921-82cd-938fed021886","system_id":"levelo_inurba_marseille","lat":43.322872,"lon":5.382756,"is_reserved":false,"is_disabled":false,"rental_uris":{"android":"levelo://app?vid=70fe7047-25f5-4921-82cd-938fed021886","ios":"levelo://app?vid=70fe7047-25f5-4921-82cd-938fed021886"},"vehicle_type_id":"4","last_reported":1708203943,"current_range_meters":20400,"station_id":"ce4bhr12rcd13ifvqhqg","pricing_plan_id":"cebpf4jnsgd1na2vs0mg"},{"bike_id":"9af28949-3abe-4ee4-a57a-c236655c3362","system_id":"levelo_inurba_marseille","lat":43.322872,"lon":5.382756,"is_reserved":false,"is_disabled":false,"rental_uris":{"android":"levelo://app?vid=9af28949-3abe-4ee4-a57a-c236655c3362","ios":"levelo://app?vid=9af28949-3abe-4ee4-a57a-c236655c3362"},"vehicle_type_id":"4","last_reported":1708203943,"current_range_meters":31600,"station_id":"ce4bhr12rcd13ifvqhqg","pricing_plan_id":"cebpf4jnsgd1na2vs0mg"},{"bike_id":"15f37670-1584-4d1a-8082-554ee13ad03b","system_id":"levelo_inurba_marseille","lat":43.322872,"lon":5.382756,"is_reserved":false,"is_disabled":false,"rental_uris":{"android":"levelo://app?vid=15f37670-1584-4d1a-8082-554ee13ad03b","ios":"levelo://app?vid=15f37670-1584-4d1a-8082-554ee13ad03b"},"vehicle_type_id":"4","last_reported":1708203943,"current_range_meters":13600,"station_id":"ce4bhr12rcd13ifvqhqg","pricing_plan_id":"cebpf4jnsgd1na2vs0mg"},{"bike_id":"410a532b-f4d9-44b0-bece-5fd8115e2fc4","system_id":"levelo_inurba_marseille","lat":43.322872,"lon":5.382756,"is_reserved":false,"is_disabled":false,"rental_uris":{"android":"levelo://app?vid=410a532b-f4d9-44b0-bece-5fd8115e2fc4","ios":"levelo://app?vid=410a532b-f4d9-44b0-bece-5fd8115e2fc4"},"vehicle_type_id":"4","last_reported":1708203943,"current_range_meters":22800,"station_id":"ce4bhr12rcd13ifvqhqg","pricing_plan_id":"cebpf4jnsgd1na2vs0mg"},{"bike_id":"15ffa81d-a37b-4922-9e45-9abbc7ec00b0","system_id":"levelo_inurba_marseille","lat":43.317075,"lon":5.377367,"is_reserved":false,"is_disabled":false,"rental_uris":{"android":"levelo://app?vid=15ffa81d-a37b-4922-9e45-9abbc7ec00b0","ios":"levelo://app?vid=15ffa81d-a37b-4922-9e45-9abbc7ec00b0"},"vehicle_type_id":"4","last_reported":1708203943,"current_range_meters":22800,"station_id":"ce4bgth2rcd13ifvqch0","pricing_plan_id":"cebpf4jnsgd1na2vs0mg"},{"bike_id":"798e1c77-cdb6-49fb-b2e4-2a646e449b0a","system_id":"levelo_inurba_marseille","lat":43.328371,"lon":5.366909,"is_reserved":false,"is_disabled":false,"rental_uris":{"android":"levelo://app?vid=798e1c77-cdb6-49fb-b2e4-2a646e449b0a","ios":"levelo://app?vid=798e1c77-cdb6-49fb-b2e4-2a646e449b0a"},"vehicle_type_id":"4","last_reported":1708203943,"current_range_meters":5200,"station_id":"ce4bhs92rcd13ifvqi0g","pricing_plan_id":"cebpf4jnsgd1na2vs0mg"},{"bike_id":"aadfba98-88f5-4230-8488-f6b7556adf88","system_id":"levelo_inurba_marseille","lat":43.328226,"lon":5.366689,"is_reserved":false,"is_disabled":false,"rental_uris":{"android":"levelo://app?vid=aadfba98-88f5-4230-8488-f6b7556adf88","ios":"levelo://app?vid=aadfba98-88f5-4230-8488-f6b7556adf88"},"vehicle_type_id":"4","last_reported":1708203943,"current_range_meters":0,"station_id":"ce4bhs92rcd13ifvqi0g","pricing_plan_id":"cebpf4jnsgd1na2vs0mg"},{"bike_id":"d125619a-6ae6-4def-8c67-f1352fae5a27","system_id":"levelo_inurba_marseille","lat":43.32824,"lon":5.36681,"is_reserved":false,"is_disabled":false,"rental_uris":{"android":"levelo://app?vid=d125619a-6ae6-4def-8c67-f1352fae5a27","ios":"levelo://app?vid=d125619a-6ae6-4def-8c67-f1352fae5a27"},"vehicle_type_id":"4","last_reported":1708203943,"current_range_meters":17600,"station_id":"ce4bhs92rcd13ifvqi0g","pricing_plan_id":"cebpf4jnsgd1na2vs0mg"},{"bike_id":"cc924a54-60e4-4421-b12c-5aa0bb659927","system_id":"levelo_inurba_marseille","lat":43.32824,"lon":5.36679,"is_reserved":false,"is_disabled":false,"rental_uris":{"android":"levelo://app?vid=cc924a54-60e4-4421-b12c-5aa0bb659927","ios":"levelo://app?vid=cc924a54-60e4-4421-b12c-5aa0bb659927"},"vehicle_type_id":"4","last_reported":1708203943,"current_range_meters":1600,"station_id":"ce4bhs92rcd13ifvqi0g","pricing_plan_id":"cebpf4jnsgd1na2vs0mg"},{"bike_id":"ec21c626-faeb-41e5-9192-4d2bef3ee4d3","system_id":"levelo_inurba_marseille","lat":43.32824,"lon":5.36673,"is_reserved":false,"is_disabled":false,"rental_uris":{"android":"levelo://app?vid=ec21c626-faeb-41e5-9192-4d2bef3ee4d3","ios":"levelo://app?vid=ec21c626-faeb-41e5-9192-4d2bef3ee4d3"},"vehicle_type_id":"4","last_reported":1708203943,"current_range_meters":0,"station_id":"ce4bhs92rcd13ifvqi0g","pricing_plan_id":"cebpf4jnsgd1na2vs0mg"},{"bike_id":"45fe6c6c-2569-4aee-9c18-3f3586004f23","system_id":"levelo_inurba_marseille","lat":43.32825,"lon":5.36677,"is_reserved":false,"is_disabled":false,"rental_uris":{"android":"levelo://app?vid=45fe6c6c-2569-4aee-9c18-3f3586004f23","ios":"levelo://app?vid=45fe6c6c-2569-4aee-9c18-3f3586004f23"},"vehicle_type_id":"4","last_reported":1708203943,"current_range_meters":21600,"station_id":"ce4bhs92rcd13ifvqi0g","pricing_plan_id":"cebpf4jnsgd1na2vs0mg"},{"bike_id":"4858fa03-d21d-48b2-a63e-a5500b96c079","system_id":"levelo_inurba_marseille","lat":43.32825,"lon":5.36677,"is_reserved":false,"is_disabled":false,"rental_uris":{"android":"levelo://app?vid=4858fa03-d21d-48b2-a63e-a5500b96c079","ios":"levelo://app?vid=4858fa03-d21d-48b2-a63e-a5500b96c079"},"vehicle_type_id":"4","last_reported":1708203943,"current_range_meters":1200,"station_id":"ce4bhs92rcd13ifvqi0g","pricing_plan_id":"cebpf4jnsgd1na2vs0mg"},{"bike_id":"b354d40e-f748-45df-b8a4-085ee0f39b31","system_id":"levelo_inurba_marseille","lat":43.32826,"lon":5.36679,"is_reserved":false,"is_disabled":false,"rental_uris":{"android":"levelo://app?vid=b354d40e-f748-45df-b8a4-085ee0f39b31","ios":"levelo://app?vid=b354d40e-f748-45df-b8a4-085ee0f39b31"},"vehicle_type_id":"4","last_reported":1708203943,"current_range_meters":10400,"station_id":"ce4bhs92rcd13ifvqi0g","pricing_plan_id":"cebpf4jnsgd1na2vs0mg"},{"bike_id":"5195dc94-0b55-41c8-9198-580992dd67c5","system_id":"levelo_inurba_marseille","lat":43.32827,"lon":5.36678,"is_reserved":false,"is_disabled":false,"rental_uris":{"android":"levelo://app?vid=5195dc94-0b55-41c8-9198-580992dd67c5","ios":"levelo://app?vid=5195dc94-0b55-41c8-9198-580992dd67c5"},"vehicle_type_id":"4","last_reported":1708203943,"current_range_meters":20000,"station_id":"ce4bhs92rcd13ifvqi0g","pricing_plan_id":"cebpf4jnsgd1na2vs0mg"},{"bike_id":"2459963a-9a41-477a-9f46-310730d184fe","system_id":"levelo_inurba_marseille","lat":43.32829,"lon":5.36685,"is_reserved":false,"is_disabled":false,"rental_uris":{"android":"levelo://app?vid=2459963a-9a41-477a-9f46-310730d184fe","ios":"levelo://app?vid=2459963a-9a41-477a-9f46-310730d184fe"},"vehicle_type_id":"4","last_reported":1708203943,"current_range_meters":17200,"station_id":"ce4bhs92rcd13ifvqi0g","pricing_plan_id":"cebpf4jnsgd1na2vs0mg"},{"bike_id":"c9ca704a-95d9-467c-ad5a-5403d53c76ed","system_id":"levelo_inurba_marseille","lat":43.328302,"lon":5.366778,"is_reserved":false,"is_disabled":false,"rental_uris":{"android":"levelo://app?vid=c9ca704a-95d9-467c-ad5a-5403d53c76ed","ios":"levelo://app?vid=c9ca704a-95d9-467c-ad5a-5403d53c76ed"},"vehicle_type_id":"4","last_reported":1708203943,"current_range_meters":6800,"station_id":"ce4bhs92rcd13ifvqi0g","pricing_plan_id":"cebpf4jnsgd1na2vs0mg"},{"bike_id":"6a4afac0-6bf5-49e1-bc28-a2022e672910","system_id":"levelo_inurba_marseille","lat":43.32831,"lon":5.36685,"is_reserved":false,"is_disabled":false,"rental_uris":{"android":"levelo://app?vid=6a4afac0-6bf5-49e1-bc28-a2022e672910","ios":"levelo://app?vid=6a4afac0-6bf5-49e1-bc28-a2022e672910"},"vehicle_type_id":"4","last_reported":1708203943,"current_range_meters":25200,"station_id":"ce4bhs92rcd13ifvqi0g","pricing_plan_id":"cebpf4jnsgd1na2vs0mg"},{"bike_id":"fcbb72e3-aeee-4031-b1db-dc05c41736e9","system_id":"levelo_inurba_marseille","lat":43.32831,"lon":5.36681,"is_reserved":false,"is_disabled":false,"rental_uris":{"android":"levelo://app?vid=fcbb72e3-aeee-4031-b1db-dc05c41736e9","ios":"levelo://app?vid=fcbb72e3-aeee-4031-b1db-dc05c41736e9"},"vehicle_type_id":"4","last_reported":1708203943,"current_range_meters":13200,"station_id":"ce4bhs92rcd13ifvqi0g","pricing_plan_id":"cebpf4jnsgd1na2vs0mg"},{"bike_id":"3ce3bf05-0e26-4ba4-9a11-4781ff3d0eb6","system_id":"levelo_inurba_marseille","lat":43.32831,"lon":5.3668,"is_reserved":false,"is_disabled":false,"rental_uris":{"android":"levelo://app?vid=3ce3bf05-0e26-4ba4-9a11-4781ff3d0eb6","ios":"levelo://app?vid=3ce3bf05-0e26-4ba4-9a11-4781ff3d0eb6"},"vehicle_type_id":"4","last_reported":1708203943,"current_range_meters":2800,"station_id":"ce4bhs92rcd13ifvqi0g","pricing_plan_id":"cebpf4jnsgd1na2vs0mg"},{"bike_id":"45a7a14e-9b1e-4a1b-ad54-93a32f013a67","system_id":"levelo_inurba_marseille","lat":43.32831,"lon":5.36676,"is_reserved":false,"is_disabled":false,"rental_uris":{"android":"levelo://app?vid=45a7a14e-9b1e-4a1b-ad54-93a32f013a67","ios":"levelo://app?vid=45a7a14e-9b1e-4a1b-ad54-93a32f013a67"},"vehicle_type_id":"4","last_reported":1708203943,"current_range_meters":10800,"station_id":"ce4bhs92rcd13ifvqi0g","pricing_plan_id":"cebpf4jnsgd1na2vs0mg"},{"bike_id":"d059372d-713e-4306-a0dc-ef5b2b5ad059","system_id":"levelo_inurba_marseille","lat":43.32832,"lon":5.36677,"is_reserved":false,"is_disabled":false,"rental_uris":{"android":"levelo://app?vid=d059372d-713e-4306-a0dc-ef5b2b5ad059","ios":"levelo://app?vid=d059372d-713e-4306-a0dc-ef5b2b5ad059"},"vehicle_type_id":"4","last_reported":1708203943,"current_range_meters":21600,"station_id":"ce4bhs92rcd13ifvqi0g","pricing_plan_id":"cebpf4jnsgd1na2vs0mg"},{"bike_id":"b1a6d03f-e2ff-45bb-b890-788276a09a82","system_id":"levelo_inurba_marseille","lat":43.328328,"lon":5.36684,"is_reserved":false,"is_disabled":false,"rental_uris":{"android":"levelo://app?vid=b1a6d03f-e2ff-45bb-b890-788276a09a82","ios":"levelo://app?vid=b1a6d03f-e2ff-45bb-b890-788276a09a82"},"vehicle_type_id":"4","last_reported":1708203943,"current_range_meters":28400,"station_id":"ce4bhs92rcd13ifvqi0g","pricing_plan_id":"cebpf4jnsgd1na2vs0mg"},{"bike_id":"3833ec15-b081-4b20-84c5-72daf8aa7006","system_id":"levelo_inurba_marseille","lat":43.328331,"lon":5.366774,"is_reserved":false,"is_disabled":false,"rental_uris":{"android":"levelo://app?vid=3833ec15-b081-4b20-84c5-72daf8aa7006","ios":"levelo://app?vid=3833ec15-b081-4b20-84c5-72daf8aa7006"},"vehicle_type_id":"4","last_reported":1708203943,"current_range_meters":21200,"station_id":"ce4bhs92rcd13ifvqi0g","pricing_plan_id":"cebpf4jnsgd1na2vs0mg"},{"bike_id":"bd70b7b9-aaa1-42e7-902e-a9c3154b32fe","system_id":"levelo_inurba_marseille","lat":43.300263,"lon":5.380763,"is_reserved":false,"is_disabled":false,"rental_uris":{"android":"levelo://app?vid=bd70b7b9-aaa1-42e7-902e-a9c3154b32fe","ios":"levelo://app?vid=bd70b7b9-aaa1-42e7-902e-a9c3154b32fe"},"vehicle_type_id":"4","last_reported":1708203943,"current_range_meters":20800,"station_id":"ce4bgip2rcd13ifvqbb0","pricing_plan_id":"cebpf4jnsgd1na2vs0mg"},{"bike_id":"c3894eb7-1cd4-4c89-8efe-629fed87923a","system_id":"levelo_inurba_marseille","lat":43.299028,"lon":5.381509,"is_reserved":false,"is_disabled":false,"rental_uris":{"android":"levelo://app?vid=c3894eb7-1cd4-4c89-8efe-629fed87923a","ios":"levelo://app?vid=c3894eb7-1cd4-4c89-8efe-629fed87923a"},"vehicle_type_id":"4","last_reported":1708203943,"current_range_meters":7200,"station_id":"ce4bgj12rcd13ifvqbc0","pricing_plan_id":"cebpf4jnsgd1na2vs0mg"},{"bike_id":"bd57f562-31dc-4608-aadc-ad046ca7a51f","system_id":"levelo_inurba_marseille","lat":43.299028,"lon":5.381509,"is_reserved":false,"is_disabled":false,"rental_uris":{"android":"levelo://app?vid=bd57f562-31dc-4608-aadc-ad046ca7a51f","ios":"levelo://app?vid=bd57f562-31dc-4608-aadc-ad046ca7a51f"},"vehicle_type_id":"4","last_reported":1708203943,"current_range_meters":20400,"station_id":"ce4bgj12rcd13ifvqbc0","pricing_plan_id":"cebpf4jnsgd1na2vs0mg"},{"bike_id":"7196f955-ca66-47c8-bcb5-ac6f15ce5290","system_id":"levelo_inurba_marseille","lat":43.296921,"lon":5.376579,"is_reserved":false,"is_disabled":false,"rental_uris":{"android":"levelo://app?vid=7196f955-ca66-47c8-bcb5-ac6f15ce5290","ios":"levelo://app?vid=7196f955-ca66-47c8-bcb5-ac6f15ce5290"},"vehicle_type_id":"4","last_reported":1708203943,"current_range_meters":31200,"station_id":"ce4bgkh2rcd13ifvqbl0","pricing_plan_id":"cebpf4jnsgd1na2vs0mg"},{"bike_id":"4598fbb3-1ccb-4425-a3bc-51223708b6ef","system_id":"levelo_inurba_marseille","lat":43.296921,"lon":5.376579,"is_reserved":false,"is_disabled":false,"rental_uris":{"android":"levelo://app?vid=4598fbb3-1ccb-4425-a3bc-51223708b6ef","ios":"levelo://app?vid=4598fbb3-1ccb-4425-a3bc-51223708b6ef"},"vehicle_type_id":"4","last_reported":1708203943,"current_range_meters":26400,"station_id":"ce4bgkh2rcd13ifvqbl0","pricing_plan_id":"cebpf4jnsgd1na2vs0mg"},{"bike_id":"6e0bcaf0-905c-40e8-ab89-209393171c9a","system_id":"levelo_inurba_marseille","lat":43.296921,"lon":5.376579,"is_reserved":false,"is_disabled":false,"rental_uris":{"android":"levelo://app?vid=6e0bcaf0-905c-40e8-ab89-209393171c9a","ios":"levelo://app?vid=6e0bcaf0-905c-40e8-ab89-209393171c9a"},"vehicle_type_id":"4","last_reported":1708203943,"current_range_meters":26400,"station_id":"ce4bgkh2rcd13ifvqbl0","pricing_plan_id":"cebpf4jnsgd1na2vs0mg"},{"bike_id":"f1dd2931-1bfb-45a7-ad5f-500f1f944458","system_id":"levelo_inurba_marseille","lat":43.309589,"lon":5.390258,"is_reserved":false,"is_disabled":false,"rental_uris":{"android":"levelo://app?vid=f1dd2931-1bfb-45a7-ad5f-500f1f944458","ios":"levelo://app?vid=f1dd2931-1bfb-45a7-ad5f-500f1f944458"},"vehicle_type_id":"4","last_reported":1708203943,"current_range_meters":24000,"station_id":"ce4bgup2rcd13ifvqco0","pricing_plan_id":"cebpf4jnsgd1na2vs0mg"},{"bike_id":"c8873a98-cb72-42cd-9141-bbc28ddfcac7","system_id":"levelo_inurba_marseille","lat":43.309589,"lon":5.390258,"is_reserved":false,"is_disabled":false,"rental_uris":{"android":"levelo://app?vid=c8873a98-cb72-42cd-9141-bbc28ddfcac7","ios":"levelo://app?vid=c8873a98-cb72-42cd-9141-bbc28ddfcac7"},"vehicle_type_id":"4","last_reported":1708203943,"current_range_meters":16000,"station_id":"ce4bgup2rcd13ifvqco0","pricing_plan_id":"cebpf4jnsgd1na2vs0mg"},{"bike_id":"efd7d638-0e09-486f-91a0-b70f1c3d4f0d","system_id":"levelo_inurba_marseille","lat":43.299028,"lon":5.381509,"is_reserved":false,"is_disabled":false,"rental_uris":{"android":"levelo://app?vid=efd7d638-0e09-486f-91a0-b70f1c3d4f0d","ios":"levelo://app?vid=efd7d638-0e09-486f-91a0-b70f1c3d4f0d"},"vehicle_type_id":"4","last_reported":1708203943,"current_range_meters":30000,"station_id":"ce4bgj12rcd13ifvqbc0","pricing_plan_id":"cebpf4jnsgd1na2vs0mg"},{"bike_id":"29a01ad2-d193-4e72-a260-c70c53824056","system_id":"levelo_inurba_marseille","lat":43.299028,"lon":5.381509,"is_reserved":false,"is_disabled":false,"rental_uris":{"android":"levelo://app?vid=29a01ad2-d193-4e72-a260-c70c53824056","ios":"levelo://app?vid=29a01ad2-d193-4e72-a260-c70c53824056"},"vehicle_type_id":"4","last_reported":1708203943,"current_range_meters":18800,"station_id":"ce4bgj12rcd13ifvqbc0","pricing_plan_id":"cebpf4jnsgd1na2vs0mg"},{"bike_id":"91b23a31-bcef-44da-b6df-15e47c1d7b61","system_id":"levelo_inurba_marseille","lat":43.309589,"lon":5.390258,"is_reserved":false,"is_disabled":false,"rental_uris":{"android":"levelo://app?vid=91b23a31-bcef-44da-b6df-15e47c1d7b61","ios":"levelo://app?vid=91b23a31-bcef-44da-b6df-15e47c1d7b61"},"vehicle_type_id":"4","last_reported":1708203943,"current_range_meters":6800,"station_id":"ce4bgup2rcd13ifvqco0","pricing_plan_id":"cebpf4jnsgd1na2vs0mg"},{"bike_id":"67749e1b-b021-486e-b7dc-b13d847197f5","system_id":"levelo_inurba_marseille","lat":43.309589,"lon":5.390258,"is_reserved":false,"is_disabled":false,"rental_uris":{"android":"levelo://app?vid=67749e1b-b021-486e-b7dc-b13d847197f5","ios":"levelo://app?vid=67749e1b-b021-486e-b7dc-b13d847197f5"},"vehicle_type_id":"4","last_reported":1708203943,"current_range_meters":1600,"station_id":"ce4bgup2rcd13ifvqco0","pricing_plan_id":"cebpf4jnsgd1na2vs0mg"},{"bike_id":"ed87d69f-71e3-4a80-a6a0-6a1355afd957","system_id":"levelo_inurba_marseille","lat":43.31759,"lon":5.39014,"is_reserved":false,"is_disabled":false,"rental_uris":{"android":"levelo://app?vid=ed87d69f-71e3-4a80-a6a0-6a1355afd957","ios":"levelo://app?vid=ed87d69f-71e3-4a80-a6a0-6a1355afd957"},"vehicle_type_id":"4","last_reported":1708203943,"current_range_meters":10000,"station_id":"ce4bhqp2rcd13ifvqhng","pricing_plan_id":"cebpf4jnsgd1na2vs0mg"},{"bike_id":"b3dcb9ba-bf07-48c1-aada-2fbdb761a352","system_id":"levelo_inurba_marseille","lat":43.317557,"lon":5.390173,"is_reserved":false,"is_disabled":false,"rental_uris":{"android":"levelo://app?vid=b3dcb9ba-bf07-48c1-aada-2fbdb761a352","ios":"levelo://app?vid=b3dcb9ba-bf07-48c1-aada-2fbdb761a352"},"vehicle_type_id":"4","last_reported":1708203943,"current_range_meters":31200,"station_id":"ce4bhqp2rcd13ifvqhng","pricing_plan_id":"cebpf4jnsgd1na2vs0mg"},{"bike_id":"e71aad95-e785-4fac-9d74-e2b56468f77a","system_id":"levelo_inurba_marseille","lat":43.317557,"lon":5.390173,"is_reserved":false,"is_disabled":false,"rental_uris":{"android":"levelo://app?vid=e71aad95-e785-4fac-9d74-e2b56468f77a","ios":"levelo://app?vid=e71aad95-e785-4fac-9d74-e2b56468f77a"},"vehicle_type_id":"4","last_reported":1708203943,"current_range_meters":30000,"station_id":"ce4bhqp2rcd13ifvqhng","pricing_plan_id":"cebpf4jnsgd1na2vs0mg"},{"bike_id":"d3eb4e20-942b-4a5d-aeff-a8d25ff92686","system_id":"levelo_inurba_marseille","lat":43.295748,"lon":5.37522,"is_reserved":false,"is_disabled":false,"rental_uris":{"android":"levelo://app?vid=d3eb4e20-942b-4a5d-aeff-a8d25ff92686","ios":"levelo://app?vid=d3eb4e20-942b-4a5d-aeff-a8d25ff92686"},"vehicle_type_id":"4","last_reported":1708203943,"current_range_meters":29200,"station_id":"ce4bgh92rcd13ifvqb50","pricing_plan_id":"cebpf4jnsgd1na2vs0mg"},{"bike_id":"a7738896-ddec-491d-8072-e701901114ec","system_id":"levelo_inurba_marseille","lat":43.30438,"lon":5.38882,"is_reserved":false,"is_disabled":false,"rental_uris":{"android":"levelo://app?vid=a7738896-ddec-491d-8072-e701901114ec","ios":"levelo://app?vid=a7738896-ddec-491d-8072-e701901114ec"},"vehicle_type_id":"4","last_reported":1708203943,"current_range_meters":18400,"station_id":"ce4bgk12rcd13ifvqbi0","pricing_plan_id":"cebpf4jnsgd1na2vs0mg"},{"bike_id":"70364fd0-4f5e-43ff-8333-13ae716fdd53","system_id":"levelo_inurba_marseille","lat":43.30437,"lon":5.388829,"is_reserved":false,"is_disabled":false,"rental_uris":{"android":"levelo://app?vid=70364fd0-4f5e-43ff-8333-13ae716fdd53","ios":"levelo://app?vid=70364fd0-4f5e-43ff-8333-13ae716fdd53"},"vehicle_type_id":"4","last_reported":1708203943,"current_range_meters":8400,"station_id":"ce4bgk12rcd13ifvqbi0","pricing_plan_id":"cebpf4jnsgd1na2vs0mg"},{"bike_id":"ba218857-884c-417c-a22f-649dd993d974","system_id":"levelo_inurba_marseille","lat":43.3043,"lon":5.38878,"is_reserved":false,"is_disabled":false,"rental_uris":{"android":"levelo://app?vid=ba218857-884c-417c-a22f-649dd993d974","ios":"levelo://app?vid=ba218857-884c-417c-a22f-649dd993d974"},"vehicle_type_id":"4","last_reported":1708203943,"current_range_meters":15600,"station_id":"ce4bgk12rcd13ifvqbi0","pricing_plan_id":"cebpf4jnsgd1na2vs0mg"},{"bike_id":"4f539381-a669-4113-97c1-ae336b946123","system_id":"levelo_inurba_marseille","lat":43.304278,"lon":5.388868,"is_reserved":false,"is_disabled":false,"rental_uris":{"android":"levelo://app?vid=4f539381-a669-4113-97c1-ae336b946123","ios":"levelo://app?vid=4f539381-a669-4113-97c1-ae336b946123"},"vehicle_type_id":"4","last_reported":1708203943,"current_range_meters":8400,"station_id":"ce4bgk12rcd13ifvqbi0","pricing_plan_id":"cebpf4jnsgd1na2vs0mg"},{"bike_id":"5dd237aa-b5e1-4bcf-a904-09adbeaaaccb","system_id":"levelo_inurba_marseille","lat":43.304278,"lon":5.388868,"is_reserved":false,"is_disabled":false,"rental_uris":{"android":"levelo://app?vid=5dd237aa-b5e1-4bcf-a904-09adbeaaaccb","ios":"levelo://app?vid=5dd237aa-b5e1-4bcf-a904-09adbeaaaccb"},"vehicle_type_id":"4","last_reported":1708203943,"current_range_meters":8000,"station_id":"ce4bgk12rcd13ifvqbi0","pricing_plan_id":"cebpf4jnsgd1na2vs0mg"},{"bike_id":"28b8e481-b150-44c6-9d21-8a58b5997ea7","system_id":"levelo_inurba_marseille","lat":43.304342,"lon":5.388908,"is_reserved":false,"is_disabled":false,"rental_uris":{"android":"levelo://app?vid=28b8e481-b150-44c6-9d21-8a58b5997ea7","ios":"levelo://app?vid=28b8e481-b150-44c6-9d21-8a58b5997ea7"},"vehicle_type_id":"4","last_reported":1708203943,"current_range_meters":16800,"station_id":"ce4bgk12rcd13ifvqbi0","pricing_plan_id":"cebpf4jnsgd1na2vs0mg"},{"bike_id":"275e3b6a-34a0-4db9-a4be-c87df08b7046","system_id":"levelo_inurba_marseille","lat":43.297901,"lon":5.381087,"is_reserved":false,"is_disabled":false,"rental_uris":{"android":"levelo://app?vid=275e3b6a-34a0-4db9-a4be-c87df08b7046","ios":"levelo://app?vid=275e3b6a-34a0-4db9-a4be-c87df08b7046"},"vehicle_type_id":"4","last_reported":1708203943,"current_range_meters":8400,"station_id":"ce4bgip2rcd13ifvqbb0","pricing_plan_id":"cebpf4jnsgd1na2vs0mg"},{"bike_id":"68319549-4edd-4cab-a0fe-5314868a0616","system_id":"levelo_inurba_marseille","lat":43.304278,"lon":5.388868,"is_reserved":false,"is_disabled":false,"rental_uris":{"android":"levelo://app?vid=68319549-4edd-4cab-a0fe-5314868a0616","ios":"levelo://app?vid=68319549-4edd-4cab-a0fe-5314868a0616"},"vehicle_type_id":"4","last_reported":1708203943,"current_range_meters":10000,"station_id":"ce4bgk12rcd13ifvqbi0","pricing_plan_id":"cebpf4jnsgd1na2vs0mg"},{"bike_id":"f81596de-199d-4dcf-a8f8-b1ac60f2a782","system_id":"levelo_inurba_marseille","lat":43.297905,"lon":5.38115,"is_reserved":false,"is_disabled":false,"rental_uris":{"android":"levelo://app?vid=f81596de-199d-4dcf-a8f8-b1ac60f2a782","ios":"levelo://app?vid=f81596de-199d-4dcf-a8f8-b1ac60f2a782"},"vehicle_type_id":"4","last_reported":1708203943,"current_range_meters":800,"station_id":"ce4bgip2rcd13ifvqbb0","pricing_plan_id":"cebpf4jnsgd1na2vs0mg"},{"bike_id":"5ba8b571-e42f-4855-9568-4082d3d986d3","system_id":"levelo_inurba_marseille","lat":43.297868,"lon":5.381082,"is_reserved":false,"is_disabled":false,"rental_uris":{"android":"levelo://app?vid=5ba8b571-e42f-4855-9568-4082d3d986d3","ios":"levelo://app?vid=5ba8b571-e42f-4855-9568-4082d3d986d3"},"vehicle_type_id":"4","last_reported":1708203943,"current_range_meters":31200,"station_id":"ce4bgip2rcd13ifvqbb0","pricing_plan_id":"cebpf4jnsgd1na2vs0mg"},{"bike_id":"c54dbb7b-5153-4a69-9f1c-205b1a4bccaf","system_id":"levelo_inurba_marseille","lat":43.304278,"lon":5.388868,"is_reserved":false,"is_disabled":false,"rental_uris":{"android":"levelo://app?vid=c54dbb7b-5153-4a69-9f1c-205b1a4bccaf","ios":"levelo://app?vid=c54dbb7b-5153-4a69-9f1c-205b1a4bccaf"},"vehicle_type_id":"4","last_reported":1708203943,"current_range_meters":6000,"station_id":"ce4bgk12rcd13ifvqbi0","pricing_plan_id":"cebpf4jnsgd1na2vs0mg"},{"bike_id":"30feaa37-fe7a-45ff-af3e-89f688174a28","system_id":"levelo_inurba_marseille","lat":43.30432,"lon":5.38897,"is_reserved":false,"is_disabled":false,"rental_uris":{"android":"levelo://app?vid=30feaa37-fe7a-45ff-af3e-89f688174a28","ios":"levelo://app?vid=30feaa37-fe7a-45ff-af3e-89f688174a28"},"vehicle_type_id":"4","last_reported":1708203943,"current_range_meters":0,"station_id":"ce4bgk12rcd13ifvqbi0","pricing_plan_id":"cebpf4jnsgd1na2vs0mg"},{"bike_id":"ee66f163-7275-43ee-b495-d2bc6d626d08","system_id":"levelo_inurba_marseille","lat":43.2956,"lon":5.37503,"is_reserved":false,"is_disabled":false,"rental_uris":{"android":"levelo://app?vid=ee66f163-7275-43ee-b495-d2bc6d626d08","ios":"levelo://app?vid=ee66f163-7275-43ee-b495-d2bc6d626d08"},"vehicle_type_id":"4","last_reported":1708203943,"current_range_meters":24400,"station_id":"ce4bgh92rcd13ifvqb50","pricing_plan_id":"cebpf4jnsgd1na2vs0mg"},{"bike_id":"6309a0a0-b923-4983-aedb-afd2fd3f7488","system_id":"levelo_inurba_marseille","lat":43.296277,"lon":5.377108,"is_reserved":false,"is_disabled":false,"rental_uris":{"android":"levelo://app?vid=6309a0a0-b923-4983-aedb-afd2fd3f7488","ios":"levelo://app?vid=6309a0a0-b923-4983-aedb-afd2fd3f7488"},"vehicle_type_id":"4","last_reported":1708203943,"current_range_meters":14800,"station_id":"ce4bgi92rcd13ifvqb90","pricing_plan_id":"cebpf4jnsgd1na2vs0mg"},{"bike_id":"fc9c8770-e05a-4506-83da-3b108b883a84","system_id":"levelo_inurba_marseille","lat":43.304278,"lon":5.388868,"is_reserved":false,"is_disabled":false,"rental_uris":{"android":"levelo://app?vid=fc9c8770-e05a-4506-83da-3b108b883a84","ios":"levelo://app?vid=fc9c8770-e05a-4506-83da-3b108b883a84"},"vehicle_type_id":"4","last_reported":1708203943,"current_range_meters":7200,"station_id":"ce4bgk12rcd13ifvqbi0","pricing_plan_id":"cebpf4jnsgd1na2vs0mg"},{"bike_id":"1ea0c83b-b5f9-447a-ad35-527880f09372","system_id":"levelo_inurba_marseille","lat":43.296277,"lon":5.377108,"is_reserved":false,"is_disabled":false,"rental_uris":{"android":"levelo://app?vid=1ea0c83b-b5f9-447a-ad35-527880f09372","ios":"levelo://app?vid=1ea0c83b-b5f9-447a-ad35-527880f09372"},"vehicle_type_id":"4","last_reported":1708203943,"current_range_meters":6000,"station_id":"ce4bgi92rcd13ifvqb90","pricing_plan_id":"cebpf4jnsgd1na2vs0mg"},{"bike_id":"6c808f24-c849-4308-bf69-804be04eb79c","system_id":"levelo_inurba_marseille","lat":43.296263,"lon":5.377094,"is_reserved":false,"is_disabled":false,"rental_uris":{"android":"levelo://app?vid=6c808f24-c849-4308-bf69-804be04eb79c","ios":"levelo://app?vid=6c808f24-c849-4308-bf69-804be04eb79c"},"vehicle_type_id":"4","last_reported":1708203943,"current_range_meters":9200,"station_id":"ce4bgi92rcd13ifvqb90","pricing_plan_id":"cebpf4jnsgd1na2vs0mg"},{"bike_id":"f4253158-18cf-4e67-8a48-84e09c418d10","system_id":"levelo_inurba_marseille","lat":43.29609,"lon":5.37732,"is_reserved":false,"is_disabled":false,"rental_uris":{"android":"levelo://app?vid=f4253158-18cf-4e67-8a48-84e09c418d10","ios":"levelo://app?vid=f4253158-18cf-4e67-8a48-84e09c418d10"},"vehicle_type_id":"4","last_reported":1708203943,"current_range_meters":22800,"station_id":"ce4bgi92rcd13ifvqb90","pricing_plan_id":"cebpf4jnsgd1na2vs0mg"},{"bike_id":"d01c9c48-da3b-4411-a9a7-0c99bf85caa5","system_id":"levelo_inurba_marseille","lat":43.296263,"lon":5.377094,"is_reserved":false,"is_disabled":false,"rental_uris":{"android":"levelo://app?vid=d01c9c48-da3b-4411-a9a7-0c99bf85caa5","ios":"levelo://app?vid=d01c9c48-da3b-4411-a9a7-0c99bf85caa5"},"vehicle_type_id":"4","last_reported":1708203943,"current_range_meters":13600,"station_id":"ce4bgi92rcd13ifvqb90","pricing_plan_id":"cebpf4jnsgd1na2vs0mg"},{"bike_id":"ad93f34b-b60d-4d52-a324-e22ac58cfff1","system_id":"levelo_inurba_marseille","lat":43.29538,"lon":5.37503,"is_reserved":false,"is_disabled":false,"rental_uris":{"android":"levelo://app?vid=ad93f34b-b60d-4d52-a324-e22ac58cfff1","ios":"levelo://app?vid=ad93f34b-b60d-4d52-a324-e22ac58cfff1"},"vehicle_type_id":"4","last_reported":1708203943,"current_range_meters":2000,"station_id":"ce4bgkp2rcd13ifvqbmg","pricing_plan_id":"cebpf4jnsgd1na2vs0mg"},{"bike_id":"8871bf84-23f1-454e-85de-c8ded78bc254","system_id":"levelo_inurba_marseille","lat":43.29984,"lon":5.38484,"is_reserved":false,"is_disabled":false,"rental_uris":{"android":"levelo://app?vid=8871bf84-23f1-454e-85de-c8ded78bc254","ios":"levelo://app?vid=8871bf84-23f1-454e-85de-c8ded78bc254"},"vehicle_type_id":"4","last_reported":1708203943,"current_range_meters":28000,"station_id":"ce4bgj92rcd13ifvqbd0","pricing_plan_id":"cebpf4jnsgd1na2vs0mg"},{"bike_id":"c4e05019-0fcc-42af-813d-190e6fb1cb3d","system_id":"levelo_inurba_marseille","lat":43.29978,"lon":5.38483,"is_reserved":false,"is_disabled":false,"rental_uris":{"android":"levelo://app?vid=c4e05019-0fcc-42af-813d-190e6fb1cb3d","ios":"levelo://app?vid=c4e05019-0fcc-42af-813d-190e6fb1cb3d"},"vehicle_type_id":"4","last_reported":1708203943,"current_range_meters":2000,"station_id":"ce4bgj92rcd13ifvqbd0","pricing_plan_id":"cebpf4jnsgd1na2vs0mg"},{"bike_id":"a38a76e4-fe81-4c40-92b5-c970e6264375","system_id":"levelo_inurba_marseille","lat":43.299761,"lon":5.384836,"is_reserved":false,"is_disabled":false,"rental_uris":{"android":"levelo://app?vid=a38a76e4-fe81-4c40-92b5-c970e6264375","ios":"levelo://app?vid=a38a76e4-fe81-4c40-92b5-c970e6264375"},"vehicle_type_id":"4","last_reported":1708203943,"current_range_meters":11600,"station_id":"ce4bgj92rcd13ifvqbd0","pricing_plan_id":"cebpf4jnsgd1na2vs0mg"},{"bike_id":"4fbe66ae-ea58-4559-a992-bfdf3b1b90df","system_id":"levelo_inurba_marseille","lat":43.29976,"lon":5.38486,"is_reserved":false,"is_disabled":false,"rental_uris":{"android":"levelo://app?vid=4fbe66ae-ea58-4559-a992-bfdf3b1b90df","ios":"levelo://app?vid=4fbe66ae-ea58-4559-a992-bfdf3b1b90df"},"vehicle_type_id":"4","last_reported":1708203943,"current_range_meters":1200,"station_id":"ce4bgj92rcd13ifvqbd0","pricing_plan_id":"cebpf4jnsgd1na2vs0mg"},{"bike_id":"efd09c1b-868e-4d14-a60f-4c49f3e4e4c9","system_id":"levelo_inurba_marseille","lat":43.29977,"lon":5.384885,"is_reserved":false,"is_disabled":false,"rental_uris":{"android":"levelo://app?vid=efd09c1b-868e-4d14-a60f-4c49f3e4e4c9","ios":"levelo://app?vid=efd09c1b-868e-4d14-a60f-4c49f3e4e4c9"},"vehicle_type_id":"4","last_reported":1708203943,"current_range_meters":30400,"station_id":"ce4bgj92rcd13ifvqbd0","pricing_plan_id":"cebpf4jnsgd1na2vs0mg"},{"bike_id":"f56fffd9-8003-4072-96e2-da6d25b9fc1e","system_id":"levelo_inurba_marseille","lat":43.29977,"lon":5.38491,"is_reserved":false,"is_disabled":false,"rental_uris":{"android":"levelo://app?vid=f56fffd9-8003-4072-96e2-da6d25b9fc1e","ios":"levelo://app?vid=f56fffd9-8003-4072-96e2-da6d25b9fc1e"},"vehicle_type_id":"4","last_reported":1708203943,"current_range_meters":16800,"station_id":"ce4bgj92rcd13ifvqbd0","pricing_plan_id":"cebpf4jnsgd1na2vs0mg"},{"bike_id":"83902803-4c8f-4713-8c60-49e354bd1fcf","system_id":"levelo_inurba_marseille","lat":43.299707,"lon":5.384859,"is_reserved":false,"is_disabled":false,"rental_uris":{"android":"levelo://app?vid=83902803-4c8f-4713-8c60-49e354bd1fcf","ios":"levelo://app?vid=83902803-4c8f-4713-8c60-49e354bd1fcf"},"vehicle_type_id":"4","last_reported":1708203943,"current_range_meters":23600,"station_id":"ce4bgj92rcd13ifvqbd0","pricing_plan_id":"cebpf4jnsgd1na2vs0mg"},{"bike_id":"c952d4b9-4c29-4572-a8ff-df2c6ac2f1e8","system_id":"levelo_inurba_marseille","lat":43.299717,"lon":5.384845,"is_reserved":false,"is_disabled":false,"rental_uris":{"android":"levelo://app?vid=c952d4b9-4c29-4572-a8ff-df2c6ac2f1e8","ios":"levelo://app?vid=c952d4b9-4c29-4572-a8ff-df2c6ac2f1e8"},"vehicle_type_id":"4","last_reported":1708203943,"current_range_meters":30000,"station_id":"ce4bgj92rcd13ifvqbd0","pricing_plan_id":"cebpf4jnsgd1na2vs0mg"},{"bike_id":"bf0a5ef4-7762-484e-8fc0-19bd0ed68a25","system_id":"levelo_inurba_marseille","lat":43.299717,"lon":5.384845,"is_reserved":false,"is_disabled":false,"rental_uris":{"android":"levelo://app?vid=bf0a5ef4-7762-484e-8fc0-19bd0ed68a25","ios":"levelo://app?vid=bf0a5ef4-7762-484e-8fc0-19bd0ed68a25"},"vehicle_type_id":"4","last_reported":1708203943,"current_range_meters":19200,"station_id":"ce4bgj92rcd13ifvqbd0","pricing_plan_id":"cebpf4jnsgd1na2vs0mg"},{"bike_id":"05394b98-fad3-400b-8d23-1ec24c1dd69e","system_id":"levelo_inurba_marseille","lat":43.29526,"lon":5.37506,"is_reserved":false,"is_disabled":false,"rental_uris":{"android":"levelo://app?vid=05394b98-fad3-400b-8d23-1ec24c1dd69e","ios":"levelo://app?vid=05394b98-fad3-400b-8d23-1ec24c1dd69e"},"vehicle_type_id":"4","last_reported":1708203943,"current_range_meters":5600,"station_id":"ce4bgkp2rcd13ifvqbmg","pricing_plan_id":"cebpf4jnsgd1na2vs0mg"},{"bike_id":"c46d2697-082f-4565-a244-c01a162f19f5","system_id":"levelo_inurba_marseille","lat":43.299709,"lon":5.384889,"is_reserved":false,"is_disabled":false,"rental_uris":{"android":"levelo://app?vid=c46d2697-082f-4565-a244-c01a162f19f5","ios":"levelo://app?vid=c46d2697-082f-4565-a244-c01a162f19f5"},"vehicle_type_id":"4","last_reported":1708203943,"current_range_meters":11600,"station_id":"ce4bgj92rcd13ifvqbd0","pricing_plan_id":"cebpf4jnsgd1na2vs0mg"},{"bike_id":"c9056f14-78c3-4b2a-8c31-e8d91419346c","system_id":"levelo_inurba_marseille","lat":43.29975,"lon":5.384957,"is_reserved":false,"is_disabled":false,"rental_uris":{"android":"levelo://app?vid=c9056f14-78c3-4b2a-8c31-e8d91419346c","ios":"levelo://app?vid=c9056f14-78c3-4b2a-8c31-e8d91419346c"},"vehicle_type_id":"4","last_reported":1708203943,"current_range_meters":4400,"station_id":"ce4bgj92rcd13ifvqbd0","pricing_plan_id":"cebpf4jnsgd1na2vs0mg"},{"bike_id":"822791dd-a87e-48d9-8182-b0cf3da46db9","system_id":"levelo_inurba_marseille","lat":43.299717,"lon":5.384845,"is_reserved":false,"is_disabled":false,"rental_uris":{"android":"levelo://app?vid=822791dd-a87e-48d9-8182-b0cf3da46db9","ios":"levelo://app?vid=822791dd-a87e-48d9-8182-b0cf3da46db9"},"vehicle_type_id":"4","last_reported":1708203943,"current_range_meters":26400,"station_id":"ce4bgj92rcd13ifvqbd0","pricing_plan_id":"cebpf4jnsgd1na2vs0mg"},{"bike_id":"3c10812e-8a8b-468f-ab34-8f19d1f5cdf2","system_id":"levelo_inurba_marseille","lat":43.2997,"lon":5.38498,"is_reserved":false,"is_disabled":false,"rental_uris":{"android":"levelo://app?vid=3c10812e-8a8b-468f-ab34-8f19d1f5cdf2","ios":"levelo://app?vid=3c10812e-8a8b-468f-ab34-8f19d1f5cdf2"},"vehicle_type_id":"4","last_reported":1708203943,"current_range_meters":10000,"station_id":"ce4bgj92rcd13ifvqbd0","pricing_plan_id":"cebpf4jnsgd1na2vs0mg"},{"bike_id":"3d21b83e-c288-44dc-8854-e001b2626baf","system_id":"levelo_inurba_marseille","lat":43.29969,"lon":5.38497,"is_reserved":false,"is_disabled":false,"rental_uris":{"android":"levelo://app?vid=3d21b83e-c288-44dc-8854-e001b2626baf","ios":"levelo://app?vid=3d21b83e-c288-44dc-8854-e001b2626baf"},"vehicle_type_id":"4","last_reported":1708203943,"current_range_meters":27200,"station_id":"ce4bgj92rcd13ifvqbd0","pricing_plan_id":"cebpf4jnsgd1na2vs0mg"},{"bike_id":"7c65a84e-8aee-4302-854f-34ab5ac914ee","system_id":"levelo_inurba_marseille","lat":43.299717,"lon":5.384845,"is_reserved":false,"is_disabled":false,"rental_uris":{"android":"levelo://app?vid=7c65a84e-8aee-4302-854f-34ab5ac914ee","ios":"levelo://app?vid=7c65a84e-8aee-4302-854f-34ab5ac914ee"},"vehicle_type_id":"4","last_reported":1708203943,"current_range_meters":15600,"station_id":"ce4bgj92rcd13ifvqbd0","pricing_plan_id":"cebpf4jnsgd1na2vs0mg"},{"bike_id":"3e3a6255-1106-4bab-82ce-c208bbb9b69c","system_id":"levelo_inurba_marseille","lat":43.29963,"lon":5.38495,"is_reserved":false,"is_disabled":false,"rental_uris":{"android":"levelo://app?vid=3e3a6255-1106-4bab-82ce-c208bbb9b69c","ios":"levelo://app?vid=3e3a6255-1106-4bab-82ce-c208bbb9b69c"},"vehicle_type_id":"4","last_reported":1708203943,"current_range_meters":4000,"station_id":"ce4bgj92rcd13ifvqbd0","pricing_plan_id":"cebpf4jnsgd1na2vs0mg"},{"bike_id":"9fe1bd36-f6cd-4668-982b-ad595c8bd62c","system_id":"levelo_inurba_marseille","lat":43.29963,"lon":5.38503,"is_reserved":false,"is_disabled":false,"rental_uris":{"android":"levelo://app?vid=9fe1bd36-f6cd-4668-982b-ad595c8bd62c","ios":"levelo://app?vid=9fe1bd36-f6cd-4668-982b-ad595c8bd62c"},"vehicle_type_id":"4","last_reported":1708203943,"current_range_meters":14800,"station_id":"ce4bgj92rcd13ifvqbd0","pricing_plan_id":"cebpf4jnsgd1na2vs0mg"},{"bike_id":"0f23b33e-15ee-4a28-a8f1-a8011ed8f504","system_id":"levelo_inurba_marseille","lat":43.29966,"lon":5.3851,"is_reserved":false,"is_disabled":false,"rental_uris":{"android":"levelo://app?vid=0f23b33e-15ee-4a28-a8f1-a8011ed8f504","ios":"levelo://app?vid=0f23b33e-15ee-4a28-a8f1-a8011ed8f504"},"vehicle_type_id":"4","last_reported":1708203943,"current_range_meters":0,"station_id":"ce4bgj92rcd13ifvqbd0","pricing_plan_id":"cebpf4jnsgd1na2vs0mg"},{"bike_id":"9d993f1a-927d-4286-879b-ac09dc01bad2","system_id":"levelo_inurba_marseille","lat":43.32367,"lon":5.388836,"is_reserved":false,"is_disabled":false,"rental_uris":{"android":"levelo://app?vid=9d993f1a-927d-4286-879b-ac09dc01bad2","ios":"levelo://app?vid=9d993f1a-927d-4286-879b-ac09dc01bad2"},"vehicle_type_id":"4","last_reported":1708203943,"current_range_meters":3200,"station_id":"ce4bhqp2rcd13ifvqhog","pricing_plan_id":"cebpf4jnsgd1na2vs0mg"},{"bike_id":"e9fb838e-b288-41f7-8b95-04552e228ee4","system_id":"levelo_inurba_marseille","lat":43.32362,"lon":5.38885,"is_reserved":false,"is_disabled":false,"rental_uris":{"android":"levelo://app?vid=e9fb838e-b288-41f7-8b95-04552e228ee4","ios":"levelo://app?vid=e9fb838e-b288-41f7-8b95-04552e228ee4"},"vehicle_type_id":"4","last_reported":1708203943,"current_range_meters":800,"station_id":"ce4bhqp2rcd13ifvqhog","pricing_plan_id":"cebpf4jnsgd1na2vs0mg"},{"bike_id":"04bef4fc-f501-41bd-9104-a149c6db62aa","system_id":"levelo_inurba_marseille","lat":43.32372,"lon":5.38882,"is_reserved":false,"is_disabled":false,"rental_uris":{"android":"levelo://app?vid=04bef4fc-f501-41bd-9104-a149c6db62aa","ios":"levelo://app?vid=04bef4fc-f501-41bd-9104-a149c6db62aa"},"vehicle_type_id":"4","last_reported":1708203943,"current_range_meters":10000,"station_id":"ce4bhqp2rcd13ifvqhog","pricing_plan_id":"cebpf4jnsgd1na2vs0mg"},{"bike_id":"85b7d3f5-0fa2-43f3-a410-8e41ce1cabfc","system_id":"levelo_inurba_marseille","lat":43.3237,"lon":5.38884,"is_reserved":false,"is_disabled":false,"rental_uris":{"android":"levelo://app?vid=85b7d3f5-0fa2-43f3-a410-8e41ce1cabfc","ios":"levelo://app?vid=85b7d3f5-0fa2-43f3-a410-8e41ce1cabfc"},"vehicle_type_id":"4","last_reported":1708203943,"current_range_meters":6800,"station_id":"ce4bhqp2rcd13ifvqhog","pricing_plan_id":"cebpf4jnsgd1na2vs0mg"},{"bike_id":"0098d705-b974-41dc-a726-5e5b8f8af6cf","system_id":"levelo_inurba_marseille","lat":43.32367,"lon":5.388836,"is_reserved":false,"is_disabled":false,"rental_uris":{"android":"levelo://app?vid=0098d705-b974-41dc-a726-5e5b8f8af6cf","ios":"levelo://app?vid=0098d705-b974-41dc-a726-5e5b8f8af6cf"},"vehicle_type_id":"4","last_reported":1708203943,"current_range_meters":16000,"station_id":"ce4bhqp2rcd13ifvqhog","pricing_plan_id":"cebpf4jnsgd1na2vs0mg"},{"bike_id":"11f16d73-52cf-4b59-8120-4e257d4d363b","system_id":"levelo_inurba_marseille","lat":43.32367,"lon":5.388836,"is_reserved":false,"is_disabled":false,"rental_uris":{"android":"levelo://app?vid=11f16d73-52cf-4b59-8120-4e257d4d363b","ios":"levelo://app?vid=11f16d73-52cf-4b59-8120-4e257d4d363b"},"vehicle_type_id":"4","last_reported":1708203943,"current_range_meters":7200,"station_id":"ce4bhqp2rcd13ifvqhog","pricing_plan_id":"cebpf4jnsgd1na2vs0mg"},{"bike_id":"097fbc68-0e12-4cda-a32c-f9f7e74ee0ed","system_id":"levelo_inurba_marseille","lat":43.3237,"lon":5.388859,"is_reserved":false,"is_disabled":false,"rental_uris":{"android":"levelo://app?vid=097fbc68-0e12-4cda-a32c-f9f7e74ee0ed","ios":"levelo://app?vid=097fbc68-0e12-4cda-a32c-f9f7e74ee0ed"},"vehicle_type_id":"4","last_reported":1708203943,"current_range_meters":5200,"station_id":"ce4bhqp2rcd13ifvqhog","pricing_plan_id":"cebpf4jnsgd1na2vs0mg"},{"bike_id":"6af73b7c-3333-47f9-9c52-fb4e2c063bc2","system_id":"levelo_inurba_marseille","lat":43.32367,"lon":5.388836,"is_reserved":false,"is_disabled":false,"rental_uris":{"android":"levelo://app?vid=6af73b7c-3333-47f9-9c52-fb4e2c063bc2","ios":"levelo://app?vid=6af73b7c-3333-47f9-9c52-fb4e2c063bc2"},"vehicle_type_id":"4","last_reported":1708203943,"current_range_meters":10000,"station_id":"ce4bhqp2rcd13ifvqhog","pricing_plan_id":"cebpf4jnsgd1na2vs0mg"},{"bike_id":"9d871f50-0327-4348-a9da-d10b72178825","system_id":"levelo_inurba_marseille","lat":43.323682,"lon":5.388892,"is_reserved":false,"is_disabled":false,"rental_uris":{"android":"levelo://app?vid=9d871f50-0327-4348-a9da-d10b72178825","ios":"levelo://app?vid=9d871f50-0327-4348-a9da-d10b72178825"},"vehicle_type_id":"4","last_reported":1708203943,"current_range_meters":22800,"station_id":"ce4bhqp2rcd13ifvqhog","pricing_plan_id":"cebpf4jnsgd1na2vs0mg"},{"bike_id":"4fc62dd6-58a0-426e-a230-ca4ed6a44e1f","system_id":"levelo_inurba_marseille","lat":43.29602,"lon":5.381084,"is_reserved":false,"is_disabled":false,"rental_uris":{"android":"levelo://app?vid=4fc62dd6-58a0-426e-a230-ca4ed6a44e1f","ios":"levelo://app?vid=4fc62dd6-58a0-426e-a230-ca4ed6a44e1f"},"vehicle_type_id":"4","last_reported":1708203943,"current_range_meters":28400,"station_id":"ce4bgl12rcd13ifvqbo0","pricing_plan_id":"cebpf4jnsgd1na2vs0mg"},{"bike_id":"e3633733-c4eb-42f9-8eee-9833c39b5588","system_id":"levelo_inurba_marseille","lat":43.29602,"lon":5.381084,"is_reserved":false,"is_disabled":false,"rental_uris":{"android":"levelo://app?vid=e3633733-c4eb-42f9-8eee-9833c39b5588","ios":"levelo://app?vid=e3633733-c4eb-42f9-8eee-9833c39b5588"},"vehicle_type_id":"4","last_reported":1708203943,"current_range_meters":4800,"station_id":"ce4bgl12rcd13ifvqbo0","pricing_plan_id":"cebpf4jnsgd1na2vs0mg"},{"bike_id":"43dadf67-5abc-4eb0-a9f2-ff86054c3c4f","system_id":"levelo_inurba_marseille","lat":43.29601,"lon":5.381084,"is_reserved":false,"is_disabled":false,"rental_uris":{"android":"levelo://app?vid=43dadf67-5abc-4eb0-a9f2-ff86054c3c4f","ios":"levelo://app?vid=43dadf67-5abc-4eb0-a9f2-ff86054c3c4f"},"vehicle_type_id":"4","last_reported":1708203943,"current_range_meters":24000,"station_id":"ce4bgl12rcd13ifvqbo0","pricing_plan_id":"cebpf4jnsgd1na2vs0mg"},{"bike_id":"3f71e100-cc9a-4018-a31f-06d56fc75032","system_id":"levelo_inurba_marseille","lat":43.296013,"lon":5.380963,"is_reserved":false,"is_disabled":false,"rental_uris":{"android":"levelo://app?vid=3f71e100-cc9a-4018-a31f-06d56fc75032","ios":"levelo://app?vid=3f71e100-cc9a-4018-a31f-06d56fc75032"},"vehicle_type_id":"4","last_reported":1708203943,"current_range_meters":9600,"station_id":"ce4bgl12rcd13ifvqbo0","pricing_plan_id":"cebpf4jnsgd1na2vs0mg"},{"bike_id":"3486c5e9-a82a-459a-9d3d-1fbc5823dd99","system_id":"levelo_inurba_marseille","lat":43.29602,"lon":5.381084,"is_reserved":false,"is_disabled":false,"rental_uris":{"android":"levelo://app?vid=3486c5e9-a82a-459a-9d3d-1fbc5823dd99","ios":"levelo://app?vid=3486c5e9-a82a-459a-9d3d-1fbc5823dd99"},"vehicle_type_id":"4","last_reported":1708203943,"current_range_meters":3200,"station_id":"ce4bgl12rcd13ifvqbo0","pricing_plan_id":"cebpf4jnsgd1na2vs0mg"},{"bike_id":"f724a652-ed59-47dc-bf4e-118734890076","system_id":"levelo_inurba_marseille","lat":43.29602,"lon":5.381084,"is_reserved":false,"is_disabled":false,"rental_uris":{"android":"levelo://app?vid=f724a652-ed59-47dc-bf4e-118734890076","ios":"levelo://app?vid=f724a652-ed59-47dc-bf4e-118734890076"},"vehicle_type_id":"4","last_reported":1708203943,"current_range_meters":6800,"station_id":"ce4bgl12rcd13ifvqbo0","pricing_plan_id":"cebpf4jnsgd1na2vs0mg"},{"bike_id":"2856c6ed-e762-44e3-9884-fb02d1a70f40","system_id":"levelo_inurba_marseille","lat":43.29602,"lon":5.381084,"is_reserved":false,"is_disabled":false,"rental_uris":{"android":"levelo://app?vid=2856c6ed-e762-44e3-9884-fb02d1a70f40","ios":"levelo://app?vid=2856c6ed-e762-44e3-9884-fb02d1a70f40"},"vehicle_type_id":"4","last_reported":1708203943,"current_range_meters":23600,"station_id":"ce4bgl12rcd13ifvqbo0","pricing_plan_id":"cebpf4jnsgd1na2vs0mg"},{"bike_id":"c3bd6795-9f65-4068-a069-3238261fa124","system_id":"levelo_inurba_marseille","lat":43.29602,"lon":5.381084,"is_reserved":false,"is_disabled":false,"rental_uris":{"android":"levelo://app?vid=c3bd6795-9f65-4068-a069-3238261fa124","ios":"levelo://app?vid=c3bd6795-9f65-4068-a069-3238261fa124"},"vehicle_type_id":"4","last_reported":1708203943,"current_range_meters":31200,"station_id":"ce4bgl12rcd13ifvqbo0","pricing_plan_id":"cebpf4jnsgd1na2vs0mg"},{"bike_id":"dae7c9d4-6fc7-4147-956b-be12210d993a","system_id":"levelo_inurba_marseille","lat":43.29602,"lon":5.381084,"is_reserved":false,"is_disabled":false,"rental_uris":{"android":"levelo://app?vid=dae7c9d4-6fc7-4147-956b-be12210d993a","ios":"levelo://app?vid=dae7c9d4-6fc7-4147-956b-be12210d993a"},"vehicle_type_id":"4","last_reported":1708203943,"current_range_meters":28800,"station_id":"ce4bgl12rcd13ifvqbo0","pricing_plan_id":"cebpf4jnsgd1na2vs0mg"},{"bike_id":"4ef093c4-eb50-4133-b0de-a03ac9618958","system_id":"levelo_inurba_marseille","lat":43.29602,"lon":5.381084,"is_reserved":false,"is_disabled":false,"rental_uris":{"android":"levelo://app?vid=4ef093c4-eb50-4133-b0de-a03ac9618958","ios":"levelo://app?vid=4ef093c4-eb50-4133-b0de-a03ac9618958"},"vehicle_type_id":"4","last_reported":1708203943,"current_range_meters":31200,"station_id":"ce4bgl12rcd13ifvqbo0","pricing_plan_id":"cebpf4jnsgd1na2vs0mg"},{"bike_id":"73f03607-57eb-453f-b85d-72a20a984f8c","system_id":"levelo_inurba_marseille","lat":43.29602,"lon":5.381084,"is_reserved":false,"is_disabled":false,"rental_uris":{"android":"levelo://app?vid=73f03607-57eb-453f-b85d-72a20a984f8c","ios":"levelo://app?vid=73f03607-57eb-453f-b85d-72a20a984f8c"},"vehicle_type_id":"4","last_reported":1708203943,"current_range_meters":7200,"station_id":"ce4bgl12rcd13ifvqbo0","pricing_plan_id":"cebpf4jnsgd1na2vs0mg"},{"bike_id":"3178fdb1-821c-48a6-90ea-d596191c36be","system_id":"levelo_inurba_marseille","lat":43.29601,"lon":5.381084,"is_reserved":false,"is_disabled":false,"rental_uris":{"android":"levelo://app?vid=3178fdb1-821c-48a6-90ea-d596191c36be","ios":"levelo://app?vid=3178fdb1-821c-48a6-90ea-d596191c36be"},"vehicle_type_id":"4","last_reported":1708203943,"current_range_meters":31200,"station_id":"ce4bgl12rcd13ifvqbo0","pricing_plan_id":"cebpf4jnsgd1na2vs0mg"},{"bike_id":"c17dd290-50a4-4282-89ac-f4f18e805a0e","system_id":"levelo_inurba_marseille","lat":43.29601,"lon":5.381084,"is_reserved":false,"is_disabled":false,"rental_uris":{"android":"levelo://app?vid=c17dd290-50a4-4282-89ac-f4f18e805a0e","ios":"levelo://app?vid=c17dd290-50a4-4282-89ac-f4f18e805a0e"},"vehicle_type_id":"4","last_reported":1708203943,"current_range_meters":14800,"station_id":"ce4bgl12rcd13ifvqbo0","pricing_plan_id":"cebpf4jnsgd1na2vs0mg"},{"bike_id":"f5e5027d-41b0-4827-a66f-5ed8f9e7bf03","system_id":"levelo_inurba_marseille","lat":43.29601,"lon":5.381084,"is_reserved":false,"is_disabled":false,"rental_uris":{"android":"levelo://app?vid=f5e5027d-41b0-4827-a66f-5ed8f9e7bf03","ios":"levelo://app?vid=f5e5027d-41b0-4827-a66f-5ed8f9e7bf03"},"vehicle_type_id":"4","last_reported":1708203943,"current_range_meters":2800,"station_id":"ce4bgl12rcd13ifvqbo0","pricing_plan_id":"cebpf4jnsgd1na2vs0mg"},{"bike_id":"ad1868b3-1685-4472-84e4-5e1d3822caac","system_id":"levelo_inurba_marseille","lat":43.293259,"lon":5.371586,"is_reserved":false,"is_disabled":false,"rental_uris":{"android":"levelo://app?vid=ad1868b3-1685-4472-84e4-5e1d3822caac","ios":"levelo://app?vid=ad1868b3-1685-4472-84e4-5e1d3822caac"},"vehicle_type_id":"4","last_reported":1708203943,"current_range_meters":2000,"station_id":"ce4bgh92rcd13ifvqb40","pricing_plan_id":"cebpf4jnsgd1na2vs0mg"},{"bike_id":"f6fd567d-6075-48ff-991b-4a4e37ab741e","system_id":"levelo_inurba_marseille","lat":43.293259,"lon":5.371586,"is_reserved":false,"is_disabled":false,"rental_uris":{"android":"levelo://app?vid=f6fd567d-6075-48ff-991b-4a4e37ab741e","ios":"levelo://app?vid=f6fd567d-6075-48ff-991b-4a4e37ab741e"},"vehicle_type_id":"4","last_reported":1708203943,"current_range_meters":23200,"station_id":"ce4bgh92rcd13ifvqb40","pricing_plan_id":"cebpf4jnsgd1na2vs0mg"},{"bike_id":"ec1683b1-2001-4251-8b6d-ba38801a68d2","system_id":"levelo_inurba_marseille","lat":43.29273,"lon":5.3684,"is_reserved":false,"is_disabled":false,"rental_uris":{"android":"levelo://app?vid=ec1683b1-2001-4251-8b6d-ba38801a68d2","ios":"levelo://app?vid=ec1683b1-2001-4251-8b6d-ba38801a68d2"},"vehicle_type_id":"4","last_reported":1708203943,"current_range_meters":6000,"station_id":"ce4bhbp2rcd13ifvqesg","pricing_plan_id":"cebpf4jnsgd1na2vs0mg"},{"bike_id":"faa981c6-4ca2-457c-babd-2880310db4ae","system_id":"levelo_inurba_marseille","lat":43.29271,"lon":5.36836,"is_reserved":false,"is_disabled":false,"rental_uris":{"android":"levelo://app?vid=faa981c6-4ca2-457c-babd-2880310db4ae","ios":"levelo://app?vid=faa981c6-4ca2-457c-babd-2880310db4ae"},"vehicle_type_id":"4","last_reported":1708203943,"current_range_meters":0,"station_id":"ce4bhbp2rcd13ifvqesg","pricing_plan_id":"cebpf4jnsgd1na2vs0mg"},{"bike_id":"6b0d9ed6-eda8-498d-b24b-84b894f28630","system_id":"levelo_inurba_marseille","lat":43.29297,"lon":5.37167,"is_reserved":false,"is_disabled":false,"rental_uris":{"android":"levelo://app?vid=6b0d9ed6-eda8-498d-b24b-84b894f28630","ios":"levelo://app?vid=6b0d9ed6-eda8-498d-b24b-84b894f28630"},"vehicle_type_id":"4","last_reported":1708203943,"current_range_meters":0,"station_id":"ce4bgh92rcd13ifvqb40","pricing_plan_id":"cebpf4jnsgd1na2vs0mg"},{"bike_id":"dae9a895-e1c7-42de-809e-aa7941a40398","system_id":"levelo_inurba_marseille","lat":43.29259,"lon":5.36681,"is_reserved":false,"is_disabled":false,"rental_uris":{"android":"levelo://app?vid=dae9a895-e1c7-42de-809e-aa7941a40398","ios":"levelo://app?vid=dae9a895-e1c7-42de-809e-aa7941a40398"},"vehicle_type_id":"4","last_reported":1708203943,"current_range_meters":0,"station_id":"","pricing_plan_id":"cebpf4jnsgd1na2vs0mg"},{"bike_id":"9f7d160e-e77e-4b48-bea5-b71446d2bb61","system_id":"levelo_inurba_marseille","lat":43.293009,"lon":5.374584,"is_reserved":false,"is_disabled":false,"rental_uris":{"android":"levelo://app?vid=9f7d160e-e77e-4b48-bea5-b71446d2bb61","ios":"levelo://app?vid=9f7d160e-e77e-4b48-bea5-b71446d2bb61"},"vehicle_type_id":"4","last_reported":1708203943,"current_range_meters":23600,"station_id":"ce4bgi12rcd13ifvqb70","pricing_plan_id":"cebpf4jnsgd1na2vs0mg"},{"bike_id":"2a8d259e-c0bc-4f77-b782-a57598c7b5ea","system_id":"levelo_inurba_marseille","lat":43.29308,"lon":5.37462,"is_reserved":false,"is_disabled":false,"rental_uris":{"android":"levelo://app?vid=2a8d259e-c0bc-4f77-b782-a57598c7b5ea","ios":"levelo://app?vid=2a8d259e-c0bc-4f77-b782-a57598c7b5ea"},"vehicle_type_id":"4","last_reported":1708203943,"current_range_meters":0,"station_id":"ce4bgi12rcd13ifvqb70","pricing_plan_id":"cebpf4jnsgd1na2vs0mg"},{"bike_id":"1f18b881-49bc-4b8a-a807-17fc7b0956cd","system_id":"levelo_inurba_marseille","lat":43.293009,"lon":5.374584,"is_reserved":false,"is_disabled":false,"rental_uris":{"android":"levelo://app?vid=1f18b881-49bc-4b8a-a807-17fc7b0956cd","ios":"levelo://app?vid=1f18b881-49bc-4b8a-a807-17fc7b0956cd"},"vehicle_type_id":"4","last_reported":1708203943,"current_range_meters":16800,"station_id":"ce4bgi12rcd13ifvqb70","pricing_plan_id":"cebpf4jnsgd1na2vs0mg"},{"bike_id":"a25df67e-6d71-4ba0-bc9c-8cc59aff685a","system_id":"levelo_inurba_marseille","lat":43.30592,"lon":5.39347,"is_reserved":false,"is_disabled":false,"rental_uris":{"android":"levelo://app?vid=a25df67e-6d71-4ba0-bc9c-8cc59aff685a","ios":"levelo://app?vid=a25df67e-6d71-4ba0-bc9c-8cc59aff685a"},"vehicle_type_id":"4","last_reported":1708203943,"current_range_meters":14000,"station_id":"ce4bh0p2rcd13ifvqd80","pricing_plan_id":"cebpf4jnsgd1na2vs0mg"},{"bike_id":"df66b784-01b8-4939-90d9-4aa5bd327719","system_id":"levelo_inurba_marseille","lat":43.293009,"lon":5.374584,"is_reserved":false,"is_disabled":false,"rental_uris":{"android":"levelo://app?vid=df66b784-01b8-4939-90d9-4aa5bd327719","ios":"levelo://app?vid=df66b784-01b8-4939-90d9-4aa5bd327719"},"vehicle_type_id":"4","last_reported":1708203943,"current_range_meters":24000,"station_id":"ce4bgi12rcd13ifvqb70","pricing_plan_id":"cebpf4jnsgd1na2vs0mg"},{"bike_id":"b0e704b6-0bc3-4d8a-ab19-cf437ec4a0c8","system_id":"levelo_inurba_marseille","lat":43.305994,"lon":5.393687,"is_reserved":false,"is_disabled":false,"rental_uris":{"android":"levelo://app?vid=b0e704b6-0bc3-4d8a-ab19-cf437ec4a0c8","ios":"levelo://app?vid=b0e704b6-0bc3-4d8a-ab19-cf437ec4a0c8"},"vehicle_type_id":"4","last_reported":1708203943,"current_range_meters":0,"station_id":"ce4bh0p2rcd13ifvqd80","pricing_plan_id":"cebpf4jnsgd1na2vs0mg"},{"bike_id":"acf81d2a-e7c1-4ae3-9670-a73733ab2b7c","system_id":"levelo_inurba_marseille","lat":43.305994,"lon":5.393687,"is_reserved":false,"is_disabled":false,"rental_uris":{"android":"levelo://app?vid=acf81d2a-e7c1-4ae3-9670-a73733ab2b7c","ios":"levelo://app?vid=acf81d2a-e7c1-4ae3-9670-a73733ab2b7c"},"vehicle_type_id":"4","last_reported":1708203943,"current_range_meters":18400,"station_id":"ce4bh0p2rcd13ifvqd80","pricing_plan_id":"cebpf4jnsgd1na2vs0mg"},{"bike_id":"ed13d655-bd25-44d4-bec5-12d86f0f2091","system_id":"levelo_inurba_marseille","lat":43.293009,"lon":5.374584,"is_reserved":false,"is_disabled":false,"rental_uris":{"android":"levelo://app?vid=ed13d655-bd25-44d4-bec5-12d86f0f2091","ios":"levelo://app?vid=ed13d655-bd25-44d4-bec5-12d86f0f2091"},"vehicle_type_id":"4","last_reported":1708203943,"current_range_meters":6400,"station_id":"ce4bgi12rcd13ifvqb70","pricing_plan_id":"cebpf4jnsgd1na2vs0mg"},{"bike_id":"b91706a7-23ba-4dae-a4b6-e928c4284810","system_id":"levelo_inurba_marseille","lat":43.293009,"lon":5.374584,"is_reserved":false,"is_disabled":false,"rental_uris":{"android":"levelo://app?vid=b91706a7-23ba-4dae-a4b6-e928c4284810","ios":"levelo://app?vid=b91706a7-23ba-4dae-a4b6-e928c4284810"},"vehicle_type_id":"4","last_reported":1708203943,"current_range_meters":3600,"station_id":"ce4bgi12rcd13ifvqb70","pricing_plan_id":"cebpf4jnsgd1na2vs0mg"},{"bike_id":"b0c75dab-5ac4-4602-8b27-04699099292b","system_id":"levelo_inurba_marseille","lat":43.292988,"lon":5.37468,"is_reserved":false,"is_disabled":false,"rental_uris":{"android":"levelo://app?vid=b0c75dab-5ac4-4602-8b27-04699099292b","ios":"levelo://app?vid=b0c75dab-5ac4-4602-8b27-04699099292b"},"vehicle_type_id":"4","last_reported":1708203943,"current_range_meters":0,"station_id":"ce4bgi12rcd13ifvqb70","pricing_plan_id":"cebpf4jnsgd1na2vs0mg"},{"bike_id":"f3e957d4-791a-4f9c-9113-c1514d4bf3aa","system_id":"levelo_inurba_marseille","lat":43.305994,"lon":5.393687,"is_reserved":false,"is_disabled":false,"rental_uris":{"android":"levelo://app?vid=f3e957d4-791a-4f9c-9113-c1514d4bf3aa","ios":"levelo://app?vid=f3e957d4-791a-4f9c-9113-c1514d4bf3aa"},"vehicle_type_id":"4","last_reported":1708203943,"current_range_meters":25200,"station_id":"ce4bh0p2rcd13ifvqd80","pricing_plan_id":"cebpf4jnsgd1na2vs0mg"},{"bike_id":"7521dffa-d8d6-430e-8169-6e7ae9a67fd6","system_id":"levelo_inurba_marseille","lat":43.293009,"lon":5.374584,"is_reserved":false,"is_disabled":false,"rental_uris":{"android":"levelo://app?vid=7521dffa-d8d6-430e-8169-6e7ae9a67fd6","ios":"levelo://app?vid=7521dffa-d8d6-430e-8169-6e7ae9a67fd6"},"vehicle_type_id":"4","last_reported":1708203943,"current_range_meters":8800,"station_id":"ce4bgi12rcd13ifvqb70","pricing_plan_id":"cebpf4jnsgd1na2vs0mg"},{"bike_id":"db6a6112-af9e-414a-b01a-90bd78a85d93","system_id":"levelo_inurba_marseille","lat":43.303002,"lon":5.392142,"is_reserved":false,"is_disabled":false,"rental_uris":{"android":"levelo://app?vid=db6a6112-af9e-414a-b01a-90bd78a85d93","ios":"levelo://app?vid=db6a6112-af9e-414a-b01a-90bd78a85d93"},"vehicle_type_id":"4","last_reported":1708203943,"current_range_meters":23200,"station_id":"ce4bgkh2rcd13ifvqbk0","pricing_plan_id":"cebpf4jnsgd1na2vs0mg"},{"bike_id":"54fee03e-92d7-46ea-8c8f-9dcca0da23b5","system_id":"levelo_inurba_marseille","lat":43.303002,"lon":5.392142,"is_reserved":false,"is_disabled":false,"rental_uris":{"android":"levelo://app?vid=54fee03e-92d7-46ea-8c8f-9dcca0da23b5","ios":"levelo://app?vid=54fee03e-92d7-46ea-8c8f-9dcca0da23b5"},"vehicle_type_id":"4","last_reported":1708203943,"current_range_meters":3600,"station_id":"ce4bgkh2rcd13ifvqbk0","pricing_plan_id":"cebpf4jnsgd1na2vs0mg"},{"bike_id":"5a965c0f-9732-43f0-8a2f-e5f9b02e2bc4","system_id":"levelo_inurba_marseille","lat":43.303002,"lon":5.392142,"is_reserved":false,"is_disabled":false,"rental_uris":{"android":"levelo://app?vid=5a965c0f-9732-43f0-8a2f-e5f9b02e2bc4","ios":"levelo://app?vid=5a965c0f-9732-43f0-8a2f-e5f9b02e2bc4"},"vehicle_type_id":"4","last_reported":1708203943,"current_range_meters":18000,"station_id":"ce4bgkh2rcd13ifvqbk0","pricing_plan_id":"cebpf4jnsgd1na2vs0mg"},{"bike_id":"b8da6f32-8a32-4caa-8eb4-ab6e5c866fe0","system_id":"levelo_inurba_marseille","lat":43.303002,"lon":5.392142,"is_reserved":false,"is_disabled":false,"rental_uris":{"android":"levelo://app?vid=b8da6f32-8a32-4caa-8eb4-ab6e5c866fe0","ios":"levelo://app?vid=b8da6f32-8a32-4caa-8eb4-ab6e5c866fe0"},"vehicle_type_id":"4","last_reported":1708203943,"current_range_meters":2800,"station_id":"ce4bgkh2rcd13ifvqbk0","pricing_plan_id":"cebpf4jnsgd1na2vs0mg"},{"bike_id":"f8dc5e12-98dc-4622-bec7-e4df7eaa293f","system_id":"levelo_inurba_marseille","lat":43.2936,"lon":5.37835,"is_reserved":false,"is_disabled":false,"rental_uris":{"android":"levelo://app?vid=f8dc5e12-98dc-4622-bec7-e4df7eaa293f","ios":"levelo://app?vid=f8dc5e12-98dc-4622-bec7-e4df7eaa293f"},"vehicle_type_id":"4","last_reported":1708203943,"current_range_meters":3200,"station_id":"ce4bgjh2rcd13ifvqbf0","pricing_plan_id":"cebpf4jnsgd1na2vs0mg"},{"bike_id":"cfc5a95b-cc33-4f55-a639-dac628a0b1d6","system_id":"levelo_inurba_marseille","lat":43.2936,"lon":5.37835,"is_reserved":false,"is_disabled":false,"rental_uris":{"android":"levelo://app?vid=cfc5a95b-cc33-4f55-a639-dac628a0b1d6","ios":"levelo://app?vid=cfc5a95b-cc33-4f55-a639-dac628a0b1d6"},"vehicle_type_id":"4","last_reported":1708203943,"current_range_meters":17600,"station_id":"ce4bgjh2rcd13ifvqbf0","pricing_plan_id":"cebpf4jnsgd1na2vs0mg"},{"bike_id":"b9c11113-8151-4f83-93d1-5571347b54ba","system_id":"levelo_inurba_marseille","lat":43.2936,"lon":5.37835,"is_reserved":false,"is_disabled":false,"rental_uris":{"android":"levelo://app?vid=b9c11113-8151-4f83-93d1-5571347b54ba","ios":"levelo://app?vid=b9c11113-8151-4f83-93d1-5571347b54ba"},"vehicle_type_id":"4","last_reported":1708203943,"current_range_meters":18400,"station_id":"ce4bgjh2rcd13ifvqbf0","pricing_plan_id":"cebpf4jnsgd1na2vs0mg"},{"bike_id":"42fd77aa-191b-48d5-b308-6f9204b68062","system_id":"levelo_inurba_marseille","lat":43.303002,"lon":5.392142,"is_reserved":false,"is_disabled":false,"rental_uris":{"android":"levelo://app?vid=42fd77aa-191b-48d5-b308-6f9204b68062","ios":"levelo://app?vid=42fd77aa-191b-48d5-b308-6f9204b68062"},"vehicle_type_id":"4","last_reported":1708203943,"current_range_meters":6000,"station_id":"ce4bgkh2rcd13ifvqbk0","pricing_plan_id":"cebpf4jnsgd1na2vs0mg"},{"bike_id":"ac0df9f4-2f95-4b27-8fcf-8c43735a1bed","system_id":"levelo_inurba_marseille","lat":43.2936,"lon":5.37835,"is_reserved":false,"is_disabled":false,"rental_uris":{"android":"levelo://app?vid=ac0df9f4-2f95-4b27-8fcf-8c43735a1bed","ios":"levelo://app?vid=ac0df9f4-2f95-4b27-8fcf-8c43735a1bed"},"vehicle_type_id":"4","last_reported":1708203943,"current_range_meters":6800,"station_id":"ce4bgjh2rcd13ifvqbf0","pricing_plan_id":"cebpf4jnsgd1na2vs0mg"},{"bike_id":"4c1398f8-1ba0-456d-a680-e7c9fa398cc1","system_id":"levelo_inurba_marseille","lat":43.29229,"lon":5.36062,"is_reserved":false,"is_disabled":false,"rental_uris":{"android":"levelo://app?vid=4c1398f8-1ba0-456d-a680-e7c9fa398cc1","ios":"levelo://app?vid=4c1398f8-1ba0-456d-a680-e7c9fa398cc1"},"vehicle_type_id":"4","last_reported":1708203943,"current_range_meters":30400,"station_id":"","pricing_plan_id":"cebpf4jnsgd1na2vs0mg"},{"bike_id":"df971d0c-afc9-405b-8678-866365656548","system_id":"levelo_inurba_marseille","lat":43.29217,"lon":5.36043,"is_reserved":false,"is_disabled":false,"rental_uris":{"android":"levelo://app?vid=df971d0c-afc9-405b-8678-866365656548","ios":"levelo://app?vid=df971d0c-afc9-405b-8678-866365656548"},"vehicle_type_id":"4","last_reported":1708203943,"current_range_meters":22000,"station_id":"ce4bhbh2rcd13ifvqeqg","pricing_plan_id":"cebpf4jnsgd1na2vs0mg"},{"bike_id":"1af3c0b7-583d-4355-bcfe-59fbdce1debc","system_id":"levelo_inurba_marseille","lat":43.30085,"lon":5.390856,"is_reserved":false,"is_disabled":false,"rental_uris":{"android":"levelo://app?vid=1af3c0b7-583d-4355-bcfe-59fbdce1debc","ios":"levelo://app?vid=1af3c0b7-583d-4355-bcfe-59fbdce1debc"},"vehicle_type_id":"4","last_reported":1708203943,"current_range_meters":16400,"station_id":"ce4bh192rcd13ifvqdb0","pricing_plan_id":"cebpf4jnsgd1na2vs0mg"},{"bike_id":"62272959-a2e3-4fe6-a94f-e791e3bd2a9d","system_id":"levelo_inurba_marseille","lat":43.293009,"lon":5.374584,"is_reserved":false,"is_disabled":false,"rental_uris":{"android":"levelo://app?vid=62272959-a2e3-4fe6-a94f-e791e3bd2a9d","ios":"levelo://app?vid=62272959-a2e3-4fe6-a94f-e791e3bd2a9d"},"vehicle_type_id":"4","last_reported":1708203943,"current_range_meters":4400,"station_id":"ce4bgi12rcd13ifvqb70","pricing_plan_id":"cebpf4jnsgd1na2vs0mg"},{"bike_id":"7a1fe05b-92b2-49ad-98df-d65323cdab62","system_id":"levelo_inurba_marseille","lat":43.295279,"lon":5.375048,"is_reserved":false,"is_disabled":false,"rental_uris":{"android":"levelo://app?vid=7a1fe05b-92b2-49ad-98df-d65323cdab62","ios":"levelo://app?vid=7a1fe05b-92b2-49ad-98df-d65323cdab62"},"vehicle_type_id":"4","last_reported":1708203943,"current_range_meters":20000,"station_id":"ce4bgkp2rcd13ifvqbmg","pricing_plan_id":"cebpf4jnsgd1na2vs0mg"},{"bike_id":"dacc1254-74a7-47b0-912a-82fc5551eab8","system_id":"levelo_inurba_marseille","lat":43.298764,"lon":5.388973,"is_reserved":false,"is_disabled":false,"rental_uris":{"android":"levelo://app?vid=dacc1254-74a7-47b0-912a-82fc5551eab8","ios":"levelo://app?vid=dacc1254-74a7-47b0-912a-82fc5551eab8"},"vehicle_type_id":"4","last_reported":1708203943,"current_range_meters":2000,"station_id":"ce4bh392rcd13ifvqdl0","pricing_plan_id":"cebpf4jnsgd1na2vs0mg"},{"bike_id":"9cb8ca56-1b0a-41ad-a003-26b4875a488b","system_id":"levelo_inurba_marseille","lat":43.298764,"lon":5.388973,"is_reserved":false,"is_disabled":false,"rental_uris":{"android":"levelo://app?vid=9cb8ca56-1b0a-41ad-a003-26b4875a488b","ios":"levelo://app?vid=9cb8ca56-1b0a-41ad-a003-26b4875a488b"},"vehicle_type_id":"4","last_reported":1708203943,"current_range_meters":20800,"station_id":"ce4bh392rcd13ifvqdl0","pricing_plan_id":"cebpf4jnsgd1na2vs0mg"},{"bike_id":"ffbaed72-285c-4777-9939-631b27265aef","system_id":"levelo_inurba_marseille","lat":43.298764,"lon":5.388973,"is_reserved":false,"is_disabled":false,"rental_uris":{"android":"levelo://app?vid=ffbaed72-285c-4777-9939-631b27265aef","ios":"levelo://app?vid=ffbaed72-285c-4777-9939-631b27265aef"},"vehicle_type_id":"4","last_reported":1708203943,"current_range_meters":800,"station_id":"ce4bh392rcd13ifvqdl0","pricing_plan_id":"cebpf4jnsgd1na2vs0mg"},{"bike_id":"8395fe91-78ff-48cd-829e-5d1a46673473","system_id":"levelo_inurba_marseille","lat":43.298764,"lon":5.388973,"is_reserved":false,"is_disabled":false,"rental_uris":{"android":"levelo://app?vid=8395fe91-78ff-48cd-829e-5d1a46673473","ios":"levelo://app?vid=8395fe91-78ff-48cd-829e-5d1a46673473"},"vehicle_type_id":"4","last_reported":1708203943,"current_range_meters":19200,"station_id":"ce4bh392rcd13ifvqdl0","pricing_plan_id":"cebpf4jnsgd1na2vs0mg"},{"bike_id":"5891ac4e-1b61-4f05-bccb-975361ac5ee4","system_id":"levelo_inurba_marseille","lat":43.293009,"lon":5.374584,"is_reserved":false,"is_disabled":false,"rental_uris":{"android":"levelo://app?vid=5891ac4e-1b61-4f05-bccb-975361ac5ee4","ios":"levelo://app?vid=5891ac4e-1b61-4f05-bccb-975361ac5ee4"},"vehicle_type_id":"4","last_reported":1708203943,"current_range_meters":1200,"station_id":"ce4bgi12rcd13ifvqb70","pricing_plan_id":"cebpf4jnsgd1na2vs0mg"},{"bike_id":"ead1e196-cb19-4f25-8006-f77d524bb433","system_id":"levelo_inurba_marseille","lat":43.29174,"lon":5.37155,"is_reserved":false,"is_disabled":false,"rental_uris":{"android":"levelo://app?vid=ead1e196-cb19-4f25-8006-f77d524bb433","ios":"levelo://app?vid=ead1e196-cb19-4f25-8006-f77d524bb433"},"vehicle_type_id":"4","last_reported":1708203943,"current_range_meters":0,"station_id":"ce4bha92rcd13ifvqeh0","pricing_plan_id":"cebpf4jnsgd1na2vs0mg"},{"bike_id":"aadf9e66-5ad4-40c6-8764-0467ec6aedf4","system_id":"levelo_inurba_marseille","lat":43.291671,"lon":5.371575,"is_reserved":false,"is_disabled":false,"rental_uris":{"android":"levelo://app?vid=aadf9e66-5ad4-40c6-8764-0467ec6aedf4","ios":"levelo://app?vid=aadf9e66-5ad4-40c6-8764-0467ec6aedf4"},"vehicle_type_id":"4","last_reported":1708203943,"current_range_meters":16000,"station_id":"ce4bha92rcd13ifvqeh0","pricing_plan_id":"cebpf4jnsgd1na2vs0mg"},{"bike_id":"f420248c-c20e-496c-8102-6d6b2bd021fc","system_id":"levelo_inurba_marseille","lat":43.298764,"lon":5.388973,"is_reserved":false,"is_disabled":false,"rental_uris":{"android":"levelo://app?vid=f420248c-c20e-496c-8102-6d6b2bd021fc","ios":"levelo://app?vid=f420248c-c20e-496c-8102-6d6b2bd021fc"},"vehicle_type_id":"4","last_reported":1708203943,"current_range_meters":0,"station_id":"ce4bh392rcd13ifvqdl0","pricing_plan_id":"cebpf4jnsgd1na2vs0mg"},{"bike_id":"b9678a55-63a6-415f-9d5b-169a71e95554","system_id":"levelo_inurba_marseille","lat":43.298764,"lon":5.388973,"is_reserved":false,"is_disabled":false,"rental_uris":{"android":"levelo://app?vid=b9678a55-63a6-415f-9d5b-169a71e95554","ios":"levelo://app?vid=b9678a55-63a6-415f-9d5b-169a71e95554"},"vehicle_type_id":"4","last_reported":1708203943,"current_range_meters":8800,"station_id":"ce4bh392rcd13ifvqdl0","pricing_plan_id":"cebpf4jnsgd1na2vs0mg"},{"bike_id":"cd364b1b-3da0-44cf-939a-8872b81fbe0f","system_id":"levelo_inurba_marseille","lat":43.298764,"lon":5.388973,"is_reserved":false,"is_disabled":false,"rental_uris":{"android":"levelo://app?vid=cd364b1b-3da0-44cf-939a-8872b81fbe0f","ios":"levelo://app?vid=cd364b1b-3da0-44cf-939a-8872b81fbe0f"},"vehicle_type_id":"4","last_reported":1708203943,"current_range_meters":13200,"station_id":"ce4bh392rcd13ifvqdl0","pricing_plan_id":"cebpf4jnsgd1na2vs0mg"},{"bike_id":"024f9e8e-98fe-43e7-8576-ef42ed284056","system_id":"levelo_inurba_marseille","lat":43.298764,"lon":5.388973,"is_reserved":false,"is_disabled":false,"rental_uris":{"android":"levelo://app?vid=024f9e8e-98fe-43e7-8576-ef42ed284056","ios":"levelo://app?vid=024f9e8e-98fe-43e7-8576-ef42ed284056"},"vehicle_type_id":"4","last_reported":1708203943,"current_range_meters":12000,"station_id":"ce4bh392rcd13ifvqdl0","pricing_plan_id":"cebpf4jnsgd1na2vs0mg"},{"bike_id":"1b626dec-7a22-45e3-8d17-c07ccb853cd9","system_id":"levelo_inurba_marseille","lat":43.298764,"lon":5.388973,"is_reserved":false,"is_disabled":false,"rental_uris":{"android":"levelo://app?vid=1b626dec-7a22-45e3-8d17-c07ccb853cd9","ios":"levelo://app?vid=1b626dec-7a22-45e3-8d17-c07ccb853cd9"},"vehicle_type_id":"4","last_reported":1708203943,"current_range_meters":2000,"station_id":"ce4bh392rcd13ifvqdl0","pricing_plan_id":"cebpf4jnsgd1na2vs0mg"},{"bike_id":"1a2138bc-8f6b-46d8-a83f-aea8908a8df7","system_id":"levelo_inurba_marseille","lat":43.29195,"lon":5.35807,"is_reserved":false,"is_disabled":false,"rental_uris":{"android":"levelo://app?vid=1a2138bc-8f6b-46d8-a83f-aea8908a8df7","ios":"levelo://app?vid=1a2138bc-8f6b-46d8-a83f-aea8908a8df7"},"vehicle_type_id":"4","last_reported":1708203943,"current_range_meters":0,"station_id":"ce4bhb12rcd13ifvqel0","pricing_plan_id":"cebpf4jnsgd1na2vs0mg"},{"bike_id":"686e0763-907c-40c3-81f8-92338eed0aa9","system_id":"levelo_inurba_marseille","lat":43.309038,"lon":5.396546,"is_reserved":false,"is_disabled":false,"rental_uris":{"android":"levelo://app?vid=686e0763-907c-40c3-81f8-92338eed0aa9","ios":"levelo://app?vid=686e0763-907c-40c3-81f8-92338eed0aa9"},"vehicle_type_id":"4","last_reported":1708203943,"current_range_meters":18000,"station_id":"ce4bh012rcd13ifvqcv0","pricing_plan_id":"cebpf4jnsgd1na2vs0mg"},{"bike_id":"902c0541-381c-41a0-8eec-e35d44f6bd26","system_id":"levelo_inurba_marseille","lat":43.309038,"lon":5.396546,"is_reserved":false,"is_disabled":false,"rental_uris":{"android":"levelo://app?vid=902c0541-381c-41a0-8eec-e35d44f6bd26","ios":"levelo://app?vid=902c0541-381c-41a0-8eec-e35d44f6bd26"},"vehicle_type_id":"4","last_reported":1708203943,"current_range_meters":6400,"station_id":"ce4bh012rcd13ifvqcv0","pricing_plan_id":"cebpf4jnsgd1na2vs0mg"},{"bike_id":"76249670-e724-41c7-96b1-24dd765bb58c","system_id":"levelo_inurba_marseille","lat":43.309047,"lon":5.396551,"is_reserved":false,"is_disabled":false,"rental_uris":{"android":"levelo://app?vid=76249670-e724-41c7-96b1-24dd765bb58c","ios":"levelo://app?vid=76249670-e724-41c7-96b1-24dd765bb58c"},"vehicle_type_id":"4","last_reported":1708203943,"current_range_meters":12400,"station_id":"ce4bh012rcd13ifvqcv0","pricing_plan_id":"cebpf4jnsgd1na2vs0mg"},{"bike_id":"3ac07de6-d369-4cf5-8bb1-3f73b0fde73d","system_id":"levelo_inurba_marseille","lat":43.291994,"lon":5.357886,"is_reserved":false,"is_disabled":false,"rental_uris":{"android":"levelo://app?vid=3ac07de6-d369-4cf5-8bb1-3f73b0fde73d","ios":"levelo://app?vid=3ac07de6-d369-4cf5-8bb1-3f73b0fde73d"},"vehicle_type_id":"4","last_reported":1708203943,"current_range_meters":0,"station_id":"ce4bhb12rcd13ifvqel0","pricing_plan_id":"cebpf4jnsgd1na2vs0mg"},{"bike_id":"e784f673-39d6-4d10-a0b0-2a3bb12701bc","system_id":"levelo_inurba_marseille","lat":43.291994,"lon":5.357886,"is_reserved":false,"is_disabled":false,"rental_uris":{"android":"levelo://app?vid=e784f673-39d6-4d10-a0b0-2a3bb12701bc","ios":"levelo://app?vid=e784f673-39d6-4d10-a0b0-2a3bb12701bc"},"vehicle_type_id":"4","last_reported":1708203943,"current_range_meters":18800,"station_id":"ce4bhb12rcd13ifvqel0","pricing_plan_id":"cebpf4jnsgd1na2vs0mg"},{"bike_id":"b7a3b10b-dfca-4a31-a878-0db11075c358","system_id":"levelo_inurba_marseille","lat":43.309047,"lon":5.396551,"is_reserved":false,"is_disabled":false,"rental_uris":{"android":"levelo://app?vid=b7a3b10b-dfca-4a31-a878-0db11075c358","ios":"levelo://app?vid=b7a3b10b-dfca-4a31-a878-0db11075c358"},"vehicle_type_id":"4","last_reported":1708203943,"current_range_meters":10400,"station_id":"ce4bh012rcd13ifvqcv0","pricing_plan_id":"cebpf4jnsgd1na2vs0mg"},