{"last_updated":1699599976,"ttl":30,"version":"2.2","data":{"bikes":[{"bike_id":"f2053970-3acd-49e7-9cb2-efcf6e87c29d","system_id":"levelo_inurba_marseille","lat":43.31341,"lon":5.367098,"is_reserved":false,"is_disabled":false,"rental_uris":{"android":"levelo://app?vid=f2053970-3acd-49e7-9cb2-efcf6e87c29d","ios":"levelo://app?vid=f2053970-3acd-49e7-9cb2-efcf6e87c29d"},"vehicle_type_id":"4","last_reported":1699599976,"current_range_meters":30000,"station_id":"ce4bgr92rcd13ifvqc6g","pricing_plan_id":"free"},{"bike_id":"104966ae-a01e-43ff-8459-9b9ca0d8c096","system_id":"levelo_inurba_marseille","lat":43.31341,"lon":5.367098,"is_reserved":false,"is_disabled":false,"rental_uris":{"android":"levelo://app?vid=104966ae-a01e-43ff-8459-9b9ca0d8c096","ios":"levelo://app?vid=104966ae-a01e-43ff-8459-9b9ca0d8c096"},"vehicle_type_id":"4","last_reported":1699599976,"current_range_meters":7200,"station_id":"ce4bgr92rcd13ifvqc6g","pricing_plan_id":"free"},{"bike_id":"27234f2c-bc37-4399-88e5-98524116ab87","system_id":"levelo_inurba_marseille","lat":43.31341,"lon":5.367098,"is_reserved":false,"is_disabled":false,"rental_uris":{"android":"levelo://app?vid=27234f2c-bc37-4399-88e5-98524116ab87","ios":"levelo://app?vid=27234f2c-bc37-4399-88e5-98524116ab87"},"vehicle_type_id":"4","last_reported":1699599976,"current_range_meters":26000,"station_id":"ce4bgr92rcd13ifvqc6g","pricing_plan_id":"free"},{"bike_id":"0f54fedd-3958-433a-9102-e54ba26583ca","system_id":"levelo_inurba_marseille","lat":43.312167,"lon":5.368747,"is_reserved":false,"is_disabled":false,"rental_uris":{"android":"levelo://app?vid=0f54fedd-3958-433a-9102-e54ba26583ca","ios":"levelo://app?vid=0f54fedd-3958-433a-9102-e54ba26583ca"},"vehicle_type_id":"4","last_reported":1699599976,"current_range_meters":28400,"station_id":"ce4bgl92rcd13ifvqbq0","pricing_plan_id":"free"},{"bike_id":"8e973df3-8da9-4e11-8e55-ab8182ead070","system_id":"levelo_inurba_marseille","lat":43.309076,"lon":5.368465,"is_reserved":false,"is_disabled":false,"rental_uris":{"android":"levelo://app?vid=8e973df3-8da9-4e11-8e55-ab8182ead070","ios":"levelo://app?vid=8e973df3-8da9-4e11-8e55-ab8182ead070"},"vehicle_type_id":"4","last_reported":1699599976,"current_range_meters":2800,"station_id":"ce4bgn92rcd13ifvqbvg","pricing_plan_id":"free"},{"bike_id":"86021222-b8ff-41cd-802e-8111832d8917","system_id":"levelo_inurba_marseille","lat":43.314811,"lon":5.373103,"is_reserved":false,"is_disabled":false,"rental_uris":{"android":"levelo://app?vid=86021222-b8ff-41cd-802e-8111832d8917","ios":"levelo://app?vid=86021222-b8ff-41cd-802e-8111832d8917"},"vehicle_type_id":"4","last_reported":1699599976,"current_range_meters":13600,"station_id":"ce4bgt12rcd13ifvqcd0","pricing_plan_id":"free"},{"bike_id":"2f222026-c000-4c84-9103-e6d44a0ff880","system_id":"levelo_inurba_marseille","lat":43.309039,"lon":5.371797,"is_reserved":false,"is_disabled":false,"rental_uris":{"android":"levelo://app?vid=2f222026-c000-4c84-9103-e6d44a0ff880","ios":"levelo://app?vid=2f222026-c000-4c84-9103-e6d44a0ff880"},"vehicle_type_id":"4","last_reported":1699599976,"current_range_meters":31200,"station_id":"ce4bguh2rcd13ifvqckg","pricing_plan_id":"free"},{"bike_id":"44e5bd9c-3d85-4cb5-acda-88a09b1668fa","system_id":"levelo_inurba_marseille","lat":43.30553,"lon":5.36709,"is_reserved":false,"is_disabled":false,"rental_uris":{"android":"levelo://app?vid=44e5bd9c-3d85-4cb5-acda-88a09b1668fa","ios":"levelo://app?vid=44e5bd9c-3d85-4cb5-acda-88a09b1668fa"},"vehicle_type_id":"4","last_reported":1699599976,"current_range_meters":30400,"station_id":"ce4bgrp2rcd13ifvqc9g","pricing_plan_id":"free"},{"bike_id":"da397768-1954-450b-83ba-ddad8745c9ff","system_id":"levelo_inurba_marseille","lat":43.30539,"lon":5.36717,"is_reserved":false,"is_disabled":false,"rental_uris":{"android":"levelo://app?vid=da397768-1954-450b-83ba-ddad8745c9ff","ios":"levelo://app?vid=da397768-1954-450b-83ba-ddad8745c9ff"},"vehicle_type_id":"4","last_reported":1699599976,"current_range_meters":31200,"station_id":"ce4bgrp2rcd13ifvqc9g","pricing_plan_id":"free"},{"bike_id":"76b359af-c20b-45d0-a1df-78f4c9a6553a","system_id":"levelo_inurba_marseille","lat":43.30545,"lon":5.36529,"is_reserved":false,"is_disabled":false,"rental_uris":{"android":"levelo://app?vid=76b359af-c20b-45d0-a1df-78f4c9a6553a","ios":"levelo://app?vid=76b359af-c20b-45d0-a1df-78f4c9a6553a"},"vehicle_type_id":"4","last_reported":1699599976,"current_range_meters":24400,"station_id":"ce4bgs12rcd13ifvqcag","pricing_plan_id":"free"},{"bike_id":"c45f79b9-b964-4a05-a9fe-6166630f59d0","system_id":"levelo_inurba_marseille","lat":43.30541,"lon":5.36566,"is_reserved":false,"is_disabled":false,"rental_uris":{"android":"levelo://app?vid=c45f79b9-b964-4a05-a9fe-6166630f59d0","ios":"levelo://app?vid=c45f79b9-b964-4a05-a9fe-6166630f59d0"},"vehicle_type_id":"4","last_reported":1699599976,"current_range_meters":25200,"station_id":"ce4bgs12rcd13ifvqcag","pricing_plan_id":"free"},{"bike_id":"b860ea41-ec68-4abb-9aac-baae100f8b53","system_id":"levelo_inurba_marseille","lat":43.30534,"lon":5.36713,"is_reserved":false,"is_disabled":false,"rental_uris":{"android":"levelo://app?vid=b860ea41-ec68-4abb-9aac-baae100f8b53","ios":"levelo://app?vid=b860ea41-ec68-4abb-9aac-baae100f8b53"},"vehicle_type_id":"4","last_reported":1699599976,"current_range_meters":29200,"station_id":"ce4bgrp2rcd13ifvqc9g","pricing_plan_id":"free"},{"bike_id":"fc5b8035-d375-486c-b963-c07e2332bc93","system_id":"levelo_inurba_marseille","lat":43.305238,"lon":5.366958,"is_reserved":false,"is_disabled":false,"rental_uris":{"android":"levelo://app?vid=fc5b8035-d375-486c-b963-c07e2332bc93","ios":"levelo://app?vid=fc5b8035-d375-486c-b963-c07e2332bc93"},"vehicle_type_id":"4","last_reported":1699599976,"current_range_meters":0,"station_id":"ce4bgrp2rcd13ifvqc9g","pricing_plan_id":"free"},{"bike_id":"69c14741-f40c-4ac8-9611-638a9e5b3a3d","system_id":"levelo_inurba_marseille","lat":43.31116,"lon":5.37775,"is_reserved":false,"is_disabled":false,"rental_uris":{"android":"levelo://app?vid=69c14741-f40c-4ac8-9611-638a9e5b3a3d","ios":"levelo://app?vid=69c14741-f40c-4ac8-9611-638a9e5b3a3d"},"vehicle_type_id":"4","last_reported":1699599976,"current_range_meters":29600,"station_id":"ce4bgt92rcd13ifvqcg0","pricing_plan_id":"free"},{"bike_id":"57053367-5328-4d78-8951-737f56b37ed9","system_id":"levelo_inurba_marseille","lat":43.319924,"lon":5.373389,"is_reserved":false,"is_disabled":false,"rental_uris":{"android":"levelo://app?vid=57053367-5328-4d78-8951-737f56b37ed9","ios":"levelo://app?vid=57053367-5328-4d78-8951-737f56b37ed9"},"vehicle_type_id":"4","last_reported":1699599976,"current_range_meters":23600,"station_id":"","pricing_plan_id":"free"},{"bike_id":"0013452e-4109-4af2-8312-9c04f7d7aa09","system_id":"levelo_inurba_marseille","lat":43.30779,"lon":5.37657,"is_reserved":false,"is_disabled":false,"rental_uris":{"android":"levelo://app?vid=0013452e-4109-4af2-8312-9c04f7d7aa09","ios":"levelo://app?vid=0013452e-4109-4af2-8312-9c04f7d7aa09"},"vehicle_type_id":"4","last_reported":1699599976,"current_range_meters":30000,"station_id":"ce4bgv92rcd13ifvqcq0","pricing_plan_id":"free"},{"bike_id":"67f7efe0-60ae-42f2-b85e-3f0e9ec5e863","system_id":"levelo_inurba_marseille","lat":43.317075,"lon":5.377367,"is_reserved":false,"is_disabled":false,"rental_uris":{"android":"levelo://app?vid=67f7efe0-60ae-42f2-b85e-3f0e9ec5e863","ios":"levelo://app?vid=67f7efe0-60ae-42f2-b85e-3f0e9ec5e863"},"vehicle_type_id":"4","last_reported":1699599976,"current_range_meters":13600,"station_id":"ce4bgth2rcd13ifvqch0","pricing_plan_id":"free"},{"bike_id":"37e6cc99-429c-436a-a732-33691b552be9","system_id":"levelo_inurba_marseille","lat":43.317075,"lon":5.377367,"is_reserved":false,"is_disabled":false,"rental_uris":{"android":"levelo://app?vid=37e6cc99-429c-436a-a732-33691b552be9","ios":"levelo://app?vid=37e6cc99-429c-436a-a732-33691b552be9"},"vehicle_type_id":"4","last_reported":1699599976,"current_range_meters":31200,"station_id":"ce4bgth2rcd13ifvqch0","pricing_plan_id":"free"},{"bike_id":"d073573e-2edf-4bce-9de6-c3e6eb6cd24d","system_id":"levelo_inurba_marseille","lat":43.317075,"lon":5.377367,"is_reserved":false,"is_disabled":false,"rental_uris":{"android":"levelo://app?vid=d073573e-2edf-4bce-9de6-c3e6eb6cd24d","ios":"levelo://app?vid=d073573e-2edf-4bce-9de6-c3e6eb6cd24d"},"vehicle_type_id":"4","last_reported":1699599976,"current_range_meters":31200,"station_id":"ce4bgth2rcd13ifvqch0","pricing_plan_id":"free"},{"bike_id":"91b3bd0e-e6dc-40ed-8643-1c909d5733dd","system_id":"levelo_inurba_marseille","lat":43.317075,"lon":5.377367,"is_reserved":false,"is_disabled":false,"rental_uris":{"android":"levelo://app?vid=91b3bd0e-e6dc-40ed-8643-1c909d5733dd","ios":"levelo://app?vid=91b3bd0e-e6dc-40ed-8643-1c909d5733dd"},"vehicle_type_id":"4","last_reported":1699599976,"current_range_meters":29600,"station_id":"ce4bgth2rcd13ifvqch0","pricing_plan_id":"free"},{"bike_id":"e57e249b-229d-483a-ad69-c84d6678bd04","system_id":"levelo_inurba_marseille","lat":43.30304,"lon":5.368987,"is_reserved":false,"is_disabled":false,"rental_uris":{"android":"levelo://app?vid=e57e249b-229d-483a-ad69-c84d6678bd04","ios":"levelo://app?vid=e57e249b-229d-483a-ad69-c84d6678bd04"},"vehicle_type_id":"4","last_reported":1699599976,"current_range_meters":26000,"station_id":"ce4bgqh2rcd13ifvqc5g","pricing_plan_id":"free"},{"bike_id":"52e43f3d-cb2f-437b-8c87-91792bb0e7db","system_id":"levelo_inurba_marseille","lat":43.322389,"lon":5.375589,"is_reserved":false,"is_disabled":false,"rental_uris":{"android":"levelo://app?vid=52e43f3d-cb2f-437b-8c87-91792bb0e7db","ios":"levelo://app?vid=52e43f3d-cb2f-437b-8c87-91792bb0e7db"},"vehicle_type_id":"4","last_reported":1699599976,"current_range_meters":10400,"station_id":"","pricing_plan_id":"free"},{"bike_id":"ed4143aa-9521-482b-a0f0-4d4de42aa8a3","system_id":"levelo_inurba_marseille","lat":43.308012,"lon":5.381511,"is_reserved":false,"is_disabled":false,"rental_uris":{"android":"levelo://app?vid=ed4143aa-9521-482b-a0f0-4d4de42aa8a3","ios":"levelo://app?vid=ed4143aa-9521-482b-a0f0-4d4de42aa8a3"},"vehicle_type_id":"4","last_reported":1699599976,"current_range_meters":19600,"station_id":"ce4bgt12rcd13ifvqce0","pricing_plan_id":"free"},{"bike_id":"0374ad62-c563-4805-b79d-1f392374dae0","system_id":"levelo_inurba_marseille","lat":43.304606,"lon":5.379026,"is_reserved":false,"is_disabled":false,"rental_uris":{"android":"levelo://app?vid=0374ad62-c563-4805-b79d-1f392374dae0","ios":"levelo://app?vid=0374ad62-c563-4805-b79d-1f392374dae0"},"vehicle_type_id":"4","last_reported":1699599976,"current_range_meters":31200,"station_id":"ce4bgup2rcd13ifvqcn0","pricing_plan_id":"free"},{"bike_id":"236f3641-9cec-4dd3-be09-d046877dd823","system_id":"levelo_inurba_marseille","lat":43.304606,"lon":5.379026,"is_reserved":false,"is_disabled":false,"rental_uris":{"android":"levelo://app?vid=236f3641-9cec-4dd3-be09-d046877dd823","ios":"levelo://app?vid=236f3641-9cec-4dd3-be09-d046877dd823"},"vehicle_type_id":"4","last_reported":1699599976,"current_range_meters":17200,"station_id":"ce4bgup2rcd13ifvqcn0","pricing_plan_id":"free"},{"bike_id":"56d4d73e-8e21-450a-991b-2ca43801e656","system_id":"levelo_inurba_marseille","lat":43.304606,"lon":5.379026,"is_reserved":false,"is_disabled":false,"rental_uris":{"android":"levelo://app?vid=56d4d73e-8e21-450a-991b-2ca43801e656","ios":"levelo://app?vid=56d4d73e-8e21-450a-991b-2ca43801e656"},"vehicle_type_id":"4","last_reported":1699599976,"current_range_meters":30400,"station_id":"ce4bgup2rcd13ifvqcn0","pricing_plan_id":"free"},{"bike_id":"c360016b-e179-42c9-8cef-3d7ec330581c","system_id":"levelo_inurba_marseille","lat":43.304606,"lon":5.379026,"is_reserved":false,"is_disabled":false,"rental_uris":{"android":"levelo://app?vid=c360016b-e179-42c9-8cef-3d7ec330581c","ios":"levelo://app?vid=c360016b-e179-42c9-8cef-3d7ec330581c"},"vehicle_type_id":"4","last_reported":1699599976,"current_range_meters":29600,"station_id":"ce4bgup2rcd13ifvqcn0","pricing_plan_id":"free"},{"bike_id":"86f8de9b-e1ee-4597-a48e-1dc0f4ceb4ed","system_id":"levelo_inurba_marseille","lat":43.304606,"lon":5.379026,"is_reserved":false,"is_disabled":false,"rental_uris":{"android":"levelo://app?vid=86f8de9b-e1ee-4597-a48e-1dc0f4ceb4ed","ios":"levelo://app?vid=86f8de9b-e1ee-4597-a48e-1dc0f4ceb4ed"},"vehicle_type_id":"4","last_reported":1699599976,"current_range_meters":27200,"station_id":"ce4bgup2rcd13ifvqcn0","pricing_plan_id":"free"},{"bike_id":"252cc8cd-740d-425b-bbfc-4788705cb171","system_id":"levelo_inurba_marseille","lat":43.304606,"lon":5.379026,"is_reserved":false,"is_disabled":false,"rental_uris":{"android":"levelo://app?vid=252cc8cd-740d-425b-bbfc-4788705cb171","ios":"levelo://app?vid=252cc8cd-740d-425b-bbfc-4788705cb171"},"vehicle_type_id":"4","last_reported":1699599976,"current_range_meters":31600,"station_id":"ce4bgup2rcd13ifvqcn0","pricing_plan_id":"free"},{"bike_id":"b236103d-5ee3-479a-ad0d-0f311ca85458","system_id":"levelo_inurba_marseille","lat":43.304606,"lon":5.379026,"is_reserved":false,"is_disabled":false,"rental_uris":{"android":"levelo://app?vid=b236103d-5ee3-479a-ad0d-0f311ca85458","ios":"levelo://app?vid=b236103d-5ee3-479a-ad0d-0f311ca85458"},"vehicle_type_id":"4","last_reported":1699599976,"current_range_meters":24000,"station_id":"ce4bgup2rcd13ifvqcn0","pricing_plan_id":"free"},{"bike_id":"7d660adb-5440-45f9-b45e-6da54e23ae9a","system_id":"levelo_inurba_marseille","lat":43.304606,"lon":5.379026,"is_reserved":false,"is_disabled":false,"rental_uris":{"android":"levelo://app?vid=7d660adb-5440-45f9-b45e-6da54e23ae9a","ios":"levelo://app?vid=7d660adb-5440-45f9-b45e-6da54e23ae9a"},"vehicle_type_id":"4","last_reported":1699599976,"current_range_meters":400,"station_id":"ce4bgup2rcd13ifvqcn0","pricing_plan_id":"free"},{"bike_id":"a46be2f6-04d5-45f1-8a54-4eac07f1d68a","system_id":"levelo_inurba_marseille","lat":43.304606,"lon":5.379026,"is_reserved":false,"is_disabled":false,"rental_uris":{"android":"levelo://app?vid=a46be2f6-04d5-45f1-8a54-4eac07f1d68a","ios":"levelo://app?vid=a46be2f6-04d5-45f1-8a54-4eac07f1d68a"},"vehicle_type_id":"4","last_reported":1699599976,"current_range_meters":30000,"station_id":"ce4bgup2rcd13ifvqcn0","pricing_plan_id":"free"},{"bike_id":"2128c909-acff-4222-8eb4-ef5366236288","system_id":"levelo_inurba_marseille","lat":43.304606,"lon":5.379026,"is_reserved":false,"is_disabled":false,"rental_uris":{"android":"levelo://app?vid=2128c909-acff-4222-8eb4-ef5366236288","ios":"levelo://app?vid=2128c909-acff-4222-8eb4-ef5366236288"},"vehicle_type_id":"4","last_reported":1699599976,"current_range_meters":29600,"station_id":"ce4bgup2rcd13ifvqcn0","pricing_plan_id":"free"},{"bike_id":"1f2b50a6-52c2-4a55-8ed8-e012f0796f39","system_id":"levelo_inurba_marseille","lat":43.304606,"lon":5.379026,"is_reserved":false,"is_disabled":false,"rental_uris":{"android":"levelo://app?vid=1f2b50a6-52c2-4a55-8ed8-e012f0796f39","ios":"levelo://app?vid=1f2b50a6-52c2-4a55-8ed8-e012f0796f39"},"vehicle_type_id":"4","last_reported":1699599976,"current_range_meters":19200,"station_id":"ce4bgup2rcd13ifvqcn0","pricing_plan_id":"free"},{"bike_id":"2d21a6a8-7336-4254-beb7-6f11100e75d9","system_id":"levelo_inurba_marseille","lat":43.304606,"lon":5.379026,"is_reserved":false,"is_disabled":false,"rental_uris":{"android":"levelo://app?vid=2d21a6a8-7336-4254-beb7-6f11100e75d9","ios":"levelo://app?vid=2d21a6a8-7336-4254-beb7-6f11100e75d9"},"vehicle_type_id":"4","last_reported":1699599976,"current_range_meters":21200,"station_id":"ce4bgup2rcd13ifvqcn0","pricing_plan_id":"free"},{"bike_id":"bb211ec9-3877-4631-aa69-ff33852b6eca","system_id":"levelo_inurba_marseille","lat":43.304606,"lon":5.379026,"is_reserved":false,"is_disabled":false,"rental_uris":{"android":"levelo://app?vid=bb211ec9-3877-4631-aa69-ff33852b6eca","ios":"levelo://app?vid=bb211ec9-3877-4631-aa69-ff33852b6eca"},"vehicle_type_id":"4","last_reported":1699599976,"current_range_meters":18000,"station_id":"ce4bgup2rcd13ifvqcn0","pricing_plan_id":"free"},{"bike_id":"f70d7104-c8d7-469b-b2a5-668770fb26df","system_id":"levelo_inurba_marseille","lat":43.304606,"lon":5.379026,"is_reserved":false,"is_disabled":false,"rental_uris":{"android":"levelo://app?vid=f70d7104-c8d7-469b-b2a5-668770fb26df","ios":"levelo://app?vid=f70d7104-c8d7-469b-b2a5-668770fb26df"},"vehicle_type_id":"4","last_reported":1699599976,"current_range_meters":10400,"station_id":"ce4bgup2rcd13ifvqcn0","pricing_plan_id":"free"},{"bike_id":"9d4e0fda-fc81-4f3b-994f-a846c07a61d5","system_id":"levelo_inurba_marseille","lat":43.304606,"lon":5.379026,"is_reserved":false,"is_disabled":false,"rental_uris":{"android":"levelo://app?vid=9d4e0fda-fc81-4f3b-994f-a846c07a61d5","ios":"levelo://app?vid=9d4e0fda-fc81-4f3b-994f-a846c07a61d5"},"vehicle_type_id":"4","last_reported":1699599976,"current_range_meters":27200,"station_id":"ce4bgup2rcd13ifvqcn0","pricing_plan_id":"free"},{"bike_id":"158b4159-e656-4beb-bc1f-b3a16e0c75f8","system_id":"levelo_inurba_marseille","lat":43.304606,"lon":5.379026,"is_reserved":false,"is_disabled":false,"rental_uris":{"android":"levelo://app?vid=158b4159-e656-4beb-bc1f-b3a16e0c75f8","ios":"levelo://app?vid=158b4159-e656-4beb-bc1f-b3a16e0c75f8"},"vehicle_type_id":"4","last_reported":1699599976,"current_range_meters":27200,"station_id":"ce4bgup2rcd13ifvqcn0","pricing_plan_id":"free"},{"bike_id":"81427731-3bde-43ce-bbf9-d59d3be60dda","system_id":"levelo_inurba_marseille","lat":43.324818,"lon":5.365559,"is_reserved":false,"is_disabled":false,"rental_uris":{"android":"levelo://app?vid=81427731-3bde-43ce-bbf9-d59d3be60dda","ios":"levelo://app?vid=81427731-3bde-43ce-bbf9-d59d3be60dda"},"vehicle_type_id":"4","last_reported":1699599976,"current_range_meters":9200,"station_id":"ce4bhs12rcd13ifvqhvg","pricing_plan_id":"free"},{"bike_id":"12d1c79f-493b-4be4-aaf2-d49ed9088ac2","system_id":"levelo_inurba_marseille","lat":43.302784,"lon":5.377158,"is_reserved":false,"is_disabled":false,"rental_uris":{"android":"levelo://app?vid=12d1c79f-493b-4be4-aaf2-d49ed9088ac2","ios":"levelo://app?vid=12d1c79f-493b-4be4-aaf2-d49ed9088ac2"},"vehicle_type_id":"4","last_reported":1699599976,"current_range_meters":25600,"station_id":"ce4bguh2rcd13ifvqcj0","pricing_plan_id":"free"},{"bike_id":"91892a9b-fcb7-4e61-931c-f257fa313fb8","system_id":"levelo_inurba_marseille","lat":43.30143,"lon":5.37413,"is_reserved":false,"is_disabled":false,"rental_uris":{"android":"levelo://app?vid=91892a9b-fcb7-4e61-931c-f257fa313fb8","ios":"levelo://app?vid=91892a9b-fcb7-4e61-931c-f257fa313fb8"},"vehicle_type_id":"4","last_reported":1699599976,"current_range_meters":21600,"station_id":"ce4bgs92rcd13ifvqcc0","pricing_plan_id":"free"},{"bike_id":"c2b9e779-733d-48e0-99d7-2dc0f147402f","system_id":"levelo_inurba_marseille","lat":43.301429,"lon":5.37413,"is_reserved":false,"is_disabled":false,"rental_uris":{"android":"levelo://app?vid=c2b9e779-733d-48e0-99d7-2dc0f147402f","ios":"levelo://app?vid=c2b9e779-733d-48e0-99d7-2dc0f147402f"},"vehicle_type_id":"4","last_reported":1699599976,"current_range_meters":22400,"station_id":"ce4bgs92rcd13ifvqcc0","pricing_plan_id":"free"},{"bike_id":"4d1b9327-b35c-482f-8e61-fe4a60de4630","system_id":"levelo_inurba_marseille","lat":43.302784,"lon":5.377158,"is_reserved":false,"is_disabled":false,"rental_uris":{"android":"levelo://app?vid=4d1b9327-b35c-482f-8e61-fe4a60de4630","ios":"levelo://app?vid=4d1b9327-b35c-482f-8e61-fe4a60de4630"},"vehicle_type_id":"4","last_reported":1699599976,"current_range_meters":17200,"station_id":"ce4bguh2rcd13ifvqcj0","pricing_plan_id":"free"},{"bike_id":"69166d53-ec8e-4a0a-864c-7a29f7650dd8","system_id":"levelo_inurba_marseille","lat":43.32106,"lon":5.38003,"is_reserved":false,"is_disabled":false,"rental_uris":{"android":"levelo://app?vid=69166d53-ec8e-4a0a-864c-7a29f7650dd8","ios":"levelo://app?vid=69166d53-ec8e-4a0a-864c-7a29f7650dd8"},"vehicle_type_id":"4","last_reported":1699599976,"current_range_meters":25200,"station_id":"","pricing_plan_id":"free"},{"bike_id":"bb0a6094-33c3-46d9-aeb8-9d88a1b85668","system_id":"levelo_inurba_marseille","lat":43.31997,"lon":5.38142,"is_reserved":false,"is_disabled":false,"rental_uris":{"android":"levelo://app?vid=bb0a6094-33c3-46d9-aeb8-9d88a1b85668","ios":"levelo://app?vid=bb0a6094-33c3-46d9-aeb8-9d88a1b85668"},"vehicle_type_id":"4","last_reported":1699599976,"current_range_meters":30800,"station_id":"ce4bhr12rcd13ifvqhpg","pricing_plan_id":"free"},{"bike_id":"13475556-4acf-4aa6-b00a-f5068b4b97fc","system_id":"levelo_inurba_marseille","lat":43.319935,"lon":5.381699,"is_reserved":false,"is_disabled":false,"rental_uris":{"android":"levelo://app?vid=13475556-4acf-4aa6-b00a-f5068b4b97fc","ios":"levelo://app?vid=13475556-4acf-4aa6-b00a-f5068b4b97fc"},"vehicle_type_id":"4","last_reported":1699599976,"current_range_meters":28000,"station_id":"ce4bhr12rcd13ifvqhpg","pricing_plan_id":"free"},{"bike_id":"defcaae0-157e-473b-a98e-5551c6052783","system_id":"levelo_inurba_marseille","lat":43.319935,"lon":5.381699,"is_reserved":false,"is_disabled":false,"rental_uris":{"android":"levelo://app?vid=defcaae0-157e-473b-a98e-5551c6052783","ios":"levelo://app?vid=defcaae0-157e-473b-a98e-5551c6052783"},"vehicle_type_id":"4","last_reported":1699599976,"current_range_meters":14000,"station_id":"ce4bhr12rcd13ifvqhpg","pricing_plan_id":"free"},{"bike_id":"1482bc32-7a23-4109-885f-2d119a1e3cec","system_id":"levelo_inurba_marseille","lat":43.31995,"lon":5.38151,"is_reserved":false,"is_disabled":false,"rental_uris":{"android":"levelo://app?vid=1482bc32-7a23-4109-885f-2d119a1e3cec","ios":"levelo://app?vid=1482bc32-7a23-4109-885f-2d119a1e3cec"},"vehicle_type_id":"4","last_reported":1699599976,"current_range_meters":13600,"station_id":"ce4bhr12rcd13ifvqhpg","pricing_plan_id":"free"},{"bike_id":"f0e0fac1-61fc-4545-80df-e429e55c1818","system_id":"levelo_inurba_marseille","lat":43.319976,"lon":5.38151,"is_reserved":false,"is_disabled":false,"rental_uris":{"android":"levelo://app?vid=f0e0fac1-61fc-4545-80df-e429e55c1818","ios":"levelo://app?vid=f0e0fac1-61fc-4545-80df-e429e55c1818"},"vehicle_type_id":"4","last_reported":1699599976,"current_range_meters":26800,"station_id":"ce4bhr12rcd13ifvqhpg","pricing_plan_id":"free"},{"bike_id":"d98ef63b-3279-44c8-ac44-bc93896579ca","system_id":"levelo_inurba_marseille","lat":43.319935,"lon":5.381699,"is_reserved":false,"is_disabled":false,"rental_uris":{"android":"levelo://app?vid=d98ef63b-3279-44c8-ac44-bc93896579ca","ios":"levelo://app?vid=d98ef63b-3279-44c8-ac44-bc93896579ca"},"vehicle_type_id":"4","last_reported":1699599976,"current_range_meters":22400,"station_id":"ce4bhr12rcd13ifvqhpg","pricing_plan_id":"free"},{"bike_id":"13d78257-2559-4a10-97b8-aaa7032179bc","system_id":"levelo_inurba_marseille","lat":43.319975,"lon":5.381519,"is_reserved":false,"is_disabled":false,"rental_uris":{"android":"levelo://app?vid=13d78257-2559-4a10-97b8-aaa7032179bc","ios":"levelo://app?vid=13d78257-2559-4a10-97b8-aaa7032179bc"},"vehicle_type_id":"4","last_reported":1699599976,"current_range_meters":9200,"station_id":"","pricing_plan_id":"free"},{"bike_id":"b6046f74-4348-4671-8214-63027a43228f","system_id":"levelo_inurba_marseille","lat":43.320037,"lon":5.381485,"is_reserved":false,"is_disabled":false,"rental_uris":{"android":"levelo://app?vid=b6046f74-4348-4671-8214-63027a43228f","ios":"levelo://app?vid=b6046f74-4348-4671-8214-63027a43228f"},"vehicle_type_id":"4","last_reported":1699599976,"current_range_meters":19200,"station_id":"ce4bhr12rcd13ifvqhpg","pricing_plan_id":"free"},{"bike_id":"2aa07dbd-abc3-43b6-a1fa-b3b25d3cf066","system_id":"levelo_inurba_marseille","lat":43.32148,"lon":5.38202,"is_reserved":false,"is_disabled":false,"rental_uris":{"android":"levelo://app?vid=2aa07dbd-abc3-43b6-a1fa-b3b25d3cf066","ios":"levelo://app?vid=2aa07dbd-abc3-43b6-a1fa-b3b25d3cf066"},"vehicle_type_id":"4","last_reported":1699599976,"current_range_meters":0,"station_id":"","pricing_plan_id":"free"},{"bike_id":"21294f7b-ce2d-4593-b8ac-925468b02095","system_id":"levelo_inurba_marseille","lat":43.29851,"lon":5.36279,"is_reserved":false,"is_disabled":false,"rental_uris":{"android":"levelo://app?vid=21294f7b-ce2d-4593-b8ac-925468b02095","ios":"levelo://app?vid=21294f7b-ce2d-4593-b8ac-925468b02095"},"vehicle_type_id":"4","last_reported":1699599976,"current_range_meters":19200,"station_id":"ce4bgpp2rcd13ifvqc3g","pricing_plan_id":"free"},{"bike_id":"fbcb21e0-97f4-494f-8e37-6f3be4daec7c","system_id":"levelo_inurba_marseille","lat":43.299243,"lon":5.374807,"is_reserved":false,"is_disabled":false,"rental_uris":{"android":"levelo://app?vid=fbcb21e0-97f4-494f-8e37-6f3be4daec7c","ios":"levelo://app?vid=fbcb21e0-97f4-494f-8e37-6f3be4daec7c"},"vehicle_type_id":"4","last_reported":1699599976,"current_range_meters":23600,"station_id":"ce4bgjh2rcd13ifvqbg0","pricing_plan_id":"free"},{"bike_id":"8950f55a-e75d-4fac-9a7c-f529bc0580a5","system_id":"levelo_inurba_marseille","lat":43.320464,"lon":5.384144,"is_reserved":false,"is_disabled":false,"rental_uris":{"android":"levelo://app?vid=8950f55a-e75d-4fac-9a7c-f529bc0580a5","ios":"levelo://app?vid=8950f55a-e75d-4fac-9a7c-f529bc0580a5"},"vehicle_type_id":"4","last_reported":1699599976,"current_range_meters":18000,"station_id":"","pricing_plan_id":"free"},{"bike_id":"47fd440a-6b7d-4496-b183-0bcd99366c30","system_id":"levelo_inurba_marseille","lat":43.299243,"lon":5.374807,"is_reserved":false,"is_disabled":false,"rental_uris":{"android":"levelo://app?vid=47fd440a-6b7d-4496-b183-0bcd99366c30","ios":"levelo://app?vid=47fd440a-6b7d-4496-b183-0bcd99366c30"},"vehicle_type_id":"4","last_reported":1699599976,"current_range_meters":29200,"station_id":"ce4bgjh2rcd13ifvqbg0","pricing_plan_id":"free"},{"bike_id":"ea2880c4-648c-4644-8a8b-77923cbacd6f","system_id":"levelo_inurba_marseille","lat":43.297794,"lon":5.370888,"is_reserved":false,"is_disabled":false,"rental_uris":{"android":"levelo://app?vid=ea2880c4-648c-4644-8a8b-77923cbacd6f","ios":"levelo://app?vid=ea2880c4-648c-4644-8a8b-77923cbacd6f"},"vehicle_type_id":"4","last_reported":1699599976,"current_range_meters":30000,"station_id":"ce4bgop2rcd13ifvqc1g","pricing_plan_id":"free"},{"bike_id":"6abc6ed3-7ee5-474c-b332-4aeb367ba6b7","system_id":"levelo_inurba_marseille","lat":43.322872,"lon":5.382756,"is_reserved":false,"is_disabled":false,"rental_uris":{"android":"levelo://app?vid=6abc6ed3-7ee5-474c-b332-4aeb367ba6b7","ios":"levelo://app?vid=6abc6ed3-7ee5-474c-b332-4aeb367ba6b7"},"vehicle_type_id":"4","last_reported":1699599976,"current_range_meters":24400,"station_id":"ce4bhr12rcd13ifvqhqg","pricing_plan_id":"free"},{"bike_id":"adec3add-adaa-4c07-9d6b-d29fb6c4f19c","system_id":"levelo_inurba_marseille","lat":43.322872,"lon":5.382756,"is_reserved":false,"is_disabled":false,"rental_uris":{"android":"levelo://app?vid=adec3add-adaa-4c07-9d6b-d29fb6c4f19c","ios":"levelo://app?vid=adec3add-adaa-4c07-9d6b-d29fb6c4f19c"},"vehicle_type_id":"4","last_reported":1699599976,"current_range_meters":31200,"station_id":"ce4bhr12rcd13ifvqhqg","pricing_plan_id":"free"},{"bike_id":"e4a895a8-c6d1-4804-993c-b111541ae28a","system_id":"levelo_inurba_marseille","lat":43.322872,"lon":5.382756,"is_reserved":false,"is_disabled":false,"rental_uris":{"android":"levelo://app?vid=e4a895a8-c6d1-4804-993c-b111541ae28a","ios":"levelo://app?vid=e4a895a8-c6d1-4804-993c-b111541ae28a"},"vehicle_type_id":"4","last_reported":1699599976,"current_range_meters":11600,"station_id":"ce4bhr12rcd13ifvqhqg","pricing_plan_id":"free"},{"bike_id":"3107b7f8-ab0e-4ce9-87df-bf5ce8e59681","system_id":"levelo_inurba_marseille","lat":43.322901,"lon":5.382744,"is_reserved":false,"is_disabled":false,"rental_uris":{"android":"levelo://app?vid=3107b7f8-ab0e-4ce9-87df-bf5ce8e59681","ios":"levelo://app?vid=3107b7f8-ab0e-4ce9-87df-bf5ce8e59681"},"vehicle_type_id":"4","last_reported":1699599976,"current_range_meters":16400,"station_id":"ce4bhr12rcd13ifvqhqg","pricing_plan_id":"free"},{"bike_id":"85b43ff3-b7db-469f-be6c-8d2f5b545272","system_id":"levelo_inurba_marseille","lat":43.3283,"lon":5.36676,"is_reserved":false,"is_disabled":false,"rental_uris":{"android":"levelo://app?vid=85b43ff3-b7db-469f-be6c-8d2f5b545272","ios":"levelo://app?vid=85b43ff3-b7db-469f-be6c-8d2f5b545272"},"vehicle_type_id":"4","last_reported":1699599976,"current_range_meters":3600,"station_id":"ce4bhs92rcd13ifvqi0g","pricing_plan_id":"free"},{"bike_id":"93fd75ac-3a1f-47ce-894f-4665acf4bef2","system_id":"levelo_inurba_marseille","lat":43.32833,"lon":5.36676,"is_reserved":false,"is_disabled":false,"rental_uris":{"android":"levelo://app?vid=93fd75ac-3a1f-47ce-894f-4665acf4bef2","ios":"levelo://app?vid=93fd75ac-3a1f-47ce-894f-4665acf4bef2"},"vehicle_type_id":"4","last_reported":1699599976,"current_range_meters":4000,"station_id":"ce4bhs92rcd13ifvqi0g","pricing_plan_id":"free"},{"bike_id":"f437c1fb-b5f1-44fe-aa69-52bd1cd9ade2","system_id":"levelo_inurba_marseille","lat":43.328371,"lon":5.366909,"is_reserved":false,"is_disabled":false,"rental_uris":{"android":"levelo://app?vid=f437c1fb-b5f1-44fe-aa69-52bd1cd9ade2","ios":"levelo://app?vid=f437c1fb-b5f1-44fe-aa69-52bd1cd9ade2"},"vehicle_type_id":"4","last_reported":1699599976,"current_range_meters":17200,"station_id":"ce4bhs92rcd13ifvqi0g","pricing_plan_id":"free"},{"bike_id":"e39b6328-f87e-46fd-808e-0be999791c6d","system_id":"levelo_inurba_marseille","lat":43.304606,"lon":5.379026,"is_reserved":false,"is_disabled":false,"rental_uris":{"android":"levelo://app?vid=e39b6328-f87e-46fd-808e-0be999791c6d","ios":"levelo://app?vid=e39b6328-f87e-46fd-808e-0be999791c6d"},"vehicle_type_id":"4","last_reported":1699599976,"current_range_meters":14400,"station_id":"ce4bgup2rcd13ifvqcn0","pricing_plan_id":"free"},{"bike_id":"547558d2-d8a3-47c3-8381-a4377ae77cfa","system_id":"levelo_inurba_marseille","lat":43.295963,"lon":5.368107,"is_reserved":false,"is_disabled":false,"rental_uris":{"android":"levelo://app?vid=547558d2-d8a3-47c3-8381-a4377ae77cfa","ios":"levelo://app?vid=547558d2-d8a3-47c3-8381-a4377ae77cfa"},"vehicle_type_id":"4","last_reported":1699599976,"current_range_meters":24800,"station_id":"","pricing_plan_id":"free"},{"bike_id":"ad56d774-dca3-4c3c-a0ea-7f478a0582a3","system_id":"levelo_inurba_marseille","lat":43.296131,"lon":5.370791,"is_reserved":false,"is_disabled":false,"rental_uris":{"android":"levelo://app?vid=ad56d774-dca3-4c3c-a0ea-7f478a0582a3","ios":"levelo://app?vid=ad56d774-dca3-4c3c-a0ea-7f478a0582a3"},"vehicle_type_id":"4","last_reported":1699599976,"current_range_meters":27600,"station_id":"ce4bgnh2rcd13ifvqc0g","pricing_plan_id":"free"},{"bike_id":"d447991a-59b4-4778-a190-7d2b0920a414","system_id":"levelo_inurba_marseille","lat":43.32215,"lon":5.38613,"is_reserved":false,"is_disabled":false,"rental_uris":{"android":"levelo://app?vid=d447991a-59b4-4778-a190-7d2b0920a414","ios":"levelo://app?vid=d447991a-59b4-4778-a190-7d2b0920a414"},"vehicle_type_id":"4","last_reported":1699599976,"current_range_meters":25600,"station_id":"","pricing_plan_id":"free"},{"bike_id":"f95f8ab5-9257-4c7e-859c-935fe8b7aa3e","system_id":"levelo_inurba_marseille","lat":43.29734,"lon":5.37679,"is_reserved":false,"is_disabled":false,"rental_uris":{"android":"levelo://app?vid=f95f8ab5-9257-4c7e-859c-935fe8b7aa3e","ios":"levelo://app?vid=f95f8ab5-9257-4c7e-859c-935fe8b7aa3e"},"vehicle_type_id":"4","last_reported":1699599976,"current_range_meters":23200,"station_id":"ce4bgkh2rcd13ifvqbl0","pricing_plan_id":"free"},{"bike_id":"bbd238a3-34ec-49b6-beb2-ddc2cf13b9fd","system_id":"levelo_inurba_marseille","lat":43.296935,"lon":5.376544,"is_reserved":false,"is_disabled":false,"rental_uris":{"android":"levelo://app?vid=bbd238a3-34ec-49b6-beb2-ddc2cf13b9fd","ios":"levelo://app?vid=bbd238a3-34ec-49b6-beb2-ddc2cf13b9fd"},"vehicle_type_id":"4","last_reported":1699599976,"current_range_meters":26400,"station_id":"ce4bgkh2rcd13ifvqbl0","pricing_plan_id":"free"},{"bike_id":"18e1d70f-a619-47e9-a935-69a73d34e29a","system_id":"levelo_inurba_marseille","lat":43.299028,"lon":5.381509,"is_reserved":false,"is_disabled":false,"rental_uris":{"android":"levelo://app?vid=18e1d70f-a619-47e9-a935-69a73d34e29a","ios":"levelo://app?vid=18e1d70f-a619-47e9-a935-69a73d34e29a"},"vehicle_type_id":"4","last_reported":1699599976,"current_range_meters":30800,"station_id":"ce4bgj12rcd13ifvqbc0","pricing_plan_id":"free"},{"bike_id":"da57843f-3e8d-4652-9c83-4ef1c2a3f4cc","system_id":"levelo_inurba_marseille","lat":43.299028,"lon":5.381509,"is_reserved":false,"is_disabled":false,"rental_uris":{"android":"levelo://app?vid=da57843f-3e8d-4652-9c83-4ef1c2a3f4cc","ios":"levelo://app?vid=da57843f-3e8d-4652-9c83-4ef1c2a3f4cc"},"vehicle_type_id":"4","last_reported":1699599976,"current_range_meters":30800,"station_id":"ce4bgj12rcd13ifvqbc0","pricing_plan_id":"free"},{"bike_id":"7c5b2ce2-e80d-4552-ad49-1bc8cd5d92c3","system_id":"levelo_inurba_marseille","lat":43.317507,"lon":5.390067,"is_reserved":false,"is_disabled":false,"rental_uris":{"android":"levelo://app?vid=7c5b2ce2-e80d-4552-ad49-1bc8cd5d92c3","ios":"levelo://app?vid=7c5b2ce2-e80d-4552-ad49-1bc8cd5d92c3"},"vehicle_type_id":"4","last_reported":1699599976,"current_range_meters":12000,"station_id":"ce4bhqp2rcd13ifvqhng","pricing_plan_id":"free"},{"bike_id":"6d3b5694-ce1f-4cba-a2cf-1fb38f85a8ca","system_id":"levelo_inurba_marseille","lat":43.317557,"lon":5.390173,"is_reserved":false,"is_disabled":false,"rental_uris":{"android":"levelo://app?vid=6d3b5694-ce1f-4cba-a2cf-1fb38f85a8ca","ios":"levelo://app?vid=6d3b5694-ce1f-4cba-a2cf-1fb38f85a8ca"},"vehicle_type_id":"4","last_reported":1699599976,"current_range_meters":29200,"station_id":"ce4bhqp2rcd13ifvqhng","pricing_plan_id":"free"},{"bike_id":"519b2c4c-d843-4a4a-8925-fbf1ca622951","system_id":"levelo_inurba_marseille","lat":43.298037,"lon":5.381066,"is_reserved":false,"is_disabled":false,"rental_uris":{"android":"levelo://app?vid=519b2c4c-d843-4a4a-8925-fbf1ca622951","ios":"levelo://app?vid=519b2c4c-d843-4a4a-8925-fbf1ca622951"},"vehicle_type_id":"4","last_reported":1699599976,"current_range_meters":24000,"station_id":"ce4bgip2rcd13ifvqbb0","pricing_plan_id":"free"},{"bike_id":"6625e6f1-964c-42f0-9a7b-9bfffba4d698","system_id":"levelo_inurba_marseille","lat":43.298037,"lon":5.381066,"is_reserved":false,"is_disabled":false,"rental_uris":{"android":"levelo://app?vid=6625e6f1-964c-42f0-9a7b-9bfffba4d698","ios":"levelo://app?vid=6625e6f1-964c-42f0-9a7b-9bfffba4d698"},"vehicle_type_id":"4","last_reported":1699599976,"current_range_meters":21200,"station_id":"ce4bgip2rcd13ifvqbb0","pricing_plan_id":"free"},{"bike_id":"45de3e4e-0090-4ee6-9f62-cf3c0f2251bb","system_id":"levelo_inurba_marseille","lat":43.298037,"lon":5.381066,"is_reserved":false,"is_disabled":false,"rental_uris":{"android":"levelo://app?vid=45de3e4e-0090-4ee6-9f62-cf3c0f2251bb","ios":"levelo://app?vid=45de3e4e-0090-4ee6-9f62-cf3c0f2251bb"},"vehicle_type_id":"4","last_reported":1699599976,"current_range_meters":30800,"station_id":"ce4bgip2rcd13ifvqbb0","pricing_plan_id":"free"},{"bike_id":"f2b41c9a-2ca6-4a84-9dca-247ee0c14b4d","system_id":"levelo_inurba_marseille","lat":43.29795,"lon":5.38104,"is_reserved":false,"is_disabled":false,"rental_uris":{"android":"levelo://app?vid=f2b41c9a-2ca6-4a84-9dca-247ee0c14b4d","ios":"levelo://app?vid=f2b41c9a-2ca6-4a84-9dca-247ee0c14b4d"},"vehicle_type_id":"4","last_reported":1699599976,"current_range_meters":31200,"station_id":"ce4bgip2rcd13ifvqbb0","pricing_plan_id":"free"},{"bike_id":"425e24c3-75e8-4016-bec1-aa4c9126f4e6","system_id":"levelo_inurba_marseille","lat":43.304274,"lon":5.388873,"is_reserved":false,"is_disabled":false,"rental_uris":{"android":"levelo://app?vid=425e24c3-75e8-4016-bec1-aa4c9126f4e6","ios":"levelo://app?vid=425e24c3-75e8-4016-bec1-aa4c9126f4e6"},"vehicle_type_id":"4","last_reported":1699599976,"current_range_meters":20800,"station_id":"ce4bgk12rcd13ifvqbi0","pricing_plan_id":"free"},{"bike_id":"c9575e97-d8a4-4a76-a9b0-4b5d44c39dfa","system_id":"levelo_inurba_marseille","lat":43.2962,"lon":5.377352,"is_reserved":false,"is_disabled":false,"rental_uris":{"android":"levelo://app?vid=c9575e97-d8a4-4a76-a9b0-4b5d44c39dfa","ios":"levelo://app?vid=c9575e97-d8a4-4a76-a9b0-4b5d44c39dfa"},"vehicle_type_id":"4","last_reported":1699599976,"current_range_meters":23600,"station_id":"ce4bgi92rcd13ifvqb90","pricing_plan_id":"free"},{"bike_id":"ec2cc277-6b78-423e-9240-c2e3eaa218b9","system_id":"levelo_inurba_marseille","lat":43.29608,"lon":5.37702,"is_reserved":false,"is_disabled":false,"rental_uris":{"android":"levelo://app?vid=ec2cc277-6b78-423e-9240-c2e3eaa218b9","ios":"levelo://app?vid=ec2cc277-6b78-423e-9240-c2e3eaa218b9"},"vehicle_type_id":"4","last_reported":1699599976,"current_range_meters":4800,"station_id":"ce4bgi92rcd13ifvqb90","pricing_plan_id":"free"},{"bike_id":"a24c82e7-7fa8-4f89-a4a2-8e6f4b89a5db","system_id":"levelo_inurba_marseille","lat":43.296263,"lon":5.377094,"is_reserved":false,"is_disabled":false,"rental_uris":{"android":"levelo://app?vid=a24c82e7-7fa8-4f89-a4a2-8e6f4b89a5db","ios":"levelo://app?vid=a24c82e7-7fa8-4f89-a4a2-8e6f4b89a5db"},"vehicle_type_id":"4","last_reported":1699599976,"current_range_meters":26800,"station_id":"ce4bgi92rcd13ifvqb90","pricing_plan_id":"free"},{"bike_id":"ab157d71-2cea-4f9d-9575-2d4925f8cdd5","system_id":"levelo_inurba_marseille","lat":43.296015,"lon":5.37717,"is_reserved":false,"is_disabled":false,"rental_uris":{"android":"levelo://app?vid=ab157d71-2cea-4f9d-9575-2d4925f8cdd5","ios":"levelo://app?vid=ab157d71-2cea-4f9d-9575-2d4925f8cdd5"},"vehicle_type_id":"4","last_reported":1699599976,"current_range_meters":24400,"station_id":"ce4bgi92rcd13ifvqb90","pricing_plan_id":"free"},{"bike_id":"443f43a9-98a1-45c8-ba00-40f2a0de410b","system_id":"levelo_inurba_marseille","lat":43.295279,"lon":5.375048,"is_reserved":false,"is_disabled":false,"rental_uris":{"android":"levelo://app?vid=443f43a9-98a1-45c8-ba00-40f2a0de410b","ios":"levelo://app?vid=443f43a9-98a1-45c8-ba00-40f2a0de410b"},"vehicle_type_id":"4","last_reported":1699599976,"current_range_meters":10800,"station_id":"ce4bgkp2rcd13ifvqbmg","pricing_plan_id":"free"},{"bike_id":"e9e869b5-a568-4c18-95cf-83860354e2c3","system_id":"levelo_inurba_marseille","lat":43.299717,"lon":5.384845,"is_reserved":false,"is_disabled":false,"rental_uris":{"android":"levelo://app?vid=e9e869b5-a568-4c18-95cf-83860354e2c3","ios":"levelo://app?vid=e9e869b5-a568-4c18-95cf-83860354e2c3"},"vehicle_type_id":"4","last_reported":1699599976,"current_range_meters":10000,"station_id":"ce4bgj92rcd13ifvqbd0","pricing_plan_id":"free"},{"bike_id":"a26a672c-8f86-40f5-9e8e-9856cf399a24","system_id":"levelo_inurba_marseille","lat":43.299707,"lon":5.384859,"is_reserved":false,"is_disabled":false,"rental_uris":{"android":"levelo://app?vid=a26a672c-8f86-40f5-9e8e-9856cf399a24","ios":"levelo://app?vid=a26a672c-8f86-40f5-9e8e-9856cf399a24"},"vehicle_type_id":"4","last_reported":1699599976,"current_range_meters":30000,"station_id":"ce4bgj92rcd13ifvqbd0","pricing_plan_id":"free"},{"bike_id":"dba2c1a2-e6a9-451b-9545-95869c02b46f","system_id":"levelo_inurba_marseille","lat":43.329065,"lon":5.379814,"is_reserved":false,"is_disabled":false,"rental_uris":{"android":"levelo://app?vid=dba2c1a2-e6a9-451b-9545-95869c02b46f","ios":"levelo://app?vid=dba2c1a2-e6a9-451b-9545-95869c02b46f"},"vehicle_type_id":"4","last_reported":1699599976,"current_range_meters":0,"station_id":"","pricing_plan_id":"free"},{"bike_id":"dcb02e5a-867d-44ad-bdb3-d6dbc6547785","system_id":"levelo_inurba_marseille","lat":43.32367,"lon":5.388836,"is_reserved":false,"is_disabled":false,"rental_uris":{"android":"levelo://app?vid=dcb02e5a-867d-44ad-bdb3-d6dbc6547785","ios":"levelo://app?vid=dcb02e5a-867d-44ad-bdb3-d6dbc6547785"},"vehicle_type_id":"4","last_reported":1699599976,"current_range_meters":6800,"station_id":"ce4bhqp2rcd13ifvqhog","pricing_plan_id":"free"},{"bike_id":"f8e5c1ce-82bd-483b-b08e-b5a88f2eb2a1","system_id":"levelo_inurba_marseille","lat":43.32363,"lon":5.38885,"is_reserved":false,"is_disabled":false,"rental_uris":{"android":"levelo://app?vid=f8e5c1ce-82bd-483b-b08e-b5a88f2eb2a1","ios":"levelo://app?vid=f8e5c1ce-82bd-483b-b08e-b5a88f2eb2a1"},"vehicle_type_id":"4","last_reported":1699599976,"current_range_meters":21600,"station_id":"ce4bhqp2rcd13ifvqhog","pricing_plan_id":"free"},{"bike_id":"86cb9ac9-b463-4685-9339-675fa104b7d1","system_id":"levelo_inurba_marseille","lat":43.323664,"lon":5.388829,"is_reserved":false,"is_disabled":false,"rental_uris":{"android":"levelo://app?vid=86cb9ac9-b463-4685-9339-675fa104b7d1","ios":"levelo://app?vid=86cb9ac9-b463-4685-9339-675fa104b7d1"},"vehicle_type_id":"4","last_reported":1699599976,"current_range_meters":0,"station_id":"ce4bhqp2rcd13ifvqhog","pricing_plan_id":"free"},{"bike_id":"61fc040a-ad48-411a-aadb-f0a6672483c3","system_id":"levelo_inurba_marseille","lat":43.32365,"lon":5.38887,"is_reserved":false,"is_disabled":false,"rental_uris":{"android":"levelo://app?vid=61fc040a-ad48-411a-aadb-f0a6672483c3","ios":"levelo://app?vid=61fc040a-ad48-411a-aadb-f0a6672483c3"},"vehicle_type_id":"4","last_reported":1699599976,"current_range_meters":800,"station_id":"ce4bhqp2rcd13ifvqhog","pricing_plan_id":"free"},{"bike_id":"b5fca802-c5de-42df-a3ae-0584993d7101","system_id":"levelo_inurba_marseille","lat":43.32367,"lon":5.38886,"is_reserved":false,"is_disabled":false,"rental_uris":{"android":"levelo://app?vid=b5fca802-c5de-42df-a3ae-0584993d7101","ios":"levelo://app?vid=b5fca802-c5de-42df-a3ae-0584993d7101"},"vehicle_type_id":"4","last_reported":1699599976,"current_range_meters":2000,"station_id":"ce4bhqp2rcd13ifvqhog","pricing_plan_id":"free"},{"bike_id":"eb3d4d6c-8b22-4f35-8c0b-013914d224a5","system_id":"levelo_inurba_marseille","lat":43.29602,"lon":5.381084,"is_reserved":false,"is_disabled":false,"rental_uris":{"android":"levelo://app?vid=eb3d4d6c-8b22-4f35-8c0b-013914d224a5","ios":"levelo://app?vid=eb3d4d6c-8b22-4f35-8c0b-013914d224a5"},"vehicle_type_id":"4","last_reported":1699599976,"current_range_meters":31200,"station_id":"ce4bgl12rcd13ifvqbo0","pricing_plan_id":"free"},{"bike_id":"4a25991b-41a7-45ef-868f-91a17d69b947","system_id":"levelo_inurba_marseille","lat":43.29602,"lon":5.381084,"is_reserved":false,"is_disabled":false,"rental_uris":{"android":"levelo://app?vid=4a25991b-41a7-45ef-868f-91a17d69b947","ios":"levelo://app?vid=4a25991b-41a7-45ef-868f-91a17d69b947"},"vehicle_type_id":"4","last_reported":1699599976,"current_range_meters":23600,"station_id":"ce4bgl12rcd13ifvqbo0","pricing_plan_id":"free"},{"bike_id":"8cf46ba7-2ec2-41d9-81dd-b3affd5fce89","system_id":"levelo_inurba_marseille","lat":43.29601,"lon":5.381084,"is_reserved":false,"is_disabled":false,"rental_uris":{"android":"levelo://app?vid=8cf46ba7-2ec2-41d9-81dd-b3affd5fce89","ios":"levelo://app?vid=8cf46ba7-2ec2-41d9-81dd-b3affd5fce89"},"vehicle_type_id":"4","last_reported":1699599976,"current_range_meters":22800,"station_id":"ce4bgl12rcd13ifvqbo0","pricing_plan_id":"free"},{"bike_id":"14489c9b-49cd-473d-ab01-ed45ea431c3b","system_id":"levelo_inurba_marseille","lat":43.29279,"lon":5.36851,"is_reserved":false,"is_disabled":false,"rental_uris":{"android":"levelo://app?vid=14489c9b-49cd-473d-ab01-ed45ea431c3b","ios":"levelo://app?vid=14489c9b-49cd-473d-ab01-ed45ea431c3b"},"vehicle_type_id":"4","last_reported":1699599976,"current_range_meters":22800,"station_id":"ce4bhbp2rcd13ifvqesg","pricing_plan_id":"free"},{"bike_id":"1f2edeec-835f-4188-b75a-b19c37bb1dac","system_id":"levelo_inurba_marseille","lat":43.30109,"lon":5.3894,"is_reserved":false,"is_disabled":false,"rental_uris":{"android":"levelo://app?vid=1f2edeec-835f-4188-b75a-b19c37bb1dac","ios":"levelo://app?vid=1f2edeec-835f-4188-b75a-b19c37bb1dac"},"vehicle_type_id":"4","last_reported":1699599976,"current_range_meters":11600,"station_id":"","pricing_plan_id":"free"},{"bike_id":"72c35c64-2754-436a-bcf6-d88e50a24575","system_id":"levelo_inurba_marseille","lat":43.29272,"lon":5.370901,"is_reserved":false,"is_disabled":false,"rental_uris":{"android":"levelo://app?vid=72c35c64-2754-436a-bcf6-d88e50a24575","ios":"levelo://app?vid=72c35c64-2754-436a-bcf6-d88e50a24575"},"vehicle_type_id":"4","last_reported":1699599976,"current_range_meters":11600,"station_id":"","pricing_plan_id":"free"},{"bike_id":"f6588060-901a-48ba-8a76-66948ed90148","system_id":"levelo_inurba_marseille","lat":43.305994,"lon":5.393687,"is_reserved":false,"is_disabled":false,"rental_uris":{"android":"levelo://app?vid=f6588060-901a-48ba-8a76-66948ed90148","ios":"levelo://app?vid=f6588060-901a-48ba-8a76-66948ed90148"},"vehicle_type_id":"4","last_reported":1699599976,"current_range_meters":27200,"station_id":"ce4bh0p2rcd13ifvqd80","pricing_plan_id":"free"},{"bike_id":"1025aac0-7983-4d4b-b1f3-b8e852bcbfad","system_id":"levelo_inurba_marseille","lat":43.305994,"lon":5.393687,"is_reserved":false,"is_disabled":false,"rental_uris":{"android":"levelo://app?vid=1025aac0-7983-4d4b-b1f3-b8e852bcbfad","ios":"levelo://app?vid=1025aac0-7983-4d4b-b1f3-b8e852bcbfad"},"vehicle_type_id":"4","last_reported":1699599976,"current_range_meters":24000,"station_id":"ce4bh0p2rcd13ifvqd80","pricing_plan_id":"free"},{"bike_id":"75e2b34d-9d09-4a48-8db8-e5cfa925e830","system_id":"levelo_inurba_marseille","lat":43.305994,"lon":5.393687,"is_reserved":false,"is_disabled":false,"rental_uris":{"android":"levelo://app?vid=75e2b34d-9d09-4a48-8db8-e5cfa925e830","ios":"levelo://app?vid=75e2b34d-9d09-4a48-8db8-e5cfa925e830"},"vehicle_type_id":"4","last_reported":1699599976,"current_range_meters":26000,"station_id":"ce4bh0p2rcd13ifvqd80","pricing_plan_id":"free"},{"bike_id":"086dfcc6-cdff-4cdb-b553-cef33e694878","system_id":"levelo_inurba_marseille","lat":43.305994,"lon":5.393687,"is_reserved":false,"is_disabled":false,"rental_uris":{"android":"levelo://app?vid=086dfcc6-cdff-4cdb-b553-cef33e694878","ios":"levelo://app?vid=086dfcc6-cdff-4cdb-b553-cef33e694878"},"vehicle_type_id":"4","last_reported":1699599976,"current_range_meters":22800,"station_id":"ce4bh0p2rcd13ifvqd80","pricing_plan_id":"free"},{"bike_id":"e3adbc6b-8a83-4feb-b6ef-093a596684d3","system_id":"levelo_inurba_marseille","lat":43.293009,"lon":5.374584,"is_reserved":false,"is_disabled":false,"rental_uris":{"android":"levelo://app?vid=e3adbc6b-8a83-4feb-b6ef-093a596684d3","ios":"levelo://app?vid=e3adbc6b-8a83-4feb-b6ef-093a596684d3"},"vehicle_type_id":"4","last_reported":1699599976,"current_range_meters":13200,"station_id":"ce4bgi12rcd13ifvqb70","pricing_plan_id":"free"},{"bike_id":"269245ab-ee3c-4dc1-ac07-5a65b6c396d3","system_id":"levelo_inurba_marseille","lat":43.30596,"lon":5.39357,"is_reserved":false,"is_disabled":false,"rental_uris":{"android":"levelo://app?vid=269245ab-ee3c-4dc1-ac07-5a65b6c396d3","ios":"levelo://app?vid=269245ab-ee3c-4dc1-ac07-5a65b6c396d3"},"vehicle_type_id":"4","last_reported":1699599976,"current_range_meters":3600,"station_id":"ce4bh0p2rcd13ifvqd80","pricing_plan_id":"free"},{"bike_id":"c0972671-ae4e-4615-a30c-3636d9cf2fb9","system_id":"levelo_inurba_marseille","lat":43.293009,"lon":5.374584,"is_reserved":false,"is_disabled":false,"rental_uris":{"android":"levelo://app?vid=c0972671-ae4e-4615-a30c-3636d9cf2fb9","ios":"levelo://app?vid=c0972671-ae4e-4615-a30c-3636d9cf2fb9"},"vehicle_type_id":"4","last_reported":1699599976,"current_range_meters":30800,"station_id":"ce4bgi12rcd13ifvqb70","pricing_plan_id":"free"},{"bike_id":"3ad5367e-e483-4e1b-8422-777ace0a3d72","system_id":"levelo_inurba_marseille","lat":43.305994,"lon":5.393687,"is_reserved":false,"is_disabled":false,"rental_uris":{"android":"levelo://app?vid=3ad5367e-e483-4e1b-8422-777ace0a3d72","ios":"levelo://app?vid=3ad5367e-e483-4e1b-8422-777ace0a3d72"},"vehicle_type_id":"4","last_reported":1699599976,"current_range_meters":11600,"station_id":"ce4bh0p2rcd13ifvqd80","pricing_plan_id":"free"},{"bike_id":"3f3ef66f-ddcc-44c2-a74f-1c41395cd35f","system_id":"levelo_inurba_marseille","lat":43.305994,"lon":5.393687,"is_reserved":false,"is_disabled":false,"rental_uris":{"android":"levelo://app?vid=3f3ef66f-ddcc-44c2-a74f-1c41395cd35f","ios":"levelo://app?vid=3f3ef66f-ddcc-44c2-a74f-1c41395cd35f"},"vehicle_type_id":"4","last_reported":1699599976,"current_range_meters":22000,"station_id":"ce4bh0p2rcd13ifvqd80","pricing_plan_id":"free"},{"bike_id":"635c7f15-557e-4e93-aa48-9ebf179c8608","system_id":"levelo_inurba_marseille","lat":43.29375,"lon":5.37822,"is_reserved":false,"is_disabled":false,"rental_uris":{"android":"levelo://app?vid=635c7f15-557e-4e93-aa48-9ebf179c8608","ios":"levelo://app?vid=635c7f15-557e-4e93-aa48-9ebf179c8608"},"vehicle_type_id":"4","last_reported":1699599976,"current_range_meters":14800,"station_id":"ce4bgjh2rcd13ifvqbf0","pricing_plan_id":"free"},{"bike_id":"fa4d4273-bb9a-4037-b083-fadd0b50448c","system_id":"levelo_inurba_marseille","lat":43.302992,"lon":5.392136,"is_reserved":false,"is_disabled":false,"rental_uris":{"android":"levelo://app?vid=fa4d4273-bb9a-4037-b083-fadd0b50448c","ios":"levelo://app?vid=fa4d4273-bb9a-4037-b083-fadd0b50448c"},"vehicle_type_id":"4","last_reported":1699599976,"current_range_meters":4400,"station_id":"ce4bgkh2rcd13ifvqbk0","pricing_plan_id":"free"},{"bike_id":"1a1017d7-f7c2-49be-889f-0a84431916bd","system_id":"levelo_inurba_marseille","lat":43.2936,"lon":5.37835,"is_reserved":false,"is_disabled":false,"rental_uris":{"android":"levelo://app?vid=1a1017d7-f7c2-49be-889f-0a84431916bd","ios":"levelo://app?vid=1a1017d7-f7c2-49be-889f-0a84431916bd"},"vehicle_type_id":"4","last_reported":1699599976,"current_range_meters":3600,"station_id":"ce4bgjh2rcd13ifvqbf0","pricing_plan_id":"free"},{"bike_id":"6cfb0299-1653-48c3-bda0-eef57a934d8e","system_id":"levelo_inurba_marseille","lat":43.2936,"lon":5.37835,"is_reserved":false,"is_disabled":false,"rental_uris":{"android":"levelo://app?vid=6cfb0299-1653-48c3-bda0-eef57a934d8e","ios":"levelo://app?vid=6cfb0299-1653-48c3-bda0-eef57a934d8e"},"vehicle_type_id":"4","last_reported":1699599976,"current_range_meters":11200,"station_id":"ce4bgjh2rcd13ifvqbf0","pricing_plan_id":"free"},{"bike_id":"cd2907d3-43b1-435a-b1ba-0b9acb8884a6","system_id":"levelo_inurba_marseille","lat":43.302992,"lon":5.392136,"is_reserved":false,"is_disabled":false,"rental_uris":{"android":"levelo://app?vid=cd2907d3-43b1-435a-b1ba-0b9acb8884a6","ios":"levelo://app?vid=cd2907d3-43b1-435a-b1ba-0b9acb8884a6"},"vehicle_type_id":"4","last_reported":1699599976,"current_range_meters":30800,"station_id":"ce4bgkh2rcd13ifvqbk0","pricing_plan_id":"free"},{"bike_id":"a7cc0a0b-1b31-4f8f-a2be-959b6160251c","system_id":"levelo_inurba_marseille","lat":43.308848,"lon":5.396344,"is_reserved":false,"is_disabled":false,"rental_uris":{"android":"levelo://app?vid=a7cc0a0b-1b31-4f8f-a2be-959b6160251c","ios":"levelo://app?vid=a7cc0a0b-1b31-4f8f-a2be-959b6160251c"},"vehicle_type_id":"4","last_reported":1699599976,"current_range_meters":31200,"station_id":"ce4bh012rcd13ifvqcv0","pricing_plan_id":"free"},{"bike_id":"ff6be9b5-ba31-43d9-b876-46363c3bd635","system_id":"levelo_inurba_marseille","lat":43.309038,"lon":5.396546,"is_reserved":false,"is_disabled":false,"rental_uris":{"android":"levelo://app?vid=ff6be9b5-ba31-43d9-b876-46363c3bd635","ios":"levelo://app?vid=ff6be9b5-ba31-43d9-b876-46363c3bd635"},"vehicle_type_id":"4","last_reported":1699599976,"current_range_meters":30000,"station_id":"ce4bh012rcd13ifvqcv0","pricing_plan_id":"free"},{"bike_id":"69915967-cb2a-4026-97a0-2f354509b5d2","system_id":"levelo_inurba_marseille","lat":43.309038,"lon":5.396546,"is_reserved":false,"is_disabled":false,"rental_uris":{"android":"levelo://app?vid=69915967-cb2a-4026-97a0-2f354509b5d2","ios":"levelo://app?vid=69915967-cb2a-4026-97a0-2f354509b5d2"},"vehicle_type_id":"4","last_reported":1699599976,"current_range_meters":31200,"station_id":"ce4bh012rcd13ifvqcv0","pricing_plan_id":"free"},{"bike_id":"d94f093d-8fc5-4f4c-a0a7-c3543f5e4af0","system_id":"levelo_inurba_marseille","lat":43.309038,"lon":5.396546,"is_reserved":false,"is_disabled":false,"rental_uris":{"android":"levelo://app?vid=d94f093d-8fc5-4f4c-a0a7-c3543f5e4af0","ios":"levelo://app?vid=d94f093d-8fc5-4f4c-a0a7-c3543f5e4af0"},"vehicle_type_id":"4","last_reported":1699599976,"current_range_meters":28800,"station_id":"ce4bh012rcd13ifvqcv0","pricing_plan_id":"free"},{"bike_id":"78d6c6ef-cc0b-43a1-8a01-a5955cb76bdb","system_id":"levelo_inurba_marseille","lat":43.309038,"lon":5.396546,"is_reserved":false,"is_disabled":false,"rental_uris":{"android":"levelo://app?vid=78d6c6ef-cc0b-43a1-8a01-a5955cb76bdb","ios":"levelo://app?vid=78d6c6ef-cc0b-43a1-8a01-a5955cb76bdb"},"vehicle_type_id":"4","last_reported":1699599976,"current_range_meters":11200,"station_id":"ce4bh012rcd13ifvqcv0","pricing_plan_id":"free"},{"bike_id":"bfd7a5a1-bd95-43e0-9e62-e135826c4a64","system_id":"levelo_inurba_marseille","lat":43.308884,"lon":5.396437,"is_reserved":false,"is_disabled":false,"rental_uris":{"android":"levelo://app?vid=bfd7a5a1-bd95-43e0-9e62-e135826c4a64","ios":"levelo://app?vid=bfd7a5a1-bd95-43e0-9e62-e135826c4a64"},"vehicle_type_id":"4","last_reported":1699599976,"current_range_meters":20400,"station_id":"ce4bh012rcd13ifvqcv0","pricing_plan_id":"free"},{"bike_id":"f8b2424b-88f6-445b-8659-97d4816bc26c","system_id":"levelo_inurba_marseille","lat":43.308878,"lon":5.39645,"is_reserved":false,"is_disabled":false,"rental_uris":{"android":"levelo://app?vid=f8b2424b-88f6-445b-8659-97d4816bc26c","ios":"levelo://app?vid=f8b2424b-88f6-445b-8659-97d4816bc26c"},"vehicle_type_id":"4","last_reported":1699599976,"current_range_meters":8000,"station_id":"ce4bh012rcd13ifvqcv0","pricing_plan_id":"free"},{"bike_id":"e78f20f7-1fd3-46b8-a1a1-17a19042c672","system_id":"levelo_inurba_marseille","lat":43.308808,"lon":5.396437,"is_reserved":false,"is_disabled":false,"rental_uris":{"android":"levelo://app?vid=e78f20f7-1fd3-46b8-a1a1-17a19042c672","ios":"levelo://app?vid=e78f20f7-1fd3-46b8-a1a1-17a19042c672"},"vehicle_type_id":"4","last_reported":1699599976,"current_range_meters":17600,"station_id":"ce4bh012rcd13ifvqcv0","pricing_plan_id":"free"},{"bike_id":"dca08a3f-ed1d-4403-8c1b-c61fe769e756","system_id":"levelo_inurba_marseille","lat":43.30887,"lon":5.39648,"is_reserved":false,"is_disabled":false,"rental_uris":{"android":"levelo://app?vid=dca08a3f-ed1d-4403-8c1b-c61fe769e756","ios":"levelo://app?vid=dca08a3f-ed1d-4403-8c1b-c61fe769e756"},"vehicle_type_id":"4","last_reported":1699599976,"current_range_meters":15600,"station_id":"ce4bh012rcd13ifvqcv0","pricing_plan_id":"free"},{"bike_id":"9395b1f8-69c6-45fc-9d8f-89a59e25f2dc","system_id":"levelo_inurba_marseille","lat":43.31334,"lon":5.39698,"is_reserved":false,"is_disabled":false,"rental_uris":{"android":"levelo://app?vid=9395b1f8-69c6-45fc-9d8f-89a59e25f2dc","ios":"levelo://app?vid=9395b1f8-69c6-45fc-9d8f-89a59e25f2dc"},"vehicle_type_id":"4","last_reported":1699599976,"current_range_meters":24000,"station_id":"ce4bgvp2rcd13ifvqcu0","pricing_plan_id":"free"},{"bike_id":"17b7dd6f-1374-4ecb-be5d-ee153bb67eb8","system_id":"levelo_inurba_marseille","lat":43.302008,"lon":5.394694,"is_reserved":false,"is_disabled":false,"rental_uris":{"android":"levelo://app?vid=17b7dd6f-1374-4ecb-be5d-ee153bb67eb8","ios":"levelo://app?vid=17b7dd6f-1374-4ecb-be5d-ee153bb67eb8"},"vehicle_type_id":"4","last_reported":1699599976,"current_range_meters":3200,"station_id":"ce4bh0p2rcd13ifvqd70","pricing_plan_id":"free"},{"bike_id":"2afd1807-de5b-4a15-88a6-799d1af0cb9e","system_id":"levelo_inurba_marseille","lat":43.289184,"lon":5.366408,"is_reserved":false,"is_disabled":false,"rental_uris":{"android":"levelo://app?vid=2afd1807-de5b-4a15-88a6-799d1af0cb9e","ios":"levelo://app?vid=2afd1807-de5b-4a15-88a6-799d1af0cb9e"},"vehicle_type_id":"4","last_reported":1699599976,"current_range_meters":18800,"station_id":"ce4bhap2rcd13ifvqek0","pricing_plan_id":"free"},{"bike_id":"1a3b8f47-39a2-49e6-b9f6-c916dc94af6f","system_id":"levelo_inurba_marseille","lat":43.289184,"lon":5.366408,"is_reserved":false,"is_disabled":false,"rental_uris":{"android":"levelo://app?vid=1a3b8f47-39a2-49e6-b9f6-c916dc94af6f","ios":"levelo://app?vid=1a3b8f47-39a2-49e6-b9f6-c916dc94af6f"},"vehicle_type_id":"4","last_reported":1699599976,"current_range_meters":25200,"station_id":"ce4bhap2rcd13ifvqek0","pricing_plan_id":"free"},{"bike_id":"05d01f65-daf9-4617-b5ed-c2122209c0ab","system_id":"levelo_inurba_marseille","lat":43.289468,"lon":5.363719,"is_reserved":false,"is_disabled":false,"rental_uris":{"android":"levelo://app?vid=05d01f65-daf9-4617-b5ed-c2122209c0ab","ios":"levelo://app?vid=05d01f65-daf9-4617-b5ed-c2122209c0ab"},"vehicle_type_id":"4","last_reported":1699599976,"current_range_meters":29200,"station_id":"ce4bhc92rcd13ifvqetg","pricing_plan_id":"free"},{"bike_id":"00db1b53-e238-455c-a7ab-693552f65e03","system_id":"levelo_inurba_marseille","lat":43.289468,"lon":5.363719,"is_reserved":false,"is_disabled":false,"rental_uris":{"android":"levelo://app?vid=00db1b53-e238-455c-a7ab-693552f65e03","ios":"levelo://app?vid=00db1b53-e238-455c-a7ab-693552f65e03"},"vehicle_type_id":"4","last_reported":1699599976,"current_range_meters":20400,"station_id":"ce4bhc92rcd13ifvqetg","pricing_plan_id":"free"},{"bike_id":"ca4234ff-b076-415d-a12c-e6f4af254f5e","system_id":"levelo_inurba_marseille","lat":43.33042,"lon":5.38921,"is_reserved":false,"is_disabled":false,"rental_uris":{"android":"levelo://app?vid=ca4234ff-b076-415d-a12c-e6f4af254f5e","ios":"levelo://app?vid=ca4234ff-b076-415d-a12c-e6f4af254f5e"},"vehicle_type_id":"4","last_reported":1699599976,"current_range_meters":15200,"station_id":"ce4bhr92rcd13ifvqhrg","pricing_plan_id":"free"},{"bike_id":"5fcde716-ddd4-4ee7-88b4-3ecc71897afa","system_id":"levelo_inurba_marseille","lat":43.29006,"lon":5.35611,"is_reserved":false,"is_disabled":false,"rental_uris":{"android":"levelo://app?vid=5fcde716-ddd4-4ee7-88b4-3ecc71897afa","ios":"levelo://app?vid=5fcde716-ddd4-4ee7-88b4-3ecc71897afa"},"vehicle_type_id":"4","last_reported":1699599976,"current_range_meters":28000,"station_id":"ce4bhb92rcd13ifvqen0","pricing_plan_id":"free"},{"bike_id":"425844a5-d23c-4102-be47-55e3eb08c055","system_id":"levelo_inurba_marseille","lat":43.290995,"lon":5.381361,"is_reserved":false,"is_disabled":false,"rental_uris":{"android":"levelo://app?vid=425844a5-d23c-4102-be47-55e3eb08c055","ios":"levelo://app?vid=425844a5-d23c-4102-be47-55e3eb08c055"},"vehicle_type_id":"4","last_reported":1699599976,"current_range_meters":20400,"station_id":"ce4bh512rcd13ifvqe2g","pricing_plan_id":"free"},{"bike_id":"a14256dd-48ce-4085-b9ae-facb4855cc02","system_id":"levelo_inurba_marseille","lat":43.290995,"lon":5.381361,"is_reserved":false,"is_disabled":false,"rental_uris":{"android":"levelo://app?vid=a14256dd-48ce-4085-b9ae-facb4855cc02","ios":"levelo://app?vid=a14256dd-48ce-4085-b9ae-facb4855cc02"},"vehicle_type_id":"4","last_reported":1699599976,"current_range_meters":29600,"station_id":"ce4bh512rcd13ifvqe2g","pricing_plan_id":"free"},{"bike_id":"013471d4-06ba-4086-8711-dfc95420892b","system_id":"levelo_inurba_marseille","lat":43.297885,"lon":5.39355,"is_reserved":false,"is_disabled":false,"rental_uris":{"android":"levelo://app?vid=013471d4-06ba-4086-8711-dfc95420892b","ios":"levelo://app?vid=013471d4-06ba-4086-8711-dfc95420892b"},"vehicle_type_id":"4","last_reported":1699599976,"current_range_meters":0,"station_id":"chh1huq6cuj3fo74tm60","pricing_plan_id":"free"},{"bike_id":"3b0b138f-fb8a-464f-be4c-51a2d19a493f","system_id":"levelo_inurba_marseille","lat":43.32656,"lon":5.395005,"is_reserved":false,"is_disabled":false,"rental_uris":{"android":"levelo://app?vid=3b0b138f-fb8a-464f-be4c-51a2d19a493f","ios":"levelo://app?vid=3b0b138f-fb8a-464f-be4c-51a2d19a493f"},"vehicle_type_id":"4","last_reported":1699599976,"current_range_meters":30400,"station_id":"","pricing_plan_id":"free"},{"bike_id":"10198792-8d58-48dd-b03b-7d1a2117147b","system_id":"levelo_inurba_marseille","lat":43.290094,"lon":5.381264,"is_reserved":false,"is_disabled":false,"rental_uris":{"android":"levelo://app?vid=10198792-8d58-48dd-b03b-7d1a2117147b","ios":"levelo://app?vid=10198792-8d58-48dd-b03b-7d1a2117147b"},"vehicle_type_id":"4","last_reported":1699599976,"current_range_meters":2800,"station_id":"ce4bh4p2rcd13ifvqe1g","pricing_plan_id":"free"},{"bike_id":"781a5068-b4e4-4c7e-ab52-fc4e476fa75a","system_id":"levelo_inurba_marseille","lat":43.2901,"lon":5.381269,"is_reserved":false,"is_disabled":false,"rental_uris":{"android":"levelo://app?vid=781a5068-b4e4-4c7e-ab52-fc4e476fa75a","ios":"levelo://app?vid=781a5068-b4e4-4c7e-ab52-fc4e476fa75a"},"vehicle_type_id":"4","last_reported":1699599976,"current_range_meters":25200,"station_id":"ce4bh4p2rcd13ifvqe1g","pricing_plan_id":"free"},{"bike_id":"f532030e-7945-4c37-bc16-c91884c323e3","system_id":"levelo_inurba_marseille","lat":43.28856,"lon":5.358371,"is_reserved":false,"is_disabled":false,"rental_uris":{"android":"levelo://app?vid=f532030e-7945-4c37-bc16-c91884c323e3","ios":"levelo://app?vid=f532030e-7945-4c37-bc16-c91884c323e3"},"vehicle_type_id":"4","last_reported":1699599976,"current_range_meters":10800,"station_id":"ce4bhb12rcd13ifvqem0","pricing_plan_id":"free"},{"bike_id":"e3667224-4283-4c4a-a747-3516c2b02bc6","system_id":"levelo_inurba_marseille","lat":43.309294,"lon":5.401381,"is_reserved":false,"is_disabled":false,"rental_uris":{"android":"levelo://app?vid=e3667224-4283-4c4a-a747-3516c2b02bc6","ios":"levelo://app?vid=e3667224-4283-4c4a-a747-3516c2b02bc6"},"vehicle_type_id":"4","last_reported":1699599976,"current_range_meters":5200,"station_id":"ce4bgvp2rcd13ifvqct0","pricing_plan_id":"free"},{"bike_id":"0fa1f252-5499-481b-9250-9a5e8ff3b87b","system_id":"levelo_inurba_marseille","lat":43.30926,"lon":5.40138,"is_reserved":false,"is_disabled":false,"rental_uris":{"android":"levelo://app?vid=0fa1f252-5499-481b-9250-9a5e8ff3b87b","ios":"levelo://app?vid=0fa1f252-5499-481b-9250-9a5e8ff3b87b"},"vehicle_type_id":"4","last_reported":1699599976,"current_range_meters":26000,"station_id":"ce4bgvp2rcd13ifvqct0","pricing_plan_id":"free"},{"bike_id":"45ec3eab-820d-4085-9a72-e19b09a296aa","system_id":"levelo_inurba_marseille","lat":43.309315,"lon":5.401423,"is_reserved":false,"is_disabled":false,"rental_uris":{"android":"levelo://app?vid=45ec3eab-820d-4085-9a72-e19b09a296aa","ios":"levelo://app?vid=45ec3eab-820d-4085-9a72-e19b09a296aa"},"vehicle_type_id":"4","last_reported":1699599976,"current_range_meters":29200,"station_id":"ce4bgvp2rcd13ifvqct0","pricing_plan_id":"free"},{"bike_id":"a544b874-dcf2-4440-9904-9c48d0a20aff","system_id":"levelo_inurba_marseille","lat":43.3093,"lon":5.40146,"is_reserved":false,"is_disabled":false,"rental_uris":{"android":"levelo://app?vid=a544b874-dcf2-4440-9904-9c48d0a20aff","ios":"levelo://app?vid=a544b874-dcf2-4440-9904-9c48d0a20aff"},"vehicle_type_id":"4","last_reported":1699599976,"current_range_meters":23200,"station_id":"ce4bgvp2rcd13ifvqct0","pricing_plan_id":"free"},{"bike_id":"afa4f1b5-889c-4686-984a-d8a8091de3cf","system_id":"levelo_inurba_marseille","lat":43.306485,"lon":5.400719,"is_reserved":false,"is_disabled":false,"rental_uris":{"android":"levelo://app?vid=afa4f1b5-889c-4686-984a-d8a8091de3cf","ios":"levelo://app?vid=afa4f1b5-889c-4686-984a-d8a8091de3cf"},"vehicle_type_id":"4","last_reported":1699599976,"current_range_meters":18800,"station_id":"ce4bh112rcd13ifvqda0","pricing_plan_id":"free"},{"bike_id":"d98d53e7-218b-4c21-a151-5d8fa7df1cd5","system_id":"levelo_inurba_marseille","lat":43.309356,"lon":5.401485,"is_reserved":false,"is_disabled":false,"rental_uris":{"android":"levelo://app?vid=d98d53e7-218b-4c21-a151-5d8fa7df1cd5","ios":"levelo://app?vid=d98d53e7-218b-4c21-a151-5d8fa7df1cd5"},"vehicle_type_id":"4","last_reported":1699599976,"current_range_meters":13200,"station_id":"ce4bgvp2rcd13ifvqct0","pricing_plan_id":"free"},{"bike_id":"724da875-3f67-46fb-88d1-f65d7e8d4c58","system_id":"levelo_inurba_marseille","lat":43.309371,"lon":5.401449,"is_reserved":false,"is_disabled":false,"rental_uris":{"android":"levelo://app?vid=724da875-3f67-46fb-88d1-f65d7e8d4c58","ios":"levelo://app?vid=724da875-3f67-46fb-88d1-f65d7e8d4c58"},"vehicle_type_id":"4","last_reported":1699599976,"current_range_meters":30400,"station_id":"ce4bgvp2rcd13ifvqct0","pricing_plan_id":"free"},{"bike_id":"fb8c267a-8fbc-4bb8-86fa-ead1c910eee3","system_id":"levelo_inurba_marseille","lat":43.337509,"lon":5.374565,"is_reserved":false,"is_disabled":false,"rental_uris":{"android":"levelo://app?vid=fb8c267a-8fbc-4bb8-86fa-ead1c910eee3","ios":"levelo://app?vid=fb8c267a-8fbc-4bb8-86fa-ead1c910eee3"},"vehicle_type_id":"4","last_reported":1699599976,"current_range_meters":30400,"station_id":"","pricing_plan_id":"free"},{"bike_id":"987d8f4e-8fdd-4d9d-b09a-2457efc8f7ab","system_id":"levelo_inurba_marseille","lat":43.309341,"lon":5.401502,"is_reserved":false,"is_disabled":false,"rental_uris":{"android":"levelo://app?vid=987d8f4e-8fdd-4d9d-b09a-2457efc8f7ab","ios":"levelo://app?vid=987d8f4e-8fdd-4d9d-b09a-2457efc8f7ab"},"vehicle_type_id":"4","last_reported":1699599976,"current_range_meters":10000,"station_id":"ce4bgvp2rcd13ifvqct0","pricing_plan_id":"free"},{"bike_id":"2eb76cb2-e51e-4a80-b58d-cf3036b5c3e4","system_id":"levelo_inurba_marseille","lat":43.309281,"lon":5.401515,"is_reserved":false,"is_disabled":false,"rental_uris":{"android":"levelo://app?vid=2eb76cb2-e51e-4a80-b58d-cf3036b5c3e4","ios":"levelo://app?vid=2eb76cb2-e51e-4a80-b58d-cf3036b5c3e4"},"vehicle_type_id":"4","last_reported":1699599976,"current_range_meters":16400,"station_id":"ce4bgvp2rcd13ifvqct0","pricing_plan_id":"free"},{"bike_id":"9cd40627-d81b-41ec-921e-7e9fb75192fc","system_id":"levelo_inurba_marseille","lat":43.30932,"lon":5.40153,"is_reserved":false,"is_disabled":false,"rental_uris":{"android":"levelo://app?vid=9cd40627-d81b-41ec-921e-7e9fb75192fc","ios":"levelo://app?vid=9cd40627-d81b-41ec-921e-7e9fb75192fc"},"vehicle_type_id":"4","last_reported":1699599976,"current_range_meters":20400,"station_id":"ce4bgvp2rcd13ifvqct0","pricing_plan_id":"free"},{"bike_id":"a7d258d0-1ce7-4306-80fd-ade30b454ac7","system_id":"levelo_inurba_marseille","lat":43.30641,"lon":5.40076,"is_reserved":false,"is_disabled":false,"rental_uris":{"android":"levelo://app?vid=a7d258d0-1ce7-4306-80fd-ade30b454ac7","ios":"levelo://app?vid=a7d258d0-1ce7-4306-80fd-ade30b454ac7"},"vehicle_type_id":"4","last_reported":1699599976,"current_range_meters":14400,"station_id":"ce4bh112rcd13ifvqda0","pricing_plan_id":"free"},{"bike_id":"cda27795-c82f-45bd-af40-58d01fe173df","system_id":"levelo_inurba_marseille","lat":43.306389,"lon":5.400754,"is_reserved":false,"is_disabled":false,"rental_uris":{"android":"levelo://app?vid=cda27795-c82f-45bd-af40-58d01fe173df","ios":"levelo://app?vid=cda27795-c82f-45bd-af40-58d01fe173df"},"vehicle_type_id":"4","last_reported":1699599976,"current_range_meters":25600,"station_id":"ce4bh112rcd13ifvqda0","pricing_plan_id":"free"},{"bike_id":"8c60afa7-bb97-483e-8d00-e918bab90079","system_id":"levelo_inurba_marseille","lat":43.309371,"lon":5.401449,"is_reserved":false,"is_disabled":false,"rental_uris":{"android":"levelo://app?vid=8c60afa7-bb97-483e-8d00-e918bab90079","ios":"levelo://app?vid=8c60afa7-bb97-483e-8d00-e918bab90079"},"vehicle_type_id":"4","last_reported":1699599976,"current_range_meters":13600,"station_id":"ce4bgvp2rcd13ifvqct0","pricing_plan_id":"free"},{"bike_id":"61c9606b-5e0c-419f-a3b5-4fe4d535e889","system_id":"levelo_inurba_marseille","lat":43.33037,"lon":5.392367,"is_reserved":false,"is_disabled":false,"rental_uris":{"android":"levelo://app?vid=61c9606b-5e0c-419f-a3b5-4fe4d535e889","ios":"levelo://app?vid=61c9606b-5e0c-419f-a3b5-4fe4d535e889"},"vehicle_type_id":"4","last_reported":1699599976,"current_range_meters":15200,"station_id":"","pricing_plan_id":"free"},{"bike_id":"5ac2e2d6-9935-491e-a079-ff1b72a99bea","system_id":"levelo_inurba_marseille","lat":43.28716,"lon":5.36124,"is_reserved":false,"is_disabled":false,"rental_uris":{"android":"levelo://app?vid=5ac2e2d6-9935-491e-a079-ff1b72a99bea","ios":"levelo://app?vid=5ac2e2d6-9935-491e-a079-ff1b72a99bea"},"vehicle_type_id":"4","last_reported":1699599976,"current_range_meters":15600,"station_id":"cki0cbj6b192h4jlfktg","pricing_plan_id":"free"},{"bike_id":"54a0246e-5913-45da-95fa-38536d7cd0dc","system_id":"levelo_inurba_marseille","lat":43.286591,"lon":5.363346,"is_reserved":false,"is_disabled":false,"rental_uris":{"android":"levelo://app?vid=54a0246e-5913-45da-95fa-38536d7cd0dc","ios":"levelo://app?vid=54a0246e-5913-45da-95fa-38536d7cd0dc"},"vehicle_type_id":"4","last_reported":1699599976,"current_range_meters":0,"station_id":"ce4bhah2rcd13ifvqej0","pricing_plan_id":"free"},{"bike_id":"65f3f1d1-8234-41b3-9c0c-3cd15f59df35","system_id":"levelo_inurba_marseille","lat":43.286961,"lon":5.373785,"is_reserved":false,"is_disabled":false,"rental_uris":{"android":"levelo://app?vid=65f3f1d1-8234-41b3-9c0c-3cd15f59df35","ios":"levelo://app?vid=65f3f1d1-8234-41b3-9c0c-3cd15f59df35"},"vehicle_type_id":"4","last_reported":1699599976,"current_range_meters":17600,"station_id":"ce4bh3p2rcd13ifvqdq0","pricing_plan_id":"free"},{"bike_id":"290e9e0c-12bc-41f7-8fa2-9e56c14ef01f","system_id":"levelo_inurba_marseille","lat":43.286609,"lon":5.363477,"is_reserved":false,"is_disabled":false,"rental_uris":{"android":"levelo://app?vid=290e9e0c-12bc-41f7-8fa2-9e56c14ef01f","ios":"levelo://app?vid=290e9e0c-12bc-41f7-8fa2-9e56c14ef01f"},"vehicle_type_id":"4","last_reported":1699599976,"current_range_meters":19600,"station_id":"ce4bhah2rcd13ifvqej0","pricing_plan_id":"free"},{"bike_id":"579135b9-a8b9-4b0a-a24c-47ecad144d27","system_id":"levelo_inurba_marseille","lat":43.302759,"lon":5.400793,"is_reserved":false,"is_disabled":false,"rental_uris":{"android":"levelo://app?vid=579135b9-a8b9-4b0a-a24c-47ecad144d27","ios":"levelo://app?vid=579135b9-a8b9-4b0a-a24c-47ecad144d27"},"vehicle_type_id":"4","last_reported":1699599976,"current_range_meters":26800,"station_id":"ce4bgvh2rcd13ifvqcs0","pricing_plan_id":"free"},{"bike_id":"65ac8356-b6b6-4c6d-b9be-9e3cae5ecfc0","system_id":"levelo_inurba_marseille","lat":43.29034,"lon":5.38651,"is_reserved":false,"is_disabled":false,"rental_uris":{"android":"levelo://app?vid=65ac8356-b6b6-4c6d-b9be-9e3cae5ecfc0","ios":"levelo://app?vid=65ac8356-b6b6-4c6d-b9be-9e3cae5ecfc0"},"vehicle_type_id":"4","last_reported":1699599976,"current_range_meters":28000,"station_id":"ce4bh4p2rcd13ifvqe0g","pricing_plan_id":"free"},{"bike_id":"29183cbc-d5a7-436d-93a9-0f14ede469da","system_id":"levelo_inurba_marseille","lat":43.302759,"lon":5.400793,"is_reserved":false,"is_disabled":false,"rental_uris":{"android":"levelo://app?vid=29183cbc-d5a7-436d-93a9-0f14ede469da","ios":"levelo://app?vid=29183cbc-d5a7-436d-93a9-0f14ede469da"},"vehicle_type_id":"4","last_reported":1699599976,"current_range_meters":25600,"station_id":"ce4bgvh2rcd13ifvqcs0","pricing_plan_id":"free"},{"bike_id":"47115d91-bf86-4024-8e92-92b6a12b2e7e","system_id":"levelo_inurba_marseille","lat":43.302427,"lon":5.400654,"is_reserved":false,"is_disabled":false,"rental_uris":{"android":"levelo://app?vid=47115d91-bf86-4024-8e92-92b6a12b2e7e","ios":"levelo://app?vid=47115d91-bf86-4024-8e92-92b6a12b2e7e"},"vehicle_type_id":"4","last_reported":1699599976,"current_range_meters":6400,"station_id":"ce4bgvh2rcd13ifvqcs0","pricing_plan_id":"free"},{"bike_id":"0446a9d3-2607-488f-914c-86d8dfcbdf47","system_id":"levelo_inurba_marseille","lat":43.30254,"lon":5.40073,"is_reserved":false,"is_disabled":false,"rental_uris":{"android":"levelo://app?vid=0446a9d3-2607-488f-914c-86d8dfcbdf47","ios":"levelo://app?vid=0446a9d3-2607-488f-914c-86d8dfcbdf47"},"vehicle_type_id":"4","last_reported":1699599976,"current_range_meters":22800,"station_id":"ce4bgvh2rcd13ifvqcs0","pricing_plan_id":"free"},{"bike_id":"9a71790f-bfd3-4673-a639-a713e58e7c63","system_id":"levelo_inurba_marseille","lat":43.30243,"lon":5.400673,"is_reserved":false,"is_disabled":false,"rental_uris":{"android":"levelo://app?vid=9a71790f-bfd3-4673-a639-a713e58e7c63","ios":"levelo://app?vid=9a71790f-bfd3-4673-a639-a713e58e7c63"},"vehicle_type_id":"4","last_reported":1699599976,"current_range_meters":0,"station_id":"ce4bgvh2rcd13ifvqcs0","pricing_plan_id":"free"},{"bike_id":"e0a9b5b7-24be-4d04-b9c4-e9425b070775","system_id":"levelo_inurba_marseille","lat":43.302759,"lon":5.400793,"is_reserved":false,"is_disabled":false,"rental_uris":{"android":"levelo://app?vid=e0a9b5b7-24be-4d04-b9c4-e9425b070775","ios":"levelo://app?vid=e0a9b5b7-24be-4d04-b9c4-e9425b070775"},"vehicle_type_id":"4","last_reported":1699599976,"current_range_meters":25600,"station_id":"ce4bgvh2rcd13ifvqcs0","pricing_plan_id":"free"},{"bike_id":"562b57d6-5628-4d08-a24c-d5c7ea93c996","system_id":"levelo_inurba_marseille","lat":43.30261,"lon":5.40084,"is_reserved":false,"is_disabled":false,"rental_uris":{"android":"levelo://app?vid=562b57d6-5628-4d08-a24c-d5c7ea93c996","ios":"levelo://app?vid=562b57d6-5628-4d08-a24c-d5c7ea93c996"},"vehicle_type_id":"4","last_reported":1699599976,"current_range_meters":2800,"station_id":"ce4bgvh2rcd13ifvqcs0","pricing_plan_id":"free"},{"bike_id":"15268e42-6409-4ef6-a412-3e639e105445","system_id":"levelo_inurba_marseille","lat":43.287184,"lon":5.37937,"is_reserved":false,"is_disabled":false,"rental_uris":{"android":"levelo://app?vid=15268e42-6409-4ef6-a412-3e639e105445","ios":"levelo://app?vid=15268e42-6409-4ef6-a412-3e639e105445"},"vehicle_type_id":"4","last_reported":1699599976,"current_range_meters":25600,"station_id":"ce4bh9p2rcd13ifvqec0","pricing_plan_id":"free"},{"bike_id":"73135f22-7484-4f05-b4f8-82607f44a91a","system_id":"levelo_inurba_marseille","lat":43.287185,"lon":5.379373,"is_reserved":false,"is_disabled":false,"rental_uris":{"android":"levelo://app?vid=73135f22-7484-4f05-b4f8-82607f44a91a","ios":"levelo://app?vid=73135f22-7484-4f05-b4f8-82607f44a91a"},"vehicle_type_id":"4","last_reported":1699599976,"current_range_meters":28400,"station_id":"ce4bh9p2rcd13ifvqec0","pricing_plan_id":"free"},{"bike_id":"6fd569c7-8ea5-40bd-a20a-a3fc703c1d24","system_id":"levelo_inurba_marseille","lat":43.287185,"lon":5.379373,"is_reserved":false,"is_disabled":false,"rental_uris":{"android":"levelo://app?vid=6fd569c7-8ea5-40bd-a20a-a3fc703c1d24","ios":"levelo://app?vid=6fd569c7-8ea5-40bd-a20a-a3fc703c1d24"},"vehicle_type_id":"4","last_reported":1699599976,"current_range_meters":17600,"station_id":"ce4bh9p2rcd13ifvqec0","pricing_plan_id":"free"},{"bike_id":"6765bb75-b997-406a-9b89-a0ef92d35ef9","system_id":"levelo_inurba_marseille","lat":43.31644,"lon":5.404417,"is_reserved":false,"is_disabled":false,"rental_uris":{"android":"levelo://app?vid=6765bb75-b997-406a-9b89-a0ef92d35ef9","ios":"levelo://app?vid=6765bb75-b997-406a-9b89-a0ef92d35ef9"},"vehicle_type_id":"4","last_reported":1699599976,"current_range_meters":9600,"station_id":"ce4bh012rcd13ifvqd00","pricing_plan_id":"free"},{"bike_id":"e57449c2-d088-47cf-8bf2-271593713c89","system_id":"levelo_inurba_marseille","lat":43.328576,"lon":5.398841,"is_reserved":false,"is_disabled":false,"rental_uris":{"android":"levelo://app?vid=e57449c2-d088-47cf-8bf2-271593713c89","ios":"levelo://app?vid=e57449c2-d088-47cf-8bf2-271593713c89"},"vehicle_type_id":"4","last_reported":1699599976,"current_range_meters":13200,"station_id":"","pricing_plan_id":"free"},{"bike_id":"051db2ea-0dee-4690-a88c-3b40ad20b696","system_id":"levelo_inurba_marseille","lat":43.291994,"lon":5.392907,"is_reserved":false,"is_disabled":false,"rental_uris":{"android":"levelo://app?vid=051db2ea-0dee-4690-a88c-3b40ad20b696","ios":"levelo://app?vid=051db2ea-0dee-4690-a88c-3b40ad20b696"},"vehicle_type_id":"4","last_reported":1699599976,"current_range_meters":30800,"station_id":"ce4bh192rcd13ifvqdd0","pricing_plan_id":"free"},{"bike_id":"c0af76d5-f577-4ed2-ae8e-85cfd7cc48ed","system_id":"levelo_inurba_marseille","lat":43.28465,"lon":5.35899,"is_reserved":false,"is_disabled":false,"rental_uris":{"android":"levelo://app?vid=c0af76d5-f577-4ed2-ae8e-85cfd7cc48ed","ios":"levelo://app?vid=c0af76d5-f577-4ed2-ae8e-85cfd7cc48ed"},"vehicle_type_id":"4","last_reported":1699599976,"current_range_meters":7600,"station_id":"ce4bhah2rcd13ifvqei0","pricing_plan_id":"free"},{"bike_id":"8c5e9706-e763-4c57-b84f-3d21a35bd9bd","system_id":"levelo_inurba_marseille","lat":43.284636,"lon":5.358936,"is_reserved":false,"is_disabled":false,"rental_uris":{"android":"levelo://app?vid=8c5e9706-e763-4c57-b84f-3d21a35bd9bd","ios":"levelo://app?vid=8c5e9706-e763-4c57-b84f-3d21a35bd9bd"},"vehicle_type_id":"4","last_reported":1699599976,"current_range_meters":30000,"station_id":"ce4bhah2rcd13ifvqei0","pricing_plan_id":"free"},{"bike_id":"90093fa5-1ab4-4d56-9461-6467370c9274","system_id":"levelo_inurba_marseille","lat":43.284625,"lon":5.358886,"is_reserved":false,"is_disabled":false,"rental_uris":{"android":"levelo://app?vid=90093fa5-1ab4-4d56-9461-6467370c9274","ios":"levelo://app?vid=90093fa5-1ab4-4d56-9461-6467370c9274"},"vehicle_type_id":"4","last_reported":1699599976,"current_range_meters":8800,"station_id":"ce4bhah2rcd13ifvqei0","pricing_plan_id":"free"},{"bike_id":"88e5708d-98f2-441c-a393-24464f971e2e","system_id":"levelo_inurba_marseille","lat":43.284534,"lon":5.358662,"is_reserved":false,"is_disabled":false,"rental_uris":{"android":"levelo://app?vid=88e5708d-98f2-441c-a393-24464f971e2e","ios":"levelo://app?vid=88e5708d-98f2-441c-a393-24464f971e2e"},"vehicle_type_id":"4","last_reported":1699599976,"current_range_meters":25600,"station_id":"ce4bhah2rcd13ifvqei0","pricing_plan_id":"free"},{"bike_id":"c6335d6d-a7ad-4c2d-b60d-d28edb981e22","system_id":"levelo_inurba_marseille","lat":43.284609,"lon":5.358932,"is_reserved":false,"is_disabled":false,"rental_uris":{"android":"levelo://app?vid=c6335d6d-a7ad-4c2d-b60d-d28edb981e22","ios":"levelo://app?vid=c6335d6d-a7ad-4c2d-b60d-d28edb981e22"},"vehicle_type_id":"4","last_reported":1699599976,"current_range_meters":22400,"station_id":"ce4bhah2rcd13ifvqei0","pricing_plan_id":"free"},{"bike_id":"19da7a58-9fc7-44ee-9a92-c803d6f45185","system_id":"levelo_inurba_marseille","lat":43.2846,"lon":5.35895,"is_reserved":false,"is_disabled":false,"rental_uris":{"android":"levelo://app?vid=19da7a58-9fc7-44ee-9a92-c803d6f45185","ios":"levelo://app?vid=19da7a58-9fc7-44ee-9a92-c803d6f45185"},"vehicle_type_id":"4","last_reported":1699599976,"current_range_meters":30400,"station_id":"ce4bhah2rcd13ifvqei0","pricing_plan_id":"free"},{"bike_id":"f1a5d00b-bd6f-4dc5-981a-d34af25438b9","system_id":"levelo_inurba_marseille","lat":43.284534,"lon":5.358662,"is_reserved":false,"is_disabled":false,"rental_uris":{"android":"levelo://app?vid=f1a5d00b-bd6f-4dc5-981a-d34af25438b9","ios":"levelo://app?vid=f1a5d00b-bd6f-4dc5-981a-d34af25438b9"},"vehicle_type_id":"4","last_reported":1699599976,"current_range_meters":21600,"station_id":"ce4bhah2rcd13ifvqei0","pricing_plan_id":"free"},{"bike_id":"d1e7e8d3-53aa-434e-9af7-e529e013546f","system_id":"levelo_inurba_marseille","lat":43.284603,"lon":5.358841,"is_reserved":false,"is_disabled":false,"rental_uris":{"android":"levelo://app?vid=d1e7e8d3-53aa-434e-9af7-e529e013546f","ios":"levelo://app?vid=d1e7e8d3-53aa-434e-9af7-e529e013546f"},"vehicle_type_id":"4","last_reported":1699599976,"current_range_meters":15200,"station_id":"ce4bhah2rcd13ifvqei0","pricing_plan_id":"free"},{"bike_id":"e148e6dd-31a0-41dd-8a73-cf52996b883a","system_id":"levelo_inurba_marseille","lat":43.284584,"lon":5.358946,"is_reserved":false,"is_disabled":false,"rental_uris":{"android":"levelo://app?vid=e148e6dd-31a0-41dd-8a73-cf52996b883a","ios":"levelo://app?vid=e148e6dd-31a0-41dd-8a73-cf52996b883a"},"vehicle_type_id":"4","last_reported":1699599976,"current_range_meters":30000,"station_id":"ce4bhah2rcd13ifvqei0","pricing_plan_id":"free"},{"bike_id":"79bbf1b8-0087-470e-a61f-de2ed560511c","system_id":"levelo_inurba_marseille","lat":43.284589,"lon":5.35891,"is_reserved":false,"is_disabled":false,"rental_uris":{"android":"levelo://app?vid=79bbf1b8-0087-470e-a61f-de2ed560511c","ios":"levelo://app?vid=79bbf1b8-0087-470e-a61f-de2ed560511c"},"vehicle_type_id":"4","last_reported":1699599976,"current_range_meters":27200,"station_id":"ce4bhah2rcd13ifvqei0","pricing_plan_id":"free"},{"bike_id":"498ed3ae-f309-4586-b540-abdd71af012d","system_id":"levelo_inurba_marseille","lat":43.28458,"lon":5.35896,"is_reserved":false,"is_disabled":false,"rental_uris":{"android":"levelo://app?vid=498ed3ae-f309-4586-b540-abdd71af012d","ios":"levelo://app?vid=498ed3ae-f309-4586-b540-abdd71af012d"},"vehicle_type_id":"4","last_reported":1699599976,"current_range_meters":9200,"station_id":"ce4bhah2rcd13ifvqei0","pricing_plan_id":"free"},{"bike_id":"65dd3b00-0484-4a9a-b5f3-23c9a25ce0cf","system_id":"levelo_inurba_marseille","lat":43.28459,"lon":5.35884,"is_reserved":false,"is_disabled":false,"rental_uris":{"android":"levelo://app?vid=65dd3b00-0484-4a9a-b5f3-23c9a25ce0cf","ios":"levelo://app?vid=65dd3b00-0484-4a9a-b5f3-23c9a25ce0cf"},"vehicle_type_id":"4","last_reported":1699599976,"current_range_meters":21200,"station_id":"ce4bhah2rcd13ifvqei0","pricing_plan_id":"free"},{"bike_id":"1ca452a7-c44f-4699-a1d9-4abe7d053869","system_id":"levelo_inurba_marseille","lat":43.284534,"lon":5.358662,"is_reserved":false,"is_disabled":false,"rental_uris":{"android":"levelo://app?vid=1ca452a7-c44f-4699-a1d9-4abe7d053869","ios":"levelo://app?vid=1ca452a7-c44f-4699-a1d9-4abe7d053869"},"vehicle_type_id":"4","last_reported":1699599976,"current_range_meters":29200,"station_id":"ce4bhah2rcd13ifvqei0","pricing_plan_id":"free"},{"bike_id":"9bb217ca-3551-4a57-84ab-20784a907507","system_id":"levelo_inurba_marseille","lat":43.28455,"lon":5.35901,"is_reserved":false,"is_disabled":false,"rental_uris":{"android":"levelo://app?vid=9bb217ca-3551-4a57-84ab-20784a907507","ios":"levelo://app?vid=9bb217ca-3551-4a57-84ab-20784a907507"},"vehicle_type_id":"4","last_reported":1699599976,"current_range_meters":30000,"station_id":"ce4bhah2rcd13ifvqei0","pricing_plan_id":"free"},{"bike_id":"94af14a7-e47d-4982-bbf0-3c1d6f6d5cbd","system_id":"levelo_inurba_marseille","lat":43.28456,"lon":5.358929,"is_reserved":false,"is_disabled":false,"rental_uris":{"android":"levelo://app?vid=94af14a7-e47d-4982-bbf0-3c1d6f6d5cbd","ios":"levelo://app?vid=94af14a7-e47d-4982-bbf0-3c1d6f6d5cbd"},"vehicle_type_id":"4","last_reported":1699599976,"current_range_meters":29200,"station_id":"ce4bhah2rcd13ifvqei0","pricing_plan_id":"free"},{"bike_id":"f082430a-f2a0-46af-a8b8-e164bcb5dd18","system_id":"levelo_inurba_marseille","lat":43.284534,"lon":5.358662,"is_reserved":false,"is_disabled":false,"rental_uris":{"android":"levelo://app?vid=f082430a-f2a0-46af-a8b8-e164bcb5dd18","ios":"levelo://app?vid=f082430a-f2a0-46af-a8b8-e164bcb5dd18"},"vehicle_type_id":"4","last_reported":1699599976,"current_range_meters":14000,"station_id":"ce4bhah2rcd13ifvqei0","pricing_plan_id":"free"},{"bike_id":"a640635d-c2d3-4ff3-97ce-cc706a6f25ce","system_id":"levelo_inurba_marseille","lat":43.296263,"lon":5.40601,"is_reserved":false,"is_disabled":false,"rental_uris":{"android":"levelo://app?vid=a640635d-c2d3-4ff3-97ce-cc706a6f25ce","ios":"levelo://app?vid=a640635d-c2d3-4ff3-97ce-cc706a6f25ce"},"vehicle_type_id":"4","last_reported":1699599976,"current_range_meters":22000,"station_id":"ce4bh0h2rcd13ifvqd60","pricing_plan_id":"free"},{"bike_id":"67618ec4-65a9-4e65-9f69-6996d75024a7","system_id":"levelo_inurba_marseille","lat":43.295713,"lon":5.399639,"is_reserved":false,"is_disabled":false,"rental_uris":{"android":"levelo://app?vid=67618ec4-65a9-4e65-9f69-6996d75024a7","ios":"levelo://app?vid=67618ec4-65a9-4e65-9f69-6996d75024a7"},"vehicle_type_id":"4","last_reported":1699599976,"current_range_meters":24000,"station_id":"ce4bh312rcd13ifvqdj0","pricing_plan_id":"free"},{"bike_id":"21b4f2c2-e977-4d2e-b5b4-4fc264f1a4d2","system_id":"levelo_inurba_marseille","lat":43.319179,"lon":5.407725,"is_reserved":false,"is_disabled":false,"rental_uris":{"android":"levelo://app?vid=21b4f2c2-e977-4d2e-b5b4-4fc264f1a4d2","ios":"levelo://app?vid=21b4f2c2-e977-4d2e-b5b4-4fc264f1a4d2"},"vehicle_type_id":"4","last_reported":1699599976,"current_range_meters":23200,"station_id":"ce4bhq12rcd13ifvqhig","pricing_plan_id":"free"},{"bike_id":"030625bd-f8ba-4389-9944-df2973894a22","system_id":"levelo_inurba_marseille","lat":43.325731,"lon":5.404186,"is_reserved":false,"is_disabled":false,"rental_uris":{"android":"levelo://app?vid=030625bd-f8ba-4389-9944-df2973894a22","ios":"levelo://app?vid=030625bd-f8ba-4389-9944-df2973894a22"},"vehicle_type_id":"4","last_reported":1699599976,"current_range_meters":8400,"station_id":"","pricing_plan_id":"free"},{"bike_id":"ce718462-0d4e-4b64-917f-213c255b7648","system_id":"levelo_inurba_marseille","lat":43.283494,"lon":5.380945,"is_reserved":false,"is_disabled":false,"rental_uris":{"android":"levelo://app?vid=ce718462-0d4e-4b64-917f-213c255b7648","ios":"levelo://app?vid=ce718462-0d4e-4b64-917f-213c255b7648"},"vehicle_type_id":"4","last_reported":1699599976,"current_range_meters":22000,"station_id":"ce4bh412rcd13ifvqdr0","pricing_plan_id":"free"},{"bike_id":"c62a31fe-26d8-480d-83d1-44db580000e3","system_id":"levelo_inurba_marseille","lat":43.323464,"lon":5.406297,"is_reserved":false,"is_disabled":false,"rental_uris":{"android":"levelo://app?vid=c62a31fe-26d8-480d-83d1-44db580000e3","ios":"levelo://app?vid=c62a31fe-26d8-480d-83d1-44db580000e3"},"vehicle_type_id":"4","last_reported":1699599976,"current_range_meters":31200,"station_id":"ce4bhq92rcd13ifvqhjg","pricing_plan_id":"free"},{"bike_id":"3fd447c9-bd02-4aa2-8b14-301ac9885ead","system_id":"levelo_inurba_marseille","lat":43.323464,"lon":5.406297,"is_reserved":false,"is_disabled":false,"rental_uris":{"android":"levelo://app?vid=3fd447c9-bd02-4aa2-8b14-301ac9885ead","ios":"levelo://app?vid=3fd447c9-bd02-4aa2-8b14-301ac9885ead"},"vehicle_type_id":"4","last_reported":1699599976,"current_range_meters":31200,"station_id":"ce4bhq92rcd13ifvqhjg","pricing_plan_id":"free"},{"bike_id":"a54b200e-6d4c-49ea-a65e-05b6eff70dc2","system_id":"levelo_inurba_marseille","lat":43.323464,"lon":5.406297,"is_reserved":false,"is_disabled":false,"rental_uris":{"android":"levelo://app?vid=a54b200e-6d4c-49ea-a65e-05b6eff70dc2","ios":"levelo://app?vid=a54b200e-6d4c-49ea-a65e-05b6eff70dc2"},"vehicle_type_id":"4","last_reported":1699599976,"current_range_meters":9600,"station_id":"ce4bhq92rcd13ifvqhjg","pricing_plan_id":"free"},{"bike_id":"ce029730-ee5f-4c96-9382-7c5a4cc3b040","system_id":"levelo_inurba_marseille","lat":43.323464,"lon":5.406297,"is_reserved":false,"is_disabled":false,"rental_uris":{"android":"levelo://app?vid=ce029730-ee5f-4c96-9382-7c5a4cc3b040","ios":"levelo://app?vid=ce029730-ee5f-4c96-9382-7c5a4cc3b040"},"vehicle_type_id":"4","last_reported":1699599976,"current_range_meters":13200,"station_id":"ce4bhq92rcd13ifvqhjg","pricing_plan_id":"free"},{"bike_id":"edf9d82c-1751-4579-9fd6-31ea5db19398","system_id":"levelo_inurba_marseille","lat":43.29795,"lon":5.404086,"is_reserved":false,"is_disabled":false,"rental_uris":{"android":"levelo://app?vid=edf9d82c-1751-4579-9fd6-31ea5db19398","ios":"levelo://app?vid=edf9d82c-1751-4579-9fd6-31ea5db19398"},"vehicle_type_id":"4","last_reported":1699599976,"current_range_meters":28800,"station_id":"ce4bh112rcd13ifvqd90","pricing_plan_id":"free"},{"bike_id":"945a157e-73f7-47cf-adcb-e2db6eb514e8","system_id":"levelo_inurba_marseille","lat":43.284787,"lon":5.384116,"is_reserved":false,"is_disabled":false,"rental_uris":{"android":"levelo://app?vid=945a157e-73f7-47cf-adcb-e2db6eb514e8","ios":"levelo://app?vid=945a157e-73f7-47cf-adcb-e2db6eb514e8"},"vehicle_type_id":"4","last_reported":1699599976,"current_range_meters":25200,"station_id":"ce4bh512rcd13ifvqe3g","pricing_plan_id":"free"},{"bike_id":"c16e3e95-061c-4a96-9d48-8ce9601e5d18","system_id":"levelo_inurba_marseille","lat":43.288497,"lon":5.393089,"is_reserved":false,"is_disabled":false,"rental_uris":{"android":"levelo://app?vid=c16e3e95-061c-4a96-9d48-8ce9601e5d18","ios":"levelo://app?vid=c16e3e95-061c-4a96-9d48-8ce9601e5d18"},"vehicle_type_id":"4","last_reported":1699599976,"current_range_meters":28800,"station_id":"ce4bh2p2rcd13ifvqdi0","pricing_plan_id":"free"},{"bike_id":"c2523f35-9c6b-4bef-bd61-88b4e0bc29a5","system_id":"levelo_inurba_marseille","lat":43.2925,"lon":5.39919,"is_reserved":false,"is_disabled":false,"rental_uris":{"android":"levelo://app?vid=c2523f35-9c6b-4bef-bd61-88b4e0bc29a5","ios":"levelo://app?vid=c2523f35-9c6b-4bef-bd61-88b4e0bc29a5"},"vehicle_type_id":"4","last_reported":1699599976,"current_range_meters":2000,"station_id":"","pricing_plan_id":"free"},{"bike_id":"3080120f-e1ad-43f6-800d-64deaee57904","system_id":"levelo_inurba_marseille","lat":43.283498,"lon":5.380948,"is_reserved":false,"is_disabled":false,"rental_uris":{"android":"levelo://app?vid=3080120f-e1ad-43f6-800d-64deaee57904","ios":"levelo://app?vid=3080120f-e1ad-43f6-800d-64deaee57904"},"vehicle_type_id":"4","last_reported":1699599976,"current_range_meters":23600,"station_id":"ce4bh412rcd13ifvqdr0","pricing_plan_id":"free"},{"bike_id":"495a5c0a-26ec-4c88-a289-d586352823b7","system_id":"levelo_inurba_marseille","lat":43.283498,"lon":5.380948,"is_reserved":false,"is_disabled":false,"rental_uris":{"android":"levelo://app?vid=495a5c0a-26ec-4c88-a289-d586352823b7","ios":"levelo://app?vid=495a5c0a-26ec-4c88-a289-d586352823b7"},"vehicle_type_id":"4","last_reported":1699599976,"current_range_meters":21200,"station_id":"ce4bh412rcd13ifvqdr0","pricing_plan_id":"free"},{"bike_id":"c7332720-7b72-4138-bf10-24c634bee4bf","system_id":"levelo_inurba_marseille","lat":43.283498,"lon":5.380948,"is_reserved":false,"is_disabled":false,"rental_uris":{"android":"levelo://app?vid=c7332720-7b72-4138-bf10-24c634bee4bf","ios":"levelo://app?vid=c7332720-7b72-4138-bf10-24c634bee4bf"},"vehicle_type_id":"4","last_reported":1699599976,"current_range_meters":15600,"station_id":"ce4bh412rcd13ifvqdr0","pricing_plan_id":"free"},{"bike_id":"694cc18d-6823-481a-9d09-67d990c2d197","system_id":"levelo_inurba_marseille","lat":43.324289,"lon":5.407562,"is_reserved":false,"is_disabled":false,"rental_uris":{"android":"levelo://app?vid=694cc18d-6823-481a-9d09-67d990c2d197","ios":"levelo://app?vid=694cc18d-6823-481a-9d09-67d990c2d197"},"vehicle_type_id":"4","last_reported":1699599976,"current_range_meters":3200,"station_id":"","pricing_plan_id":"free"},{"bike_id":"f81f3e0a-3b84-4022-81a2-cf963667f716","system_id":"levelo_inurba_marseille","lat":43.29279,"lon":5.401173,"is_reserved":false,"is_disabled":false,"rental_uris":{"android":"levelo://app?vid=f81f3e0a-3b84-4022-81a2-cf963667f716","ios":"levelo://app?vid=f81f3e0a-3b84-4022-81a2-cf963667f716"},"vehicle_type_id":"4","last_reported":1699599976,"current_range_meters":26000,"station_id":"ce4bh312rcd13ifvqdk0","pricing_plan_id":"free"},{"bike_id":"9e9a2c42-2eca-460e-b598-3b4c388ee1c7","system_id":"levelo_inurba_marseille","lat":43.29279,"lon":5.40123,"is_reserved":false,"is_disabled":false,"rental_uris":{"android":"levelo://app?vid=9e9a2c42-2eca-460e-b598-3b4c388ee1c7","ios":"levelo://app?vid=9e9a2c42-2eca-460e-b598-3b4c388ee1c7"},"vehicle_type_id":"4","last_reported":1699599976,"current_range_meters":28800,"station_id":"ce4bh312rcd13ifvqdk0","pricing_plan_id":"free"},{"bike_id":"45256814-4e7f-4b0d-851c-400bedbf64a1","system_id":"levelo_inurba_marseille","lat":43.292724,"lon":5.401131,"is_reserved":false,"is_disabled":false,"rental_uris":{"android":"levelo://app?vid=45256814-4e7f-4b0d-851c-400bedbf64a1","ios":"levelo://app?vid=45256814-4e7f-4b0d-851c-400bedbf64a1"},"vehicle_type_id":"4","last_reported":1699599976,"current_range_meters":31200,"station_id":"ce4bh312rcd13ifvqdk0","pricing_plan_id":"free"},{"bike_id":"9533a95f-190a-4cb4-94b6-9c17f844efda","system_id":"levelo_inurba_marseille","lat":43.292724,"lon":5.401131,"is_reserved":false,"is_disabled":false,"rental_uris":{"android":"levelo://app?vid=9533a95f-190a-4cb4-94b6-9c17f844efda","ios":"levelo://app?vid=9533a95f-190a-4cb4-94b6-9c17f844efda"},"vehicle_type_id":"4","last_reported":1699599976,"current_range_meters":31200,"station_id":"ce4bh312rcd13ifvqdk0","pricing_plan_id":"free"},{"bike_id":"127fab5f-d08b-4b84-b2a6-33091f62848b","system_id":"levelo_inurba_marseille","lat":43.28039,"lon":5.369297,"is_reserved":false,"is_disabled":false,"rental_uris":{"android":"levelo://app?vid=127fab5f-d08b-4b84-b2a6-33091f62848b","ios":"levelo://app?vid=127fab5f-d08b-4b84-b2a6-33091f62848b"},"vehicle_type_id":"4","last_reported":1699599976,"current_range_meters":10800,"station_id":"ce4bha12rcd13ifvqef0","pricing_plan_id":"free"},{"bike_id":"6ce14d11-5c0b-40be-8dc1-99e20a1711f6","system_id":"levelo_inurba_marseille","lat":43.28039,"lon":5.369297,"is_reserved":false,"is_disabled":false,"rental_uris":{"android":"levelo://app?vid=6ce14d11-5c0b-40be-8dc1-99e20a1711f6","ios":"levelo://app?vid=6ce14d11-5c0b-40be-8dc1-99e20a1711f6"},"vehicle_type_id":"4","last_reported":1699599976,"current_range_meters":29200,"station_id":"ce4bha12rcd13ifvqef0","pricing_plan_id":"free"},{"bike_id":"a8a4cc99-abe2-463c-bfa5-6c11d0003de0","system_id":"levelo_inurba_marseille","lat":43.290456,"lon":5.399689,"is_reserved":false,"is_disabled":false,"rental_uris":{"android":"levelo://app?vid=a8a4cc99-abe2-463c-bfa5-6c11d0003de0","ios":"levelo://app?vid=a8a4cc99-abe2-463c-bfa5-6c11d0003de0"},"vehicle_type_id":"4","last_reported":1699599976,"current_range_meters":22000,"station_id":"ce4bh392rcd13ifvqdm0","pricing_plan_id":"free"},{"bike_id":"0eca1d00-5069-4a15-98af-d74e4fb5633f","system_id":"levelo_inurba_marseille","lat":43.303637,"lon":5.410034,"is_reserved":false,"is_disabled":false,"rental_uris":{"android":"levelo://app?vid=0eca1d00-5069-4a15-98af-d74e4fb5633f","ios":"levelo://app?vid=0eca1d00-5069-4a15-98af-d74e4fb5633f"},"vehicle_type_id":"4","last_reported":1699599976,"current_range_meters":19600,"station_id":"","pricing_plan_id":"free"},{"bike_id":"0cabe484-41db-48c9-b6c4-494245d6e4c9","system_id":"levelo_inurba_marseille","lat":43.29041,"lon":5.399634,"is_reserved":false,"is_disabled":false,"rental_uris":{"android":"levelo://app?vid=0cabe484-41db-48c9-b6c4-494245d6e4c9","ios":"levelo://app?vid=0cabe484-41db-48c9-b6c4-494245d6e4c9"},"vehicle_type_id":"4","last_reported":1699599976,"current_range_meters":27200,"station_id":"ce4bh392rcd13ifvqdm0","pricing_plan_id":"free"},{"bike_id":"92a1c2fa-c970-46ad-8d62-810993ad8f4e","system_id":"levelo_inurba_marseille","lat":43.29041,"lon":5.399634,"is_reserved":false,"is_disabled":false,"rental_uris":{"android":"levelo://app?vid=92a1c2fa-c970-46ad-8d62-810993ad8f4e","ios":"levelo://app?vid=92a1c2fa-c970-46ad-8d62-810993ad8f4e"},"vehicle_type_id":"4","last_reported":1699599976,"current_range_meters":25600,"station_id":"ce4bh392rcd13ifvqdm0","pricing_plan_id":"free"},{"bike_id":"a27b6503-3e47-4070-b013-11a024b724f0","system_id":"levelo_inurba_marseille","lat":43.29041,"lon":5.399634,"is_reserved":false,"is_disabled":false,"rental_uris":{"android":"levelo://app?vid=a27b6503-3e47-4070-b013-11a024b724f0","ios":"levelo://app?vid=a27b6503-3e47-4070-b013-11a024b724f0"},"vehicle_type_id":"4","last_reported":1699599976,"current_range_meters":30400,"station_id":"ce4bh392rcd13ifvqdm0","pricing_plan_id":"free"},{"bike_id":"dd77642a-c748-419b-8ced-f9af042202b2","system_id":"levelo_inurba_marseille","lat":43.29041,"lon":5.399634,"is_reserved":false,"is_disabled":false,"rental_uris":{"android":"levelo://app?vid=dd77642a-c748-419b-8ced-f9af042202b2","ios":"levelo://app?vid=dd77642a-c748-419b-8ced-f9af042202b2"},"vehicle_type_id":"4","last_reported":1699599976,"current_range_meters":19600,"station_id":"ce4bh392rcd13ifvqdm0","pricing_plan_id":"free"},{"bike_id":"f8fced4f-230d-40c3-9920-b1acf9bb81d2","system_id":"levelo_inurba_marseille","lat":43.290351,"lon":5.399765,"is_reserved":false,"is_disabled":false,"rental_uris":{"android":"levelo://app?vid=f8fced4f-230d-40c3-9920-b1acf9bb81d2","ios":"levelo://app?vid=f8fced4f-230d-40c3-9920-b1acf9bb81d2"},"vehicle_type_id":"4","last_reported":1699599976,"current_range_meters":28800,"station_id":"ce4bh392rcd13ifvqdm0","pricing_plan_id":"free"},{"bike_id":"5bcb0409-f0be-43f7-873c-e9cf9fe22f66","system_id":"levelo_inurba_marseille","lat":43.296263,"lon":5.40601,"is_reserved":false,"is_disabled":false,"rental_uris":{"android":"levelo://app?vid=5bcb0409-f0be-43f7-873c-e9cf9fe22f66","ios":"levelo://app?vid=5bcb0409-f0be-43f7-873c-e9cf9fe22f66"},"vehicle_type_id":"4","last_reported":1699599976,"current_range_meters":31200,"station_id":"ce4bh0h2rcd13ifvqd60","pricing_plan_id":"free"},{"bike_id":"4ffb0c16-4846-402b-99ae-21d8d30e0db8","system_id":"levelo_inurba_marseille","lat":43.296263,"lon":5.40601,"is_reserved":false,"is_disabled":false,"rental_uris":{"android":"levelo://app?vid=4ffb0c16-4846-402b-99ae-21d8d30e0db8","ios":"levelo://app?vid=4ffb0c16-4846-402b-99ae-21d8d30e0db8"},"vehicle_type_id":"4","last_reported":1699599976,"current_range_meters":18400,"station_id":"ce4bh0h2rcd13ifvqd60","pricing_plan_id":"free"},{"bike_id":"c5269fde-c094-4163-a2ac-a6350e774e3c","system_id":"levelo_inurba_marseille","lat":43.323447,"lon":5.41003,"is_reserved":false,"is_disabled":false,"rental_uris":{"android":"levelo://app?vid=c5269fde-c094-4163-a2ac-a6350e774e3c","ios":"levelo://app?vid=c5269fde-c094-4163-a2ac-a6350e774e3c"},"vehicle_type_id":"4","last_reported":1699599976,"current_range_meters":10400,"station_id":"","pricing_plan_id":"free"},{"bike_id":"255d3bf1-d30f-4232-bceb-9c5cc14b3a15","system_id":"levelo_inurba_marseille","lat":43.284462,"lon":5.392121,"is_reserved":false,"is_disabled":false,"rental_uris":{"android":"levelo://app?vid=255d3bf1-d30f-4232-bceb-9c5cc14b3a15","ios":"levelo://app?vid=255d3bf1-d30f-4232-bceb-9c5cc14b3a15"},"vehicle_type_id":"4","last_reported":1699599976,"current_range_meters":26400,"station_id":"ce4bhoh2rcd13ifvqh5g","pricing_plan_id":"free"},{"bike_id":"02c72c36-cbbd-4feb-8926-bb852eb9d939","system_id":"levelo_inurba_marseille","lat":43.326605,"lon":5.409903,"is_reserved":false,"is_disabled":false,"rental_uris":{"android":"levelo://app?vid=02c72c36-cbbd-4feb-8926-bb852eb9d939","ios":"levelo://app?vid=02c72c36-cbbd-4feb-8926-bb852eb9d939"},"vehicle_type_id":"4","last_reported":1699599976,"current_range_meters":27200,"station_id":"ce4bhpp2rcd13ifvqhgg","pricing_plan_id":"free"},{"bike_id":"faf09b53-e562-4ae9-ae94-323bf3cb9ce0","system_id":"levelo_inurba_marseille","lat":43.304188,"lon":5.412904,"is_reserved":false,"is_disabled":false,"rental_uris":{"android":"levelo://app?vid=faf09b53-e562-4ae9-ae94-323bf3cb9ce0","ios":"levelo://app?vid=faf09b53-e562-4ae9-ae94-323bf3cb9ce0"},"vehicle_type_id":"4","last_reported":1699599976,"current_range_meters":22400,"station_id":"ce4bhop2rcd13ifvqh8g","pricing_plan_id":"free"},{"bike_id":"d35fd685-a972-46c8-9325-fa8e082ffe24","system_id":"levelo_inurba_marseille","lat":43.304188,"lon":5.412904,"is_reserved":false,"is_disabled":false,"rental_uris":{"android":"levelo://app?vid=d35fd685-a972-46c8-9325-fa8e082ffe24","ios":"levelo://app?vid=d35fd685-a972-46c8-9325-fa8e082ffe24"},"vehicle_type_id":"4","last_reported":1699599976,"current_range_meters":31200,"station_id":"ce4bhop2rcd13ifvqh8g","pricing_plan_id":"free"},{"bike_id":"e8918fc3-4771-4c5d-86f3-8b6f6e21e0f7","system_id":"levelo_inurba_marseille","lat":43.304188,"lon":5.412904,"is_reserved":false,"is_disabled":false,"rental_uris":{"android":"levelo://app?vid=e8918fc3-4771-4c5d-86f3-8b6f6e21e0f7","ios":"levelo://app?vid=e8918fc3-4771-4c5d-86f3-8b6f6e21e0f7"},"vehicle_type_id":"4","last_reported":1699599976,"current_range_meters":24400,"station_id":"ce4bhop2rcd13ifvqh8g","pricing_plan_id":"free"},{"bike_id":"381ba743-1552-4db6-9c19-4059aedf5f04","system_id":"levelo_inurba_marseille","lat":43.287154,"lon":5.399979,"is_reserved":false,"is_disabled":false,"rental_uris":{"android":"levelo://app?vid=381ba743-1552-4db6-9c19-4059aedf5f04","ios":"levelo://app?vid=381ba743-1552-4db6-9c19-4059aedf5f04"},"vehicle_type_id":"4","last_reported":1699599976,"current_range_meters":31200,"station_id":"ce4bho92rcd13ifvqh3g","pricing_plan_id":"free"},{"bike_id":"798b845e-3212-41db-b549-220eda887db5","system_id":"levelo_inurba_marseille","lat":43.287154,"lon":5.399979,"is_reserved":false,"is_disabled":false,"rental_uris":{"android":"levelo://app?vid=798b845e-3212-41db-b549-220eda887db5","ios":"levelo://app?vid=798b845e-3212-41db-b549-220eda887db5"},