{"last_updated":1692561960,"ttl":30,"version":"2.2","data":{"bikes":[{"bike_id":"f22ca441-4e4e-4660-b824-b2f46943e54d","system_id":"levelo_inurba_marseille","lat":43.312239,"lon":5.368562,"is_reserved":false,"is_disabled":false,"rental_uris":{"android":"levelo://app?vid=f22ca441-4e4e-4660-b824-b2f46943e54d","ios":"levelo://app?vid=f22ca441-4e4e-4660-b824-b2f46943e54d"},"vehicle_type_id":"4","last_reported":1692561960,"current_range_meters":31200,"station_id":"ce4bgl92rcd13ifvqbq0","pricing_plan_id":"free"},{"bike_id":"14995ce5-2918-4df8-a683-e331fdf52e62","system_id":"levelo_inurba_marseille","lat":43.312239,"lon":5.368562,"is_reserved":false,"is_disabled":false,"rental_uris":{"android":"levelo://app?vid=14995ce5-2918-4df8-a683-e331fdf52e62","ios":"levelo://app?vid=14995ce5-2918-4df8-a683-e331fdf52e62"},"vehicle_type_id":"4","last_reported":1692561960,"current_range_meters":1200,"station_id":"ce4bgl92rcd13ifvqbq0","pricing_plan_id":"free"},{"bike_id":"bc7232c0-e645-48d4-b684-315dd73ebdc2","system_id":"levelo_inurba_marseille","lat":43.309076,"lon":5.368465,"is_reserved":false,"is_disabled":false,"rental_uris":{"android":"levelo://app?vid=bc7232c0-e645-48d4-b684-315dd73ebdc2","ios":"levelo://app?vid=bc7232c0-e645-48d4-b684-315dd73ebdc2"},"vehicle_type_id":"4","last_reported":1692561960,"current_range_meters":0,"station_id":"ce4bgn92rcd13ifvqbvg","pricing_plan_id":"free"},{"bike_id":"0e4a6d02-7dbd-437b-ae70-ef07127e49c9","system_id":"levelo_inurba_marseille","lat":43.314811,"lon":5.373103,"is_reserved":false,"is_disabled":false,"rental_uris":{"android":"levelo://app?vid=0e4a6d02-7dbd-437b-ae70-ef07127e49c9","ios":"levelo://app?vid=0e4a6d02-7dbd-437b-ae70-ef07127e49c9"},"vehicle_type_id":"4","last_reported":1692561960,"current_range_meters":12800,"station_id":"ce4bgt12rcd13ifvqcd0","pricing_plan_id":"free"},{"bike_id":"380b60ee-17f4-4c37-96ce-c94c7c8b9f87","system_id":"levelo_inurba_marseille","lat":43.314811,"lon":5.373103,"is_reserved":false,"is_disabled":false,"rental_uris":{"android":"levelo://app?vid=380b60ee-17f4-4c37-96ce-c94c7c8b9f87","ios":"levelo://app?vid=380b60ee-17f4-4c37-96ce-c94c7c8b9f87"},"vehicle_type_id":"4","last_reported":1692561960,"current_range_meters":9600,"station_id":"ce4bgt12rcd13ifvqcd0","pricing_plan_id":"free"},{"bike_id":"8dfcc82b-8343-456d-9ff9-9dffff3f277e","system_id":"levelo_inurba_marseille","lat":43.314811,"lon":5.373103,"is_reserved":false,"is_disabled":false,"rental_uris":{"android":"levelo://app?vid=8dfcc82b-8343-456d-9ff9-9dffff3f277e","ios":"levelo://app?vid=8dfcc82b-8343-456d-9ff9-9dffff3f277e"},"vehicle_type_id":"4","last_reported":1692561960,"current_range_meters":11200,"station_id":"ce4bgt12rcd13ifvqcd0","pricing_plan_id":"free"},{"bike_id":"8b922608-3a3e-4070-adef-2656711ee469","system_id":"levelo_inurba_marseille","lat":43.314811,"lon":5.373104,"is_reserved":false,"is_disabled":false,"rental_uris":{"android":"levelo://app?vid=8b922608-3a3e-4070-adef-2656711ee469","ios":"levelo://app?vid=8b922608-3a3e-4070-adef-2656711ee469"},"vehicle_type_id":"4","last_reported":1692561960,"current_range_meters":23600,"station_id":"ce4bgt12rcd13ifvqcd0","pricing_plan_id":"free"},{"bike_id":"9fa30fb0-e6a1-4352-8ba9-5e6a6cb2b84d","system_id":"levelo_inurba_marseille","lat":43.314811,"lon":5.373104,"is_reserved":false,"is_disabled":false,"rental_uris":{"android":"levelo://app?vid=9fa30fb0-e6a1-4352-8ba9-5e6a6cb2b84d","ios":"levelo://app?vid=9fa30fb0-e6a1-4352-8ba9-5e6a6cb2b84d"},"vehicle_type_id":"4","last_reported":1692561960,"current_range_meters":20800,"station_id":"ce4bgt12rcd13ifvqcd0","pricing_plan_id":"free"},{"bike_id":"fac095da-d3e0-4944-a79c-586151d7bdf4","system_id":"levelo_inurba_marseille","lat":43.309039,"lon":5.371797,"is_reserved":false,"is_disabled":false,"rental_uris":{"android":"levelo://app?vid=fac095da-d3e0-4944-a79c-586151d7bdf4","ios":"levelo://app?vid=fac095da-d3e0-4944-a79c-586151d7bdf4"},"vehicle_type_id":"4","last_reported":1692561960,"current_range_meters":8000,"station_id":"ce4bguh2rcd13ifvqckg","pricing_plan_id":"free"},{"bike_id":"4c05ed74-b6cf-478b-a88c-3915bd5c0e91","system_id":"levelo_inurba_marseille","lat":43.309039,"lon":5.371797,"is_reserved":false,"is_disabled":false,"rental_uris":{"android":"levelo://app?vid=4c05ed74-b6cf-478b-a88c-3915bd5c0e91","ios":"levelo://app?vid=4c05ed74-b6cf-478b-a88c-3915bd5c0e91"},"vehicle_type_id":"4","last_reported":1692561960,"current_range_meters":6400,"station_id":"ce4bguh2rcd13ifvqckg","pricing_plan_id":"free"},{"bike_id":"8726921c-902a-449c-90e8-52b688ddc824","system_id":"levelo_inurba_marseille","lat":43.309039,"lon":5.371797,"is_reserved":false,"is_disabled":false,"rental_uris":{"android":"levelo://app?vid=8726921c-902a-449c-90e8-52b688ddc824","ios":"levelo://app?vid=8726921c-902a-449c-90e8-52b688ddc824"},"vehicle_type_id":"4","last_reported":1692561960,"current_range_meters":26000,"station_id":"ce4bguh2rcd13ifvqckg","pricing_plan_id":"free"},{"bike_id":"6170002d-d406-4779-904e-5c33c1103feb","system_id":"levelo_inurba_marseille","lat":43.305655,"lon":5.367314,"is_reserved":false,"is_disabled":false,"rental_uris":{"android":"levelo://app?vid=6170002d-d406-4779-904e-5c33c1103feb","ios":"levelo://app?vid=6170002d-d406-4779-904e-5c33c1103feb"},"vehicle_type_id":"4","last_reported":1692561960,"current_range_meters":19200,"station_id":"ce4bgrp2rcd13ifvqc9g","pricing_plan_id":"free"},{"bike_id":"386ed8e3-b71e-4f68-86af-202c5b76503e","system_id":"levelo_inurba_marseille","lat":43.30544,"lon":5.36697,"is_reserved":false,"is_disabled":false,"rental_uris":{"android":"levelo://app?vid=386ed8e3-b71e-4f68-86af-202c5b76503e","ios":"levelo://app?vid=386ed8e3-b71e-4f68-86af-202c5b76503e"},"vehicle_type_id":"4","last_reported":1692561960,"current_range_meters":18800,"station_id":"ce4bgrp2rcd13ifvqc9g","pricing_plan_id":"free"},{"bike_id":"9fbe6e18-d192-44c2-98b5-cafb68b41aa4","system_id":"levelo_inurba_marseille","lat":43.30547,"lon":5.36515,"is_reserved":false,"is_disabled":false,"rental_uris":{"android":"levelo://app?vid=9fbe6e18-d192-44c2-98b5-cafb68b41aa4","ios":"levelo://app?vid=9fbe6e18-d192-44c2-98b5-cafb68b41aa4"},"vehicle_type_id":"4","last_reported":1692561960,"current_range_meters":5200,"station_id":"ce4bgs12rcd13ifvqcag","pricing_plan_id":"free"},{"bike_id":"3c1be5e0-ec8a-4d61-9108-c7abc948381f","system_id":"levelo_inurba_marseille","lat":43.30532,"lon":5.36715,"is_reserved":false,"is_disabled":false,"rental_uris":{"android":"levelo://app?vid=3c1be5e0-ec8a-4d61-9108-c7abc948381f","ios":"levelo://app?vid=3c1be5e0-ec8a-4d61-9108-c7abc948381f"},"vehicle_type_id":"4","last_reported":1692561960,"current_range_meters":19200,"station_id":"ce4bgrp2rcd13ifvqc9g","pricing_plan_id":"free"},{"bike_id":"327dfdb4-38ec-4b7c-9b13-8870790550d3","system_id":"levelo_inurba_marseille","lat":43.30606,"lon":5.37216,"is_reserved":false,"is_disabled":false,"rental_uris":{"android":"levelo://app?vid=327dfdb4-38ec-4b7c-9b13-8870790550d3","ios":"levelo://app?vid=327dfdb4-38ec-4b7c-9b13-8870790550d3"},"vehicle_type_id":"4","last_reported":1692561960,"current_range_meters":9600,"station_id":"ce4bgqh2rcd13ifvqc4g","pricing_plan_id":"free"},{"bike_id":"2caef453-4384-420b-a100-2d08d5b6209d","system_id":"levelo_inurba_marseille","lat":43.305989,"lon":5.37225,"is_reserved":false,"is_disabled":false,"rental_uris":{"android":"levelo://app?vid=2caef453-4384-420b-a100-2d08d5b6209d","ios":"levelo://app?vid=2caef453-4384-420b-a100-2d08d5b6209d"},"vehicle_type_id":"4","last_reported":1692561960,"current_range_meters":3600,"station_id":"ce4bgqh2rcd13ifvqc4g","pricing_plan_id":"free"},{"bike_id":"c82a5ba5-69e0-469e-9348-6d557e8b1edf","system_id":"levelo_inurba_marseille","lat":43.30597,"lon":5.37227,"is_reserved":false,"is_disabled":false,"rental_uris":{"android":"levelo://app?vid=c82a5ba5-69e0-469e-9348-6d557e8b1edf","ios":"levelo://app?vid=c82a5ba5-69e0-469e-9348-6d557e8b1edf"},"vehicle_type_id":"4","last_reported":1692561960,"current_range_meters":24400,"station_id":"ce4bgqh2rcd13ifvqc4g","pricing_plan_id":"free"},{"bike_id":"6ad6efc9-b2a1-4727-8f55-cae3fb7df53d","system_id":"levelo_inurba_marseille","lat":43.30592,"lon":5.3723,"is_reserved":false,"is_disabled":false,"rental_uris":{"android":"levelo://app?vid=6ad6efc9-b2a1-4727-8f55-cae3fb7df53d","ios":"levelo://app?vid=6ad6efc9-b2a1-4727-8f55-cae3fb7df53d"},"vehicle_type_id":"4","last_reported":1692561960,"current_range_meters":2800,"station_id":"ce4bgqh2rcd13ifvqc4g","pricing_plan_id":"free"},{"bike_id":"2723cfae-6c7c-4bb7-823e-bfdc2df73e80","system_id":"levelo_inurba_marseille","lat":43.30589,"lon":5.37227,"is_reserved":false,"is_disabled":false,"rental_uris":{"android":"levelo://app?vid=2723cfae-6c7c-4bb7-823e-bfdc2df73e80","ios":"levelo://app?vid=2723cfae-6c7c-4bb7-823e-bfdc2df73e80"},"vehicle_type_id":"4","last_reported":1692561960,"current_range_meters":400,"station_id":"ce4bgqh2rcd13ifvqc4g","pricing_plan_id":"free"},{"bike_id":"4b3716e8-9c91-4875-a818-cd2064a4c377","system_id":"levelo_inurba_marseille","lat":43.311196,"lon":5.377691,"is_reserved":false,"is_disabled":false,"rental_uris":{"android":"levelo://app?vid=4b3716e8-9c91-4875-a818-cd2064a4c377","ios":"levelo://app?vid=4b3716e8-9c91-4875-a818-cd2064a4c377"},"vehicle_type_id":"4","last_reported":1692561960,"current_range_meters":7200,"station_id":"ce4bgt92rcd13ifvqcg0","pricing_plan_id":"free"},{"bike_id":"4ff2f5ca-4b9e-4d36-9028-a50a7496c73d","system_id":"levelo_inurba_marseille","lat":43.30793,"lon":5.37652,"is_reserved":false,"is_disabled":false,"rental_uris":{"android":"levelo://app?vid=4ff2f5ca-4b9e-4d36-9028-a50a7496c73d","ios":"levelo://app?vid=4ff2f5ca-4b9e-4d36-9028-a50a7496c73d"},"vehicle_type_id":"4","last_reported":1692561960,"current_range_meters":5200,"station_id":"ce4bgv92rcd13ifvqcq0","pricing_plan_id":"free"},{"bike_id":"414dc2f2-c725-42da-b79e-e670159e1679","system_id":"levelo_inurba_marseille","lat":43.30782,"lon":5.37646,"is_reserved":false,"is_disabled":false,"rental_uris":{"android":"levelo://app?vid=414dc2f2-c725-42da-b79e-e670159e1679","ios":"levelo://app?vid=414dc2f2-c725-42da-b79e-e670159e1679"},"vehicle_type_id":"4","last_reported":1692561960,"current_range_meters":10400,"station_id":"ce4bgv92rcd13ifvqcq0","pricing_plan_id":"free"},{"bike_id":"327fe0dc-08c0-428e-baf6-82942cb2943b","system_id":"levelo_inurba_marseille","lat":43.315289,"lon":5.380349,"is_reserved":false,"is_disabled":false,"rental_uris":{"android":"levelo://app?vid=327fe0dc-08c0-428e-baf6-82942cb2943b","ios":"levelo://app?vid=327fe0dc-08c0-428e-baf6-82942cb2943b"},"vehicle_type_id":"4","last_reported":1692561960,"current_range_meters":4000,"station_id":"ce4bhsp2rcd13ifvqi50","pricing_plan_id":"free"},{"bike_id":"779f8c7d-f6c1-4cc9-a593-c88874220bcf","system_id":"levelo_inurba_marseille","lat":43.315289,"lon":5.380349,"is_reserved":false,"is_disabled":false,"rental_uris":{"android":"levelo://app?vid=779f8c7d-f6c1-4cc9-a593-c88874220bcf","ios":"levelo://app?vid=779f8c7d-f6c1-4cc9-a593-c88874220bcf"},"vehicle_type_id":"4","last_reported":1692561960,"current_range_meters":23600,"station_id":"ce4bhsp2rcd13ifvqi50","pricing_plan_id":"free"},{"bike_id":"f398d17f-e629-4d28-a428-2da6d23893de","system_id":"levelo_inurba_marseille","lat":43.303046,"lon":5.368981,"is_reserved":false,"is_disabled":false,"rental_uris":{"android":"levelo://app?vid=f398d17f-e629-4d28-a428-2da6d23893de","ios":"levelo://app?vid=f398d17f-e629-4d28-a428-2da6d23893de"},"vehicle_type_id":"4","last_reported":1692561960,"current_range_meters":800,"station_id":"ce4bgqh2rcd13ifvqc5g","pricing_plan_id":"free"},{"bike_id":"f750f77d-604b-4e8e-8da8-af00db48c910","system_id":"levelo_inurba_marseille","lat":43.308012,"lon":5.381511,"is_reserved":false,"is_disabled":false,"rental_uris":{"android":"levelo://app?vid=f750f77d-604b-4e8e-8da8-af00db48c910","ios":"levelo://app?vid=f750f77d-604b-4e8e-8da8-af00db48c910"},"vehicle_type_id":"4","last_reported":1692561960,"current_range_meters":5600,"station_id":"ce4bgt12rcd13ifvqce0","pricing_plan_id":"free"},{"bike_id":"259a287e-2213-49df-bbf2-691955009d38","system_id":"levelo_inurba_marseille","lat":43.308012,"lon":5.381511,"is_reserved":false,"is_disabled":false,"rental_uris":{"android":"levelo://app?vid=259a287e-2213-49df-bbf2-691955009d38","ios":"levelo://app?vid=259a287e-2213-49df-bbf2-691955009d38"},"vehicle_type_id":"4","last_reported":1692561960,"current_range_meters":5200,"station_id":"ce4bgt12rcd13ifvqce0","pricing_plan_id":"free"},{"bike_id":"b602edea-5136-46b9-b336-c9253f4f2e48","system_id":"levelo_inurba_marseille","lat":43.302784,"lon":5.377158,"is_reserved":false,"is_disabled":false,"rental_uris":{"android":"levelo://app?vid=b602edea-5136-46b9-b336-c9253f4f2e48","ios":"levelo://app?vid=b602edea-5136-46b9-b336-c9253f4f2e48"},"vehicle_type_id":"4","last_reported":1692561960,"current_range_meters":30400,"station_id":"ce4bguh2rcd13ifvqcj0","pricing_plan_id":"free"},{"bike_id":"e1551569-4640-4838-a3c7-25594ec038b3","system_id":"levelo_inurba_marseille","lat":43.32574,"lon":5.36617,"is_reserved":false,"is_disabled":false,"rental_uris":{"android":"levelo://app?vid=e1551569-4640-4838-a3c7-25594ec038b3","ios":"levelo://app?vid=e1551569-4640-4838-a3c7-25594ec038b3"},"vehicle_type_id":"4","last_reported":1692561960,"current_range_meters":2800,"station_id":"","pricing_plan_id":"free"},{"bike_id":"6acf681f-36ff-4fe0-b6fa-5dc21a39a01e","system_id":"levelo_inurba_marseille","lat":43.313571,"lon":5.384829,"is_reserved":false,"is_disabled":false,"rental_uris":{"android":"levelo://app?vid=6acf681f-36ff-4fe0-b6fa-5dc21a39a01e","ios":"levelo://app?vid=6acf681f-36ff-4fe0-b6fa-5dc21a39a01e"},"vehicle_type_id":"4","last_reported":1692561960,"current_range_meters":17200,"station_id":"ce4bgt92rcd13ifvqcf0","pricing_plan_id":"free"},{"bike_id":"c1194416-143f-4c9e-af3e-3927ead71f5b","system_id":"levelo_inurba_marseille","lat":43.31375,"lon":5.38492,"is_reserved":false,"is_disabled":false,"rental_uris":{"android":"levelo://app?vid=c1194416-143f-4c9e-af3e-3927ead71f5b","ios":"levelo://app?vid=c1194416-143f-4c9e-af3e-3927ead71f5b"},"vehicle_type_id":"4","last_reported":1692561960,"current_range_meters":27200,"station_id":"ce4bgt92rcd13ifvqcf0","pricing_plan_id":"free"},{"bike_id":"3282f51e-dae6-42df-b831-916b9e2a77d3","system_id":"levelo_inurba_marseille","lat":43.313571,"lon":5.384829,"is_reserved":false,"is_disabled":false,"rental_uris":{"android":"levelo://app?vid=3282f51e-dae6-42df-b831-916b9e2a77d3","ios":"levelo://app?vid=3282f51e-dae6-42df-b831-916b9e2a77d3"},"vehicle_type_id":"4","last_reported":1692561960,"current_range_meters":10800,"station_id":"ce4bgt92rcd13ifvqcf0","pricing_plan_id":"free"},{"bike_id":"7a575dc2-5519-490d-80cf-1affc83d67d9","system_id":"levelo_inurba_marseille","lat":43.313571,"lon":5.384829,"is_reserved":false,"is_disabled":false,"rental_uris":{"android":"levelo://app?vid=7a575dc2-5519-490d-80cf-1affc83d67d9","ios":"levelo://app?vid=7a575dc2-5519-490d-80cf-1affc83d67d9"},"vehicle_type_id":"4","last_reported":1692561960,"current_range_meters":20400,"station_id":"ce4bgt92rcd13ifvqcf0","pricing_plan_id":"free"},{"bike_id":"4e958ac9-9f75-4b71-be9b-9d520672c397","system_id":"levelo_inurba_marseille","lat":43.29997,"lon":5.37338,"is_reserved":false,"is_disabled":false,"rental_uris":{"android":"levelo://app?vid=4e958ac9-9f75-4b71-be9b-9d520672c397","ios":"levelo://app?vid=4e958ac9-9f75-4b71-be9b-9d520672c397"},"vehicle_type_id":"4","last_reported":1692561960,"current_range_meters":11200,"station_id":"","pricing_plan_id":"free"},{"bike_id":"95dc9ecf-047e-4c3a-bb12-a5676cb36ad4","system_id":"levelo_inurba_marseille","lat":43.3216,"lon":5.38166,"is_reserved":false,"is_disabled":false,"rental_uris":{"android":"levelo://app?vid=95dc9ecf-047e-4c3a-bb12-a5676cb36ad4","ios":"levelo://app?vid=95dc9ecf-047e-4c3a-bb12-a5676cb36ad4"},"vehicle_type_id":"4","last_reported":1692561960,"current_range_meters":14000,"station_id":"","pricing_plan_id":"free"},{"bike_id":"c55e54ab-29a4-405d-8fcd-984b258d2bce","system_id":"levelo_inurba_marseille","lat":43.298433,"lon":5.362774,"is_reserved":false,"is_disabled":false,"rental_uris":{"android":"levelo://app?vid=c55e54ab-29a4-405d-8fcd-984b258d2bce","ios":"levelo://app?vid=c55e54ab-29a4-405d-8fcd-984b258d2bce"},"vehicle_type_id":"4","last_reported":1692561960,"current_range_meters":0,"station_id":"ce4bgpp2rcd13ifvqc3g","pricing_plan_id":"free"},{"bike_id":"fd11a53c-354c-4f24-a148-9dd41c72be8f","system_id":"levelo_inurba_marseille","lat":43.298433,"lon":5.362774,"is_reserved":false,"is_disabled":false,"rental_uris":{"android":"levelo://app?vid=fd11a53c-354c-4f24-a148-9dd41c72be8f","ios":"levelo://app?vid=fd11a53c-354c-4f24-a148-9dd41c72be8f"},"vehicle_type_id":"4","last_reported":1692561960,"current_range_meters":14000,"station_id":"ce4bgpp2rcd13ifvqc3g","pricing_plan_id":"free"},{"bike_id":"9a2e60c5-e1ac-44b3-817c-eb4a639b13e7","system_id":"levelo_inurba_marseille","lat":43.299243,"lon":5.374807,"is_reserved":false,"is_disabled":false,"rental_uris":{"android":"levelo://app?vid=9a2e60c5-e1ac-44b3-817c-eb4a639b13e7","ios":"levelo://app?vid=9a2e60c5-e1ac-44b3-817c-eb4a639b13e7"},"vehicle_type_id":"4","last_reported":1692561960,"current_range_meters":16000,"station_id":"ce4bgjh2rcd13ifvqbg0","pricing_plan_id":"free"},{"bike_id":"c9934a59-0a98-4791-82d5-c79870993931","system_id":"levelo_inurba_marseille","lat":43.311722,"lon":5.387247,"is_reserved":false,"is_disabled":false,"rental_uris":{"android":"levelo://app?vid=c9934a59-0a98-4791-82d5-c79870993931","ios":"levelo://app?vid=c9934a59-0a98-4791-82d5-c79870993931"},"vehicle_type_id":"4","last_reported":1692561960,"current_range_meters":19600,"station_id":"ce4bgv12rcd13ifvqcp0","pricing_plan_id":"free"},{"bike_id":"06ed24f0-b96f-48bb-9d39-141a12c02ff6","system_id":"levelo_inurba_marseille","lat":43.311722,"lon":5.387247,"is_reserved":false,"is_disabled":false,"rental_uris":{"android":"levelo://app?vid=06ed24f0-b96f-48bb-9d39-141a12c02ff6","ios":"levelo://app?vid=06ed24f0-b96f-48bb-9d39-141a12c02ff6"},"vehicle_type_id":"4","last_reported":1692561960,"current_range_meters":18800,"station_id":"ce4bgv12rcd13ifvqcp0","pricing_plan_id":"free"},{"bike_id":"b885f463-e8c5-42cc-902f-7152167ce1c7","system_id":"levelo_inurba_marseille","lat":43.2992,"lon":5.37478,"is_reserved":false,"is_disabled":false,"rental_uris":{"android":"levelo://app?vid=b885f463-e8c5-42cc-902f-7152167ce1c7","ios":"levelo://app?vid=b885f463-e8c5-42cc-902f-7152167ce1c7"},"vehicle_type_id":"4","last_reported":1692561960,"current_range_meters":31200,"station_id":"ce4bgjh2rcd13ifvqbg0","pricing_plan_id":"free"},{"bike_id":"c2c902b2-4933-454a-805f-66426de6b075","system_id":"levelo_inurba_marseille","lat":43.311722,"lon":5.387247,"is_reserved":false,"is_disabled":false,"rental_uris":{"android":"levelo://app?vid=c2c902b2-4933-454a-805f-66426de6b075","ios":"levelo://app?vid=c2c902b2-4933-454a-805f-66426de6b075"},"vehicle_type_id":"4","last_reported":1692561960,"current_range_meters":14400,"station_id":"ce4bgv12rcd13ifvqcp0","pricing_plan_id":"free"},{"bike_id":"c2cd3b38-115e-49c6-a33b-516099fdeebd","system_id":"levelo_inurba_marseille","lat":43.311722,"lon":5.387247,"is_reserved":false,"is_disabled":false,"rental_uris":{"android":"levelo://app?vid=c2cd3b38-115e-49c6-a33b-516099fdeebd","ios":"levelo://app?vid=c2cd3b38-115e-49c6-a33b-516099fdeebd"},"vehicle_type_id":"4","last_reported":1692561960,"current_range_meters":8400,"station_id":"ce4bgv12rcd13ifvqcp0","pricing_plan_id":"free"},{"bike_id":"9d032aba-6e1e-4251-97ae-87375d5a74c6","system_id":"levelo_inurba_marseille","lat":43.311722,"lon":5.387247,"is_reserved":false,"is_disabled":false,"rental_uris":{"android":"levelo://app?vid=9d032aba-6e1e-4251-97ae-87375d5a74c6","ios":"levelo://app?vid=9d032aba-6e1e-4251-97ae-87375d5a74c6"},"vehicle_type_id":"4","last_reported":1692561960,"current_range_meters":16800,"station_id":"ce4bgv12rcd13ifvqcp0","pricing_plan_id":"free"},{"bike_id":"ff8bf84b-7c83-419d-a3ad-978e865f62fe","system_id":"levelo_inurba_marseille","lat":43.311722,"lon":5.387247,"is_reserved":false,"is_disabled":false,"rental_uris":{"android":"levelo://app?vid=ff8bf84b-7c83-419d-a3ad-978e865f62fe","ios":"levelo://app?vid=ff8bf84b-7c83-419d-a3ad-978e865f62fe"},"vehicle_type_id":"4","last_reported":1692561960,"current_range_meters":10400,"station_id":"ce4bgv12rcd13ifvqcp0","pricing_plan_id":"free"},{"bike_id":"75906b84-a159-4f0c-b4f4-0addc6a2791b","system_id":"levelo_inurba_marseille","lat":43.311722,"lon":5.387247,"is_reserved":false,"is_disabled":false,"rental_uris":{"android":"levelo://app?vid=75906b84-a159-4f0c-b4f4-0addc6a2791b","ios":"levelo://app?vid=75906b84-a159-4f0c-b4f4-0addc6a2791b"},"vehicle_type_id":"4","last_reported":1692561960,"current_range_meters":12800,"station_id":"ce4bgv12rcd13ifvqcp0","pricing_plan_id":"free"},{"bike_id":"e9683eed-5630-4a1c-b4ab-4619c73e207e","system_id":"levelo_inurba_marseille","lat":43.311722,"lon":5.387247,"is_reserved":false,"is_disabled":false,"rental_uris":{"android":"levelo://app?vid=e9683eed-5630-4a1c-b4ab-4619c73e207e","ios":"levelo://app?vid=e9683eed-5630-4a1c-b4ab-4619c73e207e"},"vehicle_type_id":"4","last_reported":1692561960,"current_range_meters":19200,"station_id":"ce4bgv12rcd13ifvqcp0","pricing_plan_id":"free"},{"bike_id":"eb3be1e8-6dd7-42ba-ba3d-43f82172b280","system_id":"levelo_inurba_marseille","lat":43.311722,"lon":5.387247,"is_reserved":false,"is_disabled":false,"rental_uris":{"android":"levelo://app?vid=eb3be1e8-6dd7-42ba-ba3d-43f82172b280","ios":"levelo://app?vid=eb3be1e8-6dd7-42ba-ba3d-43f82172b280"},"vehicle_type_id":"4","last_reported":1692561960,"current_range_meters":2400,"station_id":"ce4bgv12rcd13ifvqcp0","pricing_plan_id":"free"},{"bike_id":"877a115c-db7c-4cfd-8d5c-6c5249efe09a","system_id":"levelo_inurba_marseille","lat":43.311722,"lon":5.387247,"is_reserved":false,"is_disabled":false,"rental_uris":{"android":"levelo://app?vid=877a115c-db7c-4cfd-8d5c-6c5249efe09a","ios":"levelo://app?vid=877a115c-db7c-4cfd-8d5c-6c5249efe09a"},"vehicle_type_id":"4","last_reported":1692561960,"current_range_meters":18800,"station_id":"ce4bgv12rcd13ifvqcp0","pricing_plan_id":"free"},{"bike_id":"c7dd0817-889c-42c6-9b46-d3561df540da","system_id":"levelo_inurba_marseille","lat":43.311722,"lon":5.387247,"is_reserved":false,"is_disabled":false,"rental_uris":{"android":"levelo://app?vid=c7dd0817-889c-42c6-9b46-d3561df540da","ios":"levelo://app?vid=c7dd0817-889c-42c6-9b46-d3561df540da"},"vehicle_type_id":"4","last_reported":1692561960,"current_range_meters":20800,"station_id":"ce4bgv12rcd13ifvqcp0","pricing_plan_id":"free"},{"bike_id":"a1f7b084-f437-4e0c-8b20-334f54c48d59","system_id":"levelo_inurba_marseille","lat":43.32289,"lon":5.38267,"is_reserved":false,"is_disabled":false,"rental_uris":{"android":"levelo://app?vid=a1f7b084-f437-4e0c-8b20-334f54c48d59","ios":"levelo://app?vid=a1f7b084-f437-4e0c-8b20-334f54c48d59"},"vehicle_type_id":"4","last_reported":1692561960,"current_range_meters":12800,"station_id":"ce4bhr12rcd13ifvqhqg","pricing_plan_id":"free"},{"bike_id":"5b5c8cae-b425-4976-9ba8-5ae205664d6b","system_id":"levelo_inurba_marseille","lat":43.32291,"lon":5.38265,"is_reserved":false,"is_disabled":false,"rental_uris":{"android":"levelo://app?vid=5b5c8cae-b425-4976-9ba8-5ae205664d6b","ios":"levelo://app?vid=5b5c8cae-b425-4976-9ba8-5ae205664d6b"},"vehicle_type_id":"4","last_reported":1692561960,"current_range_meters":12800,"station_id":"ce4bhr12rcd13ifvqhqg","pricing_plan_id":"free"},{"bike_id":"b9784bc4-a1f4-4e7b-a996-3746dcc4c656","system_id":"levelo_inurba_marseille","lat":43.32291,"lon":5.38269,"is_reserved":false,"is_disabled":false,"rental_uris":{"android":"levelo://app?vid=b9784bc4-a1f4-4e7b-a996-3746dcc4c656","ios":"levelo://app?vid=b9784bc4-a1f4-4e7b-a996-3746dcc4c656"},"vehicle_type_id":"4","last_reported":1692561960,"current_range_meters":4400,"station_id":"ce4bhr12rcd13ifvqhqg","pricing_plan_id":"free"},{"bike_id":"110bd150-ae2d-4085-890c-a8f4481980e0","system_id":"levelo_inurba_marseille","lat":43.32291,"lon":5.38275,"is_reserved":false,"is_disabled":false,"rental_uris":{"android":"levelo://app?vid=110bd150-ae2d-4085-890c-a8f4481980e0","ios":"levelo://app?vid=110bd150-ae2d-4085-890c-a8f4481980e0"},"vehicle_type_id":"4","last_reported":1692561960,"current_range_meters":24400,"station_id":"ce4bhr12rcd13ifvqhqg","pricing_plan_id":"free"},{"bike_id":"d47c449e-a395-4d6c-990a-7c56dfd0b9b0","system_id":"levelo_inurba_marseille","lat":43.29735,"lon":5.36402,"is_reserved":false,"is_disabled":false,"rental_uris":{"android":"levelo://app?vid=d47c449e-a395-4d6c-990a-7c56dfd0b9b0","ios":"levelo://app?vid=d47c449e-a395-4d6c-990a-7c56dfd0b9b0"},"vehicle_type_id":"4","last_reported":1692561960,"current_range_meters":30400,"station_id":"","pricing_plan_id":"free"},{"bike_id":"5f37529d-12d8-401f-9329-d44e259e971d","system_id":"levelo_inurba_marseille","lat":43.32828,"lon":5.36694,"is_reserved":false,"is_disabled":false,"rental_uris":{"android":"levelo://app?vid=5f37529d-12d8-401f-9329-d44e259e971d","ios":"levelo://app?vid=5f37529d-12d8-401f-9329-d44e259e971d"},"vehicle_type_id":"4","last_reported":1692561960,"current_range_meters":6800,"station_id":"ce4bhs92rcd13ifvqi0g","pricing_plan_id":"free"},{"bike_id":"dd789220-e7b5-42c1-b9dc-dc4243148021","system_id":"levelo_inurba_marseille","lat":43.297163,"lon":5.365866,"is_reserved":false,"is_disabled":false,"rental_uris":{"android":"levelo://app?vid=dd789220-e7b5-42c1-b9dc-dc4243148021","ios":"levelo://app?vid=dd789220-e7b5-42c1-b9dc-dc4243148021"},"vehicle_type_id":"4","last_reported":1692561960,"current_range_meters":31200,"station_id":"ce4bgn12rcd13ifvqbt0","pricing_plan_id":"free"},{"bike_id":"b71f7ae2-82bf-407e-b86e-17cd19c3d984","system_id":"levelo_inurba_marseille","lat":43.297163,"lon":5.365866,"is_reserved":false,"is_disabled":false,"rental_uris":{"android":"levelo://app?vid=b71f7ae2-82bf-407e-b86e-17cd19c3d984","ios":"levelo://app?vid=b71f7ae2-82bf-407e-b86e-17cd19c3d984"},"vehicle_type_id":"4","last_reported":1692561960,"current_range_meters":7200,"station_id":"ce4bgn12rcd13ifvqbt0","pricing_plan_id":"free"},{"bike_id":"0cb37ea4-66e8-4a3f-8ac4-0c00eaa22f04","system_id":"levelo_inurba_marseille","lat":43.297163,"lon":5.365866,"is_reserved":false,"is_disabled":false,"rental_uris":{"android":"levelo://app?vid=0cb37ea4-66e8-4a3f-8ac4-0c00eaa22f04","ios":"levelo://app?vid=0cb37ea4-66e8-4a3f-8ac4-0c00eaa22f04"},"vehicle_type_id":"4","last_reported":1692561960,"current_range_meters":21200,"station_id":"ce4bgn12rcd13ifvqbt0","pricing_plan_id":"free"},{"bike_id":"02e92c87-a43c-4e07-8697-4f46de1e5174","system_id":"levelo_inurba_marseille","lat":43.297163,"lon":5.365866,"is_reserved":false,"is_disabled":false,"rental_uris":{"android":"levelo://app?vid=02e92c87-a43c-4e07-8697-4f46de1e5174","ios":"levelo://app?vid=02e92c87-a43c-4e07-8697-4f46de1e5174"},"vehicle_type_id":"4","last_reported":1692561960,"current_range_meters":16800,"station_id":"ce4bgn12rcd13ifvqbt0","pricing_plan_id":"free"},{"bike_id":"bb155e93-116e-494a-9911-2df351c7dae8","system_id":"levelo_inurba_marseille","lat":43.296129,"lon":5.370777,"is_reserved":false,"is_disabled":false,"rental_uris":{"android":"levelo://app?vid=bb155e93-116e-494a-9911-2df351c7dae8","ios":"levelo://app?vid=bb155e93-116e-494a-9911-2df351c7dae8"},"vehicle_type_id":"4","last_reported":1692561960,"current_range_meters":29200,"station_id":"ce4bgnh2rcd13ifvqc0g","pricing_plan_id":"free"},{"bike_id":"d3139180-8ba9-4c91-b6e4-8baae3c22113","system_id":"levelo_inurba_marseille","lat":43.2961,"lon":5.37197,"is_reserved":false,"is_disabled":false,"rental_uris":{"android":"levelo://app?vid=d3139180-8ba9-4c91-b6e4-8baae3c22113","ios":"levelo://app?vid=d3139180-8ba9-4c91-b6e4-8baae3c22113"},"vehicle_type_id":"4","last_reported":1692561960,"current_range_meters":29200,"station_id":"","pricing_plan_id":"free"},{"bike_id":"bea8322e-7f29-426b-9a68-a46c46727095","system_id":"levelo_inurba_marseille","lat":43.296935,"lon":5.376544,"is_reserved":false,"is_disabled":false,"rental_uris":{"android":"levelo://app?vid=bea8322e-7f29-426b-9a68-a46c46727095","ios":"levelo://app?vid=bea8322e-7f29-426b-9a68-a46c46727095"},"vehicle_type_id":"4","last_reported":1692561960,"current_range_meters":400,"station_id":"ce4bgkh2rcd13ifvqbl0","pricing_plan_id":"free"},{"bike_id":"d045c737-6df7-441c-8cc8-58ae3fa12c9a","system_id":"levelo_inurba_marseille","lat":43.30953,"lon":5.3903,"is_reserved":false,"is_disabled":false,"rental_uris":{"android":"levelo://app?vid=d045c737-6df7-441c-8cc8-58ae3fa12c9a","ios":"levelo://app?vid=d045c737-6df7-441c-8cc8-58ae3fa12c9a"},"vehicle_type_id":"4","last_reported":1692561960,"current_range_meters":24000,"station_id":"ce4bgup2rcd13ifvqco0","pricing_plan_id":"free"},{"bike_id":"4adeb37f-c270-4e49-9aea-9eee1f715830","system_id":"levelo_inurba_marseille","lat":43.30952,"lon":5.39033,"is_reserved":false,"is_disabled":false,"rental_uris":{"android":"levelo://app?vid=4adeb37f-c270-4e49-9aea-9eee1f715830","ios":"levelo://app?vid=4adeb37f-c270-4e49-9aea-9eee1f715830"},"vehicle_type_id":"4","last_reported":1692561960,"current_range_meters":9200,"station_id":"ce4bgup2rcd13ifvqco0","pricing_plan_id":"free"},{"bike_id":"d1c0109e-534b-4fdc-9bb3-c5bec651d7a1","system_id":"levelo_inurba_marseille","lat":43.309589,"lon":5.390258,"is_reserved":false,"is_disabled":false,"rental_uris":{"android":"levelo://app?vid=d1c0109e-534b-4fdc-9bb3-c5bec651d7a1","ios":"levelo://app?vid=d1c0109e-534b-4fdc-9bb3-c5bec651d7a1"},"vehicle_type_id":"4","last_reported":1692561960,"current_range_meters":10000,"station_id":"ce4bgup2rcd13ifvqco0","pricing_plan_id":"free"},{"bike_id":"d9ac76f1-c793-4663-ad73-77f8ab05f628","system_id":"levelo_inurba_marseille","lat":43.309589,"lon":5.390258,"is_reserved":false,"is_disabled":false,"rental_uris":{"android":"levelo://app?vid=d9ac76f1-c793-4663-ad73-77f8ab05f628","ios":"levelo://app?vid=d9ac76f1-c793-4663-ad73-77f8ab05f628"},"vehicle_type_id":"4","last_reported":1692561960,"current_range_meters":8000,"station_id":"ce4bgup2rcd13ifvqco0","pricing_plan_id":"free"},{"bike_id":"8110eb95-9d8a-445e-882b-debe77426a4b","system_id":"levelo_inurba_marseille","lat":43.304339,"lon":5.388512,"is_reserved":false,"is_disabled":false,"rental_uris":{"android":"levelo://app?vid=8110eb95-9d8a-445e-882b-debe77426a4b","ios":"levelo://app?vid=8110eb95-9d8a-445e-882b-debe77426a4b"},"vehicle_type_id":"4","last_reported":1692561960,"current_range_meters":2400,"station_id":"","pricing_plan_id":"free"},{"bike_id":"0a175db1-1425-413f-967b-4428d1e6a656","system_id":"levelo_inurba_marseille","lat":43.298037,"lon":5.381066,"is_reserved":false,"is_disabled":false,"rental_uris":{"android":"levelo://app?vid=0a175db1-1425-413f-967b-4428d1e6a656","ios":"levelo://app?vid=0a175db1-1425-413f-967b-4428d1e6a656"},"vehicle_type_id":"4","last_reported":1692561960,"current_range_meters":800,"station_id":"ce4bgip2rcd13ifvqbb0","pricing_plan_id":"free"},{"bike_id":"1ae9af90-8104-4e6f-a2de-0d5885dfa202","system_id":"levelo_inurba_marseille","lat":43.29571,"lon":5.37529,"is_reserved":false,"is_disabled":false,"rental_uris":{"android":"levelo://app?vid=1ae9af90-8104-4e6f-a2de-0d5885dfa202","ios":"levelo://app?vid=1ae9af90-8104-4e6f-a2de-0d5885dfa202"},"vehicle_type_id":"4","last_reported":1692561960,"current_range_meters":15600,"station_id":"ce4bgh92rcd13ifvqb50","pricing_plan_id":"free"},{"bike_id":"a4df99ce-0488-49dd-a888-94686f562e88","system_id":"levelo_inurba_marseille","lat":43.29562,"lon":5.37519,"is_reserved":false,"is_disabled":false,"rental_uris":{"android":"levelo://app?vid=a4df99ce-0488-49dd-a888-94686f562e88","ios":"levelo://app?vid=a4df99ce-0488-49dd-a888-94686f562e88"},"vehicle_type_id":"4","last_reported":1692561960,"current_range_meters":28000,"station_id":"ce4bgh92rcd13ifvqb50","pricing_plan_id":"free"},{"bike_id":"64c7309e-fa9b-4b0b-aabc-93430945fdd9","system_id":"levelo_inurba_marseille","lat":43.296263,"lon":5.377094,"is_reserved":false,"is_disabled":false,"rental_uris":{"android":"levelo://app?vid=64c7309e-fa9b-4b0b-aabc-93430945fdd9","ios":"levelo://app?vid=64c7309e-fa9b-4b0b-aabc-93430945fdd9"},"vehicle_type_id":"4","last_reported":1692561960,"current_range_meters":24000,"station_id":"ce4bgi92rcd13ifvqb90","pricing_plan_id":"free"},{"bike_id":"cdfb5c91-6029-402e-8d26-637d768e0f57","system_id":"levelo_inurba_marseille","lat":43.299707,"lon":5.384859,"is_reserved":false,"is_disabled":false,"rental_uris":{"android":"levelo://app?vid=cdfb5c91-6029-402e-8d26-637d768e0f57","ios":"levelo://app?vid=cdfb5c91-6029-402e-8d26-637d768e0f57"},"vehicle_type_id":"4","last_reported":1692561960,"current_range_meters":2000,"station_id":"ce4bgj92rcd13ifvqbd0","pricing_plan_id":"free"},{"bike_id":"a28315b5-92a9-4813-ab10-37db38082ed9","system_id":"levelo_inurba_marseille","lat":43.290345,"lon":5.38646,"is_reserved":false,"is_disabled":false,"rental_uris":{"android":"levelo://app?vid=a28315b5-92a9-4813-ab10-37db38082ed9","ios":"levelo://app?vid=a28315b5-92a9-4813-ab10-37db38082ed9"},"vehicle_type_id":"4","last_reported":1692561960,"current_range_meters":0,"station_id":"ce4bh4p2rcd13ifvqe0g","pricing_plan_id":"free"},{"bike_id":"00883cd9-a56a-4720-bb55-237d0136a4a1","system_id":"levelo_inurba_marseille","lat":43.32362,"lon":5.38881,"is_reserved":false,"is_disabled":false,"rental_uris":{"android":"levelo://app?vid=00883cd9-a56a-4720-bb55-237d0136a4a1","ios":"levelo://app?vid=00883cd9-a56a-4720-bb55-237d0136a4a1"},"vehicle_type_id":"4","last_reported":1692561960,"current_range_meters":21600,"station_id":"ce4bhqp2rcd13ifvqhog","pricing_plan_id":"free"},{"bike_id":"d539d833-c23b-4e1d-997f-3554b5298a7a","system_id":"levelo_inurba_marseille","lat":43.29602,"lon":5.381084,"is_reserved":false,"is_disabled":false,"rental_uris":{"android":"levelo://app?vid=d539d833-c23b-4e1d-997f-3554b5298a7a","ios":"levelo://app?vid=d539d833-c23b-4e1d-997f-3554b5298a7a"},"vehicle_type_id":"4","last_reported":1692561960,"current_range_meters":24400,"station_id":"ce4bgl12rcd13ifvqbo0","pricing_plan_id":"free"},{"bike_id":"38fef587-7cc5-4800-b069-87b8f296a10a","system_id":"levelo_inurba_marseille","lat":43.293009,"lon":5.374584,"is_reserved":false,"is_disabled":false,"rental_uris":{"android":"levelo://app?vid=38fef587-7cc5-4800-b069-87b8f296a10a","ios":"levelo://app?vid=38fef587-7cc5-4800-b069-87b8f296a10a"},"vehicle_type_id":"4","last_reported":1692561960,"current_range_meters":31200,"station_id":"ce4bgi12rcd13ifvqb70","pricing_plan_id":"free"},{"bike_id":"2aabf427-61d0-46da-859b-5b1d6366dcd1","system_id":"levelo_inurba_marseille","lat":43.306108,"lon":5.393515,"is_reserved":false,"is_disabled":false,"rental_uris":{"android":"levelo://app?vid=2aabf427-61d0-46da-859b-5b1d6366dcd1","ios":"levelo://app?vid=2aabf427-61d0-46da-859b-5b1d6366dcd1"},"vehicle_type_id":"4","last_reported":1692561960,"current_range_meters":18800,"station_id":"ce4bh0p2rcd13ifvqd80","pricing_plan_id":"free"},{"bike_id":"724fa85e-66a0-4868-9447-60bb238a1a93","system_id":"levelo_inurba_marseille","lat":43.30596,"lon":5.39353,"is_reserved":false,"is_disabled":false,"rental_uris":{"android":"levelo://app?vid=724fa85e-66a0-4868-9447-60bb238a1a93","ios":"levelo://app?vid=724fa85e-66a0-4868-9447-60bb238a1a93"},"vehicle_type_id":"4","last_reported":1692561960,"current_range_meters":18400,"station_id":"ce4bh0p2rcd13ifvqd80","pricing_plan_id":"free"},{"bike_id":"20eb1a7d-c286-4f4b-8a70-1b7d6fceb74e","system_id":"levelo_inurba_marseille","lat":43.29297,"lon":5.37451,"is_reserved":false,"is_disabled":false,"rental_uris":{"android":"levelo://app?vid=20eb1a7d-c286-4f4b-8a70-1b7d6fceb74e","ios":"levelo://app?vid=20eb1a7d-c286-4f4b-8a70-1b7d6fceb74e"},"vehicle_type_id":"4","last_reported":1692561960,"current_range_meters":23600,"station_id":"ce4bgi12rcd13ifvqb70","pricing_plan_id":"free"},{"bike_id":"9984f833-60c3-4733-8cc7-94c1404299d7","system_id":"levelo_inurba_marseille","lat":43.303002,"lon":5.392142,"is_reserved":false,"is_disabled":false,"rental_uris":{"android":"levelo://app?vid=9984f833-60c3-4733-8cc7-94c1404299d7","ios":"levelo://app?vid=9984f833-60c3-4733-8cc7-94c1404299d7"},"vehicle_type_id":"4","last_reported":1692561960,"current_range_meters":22400,"station_id":"ce4bgkh2rcd13ifvqbk0","pricing_plan_id":"free"},{"bike_id":"92ef3808-fa80-4e2a-a167-8dc5d79b4468","system_id":"levelo_inurba_marseille","lat":43.293009,"lon":5.374584,"is_reserved":false,"is_disabled":false,"rental_uris":{"android":"levelo://app?vid=92ef3808-fa80-4e2a-a167-8dc5d79b4468","ios":"levelo://app?vid=92ef3808-fa80-4e2a-a167-8dc5d79b4468"},"vehicle_type_id":"4","last_reported":1692561960,"current_range_meters":11200,"station_id":"ce4bgi12rcd13ifvqb70","pricing_plan_id":"free"},{"bike_id":"0724f352-a262-45b7-9b71-9a09ff17d945","system_id":"levelo_inurba_marseille","lat":43.30308,"lon":5.39206,"is_reserved":false,"is_disabled":false,"rental_uris":{"android":"levelo://app?vid=0724f352-a262-45b7-9b71-9a09ff17d945","ios":"levelo://app?vid=0724f352-a262-45b7-9b71-9a09ff17d945"},"vehicle_type_id":"4","last_reported":1692561960,"current_range_meters":18800,"station_id":"ce4bgkh2rcd13ifvqbk0","pricing_plan_id":"free"},{"bike_id":"81e52046-af1a-4283-aef9-b81f1b5069ea","system_id":"levelo_inurba_marseille","lat":43.291675,"lon":5.371583,"is_reserved":false,"is_disabled":false,"rental_uris":{"android":"levelo://app?vid=81e52046-af1a-4283-aef9-b81f1b5069ea","ios":"levelo://app?vid=81e52046-af1a-4283-aef9-b81f1b5069ea"},"vehicle_type_id":"4","last_reported":1692561960,"current_range_meters":13200,"station_id":"ce4bha92rcd13ifvqeh0","pricing_plan_id":"free"},{"bike_id":"f1acd286-18f1-4392-b240-dc5e98855c21","system_id":"levelo_inurba_marseille","lat":43.309038,"lon":5.396546,"is_reserved":false,"is_disabled":false,"rental_uris":{"android":"levelo://app?vid=f1acd286-18f1-4392-b240-dc5e98855c21","ios":"levelo://app?vid=f1acd286-18f1-4392-b240-dc5e98855c21"},"vehicle_type_id":"4","last_reported":1692561960,"current_range_meters":17600,"station_id":"ce4bh012rcd13ifvqcv0","pricing_plan_id":"free"},{"bike_id":"c0b6f707-36d4-4fe9-bb87-ac5bd9823b35","system_id":"levelo_inurba_marseille","lat":43.30882,"lon":5.39646,"is_reserved":false,"is_disabled":false,"rental_uris":{"android":"levelo://app?vid=c0b6f707-36d4-4fe9-bb87-ac5bd9823b35","ios":"levelo://app?vid=c0b6f707-36d4-4fe9-bb87-ac5bd9823b35"},"vehicle_type_id":"4","last_reported":1692561960,"current_range_meters":10400,"station_id":"ce4bh012rcd13ifvqcv0","pricing_plan_id":"free"},{"bike_id":"1b0c5535-2228-4804-893d-ad9adbbd5404","system_id":"levelo_inurba_marseille","lat":43.29536,"lon":5.38533,"is_reserved":false,"is_disabled":false,"rental_uris":{"android":"levelo://app?vid=1b0c5535-2228-4804-893d-ad9adbbd5404","ios":"levelo://app?vid=1b0c5535-2228-4804-893d-ad9adbbd5404"},"vehicle_type_id":"4","last_reported":1692561960,"current_range_meters":0,"station_id":"ce4bgih2rcd13ifvqba0","pricing_plan_id":"free"},{"bike_id":"140af2d6-86fb-492b-8af1-2cbded0c3875","system_id":"levelo_inurba_marseille","lat":43.29529,"lon":5.385581,"is_reserved":false,"is_disabled":false,"rental_uris":{"android":"levelo://app?vid=140af2d6-86fb-492b-8af1-2cbded0c3875","ios":"levelo://app?vid=140af2d6-86fb-492b-8af1-2cbded0c3875"},"vehicle_type_id":"4","last_reported":1692561960,"current_range_meters":10400,"station_id":"ce4bgih2rcd13ifvqba0","pricing_plan_id":"free"},{"bike_id":"28c25975-bb96-44ee-bed4-aef410f1c759","system_id":"levelo_inurba_marseille","lat":43.29529,"lon":5.385581,"is_reserved":false,"is_disabled":false,"rental_uris":{"android":"levelo://app?vid=28c25975-bb96-44ee-bed4-aef410f1c759","ios":"levelo://app?vid=28c25975-bb96-44ee-bed4-aef410f1c759"},"vehicle_type_id":"4","last_reported":1692561960,"current_range_meters":2000,"station_id":"ce4bgih2rcd13ifvqba0","pricing_plan_id":"free"},{"bike_id":"885a52ac-623b-4be8-8fd8-1fca5cef81ce","system_id":"levelo_inurba_marseille","lat":43.29529,"lon":5.385581,"is_reserved":false,"is_disabled":false,"rental_uris":{"android":"levelo://app?vid=885a52ac-623b-4be8-8fd8-1fca5cef81ce","ios":"levelo://app?vid=885a52ac-623b-4be8-8fd8-1fca5cef81ce"},"vehicle_type_id":"4","last_reported":1692561960,"current_range_meters":18000,"station_id":"ce4bgih2rcd13ifvqba0","pricing_plan_id":"free"},{"bike_id":"8159bfc4-bbda-4f8e-bb51-9264dd86de74","system_id":"levelo_inurba_marseille","lat":43.29529,"lon":5.385581,"is_reserved":false,"is_disabled":false,"rental_uris":{"android":"levelo://app?vid=8159bfc4-bbda-4f8e-bb51-9264dd86de74","ios":"levelo://app?vid=8159bfc4-bbda-4f8e-bb51-9264dd86de74"},"vehicle_type_id":"4","last_reported":1692561960,"current_range_meters":26800,"station_id":"ce4bgih2rcd13ifvqba0","pricing_plan_id":"free"},{"bike_id":"8dfc3366-0d5e-42d3-bde7-ce5f3398e2a3","system_id":"levelo_inurba_marseille","lat":43.29529,"lon":5.385581,"is_reserved":false,"is_disabled":false,"rental_uris":{"android":"levelo://app?vid=8dfc3366-0d5e-42d3-bde7-ce5f3398e2a3","ios":"levelo://app?vid=8dfc3366-0d5e-42d3-bde7-ce5f3398e2a3"},"vehicle_type_id":"4","last_reported":1692561960,"current_range_meters":5600,"station_id":"ce4bgih2rcd13ifvqba0","pricing_plan_id":"free"},{"bike_id":"0d0a5b2a-4e5f-4fb4-bf0e-e2639e42dec3","system_id":"levelo_inurba_marseille","lat":43.29529,"lon":5.385581,"is_reserved":false,"is_disabled":false,"rental_uris":{"android":"levelo://app?vid=0d0a5b2a-4e5f-4fb4-bf0e-e2639e42dec3","ios":"levelo://app?vid=0d0a5b2a-4e5f-4fb4-bf0e-e2639e42dec3"},"vehicle_type_id":"4","last_reported":1692561960,"current_range_meters":1200,"station_id":"ce4bgih2rcd13ifvqba0","pricing_plan_id":"free"},{"bike_id":"71662f7d-ede4-49fa-8e21-699b0a0b4e3e","system_id":"levelo_inurba_marseille","lat":43.29529,"lon":5.385581,"is_reserved":false,"is_disabled":false,"rental_uris":{"android":"levelo://app?vid=71662f7d-ede4-49fa-8e21-699b0a0b4e3e","ios":"levelo://app?vid=71662f7d-ede4-49fa-8e21-699b0a0b4e3e"},"vehicle_type_id":"4","last_reported":1692561960,"current_range_meters":10400,"station_id":"ce4bgih2rcd13ifvqba0","pricing_plan_id":"free"},{"bike_id":"fa3f1dc3-02cf-4904-ae9b-7089f86cb557","system_id":"levelo_inurba_marseille","lat":43.29535,"lon":5.38549,"is_reserved":false,"is_disabled":false,"rental_uris":{"android":"levelo://app?vid=fa3f1dc3-02cf-4904-ae9b-7089f86cb557","ios":"levelo://app?vid=fa3f1dc3-02cf-4904-ae9b-7089f86cb557"},"vehicle_type_id":"4","last_reported":1692561960,"current_range_meters":26800,"station_id":"ce4bgih2rcd13ifvqba0","pricing_plan_id":"free"},{"bike_id":"5a242372-a93d-452c-b004-ad877bc504c2","system_id":"levelo_inurba_marseille","lat":43.29531,"lon":5.38548,"is_reserved":false,"is_disabled":false,"rental_uris":{"android":"levelo://app?vid=5a242372-a93d-452c-b004-ad877bc504c2","ios":"levelo://app?vid=5a242372-a93d-452c-b004-ad877bc504c2"},"vehicle_type_id":"4","last_reported":1692561960,"current_range_meters":5200,"station_id":"ce4bgih2rcd13ifvqba0","pricing_plan_id":"free"},{"bike_id":"90e01565-5840-4a5c-9cc9-dd2e952f96e3","system_id":"levelo_inurba_marseille","lat":43.29532,"lon":5.3855,"is_reserved":false,"is_disabled":false,"rental_uris":{"android":"levelo://app?vid=90e01565-5840-4a5c-9cc9-dd2e952f96e3","ios":"levelo://app?vid=90e01565-5840-4a5c-9cc9-dd2e952f96e3"},"vehicle_type_id":"4","last_reported":1692561960,"current_range_meters":8800,"station_id":"ce4bgih2rcd13ifvqba0","pricing_plan_id":"free"},{"bike_id":"36e52a66-ad1f-49b5-b3b3-824e245fd48e","system_id":"levelo_inurba_marseille","lat":43.29529,"lon":5.385581,"is_reserved":false,"is_disabled":false,"rental_uris":{"android":"levelo://app?vid=36e52a66-ad1f-49b5-b3b3-824e245fd48e","ios":"levelo://app?vid=36e52a66-ad1f-49b5-b3b3-824e245fd48e"},"vehicle_type_id":"4","last_reported":1692561960,"current_range_meters":400,"station_id":"ce4bgih2rcd13ifvqba0","pricing_plan_id":"free"},{"bike_id":"a06038bb-783d-4b7f-b55f-a7f9eb18a465","system_id":"levelo_inurba_marseille","lat":43.29529,"lon":5.38547,"is_reserved":false,"is_disabled":false,"rental_uris":{"android":"levelo://app?vid=a06038bb-783d-4b7f-b55f-a7f9eb18a465","ios":"levelo://app?vid=a06038bb-783d-4b7f-b55f-a7f9eb18a465"},"vehicle_type_id":"4","last_reported":1692561960,"current_range_meters":12800,"station_id":"ce4bgih2rcd13ifvqba0","pricing_plan_id":"free"},{"bike_id":"5b93f60b-4c88-4c23-a11c-c18fb67da795","system_id":"levelo_inurba_marseille","lat":43.29529,"lon":5.385581,"is_reserved":false,"is_disabled":false,"rental_uris":{"android":"levelo://app?vid=5b93f60b-4c88-4c23-a11c-c18fb67da795","ios":"levelo://app?vid=5b93f60b-4c88-4c23-a11c-c18fb67da795"},"vehicle_type_id":"4","last_reported":1692561960,"current_range_meters":8400,"station_id":"ce4bgih2rcd13ifvqba0","pricing_plan_id":"free"},{"bike_id":"8bd3c1a3-61a8-45f1-9506-38d568a0a304","system_id":"levelo_inurba_marseille","lat":43.29529,"lon":5.385581,"is_reserved":false,"is_disabled":false,"rental_uris":{"android":"levelo://app?vid=8bd3c1a3-61a8-45f1-9506-38d568a0a304","ios":"levelo://app?vid=8bd3c1a3-61a8-45f1-9506-38d568a0a304"},"vehicle_type_id":"4","last_reported":1692561960,"current_range_meters":3600,"station_id":"ce4bgih2rcd13ifvqba0","pricing_plan_id":"free"},{"bike_id":"d6263c4f-4857-4c57-8680-ec7f894cd38f","system_id":"levelo_inurba_marseille","lat":43.29519,"lon":5.38544,"is_reserved":false,"is_disabled":false,"rental_uris":{"android":"levelo://app?vid=d6263c4f-4857-4c57-8680-ec7f894cd38f","ios":"levelo://app?vid=d6263c4f-4857-4c57-8680-ec7f894cd38f"},"vehicle_type_id":"4","last_reported":1692561960,"current_range_meters":2800,"station_id":"ce4bgih2rcd13ifvqba0","pricing_plan_id":"free"},{"bike_id":"0d41ca4d-f52b-4d05-b136-c348e233e6e1","system_id":"levelo_inurba_marseille","lat":43.290779,"lon":5.371482,"is_reserved":false,"is_disabled":false,"rental_uris":{"android":"levelo://app?vid=0d41ca4d-f52b-4d05-b136-c348e233e6e1","ios":"levelo://app?vid=0d41ca4d-f52b-4d05-b136-c348e233e6e1"},"vehicle_type_id":"4","last_reported":1692561960,"current_range_meters":2400,"station_id":"ce4bh5p2rcd13ifvqe4g","pricing_plan_id":"free"},{"bike_id":"3c99606a-cfd1-4b08-a5da-392aa4b30abe","system_id":"levelo_inurba_marseille","lat":43.329,"lon":5.38776,"is_reserved":false,"is_disabled":false,"rental_uris":{"android":"levelo://app?vid=3c99606a-cfd1-4b08-a5da-392aa4b30abe","ios":"levelo://app?vid=3c99606a-cfd1-4b08-a5da-392aa4b30abe"},"vehicle_type_id":"4","last_reported":1692561960,"current_range_meters":8400,"station_id":"","pricing_plan_id":"free"},{"bike_id":"945d380a-57f1-47af-b8d5-7d4e6b5ddf25","system_id":"levelo_inurba_marseille","lat":43.290779,"lon":5.371482,"is_reserved":false,"is_disabled":false,"rental_uris":{"android":"levelo://app?vid=945d380a-57f1-47af-b8d5-7d4e6b5ddf25","ios":"levelo://app?vid=945d380a-57f1-47af-b8d5-7d4e6b5ddf25"},"vehicle_type_id":"4","last_reported":1692561960,"current_range_meters":0,"station_id":"ce4bh5p2rcd13ifvqe4g","pricing_plan_id":"free"},{"bike_id":"b81db60d-8aab-449e-bc50-975c2c01796d","system_id":"levelo_inurba_marseille","lat":43.2904,"lon":5.37563,"is_reserved":false,"is_disabled":false,"rental_uris":{"android":"levelo://app?vid=b81db60d-8aab-449e-bc50-975c2c01796d","ios":"levelo://app?vid=b81db60d-8aab-449e-bc50-975c2c01796d"},"vehicle_type_id":"4","last_reported":1692561960,"current_range_meters":0,"station_id":"ce4bh692rcd13ifvqe90","pricing_plan_id":"free"},{"bike_id":"6c823f21-9717-4d48-8604-aa8539b1e050","system_id":"levelo_inurba_marseille","lat":43.29269,"lon":5.38433,"is_reserved":false,"is_disabled":false,"rental_uris":{"android":"levelo://app?vid=6c823f21-9717-4d48-8604-aa8539b1e050","ios":"levelo://app?vid=6c823f21-9717-4d48-8604-aa8539b1e050"},"vehicle_type_id":"4","last_reported":1692561960,"current_range_meters":0,"station_id":"ce4bh692rcd13ifvqea0","pricing_plan_id":"free"},{"bike_id":"eef2954c-e5b7-4f6f-ba34-64059a553a3c","system_id":"levelo_inurba_marseille","lat":43.292642,"lon":5.384254,"is_reserved":false,"is_disabled":false,"rental_uris":{"android":"levelo://app?vid=eef2954c-e5b7-4f6f-ba34-64059a553a3c","ios":"levelo://app?vid=eef2954c-e5b7-4f6f-ba34-64059a553a3c"},"vehicle_type_id":"4","last_reported":1692561960,"current_range_meters":23600,"station_id":"ce4bh692rcd13ifvqea0","pricing_plan_id":"free"},{"bike_id":"230a3bd6-c582-4dcf-b5ee-f732c9eb3d4a","system_id":"levelo_inurba_marseille","lat":43.292642,"lon":5.384254,"is_reserved":false,"is_disabled":false,"rental_uris":{"android":"levelo://app?vid=230a3bd6-c582-4dcf-b5ee-f732c9eb3d4a","ios":"levelo://app?vid=230a3bd6-c582-4dcf-b5ee-f732c9eb3d4a"},"vehicle_type_id":"4","last_reported":1692561960,"current_range_meters":21600,"station_id":"ce4bh692rcd13ifvqea0","pricing_plan_id":"free"},{"bike_id":"06f42ee0-4b4e-4431-821d-fa731fdcb786","system_id":"levelo_inurba_marseille","lat":43.30432,"lon":5.39757,"is_reserved":false,"is_disabled":false,"rental_uris":{"android":"levelo://app?vid=06f42ee0-4b4e-4431-821d-fa731fdcb786","ios":"levelo://app?vid=06f42ee0-4b4e-4431-821d-fa731fdcb786"},"vehicle_type_id":"4","last_reported":1692561960,"current_range_meters":14800,"station_id":"ce4bh092rcd13ifvqd20","pricing_plan_id":"free"},{"bike_id":"5036c72a-6252-47f4-a9fb-50fd514d506a","system_id":"levelo_inurba_marseille","lat":43.33039,"lon":5.38919,"is_reserved":false,"is_disabled":false,"rental_uris":{"android":"levelo://app?vid=5036c72a-6252-47f4-a9fb-50fd514d506a","ios":"levelo://app?vid=5036c72a-6252-47f4-a9fb-50fd514d506a"},"vehicle_type_id":"4","last_reported":1692561960,"current_range_meters":18800,"station_id":"ce4bhr92rcd13ifvqhrg","pricing_plan_id":"free"},{"bike_id":"3b3e7c42-cded-4bde-b175-99650afa4f17","system_id":"levelo_inurba_marseille","lat":43.33043,"lon":5.38913,"is_reserved":false,"is_disabled":false,"rental_uris":{"android":"levelo://app?vid=3b3e7c42-cded-4bde-b175-99650afa4f17","ios":"levelo://app?vid=3b3e7c42-cded-4bde-b175-99650afa4f17"},"vehicle_type_id":"4","last_reported":1692561960,"current_range_meters":20400,"station_id":"ce4bhr92rcd13ifvqhrg","pricing_plan_id":"free"},{"bike_id":"b49ef1fe-d3e0-4690-8529-1330f595a727","system_id":"levelo_inurba_marseille","lat":43.33045,"lon":5.38911,"is_reserved":false,"is_disabled":false,"rental_uris":{"android":"levelo://app?vid=b49ef1fe-d3e0-4690-8529-1330f595a727","ios":"levelo://app?vid=b49ef1fe-d3e0-4690-8529-1330f595a727"},"vehicle_type_id":"4","last_reported":1692561960,"current_range_meters":9200,"station_id":"ce4bhr92rcd13ifvqhrg","pricing_plan_id":"free"},{"bike_id":"331b6e0a-8cfc-4305-9eef-0266cde03da7","system_id":"levelo_inurba_marseille","lat":43.33041,"lon":5.38919,"is_reserved":false,"is_disabled":false,"rental_uris":{"android":"levelo://app?vid=331b6e0a-8cfc-4305-9eef-0266cde03da7","ios":"levelo://app?vid=331b6e0a-8cfc-4305-9eef-0266cde03da7"},"vehicle_type_id":"4","last_reported":1692561960,"current_range_meters":11600,"station_id":"ce4bhr92rcd13ifvqhrg","pricing_plan_id":"free"},{"bike_id":"de450cac-4370-4660-9455-3e94463307a2","system_id":"levelo_inurba_marseille","lat":43.3304,"lon":5.38922,"is_reserved":false,"is_disabled":false,"rental_uris":{"android":"levelo://app?vid=de450cac-4370-4660-9455-3e94463307a2","ios":"levelo://app?vid=de450cac-4370-4660-9455-3e94463307a2"},"vehicle_type_id":"4","last_reported":1692561960,"current_range_meters":13600,"station_id":"ce4bhr92rcd13ifvqhrg","pricing_plan_id":"free"},{"bike_id":"c65152a1-dca7-4ee4-9864-308587d5ed74","system_id":"levelo_inurba_marseille","lat":43.3304,"lon":5.38922,"is_reserved":false,"is_disabled":false,"rental_uris":{"android":"levelo://app?vid=c65152a1-dca7-4ee4-9864-308587d5ed74","ios":"levelo://app?vid=c65152a1-dca7-4ee4-9864-308587d5ed74"},"vehicle_type_id":"4","last_reported":1692561960,"current_range_meters":18800,"station_id":"ce4bhr92rcd13ifvqhrg","pricing_plan_id":"free"},{"bike_id":"311cb0a1-d2bd-42c8-aa64-be9b063c2c5e","system_id":"levelo_inurba_marseille","lat":43.33043,"lon":5.38918,"is_reserved":false,"is_disabled":false,"rental_uris":{"android":"levelo://app?vid=311cb0a1-d2bd-42c8-aa64-be9b063c2c5e","ios":"levelo://app?vid=311cb0a1-d2bd-42c8-aa64-be9b063c2c5e"},"vehicle_type_id":"4","last_reported":1692561960,"current_range_meters":22000,"station_id":"ce4bhr92rcd13ifvqhrg","pricing_plan_id":"free"},{"bike_id":"a5d7998c-4c76-4390-bbcf-8c2a2abd7eba","system_id":"levelo_inurba_marseille","lat":43.3304,"lon":5.38923,"is_reserved":false,"is_disabled":false,"rental_uris":{"android":"levelo://app?vid=a5d7998c-4c76-4390-bbcf-8c2a2abd7eba","ios":"levelo://app?vid=a5d7998c-4c76-4390-bbcf-8c2a2abd7eba"},"vehicle_type_id":"4","last_reported":1692561960,"current_range_meters":27600,"station_id":"ce4bhr92rcd13ifvqhrg","pricing_plan_id":"free"},{"bike_id":"f7005a11-f4b8-40eb-a1e9-6d3833ad8114","system_id":"levelo_inurba_marseille","lat":43.33045,"lon":5.38917,"is_reserved":false,"is_disabled":false,"rental_uris":{"android":"levelo://app?vid=f7005a11-f4b8-40eb-a1e9-6d3833ad8114","ios":"levelo://app?vid=f7005a11-f4b8-40eb-a1e9-6d3833ad8114"},"vehicle_type_id":"4","last_reported":1692561960,"current_range_meters":25200,"station_id":"ce4bhr92rcd13ifvqhrg","pricing_plan_id":"free"},{"bike_id":"d2b15eb2-4474-4e56-aace-fe335ab0092e","system_id":"levelo_inurba_marseille","lat":43.33045,"lon":5.38917,"is_reserved":false,"is_disabled":false,"rental_uris":{"android":"levelo://app?vid=d2b15eb2-4474-4e56-aace-fe335ab0092e","ios":"levelo://app?vid=d2b15eb2-4474-4e56-aace-fe335ab0092e"},"vehicle_type_id":"4","last_reported":1692561960,"current_range_meters":10800,"station_id":"ce4bhr92rcd13ifvqhrg","pricing_plan_id":"free"},{"bike_id":"c8619c93-5f6a-45f4-8e07-c81fcc1e21be","system_id":"levelo_inurba_marseille","lat":43.33044,"lon":5.38919,"is_reserved":false,"is_disabled":false,"rental_uris":{"android":"levelo://app?vid=c8619c93-5f6a-45f4-8e07-c81fcc1e21be","ios":"levelo://app?vid=c8619c93-5f6a-45f4-8e07-c81fcc1e21be"},"vehicle_type_id":"4","last_reported":1692561960,"current_range_meters":23200,"station_id":"ce4bhr92rcd13ifvqhrg","pricing_plan_id":"free"},{"bike_id":"86eac789-1e56-496d-abfa-705e29d378c7","system_id":"levelo_inurba_marseille","lat":43.33043,"lon":5.38921,"is_reserved":false,"is_disabled":false,"rental_uris":{"android":"levelo://app?vid=86eac789-1e56-496d-abfa-705e29d378c7","ios":"levelo://app?vid=86eac789-1e56-496d-abfa-705e29d378c7"},"vehicle_type_id":"4","last_reported":1692561960,"current_range_meters":26000,"station_id":"ce4bhr92rcd13ifvqhrg","pricing_plan_id":"free"},{"bike_id":"9e24a65c-fe1e-45dc-88b9-dd0cad85064c","system_id":"levelo_inurba_marseille","lat":43.33046,"lon":5.38917,"is_reserved":false,"is_disabled":false,"rental_uris":{"android":"levelo://app?vid=9e24a65c-fe1e-45dc-88b9-dd0cad85064c","ios":"levelo://app?vid=9e24a65c-fe1e-45dc-88b9-dd0cad85064c"},"vehicle_type_id":"4","last_reported":1692561960,"current_range_meters":26000,"station_id":"ce4bhr92rcd13ifvqhrg","pricing_plan_id":"free"},{"bike_id":"708f7f21-b221-4c14-94b6-b5d8e3289350","system_id":"levelo_inurba_marseille","lat":43.33045,"lon":5.3892,"is_reserved":false,"is_disabled":false,"rental_uris":{"android":"levelo://app?vid=708f7f21-b221-4c14-94b6-b5d8e3289350","ios":"levelo://app?vid=708f7f21-b221-4c14-94b6-b5d8e3289350"},"vehicle_type_id":"4","last_reported":1692561960,"current_range_meters":17200,"station_id":"ce4bhr92rcd13ifvqhrg","pricing_plan_id":"free"},{"bike_id":"eb950724-6c95-4fb2-915f-35b08a8cfd23","system_id":"levelo_inurba_marseille","lat":43.33048,"lon":5.38919,"is_reserved":false,"is_disabled":false,"rental_uris":{"android":"levelo://app?vid=eb950724-6c95-4fb2-915f-35b08a8cfd23","ios":"levelo://app?vid=eb950724-6c95-4fb2-915f-35b08a8cfd23"},"vehicle_type_id":"4","last_reported":1692561960,"current_range_meters":16000,"station_id":"ce4bhr92rcd13ifvqhrg","pricing_plan_id":"free"},{"bike_id":"52662068-d06a-40c1-bfee-ce6664dc3a83","system_id":"levelo_inurba_marseille","lat":43.33048,"lon":5.3892,"is_reserved":false,"is_disabled":false,"rental_uris":{"android":"levelo://app?vid=52662068-d06a-40c1-bfee-ce6664dc3a83","ios":"levelo://app?vid=52662068-d06a-40c1-bfee-ce6664dc3a83"},"vehicle_type_id":"4","last_reported":1692561960,"current_range_meters":0,"station_id":"ce4bhr92rcd13ifvqhrg","pricing_plan_id":"free"},{"bike_id":"b32c75fe-8ee5-49cd-933a-8eedee130c32","system_id":"levelo_inurba_marseille","lat":43.29788,"lon":5.39328,"is_reserved":false,"is_disabled":false,"rental_uris":{"android":"levelo://app?vid=b32c75fe-8ee5-49cd-933a-8eedee130c32","ios":"levelo://app?vid=b32c75fe-8ee5-49cd-933a-8eedee130c32"},"vehicle_type_id":"4","last_reported":1692561960,"current_range_meters":0,"station_id":"chh1huq6cuj3fo74tm60","pricing_plan_id":"free"},{"bike_id":"04fb9bcb-264a-4f36-ba08-b105632d40f9","system_id":"levelo_inurba_marseille","lat":43.2978,"lon":5.39327,"is_reserved":false,"is_disabled":false,"rental_uris":{"android":"levelo://app?vid=04fb9bcb-264a-4f36-ba08-b105632d40f9","ios":"levelo://app?vid=04fb9bcb-264a-4f36-ba08-b105632d40f9"},"vehicle_type_id":"4","last_reported":1692561960,"current_range_meters":2800,"station_id":"chh1huq6cuj3fo74tm60","pricing_plan_id":"free"},{"bike_id":"a7efb412-b9e6-4608-bba6-50c437e0eab5","system_id":"levelo_inurba_marseille","lat":43.297815,"lon":5.393548,"is_reserved":false,"is_disabled":false,"rental_uris":{"android":"levelo://app?vid=a7efb412-b9e6-4608-bba6-50c437e0eab5","ios":"levelo://app?vid=a7efb412-b9e6-4608-bba6-50c437e0eab5"},"vehicle_type_id":"4","last_reported":1692561960,"current_range_meters":9200,"station_id":"chh1huq6cuj3fo74tm60","pricing_plan_id":"free"},{"bike_id":"8bb03e78-7ae8-4510-b872-fc9fdf05ecef","system_id":"levelo_inurba_marseille","lat":43.29791,"lon":5.3935,"is_reserved":false,"is_disabled":false,"rental_uris":{"android":"levelo://app?vid=8bb03e78-7ae8-4510-b872-fc9fdf05ecef","ios":"levelo://app?vid=8bb03e78-7ae8-4510-b872-fc9fdf05ecef"},"vehicle_type_id":"4","last_reported":1692561960,"current_range_meters":4400,"station_id":"","pricing_plan_id":"free"},{"bike_id":"1d580842-e998-4735-ad06-59102cb96cae","system_id":"levelo_inurba_marseille","lat":43.289741,"lon":5.378306,"is_reserved":false,"is_disabled":false,"rental_uris":{"android":"levelo://app?vid=1d580842-e998-4735-ad06-59102cb96cae","ios":"levelo://app?vid=1d580842-e998-4735-ad06-59102cb96cae"},"vehicle_type_id":"4","last_reported":1692561960,"current_range_meters":4400,"station_id":"ce4bh9p2rcd13ifvqed0","pricing_plan_id":"free"},{"bike_id":"e43781c6-b1f5-44cb-aa2a-26d04555a47b","system_id":"levelo_inurba_marseille","lat":43.28983,"lon":5.37839,"is_reserved":false,"is_disabled":false,"rental_uris":{"android":"levelo://app?vid=e43781c6-b1f5-44cb-aa2a-26d04555a47b","ios":"levelo://app?vid=e43781c6-b1f5-44cb-aa2a-26d04555a47b"},"vehicle_type_id":"4","last_reported":1692561960,"current_range_meters":5600,"station_id":"ce4bh9p2rcd13ifvqed0","pricing_plan_id":"free"},{"bike_id":"2acd079b-0da0-4b32-b97b-fdbb2a6e6bd2","system_id":"levelo_inurba_marseille","lat":43.289741,"lon":5.378306,"is_reserved":false,"is_disabled":false,"rental_uris":{"android":"levelo://app?vid=2acd079b-0da0-4b32-b97b-fdbb2a6e6bd2","ios":"levelo://app?vid=2acd079b-0da0-4b32-b97b-fdbb2a6e6bd2"},"vehicle_type_id":"4","last_reported":1692561960,"current_range_meters":0,"station_id":"ce4bh9p2rcd13ifvqed0","pricing_plan_id":"free"},{"bike_id":"f04bab65-266e-4fb4-8fd7-7cd2c0950a07","system_id":"levelo_inurba_marseille","lat":43.289741,"lon":5.378306,"is_reserved":false,"is_disabled":false,"rental_uris":{"android":"levelo://app?vid=f04bab65-266e-4fb4-8fd7-7cd2c0950a07","ios":"levelo://app?vid=f04bab65-266e-4fb4-8fd7-7cd2c0950a07"},"vehicle_type_id":"4","last_reported":1692561960,"current_range_meters":1200,"station_id":"ce4bh9p2rcd13ifvqed0","pricing_plan_id":"free"},{"bike_id":"fb65d9a6-4fd5-42b8-ab03-2f4fb717cb8d","system_id":"levelo_inurba_marseille","lat":43.289741,"lon":5.378306,"is_reserved":false,"is_disabled":false,"rental_uris":{"android":"levelo://app?vid=fb65d9a6-4fd5-42b8-ab03-2f4fb717cb8d","ios":"levelo://app?vid=fb65d9a6-4fd5-42b8-ab03-2f4fb717cb8d"},"vehicle_type_id":"4","last_reported":1692561960,"current_range_meters":0,"station_id":"ce4bh9p2rcd13ifvqed0","pricing_plan_id":"free"},{"bike_id":"ebf98637-ee53-4c85-9789-b24b0910dcde","system_id":"levelo_inurba_marseille","lat":43.295169,"lon":5.390426,"is_reserved":false,"is_disabled":false,"rental_uris":{"android":"levelo://app?vid=ebf98637-ee53-4c85-9789-b24b0910dcde","ios":"levelo://app?vid=ebf98637-ee53-4c85-9789-b24b0910dcde"},"vehicle_type_id":"4","last_reported":1692561960,"current_range_meters":12400,"station_id":"ce4bh3p2rcd13ifvqdp0","pricing_plan_id":"free"},{"bike_id":"15ffda53-1fd8-4097-a5eb-d1e9ce53adc5","system_id":"levelo_inurba_marseille","lat":43.309371,"lon":5.401449,"is_reserved":false,"is_disabled":false,"rental_uris":{"android":"levelo://app?vid=15ffda53-1fd8-4097-a5eb-d1e9ce53adc5","ios":"levelo://app?vid=15ffda53-1fd8-4097-a5eb-d1e9ce53adc5"},"vehicle_type_id":"4","last_reported":1692561960,"current_range_meters":12000,"station_id":"ce4bgvp2rcd13ifvqct0","pricing_plan_id":"free"},{"bike_id":"fc9a0d8f-a4ff-4882-97ff-6f99ef5c342b","system_id":"levelo_inurba_marseille","lat":43.309371,"lon":5.401449,"is_reserved":false,"is_disabled":false,"rental_uris":{"android":"levelo://app?vid=fc9a0d8f-a4ff-4882-97ff-6f99ef5c342b","ios":"levelo://app?vid=fc9a0d8f-a4ff-4882-97ff-6f99ef5c342b"},"vehicle_type_id":"4","last_reported":1692561960,"current_range_meters":0,"station_id":"ce4bgvp2rcd13ifvqct0","pricing_plan_id":"free"},{"bike_id":"753651cb-1607-4ffc-97f4-df65170cc673","system_id":"levelo_inurba_marseille","lat":43.312609,"lon":5.401662,"is_reserved":false,"is_disabled":false,"rental_uris":{"android":"levelo://app?vid=753651cb-1607-4ffc-97f4-df65170cc673","ios":"levelo://app?vid=753651cb-1607-4ffc-97f4-df65170cc673"},"vehicle_type_id":"4","last_reported":1692561960,"current_range_meters":15600,"station_id":"ce4bh092rcd13ifvqd30","pricing_plan_id":"free"},{"bike_id":"2241bce1-ebf9-4d91-b7e5-fe08a6544f42","system_id":"levelo_inurba_marseille","lat":43.33749,"lon":5.37499,"is_reserved":false,"is_disabled":false,"rental_uris":{"android":"levelo://app?vid=2241bce1-ebf9-4d91-b7e5-fe08a6544f42","ios":"levelo://app?vid=2241bce1-ebf9-4d91-b7e5-fe08a6544f42"},"vehicle_type_id":"4","last_reported":1692561960,"current_range_meters":19200,"station_id":"","pricing_plan_id":"free"},{"bike_id":"6b6cba89-d2b8-44bb-8454-5df08cf65f67","system_id":"levelo_inurba_marseille","lat":43.33768,"lon":5.37425,"is_reserved":false,"is_disabled":false,"rental_uris":{"android":"levelo://app?vid=6b6cba89-d2b8-44bb-8454-5df08cf65f67","ios":"levelo://app?vid=6b6cba89-d2b8-44bb-8454-5df08cf65f67"},"vehicle_type_id":"4","last_reported":1692561960,"current_range_meters":4000,"station_id":"","pricing_plan_id":"free"},{"bike_id":"9ba0b1d1-ab4a-447a-880b-e9d822413ccd","system_id":"levelo_inurba_marseille","lat":43.286961,"lon":5.373785,"is_reserved":false,"is_disabled":false,"rental_uris":{"android":"levelo://app?vid=9ba0b1d1-ab4a-447a-880b-e9d822413ccd","ios":"levelo://app?vid=9ba0b1d1-ab4a-447a-880b-e9d822413ccd"},"vehicle_type_id":"4","last_reported":1692561960,"current_range_meters":17200,"station_id":"ce4bh3p2rcd13ifvqdq0","pricing_plan_id":"free"},{"bike_id":"1e34eae2-0e84-4041-bdd7-f13556915f3b","system_id":"levelo_inurba_marseille","lat":43.295196,"lon":5.39397,"is_reserved":false,"is_disabled":false,"rental_uris":{"android":"levelo://app?vid=1e34eae2-0e84-4041-bdd7-f13556915f3b","ios":"levelo://app?vid=1e34eae2-0e84-4041-bdd7-f13556915f3b"},"vehicle_type_id":"4","last_reported":1692561960,"current_range_meters":11200,"station_id":"ce4bh292rcd13ifvqdf0","pricing_plan_id":"free"},{"bike_id":"25655e69-9fdf-4c00-a33e-6c48a7e3f9c7","system_id":"levelo_inurba_marseille","lat":43.286961,"lon":5.373785,"is_reserved":false,"is_disabled":false,"rental_uris":{"android":"levelo://app?vid=25655e69-9fdf-4c00-a33e-6c48a7e3f9c7","ios":"levelo://app?vid=25655e69-9fdf-4c00-a33e-6c48a7e3f9c7"},"vehicle_type_id":"4","last_reported":1692561960,"current_range_meters":18400,"station_id":"ce4bh3p2rcd13ifvqdq0","pricing_plan_id":"free"},{"bike_id":"534570de-35fa-4801-bc89-c93475ae3da8","system_id":"levelo_inurba_marseille","lat":43.295196,"lon":5.39397,"is_reserved":false,"is_disabled":false,"rental_uris":{"android":"levelo://app?vid=534570de-35fa-4801-bc89-c93475ae3da8","ios":"levelo://app?vid=534570de-35fa-4801-bc89-c93475ae3da8"},"vehicle_type_id":"4","last_reported":1692561960,"current_range_meters":7600,"station_id":"ce4bh292rcd13ifvqdf0","pricing_plan_id":"free"},{"bike_id":"75199276-b705-4ad7-b6a9-49aeaa84628a","system_id":"levelo_inurba_marseille","lat":43.286591,"lon":5.363346,"is_reserved":false,"is_disabled":false,"rental_uris":{"android":"levelo://app?vid=75199276-b705-4ad7-b6a9-49aeaa84628a","ios":"levelo://app?vid=75199276-b705-4ad7-b6a9-49aeaa84628a"},"vehicle_type_id":"4","last_reported":1692561960,"current_range_meters":31200,"station_id":"ce4bhah2rcd13ifvqej0","pricing_plan_id":"free"},{"bike_id":"6577addd-233e-4194-8d0f-3745a4927eee","system_id":"levelo_inurba_marseille","lat":43.286961,"lon":5.373785,"is_reserved":false,"is_disabled":false,"rental_uris":{"android":"levelo://app?vid=6577addd-233e-4194-8d0f-3745a4927eee","ios":"levelo://app?vid=6577addd-233e-4194-8d0f-3745a4927eee"},"vehicle_type_id":"4","last_reported":1692561960,"current_range_meters":18400,"station_id":"ce4bh3p2rcd13ifvqdq0","pricing_plan_id":"free"},{"bike_id":"9102ea2d-949a-4032-acd8-89a6ce1b3be4","system_id":"levelo_inurba_marseille","lat":43.286961,"lon":5.373785,"is_reserved":false,"is_disabled":false,"rental_uris":{"android":"levelo://app?vid=9102ea2d-949a-4032-acd8-89a6ce1b3be4","ios":"levelo://app?vid=9102ea2d-949a-4032-acd8-89a6ce1b3be4"},"vehicle_type_id":"4","last_reported":1692561960,"current_range_meters":7200,"station_id":"ce4bh3p2rcd13ifvqdq0","pricing_plan_id":"free"},{"bike_id":"bc044f21-630f-4a73-b2fe-1896b6c65047","system_id":"levelo_inurba_marseille","lat":43.29056,"lon":5.38618,"is_reserved":false,"is_disabled":false,"rental_uris":{"android":"levelo://app?vid=bc044f21-630f-4a73-b2fe-1896b6c65047","ios":"levelo://app?vid=bc044f21-630f-4a73-b2fe-1896b6c65047"},"vehicle_type_id":"4","last_reported":1692561960,"current_range_meters":18800,"station_id":"ce4bh4p2rcd13ifvqe0g","pricing_plan_id":"free"},{"bike_id":"d09fe075-13c2-44b8-a2d7-d164fa7af7ae","system_id":"levelo_inurba_marseille","lat":43.295196,"lon":5.39397,"is_reserved":false,"is_disabled":false,"rental_uris":{"android":"levelo://app?vid=d09fe075-13c2-44b8-a2d7-d164fa7af7ae","ios":"levelo://app?vid=d09fe075-13c2-44b8-a2d7-d164fa7af7ae"},"vehicle_type_id":"4","last_reported":1692561960,"current_range_meters":13600,"station_id":"ce4bh292rcd13ifvqdf0","pricing_plan_id":"free"},{"bike_id":"5df9578e-a78f-4715-97b7-8529214949c7","system_id":"levelo_inurba_marseille","lat":43.295194,"lon":5.39397,"is_reserved":false,"is_disabled":false,"rental_uris":{"android":"levelo://app?vid=5df9578e-a78f-4715-97b7-8529214949c7","ios":"levelo://app?vid=5df9578e-a78f-4715-97b7-8529214949c7"},"vehicle_type_id":"4","last_reported":1692561960,"current_range_meters":6800,"station_id":"ce4bh292rcd13ifvqdf0","pricing_plan_id":"free"},{"bike_id":"d66798ab-2d70-4b6a-95c1-74288688c95f","system_id":"levelo_inurba_marseille","lat":43.295196,"lon":5.39397,"is_reserved":false,"is_disabled":false,"rental_uris":{"android":"levelo://app?vid=d66798ab-2d70-4b6a-95c1-74288688c95f","ios":"levelo://app?vid=d66798ab-2d70-4b6a-95c1-74288688c95f"},"vehicle_type_id":"4","last_reported":1692561960,"current_range_meters":0,"station_id":"ce4bh292rcd13ifvqdf0","pricing_plan_id":"free"},{"bike_id":"6e247f95-ff36-4830-939d-52891d1b43d4","system_id":"levelo_inurba_marseille","lat":43.290336,"lon":5.386425,"is_reserved":false,"is_disabled":false,"rental_uris":{"android":"levelo://app?vid=6e247f95-ff36-4830-939d-52891d1b43d4","ios":"levelo://app?vid=6e247f95-ff36-4830-939d-52891d1b43d4"},"vehicle_type_id":"4","last_reported":1692561960,"current_range_meters":5200,"station_id":"ce4bh4p2rcd13ifvqe0g","pricing_plan_id":"free"},{"bike_id":"fd59e134-3d22-4584-b1d2-ae08a1be0f3c","system_id":"levelo_inurba_marseille","lat":43.290336,"lon":5.386425,"is_reserved":false,"is_disabled":false,"rental_uris":{"android":"levelo://app?vid=fd59e134-3d22-4584-b1d2-ae08a1be0f3c","ios":"levelo://app?vid=fd59e134-3d22-4584-b1d2-ae08a1be0f3c"},"vehicle_type_id":"4","last_reported":1692561960,"current_range_meters":12400,"station_id":"ce4bh4p2rcd13ifvqe0g","pricing_plan_id":"free"},{"bike_id":"4213421f-31f7-49eb-98e0-58f54eafd4a9","system_id":"levelo_inurba_marseille","lat":43.2903,"lon":5.38651,"is_reserved":false,"is_disabled":false,"rental_uris":{"android":"levelo://app?vid=4213421f-31f7-49eb-98e0-58f54eafd4a9","ios":"levelo://app?vid=4213421f-31f7-49eb-98e0-58f54eafd4a9"},"vehicle_type_id":"4","last_reported":1692561960,"current_range_meters":5200,"station_id":"ce4bh4p2rcd13ifvqe0g","pricing_plan_id":"free"},{"bike_id":"cd12af34-545e-4336-9199-d60028070528","system_id":"levelo_inurba_marseille","lat":43.31645,"lon":5.40432,"is_reserved":false,"is_disabled":false,"rental_uris":{"android":"levelo://app?vid=cd12af34-545e-4336-9199-d60028070528","ios":"levelo://app?vid=cd12af34-545e-4336-9199-d60028070528"},"vehicle_type_id":"4","last_reported":1692561960,"current_range_meters":0,"station_id":"ce4bh012rcd13ifvqd00","pricing_plan_id":"free"},{"bike_id":"7da9e437-1e79-4b5f-9ab0-65254ac17dd7","system_id":"levelo_inurba_marseille","lat":43.31649,"lon":5.40442,"is_reserved":false,"is_disabled":false,"rental_uris":{"android":"levelo://app?vid=7da9e437-1e79-4b5f-9ab0-65254ac17dd7","ios":"levelo://app?vid=7da9e437-1e79-4b5f-9ab0-65254ac17dd7"},"vehicle_type_id":"4","last_reported":1692561960,"current_range_meters":20400,"station_id":"ce4bh012rcd13ifvqd00","pricing_plan_id":"free"},{"bike_id":"8079c9f4-61b0-48a7-bfae-fbf36abe289a","system_id":"levelo_inurba_marseille","lat":43.291994,"lon":5.392907,"is_reserved":false,"is_disabled":false,"rental_uris":{"android":"levelo://app?vid=8079c9f4-61b0-48a7-bfae-fbf36abe289a","ios":"levelo://app?vid=8079c9f4-61b0-48a7-bfae-fbf36abe289a"},"vehicle_type_id":"4","last_reported":1692561960,"current_range_meters":24000,"station_id":"ce4bh192rcd13ifvqdd0","pricing_plan_id":"free"},{"bike_id":"93c3de86-5747-4766-8dab-bba6521e1c6c","system_id":"levelo_inurba_marseille","lat":43.29192,"lon":5.3931,"is_reserved":false,"is_disabled":false,"rental_uris":{"android":"levelo://app?vid=93c3de86-5747-4766-8dab-bba6521e1c6c","ios":"levelo://app?vid=93c3de86-5747-4766-8dab-bba6521e1c6c"},"vehicle_type_id":"4","last_reported":1692561960,"current_range_meters":0,"station_id":"ce4bh192rcd13ifvqdd0","pricing_plan_id":"free"},{"bike_id":"4dbf0e68-b3e3-459b-ab22-3c160608ea64","system_id":"levelo_inurba_marseille","lat":43.29443,"lon":5.39745,"is_reserved":false,"is_disabled":false,"rental_uris":{"android":"levelo://app?vid=4dbf0e68-b3e3-459b-ab22-3c160608ea64","ios":"levelo://app?vid=4dbf0e68-b3e3-459b-ab22-3c160608ea64"},"vehicle_type_id":"4","last_reported":1692561960,"current_range_meters":0,"station_id":"ce4bh3h2rcd13ifvqdo0","pricing_plan_id":"free"},{"bike_id":"35eec3a1-aa54-4990-8eb4-78e6c0dd24d0","system_id":"levelo_inurba_marseille","lat":43.285856,"lon":5.350771,"is_reserved":false,"is_disabled":false,"rental_uris":{"android":"levelo://app?vid=35eec3a1-aa54-4990-8eb4-78e6c0dd24d0","ios":"levelo://app?vid=35eec3a1-aa54-4990-8eb4-78e6c0dd24d0"},"vehicle_type_id":"4","last_reported":1692561960,"current_range_meters":28000,"station_id":"ce4bhch2rcd13ifvqeug","pricing_plan_id":"free"},{"bike_id":"2363d3b5-6c15-401a-a59c-ee80bd4af927","system_id":"levelo_inurba_marseille","lat":43.28415,"lon":5.37522,"is_reserved":false,"is_disabled":false,"rental_uris":{"android":"levelo://app?vid=2363d3b5-6c15-401a-a59c-ee80bd4af927","ios":"levelo://app?vid=2363d3b5-6c15-401a-a59c-ee80bd4af927"},"vehicle_type_id":"4","last_reported":1692561960,"current_range_meters":16000,"station_id":"ce4bh412rcd13ifvqds0","pricing_plan_id":"free"},{"bike_id":"38fbedf1-d978-4a4a-808b-b2ebef072534","system_id":"levelo_inurba_marseille","lat":43.284043,"lon":5.375006,"is_reserved":false,"is_disabled":false,"rental_uris":{"android":"levelo://app?vid=38fbedf1-d978-4a4a-808b-b2ebef072534","ios":"levelo://app?vid=38fbedf1-d978-4a4a-808b-b2ebef072534"},"vehicle_type_id":"4","last_reported":1692561960,"current_range_meters":9200,"station_id":"ce4bh412rcd13ifvqds0","pricing_plan_id":"free"},{"bike_id":"68630f2d-3a26-42be-9e3a-b9a293eeb699","system_id":"levelo_inurba_marseille","lat":43.295713,"lon":5.399639,"is_reserved":false,"is_disabled":false,"rental_uris":{"android":"levelo://app?vid=68630f2d-3a26-42be-9e3a-b9a293eeb699","ios":"levelo://app?vid=68630f2d-3a26-42be-9e3a-b9a293eeb699"},"vehicle_type_id":"4","last_reported":1692561960,"current_range_meters":6800,"station_id":"ce4bh312rcd13ifvqdj0","pricing_plan_id":"free"},{"bike_id":"79ae07f7-3d9b-456b-927e-8e880eafedba","system_id":"levelo_inurba_marseille","lat":43.32527,"lon":5.40448,"is_reserved":false,"is_disabled":false,"rental_uris":{"android":"levelo://app?vid=79ae07f7-3d9b-456b-927e-8e880eafedba","ios":"levelo://app?vid=79ae07f7-3d9b-456b-927e-8e880eafedba"},"vehicle_type_id":"4","last_reported":1692561960,"current_range_meters":2400,"station_id":"","pricing_plan_id":"free"},{"bike_id":"68a02ed6-087f-4689-a149-9ad95258f697","system_id":"levelo_inurba_marseille","lat":43.319179,"lon":5.407725,"is_reserved":false,"is_disabled":false,"rental_uris":{"android":"levelo://app?vid=68a02ed6-087f-4689-a149-9ad95258f697","ios":"levelo://app?vid=68a02ed6-087f-4689-a149-9ad95258f697"},"vehicle_type_id":"4","last_reported":1692561960,"current_range_meters":25200,"station_id":"ce4bhq12rcd13ifvqhig","pricing_plan_id":"free"},{"bike_id":"2b3f06e0-8f2d-4133-9563-f19f57fe46e5","system_id":"levelo_inurba_marseille","lat":43.337168,"lon":5.391825,"is_reserved":false,"is_disabled":false,"rental_uris":{"android":"levelo://app?vid=2b3f06e0-8f2d-4133-9563-f19f57fe46e5","ios":"levelo://app?vid=2b3f06e0-8f2d-4133-9563-f19f57fe46e5"},"vehicle_type_id":"4","last_reported":1692561960,"current_range_meters":5200,"station_id":"ce4bhr92rcd13ifvqhsg","pricing_plan_id":"free"},{"bike_id":"efe8b264-ad35-4139-b98d-40041f267f16","system_id":"levelo_inurba_marseille","lat":43.337168,"lon":5.391825,"is_reserved":false,"is_disabled":false,"rental_uris":{"android":"levelo://app?vid=efe8b264-ad35-4139-b98d-40041f267f16","ios":"levelo://app?vid=efe8b264-ad35-4139-b98d-40041f267f16"},"vehicle_type_id":"4","last_reported":1692561960,"current_range_meters":22000,"station_id":"ce4bhr92rcd13ifvqhsg","pricing_plan_id":"free"},{"bike_id":"17105054-6fd8-493b-b0be-1ed88688055c","system_id":"levelo_inurba_marseille","lat":43.3372,"lon":5.39179,"is_reserved":false,"is_disabled":false,"rental_uris":{"android":"levelo://app?vid=17105054-6fd8-493b-b0be-1ed88688055c","ios":"levelo://app?vid=17105054-6fd8-493b-b0be-1ed88688055c"},"vehicle_type_id":"4","last_reported":1692561960,"current_range_meters":24800,"station_id":"ce4bhr92rcd13ifvqhsg","pricing_plan_id":"free"},{"bike_id":"57ce3eb8-ba2b-4d74-a22f-ba5a662e4d0b","system_id":"levelo_inurba_marseille","lat":43.33724,"lon":5.39178,"is_reserved":false,"is_disabled":false,"rental_uris":{"android":"levelo://app?vid=57ce3eb8-ba2b-4d74-a22f-ba5a662e4d0b","ios":"levelo://app?vid=57ce3eb8-ba2b-4d74-a22f-ba5a662e4d0b"},"vehicle_type_id":"4","last_reported":1692561960,"current_range_meters":0,"station_id":"ce4bhr92rcd13ifvqhsg","pricing_plan_id":"free"},{"bike_id":"8bd09c71-02ae-4371-8b55-ce1e7e2bf2df","system_id":"levelo_inurba_marseille","lat":43.33725,"lon":5.39177,"is_reserved":false,"is_disabled":false,"rental_uris":{"android":"levelo://app?vid=8bd09c71-02ae-4371-8b55-ce1e7e2bf2df","ios":"levelo://app?vid=8bd09c71-02ae-4371-8b55-ce1e7e2bf2df"},"vehicle_type_id":"4","last_reported":1692561960,"current_range_meters":24800,"station_id":"ce4bhr92rcd13ifvqhsg","pricing_plan_id":"free"},{"bike_id":"b54a4f92-6441-40a1-8adc-dec9f7e8317c","system_id":"levelo_inurba_marseille","lat":43.33724,"lon":5.39179,"is_reserved":false,"is_disabled":false,"rental_uris":{"android":"levelo://app?vid=b54a4f92-6441-40a1-8adc-dec9f7e8317c","ios":"levelo://app?vid=b54a4f92-6441-40a1-8adc-dec9f7e8317c"},"vehicle_type_id":"4","last_reported":1692561960,"current_range_meters":27200,"station_id":"ce4bhr92rcd13ifvqhsg","pricing_plan_id":"free"},{"bike_id":"86e149ed-df4f-4518-98e0-4808e3626a70","system_id":"levelo_inurba_marseille","lat":43.33724,"lon":5.39183,"is_reserved":false,"is_disabled":false,"rental_uris":{"android":"levelo://app?vid=86e149ed-df4f-4518-98e0-4808e3626a70","ios":"levelo://app?vid=86e149ed-df4f-4518-98e0-4808e3626a70"},"vehicle_type_id":"4","last_reported":1692561960,"current_range_meters":0,"station_id":"ce4bhr92rcd13ifvqhsg","pricing_plan_id":"free"},{"bike_id":"0dda2562-498f-4f90-abfb-f3c666db2d2e","system_id":"levelo_inurba_marseille","lat":43.33722,"lon":5.39187,"is_reserved":false,"is_disabled":false,"rental_uris":{"android":"levelo://app?vid=0dda2562-498f-4f90-abfb-f3c666db2d2e","ios":"levelo://app?vid=0dda2562-498f-4f90-abfb-f3c666db2d2e"},"vehicle_type_id":"4","last_reported":1692561960,"current_range_meters":18400,"station_id":"ce4bhr92rcd13ifvqhsg","pricing_plan_id":"free"},{"bike_id":"5b1fb66f-b33e-4a00-8edf-9261c9b5976c","system_id":"levelo_inurba_marseille","lat":43.33722,"lon":5.3919,"is_reserved":false,"is_disabled":false,"rental_uris":{"android":"levelo://app?vid=5b1fb66f-b33e-4a00-8edf-9261c9b5976c","ios":"levelo://app?vid=5b1fb66f-b33e-4a00-8edf-9261c9b5976c"},"vehicle_type_id":"4","last_reported":1692561960,"current_range_meters":2400,"station_id":"ce4bhr92rcd13ifvqhsg","pricing_plan_id":"free"},{"bike_id":"186ddf38-a5ca-44a9-9dd3-9bfe2a53544b","system_id":"levelo_inurba_marseille","lat":43.33728,"lon":5.39179,"is_reserved":false,"is_disabled":false,"rental_uris":{"android":"levelo://app?vid=186ddf38-a5ca-44a9-9dd3-9bfe2a53544b","ios":"levelo://app?vid=186ddf38-a5ca-44a9-9dd3-9bfe2a53544b"},"vehicle_type_id":"4","last_reported":1692561960,"current_range_meters":23600,"station_id":"ce4bhr92rcd13ifvqhsg","pricing_plan_id":"free"},{"bike_id":"12c0f407-4ac2-49d3-b1e8-783bd26a8644","system_id":"levelo_inurba_marseille","lat":43.33725,"lon":5.39185,"is_reserved":false,"is_disabled":false,"rental_uris":{"android":"levelo://app?vid=12c0f407-4ac2-49d3-b1e8-783bd26a8644","ios":"levelo://app?vid=12c0f407-4ac2-49d3-b1e8-783bd26a8644"},"vehicle_type_id":"4","last_reported":1692561960,"current_range_meters":24000,"station_id":"ce4bhr92rcd13ifvqhsg","pricing_plan_id":"free"},{"bike_id":"e45012d8-673a-4bd6-93d3-a427f767a00d","system_id":"levelo_inurba_marseille","lat":43.33729,"lon":5.39178,"is_reserved":false,"is_disabled":false,"rental_uris":{"android":"levelo://app?vid=e45012d8-673a-4bd6-93d3-a427f767a00d","ios":"levelo://app?vid=e45012d8-673a-4bd6-93d3-a427f767a00d"},"vehicle_type_id":"4","last_reported":1692561960,"current_range_meters":22400,"station_id":"ce4bhr92rcd13ifvqhsg","pricing_plan_id":"free"},{"bike_id":"01f563c5-7ac0-4d44-b1b3-0549f3b949f3","system_id":"levelo_inurba_marseille","lat":43.33729,"lon":5.39179,"is_reserved":false,"is_disabled":false,"rental_uris":{"android":"levelo://app?vid=01f563c5-7ac0-4d44-b1b3-0549f3b949f3","ios":"levelo://app?vid=01f563c5-7ac0-4d44-b1b3-0549f3b949f3"},"vehicle_type_id":"4","last_reported":1692561960,"current_range_meters":24800,"station_id":"ce4bhr92rcd13ifvqhsg","pricing_plan_id":"free"},{"bike_id":"7d2969ab-a065-4a23-b19e-667095d799c9","system_id":"levelo_inurba_marseille","lat":43.33725,"lon":5.39187,"is_reserved":false,"is_disabled":false,"rental_uris":{"android":"levelo://app?vid=7d2969ab-a065-4a23-b19e-667095d799c9","ios":"levelo://app?vid=7d2969ab-a065-4a23-b19e-667095d799c9"},"vehicle_type_id":"4","last_reported":1692561960,"current_range_meters":5200,"station_id":"ce4bhr92rcd13ifvqhsg","pricing_plan_id":"free"},{"bike_id":"72fc020d-a1d4-460a-a3d1-6187a1ea65d2","system_id":"levelo_inurba_marseille","lat":43.33731,"lon":5.39176,"is_reserved":false,"is_disabled":false,"rental_uris":{"android":"levelo://app?vid=72fc020d-a1d4-460a-a3d1-6187a1ea65d2","ios":"levelo://app?vid=72fc020d-a1d4-460a-a3d1-6187a1ea65d2"},"vehicle_type_id":"4","last_reported":1692561960,"current_range_meters":21600,"station_id":"ce4bhr92rcd13ifvqhsg","pricing_plan_id":"free"},{"bike_id":"02f29c2d-847e-4148-9200-bdb4c19acc46","system_id":"levelo_inurba_marseille","lat":43.33727,"lon":5.39184,"is_reserved":false,"is_disabled":false,"rental_uris":{"android":"levelo://app?vid=02f29c2d-847e-4148-9200-bdb4c19acc46","ios":"levelo://app?vid=02f29c2d-847e-4148-9200-bdb4c19acc46"},"vehicle_type_id":"4","last_reported":1692561960,"current_range_meters":24400,"station_id":"ce4bhr92rcd13ifvqhsg","pricing_plan_id":"free"},{"bike_id":"c24cecf2-0503-470c-b3d3-fc37f377f710","system_id":"levelo_inurba_marseille","lat":43.33729,"lon":5.39181,"is_reserved":false,"is_disabled":false,"rental_uris":{"android":"levelo://app?vid=c24cecf2-0503-470c-b3d3-fc37f377f710","ios":"levelo://app?vid=c24cecf2-0503-470c-b3d3-fc37f377f710"},"vehicle_type_id":"4","last_reported":1692561960,"current_range_meters":24000,"station_id":"ce4bhr92rcd13ifvqhsg","pricing_plan_id":"free"},{"bike_id":"d1b82769-4cb3-4727-99f9-635e4dc48781","system_id":"levelo_inurba_marseille","lat":43.28487,"lon":5.38416,"is_reserved":false,"is_disabled":false,"rental_uris":{"android":"levelo://app?vid=d1b82769-4cb3-4727-99f9-635e4dc48781","ios":"levelo://app?vid=d1b82769-4cb3-4727-99f9-635e4dc48781"},"vehicle_type_id":"4","last_reported":1692561960,"current_range_meters":17600,"station_id":"ce4bh512rcd13ifvqe3g","pricing_plan_id":"free"},{"bike_id":"58b53bd8-9eae-4776-b743-13777a7f10af","system_id":"levelo_inurba_marseille","lat":43.284787,"lon":5.384116,"is_reserved":false,"is_disabled":false,"rental_uris":{"android":"levelo://app?vid=58b53bd8-9eae-4776-b743-13777a7f10af","ios":"levelo://app?vid=58b53bd8-9eae-4776-b743-13777a7f10af"},"vehicle_type_id":"4","last_reported":1692561960,"current_range_meters":19600,"station_id":"ce4bh512rcd13ifvqe3g","pricing_plan_id":"free"},{"bike_id":"4c0da988-ba3f-4374-b6cb-dece3f8f3e00","system_id":"levelo_inurba_marseille","lat":43.284793,"lon":5.384119,"is_reserved":false,"is_disabled":false,"rental_uris":{"android":"levelo://app?vid=4c0da988-ba3f-4374-b6cb-dece3f8f3e00","ios":"levelo://app?vid=4c0da988-ba3f-4374-b6cb-dece3f8f3e00"},"vehicle_type_id":"4","last_reported":1692561960,"current_range_meters":18800,"station_id":"ce4bh512rcd13ifvqe3g","pricing_plan_id":"free"},{"bike_id":"00db8617-60ce-4547-b038-480b9337e811","system_id":"levelo_inurba_marseille","lat":43.29793,"lon":5.40409,"is_reserved":false,"is_disabled":false,"rental_uris":{"android":"levelo://app?vid=00db8617-60ce-4547-b038-480b9337e811","ios":"levelo://app?vid=00db8617-60ce-4547-b038-480b9337e811"},"vehicle_type_id":"4","last_reported":1692561960,"current_range_meters":7200,"station_id":"ce4bh112rcd13ifvqd90","pricing_plan_id":"free"},{"bike_id":"e2bba06b-c4f9-4452-a06f-473515c268cf","system_id":"levelo_inurba_marseille","lat":43.283494,"lon":5.380945,"is_reserved":false,"is_disabled":false,"rental_uris":{"android":"levelo://app?vid=e2bba06b-c4f9-4452-a06f-473515c268cf","ios":"levelo://app?vid=e2bba06b-c4f9-4452-a06f-473515c268cf"},"vehicle_type_id":"4","last_reported":1692561960,"current_range_meters":26400,"station_id":"ce4bh412rcd13ifvqdr0","pricing_plan_id":"free"},{"bike_id":"3889308c-3f23-454f-8670-8f56480d9d53","system_id":"levelo_inurba_marseille","lat":43.283498,"lon":5.380948,"is_reserved":false,"is_disabled":false,"rental_uris":{"android":"levelo://app?vid=3889308c-3f23-454f-8670-8f56480d9d53","ios":"levelo://app?vid=3889308c-3f23-454f-8670-8f56480d9d53"},"vehicle_type_id":"4","last_reported":1692561960,"current_range_meters":21600,"station_id":"ce4bh412rcd13ifvqdr0","pricing_plan_id":"free"},{"bike_id":"f50aca5f-cf5b-4020-925f-826a2e34874f","system_id":"levelo_inurba_marseille","lat":43.289363,"lon":5.396322,"is_reserved":false,"is_disabled":false,"rental_uris":{"android":"levelo://app?vid=f50aca5f-cf5b-4020-925f-826a2e34874f","ios":"levelo://app?vid=f50aca5f-cf5b-4020-925f-826a2e34874f"},"vehicle_type_id":"4","last_reported":1692561960,"current_range_meters":29600,"station_id":"ce4bh3h2rcd13ifvqdn0","pricing_plan_id":"free"},{"bike_id":"ec9e15e1-a9c4-45d5-b907-eea5a2d272e6","system_id":"levelo_inurba_marseille","lat":43.292724,"lon":5.401131,"is_reserved":false,"is_disabled":false,"rental_uris":{"android":"levelo://app?vid=ec9e15e1-a9c4-45d5-b907-eea5a2d272e6","ios":"levelo://app?vid=ec9e15e1-a9c4-45d5-b907-eea5a2d272e6"},"vehicle_type_id":"4","last_reported":1692561960,"current_range_meters":6400,"station_id":"ce4bh312rcd13ifvqdk0","pricing_plan_id":"free"},{"bike_id":"5cec26ac-344f-432b-af34-450b75305b9b","system_id":"levelo_inurba_marseille","lat":43.2928,"lon":5.40115,"is_reserved":false,"is_disabled":false,"rental_uris":{"android":"levelo://app?vid=5cec26ac-344f-432b-af34-450b75305b9b","ios":"levelo://app?vid=5cec26ac-344f-432b-af34-450b75305b9b"},"vehicle_type_id":"4","last_reported":1692561960,"current_range_meters":31200,"station_id":"ce4bh312rcd13ifvqdk0","pricing_plan_id":"free"},{"bike_id":"4ea36e78-e4cd-4ff4-ab88-7c3918433a3c","system_id":"levelo_inurba_marseille","lat":43.29281,"lon":5.40117,"is_reserved":false,"is_disabled":false,"rental_uris":{"android":"levelo://app?vid=4ea36e78-e4cd-4ff4-ab88-7c3918433a3c","ios":"levelo://app?vid=4ea36e78-e4cd-4ff4-ab88-7c3918433a3c"},"vehicle_type_id":"4","last_reported":1692561960,"current_range_meters":21600,"station_id":"ce4bh312rcd13ifvqdk0","pricing_plan_id":"free"},{"bike_id":"96cad11c-1ff9-4f65-a479-951be307507b","system_id":"levelo_inurba_marseille","lat":43.29274,"lon":5.40114,"is_reserved":false,"is_disabled":false,"rental_uris":{"android":"levelo://app?vid=96cad11c-1ff9-4f65-a479-951be307507b","ios":"levelo://app?vid=96cad11c-1ff9-4f65-a479-951be307507b"},"vehicle_type_id":"4","last_reported":1692561960,"current_range_meters":4400,"station_id":"ce4bh312rcd13ifvqdk0","pricing_plan_id":"free"},{"bike_id":"88940920-727e-47f8-bee6-24feedff1167","system_id":"levelo_inurba_marseille","lat":43.282744,"lon":5.350533,"is_reserved":false,"is_disabled":false,"rental_uris":{"android":"levelo://app?vid=88940920-727e-47f8-bee6-24feedff1167","ios":"levelo://app?vid=88940920-727e-47f8-bee6-24feedff1167"},"vehicle_type_id":"4","last_reported":1692561960,"current_range_meters":29600,"station_id":"ce4bhbp2rcd13ifvqerg","pricing_plan_id":"free"},{"bike_id":"9e7b2ec7-7b9c-46b4-b1c0-6951baca610d","system_id":"levelo_inurba_marseille","lat":43.283502,"lon":5.386471,"is_reserved":false,"is_disabled":false,"rental_uris":{"android":"levelo://app?vid=9e7b2ec7-7b9c-46b4-b1c0-6951baca610d","ios":"levelo://app?vid=9e7b2ec7-7b9c-46b4-b1c0-6951baca610d"},"vehicle_type_id":"4","last_reported":1692561960,"current_range_meters":0,"station_id":"ce4bh492rcd13ifvqdvg","pricing_plan_id":"free"},{"bike_id":"37eefd7b-b235-47ce-9f1d-296e6401e4b1","system_id":"levelo_inurba_marseille","lat":43.283502,"lon":5.386471,"is_reserved":false,"is_disabled":false,"rental_uris":{"android":"levelo://app?vid=37eefd7b-b235-47ce-9f1d-296e6401e4b1","ios":"levelo://app?vid=37eefd7b-b235-47ce-9f1d-296e6401e4b1"},"vehicle_type_id":"4","last_reported":1692561960,"current_range_meters":9600,"station_id":"ce4bh492rcd13ifvqdvg","pricing_plan_id":"free"},{"bike_id":"618df455-37c8-40a2-9358-626a7068f7fd","system_id":"levelo_inurba_marseille","lat":43.28039,"lon":5.369297,"is_reserved":false,"is_disabled":false,"rental_uris":{"android":"levelo://app?vid=618df455-37c8-40a2-9358-626a7068f7fd","ios":"levelo://app?vid=618df455-37c8-40a2-9358-626a7068f7fd"},"vehicle_type_id":"4","last_reported":1692561960,"current_range_meters":0,"station_id":"ce4bha12rcd13ifvqef0","pricing_plan_id":"free"},{"bike_id":"9f46cfde-4f76-4076-bade-5765c2d3d473","system_id":"levelo_inurba_marseille","lat":43.28039,"lon":5.369297,"is_reserved":false,"is_disabled":false,"rental_uris":{"android":"levelo://app?vid=9f46cfde-4f76-4076-bade-5765c2d3d473","ios":"levelo://app?vid=9f46cfde-4f76-4076-bade-5765c2d3d473"},"vehicle_type_id":"4","last_reported":1692561960,"current_range_meters":31200,"station_id":"ce4bha12rcd13ifvqef0","pricing_plan_id":"free"},{"bike_id":"c55abc1a-ef88-4170-afbe-54a944c552f1","system_id":"levelo_inurba_marseille","lat":43.280382,"lon":5.369291,"is_reserved":false,"is_disabled":false,"rental_uris":{"android":"levelo://app?vid=c55abc1a-ef88-4170-afbe-54a944c552f1","ios":"levelo://app?vid=c55abc1a-ef88-4170-afbe-54a944c552f1"},"vehicle_type_id":"4","last_reported":1692561960,"current_range_meters":4800,"station_id":"ce4bha12rcd13ifvqef0","pricing_plan_id":"free"},{"bike_id":"3366fb37-6ec1-450a-bbd5-6c916e2cd111","system_id":"levelo_inurba_marseille","lat":43.280382,"lon":5.369291,"is_reserved":false,"is_disabled":false,"rental_uris":{"android":"levelo://app?vid=3366fb37-6ec1-450a-bbd5-6c916e2cd111","ios":"levelo://app?vid=3366fb37-6ec1-450a-bbd5-6c916e2cd111"},"vehicle_type_id":"4","last_reported":1692561960,"current_range_meters":17600,"station_id":"ce4bha12rcd13ifvqef0","pricing_plan_id":"free"},{"bike_id":"10e24c93-44c4-4004-867b-dcded8084f99","system_id":"levelo_inurba_marseille","lat":43.28111,"lon":5.37833,"is_reserved":false,"is_disabled":false,"rental_uris":{"android":"levelo://app?vid=10e24c93-44c4-4004-867b-dcded8084f99","ios":"levelo://app?vid=10e24c93-44c4-4004-867b-dcded8084f99"},"vehicle_type_id":"4","last_reported":1692561960,"current_range_meters":16400,"station_id":"ce4bha12rcd13ifvqee0","pricing_plan_id":"free"},{"bike_id":"bc90c894-0931-4efc-bd75-a6493fcb49b0","system_id":"levelo_inurba_marseille","lat":43.28108,"lon":5.37835,"is_reserved":false,"is_disabled":false,"rental_uris":{"android":"levelo://app?vid=bc90c894-0931-4efc-bd75-a6493fcb49b0","ios":"levelo://app?vid=bc90c894-0931-4efc-bd75-a6493fcb49b0"},"vehicle_type_id":"4","last_reported":1692561960,"current_range_meters":13600,"station_id":"ce4bha12rcd13ifvqee0","pricing_plan_id":"free"},{"bike_id":"d4855cf6-74e1-4f5d-8e67-bb7eba1cb184","system_id":"levelo_inurba_marseille","lat":43.281044,"lon":5.378308,"is_reserved":false,"is_disabled":false,"rental_uris":{"android":"levelo://app?vid=d4855cf6-74e1-4f5d-8e67-bb7eba1cb184","ios":"levelo://app?vid=d4855cf6-74e1-4f5d-8e67-bb7eba1cb184"},"vehicle_type_id":"4","last_reported":1692561960,"current_range_meters":400,"station_id":"ce4bha12rcd13ifvqee0","pricing_plan_id":"free"},{"bike_id":"7a105e19-1309-4671-aa60-f974ec496889","system_id":"levelo_inurba_marseille","lat":43.281044,"lon":5.378308,"is_reserved":false,"is_disabled":false,"rental_uris":{"android":"levelo://app?vid=7a105e19-1309-4671-aa60-f974ec496889","ios":"levelo://app?vid=7a105e19-1309-4671-aa60-f974ec496889"},"vehicle_type_id":"4","last_reported":1692561960,"current_range_meters":14400,"station_id":"ce4bha12rcd13ifvqee0","pricing_plan_id":"free"},{"bike_id":"9a3c6fa9-3d87-4396-a3e8-8edb44fa1d35","system_id":"levelo_inurba_marseille","lat":43.284462,"lon":5.392121,"is_reserved":false,"is_disabled":false,"rental_uris":{"android":"levelo://app?vid=9a3c6fa9-3d87-4396-a3e8-8edb44fa1d35","ios":"levelo://app?vid=9a3c6fa9-3d87-4396-a3e8-8edb44fa1d35"},"vehicle_type_id":"4","last_reported":1692561960,"current_range_meters":23200,"station_id":"ce4bhoh2rcd13ifvqh5g","pricing_plan_id":"free"},{"bike_id":"0aadbe52-b562-4e57-a77b-0e71a54b7211","system_id":"levelo_inurba_marseille","lat":43.284462,"lon":5.392121,"is_reserved":false,"is_disabled":false,"rental_uris":{"android":"levelo://app?vid=0aadbe52-b562-4e57-a77b-0e71a54b7211","ios":"levelo://app?vid=0aadbe52-b562-4e57-a77b-0e71a54b7211"},"vehicle_type_id":"4","last_reported":1692561960,"current_range_meters":18800,"station_id":"ce4bhoh2rcd13ifvqh5g","pricing_plan_id":"free"},{"bike_id":"7e6c8f87-2baa-4061-8b2a-d42ee83d1da6","system_id":"levelo_inurba_marseille","lat":43.285742,"lon":5.395004,"is_reserved":false,"is_disabled":false,"rental_uris":{"android":"levelo://app?vid=7e6c8f87-2baa-4061-8b2a-d42ee83d1da6","ios":"levelo://app?vid=7e6c8f87-2baa-4061-8b2a-d42ee83d1da6"},"vehicle_type_id":"4","last_reported":1692561960,"current_range_meters":21200,"station_id":"ce4bh292rcd13ifvqdg0","pricing_plan_id":"free"},{"bike_id":"f8ef4f78-badc-40d1-a4a9-077301466e56","system_id":"levelo_inurba_marseille","lat":43.32662,"lon":5.40978,"is_reserved":false,"is_disabled":false,"rental_uris":{"android":"levelo://app?vid=f8ef4f78-badc-40d1-a4a9-077301466e56","ios":"levelo://app?vid=f8ef4f78-badc-40d1-a4a9-077301466e56"},"vehicle_type_id":"4","last_reported":1692561960,"current_range_meters":8000,"station_id":"ce4bhpp2rcd13ifvqhgg","pricing_plan_id":"free"},{"bike_id":"0e95b265-0ebd-4eaf-9b5c-011f8c8c3e7f","system_id":"levelo_inurba_marseille","lat":43.32662,"lon":5.40983,"is_reserved":false,"is_disabled":false,"rental_uris":{"android":"levelo://app?vid=0e95b265-0ebd-4eaf-9b5c-011f8c8c3e7f","ios":"levelo://app?vid=0e95b265-0ebd-4eaf-9b5c-011f8c8c3e7f"},"vehicle_type_id":"4","last_reported":1692561960,"current_range_meters":1200,"station_id":"ce4bhpp2rcd13ifvqhgg","pricing_plan_id":"free"},{"bike_id":"aade0486-70e5-480c-9a02-800bff18ce4e","system_id":"levelo_inurba_marseille","lat":43.3266,"lon":5.40992,"is_reserved":false,"is_disabled":false,"rental_uris":{"android":"levelo://app?vid=aade0486-70e5-480c-9a02-800bff18ce4e","ios":"levelo://app?vid=aade0486-70e5-480c-9a02-800bff18ce4e"},"vehicle_type_id":"4","last_reported":1692561960,"current_range_meters":19200,"station_id":"ce4bhpp2rcd13ifvqhgg","pricing_plan_id":"free"},{"bike_id":"1a3a5cc5-6d8f-4968-bb8a-050b284b79ab","system_id":"levelo_inurba_marseille","lat":43.27908,"lon":5.38005,"is_reserved":false,"is_disabled":false,"rental_uris":{"android":"levelo://app?vid=1a3a5cc5-6d8f-4968-bb8a-050b284b79ab","ios":"levelo://app?vid=1a3a5cc5-6d8f-4968-bb8a-050b284b79ab"},"vehicle_type_id":"4","last_reported":1692561960,"current_range_meters":4000,"station_id":"ce4bhf92rcd13ifvqf50","pricing_plan_id":"free"},{"bike_id":"62207ed7-2bb3-4a84-ae97-08e6a24132e0","system_id":"levelo_inurba_marseille","lat":43.279087,"lon":5.380114,"is_reserved":false,"is_disabled":false,"rental_uris":{"android":"levelo://app?vid=62207ed7-2bb3-4a84-ae97-08e6a24132e0","ios":"levelo://app?vid=62207ed7-2bb3-4a84-ae97-08e6a24132e0"},"vehicle_type_id":"4","last_reported":1692561960,"current_range_meters":16400,"station_id":"ce4bhf92rcd13ifvqf50","pricing_plan_id":"free"},{"bike_id":"7cc0ec12-34c0-451f-8dc3-fd4727cf417a","system_id":"levelo_inurba_marseille","lat":43.279087,"lon":5.380114,"is_reserved":false,"is_disabled":false,"rental_uris":{"android":"levelo://app?vid=7cc0ec12-34c0-451f-8dc3-fd4727cf417a","ios":"levelo://app?vid=7cc0ec12-34c0-451f-8dc3-fd4727cf417a"},"vehicle_type_id":"4","last_reported":1692561960,"current_range_meters":12800,"station_id":"ce4bhf92rcd13ifvqf50","pricing_plan_id":"free"},{"bike_id":"071a165e-b2af-4a91-aaf7-06ee39290172","system_id":"levelo_inurba_marseille","lat":43.27901,"lon":5.3801,"is_reserved":false,"is_disabled":false,"rental_uris":{"android":"levelo://app?vid=071a165e-b2af-4a91-aaf7-06ee39290172","ios":"levelo://app?vid=071a165e-b2af-4a91-aaf7-06ee39290172"},"vehicle_type_id":"4","last_reported":1692561960,"current_range_meters":12000,"station_id":"ce4bhf92rcd13ifvqf50","pricing_plan_id":"free"},{"bike_id":"0840e4a7-78ed-424e-8b3a-8d6664b678a9","system_id":"levelo_inurba_marseille","lat":43.287154,"lon":5.399979,"is_reserved":false,"is_disabled":false,"rental_uris":{"android":"levelo://app?vid=0840e4a7-78ed-424e-8b3a-8d6664b678a9","ios":"levelo://app?vid=0840e4a7-78ed-424e-8b3a-8d6664b678a9"},"vehicle_type_id":"4","last_reported":1692561960,"current_range_meters":1200,"station_id":"ce4bho92rcd13ifvqh3g","pricing_plan_id":"free"},{"bike_id":"20edfd4c-9629-4a4e-8070-c8bc09edd552","system_id":"levelo_inurba_marseille","lat":43.287154,"lon":5.399979,"is_reserved":false,"is_disabled":false,"rental_uris":{"android":"levelo://app?vid=20edfd4c-9629-4a4e-8070-c8bc09edd552","ios":"levelo://app?vid=20edfd4c-9629-4a4e-8070-c8bc09edd552"},"vehicle_type_id":"4","last_reported":1692561960,"current_range_meters":26800,"station_id":"ce4bho92rcd13ifvqh3g","pricing_plan_id":"free"},{"bike_id":"b43a0978-c38c-4301-893f-4e8d1232fb0c","system_id":"levelo_inurba_marseille","lat":43.299579,"lon":5.413255,"is_reserved":false,"is_disabled":false,"rental_uris":{"android":"levelo://app?vid=b43a0978-c38c-4301-893f-4e8d1232fb0c","ios":"levelo://app?vid=b43a0978-c38c-4301-893f-4e8d1232fb0c"},"vehicle_type_id":"4","last_reported":1692561960,"current_range_meters":5600,"station_id":"ce4bhp12rcd13ifvqh9g","pricing_plan_id":"free"},{"bike_id":"63eb2ec4-e023-4477-a81c-a0ad0ddded0f","system_id":"levelo_inurba_marseille","lat":43.279742,"lon":5.38744,"is_reserved":false,"is_disabled":false,"rental_uris":{"android":"levelo://app?vid=63eb2ec4-e023-4477-a81c-a0ad0ddded0f","ios":"levelo://app?vid=63eb2ec4-e023-4477-a81c-a0ad0ddded0f"},"vehicle_type_id":"4","last_reported":1692561960,"current_range_meters":18000,"station_id":"ce4bhg12rcd13ifvqf80","pricing_plan_id":"free"},{"bike_id":"c327718a-8fe6-4791-a349-aba0f8f94e82","system_id":"levelo_inurba_marseille","lat":43.27973,"lon":5.38739,"is_reserved":false,"is_disabled":false,"rental_uris":{"android":"levelo://app?vid=c327718a-8fe6-4791-a349-aba0f8f94e82","ios":"levelo://app?vid=c327718a-8fe6-4791-a349-aba0f8f94e82"},"vehicle_type_id":"4","last_reported":1692561960,"current_range_meters":26000,"station_id":"ce4bhg12rcd13ifvqf80","pricing_plan_id":"free"},{"bike_id":"7c5f3e9d-006c-4c39-a1f6-527dda731eba","system_id":"levelo_inurba_marseille","lat":43.292571,"lon":5.409107,"is_reserved":false,"is_disabled":false,"rental_uris":{"android":"levelo://app?vid=7c5f3e9d-006c-4c39-a1f6-527dda731eba","ios":"levelo://app?vid=7c5f3e9d-006c-4c39-a1f6-527dda731eba"},"vehicle_type_id":"4","last_reported":1692561960,"current_range_meters":22800,"station_id":"ce4bh192rcd13ifvqdc0","pricing_plan_id":"free"},{"bike_id":"89e78ea8-37b0-4091-9740-4a3fba278086","system_id":"levelo_inurba_marseille","lat":43.292571,"lon":5.409107,"is_reserved":false,"is_disabled":false,"rental_uris":{"android":"levelo://app?vid=89e78ea8-37b0-4091-9740-4a3fba278086","ios":"levelo://app?vid=89e78ea8-37b0-4091-9740-4a3fba278086"},"vehicle_type_id":"4","last_reported":1692561960,"current_range_meters":18000,"station_id":"ce4bh192rcd13ifvqdc0","pricing_plan_id":"free"},{"bike_id":"173831b7-c089-4f12-a7fd-0047c3989af3","system_id":"levelo_inurba_marseille","lat":43.292569,"lon":5.409107,"is_reserved":false,"is_disabled":false,"rental_uris":{"android":"levelo://app?vid=173831b7-c089-4f12-a7fd-0047c3989af3","ios":"levelo://app?vid=173831b7-c089-4f12-a7fd-0047c3989af3"},"vehicle_type_id":"4","last_reported":1692561960,"current_range_meters":22400,"station_id":"ce4bh192rcd13ifvqdc0","pricing_plan_id":"free"},{"bike_id":"35070e43-f0f5-412c-9f66-1dbc8d4dc660","system_id":"levelo_inurba_marseille","lat":43.34843,"lon":5.34897,"is_reserved":false,"is_disabled":false,"rental_uris":{"android":"levelo://app?vid=35070e43-f0f5-412c-9f66-1dbc8d4dc660","ios":"levelo://app?vid=35070e43-f0f5-412c-9f66-1dbc8d4dc660"},"vehicle_type_id":"4","last_reported":1692561960,"current_range_meters":9200,"station_id":"","pricing_plan_id":"free"},{"bike_id":"ff9abb8a-3b7a-4bcb-a07f-3ac54d1a6a11","system_id":"levelo_inurba_marseille","lat":43.280784,"lon":5.396622,"is_reserved":false,"is_disabled":false,"rental_uris":{"android":"levelo://app?vid=ff9abb8a-3b7a-4bcb-a07f-3ac54d1a6a11","ios":"levelo://app?vid=ff9abb8a-3b7a-4bcb-a07f-3ac54d1a6a11"},"vehicle_type_id":"4","last_reported":1692561960,"current_range_meters":6000,"station_id":"ce4bho12rcd13ifvqh2g","pricing_plan_id":"free"},{"bike_id":"52d8f982-dd49-485a-8bbb-013557a34ace","system_id":"levelo_inurba_marseille","lat":43.280784,"lon":5.396622,"is_reserved":false,"is_disabled":false,"rental_uris":{"android":"levelo://app?vid=52d8f982-dd49-485a-8bbb-013557a34ace","ios":"levelo://app?vid=52d8f982-dd49-485a-8bbb-013557a34ace"},"vehicle_type_id":"4","last_reported":1692561960,"current_range_meters":5600,"station_id":"ce4bho12rcd13ifvqh2g","pricing_plan_id":"free"},