{"last_updated":1744639807,"ttl":60,"version":"2.2","data":{"bikes":[{"bike_id":"1130922e-9ccc-463b-9207-aadecd794edb","system_id":"levelo_inurba_marseille","lat":43.31974,"lon":5.38145,"is_reserved":false,"is_disabled":false,"rental_uris":{"android":"levelo://app?vid=1130922e-9ccc-463b-9207-aadecd794edb","ios":"levelo://app?vid=1130922e-9ccc-463b-9207-aadecd794edb"},"vehicle_type_id":"4","last_reported":1744639808,"current_range_meters":2800,"station_id":"ce4bhr12rcd13ifvqhpg","pricing_plan_id":"cebpf4jnsgd1na2vs0mg"},{"bike_id":"f706ce44-8c28-46aa-9fae-b10cfa45b856","system_id":"levelo_inurba_marseille","lat":43.24811,"lon":5.37452,"is_reserved":false,"is_disabled":false,"rental_uris":{"android":"levelo://app?vid=f706ce44-8c28-46aa-9fae-b10cfa45b856","ios":"levelo://app?vid=f706ce44-8c28-46aa-9fae-b10cfa45b856"},"vehicle_type_id":"4","last_reported":1744639808,"current_range_meters":2800,"station_id":"ce4bhgh2rcd13ifvqfb0","pricing_plan_id":"cebpf4jnsgd1na2vs0mg"},{"bike_id":"da6bf8ce-b14a-46fb-a620-67194561da2d","system_id":"levelo_inurba_marseille","lat":43.25121,"lon":5.40318,"is_reserved":false,"is_disabled":false,"rental_uris":{"android":"levelo://app?vid=da6bf8ce-b14a-46fb-a620-67194561da2d","ios":"levelo://app?vid=da6bf8ce-b14a-46fb-a620-67194561da2d"},"vehicle_type_id":"4","last_reported":1744639808,"current_range_meters":2800,"station_id":"ce4bhlh2rcd13ifvqgig","pricing_plan_id":"cebpf4jnsgd1na2vs0mg"},{"bike_id":"d7db96a0-25ad-49d5-8ba6-ec9c3b1bff0d","system_id":"levelo_inurba_marseille","lat":43.25495,"lon":5.37649,"is_reserved":false,"is_disabled":false,"rental_uris":{"android":"levelo://app?vid=d7db96a0-25ad-49d5-8ba6-ec9c3b1bff0d","ios":"levelo://app?vid=d7db96a0-25ad-49d5-8ba6-ec9c3b1bff0d"},"vehicle_type_id":"4","last_reported":1744639808,"current_range_meters":3200,"station_id":"ce4bhh12rcd13ifvqff0","pricing_plan_id":"cebpf4jnsgd1na2vs0mg"},{"bike_id":"6db93bc8-c7a5-430b-85c6-1725072957c9","system_id":"levelo_inurba_marseille","lat":43.30045,"lon":5.37744,"is_reserved":false,"is_disabled":false,"rental_uris":{"android":"levelo://app?vid=6db93bc8-c7a5-430b-85c6-1725072957c9","ios":"levelo://app?vid=6db93bc8-c7a5-430b-85c6-1725072957c9"},"vehicle_type_id":"4","last_reported":1744639808,"current_range_meters":3200,"station_id":"","pricing_plan_id":"cebpf4jnsgd1na2vs0mg"},{"bike_id":"4a0973b0-92a0-41e8-9b0d-a99e944bafe0","system_id":"levelo_inurba_marseille","lat":43.3448,"lon":5.41285,"is_reserved":false,"is_disabled":false,"rental_uris":{"android":"levelo://app?vid=4a0973b0-92a0-41e8-9b0d-a99e944bafe0","ios":"levelo://app?vid=4a0973b0-92a0-41e8-9b0d-a99e944bafe0"},"vehicle_type_id":"4","last_reported":1744639808,"current_range_meters":3200,"station_id":"","pricing_plan_id":"cebpf4jnsgd1na2vs0mg"},{"bike_id":"493cde9e-7859-4c26-a2e6-f744ee5d8553","system_id":"levelo_inurba_marseille","lat":43.31784,"lon":5.36832,"is_reserved":false,"is_disabled":false,"rental_uris":{"android":"levelo://app?vid=493cde9e-7859-4c26-a2e6-f744ee5d8553","ios":"levelo://app?vid=493cde9e-7859-4c26-a2e6-f744ee5d8553"},"vehicle_type_id":"4","last_reported":1744639808,"current_range_meters":3200,"station_id":"","pricing_plan_id":"cebpf4jnsgd1na2vs0mg"},{"bike_id":"5b77a833-8185-45c2-9fe3-07eb40df54ca","system_id":"levelo_inurba_marseille","lat":43.33995,"lon":5.38057,"is_reserved":false,"is_disabled":false,"rental_uris":{"android":"levelo://app?vid=5b77a833-8185-45c2-9fe3-07eb40df54ca","ios":"levelo://app?vid=5b77a833-8185-45c2-9fe3-07eb40df54ca"},"vehicle_type_id":"4","last_reported":1744639808,"current_range_meters":3200,"station_id":"","pricing_plan_id":"cebpf4jnsgd1na2vs0mg"},{"bike_id":"71fc5e70-bfb5-439d-8262-cb4b8e4a6a4b","system_id":"levelo_inurba_marseille","lat":43.24407,"lon":5.37063,"is_reserved":false,"is_disabled":false,"rental_uris":{"android":"levelo://app?vid=71fc5e70-bfb5-439d-8262-cb4b8e4a6a4b","ios":"levelo://app?vid=71fc5e70-bfb5-439d-8262-cb4b8e4a6a4b"},"vehicle_type_id":"4","last_reported":1744639808,"current_range_meters":3600,"station_id":"ce4bhhh2rcd13ifvqfk0","pricing_plan_id":"cebpf4jnsgd1na2vs0mg"},{"bike_id":"27d78022-974d-4036-b9f8-6a3c178bbc61","system_id":"levelo_inurba_marseille","lat":43.31083,"lon":5.42434,"is_reserved":false,"is_disabled":false,"rental_uris":{"android":"levelo://app?vid=27d78022-974d-4036-b9f8-6a3c178bbc61","ios":"levelo://app?vid=27d78022-974d-4036-b9f8-6a3c178bbc61"},"vehicle_type_id":"4","last_reported":1744639808,"current_range_meters":3200,"station_id":"ce4bhp92rcd13ifvqhag","pricing_plan_id":"cebpf4jnsgd1na2vs0mg"},{"bike_id":"e8f29ef4-4b4e-4b13-b1ac-3a5b4b92d608","system_id":"levelo_inurba_marseille","lat":43.2849,"lon":5.3842,"is_reserved":false,"is_disabled":false,"rental_uris":{"android":"levelo://app?vid=e8f29ef4-4b4e-4b13-b1ac-3a5b4b92d608","ios":"levelo://app?vid=e8f29ef4-4b4e-4b13-b1ac-3a5b4b92d608"},"vehicle_type_id":"4","last_reported":1744639808,"current_range_meters":400,"station_id":"ce4bh512rcd13ifvqe3g","pricing_plan_id":"cebpf4jnsgd1na2vs0mg"},{"bike_id":"558c2854-3115-4e9e-8a2c-1365c98a5689","system_id":"levelo_inurba_marseille","lat":43.27209,"lon":5.39176,"is_reserved":false,"is_disabled":false,"rental_uris":{"android":"levelo://app?vid=558c2854-3115-4e9e-8a2c-1365c98a5689","ios":"levelo://app?vid=558c2854-3115-4e9e-8a2c-1365c98a5689"},"vehicle_type_id":"4","last_reported":1744639808,"current_range_meters":3600,"station_id":"ce4bhhp2rcd13ifvqfm0","pricing_plan_id":"cebpf4jnsgd1na2vs0mg"},{"bike_id":"8a7c02b4-f271-40a6-88b2-581e6d053034","system_id":"levelo_inurba_marseille","lat":43.29188,"lon":5.39324,"is_reserved":false,"is_disabled":false,"rental_uris":{"android":"levelo://app?vid=8a7c02b4-f271-40a6-88b2-581e6d053034","ios":"levelo://app?vid=8a7c02b4-f271-40a6-88b2-581e6d053034"},"vehicle_type_id":"4","last_reported":1744639808,"current_range_meters":3600,"station_id":"ce4bh192rcd13ifvqdd0","pricing_plan_id":"cebpf4jnsgd1na2vs0mg"},{"bike_id":"80adb61d-72f2-4c4d-80dc-fe710325470b","system_id":"levelo_inurba_marseille","lat":43.27611,"lon":5.36123,"is_reserved":false,"is_disabled":false,"rental_uris":{"android":"levelo://app?vid=80adb61d-72f2-4c4d-80dc-fe710325470b","ios":"levelo://app?vid=80adb61d-72f2-4c4d-80dc-fe710325470b"},"vehicle_type_id":"4","last_reported":1744639808,"current_range_meters":4000,"station_id":"ce4bgj92rcd13ifvqbe0","pricing_plan_id":"cebpf4jnsgd1na2vs0mg"},{"bike_id":"5ae5738d-fb1e-4727-ad37-2ed8fc1ee379","system_id":"levelo_inurba_marseille","lat":43.28613,"lon":5.37059,"is_reserved":false,"is_disabled":false,"rental_uris":{"android":"levelo://app?vid=5ae5738d-fb1e-4727-ad37-2ed8fc1ee379","ios":"levelo://app?vid=5ae5738d-fb1e-4727-ad37-2ed8fc1ee379"},"vehicle_type_id":"4","last_reported":1744639808,"current_range_meters":4400,"station_id":"ce4bht12rcd13ifvqi60","pricing_plan_id":"cebpf4jnsgd1na2vs0mg"},{"bike_id":"0b067865-9d16-4682-b393-adbe84e048ce","system_id":"levelo_inurba_marseille","lat":43.26523,"lon":5.37297,"is_reserved":false,"is_disabled":false,"rental_uris":{"android":"levelo://app?vid=0b067865-9d16-4682-b393-adbe84e048ce","ios":"levelo://app?vid=0b067865-9d16-4682-b393-adbe84e048ce"},"vehicle_type_id":"4","last_reported":1744639808,"current_range_meters":4400,"station_id":"","pricing_plan_id":"cebpf4jnsgd1na2vs0mg"},{"bike_id":"a8b89d78-2450-42d8-855d-8566c79069ad","system_id":"levelo_inurba_marseille","lat":43.32,"lon":5.41515,"is_reserved":false,"is_disabled":false,"rental_uris":{"android":"levelo://app?vid=a8b89d78-2450-42d8-855d-8566c79069ad","ios":"levelo://app?vid=a8b89d78-2450-42d8-855d-8566c79069ad"},"vehicle_type_id":"4","last_reported":1744639808,"current_range_meters":4400,"station_id":"ce4bhq92rcd13ifvqhkg","pricing_plan_id":"cebpf4jnsgd1na2vs0mg"},{"bike_id":"3d16c2e3-7c12-4342-883a-029e0fc16b05","system_id":"levelo_inurba_marseille","lat":43.31052,"lon":5.37098,"is_reserved":false,"is_disabled":false,"rental_uris":{"android":"levelo://app?vid=3d16c2e3-7c12-4342-883a-029e0fc16b05","ios":"levelo://app?vid=3d16c2e3-7c12-4342-883a-029e0fc16b05"},"vehicle_type_id":"4","last_reported":1744639808,"current_range_meters":4400,"station_id":"","pricing_plan_id":"cebpf4jnsgd1na2vs0mg"},{"bike_id":"7b89202d-6a08-4ca2-9215-4135ac29afc8","system_id":"levelo_inurba_marseille","lat":43.28269,"lon":5.3506,"is_reserved":false,"is_disabled":false,"rental_uris":{"android":"levelo://app?vid=7b89202d-6a08-4ca2-9215-4135ac29afc8","ios":"levelo://app?vid=7b89202d-6a08-4ca2-9215-4135ac29afc8"},"vehicle_type_id":"4","last_reported":1744639808,"current_range_meters":4400,"station_id":"ce4bhbp2rcd13ifvqerg","pricing_plan_id":"cebpf4jnsgd1na2vs0mg"},{"bike_id":"944bddab-9f41-4da7-80e2-b3e803e6b9a5","system_id":"levelo_inurba_marseille","lat":43.21199,"lon":5.35072,"is_reserved":false,"is_disabled":false,"rental_uris":{"android":"levelo://app?vid=944bddab-9f41-4da7-80e2-b3e803e6b9a5","ios":"levelo://app?vid=944bddab-9f41-4da7-80e2-b3e803e6b9a5"},"vehicle_type_id":"4","last_reported":1744639808,"current_range_meters":4400,"station_id":"st_cvj6sg6p6f1abm77japg","pricing_plan_id":"cebpf4jnsgd1na2vs0mg"},{"bike_id":"bb85c1ec-8a61-4ccd-9985-a98e40503ee9","system_id":"levelo_inurba_marseille","lat":43.23144,"lon":5.43704,"is_reserved":false,"is_disabled":false,"rental_uris":{"android":"levelo://app?vid=bb85c1ec-8a61-4ccd-9985-a98e40503ee9","ios":"levelo://app?vid=bb85c1ec-8a61-4ccd-9985-a98e40503ee9"},"vehicle_type_id":"4","last_reported":1744639808,"current_range_meters":4400,"station_id":"ce4bhmp2rcd13ifvqgog","pricing_plan_id":"cebpf4jnsgd1na2vs0mg"},{"bike_id":"cf675099-ac1b-4818-b622-5e6e28428c4a","system_id":"levelo_inurba_marseille","lat":43.22933,"lon":5.35383,"is_reserved":false,"is_disabled":false,"rental_uris":{"android":"levelo://app?vid=cf675099-ac1b-4818-b622-5e6e28428c4a","ios":"levelo://app?vid=cf675099-ac1b-4818-b622-5e6e28428c4a"},"vehicle_type_id":"4","last_reported":1744639808,"current_range_meters":4800,"station_id":"cpo3532slgdg3j2ikp40","pricing_plan_id":"cebpf4jnsgd1na2vs0mg"},{"bike_id":"a405f5a2-dc3f-44f5-bd34-b70e017b06ce","system_id":"levelo_inurba_marseille","lat":43.29313,"lon":5.37457,"is_reserved":false,"is_disabled":false,"rental_uris":{"android":"levelo://app?vid=a405f5a2-dc3f-44f5-bd34-b70e017b06ce","ios":"levelo://app?vid=a405f5a2-dc3f-44f5-bd34-b70e017b06ce"},"vehicle_type_id":"4","last_reported":1744639808,"current_range_meters":2800,"station_id":"ce4bgi12rcd13ifvqb70","pricing_plan_id":"cebpf4jnsgd1na2vs0mg"},{"bike_id":"4f38e127-be9f-468e-8871-e9cd4f365dca","system_id":"levelo_inurba_marseille","lat":43.24684,"lon":5.41177,"is_reserved":false,"is_disabled":false,"rental_uris":{"android":"levelo://app?vid=4f38e127-be9f-468e-8871-e9cd4f365dca","ios":"levelo://app?vid=4f38e127-be9f-468e-8871-e9cd4f365dca"},"vehicle_type_id":"4","last_reported":1744639808,"current_range_meters":4800,"station_id":"","pricing_plan_id":"cebpf4jnsgd1na2vs0mg"},{"bike_id":"f4ba64f3-963c-4500-bdad-fcb2181f11ee","system_id":"levelo_inurba_marseille","lat":43.26215,"lon":5.37441,"is_reserved":false,"is_disabled":false,"rental_uris":{"android":"levelo://app?vid=f4ba64f3-963c-4500-bdad-fcb2181f11ee","ios":"levelo://app?vid=f4ba64f3-963c-4500-bdad-fcb2181f11ee"},"vehicle_type_id":"4","last_reported":1744639808,"current_range_meters":5600,"station_id":"ce4bhgp2rcd13ifvqfc0","pricing_plan_id":"cebpf4jnsgd1na2vs0mg"},{"bike_id":"54fde98e-2d3d-496d-b682-96f839899f60","system_id":"levelo_inurba_marseille","lat":43.28349,"lon":5.38107,"is_reserved":false,"is_disabled":false,"rental_uris":{"android":"levelo://app?vid=54fde98e-2d3d-496d-b682-96f839899f60","ios":"levelo://app?vid=54fde98e-2d3d-496d-b682-96f839899f60"},"vehicle_type_id":"4","last_reported":1744639808,"current_range_meters":5600,"station_id":"ce4bh412rcd13ifvqdr0","pricing_plan_id":"cebpf4jnsgd1na2vs0mg"},{"bike_id":"76450c2c-888f-4d08-a5c0-d825237615aa","system_id":"levelo_inurba_marseille","lat":43.272259,"lon":5.423019,"is_reserved":false,"is_disabled":false,"rental_uris":{"android":"levelo://app?vid=76450c2c-888f-4d08-a5c0-d825237615aa","ios":"levelo://app?vid=76450c2c-888f-4d08-a5c0-d825237615aa"},"vehicle_type_id":"4","last_reported":1744639808,"current_range_meters":6400,"station_id":"","pricing_plan_id":"cebpf4jnsgd1na2vs0mg"},{"bike_id":"6d37b55d-cc06-47f2-99c5-76d1ccd4aeec","system_id":"levelo_inurba_marseille","lat":43.27976,"lon":5.38735,"is_reserved":false,"is_disabled":false,"rental_uris":{"android":"levelo://app?vid=6d37b55d-cc06-47f2-99c5-76d1ccd4aeec","ios":"levelo://app?vid=6d37b55d-cc06-47f2-99c5-76d1ccd4aeec"},"vehicle_type_id":"4","last_reported":1744639808,"current_range_meters":6000,"station_id":"ce4bhg12rcd13ifvqf80","pricing_plan_id":"cebpf4jnsgd1na2vs0mg"},{"bike_id":"8ef0c79e-bdc2-4a4d-bd1e-38e94bcb2e88","system_id":"levelo_inurba_marseille","lat":43.29191,"lon":5.39327,"is_reserved":false,"is_disabled":false,"rental_uris":{"android":"levelo://app?vid=8ef0c79e-bdc2-4a4d-bd1e-38e94bcb2e88","ios":"levelo://app?vid=8ef0c79e-bdc2-4a4d-bd1e-38e94bcb2e88"},"vehicle_type_id":"4","last_reported":1744639808,"current_range_meters":4400,"station_id":"ce4bh192rcd13ifvqdd0","pricing_plan_id":"cebpf4jnsgd1na2vs0mg"},{"bike_id":"11812cb8-2928-466b-981b-d6d8fd6607cb","system_id":"levelo_inurba_marseille","lat":43.284078,"lon":5.375218,"is_reserved":false,"is_disabled":false,"rental_uris":{"android":"levelo://app?vid=11812cb8-2928-466b-981b-d6d8fd6607cb","ios":"levelo://app?vid=11812cb8-2928-466b-981b-d6d8fd6607cb"},"vehicle_type_id":"4","last_reported":1744639808,"current_range_meters":6400,"station_id":"ce4bh412rcd13ifvqds0","pricing_plan_id":"cebpf4jnsgd1na2vs0mg"},{"bike_id":"c127d1a8-0150-4856-a57b-18fd29314b2c","system_id":"levelo_inurba_marseille","lat":43.32485,"lon":5.36556,"is_reserved":false,"is_disabled":false,"rental_uris":{"android":"levelo://app?vid=c127d1a8-0150-4856-a57b-18fd29314b2c","ios":"levelo://app?vid=c127d1a8-0150-4856-a57b-18fd29314b2c"},"vehicle_type_id":"4","last_reported":1744639808,"current_range_meters":6400,"station_id":"ce4bhs12rcd13ifvqhvg","pricing_plan_id":"cebpf4jnsgd1na2vs0mg"},{"bike_id":"99bca5f6-fdb0-4d84-a753-79537596aab5","system_id":"levelo_inurba_marseille","lat":43.298782,"lon":5.400776,"is_reserved":false,"is_disabled":false,"rental_uris":{"android":"levelo://app?vid=99bca5f6-fdb0-4d84-a753-79537596aab5","ios":"levelo://app?vid=99bca5f6-fdb0-4d84-a753-79537596aab5"},"vehicle_type_id":"4","last_reported":1744639808,"current_range_meters":6400,"station_id":"ce4bh112rcd13ifvqd90","pricing_plan_id":"cebpf4jnsgd1na2vs0mg"},{"bike_id":"f5657603-15cc-4a57-a002-59d835af5f3a","system_id":"levelo_inurba_marseille","lat":43.26197,"lon":5.37934,"is_reserved":false,"is_disabled":false,"rental_uris":{"android":"levelo://app?vid=f5657603-15cc-4a57-a002-59d835af5f3a","ios":"levelo://app?vid=f5657603-15cc-4a57-a002-59d835af5f3a"},"vehicle_type_id":"4","last_reported":1744639808,"current_range_meters":6800,"station_id":"ce4bhjp2rcd13ifvqg90","pricing_plan_id":"cebpf4jnsgd1na2vs0mg"},{"bike_id":"63aa2700-3872-4802-9897-90e22403a5c0","system_id":"levelo_inurba_marseille","lat":43.292053,"lon":5.393252,"is_reserved":false,"is_disabled":false,"rental_uris":{"android":"levelo://app?vid=63aa2700-3872-4802-9897-90e22403a5c0","ios":"levelo://app?vid=63aa2700-3872-4802-9897-90e22403a5c0"},"vehicle_type_id":"4","last_reported":1744639808,"current_range_meters":6800,"station_id":"ce4bh192rcd13ifvqdd0","pricing_plan_id":"cebpf4jnsgd1na2vs0mg"},{"bike_id":"046652f9-121a-4f96-9bae-ed2bca5110fa","system_id":"levelo_inurba_marseille","lat":43.2306,"lon":5.35495,"is_reserved":false,"is_disabled":false,"rental_uris":{"android":"levelo://app?vid=046652f9-121a-4f96-9bae-ed2bca5110fa","ios":"levelo://app?vid=046652f9-121a-4f96-9bae-ed2bca5110fa"},"vehicle_type_id":"4","last_reported":1744639808,"current_range_meters":6800,"station_id":"cpo3342slgdg3j2ifvpg","pricing_plan_id":"cebpf4jnsgd1na2vs0mg"},{"bike_id":"e8a97774-4d0d-433b-8cc1-c99e33568527","system_id":"levelo_inurba_marseille","lat":43.25014,"lon":5.3892,"is_reserved":false,"is_disabled":false,"rental_uris":{"android":"levelo://app?vid=e8a97774-4d0d-433b-8cc1-c99e33568527","ios":"levelo://app?vid=e8a97774-4d0d-433b-8cc1-c99e33568527"},"vehicle_type_id":"4","last_reported":1744639808,"current_range_meters":7200,"station_id":"ce4bhgp2rcd13ifvqfd0","pricing_plan_id":"cebpf4jnsgd1na2vs0mg"},{"bike_id":"30f6babb-8e80-4d67-a55a-a4256ffc3590","system_id":"levelo_inurba_marseille","lat":43.28481,"lon":5.38556,"is_reserved":false,"is_disabled":false,"rental_uris":{"android":"levelo://app?vid=30f6babb-8e80-4d67-a55a-a4256ffc3590","ios":"levelo://app?vid=30f6babb-8e80-4d67-a55a-a4256ffc3590"},"vehicle_type_id":"4","last_reported":1744639808,"current_range_meters":7200,"station_id":"ce4bh8p2rcd13ifvqeb0","pricing_plan_id":"cebpf4jnsgd1na2vs0mg"},{"bike_id":"ba8e5a73-9586-4987-9570-0c8f95aa394b","system_id":"levelo_inurba_marseille","lat":43.31235,"lon":5.36857,"is_reserved":false,"is_disabled":false,"rental_uris":{"android":"levelo://app?vid=ba8e5a73-9586-4987-9570-0c8f95aa394b","ios":"levelo://app?vid=ba8e5a73-9586-4987-9570-0c8f95aa394b"},"vehicle_type_id":"4","last_reported":1744639808,"current_range_meters":7200,"station_id":"ce4bgl92rcd13ifvqbq0","pricing_plan_id":"cebpf4jnsgd1na2vs0mg"},{"bike_id":"b55dd5e7-54b2-4035-b945-7b626dd7afc7","system_id":"levelo_inurba_marseille","lat":43.27567,"lon":5.40911,"is_reserved":false,"is_disabled":false,"rental_uris":{"android":"levelo://app?vid=b55dd5e7-54b2-4035-b945-7b626dd7afc7","ios":"levelo://app?vid=b55dd5e7-54b2-4035-b945-7b626dd7afc7"},"vehicle_type_id":"4","last_reported":1744639808,"current_range_meters":7200,"station_id":"","pricing_plan_id":"cebpf4jnsgd1na2vs0mg"},{"bike_id":"db47e418-7ffd-4a91-a529-63cd0539f2e5","system_id":"levelo_inurba_marseille","lat":43.251081,"lon":5.403115,"is_reserved":false,"is_disabled":false,"rental_uris":{"android":"levelo://app?vid=db47e418-7ffd-4a91-a529-63cd0539f2e5","ios":"levelo://app?vid=db47e418-7ffd-4a91-a529-63cd0539f2e5"},"vehicle_type_id":"4","last_reported":1744639808,"current_range_meters":12000,"station_id":"ce4bhlh2rcd13ifvqgig","pricing_plan_id":"cebpf4jnsgd1na2vs0mg"},{"bike_id":"84534c75-afab-43e1-bed1-cacf782229e5","system_id":"levelo_inurba_marseille","lat":43.249049,"lon":5.394037,"is_reserved":false,"is_disabled":false,"rental_uris":{"android":"levelo://app?vid=84534c75-afab-43e1-bed1-cacf782229e5","ios":"levelo://app?vid=84534c75-afab-43e1-bed1-cacf782229e5"},"vehicle_type_id":"4","last_reported":1744639808,"current_range_meters":7200,"station_id":"","pricing_plan_id":"cebpf4jnsgd1na2vs0mg"},{"bike_id":"cda1ecec-2597-404c-bca3-875a6872f187","system_id":"levelo_inurba_marseille","lat":43.26803,"lon":5.40267,"is_reserved":false,"is_disabled":false,"rental_uris":{"android":"levelo://app?vid=cda1ecec-2597-404c-bca3-875a6872f187","ios":"levelo://app?vid=cda1ecec-2597-404c-bca3-875a6872f187"},"vehicle_type_id":"4","last_reported":1744639808,"current_range_meters":7200,"station_id":"ce501612rcd8frsf0b60","pricing_plan_id":"cebpf4jnsgd1na2vs0mg"},{"bike_id":"3606ed21-51d5-4aac-9f8e-3e62e87655b1","system_id":"levelo_inurba_marseille","lat":43.28461,"lon":5.35898,"is_reserved":false,"is_disabled":false,"rental_uris":{"android":"levelo://app?vid=3606ed21-51d5-4aac-9f8e-3e62e87655b1","ios":"levelo://app?vid=3606ed21-51d5-4aac-9f8e-3e62e87655b1"},"vehicle_type_id":"4","last_reported":1744639808,"current_range_meters":8000,"station_id":"ce4bhah2rcd13ifvqei0","pricing_plan_id":"cebpf4jnsgd1na2vs0mg"},{"bike_id":"001a00bc-4979-4a22-8ef8-c79e8775e136","system_id":"levelo_inurba_marseille","lat":43.29577,"lon":5.36739,"is_reserved":false,"is_disabled":false,"rental_uris":{"android":"levelo://app?vid=001a00bc-4979-4a22-8ef8-c79e8775e136","ios":"levelo://app?vid=001a00bc-4979-4a22-8ef8-c79e8775e136"},"vehicle_type_id":"4","last_reported":1744639808,"current_range_meters":3200,"station_id":"ce4bgph2rcd13ifvqc2g","pricing_plan_id":"cebpf4jnsgd1na2vs0mg"},{"bike_id":"cb24a0a5-3413-4e74-8a36-f0399da01375","system_id":"levelo_inurba_marseille","lat":43.28078,"lon":5.39659,"is_reserved":false,"is_disabled":false,"rental_uris":{"android":"levelo://app?vid=cb24a0a5-3413-4e74-8a36-f0399da01375","ios":"levelo://app?vid=cb24a0a5-3413-4e74-8a36-f0399da01375"},"vehicle_type_id":"4","last_reported":1744639808,"current_range_meters":7200,"station_id":"ce4bho12rcd13ifvqh2g","pricing_plan_id":"cebpf4jnsgd1na2vs0mg"},{"bike_id":"7fa9ddb2-7b01-43eb-b774-5fc4a3d66544","system_id":"levelo_inurba_marseille","lat":43.29261,"lon":5.37634,"is_reserved":false,"is_disabled":false,"rental_uris":{"android":"levelo://app?vid=7fa9ddb2-7b01-43eb-b774-5fc4a3d66544","ios":"levelo://app?vid=7fa9ddb2-7b01-43eb-b774-5fc4a3d66544"},"vehicle_type_id":"4","last_reported":1744639808,"current_range_meters":8400,"station_id":"ce4bgi12rcd13ifvqb80","pricing_plan_id":"cebpf4jnsgd1na2vs0mg"},{"bike_id":"747e64f8-0f0b-4645-a9a0-3dcd63bbe1a9","system_id":"levelo_inurba_marseille","lat":43.29276,"lon":5.36847,"is_reserved":false,"is_disabled":false,"rental_uris":{"android":"levelo://app?vid=747e64f8-0f0b-4645-a9a0-3dcd63bbe1a9","ios":"levelo://app?vid=747e64f8-0f0b-4645-a9a0-3dcd63bbe1a9"},"vehicle_type_id":"4","last_reported":1744639808,"current_range_meters":8400,"station_id":"ce4bhbp2rcd13ifvqesg","pricing_plan_id":"cebpf4jnsgd1na2vs0mg"},{"bike_id":"5e915bdf-cc71-46ba-bf58-ef91c8d1f375","system_id":"levelo_inurba_marseille","lat":43.26214,"lon":5.37436,"is_reserved":false,"is_disabled":false,"rental_uris":{"android":"levelo://app?vid=5e915bdf-cc71-46ba-bf58-ef91c8d1f375","ios":"levelo://app?vid=5e915bdf-cc71-46ba-bf58-ef91c8d1f375"},"vehicle_type_id":"4","last_reported":1744639808,"current_range_meters":8400,"station_id":"ce4bhgp2rcd13ifvqfc0","pricing_plan_id":"cebpf4jnsgd1na2vs0mg"},{"bike_id":"3095d133-c220-41ed-9ce0-77aab5ddd6fb","system_id":"levelo_inurba_marseille","lat":43.284158,"lon":5.349786,"is_reserved":false,"is_disabled":false,"rental_uris":{"android":"levelo://app?vid=3095d133-c220-41ed-9ce0-77aab5ddd6fb","ios":"levelo://app?vid=3095d133-c220-41ed-9ce0-77aab5ddd6fb"},"vehicle_type_id":"4","last_reported":1744639808,"current_range_meters":8000,"station_id":"ce4bhbh2rcd13ifvqepg","pricing_plan_id":"cebpf4jnsgd1na2vs0mg"},{"bike_id":"bbe8c3d1-30b6-4166-ae09-eeb82d1a6005","system_id":"levelo_inurba_marseille","lat":43.29248,"lon":5.37608,"is_reserved":false,"is_disabled":false,"rental_uris":{"android":"levelo://app?vid=bbe8c3d1-30b6-4166-ae09-eeb82d1a6005","ios":"levelo://app?vid=bbe8c3d1-30b6-4166-ae09-eeb82d1a6005"},"vehicle_type_id":"4","last_reported":1744639808,"current_range_meters":8800,"station_id":"ce4bgi12rcd13ifvqb80","pricing_plan_id":"cebpf4jnsgd1na2vs0mg"},{"bike_id":"ad7aeb9c-1dd4-42bb-8227-5f190e54b2a9","system_id":"levelo_inurba_marseille","lat":43.260595,"lon":5.393961,"is_reserved":false,"is_disabled":false,"rental_uris":{"android":"levelo://app?vid=ad7aeb9c-1dd4-42bb-8227-5f190e54b2a9","ios":"levelo://app?vid=ad7aeb9c-1dd4-42bb-8227-5f190e54b2a9"},"vehicle_type_id":"4","last_reported":1744639808,"current_range_meters":8800,"station_id":"ce4bhh92rcd13ifvqfj0","pricing_plan_id":"cebpf4jnsgd1na2vs0mg"},{"bike_id":"012851f7-56cd-4d98-8bad-d55b07e5c5ae","system_id":"levelo_inurba_marseille","lat":43.28634,"lon":5.3508,"is_reserved":false,"is_disabled":false,"rental_uris":{"android":"levelo://app?vid=012851f7-56cd-4d98-8bad-d55b07e5c5ae","ios":"levelo://app?vid=012851f7-56cd-4d98-8bad-d55b07e5c5ae"},"vehicle_type_id":"4","last_reported":1744639808,"current_range_meters":9200,"station_id":"ce4bhch2rcd13ifvqeug","pricing_plan_id":"cebpf4jnsgd1na2vs0mg"},{"bike_id":"9f6ab1c5-29ed-4e05-a7d2-095394f31f82","system_id":"levelo_inurba_marseille","lat":43.30094,"lon":5.39081,"is_reserved":false,"is_disabled":false,"rental_uris":{"android":"levelo://app?vid=9f6ab1c5-29ed-4e05-a7d2-095394f31f82","ios":"levelo://app?vid=9f6ab1c5-29ed-4e05-a7d2-095394f31f82"},"vehicle_type_id":"4","last_reported":1744639808,"current_range_meters":11600,"station_id":"ce4bh192rcd13ifvqdb0","pricing_plan_id":"cebpf4jnsgd1na2vs0mg"},{"bike_id":"43a88c32-80b5-401e-85fc-fa734fddb1c3","system_id":"levelo_inurba_marseille","lat":43.29268,"lon":5.36857,"is_reserved":false,"is_disabled":false,"rental_uris":{"android":"levelo://app?vid=43a88c32-80b5-401e-85fc-fa734fddb1c3","ios":"levelo://app?vid=43a88c32-80b5-401e-85fc-fa734fddb1c3"},"vehicle_type_id":"4","last_reported":1744639808,"current_range_meters":8800,"station_id":"ce4bhbp2rcd13ifvqesg","pricing_plan_id":"cebpf4jnsgd1na2vs0mg"},{"bike_id":"117a45ac-e2a4-49a7-8c50-83dd0b216c7e","system_id":"levelo_inurba_marseille","lat":43.27062,"lon":5.40265,"is_reserved":false,"is_disabled":false,"rental_uris":{"android":"levelo://app?vid=117a45ac-e2a4-49a7-8c50-83dd0b216c7e","ios":"levelo://app?vid=117a45ac-e2a4-49a7-8c50-83dd0b216c7e"},"vehicle_type_id":"4","last_reported":1744639808,"current_range_meters":8800,"station_id":"ce4bhk92rcd13ifvqgc0","pricing_plan_id":"cebpf4jnsgd1na2vs0mg"},{"bike_id":"fe48fd1e-747c-439e-b232-6b945348d6c1","system_id":"levelo_inurba_marseille","lat":43.28467,"lon":5.35894,"is_reserved":false,"is_disabled":false,"rental_uris":{"android":"levelo://app?vid=fe48fd1e-747c-439e-b232-6b945348d6c1","ios":"levelo://app?vid=fe48fd1e-747c-439e-b232-6b945348d6c1"},"vehicle_type_id":"4","last_reported":1744639808,"current_range_meters":8800,"station_id":"ce4bhah2rcd13ifvqei0","pricing_plan_id":"cebpf4jnsgd1na2vs0mg"},{"bike_id":"293bbfe7-2edb-4ec2-9af6-b7af5ec8f759","system_id":"levelo_inurba_marseille","lat":43.25874,"lon":5.39922,"is_reserved":false,"is_disabled":false,"rental_uris":{"android":"levelo://app?vid=293bbfe7-2edb-4ec2-9af6-b7af5ec8f759","ios":"levelo://app?vid=293bbfe7-2edb-4ec2-9af6-b7af5ec8f759"},"vehicle_type_id":"4","last_reported":1744639808,"current_range_meters":8800,"station_id":"ce4bhl92rcd13ifvqghg","pricing_plan_id":"cebpf4jnsgd1na2vs0mg"},{"bike_id":"e837cd78-5648-4a3f-8280-332eca0da16f","system_id":"levelo_inurba_marseille","lat":43.26487,"lon":5.39562,"is_reserved":false,"is_disabled":false,"rental_uris":{"android":"levelo://app?vid=e837cd78-5648-4a3f-8280-332eca0da16f","ios":"levelo://app?vid=e837cd78-5648-4a3f-8280-332eca0da16f"},"vehicle_type_id":"4","last_reported":1744639808,"current_range_meters":9200,"station_id":"ce4bhi12rcd13ifvqfq0","pricing_plan_id":"cebpf4jnsgd1na2vs0mg"},{"bike_id":"be757e1c-ff0e-4dc1-a63b-afe19094c05e","system_id":"levelo_inurba_marseille","lat":43.269756,"lon":5.401403,"is_reserved":false,"is_disabled":false,"rental_uris":{"android":"levelo://app?vid=be757e1c-ff0e-4dc1-a63b-afe19094c05e","ios":"levelo://app?vid=be757e1c-ff0e-4dc1-a63b-afe19094c05e"},"vehicle_type_id":"4","last_reported":1744639808,"current_range_meters":9200,"station_id":"ce4bhgh2rcd13ifvqfb0","pricing_plan_id":"cebpf4jnsgd1na2vs0mg"},{"bike_id":"6a003e47-a1cc-4c38-b762-6e37af426d05","system_id":"levelo_inurba_marseille","lat":43.323627,"lon":5.367567,"is_reserved":false,"is_disabled":false,"rental_uris":{"android":"levelo://app?vid=6a003e47-a1cc-4c38-b762-6e37af426d05","ios":"levelo://app?vid=6a003e47-a1cc-4c38-b762-6e37af426d05"},"vehicle_type_id":"4","last_reported":1744639808,"current_range_meters":9200,"station_id":"ce4bhsh2rcd13ifvqi2g","pricing_plan_id":"cebpf4jnsgd1na2vs0mg"},{"bike_id":"eba3b291-e8d8-44f8-9326-40830fbd26d3","system_id":"levelo_inurba_marseille","lat":43.24174,"lon":5.39739,"is_reserved":false,"is_disabled":false,"rental_uris":{"android":"levelo://app?vid=eba3b291-e8d8-44f8-9326-40830fbd26d3","ios":"levelo://app?vid=eba3b291-e8d8-44f8-9326-40830fbd26d3"},"vehicle_type_id":"4","last_reported":1744639808,"current_range_meters":9200,"station_id":"ce4bhn12rcd13ifvqgpg","pricing_plan_id":"cebpf4jnsgd1na2vs0mg"},{"bike_id":"7fdb9877-dbb7-4f6d-9077-3b42b6788b58","system_id":"levelo_inurba_marseille","lat":43.28668,"lon":5.36347,"is_reserved":false,"is_disabled":false,"rental_uris":{"android":"levelo://app?vid=7fdb9877-dbb7-4f6d-9077-3b42b6788b58","ios":"levelo://app?vid=7fdb9877-dbb7-4f6d-9077-3b42b6788b58"},"vehicle_type_id":"4","last_reported":1744639808,"current_range_meters":8400,"station_id":"ce4bhah2rcd13ifvqej0","pricing_plan_id":"cebpf4jnsgd1na2vs0mg"},{"bike_id":"9111f5dc-9e8f-4ccd-ae5f-854ec681488c","system_id":"levelo_inurba_marseille","lat":43.25728,"lon":5.41107,"is_reserved":false,"is_disabled":false,"rental_uris":{"android":"levelo://app?vid=9111f5dc-9e8f-4ccd-ae5f-854ec681488c","ios":"levelo://app?vid=9111f5dc-9e8f-4ccd-ae5f-854ec681488c"},"vehicle_type_id":"4","last_reported":1744639808,"current_range_meters":8800,"station_id":"ce4bhkp2rcd13ifvqgd0","pricing_plan_id":"cebpf4jnsgd1na2vs0mg"},{"bike_id":"736a1a76-edf1-4886-ba6f-13bfd67f7161","system_id":"levelo_inurba_marseille","lat":43.28946,"lon":5.3663,"is_reserved":false,"is_disabled":false,"rental_uris":{"android":"levelo://app?vid=736a1a76-edf1-4886-ba6f-13bfd67f7161","ios":"levelo://app?vid=736a1a76-edf1-4886-ba6f-13bfd67f7161"},"vehicle_type_id":"4","last_reported":1744639808,"current_range_meters":9600,"station_id":"ce4bhap2rcd13ifvqek0","pricing_plan_id":"cebpf4jnsgd1na2vs0mg"},{"bike_id":"5cacdac6-936a-44c6-9e06-3d5924e24ab3","system_id":"levelo_inurba_marseille","lat":43.28414,"lon":5.34992,"is_reserved":false,"is_disabled":false,"rental_uris":{"android":"levelo://app?vid=5cacdac6-936a-44c6-9e06-3d5924e24ab3","ios":"levelo://app?vid=5cacdac6-936a-44c6-9e06-3d5924e24ab3"},"vehicle_type_id":"4","last_reported":1744639808,"current_range_meters":9600,"station_id":"ce4bhbh2rcd13ifvqepg","pricing_plan_id":"cebpf4jnsgd1na2vs0mg"},{"bike_id":"52467ef2-bb23-4d5a-aebd-2782338dc161","system_id":"levelo_inurba_marseille","lat":43.21192,"lon":5.3507,"is_reserved":false,"is_disabled":false,"rental_uris":{"android":"levelo://app?vid=52467ef2-bb23-4d5a-aebd-2782338dc161","ios":"levelo://app?vid=52467ef2-bb23-4d5a-aebd-2782338dc161"},"vehicle_type_id":"4","last_reported":1744639808,"current_range_meters":9600,"station_id":"st_cvj6sg6p6f1abm77japg","pricing_plan_id":"cebpf4jnsgd1na2vs0mg"},{"bike_id":"11b70944-05ec-4b03-9695-409ca8dd702e","system_id":"levelo_inurba_marseille","lat":43.28709,"lon":5.37933,"is_reserved":false,"is_disabled":false,"rental_uris":{"android":"levelo://app?vid=11b70944-05ec-4b03-9695-409ca8dd702e","ios":"levelo://app?vid=11b70944-05ec-4b03-9695-409ca8dd702e"},"vehicle_type_id":"4","last_reported":1744639808,"current_range_meters":9600,"station_id":"ce4bh9p2rcd13ifvqec0","pricing_plan_id":"cebpf4jnsgd1na2vs0mg"},{"bike_id":"c67a8b5a-c686-4db7-8864-c869a6f8142d","system_id":"levelo_inurba_marseille","lat":43.299344,"lon":5.365588,"is_reserved":false,"is_disabled":false,"rental_uris":{"android":"levelo://app?vid=c67a8b5a-c686-4db7-8864-c869a6f8142d","ios":"levelo://app?vid=c67a8b5a-c686-4db7-8864-c869a6f8142d"},"vehicle_type_id":"4","last_reported":1744639808,"current_range_meters":10000,"station_id":"ce4bgup2rcd13ifvqcn0","pricing_plan_id":"cebpf4jnsgd1na2vs0mg"},{"bike_id":"e931a8f5-1078-4a04-a56d-8cfff48676c5","system_id":"levelo_inurba_marseille","lat":43.26947,"lon":5.40258,"is_reserved":false,"is_disabled":true,"rental_uris":{"android":"levelo://app?vid=e931a8f5-1078-4a04-a56d-8cfff48676c5","ios":"levelo://app?vid=e931a8f5-1078-4a04-a56d-8cfff48676c5"},"vehicle_type_id":"4","last_reported":1744639808,"current_range_meters":10000,"station_id":"cjm6bp8fraef2m0cb0m0","pricing_plan_id":"cebpf4jnsgd1na2vs0mg"},{"bike_id":"0c7749e7-7b5c-4fdd-a511-9d72ce60594a","system_id":"levelo_inurba_marseille","lat":43.32029,"lon":5.41555,"is_reserved":false,"is_disabled":false,"rental_uris":{"android":"levelo://app?vid=0c7749e7-7b5c-4fdd-a511-9d72ce60594a","ios":"levelo://app?vid=0c7749e7-7b5c-4fdd-a511-9d72ce60594a"},"vehicle_type_id":"4","last_reported":1744639808,"current_range_meters":10000,"station_id":"ce4bhq92rcd13ifvqhkg","pricing_plan_id":"cebpf4jnsgd1na2vs0mg"},{"bike_id":"4523ebf1-1ecc-427f-aba3-89ea3e865e89","system_id":"levelo_inurba_marseille","lat":43.31231,"lon":5.36861,"is_reserved":false,"is_disabled":false,"rental_uris":{"android":"levelo://app?vid=4523ebf1-1ecc-427f-aba3-89ea3e865e89","ios":"levelo://app?vid=4523ebf1-1ecc-427f-aba3-89ea3e865e89"},"vehicle_type_id":"4","last_reported":1744639808,"current_range_meters":10800,"station_id":"ce4bgl92rcd13ifvqbq0","pricing_plan_id":"cebpf4jnsgd1na2vs0mg"},{"bike_id":"ce851968-e822-4e8e-a120-b48b2d8ab0b2","system_id":"levelo_inurba_marseille","lat":43.2799,"lon":5.41663,"is_reserved":false,"is_disabled":false,"rental_uris":{"android":"levelo://app?vid=ce851968-e822-4e8e-a120-b48b2d8ab0b2","ios":"levelo://app?vid=ce851968-e822-4e8e-a120-b48b2d8ab0b2"},"vehicle_type_id":"4","last_reported":1744639808,"current_range_meters":10800,"station_id":"ce4bho12rcd13ifvqh1g","pricing_plan_id":"cebpf4jnsgd1na2vs0mg"},{"bike_id":"87d172c6-7f79-4549-a710-1ebcc8b74a27","system_id":"levelo_inurba_marseille","lat":43.27304,"lon":5.39132,"is_reserved":false,"is_disabled":false,"rental_uris":{"android":"levelo://app?vid=87d172c6-7f79-4549-a710-1ebcc8b74a27","ios":"levelo://app?vid=87d172c6-7f79-4549-a710-1ebcc8b74a27"},"vehicle_type_id":"4","last_reported":1744639808,"current_range_meters":10800,"station_id":"ce4bhgp2rcd13ifvqfe0","pricing_plan_id":"cebpf4jnsgd1na2vs0mg"},{"bike_id":"b15a0a56-53b2-45f5-8a4b-be22b6996ecc","system_id":"levelo_inurba_marseille","lat":43.28615,"lon":5.35108,"is_reserved":false,"is_disabled":false,"rental_uris":{"android":"levelo://app?vid=b15a0a56-53b2-45f5-8a4b-be22b6996ecc","ios":"levelo://app?vid=b15a0a56-53b2-45f5-8a4b-be22b6996ecc"},"vehicle_type_id":"4","last_reported":1744639808,"current_range_meters":10800,"station_id":"ce4bhch2rcd13ifvqeug","pricing_plan_id":"cebpf4jnsgd1na2vs0mg"},{"bike_id":"7e20cc03-2548-4dfa-b067-30cb7e992b85","system_id":"levelo_inurba_marseille","lat":43.31356,"lon":5.38493,"is_reserved":false,"is_disabled":false,"rental_uris":{"android":"levelo://app?vid=7e20cc03-2548-4dfa-b067-30cb7e992b85","ios":"levelo://app?vid=7e20cc03-2548-4dfa-b067-30cb7e992b85"},"vehicle_type_id":"4","last_reported":1744639808,"current_range_meters":11200,"station_id":"ce4bgt92rcd13ifvqcf0","pricing_plan_id":"cebpf4jnsgd1na2vs0mg"},{"bike_id":"1a407b99-133d-4d84-9fc8-9415c005b08c","system_id":"levelo_inurba_marseille","lat":43.3031,"lon":5.39209,"is_reserved":false,"is_disabled":false,"rental_uris":{"android":"levelo://app?vid=1a407b99-133d-4d84-9fc8-9415c005b08c","ios":"levelo://app?vid=1a407b99-133d-4d84-9fc8-9415c005b08c"},"vehicle_type_id":"4","last_reported":1744639808,"current_range_meters":11200,"station_id":"ce4bgkh2rcd13ifvqbk0","pricing_plan_id":"cebpf4jnsgd1na2vs0mg"},{"bike_id":"9b883daf-b2d9-4c56-82ea-51a639208722","system_id":"levelo_inurba_marseille","lat":43.28719,"lon":5.37932,"is_reserved":false,"is_disabled":false,"rental_uris":{"android":"levelo://app?vid=9b883daf-b2d9-4c56-82ea-51a639208722","ios":"levelo://app?vid=9b883daf-b2d9-4c56-82ea-51a639208722"},"vehicle_type_id":"4","last_reported":1744639808,"current_range_meters":11200,"station_id":"ce4bh9p2rcd13ifvqec0","pricing_plan_id":"cebpf4jnsgd1na2vs0mg"},{"bike_id":"ea5b8562-7a34-4715-a941-420b3934be8b","system_id":"levelo_inurba_marseille","lat":43.25729,"lon":5.41108,"is_reserved":false,"is_disabled":false,"rental_uris":{"android":"levelo://app?vid=ea5b8562-7a34-4715-a941-420b3934be8b","ios":"levelo://app?vid=ea5b8562-7a34-4715-a941-420b3934be8b"},"vehicle_type_id":"4","last_reported":1744639808,"current_range_meters":11200,"station_id":"ce4bhkp2rcd13ifvqgd0","pricing_plan_id":"cebpf4jnsgd1na2vs0mg"},{"bike_id":"a92d32b7-3eb3-4558-8c61-0436825bb550","system_id":"levelo_inurba_marseille","lat":43.315001,"lon":5.373177,"is_reserved":false,"is_disabled":false,"rental_uris":{"android":"levelo://app?vid=a92d32b7-3eb3-4558-8c61-0436825bb550","ios":"levelo://app?vid=a92d32b7-3eb3-4558-8c61-0436825bb550"},"vehicle_type_id":"4","last_reported":1744639808,"current_range_meters":11200,"station_id":"ce4bgt12rcd13ifvqcd0","pricing_plan_id":"cebpf4jnsgd1na2vs0mg"},{"bike_id":"8b392184-86c7-408a-8fd2-1d581b1975c1","system_id":"levelo_inurba_marseille","lat":43.28943,"lon":5.36637,"is_reserved":false,"is_disabled":false,"rental_uris":{"android":"levelo://app?vid=8b392184-86c7-408a-8fd2-1d581b1975c1","ios":"levelo://app?vid=8b392184-86c7-408a-8fd2-1d581b1975c1"},"vehicle_type_id":"4","last_reported":1744639808,"current_range_meters":11600,"station_id":"ce4bhap2rcd13ifvqek0","pricing_plan_id":"cebpf4jnsgd1na2vs0mg"},{"bike_id":"2430af9b-dc4f-4d5c-aaf2-095fd1d97687","system_id":"levelo_inurba_marseille","lat":43.31712,"lon":5.4371,"is_reserved":false,"is_disabled":false,"rental_uris":{"android":"levelo://app?vid=2430af9b-dc4f-4d5c-aaf2-095fd1d97687","ios":"levelo://app?vid=2430af9b-dc4f-4d5c-aaf2-095fd1d97687"},"vehicle_type_id":"4","last_reported":1744639808,"current_range_meters":11200,"station_id":"ce4bhp92rcd13ifvqhcg","pricing_plan_id":"cebpf4jnsgd1na2vs0mg"},{"bike_id":"22dcabea-5522-4ea7-8d48-ca34bdbc26a4","system_id":"levelo_inurba_marseille","lat":43.24654,"lon":5.38892,"is_reserved":false,"is_disabled":false,"rental_uris":{"android":"levelo://app?vid=22dcabea-5522-4ea7-8d48-ca34bdbc26a4","ios":"levelo://app?vid=22dcabea-5522-4ea7-8d48-ca34bdbc26a4"},"vehicle_type_id":"4","last_reported":1744639808,"current_range_meters":15200,"station_id":"ce4bhg12rcd13ifvqf60","pricing_plan_id":"cebpf4jnsgd1na2vs0mg"},{"bike_id":"5c2670fe-d833-430c-ac06-96b31a5ed582","system_id":"levelo_inurba_marseille","lat":43.29217,"lon":5.36046,"is_reserved":false,"is_disabled":false,"rental_uris":{"android":"levelo://app?vid=5c2670fe-d833-430c-ac06-96b31a5ed582","ios":"levelo://app?vid=5c2670fe-d833-430c-ac06-96b31a5ed582"},"vehicle_type_id":"4","last_reported":1744639808,"current_range_meters":11600,"station_id":"ce4bhbh2rcd13ifvqeqg","pricing_plan_id":"cebpf4jnsgd1na2vs0mg"},{"bike_id":"9357e327-cb00-4fd9-852c-698a42e274fa","system_id":"levelo_inurba_marseille","lat":43.29896,"lon":5.43667,"is_reserved":false,"is_disabled":false,"rental_uris":{"android":"levelo://app?vid=9357e327-cb00-4fd9-852c-698a42e274fa","ios":"levelo://app?vid=9357e327-cb00-4fd9-852c-698a42e274fa"},"vehicle_type_id":"4","last_reported":1744639808,"current_range_meters":11600,"station_id":"ce4bhpp2rcd13ifvqhfg","pricing_plan_id":"cebpf4jnsgd1na2vs0mg"},{"bike_id":"3367c1c9-2ef8-4724-b174-26f227516fab","system_id":"levelo_inurba_marseille","lat":43.30413,"lon":5.4128,"is_reserved":false,"is_disabled":false,"rental_uris":{"android":"levelo://app?vid=3367c1c9-2ef8-4724-b174-26f227516fab","ios":"levelo://app?vid=3367c1c9-2ef8-4724-b174-26f227516fab"},"vehicle_type_id":"4","last_reported":1744639808,"current_range_meters":11600,"station_id":"ce4bhop2rcd13ifvqh8g","pricing_plan_id":"cebpf4jnsgd1na2vs0mg"},{"bike_id":"acbed144-8041-4eed-ac73-9316dd3b0185","system_id":"levelo_inurba_marseille","lat":43.29376,"lon":5.37841,"is_reserved":false,"is_disabled":false,"rental_uris":{"android":"levelo://app?vid=acbed144-8041-4eed-ac73-9316dd3b0185","ios":"levelo://app?vid=acbed144-8041-4eed-ac73-9316dd3b0185"},"vehicle_type_id":"4","last_reported":1744639808,"current_range_meters":12000,"station_id":"ce4bgjh2rcd13ifvqbf0","pricing_plan_id":"cebpf4jnsgd1na2vs0mg"},{"bike_id":"66d918cc-b678-43d1-9e88-22be189b4e75","system_id":"levelo_inurba_marseille","lat":43.29582,"lon":5.37522,"is_reserved":false,"is_disabled":false,"rental_uris":{"android":"levelo://app?vid=66d918cc-b678-43d1-9e88-22be189b4e75","ios":"levelo://app?vid=66d918cc-b678-43d1-9e88-22be189b4e75"},"vehicle_type_id":"4","last_reported":1744639808,"current_range_meters":11600,"station_id":"ce4bgh92rcd13ifvqb50","pricing_plan_id":"cebpf4jnsgd1na2vs0mg"},{"bike_id":"0fec6c2b-331e-4e11-bb36-5c4f402b4e35","system_id":"levelo_inurba_marseille","lat":43.246528,"lon":5.388918,"is_reserved":false,"is_disabled":false,"rental_uris":{"android":"levelo://app?vid=0fec6c2b-331e-4e11-bb36-5c4f402b4e35","ios":"levelo://app?vid=0fec6c2b-331e-4e11-bb36-5c4f402b4e35"},"vehicle_type_id":"4","last_reported":1744639808,"current_range_meters":12000,"station_id":"ce4bhg12rcd13ifvqf60","pricing_plan_id":"cebpf4jnsgd1na2vs0mg"},{"bike_id":"4febeb5a-9063-4e2c-8a5a-5c953faffe3a","system_id":"levelo_inurba_marseille","lat":43.30422,"lon":5.41283,"is_reserved":false,"is_disabled":false,"rental_uris":{"android":"levelo://app?vid=4febeb5a-9063-4e2c-8a5a-5c953faffe3a","ios":"levelo://app?vid=4febeb5a-9063-4e2c-8a5a-5c953faffe3a"},"vehicle_type_id":"4","last_reported":1744639808,"current_range_meters":15200,"station_id":"ce4bhop2rcd13ifvqh8g","pricing_plan_id":"cebpf4jnsgd1na2vs0mg"},{"bike_id":"47dc9716-a130-454a-a8e6-764687780f71","system_id":"levelo_inurba_marseille","lat":43.26755,"lon":5.39411,"is_reserved":false,"is_disabled":false,"rental_uris":{"android":"levelo://app?vid=47dc9716-a130-454a-a8e6-764687780f71","ios":"levelo://app?vid=47dc9716-a130-454a-a8e6-764687780f71"},"vehicle_type_id":"4","last_reported":1744639808,"current_range_meters":12400,"station_id":"ce4bhh12rcd13ifvqfg0","pricing_plan_id":"cebpf4jnsgd1na2vs0mg"},{"bike_id":"57fcf3ac-ecc0-44fb-b9ce-0fef71ab4cb6","system_id":"levelo_inurba_marseille","lat":43.33025,"lon":5.39047,"is_reserved":false,"is_disabled":false,"rental_uris":{"android":"levelo://app?vid=57fcf3ac-ecc0-44fb-b9ce-0fef71ab4cb6","ios":"levelo://app?vid=57fcf3ac-ecc0-44fb-b9ce-0fef71ab4cb6"},"vehicle_type_id":"4","last_reported":1744639808,"current_range_meters":12800,"station_id":"ce4bhr92rcd13ifvqhrg","pricing_plan_id":"cebpf4jnsgd1na2vs0mg"},{"bike_id":"fb13c941-1858-46a4-86ad-2a5e302996c3","system_id":"levelo_inurba_marseille","lat":43.258588,"lon":5.399103,"is_reserved":false,"is_disabled":true,"rental_uris":{"android":"levelo://app?vid=fb13c941-1858-46a4-86ad-2a5e302996c3","ios":"levelo://app?vid=fb13c941-1858-46a4-86ad-2a5e302996c3"},"vehicle_type_id":"4","last_reported":1744639808,"current_range_meters":12800,"station_id":"ce4bhl92rcd13ifvqghg","pricing_plan_id":"cebpf4jnsgd1na2vs0mg"},{"bike_id":"5c46828d-f205-436e-8374-d5bd37067fb4","system_id":"levelo_inurba_marseille","lat":43.28424,"lon":5.34978,"is_reserved":false,"is_disabled":false,"rental_uris":{"android":"levelo://app?vid=5c46828d-f205-436e-8374-d5bd37067fb4","ios":"levelo://app?vid=5c46828d-f205-436e-8374-d5bd37067fb4"},"vehicle_type_id":"4","last_reported":1744639808,"current_range_meters":13600,"station_id":"ce4bhbh2rcd13ifvqepg","pricing_plan_id":"cebpf4jnsgd1na2vs0mg"},{"bike_id":"9032fd9f-8258-4b06-828f-3216c8110290","system_id":"levelo_inurba_marseille","lat":43.30982,"lon":5.41734,"is_reserved":false,"is_disabled":false,"rental_uris":{"android":"levelo://app?vid=9032fd9f-8258-4b06-828f-3216c8110290","ios":"levelo://app?vid=9032fd9f-8258-4b06-828f-3216c8110290"},"vehicle_type_id":"4","last_reported":1744639808,"current_range_meters":13600,"station_id":"","pricing_plan_id":"cebpf4jnsgd1na2vs0mg"},{"bike_id":"216a8464-4ea5-4b56-8cd6-224becea39c4","system_id":"levelo_inurba_marseille","lat":43.27799,"lon":5.40711,"is_reserved":false,"is_disabled":false,"rental_uris":{"android":"levelo://app?vid=216a8464-4ea5-4b56-8cd6-224becea39c4","ios":"levelo://app?vid=216a8464-4ea5-4b56-8cd6-224becea39c4"},"vehicle_type_id":"4","last_reported":1744639808,"current_range_meters":14000,"station_id":"ce4bhnh2rcd13ifvqgtg","pricing_plan_id":"cebpf4jnsgd1na2vs0mg"},{"bike_id":"1e2ee492-e38a-4d39-8311-044521e09d28","system_id":"levelo_inurba_marseille","lat":43.28615,"lon":5.35103,"is_reserved":false,"is_disabled":false,"rental_uris":{"android":"levelo://app?vid=1e2ee492-e38a-4d39-8311-044521e09d28","ios":"levelo://app?vid=1e2ee492-e38a-4d39-8311-044521e09d28"},"vehicle_type_id":"4","last_reported":1744639808,"current_range_meters":14000,"station_id":"ce4bhch2rcd13ifvqeug","pricing_plan_id":"cebpf4jnsgd1na2vs0mg"},{"bike_id":"f1db75da-cc69-4c9e-a115-2a4c7c86b6c1","system_id":"levelo_inurba_marseille","lat":43.28271,"lon":5.35062,"is_reserved":false,"is_disabled":false,"rental_uris":{"android":"levelo://app?vid=f1db75da-cc69-4c9e-a115-2a4c7c86b6c1","ios":"levelo://app?vid=f1db75da-cc69-4c9e-a115-2a4c7c86b6c1"},"vehicle_type_id":"4","last_reported":1744639808,"current_range_meters":14000,"station_id":"ce4bhbp2rcd13ifvqerg","pricing_plan_id":"cebpf4jnsgd1na2vs0mg"},{"bike_id":"ed31e845-b620-4708-be5d-17b8711348b6","system_id":"levelo_inurba_marseille","lat":43.31174,"lon":5.38722,"is_reserved":false,"is_disabled":false,"rental_uris":{"android":"levelo://app?vid=ed31e845-b620-4708-be5d-17b8711348b6","ios":"levelo://app?vid=ed31e845-b620-4708-be5d-17b8711348b6"},"vehicle_type_id":"4","last_reported":1744639808,"current_range_meters":14400,"station_id":"ce4bgv12rcd13ifvqcp0","pricing_plan_id":"cebpf4jnsgd1na2vs0mg"},{"bike_id":"27a55245-8dd2-4f1a-af63-95a9d7b71690","system_id":"levelo_inurba_marseille","lat":43.31055,"lon":5.37868,"is_reserved":false,"is_disabled":true,"rental_uris":{"android":"levelo://app?vid=27a55245-8dd2-4f1a-af63-95a9d7b71690","ios":"levelo://app?vid=27a55245-8dd2-4f1a-af63-95a9d7b71690"},"vehicle_type_id":"4","last_reported":1744639808,"current_range_meters":14400,"station_id":"","pricing_plan_id":"cebpf4jnsgd1na2vs0mg"},{"bike_id":"06db5ecf-9b49-420c-9b77-906b3dff6f1e","system_id":"levelo_inurba_marseille","lat":43.29074,"lon":5.37191,"is_reserved":false,"is_disabled":false,"rental_uris":{"android":"levelo://app?vid=06db5ecf-9b49-420c-9b77-906b3dff6f1e","ios":"levelo://app?vid=06db5ecf-9b49-420c-9b77-906b3dff6f1e"},"vehicle_type_id":"4","last_reported":1744639808,"current_range_meters":14800,"station_id":"ce4bh5p2rcd13ifvqe4g","pricing_plan_id":"cebpf4jnsgd1na2vs0mg"},{"bike_id":"61377ee4-fd99-4c2f-b5ad-a5ac167d945b","system_id":"levelo_inurba_marseille","lat":43.23148,"lon":5.43701,"is_reserved":false,"is_disabled":false,"rental_uris":{"android":"levelo://app?vid=61377ee4-fd99-4c2f-b5ad-a5ac167d945b","ios":"levelo://app?vid=61377ee4-fd99-4c2f-b5ad-a5ac167d945b"},"vehicle_type_id":"4","last_reported":1744639808,"current_range_meters":14800,"station_id":"ce4bhmp2rcd13ifvqgog","pricing_plan_id":"cebpf4jnsgd1na2vs0mg"},{"bike_id":"b96bb010-fe3b-4912-983c-feee07ae5268","system_id":"levelo_inurba_marseille","lat":43.31709,"lon":5.37706,"is_reserved":false,"is_disabled":false,"rental_uris":{"android":"levelo://app?vid=b96bb010-fe3b-4912-983c-feee07ae5268","ios":"levelo://app?vid=b96bb010-fe3b-4912-983c-feee07ae5268"},"vehicle_type_id":"4","last_reported":1744639808,"current_range_meters":14800,"station_id":"ce4bgth2rcd13ifvqch0","pricing_plan_id":"cebpf4jnsgd1na2vs0mg"},{"bike_id":"d2f6a288-7d44-4be4-b798-932022d90e9d","system_id":"levelo_inurba_marseille","lat":43.30281,"lon":5.37696,"is_reserved":false,"is_disabled":false,"rental_uris":{"android":"levelo://app?vid=d2f6a288-7d44-4be4-b798-932022d90e9d","ios":"levelo://app?vid=d2f6a288-7d44-4be4-b798-932022d90e9d"},"vehicle_type_id":"4","last_reported":1744639808,"current_range_meters":15200,"station_id":"ce4bguh2rcd13ifvqcj0","pricing_plan_id":"cebpf4jnsgd1na2vs0mg"},{"bike_id":"e1929248-18ef-4d55-b23b-2eae75c4157b","system_id":"levelo_inurba_marseille","lat":43.29417,"lon":5.38614,"is_reserved":false,"is_disabled":false,"rental_uris":{"android":"levelo://app?vid=e1929248-18ef-4d55-b23b-2eae75c4157b","ios":"levelo://app?vid=e1929248-18ef-4d55-b23b-2eae75c4157b"},"vehicle_type_id":"4","last_reported":1744639808,"current_range_meters":15200,"station_id":"ce4bh2h2rcd13ifvqdh0","pricing_plan_id":"cebpf4jnsgd1na2vs0mg"},{"bike_id":"84e628ae-5914-4f74-97a4-2cdea25761af","system_id":"levelo_inurba_marseille","lat":43.27496,"lon":5.42451,"is_reserved":false,"is_disabled":false,"rental_uris":{"android":"levelo://app?vid=84e628ae-5914-4f74-97a4-2cdea25761af","ios":"levelo://app?vid=84e628ae-5914-4f74-97a4-2cdea25761af"},"vehicle_type_id":"4","last_reported":1744639808,"current_range_meters":12000,"station_id":"ce4bhn92rcd13ifvqgrg","pricing_plan_id":"cebpf4jnsgd1na2vs0mg"},{"bike_id":"ad5dc212-dfd0-4cc6-be0e-a0d29ed62c2f","system_id":"levelo_inurba_marseille","lat":43.29615,"lon":5.37718,"is_reserved":false,"is_disabled":false,"rental_uris":{"android":"levelo://app?vid=ad5dc212-dfd0-4cc6-be0e-a0d29ed62c2f","ios":"levelo://app?vid=ad5dc212-dfd0-4cc6-be0e-a0d29ed62c2f"},"vehicle_type_id":"4","last_reported":1744639808,"current_range_meters":15200,"station_id":"ce4bgi92rcd13ifvqb90","pricing_plan_id":"cebpf4jnsgd1na2vs0mg"},{"bike_id":"ae3021e0-c224-4506-9522-d753e70de198","system_id":"levelo_inurba_marseille","lat":43.28626,"lon":5.35115,"is_reserved":false,"is_disabled":false,"rental_uris":{"android":"levelo://app?vid=ae3021e0-c224-4506-9522-d753e70de198","ios":"levelo://app?vid=ae3021e0-c224-4506-9522-d753e70de198"},"vehicle_type_id":"4","last_reported":1744639808,"current_range_meters":16000,"station_id":"ce4bhch2rcd13ifvqeug","pricing_plan_id":"cebpf4jnsgd1na2vs0mg"},{"bike_id":"3a1a451d-26e4-4fc7-89aa-fc8eb902ad41","system_id":"levelo_inurba_marseille","lat":43.30305,"lon":5.39211,"is_reserved":false,"is_disabled":false,"rental_uris":{"android":"levelo://app?vid=3a1a451d-26e4-4fc7-89aa-fc8eb902ad41","ios":"levelo://app?vid=3a1a451d-26e4-4fc7-89aa-fc8eb902ad41"},"vehicle_type_id":"4","last_reported":1744639808,"current_range_meters":16000,"station_id":"ce4bgkh2rcd13ifvqbk0","pricing_plan_id":"cebpf4jnsgd1na2vs0mg"},{"bike_id":"7f2e4205-39d1-4bec-8a6d-b0afe9429665","system_id":"levelo_inurba_marseille","lat":43.22504,"lon":5.34784,"is_reserved":false,"is_disabled":false,"rental_uris":{"android":"levelo://app?vid=7f2e4205-39d1-4bec-8a6d-b0afe9429665","ios":"levelo://app?vid=7f2e4205-39d1-4bec-8a6d-b0afe9429665"},"vehicle_type_id":"4","last_reported":1744639808,"current_range_meters":16000,"station_id":"st_cvj5dfep6f1abm77gieg","pricing_plan_id":"cebpf4jnsgd1na2vs0mg"},{"bike_id":"7068e823-0ef7-4bec-9d46-9774d9ea3ba0","system_id":"levelo_inurba_marseille","lat":43.314898,"lon":5.372982,"is_reserved":false,"is_disabled":false,"rental_uris":{"android":"levelo://app?vid=7068e823-0ef7-4bec-9d46-9774d9ea3ba0","ios":"levelo://app?vid=7068e823-0ef7-4bec-9d46-9774d9ea3ba0"},"vehicle_type_id":"4","last_reported":1744639808,"current_range_meters":16000,"station_id":"ce4bgt12rcd13ifvqcd0","pricing_plan_id":"cebpf4jnsgd1na2vs0mg"},{"bike_id":"9481a4d4-998c-4242-822b-0b8fa3017440","system_id":"levelo_inurba_marseille","lat":43.28857,"lon":5.39339,"is_reserved":false,"is_disabled":true,"rental_uris":{"android":"levelo://app?vid=9481a4d4-998c-4242-822b-0b8fa3017440","ios":"levelo://app?vid=9481a4d4-998c-4242-822b-0b8fa3017440"},"vehicle_type_id":"4","last_reported":1744639808,"current_range_meters":16000,"station_id":"ce4bh2p2rcd13ifvqdi0","pricing_plan_id":"cebpf4jnsgd1na2vs0mg"},{"bike_id":"56135a82-d19f-45ea-a72c-58b1131d0fcb","system_id":"levelo_inurba_marseille","lat":43.280843,"lon":5.396649,"is_reserved":false,"is_disabled":true,"rental_uris":{"android":"levelo://app?vid=56135a82-d19f-45ea-a72c-58b1131d0fcb","ios":"levelo://app?vid=56135a82-d19f-45ea-a72c-58b1131d0fcb"},"vehicle_type_id":"4","last_reported":1744639808,"current_range_meters":16000,"station_id":"ce4bho12rcd13ifvqh2g","pricing_plan_id":"cebpf4jnsgd1na2vs0mg"},{"bike_id":"45024b7c-ef31-4ef3-8360-422416b68a3f","system_id":"levelo_inurba_marseille","lat":43.310665,"lon":5.400955,"is_reserved":false,"is_disabled":false,"rental_uris":{"android":"levelo://app?vid=45024b7c-ef31-4ef3-8360-422416b68a3f","ios":"levelo://app?vid=45024b7c-ef31-4ef3-8360-422416b68a3f"},"vehicle_type_id":"4","last_reported":1744639808,"current_range_meters":16000,"station_id":"","pricing_plan_id":"cebpf4jnsgd1na2vs0mg"},{"bike_id":"40db818b-5b9e-46bf-8274-264778958c39","system_id":"levelo_inurba_marseille","lat":43.23155,"lon":5.43703,"is_reserved":false,"is_disabled":false,"rental_uris":{"android":"levelo://app?vid=40db818b-5b9e-46bf-8274-264778958c39","ios":"levelo://app?vid=40db818b-5b9e-46bf-8274-264778958c39"},"vehicle_type_id":"4","last_reported":1744639808,"current_range_meters":16000,"station_id":"ce4bhmp2rcd13ifvqgog","pricing_plan_id":"cebpf4jnsgd1na2vs0mg"},{"bike_id":"48ed3751-d206-4650-bf54-31290ca142ee","system_id":"levelo_inurba_marseille","lat":43.22505,"lon":5.3478,"is_reserved":false,"is_disabled":false,"rental_uris":{"android":"levelo://app?vid=48ed3751-d206-4650-bf54-31290ca142ee","ios":"levelo://app?vid=48ed3751-d206-4650-bf54-31290ca142ee"},"vehicle_type_id":"4","last_reported":1744639808,"current_range_meters":16400,"station_id":"st_cvj5dfep6f1abm77gieg","pricing_plan_id":"cebpf4jnsgd1na2vs0mg"},{"bike_id":"45a05da7-0cfc-45ae-a992-bd8073d5cdbb","system_id":"levelo_inurba_marseille","lat":43.26774,"lon":5.39428,"is_reserved":false,"is_disabled":false,"rental_uris":{"android":"levelo://app?vid=45a05da7-0cfc-45ae-a992-bd8073d5cdbb","ios":"levelo://app?vid=45a05da7-0cfc-45ae-a992-bd8073d5cdbb"},"vehicle_type_id":"4","last_reported":1744639808,"current_range_meters":16400,"station_id":"ce4bhh12rcd13ifvqfg0","pricing_plan_id":"cebpf4jnsgd1na2vs0mg"},{"bike_id":"13b712ce-f355-4b10-aae7-a53defd965d4","system_id":"levelo_inurba_marseille","lat":43.28275,"lon":5.3506,"is_reserved":false,"is_disabled":false,"rental_uris":{"android":"levelo://app?vid=13b712ce-f355-4b10-aae7-a53defd965d4","ios":"levelo://app?vid=13b712ce-f355-4b10-aae7-a53defd965d4"},"vehicle_type_id":"4","last_reported":1744639808,"current_range_meters":16400,"station_id":"ce4bhbp2rcd13ifvqerg","pricing_plan_id":"cebpf4jnsgd1na2vs0mg"},{"bike_id":"4c7e3872-2a7d-46f3-b581-3ef46671ef50","system_id":"levelo_inurba_marseille","lat":43.26809,"lon":5.402637,"is_reserved":false,"is_disabled":false,"rental_uris":{"android":"levelo://app?vid=4c7e3872-2a7d-46f3-b581-3ef46671ef50","ios":"levelo://app?vid=4c7e3872-2a7d-46f3-b581-3ef46671ef50"},"vehicle_type_id":"4","last_reported":1744639808,"current_range_meters":16400,"station_id":"ce501612rcd8frsf0b60","pricing_plan_id":"cebpf4jnsgd1na2vs0mg"},{"bike_id":"a818834f-725d-4dbb-9bab-d3518b1b13c4","system_id":"levelo_inurba_marseille","lat":43.32363,"lon":5.36763,"is_reserved":false,"is_disabled":false,"rental_uris":{"android":"levelo://app?vid=a818834f-725d-4dbb-9bab-d3518b1b13c4","ios":"levelo://app?vid=a818834f-725d-4dbb-9bab-d3518b1b13c4"},"vehicle_type_id":"4","last_reported":1744639808,"current_range_meters":16400,"station_id":"ce4bhsh2rcd13ifvqi2g","pricing_plan_id":"cebpf4jnsgd1na2vs0mg"},{"bike_id":"4c429afc-882a-47a4-9fa9-9282c06168cf","system_id":"levelo_inurba_marseille","lat":43.272158,"lon":5.391686,"is_reserved":false,"is_disabled":false,"rental_uris":{"android":"levelo://app?vid=4c429afc-882a-47a4-9fa9-9282c06168cf","ios":"levelo://app?vid=4c429afc-882a-47a4-9fa9-9282c06168cf"},"vehicle_type_id":"4","last_reported":1744639808,"current_range_meters":14000,"station_id":"ce4bhhp2rcd13ifvqfm0","pricing_plan_id":"cebpf4jnsgd1na2vs0mg"},{"bike_id":"db237799-ff75-4730-bb0a-be39a98efad6","system_id":"levelo_inurba_marseille","lat":43.28618,"lon":5.35107,"is_reserved":false,"is_disabled":false,"rental_uris":{"android":"levelo://app?vid=db237799-ff75-4730-bb0a-be39a98efad6","ios":"levelo://app?vid=db237799-ff75-4730-bb0a-be39a98efad6"},"vehicle_type_id":"4","last_reported":1744639808,"current_range_meters":16400,"station_id":"ce4bhch2rcd13ifvqeug","pricing_plan_id":"cebpf4jnsgd1na2vs0mg"},{"bike_id":"301f53d6-0a8d-48c7-b250-860880def1f4","system_id":"levelo_inurba_marseille","lat":43.31036,"lon":5.37092,"is_reserved":false,"is_disabled":false,"rental_uris":{"android":"levelo://app?vid=301f53d6-0a8d-48c7-b250-860880def1f4","ios":"levelo://app?vid=301f53d6-0a8d-48c7-b250-860880def1f4"},"vehicle_type_id":"4","last_reported":1744639808,"current_range_meters":16800,"station_id":"","pricing_plan_id":"cebpf4jnsgd1na2vs0mg"},{"bike_id":"1adb7097-63c0-43c7-b07f-67ec6679cd9b","system_id":"levelo_inurba_marseille","lat":43.30535,"lon":5.36535,"is_reserved":false,"is_disabled":false,"rental_uris":{"android":"levelo://app?vid=1adb7097-63c0-43c7-b07f-67ec6679cd9b","ios":"levelo://app?vid=1adb7097-63c0-43c7-b07f-67ec6679cd9b"},"vehicle_type_id":"4","last_reported":1744639808,"current_range_meters":16800,"station_id":"ce4bgs12rcd13ifvqcag","pricing_plan_id":"cebpf4jnsgd1na2vs0mg"},{"bike_id":"58911e2b-6fdc-4002-baf9-c203eead2a7a","system_id":"levelo_inurba_marseille","lat":43.25109,"lon":5.40323,"is_reserved":false,"is_disabled":false,"rental_uris":{"android":"levelo://app?vid=58911e2b-6fdc-4002-baf9-c203eead2a7a","ios":"levelo://app?vid=58911e2b-6fdc-4002-baf9-c203eead2a7a"},"vehicle_type_id":"4","last_reported":1744639808,"current_range_meters":16800,"station_id":"ce4bhlh2rcd13ifvqgig","pricing_plan_id":"cebpf4jnsgd1na2vs0mg"},{"bike_id":"d6e8bc10-6cbc-43a1-b0fb-9eae701776fd","system_id":"levelo_inurba_marseille","lat":43.28613,"lon":5.37062,"is_reserved":false,"is_disabled":false,"rental_uris":{"android":"levelo://app?vid=d6e8bc10-6cbc-43a1-b0fb-9eae701776fd","ios":"levelo://app?vid=d6e8bc10-6cbc-43a1-b0fb-9eae701776fd"},"vehicle_type_id":"4","last_reported":1744639808,"current_range_meters":16800,"station_id":"ce4bht12rcd13ifvqi60","pricing_plan_id":"cebpf4jnsgd1na2vs0mg"},{"bike_id":"ef3b894f-dbff-415e-a4e9-c6ff4a4cb150","system_id":"levelo_inurba_marseille","lat":43.27946,"lon":5.4104,"is_reserved":false,"is_disabled":false,"rental_uris":{"android":"levelo://app?vid=ef3b894f-dbff-415e-a4e9-c6ff4a4cb150","ios":"levelo://app?vid=ef3b894f-dbff-415e-a4e9-c6ff4a4cb150"},"vehicle_type_id":"4","last_reported":1744639808,"current_range_meters":16800,"station_id":"ce4bhnp2rcd13ifvqh0g","pricing_plan_id":"cebpf4jnsgd1na2vs0mg"},{"bike_id":"86507adb-43c1-4a89-acc7-c74cd80a099f","system_id":"levelo_inurba_marseille","lat":43.23126,"lon":5.36661,"is_reserved":false,"is_disabled":false,"rental_uris":{"android":"levelo://app?vid=86507adb-43c1-4a89-acc7-c74cd80a099f","ios":"levelo://app?vid=86507adb-43c1-4a89-acc7-c74cd80a099f"},"vehicle_type_id":"4","last_reported":1744639808,"current_range_meters":16800,"station_id":"","pricing_plan_id":"cebpf4jnsgd1na2vs0mg"},{"bike_id":"956d29bc-46a5-4395-a0ec-d57a150a671d","system_id":"levelo_inurba_marseille","lat":43.29281,"lon":5.36875,"is_reserved":false,"is_disabled":false,"rental_uris":{"android":"levelo://app?vid=956d29bc-46a5-4395-a0ec-d57a150a671d","ios":"levelo://app?vid=956d29bc-46a5-4395-a0ec-d57a150a671d"},"vehicle_type_id":"4","last_reported":1744639808,"current_range_meters":16800,"station_id":"ce4bhbp2rcd13ifvqesg","pricing_plan_id":"cebpf4jnsgd1na2vs0mg"},{"bike_id":"936c4bbb-3a25-4a11-933c-f2feb90a987f","system_id":"levelo_inurba_marseille","lat":43.29028,"lon":5.38647,"is_reserved":false,"is_disabled":false,"rental_uris":{"android":"levelo://app?vid=936c4bbb-3a25-4a11-933c-f2feb90a987f","ios":"levelo://app?vid=936c4bbb-3a25-4a11-933c-f2feb90a987f"},"vehicle_type_id":"4","last_reported":1744639808,"current_range_meters":16800,"station_id":"ce4bh4p2rcd13ifvqe0g","pricing_plan_id":"cebpf4jnsgd1na2vs0mg"},{"bike_id":"893406b2-36e9-4c08-abf1-848e0b63221d","system_id":"levelo_inurba_marseille","lat":43.30465,"lon":5.37898,"is_reserved":false,"is_disabled":false,"rental_uris":{"android":"levelo://app?vid=893406b2-36e9-4c08-abf1-848e0b63221d","ios":"levelo://app?vid=893406b2-36e9-4c08-abf1-848e0b63221d"},"vehicle_type_id":"4","last_reported":1744639808,"current_range_meters":16800,"station_id":"ce4bgup2rcd13ifvqcn0","pricing_plan_id":"cebpf4jnsgd1na2vs0mg"},{"bike_id":"e2c4c80f-5835-4f90-bbd6-6600f3f187db","system_id":"levelo_inurba_marseille","lat":43.2848,"lon":5.38423,"is_reserved":false,"is_disabled":false,"rental_uris":{"android":"levelo://app?vid=e2c4c80f-5835-4f90-bbd6-6600f3f187db","ios":"levelo://app?vid=e2c4c80f-5835-4f90-bbd6-6600f3f187db"},"vehicle_type_id":"4","last_reported":1744639808,"current_range_meters":16800,"station_id":"ce4bh512rcd13ifvqe3g","pricing_plan_id":"cebpf4jnsgd1na2vs0mg"},{"bike_id":"766a4fb7-8a1e-4535-8efc-7f3f3e7c9e23","system_id":"levelo_inurba_marseille","lat":43.30417,"lon":5.41281,"is_reserved":false,"is_disabled":false,"rental_uris":{"android":"levelo://app?vid=766a4fb7-8a1e-4535-8efc-7f3f3e7c9e23","ios":"levelo://app?vid=766a4fb7-8a1e-4535-8efc-7f3f3e7c9e23"},"vehicle_type_id":"4","last_reported":1744639808,"current_range_meters":17200,"station_id":"ce4bhop2rcd13ifvqh8g","pricing_plan_id":"cebpf4jnsgd1na2vs0mg"},{"bike_id":"e9d54cde-a10b-4741-af13-02eff7ca13c1","system_id":"levelo_inurba_marseille","lat":43.26507,"lon":5.39531,"is_reserved":false,"is_disabled":false,"rental_uris":{"android":"levelo://app?vid=e9d54cde-a10b-4741-af13-02eff7ca13c1","ios":"levelo://app?vid=e9d54cde-a10b-4741-af13-02eff7ca13c1"},"vehicle_type_id":"4","last_reported":1744639808,"current_range_meters":17200,"station_id":"ce4bhi12rcd13ifvqfq0","pricing_plan_id":"cebpf4jnsgd1na2vs0mg"},{"bike_id":"ec55715f-50ef-4b62-b932-d89df8729be7","system_id":"levelo_inurba_marseille","lat":43.31581,"lon":5.3886,"is_reserved":false,"is_disabled":false,"rental_uris":{"android":"levelo://app?vid=ec55715f-50ef-4b62-b932-d89df8729be7","ios":"levelo://app?vid=ec55715f-50ef-4b62-b932-d89df8729be7"},"vehicle_type_id":"4","last_reported":1744639808,"current_range_meters":17200,"station_id":"","pricing_plan_id":"cebpf4jnsgd1na2vs0mg"},{"bike_id":"b01c0c14-6100-4b8a-b7f1-e7135adc6a45","system_id":"levelo_inurba_marseille","lat":43.30145,"lon":5.37413,"is_reserved":false,"is_disabled":false,"rental_uris":{"android":"levelo://app?vid=b01c0c14-6100-4b8a-b7f1-e7135adc6a45","ios":"levelo://app?vid=b01c0c14-6100-4b8a-b7f1-e7135adc6a45"},"vehicle_type_id":"4","last_reported":1744639808,"current_range_meters":17200,"station_id":"ce4bgs92rcd13ifvqcc0","pricing_plan_id":"cebpf4jnsgd1na2vs0mg"},{"bike_id":"37342bdf-d586-43ba-a25b-da22b3393da6","system_id":"levelo_inurba_marseille","lat":43.29171,"lon":5.37509,"is_reserved":false,"is_disabled":false,"rental_uris":{"android":"levelo://app?vid=37342bdf-d586-43ba-a25b-da22b3393da6","ios":"levelo://app?vid=37342bdf-d586-43ba-a25b-da22b3393da6"},"vehicle_type_id":"4","last_reported":1744639808,"current_range_meters":17200,"station_id":"","pricing_plan_id":"cebpf4jnsgd1na2vs0mg"},{"bike_id":"382a1a40-cce5-4bcf-8677-ad51fb5a2457","system_id":"levelo_inurba_marseille","lat":43.28866,"lon":5.39326,"is_reserved":false,"is_disabled":true,"rental_uris":{"android":"levelo://app?vid=382a1a40-cce5-4bcf-8677-ad51fb5a2457","ios":"levelo://app?vid=382a1a40-cce5-4bcf-8677-ad51fb5a2457"},"vehicle_type_id":"4","last_reported":1744639808,"current_range_meters":17600,"station_id":"ce4bh2p2rcd13ifvqdi0","pricing_plan_id":"cebpf4jnsgd1na2vs0mg"},{"bike_id":"8f96594d-34c4-4499-94ef-67e3fa8afec3","system_id":"levelo_inurba_marseille","lat":43.29864,"lon":5.39738,"is_reserved":false,"is_disabled":false,"rental_uris":{"android":"levelo://app?vid=8f96594d-34c4-4499-94ef-67e3fa8afec3","ios":"levelo://app?vid=8f96594d-34c4-4499-94ef-67e3fa8afec3"},"vehicle_type_id":"4","last_reported":1744639808,"current_range_meters":17600,"station_id":"ce4bh0h2rcd13ifvqd50","pricing_plan_id":"cebpf4jnsgd1na2vs0mg"},{"bike_id":"26fa79ff-c461-4a2f-823c-6575e1e09dce","system_id":"levelo_inurba_marseille","lat":43.26772,"lon":5.39415,"is_reserved":false,"is_disabled":false,"rental_uris":{"android":"levelo://app?vid=26fa79ff-c461-4a2f-823c-6575e1e09dce","ios":"levelo://app?vid=26fa79ff-c461-4a2f-823c-6575e1e09dce"},"vehicle_type_id":"4","last_reported":1744639808,"current_range_meters":17600,"station_id":"ce4bhh12rcd13ifvqfg0","pricing_plan_id":"cebpf4jnsgd1na2vs0mg"},{"bike_id":"c0749603-8d8e-49eb-a1a0-b71e7a9eaacd","system_id":"levelo_inurba_marseille","lat":43.28491,"lon":5.38418,"is_reserved":false,"is_disabled":false,"rental_uris":{"android":"levelo://app?vid=c0749603-8d8e-49eb-a1a0-b71e7a9eaacd","ios":"levelo://app?vid=c0749603-8d8e-49eb-a1a0-b71e7a9eaacd"},"vehicle_type_id":"4","last_reported":1744639808,"current_range_meters":18000,"station_id":"ce4bh512rcd13ifvqe3g","pricing_plan_id":"cebpf4jnsgd1na2vs0mg"},{"bike_id":"67d12b7b-e910-4424-80eb-f4f6c933d252","system_id":"levelo_inurba_marseille","lat":43.27206,"lon":5.39179,"is_reserved":false,"is_disabled":false,"rental_uris":{"android":"levelo://app?vid=67d12b7b-e910-4424-80eb-f4f6c933d252","ios":"levelo://app?vid=67d12b7b-e910-4424-80eb-f4f6c933d252"},"vehicle_type_id":"4","last_reported":1744639808,"current_range_meters":18000,"station_id":"ce4bhhp2rcd13ifvqfm0","pricing_plan_id":"cebpf4jnsgd1na2vs0mg"},{"bike_id":"529a56ec-a979-47fd-a4fa-e431dfce51e0","system_id":"levelo_inurba_marseille","lat":43.29029,"lon":5.37561,"is_reserved":false,"is_disabled":false,"rental_uris":{"android":"levelo://app?vid=529a56ec-a979-47fd-a4fa-e431dfce51e0","ios":"levelo://app?vid=529a56ec-a979-47fd-a4fa-e431dfce51e0"},"vehicle_type_id":"4","last_reported":1744639808,"current_range_meters":18000,"station_id":"ce4bh692rcd13ifvqe90","pricing_plan_id":"cebpf4jnsgd1na2vs0mg"},{"bike_id":"3f077539-f3f6-4bef-b50d-79005cba6892","system_id":"levelo_inurba_marseille","lat":43.2903,"lon":5.37558,"is_reserved":false,"is_disabled":false,"rental_uris":{"android":"levelo://app?vid=3f077539-f3f6-4bef-b50d-79005cba6892","ios":"levelo://app?vid=3f077539-f3f6-4bef-b50d-79005cba6892"},"vehicle_type_id":"4","last_reported":1744639808,"current_range_meters":18000,"station_id":"ce4bh692rcd13ifvqe90","pricing_plan_id":"cebpf4jnsgd1na2vs0mg"},{"bike_id":"d2d37f01-fa46-4fbc-a721-7789f4003663","system_id":"levelo_inurba_marseille","lat":43.24986,"lon":5.38967,"is_reserved":false,"is_disabled":false,"rental_uris":{"android":"levelo://app?vid=d2d37f01-fa46-4fbc-a721-7789f4003663","ios":"levelo://app?vid=d2d37f01-fa46-4fbc-a721-7789f4003663"},"vehicle_type_id":"4","last_reported":1744639808,"current_range_meters":18000,"station_id":"ce4bhgp2rcd13ifvqfd0","pricing_plan_id":"cebpf4jnsgd1na2vs0mg"},{"bike_id":"eafb5054-a0a1-4374-8ca2-2af38ce8f97b","system_id":"levelo_inurba_marseille","lat":43.29094,"lon":5.38163,"is_reserved":false,"is_disabled":false,"rental_uris":{"android":"levelo://app?vid=eafb5054-a0a1-4374-8ca2-2af38ce8f97b","ios":"levelo://app?vid=eafb5054-a0a1-4374-8ca2-2af38ce8f97b"},"vehicle_type_id":"4","last_reported":1744639808,"current_range_meters":18000,"station_id":"ce4bh512rcd13ifvqe2g","pricing_plan_id":"cebpf4jnsgd1na2vs0mg"},{"bike_id":"429af4a2-bb97-48c7-9d90-43e7648ff585","system_id":"levelo_inurba_marseille","lat":43.292856,"lon":5.401242,"is_reserved":false,"is_disabled":false,"rental_uris":{"android":"levelo://app?vid=429af4a2-bb97-48c7-9d90-43e7648ff585","ios":"levelo://app?vid=429af4a2-bb97-48c7-9d90-43e7648ff585"},"vehicle_type_id":"4","last_reported":1744639808,"current_range_meters":18000,"station_id":"ce4bh312rcd13ifvqdk0","pricing_plan_id":"cebpf4jnsgd1na2vs0mg"},{"bike_id":"205a676e-388e-4b5d-b5d4-92bca6b76c07","system_id":"levelo_inurba_marseille","lat":43.31155,"lon":5.38016,"is_reserved":false,"is_disabled":true,"rental_uris":{"android":"levelo://app?vid=205a676e-388e-4b5d-b5d4-92bca6b76c07","ios":"levelo://app?vid=205a676e-388e-4b5d-b5d4-92bca6b76c07"},"vehicle_type_id":"4","last_reported":1744639808,"current_range_meters":18000,"station_id":"","pricing_plan_id":"cebpf4jnsgd1na2vs0mg"},{"bike_id":"a5e47f7b-0a38-443d-a0f3-9d55c8ecd5c8","system_id":"levelo_inurba_marseille","lat":43.32974,"lon":5.39391,"is_reserved":false,"is_disabled":false,"rental_uris":{"android":"levelo://app?vid=a5e47f7b-0a38-443d-a0f3-9d55c8ecd5c8","ios":"levelo://app?vid=a5e47f7b-0a38-443d-a0f3-9d55c8ecd5c8"},"vehicle_type_id":"4","last_reported":1744639808,"current_range_meters":20000,"station_id":"","pricing_plan_id":"cebpf4jnsgd1na2vs0mg"},{"bike_id":"8219ad35-60a5-47e6-a4b6-d3c1e9726111","system_id":"levelo_inurba_marseille","lat":43.268016,"lon":5.402665,"is_reserved":false,"is_disabled":false,"rental_uris":{"android":"levelo://app?vid=8219ad35-60a5-47e6-a4b6-d3c1e9726111","ios":"levelo://app?vid=8219ad35-60a5-47e6-a4b6-d3c1e9726111"},"vehicle_type_id":"4","last_reported":1744639808,"current_range_meters":18800,"station_id":"ce501612rcd8frsf0b60","pricing_plan_id":"cebpf4jnsgd1na2vs0mg"},{"bike_id":"7d0e547c-28c2-4f2e-9905-d576374036c0","system_id":"levelo_inurba_marseille","lat":43.28477,"lon":5.38423,"is_reserved":false,"is_disabled":false,"rental_uris":{"android":"levelo://app?vid=7d0e547c-28c2-4f2e-9905-d576374036c0","ios":"levelo://app?vid=7d0e547c-28c2-4f2e-9905-d576374036c0"},"vehicle_type_id":"4","last_reported":1744639808,"current_range_meters":18800,"station_id":"ce4bh512rcd13ifvqe3g","pricing_plan_id":"cebpf4jnsgd1na2vs0mg"},{"bike_id":"b3ea20ce-5604-45b6-ace7-cad39f4f56d5","system_id":"levelo_inurba_marseille","lat":43.29689,"lon":5.3636,"is_reserved":false,"is_disabled":false,"rental_uris":{"android":"levelo://app?vid=b3ea20ce-5604-45b6-ace7-cad39f4f56d5","ios":"levelo://app?vid=b3ea20ce-5604-45b6-ace7-cad39f4f56d5"},"vehicle_type_id":"4","last_reported":1744639808,"current_range_meters":18800,"station_id":"","pricing_plan_id":"cebpf4jnsgd1na2vs0mg"},{"bike_id":"649d3b60-3b3b-4107-a860-1e6946ade7c6","system_id":"levelo_inurba_marseille","lat":43.26786,"lon":5.39416,"is_reserved":false,"is_disabled":false,"rental_uris":{"android":"levelo://app?vid=649d3b60-3b3b-4107-a860-1e6946ade7c6","ios":"levelo://app?vid=649d3b60-3b3b-4107-a860-1e6946ade7c6"},"vehicle_type_id":"4","last_reported":1744639808,"current_range_meters":18800,"station_id":"ce4bhh12rcd13ifvqfg0","pricing_plan_id":"cebpf4jnsgd1na2vs0mg"},{"bike_id":"8ba8da06-09b4-4e35-9af5-e823a105a352","system_id":"levelo_inurba_marseille","lat":43.23067,"lon":5.35492,"is_reserved":false,"is_disabled":false,"rental_uris":{"android":"levelo://app?vid=8ba8da06-09b4-4e35-9af5-e823a105a352","ios":"levelo://app?vid=8ba8da06-09b4-4e35-9af5-e823a105a352"},"vehicle_type_id":"4","last_reported":1744639808,"current_range_meters":18800,"station_id":"cpo3342slgdg3j2ifvpg","pricing_plan_id":"cebpf4jnsgd1na2vs0mg"},{"bike_id":"6f80c36f-8ece-4f1d-8f7c-7f22ab09743d","system_id":"levelo_inurba_marseille","lat":43.29416,"lon":5.38619,"is_reserved":false,"is_disabled":false,"rental_uris":{"android":"levelo://app?vid=6f80c36f-8ece-4f1d-8f7c-7f22ab09743d","ios":"levelo://app?vid=6f80c36f-8ece-4f1d-8f7c-7f22ab09743d"},"vehicle_type_id":"4","last_reported":1744639808,"current_range_meters":18000,"station_id":"ce4bh2h2rcd13ifvqdh0","pricing_plan_id":"cebpf4jnsgd1na2vs0mg"},{"bike_id":"220e7ac1-88e0-48ac-aded-57384ff09137","system_id":"levelo_inurba_marseille","lat":43.26064,"lon":5.39397,"is_reserved":false,"is_disabled":false,"rental_uris":{"android":"levelo://app?vid=220e7ac1-88e0-48ac-aded-57384ff09137","ios":"levelo://app?vid=220e7ac1-88e0-48ac-aded-57384ff09137"},"vehicle_type_id":"4","last_reported":1744639808,"current_range_meters":18800,"station_id":"ce4bhh92rcd13ifvqfj0","pricing_plan_id":"cebpf4jnsgd1na2vs0mg"},{"bike_id":"54a94a5d-035d-4e20-80bd-255b8b4cb65b","system_id":"levelo_inurba_marseille","lat":43.225,"lon":5.34793,"is_reserved":false,"is_disabled":false,"rental_uris":{"android":"levelo://app?vid=54a94a5d-035d-4e20-80bd-255b8b4cb65b","ios":"levelo://app?vid=54a94a5d-035d-4e20-80bd-255b8b4cb65b"},"vehicle_type_id":"4","last_reported":1744639808,"current_range_meters":18800,"station_id":"st_cvj5dfep6f1abm77gieg","pricing_plan_id":"cebpf4jnsgd1na2vs0mg"},{"bike_id":"87d0950b-734e-44fa-b6ab-aa8962b41553","system_id":"levelo_inurba_marseille","lat":43.30421,"lon":5.41276,"is_reserved":false,"is_disabled":false,"rental_uris":{"android":"levelo://app?vid=87d0950b-734e-44fa-b6ab-aa8962b41553","ios":"levelo://app?vid=87d0950b-734e-44fa-b6ab-aa8962b41553"},"vehicle_type_id":"4","last_reported":1744639808,"current_range_meters":19200,"station_id":"ce4bhop2rcd13ifvqh8g","pricing_plan_id":"cebpf4jnsgd1na2vs0mg"},{"bike_id":"5f0aa161-f65e-47e2-ba3a-54642cd9adb2","system_id":"levelo_inurba_marseille","lat":43.25939,"lon":5.40904,"is_reserved":false,"is_disabled":false,"rental_uris":{"android":"levelo://app?vid=5f0aa161-f65e-47e2-ba3a-54642cd9adb2","ios":"levelo://app?vid=5f0aa161-f65e-47e2-ba3a-54642cd9adb2"},"vehicle_type_id":"4","last_reported":1744639808,"current_range_meters":19200,"station_id":"ce4bhm92rcd13ifvqglg","pricing_plan_id":"cebpf4jnsgd1na2vs0mg"},{"bike_id":"fbacecab-fdbc-437f-ad37-ef07ea1c1eac","system_id":"levelo_inurba_marseille","lat":43.30485,"lon":5.36569,"is_reserved":false,"is_disabled":false,"rental_uris":{"android":"levelo://app?vid=fbacecab-fdbc-437f-ad37-ef07ea1c1eac","ios":"levelo://app?vid=fbacecab-fdbc-437f-ad37-ef07ea1c1eac"},"vehicle_type_id":"4","last_reported":1744639808,"current_range_meters":19200,"station_id":"","pricing_plan_id":"cebpf4jnsgd1na2vs0mg"},{"bike_id":"69330968-31be-4072-8333-3419318ec490","system_id":"levelo_inurba_marseille","lat":43.29259,"lon":5.37629,"is_reserved":false,"is_disabled":false,"rental_uris":{"android":"levelo://app?vid=69330968-31be-4072-8333-3419318ec490","ios":"levelo://app?vid=69330968-31be-4072-8333-3419318ec490"},"vehicle_type_id":"4","last_reported":1744639808,"current_range_meters":19200,"station_id":"ce4bgi12rcd13ifvqb80","pricing_plan_id":"cebpf4jnsgd1na2vs0mg"},{"bike_id":"40e32cee-9c94-4ec8-8cc1-dfc745c5629a","system_id":"levelo_inurba_marseille","lat":43.24174,"lon":5.36396,"is_reserved":false,"is_disabled":false,"rental_uris":{"android":"levelo://app?vid=40e32cee-9c94-4ec8-8cc1-dfc745c5629a","ios":"levelo://app?vid=40e32cee-9c94-4ec8-8cc1-dfc745c5629a"},"vehicle_type_id":"4","last_reported":1744639808,"current_range_meters":19200,"station_id":"cpo36qri1sfpv3e86is0","pricing_plan_id":"cebpf4jnsgd1na2vs0mg"},{"bike_id":"f9ba4992-46a4-49ca-ac93-831a1f008632","system_id":"levelo_inurba_marseille","lat":43.2979,"lon":5.39337,"is_reserved":false,"is_disabled":false,"rental_uris":{"android":"levelo://app?vid=f9ba4992-46a4-49ca-ac93-831a1f008632","ios":"levelo://app?vid=f9ba4992-46a4-49ca-ac93-831a1f008632"},"vehicle_type_id":"4","last_reported":1744639808,"current_range_meters":18800,"station_id":"chh1huq6cuj3fo74tm60","pricing_plan_id":"cebpf4jnsgd1na2vs0mg"},{"bike_id":"53857d77-149e-4e7b-8a6b-f327796b10f8","system_id":"levelo_inurba_marseille","lat":43.308,"lon":5.38154,"is_reserved":false,"is_disabled":false,"rental_uris":{"android":"levelo://app?vid=53857d77-149e-4e7b-8a6b-f327796b10f8","ios":"levelo://app?vid=53857d77-149e-4e7b-8a6b-f327796b10f8"},"vehicle_type_id":"4","last_reported":1744639808,"current_range_meters":18800,"station_id":"ce4bgt12rcd13ifvqce0","pricing_plan_id":"cebpf4jnsgd1na2vs0mg"},{"bike_id":"3b8ebf16-c736-4754-8798-240c46534420","system_id":"levelo_inurba_marseille","lat":43.27066,"lon":5.4228,"is_reserved":false,"is_disabled":false,"rental_uris":{"android":"levelo://app?vid=3b8ebf16-c736-4754-8798-240c46534420","ios":"levelo://app?vid=3b8ebf16-c736-4754-8798-240c46534420"},"vehicle_type_id":"4","last_reported":1744639808,"current_range_meters":19600,"station_id":"ce4bhk92rcd13ifvqgb0","pricing_plan_id":"cebpf4jnsgd1na2vs0mg"},{"bike_id":"33f29b75-f4e6-4e71-a299-29a3904a9b72","system_id":"levelo_inurba_marseille","lat":43.34154,"lon":5.4091,"is_reserved":false,"is_disabled":false,"rental_uris":{"android":"levelo://app?vid=33f29b75-f4e6-4e71-a299-29a3904a9b72","ios":"levelo://app?vid=33f29b75-f4e6-4e71-a299-29a3904a9b72"},"vehicle_type_id":"4","last_reported":1744639808,"current_range_meters":19600,"station_id":"ce4bhqh2rcd13ifvqhlg","pricing_plan_id":"cebpf4jnsgd1na2vs0mg"},{"bike_id":"f6b9f22e-1eb9-4623-9836-1e9eaa331529","system_id":"levelo_inurba_marseille","lat":43.28936,"lon":5.36635,"is_reserved":false,"is_disabled":false,"rental_uris":{"android":"levelo://app?vid=f6b9f22e-1eb9-4623-9836-1e9eaa331529","ios":"levelo://app?vid=f6b9f22e-1eb9-4623-9836-1e9eaa331529"},"vehicle_type_id":"4","last_reported":1744639808,"current_range_meters":19200,"station_id":"ce4bhap2rcd13ifvqek0","pricing_plan_id":"cebpf4jnsgd1na2vs0mg"},{"bike_id":"38253d02-ad14-44b6-886f-2a300cf100de","system_id":"levelo_inurba_marseille","lat":43.28156,"lon":5.4265,"is_reserved":false,"is_disabled":false,"rental_uris":{"android":"levelo://app?vid=38253d02-ad14-44b6-886f-2a300cf100de","ios":"levelo://app?vid=38253d02-ad14-44b6-886f-2a300cf100de"},"vehicle_type_id":"4","last_reported":1744639808,"current_range_meters":19200,"station_id":"ce4bhnh2rcd13ifvqgug","pricing_plan_id":"cebpf4jnsgd1na2vs0mg"},{"bike_id":"7eacb872-0584-4b06-8fad-feb612d3799a","system_id":"levelo_inurba_marseille","lat":43.29701,"lon":5.38122,"is_reserved":false,"is_disabled":false,"rental_uris":{"android":"levelo://app?vid=7eacb872-0584-4b06-8fad-feb612d3799a","ios":"levelo://app?vid=7eacb872-0584-4b06-8fad-feb612d3799a"},"vehicle_type_id":"4","last_reported":1744639808,"current_range_meters":20000,"station_id":"","pricing_plan_id":"cebpf4jnsgd1na2vs0mg"},{"bike_id":"a4f5419a-50a0-419f-bbd9-3fd2e6b6f619","system_id":"levelo_inurba_marseille","lat":43.2316,"lon":5.43709,"is_reserved":false,"is_disabled":false,"rental_uris":{"android":"levelo://app?vid=a4f5419a-50a0-419f-bbd9-3fd2e6b6f619","ios":"levelo://app?vid=a4f5419a-50a0-419f-bbd9-3fd2e6b6f619"},"vehicle_type_id":"4","last_reported":1744639808,"current_range_meters":20000,"station_id":"ce4bhmp2rcd13ifvqgog","pricing_plan_id":"cebpf4jnsgd1na2vs0mg"},{"bike_id":"55d86067-d6c7-421d-843c-07a22861c1a2","system_id":"levelo_inurba_marseille","lat":43.29602,"lon":5.3809,"is_reserved":false,"is_disabled":false,"rental_uris":{"android":"levelo://app?vid=55d86067-d6c7-421d-843c-07a22861c1a2","ios":"levelo://app?vid=55d86067-d6c7-421d-843c-07a22861c1a2"},"vehicle_type_id":"4","last_reported":1744639808,"current_range_meters":20400,"station_id":"ce4bgl12rcd13ifvqbo0","pricing_plan_id":"cebpf4jnsgd1na2vs0mg"},{"bike_id":"b6d1e5d3-3e5a-4cd4-a1a6-2cfc22462c24","system_id":"levelo_inurba_marseille","lat":43.28945,"lon":5.3664,"is_reserved":false,"is_disabled":false,"rental_uris":{"android":"levelo://app?vid=b6d1e5d3-3e5a-4cd4-a1a6-2cfc22462c24","ios":"levelo://app?vid=b6d1e5d3-3e5a-4cd4-a1a6-2cfc22462c24"},"vehicle_type_id":"4","last_reported":1744639808,"current_range_meters":20000,"station_id":"ce4bhap2rcd13ifvqek0","pricing_plan_id":"cebpf4jnsgd1na2vs0mg"},{"bike_id":"33fee0d6-be41-4eb8-ba49-0436c300cb71","system_id":"levelo_inurba_marseille","lat":43.31368,"lon":5.36744,"is_reserved":false,"is_disabled":false,"rental_uris":{"android":"levelo://app?vid=33fee0d6-be41-4eb8-ba49-0436c300cb71","ios":"levelo://app?vid=33fee0d6-be41-4eb8-ba49-0436c300cb71"},"vehicle_type_id":"4","last_reported":1744639808,"current_range_meters":20000,"station_id":"ce4bgr92rcd13ifvqc6g","pricing_plan_id":"cebpf4jnsgd1na2vs0mg"},{"bike_id":"e2b5c1c3-8a61-4de4-a851-cf768b759e51","system_id":"levelo_inurba_marseille","lat":43.24175,"lon":5.39738,"is_reserved":false,"is_disabled":false,"rental_uris":{"android":"levelo://app?vid=e2b5c1c3-8a61-4de4-a851-cf768b759e51","ios":"levelo://app?vid=e2b5c1c3-8a61-4de4-a851-cf768b759e51"},"vehicle_type_id":"4","last_reported":1744639808,"current_range_meters":20400,"station_id":"ce4bhn12rcd13ifvqgpg","pricing_plan_id":"cebpf4jnsgd1na2vs0mg"},{"bike_id":"c6ee9bf3-edf4-45e1-81a2-e606945d1bf4","system_id":"levelo_inurba_marseille","lat":43.29269,"lon":5.3846,"is_reserved":false,"is_disabled":false,"rental_uris":{"android":"levelo://app?vid=c6ee9bf3-edf4-45e1-81a2-e606945d1bf4","ios":"levelo://app?vid=c6ee9bf3-edf4-45e1-81a2-e606945d1bf4"},"vehicle_type_id":"4","last_reported":1744639808,"current_range_meters":20400,"station_id":"ce4bh692rcd13ifvqea0","pricing_plan_id":"cebpf4jnsgd1na2vs0mg"},{"bike_id":"4bfbe19f-dfc9-49f3-9268-0352c4598b07","system_id":"levelo_inurba_marseille","lat":43.269592,"lon":5.421613,"is_reserved":false,"is_disabled":false,"rental_uris":{"android":"levelo://app?vid=4bfbe19f-dfc9-49f3-9268-0352c4598b07","ios":"levelo://app?vid=4bfbe19f-dfc9-49f3-9268-0352c4598b07"},"vehicle_type_id":"4","last_reported":1744639808,"current_range_meters":17600,"station_id":"ce4bhk92rcd13ifvqgb0","pricing_plan_id":"cebpf4jnsgd1na2vs0mg"},{"bike_id":"1cfe611b-8d4a-4f30-b047-3d1f7dd619be","system_id":"levelo_inurba_marseille","lat":43.28622,"lon":5.35107,"is_reserved":false,"is_disabled":false,"rental_uris":{"android":"levelo://app?vid=1cfe611b-8d4a-4f30-b047-3d1f7dd619be","ios":"levelo://app?vid=1cfe611b-8d4a-4f30-b047-3d1f7dd619be"},"vehicle_type_id":"4","last_reported":1744639808,"current_range_meters":20800,"station_id":"ce4bhch2rcd13ifvqeug","pricing_plan_id":"cebpf4jnsgd1na2vs0mg"},{"bike_id":"9887e4f6-cfa3-49aa-b26b-65ccc19c38f9","system_id":"levelo_inurba_marseille","lat":43.26211,"lon":5.37434,"is_reserved":false,"is_disabled":false,"rental_uris":{"android":"levelo://app?vid=9887e4f6-cfa3-49aa-b26b-65ccc19c38f9","ios":"levelo://app?vid=9887e4f6-cfa3-49aa-b26b-65ccc19c38f9"},"vehicle_type_id":"4","last_reported":1744639808,"current_range_meters":20800,"station_id":"ce4bhgp2rcd13ifvqfc0","pricing_plan_id":"cebpf4jnsgd1na2vs0mg"},{"bike_id":"fa4de665-504d-4abb-bd9b-1bd99b12435d","system_id":"levelo_inurba_marseille","lat":43.275,"lon":5.42453,"is_reserved":false,"is_disabled":false,"rental_uris":{"android":"levelo://app?vid=fa4de665-504d-4abb-bd9b-1bd99b12435d","ios":"levelo://app?vid=fa4de665-504d-4abb-bd9b-1bd99b12435d"},"vehicle_type_id":"4","last_reported":1744639808,"current_range_meters":20800,"station_id":"ce4bhn92rcd13ifvqgrg","pricing_plan_id":"cebpf4jnsgd1na2vs0mg"},{"bike_id":"0dbb8451-6fbf-4474-9639-bd687b68c8c2","system_id":"levelo_inurba_marseille","lat":43.32583,"lon":5.36153,"is_reserved":false,"is_disabled":false,"rental_uris":{"android":"levelo://app?vid=0dbb8451-6fbf-4474-9639-bd687b68c8c2","ios":"levelo://app?vid=0dbb8451-6fbf-4474-9639-bd687b68c8c2"},"vehicle_type_id":"4","last_reported":1744639808,"current_range_meters":20800,"station_id":"","pricing_plan_id":"cebpf4jnsgd1na2vs0mg"},{"bike_id":"48b7de01-2542-4f37-9ec7-c1fda2be3d48","system_id":"levelo_inurba_marseille","lat":43.25496,"lon":5.37655,"is_reserved":false,"is_disabled":false,"rental_uris":{"android":"levelo://app?vid=48b7de01-2542-4f37-9ec7-c1fda2be3d48","ios":"levelo://app?vid=48b7de01-2542-4f37-9ec7-c1fda2be3d48"},"vehicle_type_id":"4","last_reported":1744639808,"current_range_meters":20800,"station_id":"ce4bhh12rcd13ifvqff0","pricing_plan_id":"cebpf4jnsgd1na2vs0mg"},{"bike_id":"84adb4d9-77f2-44ca-b726-c1b21fe9faa4","system_id":"levelo_inurba_marseille","lat":43.32479,"lon":5.36564,"is_reserved":false,"is_disabled":false,"rental_uris":{"android":"levelo://app?vid=84adb4d9-77f2-44ca-b726-c1b21fe9faa4","ios":"levelo://app?vid=84adb4d9-77f2-44ca-b726-c1b21fe9faa4"},"vehicle_type_id":"4","last_reported":1744639808,"current_range_meters":20800,"station_id":"ce4bhs12rcd13ifvqhvg","pricing_plan_id":"cebpf4jnsgd1na2vs0mg"},{"bike_id":"05664e36-336b-404a-b8de-2ca42d4238f0","system_id":"levelo_inurba_marseille","lat":43.24998,"lon":5.38187,"is_reserved":false,"is_disabled":false,"rental_uris":{"android":"levelo://app?vid=05664e36-336b-404a-b8de-2ca42d4238f0","ios":"levelo://app?vid=05664e36-336b-404a-b8de-2ca42d4238f0"},"vehicle_type_id":"4","last_reported":1744639808,"current_range_meters":20800,"station_id":"","pricing_plan_id":"cebpf4jnsgd1na2vs0mg"},{"bike_id":"e891f058-02d2-4924-9a7b-54007f6c7e9f","system_id":"levelo_inurba_marseille","lat":43.24804,"lon":5.37456,"is_reserved":false,"is_disabled":false,"rental_uris":{"android":"levelo://app?vid=e891f058-02d2-4924-9a7b-54007f6c7e9f","ios":"levelo://app?vid=e891f058-02d2-4924-9a7b-54007f6c7e9f"},"vehicle_type_id":"4","last_reported":1744639808,"current_range_meters":21600,"station_id":"ce4bhgh2rcd13ifvqfb0","pricing_plan_id":"cebpf4jnsgd1na2vs0mg"},{"bike_id":"d23af7c0-9a9a-4781-be5a-d0e68de2db26","system_id":"levelo_inurba_marseille","lat":43.28858,"lon":5.35844,"is_reserved":false,"is_disabled":false,"rental_uris":{"android":"levelo://app?vid=d23af7c0-9a9a-4781-be5a-d0e68de2db26","ios":"levelo://app?vid=d23af7c0-9a9a-4781-be5a-d0e68de2db26"},"vehicle_type_id":"4","last_reported":1744639808,"current_range_meters":21600,"station_id":"ce4bhb12rcd13ifvqem0","pricing_plan_id":"cebpf4jnsgd1na2vs0mg"},{"bike_id":"85e75e0c-d388-43ca-a80b-b3927c0f463b","system_id":"levelo_inurba_marseille","lat":43.290089,"lon":5.356279,"is_reserved":false,"is_disabled":false,"rental_uris":{"android":"levelo://app?vid=85e75e0c-d388-43ca-a80b-b3927c0f463b","ios":"levelo://app?vid=85e75e0c-d388-43ca-a80b-b3927c0f463b"},"vehicle_type_id":"4","last_reported":1744639808,"current_range_meters":20800,"station_id":"ce4bhb92rcd13ifvqen0","pricing_plan_id":"cebpf4jnsgd1na2vs0mg"},{"bike_id":"51a922a0-2523-4309-a05b-50bba774cb4b","system_id":"levelo_inurba_marseille","lat":43.2801,"lon":5.40004,"is_reserved":false,"is_disabled":false,"rental_uris":{"android":"levelo://app?vid=51a922a0-2523-4309-a05b-50bba774cb4b","ios":"levelo://app?vid=51a922a0-2523-4309-a05b-50bba774cb4b"},"vehicle_type_id":"4","last_reported":1744639808,"current_range_meters":22000,"station_id":"ce4bho92rcd13ifvqh4g","pricing_plan_id":"cebpf4jnsgd1na2vs0mg"},{"bike_id":"1ec3d831-b77c-4199-89d1-f1c74723e07a","system_id":"levelo_inurba_marseille","lat":43.29544,"lon":5.37505,"is_reserved":false,"is_disabled":false,"rental_uris":{"android":"levelo://app?vid=1ec3d831-b77c-4199-89d1-f1c74723e07a","ios":"levelo://app?vid=1ec3d831-b77c-4199-89d1-f1c74723e07a"},"vehicle_type_id":"4","last_reported":1744639808,"current_range_meters":22000,"station_id":"ce4bgkp2rcd13ifvqbmg","pricing_plan_id":"cebpf4jnsgd1na2vs0mg"},{"bike_id":"a82682e3-503a-4b40-8ea6-3edbefb3173c","system_id":"levelo_inurba_marseille","lat":43.27962,"lon":5.38717,"is_reserved":false,"is_disabled":false,"rental_uris":{"android":"levelo://app?vid=a82682e3-503a-4b40-8ea6-3edbefb3173c","ios":"levelo://app?vid=a82682e3-503a-4b40-8ea6-3edbefb3173c"},"vehicle_type_id":"4","last_reported":1744639808,"current_range_meters":22000,"station_id":"ce4bhg12rcd13ifvqf80","pricing_plan_id":"cebpf4jnsgd1na2vs0mg"},{"bike_id":"d22f56ed-8ff1-4e9a-bbd0-1c03051f6a40","system_id":"levelo_inurba_marseille","lat":43.286133,"lon":5.351057,"is_reserved":false,"is_disabled":false,"rental_uris":{"android":"levelo://app?vid=d22f56ed-8ff1-4e9a-bbd0-1c03051f6a40","ios":"levelo://app?vid=d22f56ed-8ff1-4e9a-bbd0-1c03051f6a40"},"vehicle_type_id":"4","last_reported":1744639808,"current_range_meters":22000,"station_id":"ce4bgn12rcd13ifvqbt0","pricing_plan_id":"cebpf4jnsgd1na2vs0mg"},{"bike_id":"cc4d98b9-8bf4-4661-9d36-ec39150d8d18","system_id":"levelo_inurba_marseille","lat":43.27819,"lon":5.40717,"is_reserved":false,"is_disabled":false,"rental_uris":{"android":"levelo://app?vid=cc4d98b9-8bf4-4661-9d36-ec39150d8d18","ios":"levelo://app?vid=cc4d98b9-8bf4-4661-9d36-ec39150d8d18"},"vehicle_type_id":"4","last_reported":1744639808,"current_range_meters":22000,"station_id":"ce4bhnh2rcd13ifvqgtg","pricing_plan_id":"cebpf4jnsgd1na2vs0mg"},{"bike_id":"1ac6cae9-5a5f-4765-b8d5-20772275ca89","system_id":"levelo_inurba_marseille","lat":43.233221,"lon":5.361383,"is_reserved":false,"is_disabled":false,"rental_uris":{"android":"levelo://app?vid=1ac6cae9-5a5f-4765-b8d5-20772275ca89","ios":"levelo://app?vid=1ac6cae9-5a5f-4765-b8d5-20772275ca89"},"vehicle_type_id":"4","last_reported":1744639808,"current_range_meters":22000,"station_id":"","pricing_plan_id":"cebpf4jnsgd1na2vs0mg"},{"bike_id":"fdf12297-394c-47e6-8690-ecd998d2f58c","system_id":"levelo_inurba_marseille","lat":43.30538,"lon":5.3653,"is_reserved":false,"is_disabled":false,"rental_uris":{"android":"levelo://app?vid=fdf12297-394c-47e6-8690-ecd998d2f58c","ios":"levelo://app?vid=fdf12297-394c-47e6-8690-ecd998d2f58c"},"vehicle_type_id":"4","last_reported":1744639808,"current_range_meters":22000,"station_id":"ce4bgs12rcd13ifvqcag","pricing_plan_id":"cebpf4jnsgd1na2vs0mg"},{"bike_id":"9ec46da3-8dea-4ddf-b1b8-4bba5a510396","system_id":"levelo_inurba_marseille","lat":43.30533,"lon":5.36537,"is_reserved":false,"is_disabled":false,"rental_uris":{"android":"levelo://app?vid=9ec46da3-8dea-4ddf-b1b8-4bba5a510396","ios":"levelo://app?vid=9ec46da3-8dea-4ddf-b1b8-4bba5a510396"},"vehicle_type_id":"4","last_reported":1744639808,"current_range_meters":22000,"station_id":"ce4bgs12rcd13ifvqcag","pricing_plan_id":"cebpf4jnsgd1na2vs0mg"},{"bike_id":"5ac3cfd2-9408-4a1c-8724-479323f6b91b","system_id":"levelo_inurba_marseille","lat":43.29724,"lon":5.37686,"is_reserved":false,"is_disabled":false,"rental_uris":{"android":"levelo://app?vid=5ac3cfd2-9408-4a1c-8724-479323f6b91b","ios":"levelo://app?vid=5ac3cfd2-9408-4a1c-8724-479323f6b91b"},"vehicle_type_id":"4","last_reported":1744639808,"current_range_meters":22400,"station_id":"ce4bgkh2rcd13ifvqbl0","pricing_plan_id":"cebpf4jnsgd1na2vs0mg"},{"bike_id":"2d541472-b9e5-4657-a7ae-e9eff04a911a","system_id":"levelo_inurba_marseille","lat":43.25504,"lon":5.37652,"is_reserved":false,"is_disabled":false,"rental_uris":{"android":"levelo://app?vid=2d541472-b9e5-4657-a7ae-e9eff04a911a","ios":"levelo://app?vid=2d541472-b9e5-4657-a7ae-e9eff04a911a"},"vehicle_type_id":"4","last_reported":1744639808,"current_range_meters":22400,"station_id":"ce4bhh12rcd13ifvqff0","pricing_plan_id":"cebpf4jnsgd1na2vs0mg"},{"bike_id":"fd32699e-1fcf-4074-8d41-adde343e3fa7","system_id":"levelo_inurba_marseille","lat":43.30497,"lon":5.3654,"is_reserved":false,"is_disabled":false,"rental_uris":{"android":"levelo://app?vid=fd32699e-1fcf-4074-8d41-adde343e3fa7","ios":"levelo://app?vid=fd32699e-1fcf-4074-8d41-adde343e3fa7"},"vehicle_type_id":"4","last_reported":1744639808,"current_range_meters":22400,"station_id":"","pricing_plan_id":"cebpf4jnsgd1na2vs0mg"},{"bike_id":"e2475d1f-3fc3-4872-bca7-160bb8e80eb0","system_id":"levelo_inurba_marseille","lat":43.29298,"lon":5.37678,"is_reserved":false,"is_disabled":false,"rental_uris":{"android":"levelo://app?vid=e2475d1f-3fc3-4872-bca7-160bb8e80eb0","ios":"levelo://app?vid=e2475d1f-3fc3-4872-bca7-160bb8e80eb0"},"vehicle_type_id":"4","last_reported":1744639808,"current_range_meters":22400,"station_id":"ce4bgi12rcd13ifvqb80","pricing_plan_id":"cebpf4jnsgd1na2vs0mg"},{"bike_id":"9097a5ba-b0d0-44de-9073-d362cae67b02","system_id":"levelo_inurba_marseille","lat":43.26559,"lon":5.37279,"is_reserved":false,"is_disabled":false,"rental_uris":{"android":"levelo://app?vid=9097a5ba-b0d0-44de-9073-d362cae67b02","ios":"levelo://app?vid=9097a5ba-b0d0-44de-9073-d362cae67b02"},"vehicle_type_id":"4","last_reported":1744639808,"current_range_meters":22800,"station_id":"ce4bhg12rcd13ifvqf70","pricing_plan_id":"cebpf4jnsgd1na2vs0mg"},{"bike_id":"3ae5c579-c7c3-4543-8f4d-d0987a1dca07","system_id":"levelo_inurba_marseille","lat":43.241796,"lon":5.397363,"is_reserved":false,"is_disabled":false,"rental_uris":{"android":"levelo://app?vid=3ae5c579-c7c3-4543-8f4d-d0987a1dca07","ios":"levelo://app?vid=3ae5c579-c7c3-4543-8f4d-d0987a1dca07"},"vehicle_type_id":"4","last_reported":1744639808,"current_range_meters":22800,"station_id":"","pricing_plan_id":"cebpf4jnsgd1na2vs0mg"},{"bike_id":"dab92ad9-845f-45dd-8fad-a49bfcfc531b","system_id":"levelo_inurba_marseille","lat":43.30933,"lon":5.36852,"is_reserved":false,"is_disabled":false,"rental_uris":{"android":"levelo://app?vid=dab92ad9-845f-45dd-8fad-a49bfcfc531b","ios":"levelo://app?vid=dab92ad9-845f-45dd-8fad-a49bfcfc531b"},"vehicle_type_id":"4","last_reported":1744639808,"current_range_meters":22800,"station_id":"ce4bgn92rcd13ifvqbvg","pricing_plan_id":"cebpf4jnsgd1na2vs0mg"},{"bike_id":"b035f8ab-1633-42ac-9aa2-e0f018b270f8","system_id":"levelo_inurba_marseille","lat":43.26024,"lon":5.37552,"is_reserved":false,"is_disabled":false,"rental_uris":{"android":"levelo://app?vid=b035f8ab-1633-42ac-9aa2-e0f018b270f8","ios":"levelo://app?vid=b035f8ab-1633-42ac-9aa2-e0f018b270f8"},"vehicle_type_id":"4","last_reported":1744639808,"current_range_meters":22800,"station_id":"ce4bhgh2rcd13ifvqfa0","pricing_plan_id":"cebpf4jnsgd1na2vs0mg"},{"bike_id":"24acbce7-260f-46c8-9ba2-af24377b2147","system_id":"levelo_inurba_marseille","lat":43.2176,"lon":5.34595,"is_reserved":false,"is_disabled":false,"rental_uris":{"android":"levelo://app?vid=24acbce7-260f-46c8-9ba2-af24377b2147","ios":"levelo://app?vid=24acbce7-260f-46c8-9ba2-af24377b2147"},"vehicle_type_id":"4","last_reported":1744639808,"current_range_meters":22800,"station_id":"","pricing_plan_id":"cebpf4jnsgd1na2vs0mg"},{"bike_id":"80581a5c-f0ad-4895-a131-36c495c1c1df","system_id":"levelo_inurba_marseille","lat":43.30542,"lon":5.36523,"is_reserved":false,"is_disabled":false,"rental_uris":{"android":"levelo://app?vid=80581a5c-f0ad-4895-a131-36c495c1c1df","ios":"levelo://app?vid=80581a5c-f0ad-4895-a131-36c495c1c1df"},"vehicle_type_id":"4","last_reported":1744639808,"current_range_meters":22800,"station_id":"ce4bgs12rcd13ifvqcag","pricing_plan_id":"cebpf4jnsgd1na2vs0mg"},{"bike_id":"29d95d95-9e17-4f7a-b230-abb382bf24ac","system_id":"levelo_inurba_marseille","lat":43.324861,"lon":5.365629,"is_reserved":false,"is_disabled":false,"rental_uris":{"android":"levelo://app?vid=29d95d95-9e17-4f7a-b230-abb382bf24ac","ios":"levelo://app?vid=29d95d95-9e17-4f7a-b230-abb382bf24ac"},"vehicle_type_id":"4","last_reported":1744639808,"current_range_meters":22800,"station_id":"ce4bhs12rcd13ifvqhvg","pricing_plan_id":"cebpf4jnsgd1na2vs0mg"},{"bike_id":"58865f51-d34a-49ac-8f37-d14aa3ef6ace","system_id":"levelo_inurba_marseille","lat":43.32418,"lon":5.39106,"is_reserved":false,"is_disabled":false,"rental_uris":{"android":"levelo://app?vid=58865f51-d34a-49ac-8f37-d14aa3ef6ace","ios":"levelo://app?vid=58865f51-d34a-49ac-8f37-d14aa3ef6ace"},"vehicle_type_id":"4","last_reported":1744639808,"current_range_meters":22800,"station_id":"","pricing_plan_id":"cebpf4jnsgd1na2vs0mg"},{"bike_id":"6711d737-187a-43ea-8f5f-bd110034df31","system_id":"levelo_inurba_marseille","lat":43.25499,"lon":5.37652,"is_reserved":false,"is_disabled":false,"rental_uris":{"android":"levelo://app?vid=6711d737-187a-43ea-8f5f-bd110034df31","ios":"levelo://app?vid=6711d737-187a-43ea-8f5f-bd110034df31"},"vehicle_type_id":"4","last_reported":1744639808,"current_range_meters":22800,"station_id":"ce4bhh12rcd13ifvqff0","pricing_plan_id":"cebpf4jnsgd1na2vs0mg"},{"bike_id":"3ceb0e6e-57c6-4a13-81ee-5c6c8631a2b0","system_id":"levelo_inurba_marseille","lat":43.26937,"lon":5.40245,"is_reserved":false,"is_disabled":false,"rental_uris":{"android":"levelo://app?vid=3ceb0e6e-57c6-4a13-81ee-5c6c8631a2b0","ios":"levelo://app?vid=3ceb0e6e-57c6-4a13-81ee-5c6c8631a2b0"},"vehicle_type_id":"4","last_reported":1744639808,"current_range_meters":22800,"station_id":"cjm6bp8fraef2m0cb0m0","pricing_plan_id":"cebpf4jnsgd1na2vs0mg"},{"bike_id":"a92fa1ea-ad51-473e-a546-67fc8ec6aeca","system_id":"levelo_inurba_marseille","lat":43.31112,"lon":5.37776,"is_reserved":false,"is_disabled":false,"rental_uris":{"android":"levelo://app?vid=a92fa1ea-ad51-473e-a546-67fc8ec6aeca","ios":"levelo://app?vid=a92fa1ea-ad51-473e-a546-67fc8ec6aeca"},"vehicle_type_id":"4","last_reported":1744639808,"current_range_meters":23200,"station_id":"ce4bgt92rcd13ifvqcg0","pricing_plan_id":"cebpf4jnsgd1na2vs0mg"},{"bike_id":"53db3a4c-2974-4358-ae89-2ba948a23e96","system_id":"levelo_inurba_marseille","lat":43.30143,"lon":5.3807,"is_reserved":false,"is_disabled":false,"rental_uris":{"android":"levelo://app?vid=53db3a4c-2974-4358-ae89-2ba948a23e96","ios":"levelo://app?vid=53db3a4c-2974-4358-ae89-2ba948a23e96"},"vehicle_type_id":"4","last_reported":1744639808,"current_range_meters":23200,"station_id":"ce4bgjp2rcd13ifvqbh0","pricing_plan_id":"cebpf4jnsgd1na2vs0mg"},{"bike_id":"e6f8b161-4151-4a2e-9fdd-db1be222ad99","system_id":"levelo_inurba_marseille","lat":43.26214,"lon":5.37441,"is_reserved":false,"is_disabled":false,"rental_uris":{"android":"levelo://app?vid=e6f8b161-4151-4a2e-9fdd-db1be222ad99","ios":"levelo://app?vid=e6f8b161-4151-4a2e-9fdd-db1be222ad99"},"vehicle_type_id":"4","last_reported":1744639808,"current_range_meters":23200,"station_id":"ce4bhgp2rcd13ifvqfc0","pricing_plan_id":"cebpf4jnsgd1na2vs0mg"},{"bike_id":"7e340323-52ff-40c0-ab37-eda112e59927","system_id":"levelo_inurba_marseille","lat":43.30147,"lon":5.38086,"is_reserved":false,"is_disabled":false,"rental_uris":{"android":"levelo://app?vid=7e340323-52ff-40c0-ab37-eda112e59927","ios":"levelo://app?vid=7e340323-52ff-40c0-ab37-eda112e59927"},"vehicle_type_id":"4","last_reported":1744639808,"current_range_meters":23200,"station_id":"ce4bgjp2rcd13ifvqbh0","pricing_plan_id":"cebpf4jnsgd1na2vs0mg"},{"bike_id":"ee33e4a3-9ed1-445d-9974-26da2f858986","system_id":"levelo_inurba_marseille","lat":43.32421,"lon":5.39094,"is_reserved":false,"is_disabled":false,"rental_uris":{"android":"levelo://app?vid=ee33e4a3-9ed1-445d-9974-26da2f858986","ios":"levelo://app?vid=ee33e4a3-9ed1-445d-9974-26da2f858986"},"vehicle_type_id":"4","last_reported":1744639808,"current_range_meters":23200,"station_id":"","pricing_plan_id":"cebpf4jnsgd1na2vs0mg"},{"bike_id":"7294a14c-479f-47e7-9689-0103a725a81b","system_id":"levelo_inurba_marseille","lat":43.258143,"lon":5.394478,"is_reserved":false,"is_disabled":false,"rental_uris":{"android":"levelo://app?vid=7294a14c-479f-47e7-9689-0103a725a81b","ios":"levelo://app?vid=7294a14c-479f-47e7-9689-0103a725a81b"},"vehicle_type_id":"4","last_reported":1744639808,"current_range_meters":23200,"station_id":"ce4bhip2rcd13ifvqft0","pricing_plan_id":"cebpf4jnsgd1na2vs0mg"},{"bike_id":"442cf78f-0abc-4e2f-815a-c789a5a5fa19","system_id":"levelo_inurba_marseille","lat":43.28622,"lon":5.35108,"is_reserved":false,"is_disabled":false,"rental_uris":{"android":"levelo://app?vid=442cf78f-0abc-4e2f-815a-c789a5a5fa19","ios":"levelo://app?vid=442cf78f-0abc-4e2f-815a-c789a5a5fa19"},"vehicle_type_id":"4","last_reported":1744639808,"current_range_meters":23200,"station_id":"ce4bhch2rcd13ifvqeug","pricing_plan_id":"cebpf4jnsgd1na2vs0mg"},{"bike_id":"d2ee4f1f-7870-4a93-92e9-560e00b23f45","system_id":"levelo_inurba_marseille","lat":43.25002,"lon":5.38928,"is_reserved":false,"is_disabled":false,"rental_uris":{"android":"levelo://app?vid=d2ee4f1f-7870-4a93-92e9-560e00b23f45","ios":"levelo://app?vid=d2ee4f1f-7870-4a93-92e9-560e00b23f45"},"vehicle_type_id":"4","last_reported":1744639808,"current_range_meters":23200,"station_id":"ce4bhgp2rcd13ifvqfd0","pricing_plan_id":"cebpf4jnsgd1na2vs0mg"},{"bike_id":"9df38ceb-a5c0-45f3-8dee-532ecb2d7df5","system_id":"levelo_inurba_marseille","lat":43.28083,"lon":5.39635,"is_reserved":false,"is_disabled":false,"rental_uris":{"android":"levelo://app?vid=9df38ceb-a5c0-45f3-8dee-532ecb2d7df5","ios":"levelo://app?vid=9df38ceb-a5c0-45f3-8dee-532ecb2d7df5"},"vehicle_type_id":"4","last_reported":1744639808,"current_range_meters":23200,"station_id":"ce4bho12rcd13ifvqh2g","pricing_plan_id":"cebpf4jnsgd1na2vs0mg"},{"bike_id":"bc16212b-20be-4335-890f-44a751181256","system_id":"levelo_inurba_marseille","lat":43.26793,"lon":5.39419,"is_reserved":false,"is_disabled":false,"rental_uris":{"android":"levelo://app?vid=bc16212b-20be-4335-890f-44a751181256","ios":"levelo://app?vid=bc16212b-20be-4335-890f-44a751181256"},"vehicle_type_id":"4","last_reported":1744639808,"current_range_meters":23200,"station_id":"ce4bhh12rcd13ifvqfg0","pricing_plan_id":"cebpf4jnsgd1na2vs0mg"},{"bike_id":"08a2c2b1-ac71-46d9-8c32-b65b65726c80","system_id":"levelo_inurba_marseille","lat":43.26562,"lon":5.3728,"is_reserved":false,"is_disabled":false,"rental_uris":{"android":"levelo://app?vid=08a2c2b1-ac71-46d9-8c32-b65b65726c80","ios":"levelo://app?vid=08a2c2b1-ac71-46d9-8c32-b65b65726c80"},"vehicle_type_id":"4","last_reported":1744639808,"current_range_meters":23200,"station_id":"ce4bhg12rcd13ifvqf70","pricing_plan_id":"cebpf4jnsgd1na2vs0mg"},{"bike_id":"e61eb72d-2152-4e42-a8db-1ea20dfcb944","system_id":"levelo_inurba_marseille","lat":43.250891,"lon":5.395129,"is_reserved":false,"is_disabled":true,"rental_uris":{"android":"levelo://app?vid=e61eb72d-2152-4e42-a8db-1ea20dfcb944","ios":"levelo://app?vid=e61eb72d-2152-4e42-a8db-1ea20dfcb944"},"vehicle_type_id":"4","last_reported":1744639808,"current_range_meters":23200,"station_id":"ce4bhm12rcd13ifvqgkg","pricing_plan_id":"cebpf4jnsgd1na2vs0mg"},{"bike_id":"c6ff1189-6ca2-4bf2-a0f6-f6577e4584fe","system_id":"levelo_inurba_marseille","lat":43.26788,"lon":5.3941,"is_reserved":false,"is_disabled":false,"rental_uris":{"android":"levelo://app?vid=c6ff1189-6ca2-4bf2-a0f6-f6577e4584fe","ios":"levelo://app?vid=c6ff1189-6ca2-4bf2-a0f6-f6577e4584fe"},"vehicle_type_id":"4","last_reported":1744639808,"current_range_meters":24800,"station_id":"ce4bhlh2rcd13ifvqgig","pricing_plan_id":"cebpf4jnsgd1na2vs0mg"},