{"last_updated":1732381700,"ttl":60,"version":"2.2","data":{"bikes":[{"bike_id":"fadb5b84-cca9-42ce-99c6-20f8e2e22ede","system_id":"levelo_inurba_marseille","lat":43.28267,"lon":5.35059,"is_reserved":false,"is_disabled":false,"rental_uris":{"android":"levelo://app?vid=fadb5b84-cca9-42ce-99c6-20f8e2e22ede","ios":"levelo://app?vid=fadb5b84-cca9-42ce-99c6-20f8e2e22ede"},"vehicle_type_id":"4","last_reported":1732381700,"current_range_meters":39200,"station_id":"ce4bhbp2rcd13ifvqerg","pricing_plan_id":"cebpf4jnsgd1na2vs0mg"},{"bike_id":"dcd2c8ea-39d9-4c50-9bac-d98181c00672","system_id":"levelo_inurba_marseille","lat":43.25579,"lon":5.38231,"is_reserved":false,"is_disabled":false,"rental_uris":{"android":"levelo://app?vid=dcd2c8ea-39d9-4c50-9bac-d98181c00672","ios":"levelo://app?vid=dcd2c8ea-39d9-4c50-9bac-d98181c00672"},"vehicle_type_id":"4","last_reported":1732381700,"current_range_meters":36800,"station_id":"ce4bhih2rcd13ifvqfs0","pricing_plan_id":"cebpf4jnsgd1na2vs0mg"},{"bike_id":"0c05dca5-6cb0-463e-b7bb-661803a8b145","system_id":"levelo_inurba_marseille","lat":43.25582,"lon":5.38241,"is_reserved":false,"is_disabled":false,"rental_uris":{"android":"levelo://app?vid=0c05dca5-6cb0-463e-b7bb-661803a8b145","ios":"levelo://app?vid=0c05dca5-6cb0-463e-b7bb-661803a8b145"},"vehicle_type_id":"4","last_reported":1732381700,"current_range_meters":8800,"station_id":"ce4bhih2rcd13ifvqfs0","pricing_plan_id":"cebpf4jnsgd1na2vs0mg"},{"bike_id":"db798e8b-14db-4b83-9fe2-7d97d85381c8","system_id":"levelo_inurba_marseille","lat":43.29372,"lon":5.37839,"is_reserved":false,"is_disabled":false,"rental_uris":{"android":"levelo://app?vid=db798e8b-14db-4b83-9fe2-7d97d85381c8","ios":"levelo://app?vid=db798e8b-14db-4b83-9fe2-7d97d85381c8"},"vehicle_type_id":"4","last_reported":1732381700,"current_range_meters":13600,"station_id":"ce4bgjh2rcd13ifvqbf0","pricing_plan_id":"cebpf4jnsgd1na2vs0mg"},{"bike_id":"fe7dea4e-d632-4642-aee0-92c00a764691","system_id":"levelo_inurba_marseille","lat":43.3013,"lon":5.38772,"is_reserved":false,"is_disabled":true,"rental_uris":{"android":"levelo://app?vid=fe7dea4e-d632-4642-aee0-92c00a764691","ios":"levelo://app?vid=fe7dea4e-d632-4642-aee0-92c00a764691"},"vehicle_type_id":"4","last_reported":1732381700,"current_range_meters":38400,"station_id":"ce4bghh2rcd13ifvqb60","pricing_plan_id":"cebpf4jnsgd1na2vs0mg"},{"bike_id":"9e38786f-f502-4c1c-9428-59d535da9860","system_id":"levelo_inurba_marseille","lat":43.27614,"lon":5.36114,"is_reserved":false,"is_disabled":false,"rental_uris":{"android":"levelo://app?vid=9e38786f-f502-4c1c-9428-59d535da9860","ios":"levelo://app?vid=9e38786f-f502-4c1c-9428-59d535da9860"},"vehicle_type_id":"4","last_reported":1732381700,"current_range_meters":28000,"station_id":"ce4bgj92rcd13ifvqbe0","pricing_plan_id":"cebpf4jnsgd1na2vs0mg"},{"bike_id":"31283f73-ac91-423f-a06f-f723f7335d46","system_id":"levelo_inurba_marseille","lat":43.26791,"lon":5.39412,"is_reserved":false,"is_disabled":false,"rental_uris":{"android":"levelo://app?vid=31283f73-ac91-423f-a06f-f723f7335d46","ios":"levelo://app?vid=31283f73-ac91-423f-a06f-f723f7335d46"},"vehicle_type_id":"4","last_reported":1732381700,"current_range_meters":28800,"station_id":"ce4bhh12rcd13ifvqfg0","pricing_plan_id":"cebpf4jnsgd1na2vs0mg"},{"bike_id":"86b3ec5d-6392-43fe-a0ac-797686270685","system_id":"levelo_inurba_marseille","lat":43.295771,"lon":5.375181,"is_reserved":false,"is_disabled":false,"rental_uris":{"android":"levelo://app?vid=86b3ec5d-6392-43fe-a0ac-797686270685","ios":"levelo://app?vid=86b3ec5d-6392-43fe-a0ac-797686270685"},"vehicle_type_id":"4","last_reported":1732381700,"current_range_meters":38800,"station_id":"ce4bgh92rcd13ifvqb50","pricing_plan_id":"cebpf4jnsgd1na2vs0mg"},{"bike_id":"657d9f82-f202-4460-b1cf-8b51afdac794","system_id":"levelo_inurba_marseille","lat":43.24388,"lon":5.37062,"is_reserved":false,"is_disabled":true,"rental_uris":{"android":"levelo://app?vid=657d9f82-f202-4460-b1cf-8b51afdac794","ios":"levelo://app?vid=657d9f82-f202-4460-b1cf-8b51afdac794"},"vehicle_type_id":"4","last_reported":1732381700,"current_range_meters":800,"station_id":"ce4bhhh2rcd13ifvqfk0","pricing_plan_id":"cebpf4jnsgd1na2vs0mg"},{"bike_id":"1d480d76-bb73-4781-930a-16c68fdce680","system_id":"levelo_inurba_marseille","lat":43.2558,"lon":5.3823,"is_reserved":false,"is_disabled":false,"rental_uris":{"android":"levelo://app?vid=1d480d76-bb73-4781-930a-16c68fdce680","ios":"levelo://app?vid=1d480d76-bb73-4781-930a-16c68fdce680"},"vehicle_type_id":"4","last_reported":1732381700,"current_range_meters":38800,"station_id":"ce4bhih2rcd13ifvqfs0","pricing_plan_id":"cebpf4jnsgd1na2vs0mg"},{"bike_id":"a721a59b-c6c0-46b8-84e5-19ba74a48bdb","system_id":"levelo_inurba_marseille","lat":43.28038,"lon":5.36945,"is_reserved":false,"is_disabled":false,"rental_uris":{"android":"levelo://app?vid=a721a59b-c6c0-46b8-84e5-19ba74a48bdb","ios":"levelo://app?vid=a721a59b-c6c0-46b8-84e5-19ba74a48bdb"},"vehicle_type_id":"4","last_reported":1732381700,"current_range_meters":19200,"station_id":"ce4bha12rcd13ifvqef0","pricing_plan_id":"cebpf4jnsgd1na2vs0mg"},{"bike_id":"1dccc558-5f21-4085-ba15-b11908377fcf","system_id":"levelo_inurba_marseille","lat":43.26031,"lon":5.37551,"is_reserved":false,"is_disabled":false,"rental_uris":{"android":"levelo://app?vid=1dccc558-5f21-4085-ba15-b11908377fcf","ios":"levelo://app?vid=1dccc558-5f21-4085-ba15-b11908377fcf"},"vehicle_type_id":"4","last_reported":1732381700,"current_range_meters":26000,"station_id":"ce4bhgh2rcd13ifvqfa0","pricing_plan_id":"cebpf4jnsgd1na2vs0mg"},{"bike_id":"7ed373fa-e29c-4ceb-b4cf-b4727f191d71","system_id":"levelo_inurba_marseille","lat":43.29488,"lon":5.3619,"is_reserved":false,"is_disabled":false,"rental_uris":{"android":"levelo://app?vid=7ed373fa-e29c-4ceb-b4cf-b4727f191d71","ios":"levelo://app?vid=7ed373fa-e29c-4ceb-b4cf-b4727f191d71"},"vehicle_type_id":"4","last_reported":1732381700,"current_range_meters":38400,"station_id":"","pricing_plan_id":"cebpf4jnsgd1na2vs0mg"},{"bike_id":"561692a1-369c-4ac8-a04a-5193554f2e90","system_id":"levelo_inurba_marseille","lat":43.3211,"lon":5.36773,"is_reserved":false,"is_disabled":false,"rental_uris":{"android":"levelo://app?vid=561692a1-369c-4ac8-a04a-5193554f2e90","ios":"levelo://app?vid=561692a1-369c-4ac8-a04a-5193554f2e90"},"vehicle_type_id":"4","last_reported":1732381700,"current_range_meters":25200,"station_id":"ce4bhrh2rcd13ifvqhug","pricing_plan_id":"cebpf4jnsgd1na2vs0mg"},{"bike_id":"4d3cd0a0-41f3-43f4-9696-6778df24c932","system_id":"levelo_inurba_marseille","lat":43.30534,"lon":5.36553,"is_reserved":false,"is_disabled":false,"rental_uris":{"android":"levelo://app?vid=4d3cd0a0-41f3-43f4-9696-6778df24c932","ios":"levelo://app?vid=4d3cd0a0-41f3-43f4-9696-6778df24c932"},"vehicle_type_id":"4","last_reported":1732381700,"current_range_meters":33200,"station_id":"ce4bgph2rcd13ifvqc2g","pricing_plan_id":"cebpf4jnsgd1na2vs0mg"},{"bike_id":"881856ba-c8e5-44d2-9d73-0a6bf892f435","system_id":"levelo_inurba_marseille","lat":43.29301,"lon":5.37178,"is_reserved":false,"is_disabled":false,"rental_uris":{"android":"levelo://app?vid=881856ba-c8e5-44d2-9d73-0a6bf892f435","ios":"levelo://app?vid=881856ba-c8e5-44d2-9d73-0a6bf892f435"},"vehicle_type_id":"4","last_reported":1732381700,"current_range_meters":38800,"station_id":"ce4bgh92rcd13ifvqb40","pricing_plan_id":"cebpf4jnsgd1na2vs0mg"},{"bike_id":"7ec8bdcc-70a0-45b5-8969-93d393602cac","system_id":"levelo_inurba_marseille","lat":43.30432,"lon":5.38886,"is_reserved":false,"is_disabled":false,"rental_uris":{"android":"levelo://app?vid=7ec8bdcc-70a0-45b5-8969-93d393602cac","ios":"levelo://app?vid=7ec8bdcc-70a0-45b5-8969-93d393602cac"},"vehicle_type_id":"4","last_reported":1732381700,"current_range_meters":27200,"station_id":"ce4bgk12rcd13ifvqbi0","pricing_plan_id":"cebpf4jnsgd1na2vs0mg"},{"bike_id":"3200e2e3-9db7-4695-b436-e95103001e0d","system_id":"levelo_inurba_marseille","lat":43.29877,"lon":5.38903,"is_reserved":false,"is_disabled":false,"rental_uris":{"android":"levelo://app?vid=3200e2e3-9db7-4695-b436-e95103001e0d","ios":"levelo://app?vid=3200e2e3-9db7-4695-b436-e95103001e0d"},"vehicle_type_id":"4","last_reported":1732381700,"current_range_meters":39200,"station_id":"ce4bh392rcd13ifvqdl0","pricing_plan_id":"cebpf4jnsgd1na2vs0mg"},{"bike_id":"ae22a332-da36-4807-a05e-264d328761ce","system_id":"levelo_inurba_marseille","lat":43.317088,"lon":5.377456,"is_reserved":false,"is_disabled":false,"rental_uris":{"android":"levelo://app?vid=ae22a332-da36-4807-a05e-264d328761ce","ios":"levelo://app?vid=ae22a332-da36-4807-a05e-264d328761ce"},"vehicle_type_id":"4","last_reported":1732381700,"current_range_meters":23200,"station_id":"ce4bgth2rcd13ifvqch0","pricing_plan_id":"cebpf4jnsgd1na2vs0mg"},{"bike_id":"8e7ce334-59bd-40c2-a481-f6c47ee2e114","system_id":"levelo_inurba_marseille","lat":43.2979,"lon":5.39345,"is_reserved":false,"is_disabled":false,"rental_uris":{"android":"levelo://app?vid=8e7ce334-59bd-40c2-a481-f6c47ee2e114","ios":"levelo://app?vid=8e7ce334-59bd-40c2-a481-f6c47ee2e114"},"vehicle_type_id":"4","last_reported":1732381700,"current_range_meters":20000,"station_id":"chh1huq6cuj3fo74tm60","pricing_plan_id":"cebpf4jnsgd1na2vs0mg"},{"bike_id":"8ff24a51-63db-44af-962c-ba6c06904d4b","system_id":"levelo_inurba_marseille","lat":43.27679,"lon":5.38908,"is_reserved":false,"is_disabled":false,"rental_uris":{"android":"levelo://app?vid=8ff24a51-63db-44af-962c-ba6c06904d4b","ios":"levelo://app?vid=8ff24a51-63db-44af-962c-ba6c06904d4b"},"vehicle_type_id":"4","last_reported":1732381700,"current_range_meters":8400,"station_id":"ce4bhi12rcd13ifvqfo0","pricing_plan_id":"cebpf4jnsgd1na2vs0mg"},{"bike_id":"caeeb28a-2337-46ff-8cc1-38286fc7227b","system_id":"levelo_inurba_marseille","lat":43.25579,"lon":5.38233,"is_reserved":false,"is_disabled":false,"rental_uris":{"android":"levelo://app?vid=caeeb28a-2337-46ff-8cc1-38286fc7227b","ios":"levelo://app?vid=caeeb28a-2337-46ff-8cc1-38286fc7227b"},"vehicle_type_id":"4","last_reported":1732381700,"current_range_meters":16400,"station_id":"ce4bhih2rcd13ifvqfs0","pricing_plan_id":"cebpf4jnsgd1na2vs0mg"},{"bike_id":"6a2df70c-4e94-45ba-b67d-45bd465ca49d","system_id":"levelo_inurba_marseille","lat":43.29187,"lon":5.39309,"is_reserved":false,"is_disabled":true,"rental_uris":{"android":"levelo://app?vid=6a2df70c-4e94-45ba-b67d-45bd465ca49d","ios":"levelo://app?vid=6a2df70c-4e94-45ba-b67d-45bd465ca49d"},"vehicle_type_id":"4","last_reported":1732381700,"current_range_meters":35200,"station_id":"ce4bh192rcd13ifvqdd0","pricing_plan_id":"cebpf4jnsgd1na2vs0mg"},{"bike_id":"f0c9b009-6e7d-4316-96af-3036572d9258","system_id":"levelo_inurba_marseille","lat":43.29542,"lon":5.37501,"is_reserved":false,"is_disabled":true,"rental_uris":{"android":"levelo://app?vid=f0c9b009-6e7d-4316-96af-3036572d9258","ios":"levelo://app?vid=f0c9b009-6e7d-4316-96af-3036572d9258"},"vehicle_type_id":"4","last_reported":1732381700,"current_range_meters":34800,"station_id":"ce4bgkp2rcd13ifvqbmg","pricing_plan_id":"cebpf4jnsgd1na2vs0mg"},{"bike_id":"5d479be0-f12d-4c64-bc60-1e957d3fece9","system_id":"levelo_inurba_marseille","lat":43.23148,"lon":5.43714,"is_reserved":false,"is_disabled":false,"rental_uris":{"android":"levelo://app?vid=5d479be0-f12d-4c64-bc60-1e957d3fece9","ios":"levelo://app?vid=5d479be0-f12d-4c64-bc60-1e957d3fece9"},"vehicle_type_id":"4","last_reported":1732381700,"current_range_meters":6400,"station_id":"ce4bhmp2rcd13ifvqgog","pricing_plan_id":"cebpf4jnsgd1na2vs0mg"},{"bike_id":"62f28776-669a-4320-b766-deaf82321cbf","system_id":"levelo_inurba_marseille","lat":43.27883,"lon":5.3802,"is_reserved":false,"is_disabled":false,"rental_uris":{"android":"levelo://app?vid=62f28776-669a-4320-b766-deaf82321cbf","ios":"levelo://app?vid=62f28776-669a-4320-b766-deaf82321cbf"},"vehicle_type_id":"4","last_reported":1732381700,"current_range_meters":38800,"station_id":"ce4bhf92rcd13ifvqf50","pricing_plan_id":"cebpf4jnsgd1na2vs0mg"},{"bike_id":"f9d7ef87-3eb4-491a-8265-c89f6a297e12","system_id":"levelo_inurba_marseille","lat":43.30601,"lon":5.3723,"is_reserved":false,"is_disabled":false,"rental_uris":{"android":"levelo://app?vid=f9d7ef87-3eb4-491a-8265-c89f6a297e12","ios":"levelo://app?vid=f9d7ef87-3eb4-491a-8265-c89f6a297e12"},"vehicle_type_id":"4","last_reported":1732381700,"current_range_meters":15200,"station_id":"ce4bgqh2rcd13ifvqc4g","pricing_plan_id":"cebpf4jnsgd1na2vs0mg"},{"bike_id":"ff3594ee-f948-4832-9680-599cfdacc368","system_id":"levelo_inurba_marseille","lat":43.27185,"lon":5.40999,"is_reserved":false,"is_disabled":false,"rental_uris":{"android":"levelo://app?vid=ff3594ee-f948-4832-9680-599cfdacc368","ios":"levelo://app?vid=ff3594ee-f948-4832-9680-599cfdacc368"},"vehicle_type_id":"4","last_reported":1732381700,"current_range_meters":36800,"station_id":"ce4bhl12rcd13ifvqgf0","pricing_plan_id":"cebpf4jnsgd1na2vs0mg"},{"bike_id":"99b29f0a-fef9-49fe-8166-69785bf88e94","system_id":"levelo_inurba_marseille","lat":43.28997,"lon":5.3562,"is_reserved":false,"is_disabled":false,"rental_uris":{"android":"levelo://app?vid=99b29f0a-fef9-49fe-8166-69785bf88e94","ios":"levelo://app?vid=99b29f0a-fef9-49fe-8166-69785bf88e94"},"vehicle_type_id":"4","last_reported":1732381700,"current_range_meters":37600,"station_id":"ce4bhb92rcd13ifvqen0","pricing_plan_id":"cebpf4jnsgd1na2vs0mg"},{"bike_id":"b1837f61-5796-4dde-bb22-4d0e3427d3e7","system_id":"levelo_inurba_marseille","lat":43.29811,"lon":5.36485,"is_reserved":false,"is_disabled":false,"rental_uris":{"android":"levelo://app?vid=b1837f61-5796-4dde-bb22-4d0e3427d3e7","ios":"levelo://app?vid=b1837f61-5796-4dde-bb22-4d0e3427d3e7"},"vehicle_type_id":"4","last_reported":1732381700,"current_range_meters":24000,"station_id":"","pricing_plan_id":"cebpf4jnsgd1na2vs0mg"},{"bike_id":"856c5296-7fea-42cc-be09-a6b9a37c0b30","system_id":"levelo_inurba_marseille","lat":43.27376,"lon":5.36251,"is_reserved":false,"is_disabled":true,"rental_uris":{"android":"levelo://app?vid=856c5296-7fea-42cc-be09-a6b9a37c0b30","ios":"levelo://app?vid=856c5296-7fea-42cc-be09-a6b9a37c0b30"},"vehicle_type_id":"4","last_reported":1732381700,"current_range_meters":0,"station_id":"ce4bhbh2rcd13ifvqeo0","pricing_plan_id":"cebpf4jnsgd1na2vs0mg"},{"bike_id":"94bc1987-ff3f-40b5-95ec-7a30f058e984","system_id":"levelo_inurba_marseille","lat":43.256013,"lon":5.393942,"is_reserved":false,"is_disabled":false,"rental_uris":{"android":"levelo://app?vid=94bc1987-ff3f-40b5-95ec-7a30f058e984","ios":"levelo://app?vid=94bc1987-ff3f-40b5-95ec-7a30f058e984"},"vehicle_type_id":"4","last_reported":1732381700,"current_range_meters":35200,"station_id":"ce4bhip2rcd13ifvqft0","pricing_plan_id":"cebpf4jnsgd1na2vs0mg"},{"bike_id":"d681506a-56bb-49ee-b981-265669794e8d","system_id":"levelo_inurba_marseille","lat":43.30197,"lon":5.36622,"is_reserved":false,"is_disabled":false,"rental_uris":{"android":"levelo://app?vid=d681506a-56bb-49ee-b981-265669794e8d","ios":"levelo://app?vid=d681506a-56bb-49ee-b981-265669794e8d"},"vehicle_type_id":"4","last_reported":1732381700,"current_range_meters":36800,"station_id":"ce4bgrh2rcd13ifvqc8g","pricing_plan_id":"cebpf4jnsgd1na2vs0mg"},{"bike_id":"9a122f92-8d1b-4a84-9637-aeed9243668f","system_id":"levelo_inurba_marseille","lat":43.28939,"lon":5.36632,"is_reserved":false,"is_disabled":true,"rental_uris":{"android":"levelo://app?vid=9a122f92-8d1b-4a84-9637-aeed9243668f","ios":"levelo://app?vid=9a122f92-8d1b-4a84-9637-aeed9243668f"},"vehicle_type_id":"4","last_reported":1732381700,"current_range_meters":38800,"station_id":"ce4bhap2rcd13ifvqek0","pricing_plan_id":"cebpf4jnsgd1na2vs0mg"},{"bike_id":"ebd21c7a-b63d-473e-9407-73c1c91944c1","system_id":"levelo_inurba_marseille","lat":43.25088,"lon":5.3952,"is_reserved":false,"is_disabled":false,"rental_uris":{"android":"levelo://app?vid=ebd21c7a-b63d-473e-9407-73c1c91944c1","ios":"levelo://app?vid=ebd21c7a-b63d-473e-9407-73c1c91944c1"},"vehicle_type_id":"4","last_reported":1732381700,"current_range_meters":38800,"station_id":"ce4bhm12rcd13ifvqgkg","pricing_plan_id":"cebpf4jnsgd1na2vs0mg"},{"bike_id":"1d610808-8f8b-4623-886d-3c659a58f409","system_id":"levelo_inurba_marseille","lat":43.27206,"lon":5.3919,"is_reserved":false,"is_disabled":false,"rental_uris":{"android":"levelo://app?vid=1d610808-8f8b-4623-886d-3c659a58f409","ios":"levelo://app?vid=1d610808-8f8b-4623-886d-3c659a58f409"},"vehicle_type_id":"4","last_reported":1732381700,"current_range_meters":34800,"station_id":"ce4bhhp2rcd13ifvqfm0","pricing_plan_id":"cebpf4jnsgd1na2vs0mg"},{"bike_id":"8da1be4d-ebfd-4ca9-810b-7e370dfb5b46","system_id":"levelo_inurba_marseille","lat":43.32652,"lon":5.40994,"is_reserved":false,"is_disabled":false,"rental_uris":{"android":"levelo://app?vid=8da1be4d-ebfd-4ca9-810b-7e370dfb5b46","ios":"levelo://app?vid=8da1be4d-ebfd-4ca9-810b-7e370dfb5b46"},"vehicle_type_id":"4","last_reported":1732381700,"current_range_meters":22400,"station_id":"ce4bhpp2rcd13ifvqhgg","pricing_plan_id":"cebpf4jnsgd1na2vs0mg"},{"bike_id":"d099d286-c979-4d90-ae69-f655c433290c","system_id":"levelo_inurba_marseille","lat":43.25499,"lon":5.3765,"is_reserved":false,"is_disabled":false,"rental_uris":{"android":"levelo://app?vid=d099d286-c979-4d90-ae69-f655c433290c","ios":"levelo://app?vid=d099d286-c979-4d90-ae69-f655c433290c"},"vehicle_type_id":"4","last_reported":1732381700,"current_range_meters":17200,"station_id":"ce4bhh12rcd13ifvqff0","pricing_plan_id":"cebpf4jnsgd1na2vs0mg"},{"bike_id":"7bea41ce-582c-43e2-8f6f-ecf1da32878f","system_id":"levelo_inurba_marseille","lat":43.29534,"lon":5.37498,"is_reserved":false,"is_disabled":false,"rental_uris":{"android":"levelo://app?vid=7bea41ce-582c-43e2-8f6f-ecf1da32878f","ios":"levelo://app?vid=7bea41ce-582c-43e2-8f6f-ecf1da32878f"},"vehicle_type_id":"4","last_reported":1732381700,"current_range_meters":38000,"station_id":"ce4bgkp2rcd13ifvqbmg","pricing_plan_id":"cebpf4jnsgd1na2vs0mg"},{"bike_id":"0f57ca59-73de-42a3-a826-812cf4e26ad6","system_id":"levelo_inurba_marseille","lat":43.30564,"lon":5.36548,"is_reserved":false,"is_disabled":false,"rental_uris":{"android":"levelo://app?vid=0f57ca59-73de-42a3-a826-812cf4e26ad6","ios":"levelo://app?vid=0f57ca59-73de-42a3-a826-812cf4e26ad6"},"vehicle_type_id":"4","last_reported":1732381700,"current_range_meters":20400,"station_id":"ce4bgs12rcd13ifvqcag","pricing_plan_id":"cebpf4jnsgd1na2vs0mg"},{"bike_id":"fa8314ae-1864-43c4-8fa1-c6e47ea1e55c","system_id":"levelo_inurba_marseille","lat":43.32109,"lon":5.36771,"is_reserved":false,"is_disabled":false,"rental_uris":{"android":"levelo://app?vid=fa8314ae-1864-43c4-8fa1-c6e47ea1e55c","ios":"levelo://app?vid=fa8314ae-1864-43c4-8fa1-c6e47ea1e55c"},"vehicle_type_id":"4","last_reported":1732381700,"current_range_meters":27600,"station_id":"ce4bhrh2rcd13ifvqhug","pricing_plan_id":"cebpf4jnsgd1na2vs0mg"},{"bike_id":"910960e3-f0c7-478f-b503-d7a666ef3552","system_id":"levelo_inurba_marseille","lat":43.30435,"lon":5.38889,"is_reserved":false,"is_disabled":false,"rental_uris":{"android":"levelo://app?vid=910960e3-f0c7-478f-b503-d7a666ef3552","ios":"levelo://app?vid=910960e3-f0c7-478f-b503-d7a666ef3552"},"vehicle_type_id":"4","last_reported":1732381700,"current_range_meters":12800,"station_id":"ce4bgk12rcd13ifvqbi0","pricing_plan_id":"cebpf4jnsgd1na2vs0mg"},{"bike_id":"cc8f0ace-72fc-4047-817b-833d7545a1ec","system_id":"levelo_inurba_marseille","lat":43.27904,"lon":5.37999,"is_reserved":false,"is_disabled":false,"rental_uris":{"android":"levelo://app?vid=cc8f0ace-72fc-4047-817b-833d7545a1ec","ios":"levelo://app?vid=cc8f0ace-72fc-4047-817b-833d7545a1ec"},"vehicle_type_id":"4","last_reported":1732381700,"current_range_meters":28400,"station_id":"ce4bhf92rcd13ifvqf50","pricing_plan_id":"cebpf4jnsgd1na2vs0mg"},{"bike_id":"64ef5fd1-f6ad-4ac9-a91c-bd90dce4550e","system_id":"levelo_inurba_marseille","lat":43.26064,"lon":5.39403,"is_reserved":false,"is_disabled":false,"rental_uris":{"android":"levelo://app?vid=64ef5fd1-f6ad-4ac9-a91c-bd90dce4550e","ios":"levelo://app?vid=64ef5fd1-f6ad-4ac9-a91c-bd90dce4550e"},"vehicle_type_id":"4","last_reported":1732381700,"current_range_meters":36000,"station_id":"ce4bhh92rcd13ifvqfj0","pricing_plan_id":"cebpf4jnsgd1na2vs0mg"},{"bike_id":"d3a7f609-252d-4f84-9290-8b544666800d","system_id":"levelo_inurba_marseille","lat":43.29293,"lon":5.37442,"is_reserved":false,"is_disabled":false,"rental_uris":{"android":"levelo://app?vid=d3a7f609-252d-4f84-9290-8b544666800d","ios":"levelo://app?vid=d3a7f609-252d-4f84-9290-8b544666800d"},"vehicle_type_id":"4","last_reported":1732381700,"current_range_meters":38400,"station_id":"ce4bgi12rcd13ifvqb70","pricing_plan_id":"cebpf4jnsgd1na2vs0mg"},{"bike_id":"4614c3ce-fa32-4b49-800d-cf02516d6ab9","system_id":"levelo_inurba_marseille","lat":43.32381,"lon":5.3897,"is_reserved":false,"is_disabled":false,"rental_uris":{"android":"levelo://app?vid=4614c3ce-fa32-4b49-800d-cf02516d6ab9","ios":"levelo://app?vid=4614c3ce-fa32-4b49-800d-cf02516d6ab9"},"vehicle_type_id":"4","last_reported":1732381700,"current_range_meters":23200,"station_id":"","pricing_plan_id":"cebpf4jnsgd1na2vs0mg"},{"bike_id":"dee03222-b96c-4bd9-8076-cf797d32d688","system_id":"levelo_inurba_marseille","lat":43.32026,"lon":5.41565,"is_reserved":false,"is_disabled":false,"rental_uris":{"android":"levelo://app?vid=dee03222-b96c-4bd9-8076-cf797d32d688","ios":"levelo://app?vid=dee03222-b96c-4bd9-8076-cf797d32d688"},"vehicle_type_id":"4","last_reported":1732381700,"current_range_meters":39200,"station_id":"ce4bhq92rcd13ifvqhkg","pricing_plan_id":"cebpf4jnsgd1na2vs0mg"},{"bike_id":"0ecb0e70-6e2f-4c40-ae14-77249cd56bd7","system_id":"levelo_inurba_marseille","lat":43.27963,"lon":5.38724,"is_reserved":false,"is_disabled":true,"rental_uris":{"android":"levelo://app?vid=0ecb0e70-6e2f-4c40-ae14-77249cd56bd7","ios":"levelo://app?vid=0ecb0e70-6e2f-4c40-ae14-77249cd56bd7"},"vehicle_type_id":"4","last_reported":1732381700,"current_range_meters":21600,"station_id":"ce4bhg12rcd13ifvqf80","pricing_plan_id":"cebpf4jnsgd1na2vs0mg"},{"bike_id":"e8a9b83a-fcea-47ac-98e1-961f4756eb63","system_id":"levelo_inurba_marseille","lat":43.25582,"lon":5.38235,"is_reserved":false,"is_disabled":false,"rental_uris":{"android":"levelo://app?vid=e8a9b83a-fcea-47ac-98e1-961f4756eb63","ios":"levelo://app?vid=e8a9b83a-fcea-47ac-98e1-961f4756eb63"},"vehicle_type_id":"4","last_reported":1732381700,"current_range_meters":29600,"station_id":"ce4bhih2rcd13ifvqfs0","pricing_plan_id":"cebpf4jnsgd1na2vs0mg"},{"bike_id":"476d5223-f58b-4e3b-acbf-b1838e999b41","system_id":"levelo_inurba_marseille","lat":43.2583,"lon":5.39438,"is_reserved":false,"is_disabled":true,"rental_uris":{"android":"levelo://app?vid=476d5223-f58b-4e3b-acbf-b1838e999b41","ios":"levelo://app?vid=476d5223-f58b-4e3b-acbf-b1838e999b41"},"vehicle_type_id":"4","last_reported":1732381700,"current_range_meters":8800,"station_id":"ce4bhip2rcd13ifvqft0","pricing_plan_id":"cebpf4jnsgd1na2vs0mg"},{"bike_id":"d36f6047-1109-4016-bddc-7fe4152097dc","system_id":"levelo_inurba_marseille","lat":43.26195,"lon":5.3745,"is_reserved":false,"is_disabled":false,"rental_uris":{"android":"levelo://app?vid=d36f6047-1109-4016-bddc-7fe4152097dc","ios":"levelo://app?vid=d36f6047-1109-4016-bddc-7fe4152097dc"},"vehicle_type_id":"4","last_reported":1732381700,"current_range_meters":34000,"station_id":"ce4bhgp2rcd13ifvqfc0","pricing_plan_id":"cebpf4jnsgd1na2vs0mg"},{"bike_id":"76f36c20-471f-4c0e-a7ec-9df1a47341b0","system_id":"levelo_inurba_marseille","lat":43.27498,"lon":5.42452,"is_reserved":false,"is_disabled":false,"rental_uris":{"android":"levelo://app?vid=76f36c20-471f-4c0e-a7ec-9df1a47341b0","ios":"levelo://app?vid=76f36c20-471f-4c0e-a7ec-9df1a47341b0"},"vehicle_type_id":"4","last_reported":1732381700,"current_range_meters":27600,"station_id":"ce4bhn92rcd13ifvqgrg","pricing_plan_id":"cebpf4jnsgd1na2vs0mg"},{"bike_id":"4f1a65c7-fa91-4b31-b8a9-c0ca726ba14e","system_id":"levelo_inurba_marseille","lat":43.28152,"lon":5.42654,"is_reserved":false,"is_disabled":false,"rental_uris":{"android":"levelo://app?vid=4f1a65c7-fa91-4b31-b8a9-c0ca726ba14e","ios":"levelo://app?vid=4f1a65c7-fa91-4b31-b8a9-c0ca726ba14e"},"vehicle_type_id":"4","last_reported":1732381700,"current_range_meters":37600,"station_id":"ce4bhnh2rcd13ifvqgug","pricing_plan_id":"cebpf4jnsgd1na2vs0mg"},{"bike_id":"600b3470-1dde-43ce-962b-7a6284b20990","system_id":"levelo_inurba_marseille","lat":43.23191,"lon":5.35553,"is_reserved":false,"is_disabled":true,"rental_uris":{"android":"levelo://app?vid=600b3470-1dde-43ce-962b-7a6284b20990","ios":"levelo://app?vid=600b3470-1dde-43ce-962b-7a6284b20990"},"vehicle_type_id":"4","last_reported":1732381700,"current_range_meters":30400,"station_id":"ce4bhu92rcd13ifvqi70","pricing_plan_id":"cebpf4jnsgd1na2vs0mg"},{"bike_id":"c8aeb176-b46c-4f8a-8276-7e9f6bf986d8","system_id":"levelo_inurba_marseille","lat":43.26951,"lon":5.38627,"is_reserved":false,"is_disabled":true,"rental_uris":{"android":"levelo://app?vid=c8aeb176-b46c-4f8a-8276-7e9f6bf986d8","ios":"levelo://app?vid=c8aeb176-b46c-4f8a-8276-7e9f6bf986d8"},"vehicle_type_id":"4","last_reported":1732381700,"current_range_meters":400,"station_id":"ce4bhh92rcd13ifvqfh0","pricing_plan_id":"cebpf4jnsgd1na2vs0mg"},{"bike_id":"1f159e1a-886d-473d-a5f4-e6800f1f4ea0","system_id":"levelo_inurba_marseille","lat":43.25499,"lon":5.3765,"is_reserved":false,"is_disabled":true,"rental_uris":{"android":"levelo://app?vid=1f159e1a-886d-473d-a5f4-e6800f1f4ea0","ios":"levelo://app?vid=1f159e1a-886d-473d-a5f4-e6800f1f4ea0"},"vehicle_type_id":"4","last_reported":1732381700,"current_range_meters":400,"station_id":"ce4bhh12rcd13ifvqff0","pricing_plan_id":"cebpf4jnsgd1na2vs0mg"},{"bike_id":"f32d018a-07a8-47d6-af91-733de04f8855","system_id":"levelo_inurba_marseille","lat":43.2481,"lon":5.37457,"is_reserved":false,"is_disabled":false,"rental_uris":{"android":"levelo://app?vid=f32d018a-07a8-47d6-af91-733de04f8855","ios":"levelo://app?vid=f32d018a-07a8-47d6-af91-733de04f8855"},"vehicle_type_id":"4","last_reported":1732381700,"current_range_meters":19200,"station_id":"ce4bhgh2rcd13ifvqfb0","pricing_plan_id":"cebpf4jnsgd1na2vs0mg"},{"bike_id":"f1a3a586-56bf-43c9-9645-5182fb2f34fe","system_id":"levelo_inurba_marseille","lat":43.30297,"lon":5.36893,"is_reserved":false,"is_disabled":false,"rental_uris":{"android":"levelo://app?vid=f1a3a586-56bf-43c9-9645-5182fb2f34fe","ios":"levelo://app?vid=f1a3a586-56bf-43c9-9645-5182fb2f34fe"},"vehicle_type_id":"4","last_reported":1732381700,"current_range_meters":38800,"station_id":"ce4bgqh2rcd13ifvqc5g","pricing_plan_id":"cebpf4jnsgd1na2vs0mg"},{"bike_id":"a08148b1-d3ef-43a8-929d-bf1075bb60a8","system_id":"levelo_inurba_marseille","lat":43.287144,"lon":5.400053,"is_reserved":false,"is_disabled":false,"rental_uris":{"android":"levelo://app?vid=a08148b1-d3ef-43a8-929d-bf1075bb60a8","ios":"levelo://app?vid=a08148b1-d3ef-43a8-929d-bf1075bb60a8"},"vehicle_type_id":"4","last_reported":1732381700,"current_range_meters":19200,"station_id":"ce4bho92rcd13ifvqh3g","pricing_plan_id":"cebpf4jnsgd1na2vs0mg"},{"bike_id":"8a4eb594-2873-4022-ac05-d2a96f39bf59","system_id":"levelo_inurba_marseille","lat":43.27316,"lon":5.3908,"is_reserved":false,"is_disabled":true,"rental_uris":{"android":"levelo://app?vid=8a4eb594-2873-4022-ac05-d2a96f39bf59","ios":"levelo://app?vid=8a4eb594-2873-4022-ac05-d2a96f39bf59"},"vehicle_type_id":"4","last_reported":1732381700,"current_range_meters":0,"station_id":"ce4bhgp2rcd13ifvqfe0","pricing_plan_id":"cebpf4jnsgd1na2vs0mg"},{"bike_id":"308511a4-6399-4b7b-813e-4bed31feb927","system_id":"levelo_inurba_marseille","lat":43.30127,"lon":5.3878,"is_reserved":false,"is_disabled":false,"rental_uris":{"android":"levelo://app?vid=308511a4-6399-4b7b-813e-4bed31feb927","ios":"levelo://app?vid=308511a4-6399-4b7b-813e-4bed31feb927"},"vehicle_type_id":"4","last_reported":1732381700,"current_range_meters":37600,"station_id":"ce4bghh2rcd13ifvqb60","pricing_plan_id":"cebpf4jnsgd1na2vs0mg"},{"bike_id":"7b0ba2d8-2c25-42cc-86dc-2191bf7e56cc","system_id":"levelo_inurba_marseille","lat":43.29027,"lon":5.37576,"is_reserved":false,"is_disabled":false,"rental_uris":{"android":"levelo://app?vid=7b0ba2d8-2c25-42cc-86dc-2191bf7e56cc","ios":"levelo://app?vid=7b0ba2d8-2c25-42cc-86dc-2191bf7e56cc"},"vehicle_type_id":"4","last_reported":1732381700,"current_range_meters":22800,"station_id":"ce4bh692rcd13ifvqe90","pricing_plan_id":"cebpf4jnsgd1na2vs0mg"},{"bike_id":"2bf28bf6-9797-4caf-b36b-7567460b560e","system_id":"levelo_inurba_marseille","lat":43.28614,"lon":5.35103,"is_reserved":false,"is_disabled":false,"rental_uris":{"android":"levelo://app?vid=2bf28bf6-9797-4caf-b36b-7567460b560e","ios":"levelo://app?vid=2bf28bf6-9797-4caf-b36b-7567460b560e"},"vehicle_type_id":"4","last_reported":1732381700,"current_range_meters":2800,"station_id":"ce4bhch2rcd13ifvqeug","pricing_plan_id":"cebpf4jnsgd1na2vs0mg"},{"bike_id":"7ba7b42d-161a-44c0-830c-40ff39ad0376","system_id":"levelo_inurba_marseille","lat":43.305368,"lon":5.384229,"is_reserved":false,"is_disabled":false,"rental_uris":{"android":"levelo://app?vid=7ba7b42d-161a-44c0-830c-40ff39ad0376","ios":"levelo://app?vid=7ba7b42d-161a-44c0-830c-40ff39ad0376"},"vehicle_type_id":"4","last_reported":1732381700,"current_range_meters":10000,"station_id":"ce4bgg92rcd13ifvqb30","pricing_plan_id":"cebpf4jnsgd1na2vs0mg"},{"bike_id":"315e0359-4eb6-40dc-b81a-c4fedc859bee","system_id":"levelo_inurba_marseille","lat":43.30785,"lon":5.37645,"is_reserved":false,"is_disabled":false,"rental_uris":{"android":"levelo://app?vid=315e0359-4eb6-40dc-b81a-c4fedc859bee","ios":"levelo://app?vid=315e0359-4eb6-40dc-b81a-c4fedc859bee"},"vehicle_type_id":"4","last_reported":1732381700,"current_range_meters":36800,"station_id":"ce4bgv92rcd13ifvqcq0","pricing_plan_id":"cebpf4jnsgd1na2vs0mg"},{"bike_id":"734ff0c4-f245-4197-8036-be5e222d76fd","system_id":"levelo_inurba_marseille","lat":43.29001,"lon":5.4259,"is_reserved":false,"is_disabled":true,"rental_uris":{"android":"levelo://app?vid=734ff0c4-f245-4197-8036-be5e222d76fd","ios":"levelo://app?vid=734ff0c4-f245-4197-8036-be5e222d76fd"},"vehicle_type_id":"4","last_reported":1732381700,"current_range_meters":0,"station_id":"","pricing_plan_id":"cebpf4jnsgd1na2vs0mg"},{"bike_id":"18777e2a-d9de-4c37-a1c8-9b92ee63b146","system_id":"levelo_inurba_marseille","lat":43.29592,"lon":5.36748,"is_reserved":false,"is_disabled":false,"rental_uris":{"android":"levelo://app?vid=18777e2a-d9de-4c37-a1c8-9b92ee63b146","ios":"levelo://app?vid=18777e2a-d9de-4c37-a1c8-9b92ee63b146"},"vehicle_type_id":"4","last_reported":1732381700,"current_range_meters":20400,"station_id":"ce4bgph2rcd13ifvqc2g","pricing_plan_id":"cebpf4jnsgd1na2vs0mg"},{"bike_id":"672c10d6-d650-4ec0-b1da-05f4f6ab242e","system_id":"levelo_inurba_marseille","lat":43.30141,"lon":5.39849,"is_reserved":false,"is_disabled":false,"rental_uris":{"android":"levelo://app?vid=672c10d6-d650-4ec0-b1da-05f4f6ab242e","ios":"levelo://app?vid=672c10d6-d650-4ec0-b1da-05f4f6ab242e"},"vehicle_type_id":"4","last_reported":1732381700,"current_range_meters":19200,"station_id":"ce4bh0h2rcd13ifvqd40","pricing_plan_id":"cebpf4jnsgd1na2vs0mg"},{"bike_id":"f1c0194a-d687-4668-8c71-70ffc5515c4c","system_id":"levelo_inurba_marseille","lat":43.29575,"lon":5.37498,"is_reserved":false,"is_disabled":false,"rental_uris":{"android":"levelo://app?vid=f1c0194a-d687-4668-8c71-70ffc5515c4c","ios":"levelo://app?vid=f1c0194a-d687-4668-8c71-70ffc5515c4c"},"vehicle_type_id":"4","last_reported":1732381700,"current_range_meters":35600,"station_id":"ce4bgh92rcd13ifvqb50","pricing_plan_id":"cebpf4jnsgd1na2vs0mg"},{"bike_id":"a39fd15f-d160-4487-ba9f-a267a8fc4f2c","system_id":"levelo_inurba_marseille","lat":43.27207,"lon":5.39183,"is_reserved":false,"is_disabled":true,"rental_uris":{"android":"levelo://app?vid=a39fd15f-d160-4487-ba9f-a267a8fc4f2c","ios":"levelo://app?vid=a39fd15f-d160-4487-ba9f-a267a8fc4f2c"},"vehicle_type_id":"4","last_reported":1732381700,"current_range_meters":0,"station_id":"ce4bhhp2rcd13ifvqfm0","pricing_plan_id":"cebpf4jnsgd1na2vs0mg"},{"bike_id":"294eeb79-af1b-495a-909f-216801ae6b41","system_id":"levelo_inurba_marseille","lat":43.337444,"lon":5.374475,"is_reserved":false,"is_disabled":true,"rental_uris":{"android":"levelo://app?vid=294eeb79-af1b-495a-909f-216801ae6b41","ios":"levelo://app?vid=294eeb79-af1b-495a-909f-216801ae6b41"},"vehicle_type_id":"4","last_reported":1732381700,"current_range_meters":0,"station_id":"","pricing_plan_id":"cebpf4jnsgd1na2vs0mg"},{"bike_id":"2c03c3cd-5f52-453d-a450-11b892a1ec47","system_id":"levelo_inurba_marseille","lat":43.31166,"lon":5.38725,"is_reserved":false,"is_disabled":false,"rental_uris":{"android":"levelo://app?vid=2c03c3cd-5f52-453d-a450-11b892a1ec47","ios":"levelo://app?vid=2c03c3cd-5f52-453d-a450-11b892a1ec47"},"vehicle_type_id":"4","last_reported":1732381700,"current_range_meters":16400,"station_id":"ce4bgv12rcd13ifvqcp0","pricing_plan_id":"cebpf4jnsgd1na2vs0mg"},{"bike_id":"e5d63661-ea2d-4e9d-bdce-dbbf19d65c3c","system_id":"levelo_inurba_marseille","lat":43.32358,"lon":5.36751,"is_reserved":false,"is_disabled":false,"rental_uris":{"android":"levelo://app?vid=e5d63661-ea2d-4e9d-bdce-dbbf19d65c3c","ios":"levelo://app?vid=e5d63661-ea2d-4e9d-bdce-dbbf19d65c3c"},"vehicle_type_id":"4","last_reported":1732381700,"current_range_meters":38400,"station_id":"ce4bhsh2rcd13ifvqi2g","pricing_plan_id":"cebpf4jnsgd1na2vs0mg"},{"bike_id":"677c7322-f017-41b4-b2b4-6107ebd39bbc","system_id":"levelo_inurba_marseille","lat":43.32659,"lon":5.40988,"is_reserved":false,"is_disabled":false,"rental_uris":{"android":"levelo://app?vid=677c7322-f017-41b4-b2b4-6107ebd39bbc","ios":"levelo://app?vid=677c7322-f017-41b4-b2b4-6107ebd39bbc"},"vehicle_type_id":"4","last_reported":1732381700,"current_range_meters":12000,"station_id":"ce4bhpp2rcd13ifvqhgg","pricing_plan_id":"cebpf4jnsgd1na2vs0mg"},{"bike_id":"3dec6d96-dd33-4729-9a95-5cab96092156","system_id":"levelo_inurba_marseille","lat":43.29257,"lon":5.38447,"is_reserved":false,"is_disabled":false,"rental_uris":{"android":"levelo://app?vid=3dec6d96-dd33-4729-9a95-5cab96092156","ios":"levelo://app?vid=3dec6d96-dd33-4729-9a95-5cab96092156"},"vehicle_type_id":"4","last_reported":1732381700,"current_range_meters":38800,"station_id":"ce4bh692rcd13ifvqea0","pricing_plan_id":"cebpf4jnsgd1na2vs0mg"},{"bike_id":"fa87c33a-93bd-4944-8c9c-a4b347cf18b3","system_id":"levelo_inurba_marseille","lat":43.292806,"lon":5.408924,"is_reserved":false,"is_disabled":false,"rental_uris":{"android":"levelo://app?vid=fa87c33a-93bd-4944-8c9c-a4b347cf18b3","ios":"levelo://app?vid=fa87c33a-93bd-4944-8c9c-a4b347cf18b3"},"vehicle_type_id":"4","last_reported":1732381700,"current_range_meters":38800,"station_id":"ce4bh192rcd13ifvqdc0","pricing_plan_id":"cebpf4jnsgd1na2vs0mg"},{"bike_id":"18f6979e-cf65-4632-b209-076e21eafc22","system_id":"levelo_inurba_marseille","lat":43.25578,"lon":5.38227,"is_reserved":false,"is_disabled":true,"rental_uris":{"android":"levelo://app?vid=18f6979e-cf65-4632-b209-076e21eafc22","ios":"levelo://app?vid=18f6979e-cf65-4632-b209-076e21eafc22"},"vehicle_type_id":"4","last_reported":1732381700,"current_range_meters":1600,"station_id":"ce4bhih2rcd13ifvqfs0","pricing_plan_id":"cebpf4jnsgd1na2vs0mg"},{"bike_id":"cd78312a-142a-42d0-92e1-dbc654bf8bb4","system_id":"levelo_inurba_marseille","lat":43.2418,"lon":5.39719,"is_reserved":false,"is_disabled":true,"rental_uris":{"android":"levelo://app?vid=cd78312a-142a-42d0-92e1-dbc654bf8bb4","ios":"levelo://app?vid=cd78312a-142a-42d0-92e1-dbc654bf8bb4"},"vehicle_type_id":"4","last_reported":1732381700,"current_range_meters":13600,"station_id":"ce4bhn12rcd13ifvqgpg","pricing_plan_id":"cebpf4jnsgd1na2vs0mg"},{"bike_id":"6f28f4e1-766b-4654-a470-8e51a4ece757","system_id":"levelo_inurba_marseille","lat":43.24387,"lon":5.3706,"is_reserved":false,"is_disabled":false,"rental_uris":{"android":"levelo://app?vid=6f28f4e1-766b-4654-a470-8e51a4ece757","ios":"levelo://app?vid=6f28f4e1-766b-4654-a470-8e51a4ece757"},"vehicle_type_id":"4","last_reported":1732381700,"current_range_meters":18800,"station_id":"ce4bhhh2rcd13ifvqfk0","pricing_plan_id":"cebpf4jnsgd1na2vs0mg"},{"bike_id":"6edb86e4-77e0-47dc-8597-61d3695bc625","system_id":"levelo_inurba_marseille","lat":43.28617,"lon":5.35105,"is_reserved":false,"is_disabled":false,"rental_uris":{"android":"levelo://app?vid=6edb86e4-77e0-47dc-8597-61d3695bc625","ios":"levelo://app?vid=6edb86e4-77e0-47dc-8597-61d3695bc625"},"vehicle_type_id":"4","last_reported":1732381700,"current_range_meters":38400,"station_id":"ce4bhch2rcd13ifvqeug","pricing_plan_id":"cebpf4jnsgd1na2vs0mg"},{"bike_id":"26ccca33-0c0e-4a47-87e7-e3f11f5e5f06","system_id":"levelo_inurba_marseille","lat":43.29269,"lon":5.38451,"is_reserved":false,"is_disabled":false,"rental_uris":{"android":"levelo://app?vid=26ccca33-0c0e-4a47-87e7-e3f11f5e5f06","ios":"levelo://app?vid=26ccca33-0c0e-4a47-87e7-e3f11f5e5f06"},"vehicle_type_id":"4","last_reported":1732381700,"current_range_meters":27600,"station_id":"ce4bh692rcd13ifvqea0","pricing_plan_id":"cebpf4jnsgd1na2vs0mg"},{"bike_id":"a093ad12-b6bc-47f6-9819-08d3a7e62582","system_id":"levelo_inurba_marseille","lat":43.27373,"lon":5.36256,"is_reserved":false,"is_disabled":false,"rental_uris":{"android":"levelo://app?vid=a093ad12-b6bc-47f6-9819-08d3a7e62582","ios":"levelo://app?vid=a093ad12-b6bc-47f6-9819-08d3a7e62582"},"vehicle_type_id":"4","last_reported":1732381700,"current_range_meters":38800,"station_id":"ce4bhbh2rcd13ifvqeo0","pricing_plan_id":"cebpf4jnsgd1na2vs0mg"},{"bike_id":"43f6da94-5cf1-446e-9b8d-b4c4e86bf027","system_id":"levelo_inurba_marseille","lat":43.26188,"lon":5.37454,"is_reserved":false,"is_disabled":true,"rental_uris":{"android":"levelo://app?vid=43f6da94-5cf1-446e-9b8d-b4c4e86bf027","ios":"levelo://app?vid=43f6da94-5cf1-446e-9b8d-b4c4e86bf027"},"vehicle_type_id":"4","last_reported":1732381700,"current_range_meters":11200,"station_id":"ce4bhgp2rcd13ifvqfc0","pricing_plan_id":"cebpf4jnsgd1na2vs0mg"},{"bike_id":"dd5ab154-647e-4dfa-88f1-0f781c7552f5","system_id":"levelo_inurba_marseille","lat":43.25579,"lon":5.38233,"is_reserved":false,"is_disabled":false,"rental_uris":{"android":"levelo://app?vid=dd5ab154-647e-4dfa-88f1-0f781c7552f5","ios":"levelo://app?vid=dd5ab154-647e-4dfa-88f1-0f781c7552f5"},"vehicle_type_id":"4","last_reported":1732381700,"current_range_meters":29600,"station_id":"ce4bhih2rcd13ifvqfs0","pricing_plan_id":"cebpf4jnsgd1na2vs0mg"},{"bike_id":"f47b97d9-335f-402a-9285-3f5dda163596","system_id":"levelo_inurba_marseille","lat":43.28468,"lon":5.38417,"is_reserved":false,"is_disabled":false,"rental_uris":{"android":"levelo://app?vid=f47b97d9-335f-402a-9285-3f5dda163596","ios":"levelo://app?vid=f47b97d9-335f-402a-9285-3f5dda163596"},"vehicle_type_id":"4","last_reported":1732381700,"current_range_meters":22800,"station_id":"ce4bh512rcd13ifvqe3g","pricing_plan_id":"cebpf4jnsgd1na2vs0mg"},{"bike_id":"994195f6-b5da-4158-a5b5-8b38baad32b0","system_id":"levelo_inurba_marseille","lat":43.33724,"lon":5.39187,"is_reserved":false,"is_disabled":false,"rental_uris":{"android":"levelo://app?vid=994195f6-b5da-4158-a5b5-8b38baad32b0","ios":"levelo://app?vid=994195f6-b5da-4158-a5b5-8b38baad32b0"},"vehicle_type_id":"4","last_reported":1732381700,"current_range_meters":31200,"station_id":"ce4bhr92rcd13ifvqhsg","pricing_plan_id":"cebpf4jnsgd1na2vs0mg"},{"bike_id":"7c2f19f3-5373-4c2a-87bb-e1fd3ef39822","system_id":"levelo_inurba_marseille","lat":43.26562,"lon":5.39009,"is_reserved":false,"is_disabled":true,"rental_uris":{"android":"levelo://app?vid=7c2f19f3-5373-4c2a-87bb-e1fd3ef39822","ios":"levelo://app?vid=7c2f19f3-5373-4c2a-87bb-e1fd3ef39822"},"vehicle_type_id":"4","last_reported":1732381700,"current_range_meters":24800,"station_id":"ce4bhe12rcd13ifvqf30","pricing_plan_id":"cebpf4jnsgd1na2vs0mg"},{"bike_id":"36ef9a42-f4d8-45f5-adc2-b51fb9b962d0","system_id":"levelo_inurba_marseille","lat":43.34152,"lon":5.40898,"is_reserved":false,"is_disabled":false,"rental_uris":{"android":"levelo://app?vid=36ef9a42-f4d8-45f5-adc2-b51fb9b962d0","ios":"levelo://app?vid=36ef9a42-f4d8-45f5-adc2-b51fb9b962d0"},"vehicle_type_id":"4","last_reported":1732381700,"current_range_meters":38800,"station_id":"ce4bhqh2rcd13ifvqhlg","pricing_plan_id":"cebpf4jnsgd1na2vs0mg"},{"bike_id":"6ce6086b-6084-46f4-ba4b-69f8aaaa51b2","system_id":"levelo_inurba_marseille","lat":43.3054,"lon":5.38436,"is_reserved":false,"is_disabled":true,"rental_uris":{"android":"levelo://app?vid=6ce6086b-6084-46f4-ba4b-69f8aaaa51b2","ios":"levelo://app?vid=6ce6086b-6084-46f4-ba4b-69f8aaaa51b2"},"vehicle_type_id":"4","last_reported":1732381700,"current_range_meters":28000,"station_id":"ce4bgg92rcd13ifvqb30","pricing_plan_id":"cebpf4jnsgd1na2vs0mg"},{"bike_id":"c44f537a-bc33-4d10-ad80-2dc8e659d7be","system_id":"levelo_inurba_marseille","lat":43.31706,"lon":5.37761,"is_reserved":false,"is_disabled":false,"rental_uris":{"android":"levelo://app?vid=c44f537a-bc33-4d10-ad80-2dc8e659d7be","ios":"levelo://app?vid=c44f537a-bc33-4d10-ad80-2dc8e659d7be"},"vehicle_type_id":"4","last_reported":1732381700,"current_range_meters":22400,"station_id":"ce4bgth2rcd13ifvqch0","pricing_plan_id":"cebpf4jnsgd1na2vs0mg"},{"bike_id":"67eec873-2e0f-49d2-a011-594652020334","system_id":"levelo_inurba_marseille","lat":43.26212,"lon":5.37923,"is_reserved":false,"is_disabled":false,"rental_uris":{"android":"levelo://app?vid=67eec873-2e0f-49d2-a011-594652020334","ios":"levelo://app?vid=67eec873-2e0f-49d2-a011-594652020334"},"vehicle_type_id":"4","last_reported":1732381700,"current_range_meters":18000,"station_id":"ce4bhjp2rcd13ifvqg90","pricing_plan_id":"cebpf4jnsgd1na2vs0mg"},{"bike_id":"993397a7-0824-4fe1-bebd-18c1d07c311d","system_id":"levelo_inurba_marseille","lat":43.26568,"lon":5.39006,"is_reserved":false,"is_disabled":false,"rental_uris":{"android":"levelo://app?vid=993397a7-0824-4fe1-bebd-18c1d07c311d","ios":"levelo://app?vid=993397a7-0824-4fe1-bebd-18c1d07c311d"},"vehicle_type_id":"4","last_reported":1732381700,"current_range_meters":6400,"station_id":"ce4bhe12rcd13ifvqf30","pricing_plan_id":"cebpf4jnsgd1na2vs0mg"},{"bike_id":"50e385e3-0ee7-427c-8711-07fe7da0b388","system_id":"levelo_inurba_marseille","lat":43.2843,"lon":5.39181,"is_reserved":false,"is_disabled":false,"rental_uris":{"android":"levelo://app?vid=50e385e3-0ee7-427c-8711-07fe7da0b388","ios":"levelo://app?vid=50e385e3-0ee7-427c-8711-07fe7da0b388"},"vehicle_type_id":"4","last_reported":1732381700,"current_range_meters":38000,"station_id":"ce4bhoh2rcd13ifvqh5g","pricing_plan_id":"cebpf4jnsgd1na2vs0mg"},{"bike_id":"add7b917-fcb6-48eb-8217-1fbdc442cfa1","system_id":"levelo_inurba_marseille","lat":43.29758,"lon":5.36923,"is_reserved":false,"is_disabled":false,"rental_uris":{"android":"levelo://app?vid=add7b917-fcb6-48eb-8217-1fbdc442cfa1","ios":"levelo://app?vid=add7b917-fcb6-48eb-8217-1fbdc442cfa1"},"vehicle_type_id":"4","last_reported":1732381700,"current_range_meters":20400,"station_id":"ce4bhg92rcd13ifvqf90","pricing_plan_id":"cebpf4jnsgd1na2vs0mg"},{"bike_id":"1cd6dd5c-dd5c-40f0-b868-f3c8df35c052","system_id":"levelo_inurba_marseille","lat":43.27166,"lon":5.40996,"is_reserved":false,"is_disabled":false,"rental_uris":{"android":"levelo://app?vid=1cd6dd5c-dd5c-40f0-b868-f3c8df35c052","ios":"levelo://app?vid=1cd6dd5c-dd5c-40f0-b868-f3c8df35c052"},"vehicle_type_id":"4","last_reported":1732381700,"current_range_meters":40000,"station_id":"ce4bhl12rcd13ifvqgf0","pricing_plan_id":"cebpf4jnsgd1na2vs0mg"},{"bike_id":"68f9bc67-7a46-4c54-8555-1eed96ca8ef0","system_id":"levelo_inurba_marseille","lat":43.32107,"lon":5.36778,"is_reserved":false,"is_disabled":false,"rental_uris":{"android":"levelo://app?vid=68f9bc67-7a46-4c54-8555-1eed96ca8ef0","ios":"levelo://app?vid=68f9bc67-7a46-4c54-8555-1eed96ca8ef0"},"vehicle_type_id":"4","last_reported":1732381700,"current_range_meters":36000,"station_id":"ce4bhrh2rcd13ifvqhug","pricing_plan_id":"cebpf4jnsgd1na2vs0mg"},{"bike_id":"4d1fc215-00a8-43c1-a56d-07dfeae9adce","system_id":"levelo_inurba_marseille","lat":43.32051,"lon":5.41551,"is_reserved":false,"is_disabled":false,"rental_uris":{"android":"levelo://app?vid=4d1fc215-00a8-43c1-a56d-07dfeae9adce","ios":"levelo://app?vid=4d1fc215-00a8-43c1-a56d-07dfeae9adce"},"vehicle_type_id":"4","last_reported":1732381700,"current_range_meters":30000,"station_id":"ce4bhq92rcd13ifvqhkg","pricing_plan_id":"cebpf4jnsgd1na2vs0mg"},{"bike_id":"3749f547-26de-49f3-8704-9a5a504b68f5","system_id":"levelo_inurba_marseille","lat":43.25581,"lon":5.3823,"is_reserved":false,"is_disabled":false,"rental_uris":{"android":"levelo://app?vid=3749f547-26de-49f3-8704-9a5a504b68f5","ios":"levelo://app?vid=3749f547-26de-49f3-8704-9a5a504b68f5"},"vehicle_type_id":"4","last_reported":1732381700,"current_range_meters":38800,"station_id":"ce4bhih2rcd13ifvqfs0","pricing_plan_id":"cebpf4jnsgd1na2vs0mg"},{"bike_id":"d2a52b58-fabe-4a57-94ba-464e41b85800","system_id":"levelo_inurba_marseille","lat":43.3014,"lon":5.37428,"is_reserved":false,"is_disabled":true,"rental_uris":{"android":"levelo://app?vid=d2a52b58-fabe-4a57-94ba-464e41b85800","ios":"levelo://app?vid=d2a52b58-fabe-4a57-94ba-464e41b85800"},"vehicle_type_id":"4","last_reported":1732381700,"current_range_meters":29600,"station_id":"ce4bgs92rcd13ifvqcc0","pricing_plan_id":"cebpf4jnsgd1na2vs0mg"},{"bike_id":"1917f9fc-8abc-47a6-9cf1-6898454d1e0e","system_id":"levelo_inurba_marseille","lat":43.32054,"lon":5.41546,"is_reserved":false,"is_disabled":false,"rental_uris":{"android":"levelo://app?vid=1917f9fc-8abc-47a6-9cf1-6898454d1e0e","ios":"levelo://app?vid=1917f9fc-8abc-47a6-9cf1-6898454d1e0e"},"vehicle_type_id":"4","last_reported":1732381700,"current_range_meters":37600,"station_id":"ce4bhq92rcd13ifvqhkg","pricing_plan_id":"cebpf4jnsgd1na2vs0mg"},{"bike_id":"6419cb87-fe2f-454b-86e0-656bc9994665","system_id":"levelo_inurba_marseille","lat":43.29367,"lon":5.37841,"is_reserved":false,"is_disabled":false,"rental_uris":{"android":"levelo://app?vid=6419cb87-fe2f-454b-86e0-656bc9994665","ios":"levelo://app?vid=6419cb87-fe2f-454b-86e0-656bc9994665"},"vehicle_type_id":"4","last_reported":1732381700,"current_range_meters":38800,"station_id":"ce4bgjh2rcd13ifvqbf0","pricing_plan_id":"cebpf4jnsgd1na2vs0mg"},{"bike_id":"a63070df-f117-44f0-b225-dbdf56b29ebb","system_id":"levelo_inurba_marseille","lat":43.29516,"lon":5.39034,"is_reserved":false,"is_disabled":false,"rental_uris":{"android":"levelo://app?vid=a63070df-f117-44f0-b225-dbdf56b29ebb","ios":"levelo://app?vid=a63070df-f117-44f0-b225-dbdf56b29ebb"},"vehicle_type_id":"4","last_reported":1732381700,"current_range_meters":38400,"station_id":"ce4bh3p2rcd13ifvqdp0","pricing_plan_id":"cebpf4jnsgd1na2vs0mg"},{"bike_id":"3c5d0254-2542-44e0-aa08-1a8753e937a8","system_id":"levelo_inurba_marseille","lat":43.26687,"lon":5.38273,"is_reserved":false,"is_disabled":false,"rental_uris":{"android":"levelo://app?vid=3c5d0254-2542-44e0-aa08-1a8753e937a8","ios":"levelo://app?vid=3c5d0254-2542-44e0-aa08-1a8753e937a8"},"vehicle_type_id":"4","last_reported":1732381700,"current_range_meters":35200,"station_id":"ce4bhg92rcd13ifvqf90","pricing_plan_id":"cebpf4jnsgd1na2vs0mg"},{"bike_id":"dd3b09fe-b71a-401a-b299-a88383f47f1c","system_id":"levelo_inurba_marseille","lat":43.337444,"lon":5.374475,"is_reserved":false,"is_disabled":false,"rental_uris":{"android":"levelo://app?vid=dd3b09fe-b71a-401a-b299-a88383f47f1c","ios":"levelo://app?vid=dd3b09fe-b71a-401a-b299-a88383f47f1c"},"vehicle_type_id":"4","last_reported":1732381700,"current_range_meters":34800,"station_id":"","pricing_plan_id":"cebpf4jnsgd1na2vs0mg"},{"bike_id":"538f8be4-3b49-4ac8-8e22-0ffc46f5ce19","system_id":"levelo_inurba_marseille","lat":43.27965,"lon":5.38726,"is_reserved":false,"is_disabled":true,"rental_uris":{"android":"levelo://app?vid=538f8be4-3b49-4ac8-8e22-0ffc46f5ce19","ios":"levelo://app?vid=538f8be4-3b49-4ac8-8e22-0ffc46f5ce19"},"vehicle_type_id":"4","last_reported":1732381700,"current_range_meters":0,"station_id":"ce4bhg12rcd13ifvqf80","pricing_plan_id":"cebpf4jnsgd1na2vs0mg"},{"bike_id":"e3337411-c63e-4e9d-b5e1-35e5e2305102","system_id":"levelo_inurba_marseille","lat":43.27315,"lon":5.3909,"is_reserved":false,"is_disabled":false,"rental_uris":{"android":"levelo://app?vid=e3337411-c63e-4e9d-b5e1-35e5e2305102","ios":"levelo://app?vid=e3337411-c63e-4e9d-b5e1-35e5e2305102"},"vehicle_type_id":"4","last_reported":1732381700,"current_range_meters":39200,"station_id":"ce4bhgp2rcd13ifvqfe0","pricing_plan_id":"cebpf4jnsgd1na2vs0mg"},{"bike_id":"48316204-459d-4fe2-b448-eb3bca56b31a","system_id":"levelo_inurba_marseille","lat":43.24669,"lon":5.3816,"is_reserved":false,"is_disabled":false,"rental_uris":{"android":"levelo://app?vid=48316204-459d-4fe2-b448-eb3bca56b31a","ios":"levelo://app?vid=48316204-459d-4fe2-b448-eb3bca56b31a"},"vehicle_type_id":"4","last_reported":1732381700,"current_range_meters":38800,"station_id":"ce4bhih2rcd13ifvqfr0","pricing_plan_id":"cebpf4jnsgd1na2vs0mg"},{"bike_id":"18908abd-a4d4-4295-9e48-1b1b9f6bc1b0","system_id":"levelo_inurba_marseille","lat":43.2681,"lon":5.40268,"is_reserved":false,"is_disabled":false,"rental_uris":{"android":"levelo://app?vid=18908abd-a4d4-4295-9e48-1b1b9f6bc1b0","ios":"levelo://app?vid=18908abd-a4d4-4295-9e48-1b1b9f6bc1b0"},"vehicle_type_id":"4","last_reported":1732381700,"current_range_meters":38400,"station_id":"ce501612rcd8frsf0b60","pricing_plan_id":"cebpf4jnsgd1na2vs0mg"},{"bike_id":"c3a9fd83-5a98-42b2-a8f7-5104c351d62e","system_id":"levelo_inurba_marseille","lat":43.30461,"lon":5.37905,"is_reserved":false,"is_disabled":false,"rental_uris":{"android":"levelo://app?vid=c3a9fd83-5a98-42b2-a8f7-5104c351d62e","ios":"levelo://app?vid=c3a9fd83-5a98-42b2-a8f7-5104c351d62e"},"vehicle_type_id":"4","last_reported":1732381700,"current_range_meters":37600,"station_id":"ce4bgup2rcd13ifvqcn0","pricing_plan_id":"cebpf4jnsgd1na2vs0mg"},{"bike_id":"a07f3b18-b7e9-4865-b1d3-2e0773f13888","system_id":"levelo_inurba_marseille","lat":43.24809,"lon":5.37458,"is_reserved":false,"is_disabled":false,"rental_uris":{"android":"levelo://app?vid=a07f3b18-b7e9-4865-b1d3-2e0773f13888","ios":"levelo://app?vid=a07f3b18-b7e9-4865-b1d3-2e0773f13888"},"vehicle_type_id":"4","last_reported":1732381700,"current_range_meters":38800,"station_id":"ce4bhgh2rcd13ifvqfb0","pricing_plan_id":"cebpf4jnsgd1na2vs0mg"},{"bike_id":"30afc51d-7981-4daa-a145-a1a39f6a3f81","system_id":"levelo_inurba_marseille","lat":43.26935,"lon":5.38917,"is_reserved":false,"is_disabled":false,"rental_uris":{"android":"levelo://app?vid=30afc51d-7981-4daa-a145-a1a39f6a3f81","ios":"levelo://app?vid=30afc51d-7981-4daa-a145-a1a39f6a3f81"},"vehicle_type_id":"4","last_reported":1732381700,"current_range_meters":38800,"station_id":"ce4bhhh2rcd13ifvqfl0","pricing_plan_id":"cebpf4jnsgd1na2vs0mg"},{"bike_id":"0aa44c23-1f5c-48ce-bd1c-a341fe1bfa7b","system_id":"levelo_inurba_marseille","lat":43.30533,"lon":5.36528,"is_reserved":false,"is_disabled":true,"rental_uris":{"android":"levelo://app?vid=0aa44c23-1f5c-48ce-bd1c-a341fe1bfa7b","ios":"levelo://app?vid=0aa44c23-1f5c-48ce-bd1c-a341fe1bfa7b"},"vehicle_type_id":"4","last_reported":1732381700,"current_range_meters":4800,"station_id":"ce4bgs12rcd13ifvqcag","pricing_plan_id":"cebpf4jnsgd1na2vs0mg"},{"bike_id":"cbc2167d-639d-4b33-b914-3ad6f36f2868","system_id":"levelo_inurba_marseille","lat":43.22929,"lon":5.35376,"is_reserved":false,"is_disabled":false,"rental_uris":{"android":"levelo://app?vid=cbc2167d-639d-4b33-b914-3ad6f36f2868","ios":"levelo://app?vid=cbc2167d-639d-4b33-b914-3ad6f36f2868"},"vehicle_type_id":"4","last_reported":1732381700,"current_range_meters":5600,"station_id":"cpo3532slgdg3j2ikp40","pricing_plan_id":"cebpf4jnsgd1na2vs0mg"},{"bike_id":"405cd567-00c9-4b21-b75e-d422bbbfaba2","system_id":"levelo_inurba_marseille","lat":43.30139,"lon":5.39868,"is_reserved":false,"is_disabled":true,"rental_uris":{"android":"levelo://app?vid=405cd567-00c9-4b21-b75e-d422bbbfaba2","ios":"levelo://app?vid=405cd567-00c9-4b21-b75e-d422bbbfaba2"},"vehicle_type_id":"4","last_reported":1732381700,"current_range_meters":400,"station_id":"ce4bh0h2rcd13ifvqd40","pricing_plan_id":"cebpf4jnsgd1na2vs0mg"},{"bike_id":"21346a58-9e0a-49cb-bdfe-93affb945e62","system_id":"levelo_inurba_marseille","lat":43.30946,"lon":5.3903,"is_reserved":false,"is_disabled":false,"rental_uris":{"android":"levelo://app?vid=21346a58-9e0a-49cb-bdfe-93affb945e62","ios":"levelo://app?vid=21346a58-9e0a-49cb-bdfe-93affb945e62"},"vehicle_type_id":"4","last_reported":1732381700,"current_range_meters":30800,"station_id":"ce4bgup2rcd13ifvqco0","pricing_plan_id":"cebpf4jnsgd1na2vs0mg"},{"bike_id":"86f34bc6-5794-43b1-9104-21220fdedf71","system_id":"levelo_inurba_marseille","lat":43.28453,"lon":5.35894,"is_reserved":false,"is_disabled":false,"rental_uris":{"android":"levelo://app?vid=86f34bc6-5794-43b1-9104-21220fdedf71","ios":"levelo://app?vid=86f34bc6-5794-43b1-9104-21220fdedf71"},"vehicle_type_id":"4","last_reported":1732381700,"current_range_meters":12000,"station_id":"ce4bhah2rcd13ifvqei0","pricing_plan_id":"cebpf4jnsgd1na2vs0mg"},{"bike_id":"635f2088-37d7-4c7e-b140-3292398be605","system_id":"levelo_inurba_marseille","lat":43.24813,"lon":5.37465,"is_reserved":false,"is_disabled":false,"rental_uris":{"android":"levelo://app?vid=635f2088-37d7-4c7e-b140-3292398be605","ios":"levelo://app?vid=635f2088-37d7-4c7e-b140-3292398be605"},"vehicle_type_id":"4","last_reported":1732381700,"current_range_meters":38800,"station_id":"ce4bhgh2rcd13ifvqfb0","pricing_plan_id":"cebpf4jnsgd1na2vs0mg"},{"bike_id":"e6cd0c8f-d7f7-4b8c-b79a-5062102cc9cc","system_id":"levelo_inurba_marseille","lat":43.29565,"lon":5.37509,"is_reserved":false,"is_disabled":false,"rental_uris":{"android":"levelo://app?vid=e6cd0c8f-d7f7-4b8c-b79a-5062102cc9cc","ios":"levelo://app?vid=e6cd0c8f-d7f7-4b8c-b79a-5062102cc9cc"},"vehicle_type_id":"4","last_reported":1732381700,"current_range_meters":38800,"station_id":"ce4bgh92rcd13ifvqb50","pricing_plan_id":"cebpf4jnsgd1na2vs0mg"},{"bike_id":"dc74b12e-53cc-4ad8-867d-27f2e2ba01e3","system_id":"levelo_inurba_marseille","lat":43.26215,"lon":5.37441,"is_reserved":false,"is_disabled":false,"rental_uris":{"android":"levelo://app?vid=dc74b12e-53cc-4ad8-867d-27f2e2ba01e3","ios":"levelo://app?vid=dc74b12e-53cc-4ad8-867d-27f2e2ba01e3"},"vehicle_type_id":"4","last_reported":1732381700,"current_range_meters":19200,"station_id":"ce4bhgp2rcd13ifvqfc0","pricing_plan_id":"cebpf4jnsgd1na2vs0mg"},{"bike_id":"a7cdb094-5b45-4d5e-b744-7f1b6518acf9","system_id":"levelo_inurba_marseille","lat":43.30865,"lon":5.37779,"is_reserved":false,"is_disabled":false,"rental_uris":{"android":"levelo://app?vid=a7cdb094-5b45-4d5e-b744-7f1b6518acf9","ios":"levelo://app?vid=a7cdb094-5b45-4d5e-b744-7f1b6518acf9"},"vehicle_type_id":"4","last_reported":1732381700,"current_range_meters":28800,"station_id":"","pricing_plan_id":"cebpf4jnsgd1na2vs0mg"},{"bike_id":"0826c0df-a0a3-48a3-b191-ef85f6e0a09e","system_id":"levelo_inurba_marseille","lat":43.29796,"lon":5.39349,"is_reserved":false,"is_disabled":false,"rental_uris":{"android":"levelo://app?vid=0826c0df-a0a3-48a3-b191-ef85f6e0a09e","ios":"levelo://app?vid=0826c0df-a0a3-48a3-b191-ef85f6e0a09e"},"vehicle_type_id":"4","last_reported":1732381700,"current_range_meters":36800,"station_id":"chh1huq6cuj3fo74tm60","pricing_plan_id":"cebpf4jnsgd1na2vs0mg"},{"bike_id":"1efad98e-81b9-454d-9873-e2b81491e8e0","system_id":"levelo_inurba_marseille","lat":43.28098,"lon":5.37841,"is_reserved":false,"is_disabled":true,"rental_uris":{"android":"levelo://app?vid=1efad98e-81b9-454d-9873-e2b81491e8e0","ios":"levelo://app?vid=1efad98e-81b9-454d-9873-e2b81491e8e0"},"vehicle_type_id":"4","last_reported":1732381700,"current_range_meters":0,"station_id":"ce4bha12rcd13ifvqee0","pricing_plan_id":"cebpf4jnsgd1na2vs0mg"},{"bike_id":"2671fb8a-3452-46fd-bec4-bd169133378c","system_id":"levelo_inurba_marseille","lat":43.26685,"lon":5.38274,"is_reserved":false,"is_disabled":true,"rental_uris":{"android":"levelo://app?vid=2671fb8a-3452-46fd-bec4-bd169133378c","ios":"levelo://app?vid=2671fb8a-3452-46fd-bec4-bd169133378c"},"vehicle_type_id":"4","last_reported":1732381700,"current_range_meters":0,"station_id":"ce4bhg92rcd13ifvqf90","pricing_plan_id":"cebpf4jnsgd1na2vs0mg"},{"bike_id":"a89ea2d2-9f7a-4ca0-b4c6-6693004d86cf","system_id":"levelo_inurba_marseille","lat":43.24806,"lon":5.37456,"is_reserved":false,"is_disabled":false,"rental_uris":{"android":"levelo://app?vid=a89ea2d2-9f7a-4ca0-b4c6-6693004d86cf","ios":"levelo://app?vid=a89ea2d2-9f7a-4ca0-b4c6-6693004d86cf"},"vehicle_type_id":"4","last_reported":1732381700,"current_range_meters":38800,"station_id":"ce4bhgh2rcd13ifvqfb0","pricing_plan_id":"cebpf4jnsgd1na2vs0mg"},{"bike_id":"84441ab2-1116-4482-acff-8f476ae38efb","system_id":"levelo_inurba_marseille","lat":43.28722,"lon":5.36089,"is_reserved":false,"is_disabled":false,"rental_uris":{"android":"levelo://app?vid=84441ab2-1116-4482-acff-8f476ae38efb","ios":"levelo://app?vid=84441ab2-1116-4482-acff-8f476ae38efb"},"vehicle_type_id":"4","last_reported":1732381700,"current_range_meters":2800,"station_id":"cki0cbj6b192h4jlfktg","pricing_plan_id":"cebpf4jnsgd1na2vs0mg"},{"bike_id":"28f8ecf8-a7ae-4a32-aa4f-609e03eada5d","system_id":"levelo_inurba_marseille","lat":43.29541,"lon":5.38546,"is_reserved":false,"is_disabled":true,"rental_uris":{"android":"levelo://app?vid=28f8ecf8-a7ae-4a32-aa4f-609e03eada5d","ios":"levelo://app?vid=28f8ecf8-a7ae-4a32-aa4f-609e03eada5d"},"vehicle_type_id":"4","last_reported":1732381700,"current_range_meters":2000,"station_id":"ce4bgih2rcd13ifvqba0","pricing_plan_id":"cebpf4jnsgd1na2vs0mg"},{"bike_id":"0570b0db-5543-4b8e-ae63-f0dc7c627bee","system_id":"levelo_inurba_marseille","lat":43.29519,"lon":5.37509,"is_reserved":false,"is_disabled":false,"rental_uris":{"android":"levelo://app?vid=0570b0db-5543-4b8e-ae63-f0dc7c627bee","ios":"levelo://app?vid=0570b0db-5543-4b8e-ae63-f0dc7c627bee"},"vehicle_type_id":"4","last_reported":1732381700,"current_range_meters":37600,"station_id":"ce4bgkp2rcd13ifvqbmg","pricing_plan_id":"cebpf4jnsgd1na2vs0mg"},{"bike_id":"858b65e1-94fc-4151-a71e-8b168cb19dcb","system_id":"levelo_inurba_marseille","lat":43.29916,"lon":5.38144,"is_reserved":false,"is_disabled":true,"rental_uris":{"android":"levelo://app?vid=858b65e1-94fc-4151-a71e-8b168cb19dcb","ios":"levelo://app?vid=858b65e1-94fc-4151-a71e-8b168cb19dcb"},"vehicle_type_id":"4","last_reported":1732381700,"current_range_meters":8800,"station_id":"","pricing_plan_id":"cebpf4jnsgd1na2vs0mg"},{"bike_id":"094a500d-bf5f-4085-97bb-5e827d07163d","system_id":"levelo_inurba_marseille","lat":43.31179,"lon":5.38721,"is_reserved":false,"is_disabled":false,"rental_uris":{"android":"levelo://app?vid=094a500d-bf5f-4085-97bb-5e827d07163d","ios":"levelo://app?vid=094a500d-bf5f-4085-97bb-5e827d07163d"},"vehicle_type_id":"4","last_reported":1732381700,"current_range_meters":22400,"station_id":"ce4bgv12rcd13ifvqcp0","pricing_plan_id":"cebpf4jnsgd1na2vs0mg"},{"bike_id":"c8a7066f-900d-4c15-8eaa-c4b93cb88ee7","system_id":"levelo_inurba_marseille","lat":43.2866,"lon":5.36356,"is_reserved":false,"is_disabled":false,"rental_uris":{"android":"levelo://app?vid=c8a7066f-900d-4c15-8eaa-c4b93cb88ee7","ios":"levelo://app?vid=c8a7066f-900d-4c15-8eaa-c4b93cb88ee7"},"vehicle_type_id":"4","last_reported":1732381700,"current_range_meters":36800,"station_id":"ce4bhah2rcd13ifvqej0","pricing_plan_id":"cebpf4jnsgd1na2vs0mg"},{"bike_id":"133c0635-6ac4-49a6-b3b8-4ad5dda949c5","system_id":"levelo_inurba_marseille","lat":43.31694,"lon":5.37737,"is_reserved":false,"is_disabled":true,"rental_uris":{"android":"levelo://app?vid=133c0635-6ac4-49a6-b3b8-4ad5dda949c5","ios":"levelo://app?vid=133c0635-6ac4-49a6-b3b8-4ad5dda949c5"},"vehicle_type_id":"4","last_reported":1732381700,"current_range_meters":38800,"station_id":"ce4bgth2rcd13ifvqch0","pricing_plan_id":"cebpf4jnsgd1na2vs0mg"},{"bike_id":"95119497-39de-4122-b65d-621ab263d41f","system_id":"levelo_inurba_marseille","lat":43.28928,"lon":5.36644,"is_reserved":false,"is_disabled":false,"rental_uris":{"android":"levelo://app?vid=95119497-39de-4122-b65d-621ab263d41f","ios":"levelo://app?vid=95119497-39de-4122-b65d-621ab263d41f"},"vehicle_type_id":"4","last_reported":1732381700,"current_range_meters":21600,"station_id":"ce4bhap2rcd13ifvqek0","pricing_plan_id":"cebpf4jnsgd1na2vs0mg"},{"bike_id":"dffeccd3-600e-418b-9fc1-99c6dfe6c759","system_id":"levelo_inurba_marseille","lat":43.30134,"lon":5.37413,"is_reserved":false,"is_disabled":false,"rental_uris":{"android":"levelo://app?vid=dffeccd3-600e-418b-9fc1-99c6dfe6c759","ios":"levelo://app?vid=dffeccd3-600e-418b-9fc1-99c6dfe6c759"},"vehicle_type_id":"4","last_reported":1732381700,"current_range_meters":20800,"station_id":"ce4bgs92rcd13ifvqcc0","pricing_plan_id":"cebpf4jnsgd1na2vs0mg"},{"bike_id":"f4427e9f-c509-4364-a1f3-9e371b95713b","system_id":"levelo_inurba_marseille","lat":43.29425,"lon":5.38663,"is_reserved":false,"is_disabled":true,"rental_uris":{"android":"levelo://app?vid=f4427e9f-c509-4364-a1f3-9e371b95713b","ios":"levelo://app?vid=f4427e9f-c509-4364-a1f3-9e371b95713b"},"vehicle_type_id":"4","last_reported":1732381700,"current_range_meters":0,"station_id":"ce4bh2h2rcd13ifvqdh0","pricing_plan_id":"cebpf4jnsgd1na2vs0mg"},{"bike_id":"642aa144-7177-4a66-aaa0-4c363d08548a","system_id":"levelo_inurba_marseille","lat":43.24074,"lon":5.37754,"is_reserved":false,"is_disabled":false,"rental_uris":{"android":"levelo://app?vid=642aa144-7177-4a66-aaa0-4c363d08548a","ios":"levelo://app?vid=642aa144-7177-4a66-aaa0-4c363d08548a"},"vehicle_type_id":"4","last_reported":1732381700,"current_range_meters":14000,"station_id":"ce4bhnp2rcd13ifvqgvg","pricing_plan_id":"cebpf4jnsgd1na2vs0mg"},{"bike_id":"11abb84a-5c91-44e3-bdaa-e5a75bc4ae78","system_id":"levelo_inurba_marseille","lat":43.28571,"lon":5.395,"is_reserved":false,"is_disabled":false,"rental_uris":{"android":"levelo://app?vid=11abb84a-5c91-44e3-bdaa-e5a75bc4ae78","ios":"levelo://app?vid=11abb84a-5c91-44e3-bdaa-e5a75bc4ae78"},"vehicle_type_id":"4","last_reported":1732381700,"current_range_meters":38000,"station_id":"ce4bh292rcd13ifvqdg0","pricing_plan_id":"cebpf4jnsgd1na2vs0mg"},{"bike_id":"f7033b3a-38b5-43ec-9dfb-9338084bda7e","system_id":"levelo_inurba_marseille","lat":43.26065,"lon":5.39402,"is_reserved":false,"is_disabled":false,"rental_uris":{"android":"levelo://app?vid=f7033b3a-38b5-43ec-9dfb-9338084bda7e","ios":"levelo://app?vid=f7033b3a-38b5-43ec-9dfb-9338084bda7e"},"vehicle_type_id":"4","last_reported":1732381700,"current_range_meters":6000,"station_id":"ce4bhh92rcd13ifvqfj0","pricing_plan_id":"cebpf4jnsgd1na2vs0mg"},{"bike_id":"552ae1f9-34eb-4d70-a19b-3616d3661778","system_id":"levelo_inurba_marseille","lat":43.33723,"lon":5.39185,"is_reserved":false,"is_disabled":false,"rental_uris":{"android":"levelo://app?vid=552ae1f9-34eb-4d70-a19b-3616d3661778","ios":"levelo://app?vid=552ae1f9-34eb-4d70-a19b-3616d3661778"},"vehicle_type_id":"4","last_reported":1732381700,"current_range_meters":20400,"station_id":"ce4bhr92rcd13ifvqhsg","pricing_plan_id":"cebpf4jnsgd1na2vs0mg"},{"bike_id":"f7f3756c-1ec7-4782-9c87-6273f87b6774","system_id":"levelo_inurba_marseille","lat":43.337444,"lon":5.374475,"is_reserved":false,"is_disabled":true,"rental_uris":{"android":"levelo://app?vid=f7f3756c-1ec7-4782-9c87-6273f87b6774","ios":"levelo://app?vid=f7f3756c-1ec7-4782-9c87-6273f87b6774"},"vehicle_type_id":"4","last_reported":1732381700,"current_range_meters":32400,"station_id":"","pricing_plan_id":"cebpf4jnsgd1na2vs0mg"},{"bike_id":"740f162e-a0c7-4af9-899d-283ea1409dc6","system_id":"levelo_inurba_marseille","lat":43.26934,"lon":5.389175,"is_reserved":false,"is_disabled":true,"rental_uris":{"android":"levelo://app?vid=740f162e-a0c7-4af9-899d-283ea1409dc6","ios":"levelo://app?vid=740f162e-a0c7-4af9-899d-283ea1409dc6"},"vehicle_type_id":"4","last_reported":1732381700,"current_range_meters":36400,"station_id":"ce4bhhh2rcd13ifvqfl0","pricing_plan_id":"cebpf4jnsgd1na2vs0mg"},{"bike_id":"a0f8d629-2212-4e88-9e67-107a37190561","system_id":"levelo_inurba_marseille","lat":43.27377,"lon":5.36261,"is_reserved":false,"is_disabled":false,"rental_uris":{"android":"levelo://app?vid=a0f8d629-2212-4e88-9e67-107a37190561","ios":"levelo://app?vid=a0f8d629-2212-4e88-9e67-107a37190561"},"vehicle_type_id":"4","last_reported":1732381700,"current_range_meters":30800,"station_id":"ce4bhbh2rcd13ifvqeo0","pricing_plan_id":"cebpf4jnsgd1na2vs0mg"},{"bike_id":"e8f826ec-cf1d-427e-a65b-cf83f280be00","system_id":"levelo_inurba_marseille","lat":43.27064,"lon":5.40259,"is_reserved":false,"is_disabled":true,"rental_uris":{"android":"levelo://app?vid=e8f826ec-cf1d-427e-a65b-cf83f280be00","ios":"levelo://app?vid=e8f826ec-cf1d-427e-a65b-cf83f280be00"},"vehicle_type_id":"4","last_reported":1732381700,"current_range_meters":0,"station_id":"ce4bhk92rcd13ifvqgc0","pricing_plan_id":"cebpf4jnsgd1na2vs0mg"},{"bike_id":"1cd8e3dc-34c3-4536-ac9b-d0dfbe6544d3","system_id":"levelo_inurba_marseille","lat":43.2743,"lon":5.39407,"is_reserved":false,"is_disabled":false,"rental_uris":{"android":"levelo://app?vid=1cd8e3dc-34c3-4536-ac9b-d0dfbe6544d3","ios":"levelo://app?vid=1cd8e3dc-34c3-4536-ac9b-d0dfbe6544d3"},"vehicle_type_id":"4","last_reported":1732381700,"current_range_meters":12400,"station_id":"ce4bhdp2rcd13ifvqf20","pricing_plan_id":"cebpf4jnsgd1na2vs0mg"},{"bike_id":"ccd63523-bf54-4543-833d-dbc8f231c15e","system_id":"levelo_inurba_marseille","lat":43.30889,"lon":5.37188,"is_reserved":false,"is_disabled":false,"rental_uris":{"android":"levelo://app?vid=ccd63523-bf54-4543-833d-dbc8f231c15e","ios":"levelo://app?vid=ccd63523-bf54-4543-833d-dbc8f231c15e"},"vehicle_type_id":"4","last_reported":1732381700,"current_range_meters":25200,"station_id":"ce4bguh2rcd13ifvqckg","pricing_plan_id":"cebpf4jnsgd1na2vs0mg"},{"bike_id":"06867f49-6536-478a-865f-5f43336a6c89","system_id":"levelo_inurba_marseille","lat":43.27209,"lon":5.39197,"is_reserved":false,"is_disabled":false,"rental_uris":{"android":"levelo://app?vid=06867f49-6536-478a-865f-5f43336a6c89","ios":"levelo://app?vid=06867f49-6536-478a-865f-5f43336a6c89"},"vehicle_type_id":"4","last_reported":1732381700,"current_range_meters":27600,"station_id":"ce4bhhp2rcd13ifvqfm0","pricing_plan_id":"cebpf4jnsgd1na2vs0mg"},{"bike_id":"96fef04f-f424-4b1e-a003-fc645e04ed3a","system_id":"levelo_inurba_marseille","lat":43.27373,"lon":5.36251,"is_reserved":false,"is_disabled":true,"rental_uris":{"android":"levelo://app?vid=96fef04f-f424-4b1e-a003-fc645e04ed3a","ios":"levelo://app?vid=96fef04f-f424-4b1e-a003-fc645e04ed3a"},"vehicle_type_id":"4","last_reported":1732381700,"current_range_meters":38800,"station_id":"ce4bhbh2rcd13ifvqeo0","pricing_plan_id":"cebpf4jnsgd1na2vs0mg"},{"bike_id":"b7b61d62-d3cf-45c0-ae9e-f05215122577","system_id":"levelo_inurba_marseille","lat":43.30923,"lon":5.40145,"is_reserved":false,"is_disabled":true,"rental_uris":{"android":"levelo://app?vid=b7b61d62-d3cf-45c0-ae9e-f05215122577","ios":"levelo://app?vid=b7b61d62-d3cf-45c0-ae9e-f05215122577"},"vehicle_type_id":"4","last_reported":1732381700,"current_range_meters":400,"station_id":"ce4bgvp2rcd13ifvqct0","pricing_plan_id":"cebpf4jnsgd1na2vs0mg"},{"bike_id":"f0101f7b-8900-46aa-8805-79e36090f8db","system_id":"levelo_inurba_marseille","lat":43.28414,"lon":5.37516,"is_reserved":false,"is_disabled":false,"rental_uris":{"android":"levelo://app?vid=f0101f7b-8900-46aa-8805-79e36090f8db","ios":"levelo://app?vid=f0101f7b-8900-46aa-8805-79e36090f8db"},"vehicle_type_id":"4","last_reported":1732381700,"current_range_meters":38800,"station_id":"ce4bh412rcd13ifvqds0","pricing_plan_id":"cebpf4jnsgd1na2vs0mg"},{"bike_id":"6eed309f-af75-43c7-86cf-981452e458b0","system_id":"levelo_inurba_marseille","lat":43.29973,"lon":5.37198,"is_reserved":false,"is_disabled":false,"rental_uris":{"android":"levelo://app?vid=6eed309f-af75-43c7-86cf-981452e458b0","ios":"levelo://app?vid=6eed309f-af75-43c7-86cf-981452e458b0"},"vehicle_type_id":"4","last_reported":1732381700,"current_range_meters":26000,"station_id":"ce4bgr92rcd13ifvqc7g","pricing_plan_id":"cebpf4jnsgd1na2vs0mg"},{"bike_id":"a3a4d349-0228-4793-b777-1f7ce7c73256","system_id":"levelo_inurba_marseille","lat":43.31704,"lon":5.37759,"is_reserved":false,"is_disabled":false,"rental_uris":{"android":"levelo://app?vid=a3a4d349-0228-4793-b777-1f7ce7c73256","ios":"levelo://app?vid=a3a4d349-0228-4793-b777-1f7ce7c73256"},"vehicle_type_id":"4","last_reported":1732381700,"current_range_meters":39200,"station_id":"ce4bgth2rcd13ifvqch0","pricing_plan_id":"cebpf4jnsgd1na2vs0mg"},{"bike_id":"d84f2164-1394-41ee-8a6e-ad2b3ded0069","system_id":"levelo_inurba_marseille","lat":43.3204,"lon":5.41552,"is_reserved":false,"is_disabled":false,"rental_uris":{"android":"levelo://app?vid=d84f2164-1394-41ee-8a6e-ad2b3ded0069","ios":"levelo://app?vid=d84f2164-1394-41ee-8a6e-ad2b3ded0069"},"vehicle_type_id":"4","last_reported":1732381700,"current_range_meters":38800,"station_id":"ce4bhq92rcd13ifvqhkg","pricing_plan_id":"cebpf4jnsgd1na2vs0mg"},{"bike_id":"63e5c75a-30c8-4be5-8ec8-448fdf89dbb8","system_id":"levelo_inurba_marseille","lat":43.23068,"lon":5.35496,"is_reserved":false,"is_disabled":false,"rental_uris":{"android":"levelo://app?vid=63e5c75a-30c8-4be5-8ec8-448fdf89dbb8","ios":"levelo://app?vid=63e5c75a-30c8-4be5-8ec8-448fdf89dbb8"},"vehicle_type_id":"4","last_reported":1732381700,"current_range_meters":9200,"station_id":"cpo3342slgdg3j2ifvpg","pricing_plan_id":"cebpf4jnsgd1na2vs0mg"},{"bike_id":"844693b4-a8ab-4270-9c51-2ae0bf163fc0","system_id":"levelo_inurba_marseille","lat":43.23137,"lon":5.43729,"is_reserved":false,"is_disabled":true,"rental_uris":{"android":"levelo://app?vid=844693b4-a8ab-4270-9c51-2ae0bf163fc0","ios":"levelo://app?vid=844693b4-a8ab-4270-9c51-2ae0bf163fc0"},"vehicle_type_id":"4","last_reported":1732381700,"current_range_meters":0,"station_id":"ce4bhmp2rcd13ifvqgog","pricing_plan_id":"cebpf4jnsgd1na2vs0mg"},{"bike_id":"325fe5f5-d999-444f-bb23-27ea636eb738","system_id":"levelo_inurba_marseille","lat":43.24167,"lon":5.36398,"is_reserved":false,"is_disabled":true,"rental_uris":{"android":"levelo://app?vid=325fe5f5-d999-444f-bb23-27ea636eb738","ios":"levelo://app?vid=325fe5f5-d999-444f-bb23-27ea636eb738"},"vehicle_type_id":"4","last_reported":1732381700,"current_range_meters":0,"station_id":"cpo36qri1sfpv3e86is0","pricing_plan_id":"cebpf4jnsgd1na2vs0mg"},{"bike_id":"89228f68-3127-4436-9201-8331b38355c7","system_id":"levelo_inurba_marseille","lat":43.2573,"lon":5.41108,"is_reserved":false,"is_disabled":true,"rental_uris":{"android":"levelo://app?vid=89228f68-3127-4436-9201-8331b38355c7","ios":"levelo://app?vid=89228f68-3127-4436-9201-8331b38355c7"},"vehicle_type_id":"4","last_reported":1732381700,"current_range_meters":0,"station_id":"ce4bhkp2rcd13ifvqgd0","pricing_plan_id":"cebpf4jnsgd1na2vs0mg"},{"bike_id":"6e0ae46a-3369-4953-aab8-1f10df6c0300","system_id":"levelo_inurba_marseille","lat":43.29976,"lon":5.37179,"is_reserved":false,"is_disabled":false,"rental_uris":{"android":"levelo://app?vid=6e0ae46a-3369-4953-aab8-1f10df6c0300","ios":"levelo://app?vid=6e0ae46a-3369-4953-aab8-1f10df6c0300"},"vehicle_type_id":"4","last_reported":1732381700,"current_range_meters":38400,"station_id":"ce4bgr92rcd13ifvqc7g","pricing_plan_id":"cebpf4jnsgd1na2vs0mg"},{"bike_id":"38a401f6-e3ef-40ed-878b-4d123a8821cc","system_id":"levelo_inurba_marseille","lat":43.28408,"lon":5.34991,"is_reserved":false,"is_disabled":false,"rental_uris":{"android":"levelo://app?vid=38a401f6-e3ef-40ed-878b-4d123a8821cc","ios":"levelo://app?vid=38a401f6-e3ef-40ed-878b-4d123a8821cc"},"vehicle_type_id":"4","last_reported":1732381700,"current_range_meters":38400,"station_id":"ce4bhbh2rcd13ifvqepg","pricing_plan_id":"cebpf4jnsgd1na2vs0mg"},{"bike_id":"e5951ee3-4a5a-4ebb-b469-096c5188dfa3","system_id":"levelo_inurba_marseille","lat":43.23184,"lon":5.35554,"is_reserved":false,"is_disabled":false,"rental_uris":{"android":"levelo://app?vid=e5951ee3-4a5a-4ebb-b469-096c5188dfa3","ios":"levelo://app?vid=e5951ee3-4a5a-4ebb-b469-096c5188dfa3"},"vehicle_type_id":"4","last_reported":1732381700,"current_range_meters":23200,"station_id":"ce4bhu92rcd13ifvqi70","pricing_plan_id":"cebpf4jnsgd1na2vs0mg"},{"bike_id":"2a173e89-142f-444c-9913-766c5e3feae3","system_id":"levelo_inurba_marseille","lat":43.28947,"lon":5.36635,"is_reserved":false,"is_disabled":false,"rental_uris":{"android":"levelo://app?vid=2a173e89-142f-444c-9913-766c5e3feae3","ios":"levelo://app?vid=2a173e89-142f-444c-9913-766c5e3feae3"},"vehicle_type_id":"4","last_reported":1732381700,"current_range_meters":34800,"station_id":"ce4bhap2rcd13ifvqek0","pricing_plan_id":"cebpf4jnsgd1na2vs0mg"},{"bike_id":"53aedfa4-4049-4759-bc95-757addd8c685","system_id":"levelo_inurba_marseille","lat":43.26554,"lon":5.37287,"is_reserved":false,"is_disabled":false,"rental_uris":{"android":"levelo://app?vid=53aedfa4-4049-4759-bc95-757addd8c685","ios":"levelo://app?vid=53aedfa4-4049-4759-bc95-757addd8c685"},"vehicle_type_id":"4","last_reported":1732381700,"current_range_meters":38800,"station_id":"ce4bhg12rcd13ifvqf70","pricing_plan_id":"cebpf4jnsgd1na2vs0mg"},{"bike_id":"da1ecba1-1a50-4d63-9b37-5b78855002f6","system_id":"levelo_inurba_marseille","lat":43.30297,"lon":5.37694,"is_reserved":false,"is_disabled":false,"rental_uris":{"android":"levelo://app?vid=da1ecba1-1a50-4d63-9b37-5b78855002f6","ios":"levelo://app?vid=da1ecba1-1a50-4d63-9b37-5b78855002f6"},"vehicle_type_id":"4","last_reported":1732381700,"current_range_meters":16800,"station_id":"ce4bguh2rcd13ifvqcj0","pricing_plan_id":"cebpf4jnsgd1na2vs0mg"},{"bike_id":"e89acc00-2b06-4720-9a63-22cf0d597a07","system_id":"levelo_inurba_marseille","lat":43.25006,"lon":5.38919,"is_reserved":false,"is_disabled":false,"rental_uris":{"android":"levelo://app?vid=e89acc00-2b06-4720-9a63-22cf0d597a07","ios":"levelo://app?vid=e89acc00-2b06-4720-9a63-22cf0d597a07"},"vehicle_type_id":"4","last_reported":1732381700,"current_range_meters":33600,"station_id":"ce4bhgp2rcd13ifvqfd0","pricing_plan_id":"cebpf4jnsgd1na2vs0mg"},{"bike_id":"af2b540e-3acc-4d74-8e79-a21d8a13e0b3","system_id":"levelo_inurba_marseille","lat":43.2721,"lon":5.39178,"is_reserved":false,"is_disabled":false,"rental_uris":{"android":"levelo://app?vid=af2b540e-3acc-4d74-8e79-a21d8a13e0b3","ios":"levelo://app?vid=af2b540e-3acc-4d74-8e79-a21d8a13e0b3"},"vehicle_type_id":"4","last_reported":1732381700,"current_range_meters":9200,"station_id":"ce4bhhp2rcd13ifvqfm0","pricing_plan_id":"cebpf4jnsgd1na2vs0mg"},{"bike_id":"6c948e9c-d5b3-4fe5-a918-1bd2f7c83b02","system_id":"levelo_inurba_marseille","lat":43.32114,"lon":5.36772,"is_reserved":false,"is_disabled":false,"rental_uris":{"android":"levelo://app?vid=6c948e9c-d5b3-4fe5-a918-1bd2f7c83b02","ios":"levelo://app?vid=6c948e9c-d5b3-4fe5-a918-1bd2f7c83b02"},"vehicle_type_id":"4","last_reported":1732381700,"current_range_meters":32400,"station_id":"ce4bhrh2rcd13ifvqhug","pricing_plan_id":"cebpf4jnsgd1na2vs0mg"},{"bike_id":"9e620abf-d324-4f99-84fc-d67e71109f2a","system_id":"levelo_inurba_marseille","lat":43.31077,"lon":5.42434,"is_reserved":false,"is_disabled":true,"rental_uris":{"android":"levelo://app?vid=9e620abf-d324-4f99-84fc-d67e71109f2a","ios":"levelo://app?vid=9e620abf-d324-4f99-84fc-d67e71109f2a"},"vehicle_type_id":"4","last_reported":1732381700,"current_range_meters":0,"station_id":"ce4bhp92rcd13ifvqhag","pricing_plan_id":"cebpf4jnsgd1na2vs0mg"},{"bike_id":"9388a7ff-9c5c-4c26-9899-39b2408cf7e3","system_id":"levelo_inurba_marseille","lat":43.31025,"lon":5.38342,"is_reserved":false,"is_disabled":true,"rental_uris":{"android":"levelo://app?vid=9388a7ff-9c5c-4c26-9899-39b2408cf7e3","ios":"levelo://app?vid=9388a7ff-9c5c-4c26-9899-39b2408cf7e3"},"vehicle_type_id":"4","last_reported":1732381700,"current_range_meters":0,"station_id":"","pricing_plan_id":"cebpf4jnsgd1na2vs0mg"},{"bike_id":"6bd0bfd4-2bec-493f-9ac5-a5bc7980b001","system_id":"levelo_inurba_marseille","lat":43.26031,"lon":5.37548,"is_reserved":false,"is_disabled":false,"rental_uris":{"android":"levelo://app?vid=6bd0bfd4-2bec-493f-9ac5-a5bc7980b001","ios":"levelo://app?vid=6bd0bfd4-2bec-493f-9ac5-a5bc7980b001"},"vehicle_type_id":"4","last_reported":1732381700,"current_range_meters":38800,"station_id":"ce4bhgh2rcd13ifvqfa0","pricing_plan_id":"cebpf4jnsgd1na2vs0mg"},{"bike_id":"b1219487-e156-41d8-b328-51e76d6d7c87","system_id":"levelo_inurba_marseille","lat":43.32366,"lon":5.38886,"is_reserved":false,"is_disabled":false,"rental_uris":{"android":"levelo://app?vid=b1219487-e156-41d8-b328-51e76d6d7c87","ios":"levelo://app?vid=b1219487-e156-41d8-b328-51e76d6d7c87"},"vehicle_type_id":"4","last_reported":1732381700,"current_range_meters":12800,"station_id":"ce4bhqp2rcd13ifvqhog","pricing_plan_id":"cebpf4jnsgd1na2vs0mg"},{"bike_id":"3a43bd46-1b49-4463-bad0-a8831b3d78cb","system_id":"levelo_inurba_marseille","lat":43.24069,"lon":5.37764,"is_reserved":false,"is_disabled":false,"rental_uris":{"android":"levelo://app?vid=3a43bd46-1b49-4463-bad0-a8831b3d78cb","ios":"levelo://app?vid=3a43bd46-1b49-4463-bad0-a8831b3d78cb"},"vehicle_type_id":"4","last_reported":1732381700,"current_range_meters":29600,"station_id":"ce4bhnp2rcd13ifvqgvg","pricing_plan_id":"cebpf4jnsgd1na2vs0mg"},{"bike_id":"94830ad1-649f-4df3-8001-cbcc69e39a8f","system_id":"levelo_inurba_marseille","lat":43.32048,"lon":5.41573,"is_reserved":false,"is_disabled":false,"rental_uris":{"android":"levelo://app?vid=94830ad1-649f-4df3-8001-cbcc69e39a8f","ios":"levelo://app?vid=94830ad1-649f-4df3-8001-cbcc69e39a8f"},"vehicle_type_id":"4","last_reported":1732381700,"current_range_meters":38000,"station_id":"ce4bhq92rcd13ifvqhkg","pricing_plan_id":"cebpf4jnsgd1na2vs0mg"},{"bike_id":"5c53cfbd-2547-413a-b79a-f8cc3b1ca992","system_id":"levelo_inurba_marseille","lat":43.32112,"lon":5.36771,"is_reserved":false,"is_disabled":false,"rental_uris":{"android":"levelo://app?vid=5c53cfbd-2547-413a-b79a-f8cc3b1ca992","ios":"levelo://app?vid=5c53cfbd-2547-413a-b79a-f8cc3b1ca992"},"vehicle_type_id":"4","last_reported":1732381700,"current_range_meters":9600,"station_id":"ce4bhrh2rcd13ifvqhug","pricing_plan_id":"cebpf4jnsgd1na2vs0mg"},{"bike_id":"d17de75b-b89d-434b-8082-47847ef83aeb","system_id":"levelo_inurba_marseille","lat":43.27946,"lon":5.41048,"is_reserved":false,"is_disabled":false,"rental_uris":{"android":"levelo://app?vid=d17de75b-b89d-434b-8082-47847ef83aeb","ios":"levelo://app?vid=d17de75b-b89d-434b-8082-47847ef83aeb"},"vehicle_type_id":"4","last_reported":1732381700,"current_range_meters":16400,"station_id":"ce4bhnp2rcd13ifvqh0g","pricing_plan_id":"cebpf4jnsgd1na2vs0mg"},{"bike_id":"04b9c9cb-be15-44a7-9bdc-6d22ca715c34","system_id":"levelo_inurba_marseille","lat":43.33724,"lon":5.39175,"is_reserved":false,"is_disabled":false,"rental_uris":{"android":"levelo://app?vid=04b9c9cb-be15-44a7-9bdc-6d22ca715c34","ios":"levelo://app?vid=04b9c9cb-be15-44a7-9bdc-6d22ca715c34"},"vehicle_type_id":"4","last_reported":1732381700,"current_range_meters":28400,"station_id":"ce4bhr92rcd13ifvqhsg","pricing_plan_id":"cebpf4jnsgd1na2vs0mg"},{"bike_id":"32acc8c6-a9ed-46ea-beec-f16ac1b6f61c","system_id":"levelo_inurba_marseille","lat":43.307103,"lon":5.392547,"is_reserved":false,"is_disabled":false,"rental_uris":{"android":"levelo://app?vid=32acc8c6-a9ed-46ea-beec-f16ac1b6f61c","ios":"levelo://app?vid=32acc8c6-a9ed-46ea-beec-f16ac1b6f61c"},"vehicle_type_id":"4","last_reported":1732381700,"current_range_meters":27200,"station_id":"","pricing_plan_id":"cebpf4jnsgd1na2vs0mg"},{"bike_id":"56ca6b93-ca3d-4dfc-8e20-e35c24d8bd07","system_id":"levelo_inurba_marseille","lat":43.337444,"lon":5.374475,"is_reserved":false,"is_disabled":true,"rental_uris":{"android":"levelo://app?vid=56ca6b93-ca3d-4dfc-8e20-e35c24d8bd07","ios":"levelo://app?vid=56ca6b93-ca3d-4dfc-8e20-e35c24d8bd07"},"vehicle_type_id":"4","last_reported":1732381700,"current_range_meters":400,"station_id":"","pricing_plan_id":"cebpf4jnsgd1na2vs0mg"},{"bike_id":"1b649c56-fb4d-4907-baeb-e1a0e9911933","system_id":"levelo_inurba_marseille","lat":43.30929,"lon":5.40146,"is_reserved":false,"is_disabled":false,"rental_uris":{"android":"levelo://app?vid=1b649c56-fb4d-4907-baeb-e1a0e9911933","ios":"levelo://app?vid=1b649c56-fb4d-4907-baeb-e1a0e9911933"},"vehicle_type_id":"4","last_reported":1732381700,"current_range_meters":8800,"station_id":"ce4bgvp2rcd13ifvqct0","pricing_plan_id":"cebpf4jnsgd1na2vs0mg"},{"bike_id":"fc4e3e2e-faf4-4cbc-8fd8-119b18821073","system_id":"levelo_inurba_marseille","lat":43.25577,"lon":5.38233,"is_reserved":false,"is_disabled":true,"rental_uris":{"android":"levelo://app?vid=fc4e3e2e-faf4-4cbc-8fd8-119b18821073","ios":"levelo://app?vid=fc4e3e2e-faf4-4cbc-8fd8-119b18821073"},"vehicle_type_id":"4","last_reported":1732381700,"current_range_meters":16400,"station_id":"ce4bhih2rcd13ifvqfs0","pricing_plan_id":"cebpf4jnsgd1na2vs0mg"},{"bike_id":"14a94806-137c-4936-85ff-161a6d38126b","system_id":"levelo_inurba_marseille","lat":43.32367,"lon":5.38885,"is_reserved":false,"is_disabled":false,"rental_uris":{"android":"levelo://app?vid=14a94806-137c-4936-85ff-161a6d38126b","ios":"levelo://app?vid=14a94806-137c-4936-85ff-161a6d38126b"},"vehicle_type_id":"4","last_reported":1732381700,"current_range_meters":38800,"station_id":"ce4bhqp2rcd13ifvqhog","pricing_plan_id":"cebpf4jnsgd1na2vs0mg"},{"bike_id":"1f741346-28e9-475e-945e-50145fcc1501","system_id":"levelo_inurba_marseille","lat":43.2693,"lon":5.38914,"is_reserved":false,"is_disabled":true,"rental_uris":{"android":"levelo://app?vid=1f741346-28e9-475e-945e-50145fcc1501","ios":"levelo://app?vid=1f741346-28e9-475e-945e-50145fcc1501"},"vehicle_type_id":"4","last_reported":1732381700,"current_range_meters":0,"station_id":"ce4bhhh2rcd13ifvqfl0","pricing_plan_id":"cebpf4jnsgd1na2vs0mg"},{"bike_id":"6fe1275a-af58-4407-8dcf-9cacb875f8d7","system_id":"levelo_inurba_marseille","lat":43.25583,"lon":5.38222,"is_reserved":false,"is_disabled":false,"rental_uris":{"android":"levelo://app?vid=6fe1275a-af58-4407-8dcf-9cacb875f8d7","ios":"levelo://app?vid=6fe1275a-af58-4407-8dcf-9cacb875f8d7"},"vehicle_type_id":"4","last_reported":1732381700,"current_range_meters":27600,"station_id":"ce4bhih2rcd13ifvqfs0","pricing_plan_id":"cebpf4jnsgd1na2vs0mg"},{"bike_id":"835059d7-b00a-44ed-b8d3-58324abeba21","system_id":"levelo_inurba_marseille","lat":43.30604,"lon":5.39359,"is_reserved":false,"is_disabled":false,"rental_uris":{"android":"levelo://app?vid=835059d7-b00a-44ed-b8d3-58324abeba21","ios":"levelo://app?vid=835059d7-b00a-44ed-b8d3-58324abeba21"},"vehicle_type_id":"4","last_reported":1732381700,"current_range_meters":26000,"station_id":"ce4bh0p2rcd13ifvqd80","pricing_plan_id":"cebpf4jnsgd1na2vs0mg"},{"bike_id":"43746d86-8a13-4845-9faf-ae69b548d714","system_id":"levelo_inurba_marseille","lat":43.29457,"lon":5.37926,"is_reserved":false,"is_disabled":true,"rental_uris":{"android":"levelo://app?vid=43746d86-8a13-4845-9faf-ae69b548d714","ios":"levelo://app?vid=43746d86-8a13-4845-9faf-ae69b548d714"},"vehicle_type_id":"4","last_reported":1732381700,"current_range_meters":2000,"station_id":"","pricing_plan_id":"cebpf4jnsgd1na2vs0mg"},{"bike_id":"0a12e6c7-3edb-448a-aa6d-fdb9ee86611f","system_id":"levelo_inurba_marseille","lat":43.27319,"lon":5.39094,"is_reserved":false,"is_disabled":false,"rental_uris":{"android":"levelo://app?vid=0a12e6c7-3edb-448a-aa6d-fdb9ee86611f","ios":"levelo://app?vid=0a12e6c7-3edb-448a-aa6d-fdb9ee86611f"},"vehicle_type_id":"4","last_reported":1732381700,"current_range_meters":36400,"station_id":"ce4bhgp2rcd13ifvqfe0","pricing_plan_id":"cebpf4jnsgd1na2vs0mg"},{"bike_id":"29a6c0eb-58ae-44f8-8826-3cbe2f8b348f","system_id":"levelo_inurba_marseille","lat":43.30467,"lon":5.37917,"is_reserved":false,"is_disabled":false,"rental_uris":{"android":"levelo://app?vid=29a6c0eb-58ae-44f8-8826-3cbe2f8b348f","ios":"levelo://app?vid=29a6c0eb-58ae-44f8-8826-3cbe2f8b348f"},"vehicle_type_id":"4","last_reported":1732381700,"current_range_meters":12000,"station_id":"ce4bgup2rcd13ifvqcn0","pricing_plan_id":"cebpf4jnsgd1na2vs0mg"},{"bike_id":"a2b09865-004d-45eb-b301-cf3640220a72","system_id":"levelo_inurba_marseille","lat":43.296,"lon":5.38099,"is_reserved":false,"is_disabled":true,"rental_uris":{"android":"levelo://app?vid=a2b09865-004d-45eb-b301-cf3640220a72","ios":"levelo://app?vid=a2b09865-004d-45eb-b301-cf3640220a72"},"vehicle_type_id":"4","last_reported":1732381700,"current_range_meters":0,"station_id":"ce4bgl12rcd13ifvqbo0","pricing_plan_id":"cebpf4jnsgd1na2vs0mg"},{"bike_id":"6d147f0d-8ae3-444a-8769-4091d03194f5","system_id":"levelo_inurba_marseille","lat":43.27807,"lon":5.4072,"is_reserved":false,"is_disabled":false,"rental_uris":{"android":"levelo://app?vid=6d147f0d-8ae3-444a-8769-4091d03194f5","ios":"levelo://app?vid=6d147f0d-8ae3-444a-8769-4091d03194f5"},"vehicle_type_id":"4","last_reported":1732381700,"current_range_meters":6000,"station_id":"ce4bhnh2rcd13ifvqgtg","pricing_plan_id":"cebpf4jnsgd1na2vs0mg"},{"bike_id":"a456cfa9-9a39-4f49-85f5-b6bc7077e297","system_id":"levelo_inurba_marseille","lat":43.29634,"lon":5.37749,"is_reserved":false,"is_disabled":false,"rental_uris":{"android":"levelo://app?vid=a456cfa9-9a39-4f49-85f5-b6bc7077e297","ios":"levelo://app?vid=a456cfa9-9a39-4f49-85f5-b6bc7077e297"},"vehicle_type_id":"4","last_reported":1732381700,"current_range_meters":24000,"station_id":"ce4bgi92rcd13ifvqb90","pricing_plan_id":"cebpf4jnsgd1na2vs0mg"},{"bike_id":"f7f29097-34a0-4fd3-9ee7-8abdc6d41ad7","system_id":"levelo_inurba_marseille","lat":43.27206,"lon":5.39199,"is_reserved":false,"is_disabled":true,"rental_uris":{"android":"levelo://app?vid=f7f29097-34a0-4fd3-9ee7-8abdc6d41ad7","ios":"levelo://app?vid=f7f29097-34a0-4fd3-9ee7-8abdc6d41ad7"},"vehicle_type_id":"4","last_reported":1732381700,"current_range_meters":3600,"station_id":"ce4bhhp2rcd13ifvqfm0","pricing_plan_id":"cebpf4jnsgd1na2vs0mg"},{"bike_id":"2a65ad68-9aed-4d86-9726-75767aa91ee1","system_id":"levelo_inurba_marseille","lat":43.25501,"lon":5.37646,"is_reserved":false,"is_disabled":false,"rental_uris":{"android":"levelo://app?vid=2a65ad68-9aed-4d86-9726-75767aa91ee1","ios":"levelo://app?vid=2a65ad68-9aed-4d86-9726-75767aa91ee1"},"vehicle_type_id":"4","last_reported":1732381700,"current_range_meters":25600,"station_id":"ce4bhh12rcd13ifvqff0","pricing_plan_id":"cebpf4jnsgd1na2vs0mg"},{"bike_id":"87518e9b-d305-48a8-9c4e-850d1e0dd7e6","system_id":"levelo_inurba_marseille","lat":43.298,"lon":5.40421,"is_reserved":false,"is_disabled":true,"rental_uris":{"android":"levelo://app?vid=87518e9b-d305-48a8-9c4e-850d1e0dd7e6","ios":"levelo://app?vid=87518e9b-d305-48a8-9c4e-850d1e0dd7e6"},"vehicle_type_id":"4","last_reported":1732381700,"current_range_meters":0,"station_id":"ce4bh112rcd13ifvqd90","pricing_plan_id":"cebpf4jnsgd1na2vs0mg"},{"bike_id":"7ce81b24-062a-4160-9439-7dae322c168e","system_id":"levelo_inurba_marseille","lat":43.301142,"lon":5.398472,"is_reserved":false,"is_disabled":false,"rental_uris":{"android":"levelo://app?vid=7ce81b24-062a-4160-9439-7dae322c168e","ios":"levelo://app?vid=7ce81b24-062a-4160-9439-7dae322c168e"},"vehicle_type_id":"4","last_reported":1732381700,"current_range_meters":36000,"station_id":"ce4bh012rcd13ifvqcv0","pricing_plan_id":"cebpf4jnsgd1na2vs0mg"},{"bike_id":"1e6adbea-1003-4c41-bf6d-d37d97165c18","system_id":"levelo_inurba_marseille","lat":43.31996,"lon":5.38158,"is_reserved":false,"is_disabled":false,"rental_uris":{"android":"levelo://app?vid=1e6adbea-1003-4c41-bf6d-d37d97165c18","ios":"levelo://app?vid=1e6adbea-1003-4c41-bf6d-d37d97165c18"},"vehicle_type_id":"4","last_reported":1732381700,"current_range_meters":30400,"station_id":"ce4bhr12rcd13ifvqhpg","pricing_plan_id":"cebpf4jnsgd1na2vs0mg"},{"bike_id":"40838fbd-175e-4307-947d-b85409f45c17","system_id":"levelo_inurba_marseille","lat":43.23197,"lon":5.35553,"is_reserved":false,"is_disabled":false,"rental_uris":{"android":"levelo://app?vid=40838fbd-175e-4307-947d-b85409f45c17","ios":"levelo://app?vid=40838fbd-175e-4307-947d-b85409f45c17"},"vehicle_type_id":"4","last_reported":1732381700,"current_range_meters":4000,"station_id":"ce4bhu92rcd13ifvqi70","pricing_plan_id":"cebpf4jnsgd1na2vs0mg"},{"bike_id":"7f723b0b-cbe8-4f68-b8fe-2ce3d5e983bd","system_id":"levelo_inurba_marseille","lat":43.32101,"lon":5.3678,"is_reserved":false,"is_disabled":true,"rental_uris":{"android":"levelo://app?vid=7f723b0b-cbe8-4f68-b8fe-2ce3d5e983bd","ios":"levelo://app?vid=7f723b0b-cbe8-4f68-b8fe-2ce3d5e983bd"},"vehicle_type_id":"4","last_reported":1732381700,"current_range_meters":34000,"station_id":"","pricing_plan_id":"cebpf4jnsgd1na2vs0mg"},{"bike_id":"14b12e5f-4c89-4660-855f-f09d66e01b05","system_id":"levelo_inurba_marseille","lat":43.29305,"lon":5.37165,"is_reserved":false,"is_disabled":false,"rental_uris":{"android":"levelo://app?vid=14b12e5f-4c89-4660-855f-f09d66e01b05","ios":"levelo://app?vid=14b12e5f-4c89-4660-855f-f09d66e01b05"},"vehicle_type_id":"4","last_reported":1732381700,"current_range_meters":36000,"station_id":"ce4bgh92rcd13ifvqb40","pricing_plan_id":"cebpf4jnsgd1na2vs0mg"},{"bike_id":"3ceb3a97-e7e8-41ba-b0d1-0f0927ce2f4a","system_id":"levelo_inurba_marseille","lat":43.28471,"lon":5.3842,"is_reserved":false,"is_disabled":false,"rental_uris":{"android":"levelo://app?vid=3ceb3a97-e7e8-41ba-b0d1-0f0927ce2f4a","ios":"levelo://app?vid=3ceb3a97-e7e8-41ba-b0d1-0f0927ce2f4a"},"vehicle_type_id":"4","last_reported":1732381700,"current_range_meters":17200,"station_id":"ce4bh512rcd13ifvqe3g","pricing_plan_id":"cebpf4jnsgd1na2vs0mg"},{"bike_id":"27d8ec33-f885-42d1-8307-5878ca2a79f6","system_id":"levelo_inurba_marseille","lat":43.29991,"lon":5.3851,"is_reserved":false,"is_disabled":false,"rental_uris":{"android":"levelo://app?vid=27d8ec33-f885-42d1-8307-5878ca2a79f6","ios":"levelo://app?vid=27d8ec33-f885-42d1-8307-5878ca2a79f6"},"vehicle_type_id":"4","last_reported":1732381700,"current_range_meters":5600,"station_id":"ce4bgj92rcd13ifvqbd0","pricing_plan_id":"cebpf4jnsgd1na2vs0mg"},{"bike_id":"cee81c8e-d296-49d5-888a-e371a4863f4e","system_id":"levelo_inurba_marseille","lat":43.25725,"lon":5.41106,"is_reserved":false,"is_disabled":false,"rental_uris":{"android":"levelo://app?vid=cee81c8e-d296-49d5-888a-e371a4863f4e","ios":"levelo://app?vid=cee81c8e-d296-49d5-888a-e371a4863f4e"},"vehicle_type_id":"4","last_reported":1732381700,"current_range_meters":38800,"station_id":"ce4bhkp2rcd13ifvqgd0","pricing_plan_id":"cebpf4jnsgd1na2vs0mg"},{"bike_id":"7e9061cd-5627-407a-8c6f-fcf878e75a40","system_id":"levelo_inurba_marseille","lat":43.27954,"lon":5.41051,"is_reserved":false,"is_disabled":true,"rental_uris":{"android":"levelo://app?vid=7e9061cd-5627-407a-8c6f-fcf878e75a40","ios":"levelo://app?vid=7e9061cd-5627-407a-8c6f-fcf878e75a40"},"vehicle_type_id":"4","last_reported":1732381700,"current_range_meters":16800,"station_id":"ce4bhnp2rcd13ifvqh0g","pricing_plan_id":"cebpf4jnsgd1na2vs0mg"},{"bike_id":"0aa2ee5b-29e3-4db8-9ffd-eb5f7b56cdbc","system_id":"levelo_inurba_marseille","lat":43.27424,"lon":5.39415,"is_reserved":false,"is_disabled":true,"rental_uris":{"android":"levelo://app?vid=0aa2ee5b-29e3-4db8-9ffd-eb5f7b56cdbc","ios":"levelo://app?vid=0aa2ee5b-29e3-4db8-9ffd-eb5f7b56cdbc"},"vehicle_type_id":"4","last_reported":1732381700,"current_range_meters":32800,"station_id":"ce4bhdp2rcd13ifvqf20","pricing_plan_id":"cebpf4jnsgd1na2vs0mg"},{"bike_id":"43eb7303-d80c-491b-a2f3-6366c7854f1b","system_id":"levelo_inurba_marseille","lat":43.26554,"lon":5.37287,"is_reserved":false,"is_disabled":false,"rental_uris":{"android":"levelo://app?vid=43eb7303-d80c-491b-a2f3-6366c7854f1b","ios":"levelo://app?vid=43eb7303-d80c-491b-a2f3-6366c7854f1b"},"vehicle_type_id":"4","last_reported":1732381700,"current_range_meters":38800,"station_id":"ce4bhg12rcd13ifvqf70","pricing_plan_id":"cebpf4jnsgd1na2vs0mg"},{"bike_id":"34ce2636-a271-4156-a90f-8efc4fc87b2b","system_id":"levelo_inurba_marseille","lat":43.26936,"lon":5.38916,"is_reserved":false,"is_disabled":false,"rental_uris":{"android":"levelo://app?vid=34ce2636-a271-4156-a90f-8efc4fc87b2b","ios":"levelo://app?vid=34ce2636-a271-4156-a90f-8efc4fc87b2b"},"vehicle_type_id":"4","last_reported":1732381700,"current_range_meters":36800,"station_id":"ce4bhhh2rcd13ifvqfl0","pricing_plan_id":"cebpf4jnsgd1na2vs0mg"},{"bike_id":"a1dd6d2a-8c73-4a99-ba59-4139b00a3b45","system_id":"levelo_inurba_marseille","lat":43.29579,"lon":5.36746,"is_reserved":false,"is_disabled":false,"rental_uris":{"android":"levelo://app?vid=a1dd6d2a-8c73-4a99-ba59-4139b00a3b45","ios":"levelo://app?vid=a1dd6d2a-8c73-4a99-ba59-4139b00a3b45"},"vehicle_type_id":"4","last_reported":1732381700,"current_range_meters":38800,"station_id":"ce4bgph2rcd13ifvqc2g","pricing_plan_id":"cebpf4jnsgd1na2vs0mg"},{"bike_id":"5790b197-07cb-4dd3-942a-13f1722c67d8","system_id":"levelo_inurba_marseille","lat":43.25581,"lon":5.38231,"is_reserved":false,"is_disabled":false,"rental_uris":{"android":"levelo://app?vid=5790b197-07cb-4dd3-942a-13f1722c67d8","ios":"levelo://app?vid=5790b197-07cb-4dd3-942a-13f1722c67d8"},"vehicle_type_id":"4","last_reported":1732381700,"current_range_meters":23200,"station_id":"ce4bhih2rcd13ifvqfs0","pricing_plan_id":"cebpf4jnsgd1na2vs0mg"},{"bike_id":"9411bf75-e8a0-4219-8729-1a34bebdf94d","system_id":"levelo_inurba_marseille","lat":43.27057,"lon":5.40256,"is_reserved":false,"is_disabled":true,"rental_uris":{"android":"levelo://app?vid=9411bf75-e8a0-4219-8729-1a34bebdf94d","ios":"levelo://app?vid=9411bf75-e8a0-4219-8729-1a34bebdf94d"},"vehicle_type_id":"4","last_reported":1732381700,"current_range_meters":0,"station_id":"ce4bhk92rcd13ifvqgc0","pricing_plan_id":"cebpf4jnsgd1na2vs0mg"},{"bike_id":"8335ef65-8b07-4211-af7b-6f232c4d5db6","system_id":"levelo_inurba_marseille","lat":43.28703,"lon":5.37392,"is_reserved":false,"is_disabled":false,"rental_uris":{"android":"levelo://app?vid=8335ef65-8b07-4211-af7b-6f232c4d5db6","ios":"levelo://app?vid=8335ef65-8b07-4211-af7b-6f232c4d5db6"},"vehicle_type_id":"4","last_reported":1732381700,"current_range_meters":21600,"station_id":"ce4bh3p2rcd13ifvqdq0","pricing_plan_id":"cebpf4jnsgd1na2vs0mg"},{"bike_id":"451c6f26-d2c9-482f-a173-a047e49cdaab","system_id":"levelo_inurba_marseille","lat":43.24076,"lon":5.37761,"is_reserved":false,"is_disabled":false,"rental_uris":{"android":"levelo://app?vid=451c6f26-d2c9-482f-a173-a047e49cdaab","ios":"levelo://app?vid=451c6f26-d2c9-482f-a173-a047e49cdaab"},"vehicle_type_id":"4","last_reported":1732381700,"current_range_meters":38800,"station_id":"ce4bhnp2rcd13ifvqgvg","pricing_plan_id":"cebpf4jnsgd1na2vs0mg"},{"bike_id":"12a19c10-f897-4c0e-9448-fec8aac092ce","system_id":"levelo_inurba_marseille","lat":43.25823,"lon":5.39431,"is_reserved":false,"is_disabled":true,"rental_uris":{"android":"levelo://app?vid=12a19c10-f897-4c0e-9448-fec8aac092ce","ios":"levelo://app?vid=12a19c10-f897-4c0e-9448-fec8aac092ce"},"vehicle_type_id":"4","last_reported":1732381700,"current_range_meters":5600,"station_id":"ce4bhip2rcd13ifvqft0","pricing_plan_id":"cebpf4jnsgd1na2vs0mg"},{"bike_id":"e25eef18-332f-4018-90c2-f2fc0b468a36","system_id":"levelo_inurba_marseille","lat":43.32034,"lon":5.4157,"is_reserved":false,"is_disabled":false,"rental_uris":{"android":"levelo://app?vid=e25eef18-332f-4018-90c2-f2fc0b468a36","ios":"levelo://app?vid=e25eef18-332f-4018-90c2-f2fc0b468a36"},"vehicle_type_id":"4","last_reported":1732381700,"current_range_meters":39200,"station_id":"ce4bhq92rcd13ifvqhkg","pricing_plan_id":"cebpf4jnsgd1na2vs0mg"},{"bike_id":"e4631aa5-0434-465d-bed3-4bbc6ad1a532","system_id":"levelo_inurba_marseille","lat":43.3095,"lon":5.39036,"is_reserved":false,"is_disabled":false,"rental_uris":{"android":"levelo://app?vid=e4631aa5-0434-465d-bed3-4bbc6ad1a532","ios":"levelo://app?vid=e4631aa5-0434-465d-bed3-4bbc6ad1a532"},"vehicle_type_id":"4","last_reported":1732381700,"current_range_meters":20800,"station_id":"ce4bgup2rcd13ifvqco0","pricing_plan_id":"cebpf4jnsgd1na2vs0mg"},{"bike_id":"4e85fe84-a52c-4b06-bb6f-99e7d7546baa","system_id":"levelo_inurba_marseille","lat":43.3204,"lon":5.41541,"is_reserved":false,"is_disabled":false,"rental_uris":{"android":"levelo://app?vid=4e85fe84-a52c-4b06-bb6f-99e7d7546baa","ios":"levelo://app?vid=4e85fe84-a52c-4b06-bb6f-99e7d7546baa"},"vehicle_type_id":"4","last_reported":1732381700,"current_range_meters":38800,"station_id":"ce4bhq92rcd13ifvqhkg","pricing_plan_id":"cebpf4jnsgd1na2vs0mg"},{"bike_id":"6cb0acc2-4ab7-4867-be90-154fd0d0cca2","system_id":"levelo_inurba_marseille","lat":43.26682,"lon":5.38267,"is_reserved":false,"is_disabled":false,"rental_uris":{"android":"levelo://app?vid=6cb0acc2-4ab7-4867-be90-154fd0d0cca2","ios":"levelo://app?vid=6cb0acc2-4ab7-4867-be90-154fd0d0cca2"},"vehicle_type_id":"4","last_reported":1732381700,"current_range_meters":8000,"station_id":"ce4bhg92rcd13ifvqf90","pricing_plan_id":"cebpf4jnsgd1na2vs0mg"},{"bike_id":"25b54c91-6a3c-4eef-9ed1-8a334e6b1d72","system_id":"levelo_inurba_marseille","lat":43.29611,"lon":5.37716,"is_reserved":false,"is_disabled":true,"rental_uris":{"android":"levelo://app?vid=25b54c91-6a3c-4eef-9ed1-8a334e6b1d72","ios":"levelo://app?vid=25b54c91-6a3c-4eef-9ed1-8a334e6b1d72"},"vehicle_type_id":"4","last_reported":1732381700,"current_range_meters":1600,"station_id":"ce4bgi92rcd13ifvqb90","pricing_plan_id":"cebpf4jnsgd1na2vs0mg"},{"bike_id":"4e50658d-80fd-4ed6-91aa-0958969760d9","system_id":"levelo_inurba_marseille","lat":43.23155,"lon":5.43724,"is_reserved":false,"is_disabled":true,"rental_uris":{"android":"levelo://app?vid=4e50658d-80fd-4ed6-91aa-0958969760d9","ios":"levelo://app?vid=4e50658d-80fd-4ed6-91aa-0958969760d9"},"vehicle_type_id":"4","last_reported":1732381700,"current_range_meters":0,"station_id":"ce4bhmp2rcd13ifvqgog","pricing_plan_id":"cebpf4jnsgd1na2vs0mg"},{"bike_id":"2e672086-ad9a-4eb5-9382-5b6b4d0f96f5","system_id":"levelo_inurba_marseille","lat":43.30452,"lon":5.37911,"is_reserved":false,"is_disabled":false,"rental_uris":{"android":"levelo://app?vid=2e672086-ad9a-4eb5-9382-5b6b4d0f96f5","ios":"levelo://app?vid=2e672086-ad9a-4eb5-9382-5b6b4d0f96f5"},"vehicle_type_id":"4","last_reported":1732381700,"current_range_meters":6800,"station_id":"ce4bgup2rcd13ifvqcn0","pricing_plan_id":"cebpf4jnsgd1na2vs0mg"},{"bike_id":"95fcc105-a543-46aa-aeaa-0aaefefed613","system_id":"levelo_inurba_marseille","lat":43.26062,"lon":5.39401,"is_reserved":false,"is_disabled":false,"rental_uris":{"android":"levelo://app?vid=95fcc105-a543-46aa-aeaa-0aaefefed613","ios":"levelo://app?vid=95fcc105-a543-46aa-aeaa-0aaefefed613"},"vehicle_type_id":"4","last_reported":1732381700,"current_range_meters":21600,"station_id":"ce4bhh92rcd13ifvqfj0","pricing_plan_id":"cebpf4jnsgd1na2vs0mg"},{"bike_id":"e60d94ce-0494-4acd-b923-d07747c04ede","system_id":"levelo_inurba_marseille","lat":43.26561,"lon":5.39004,"is_reserved":false,"is_disabled":false,"rental_uris":{"android":"levelo://app?vid=e60d94ce-0494-4acd-b923-d07747c04ede","ios":"levelo://app?vid=e60d94ce-0494-4acd-b923-d07747c04ede"},"vehicle_type_id":"4","last_reported":1732381700,"current_range_meters":30800,"station_id":"ce4bhe12rcd13ifvqf30","pricing_plan_id":"cebpf4jnsgd1na2vs0mg"},{"bike_id":"bbc0d719-f3de-43ba-ba0d-c04b71458153","system_id":"levelo_inurba_marseille","lat":43.26215,"lon":5.3744,"is_reserved":false,"is_disabled":false,"rental_uris":{"android":"levelo://app?vid=bbc0d719-f3de-43ba-ba0d-c04b71458153","ios":"levelo://app?vid=bbc0d719-f3de-43ba-ba0d-c04b71458153"},"vehicle_type_id":"4","last_reported":1732381700,"current_range_meters":30400,"station_id":"ce4bhgp2rcd13ifvqfc0","pricing_plan_id":"cebpf4jnsgd1na2vs0mg"},{"bike_id":"9fc59841-247f-4e22-af28-526d8e9b0909","system_id":"levelo_inurba_marseille","lat":43.23962,"lon":5.36633,"is_reserved":false,"is_disabled":false,"rental_uris":{"android":"levelo://app?vid=9fc59841-247f-4e22-af28-526d8e9b0909","ios":"levelo://app?vid=9fc59841-247f-4e22-af28-526d8e9b0909"},"vehicle_type_id":"4","last_reported":1732381700,"current_range_meters":15200,"station_id":"ce4bhi12rcd13ifvqfp0","pricing_plan_id":"cebpf4jnsgd1na2vs0mg"},{"bike_id":"31832695-e28e-469e-bb6a-a2fdea8b0893","system_id":"levelo_inurba_marseille","lat":43.28711,"lon":5.37934,"is_reserved":false,"is_disabled":false,"rental_uris":{"android":"levelo://app?vid=31832695-e28e-469e-bb6a-a2fdea8b0893","ios":"levelo://app?vid=31832695-e28e-469e-bb6a-a2fdea8b0893"},