{"last_updated":1732349447,"ttl":60,"version":"2.2","data":{"bikes":[{"bike_id":"97abb17a-559b-4f99-b2ac-38a314e03a43","system_id":"levelo_inurba_marseille","lat":43.32337,"lon":5.40619,"is_reserved":false,"is_disabled":false,"rental_uris":{"android":"levelo://app?vid=97abb17a-559b-4f99-b2ac-38a314e03a43","ios":"levelo://app?vid=97abb17a-559b-4f99-b2ac-38a314e03a43"},"vehicle_type_id":"4","last_reported":1732349447,"current_range_meters":33600,"station_id":"ce4bhq92rcd13ifvqhjg","pricing_plan_id":"cebpf4jnsgd1na2vs0mg"},{"bike_id":"e23b6c4c-d27e-407e-a72b-e3ea9129fcf8","system_id":"levelo_inurba_marseille","lat":43.32363,"lon":5.38877,"is_reserved":false,"is_disabled":false,"rental_uris":{"android":"levelo://app?vid=e23b6c4c-d27e-407e-a72b-e3ea9129fcf8","ios":"levelo://app?vid=e23b6c4c-d27e-407e-a72b-e3ea9129fcf8"},"vehicle_type_id":"4","last_reported":1732349447,"current_range_meters":27200,"station_id":"ce4bhqp2rcd13ifvqhog","pricing_plan_id":"cebpf4jnsgd1na2vs0mg"},{"bike_id":"7149e19c-0e51-4fb3-be72-219430288b9a","system_id":"levelo_inurba_marseille","lat":43.24385,"lon":5.37055,"is_reserved":false,"is_disabled":false,"rental_uris":{"android":"levelo://app?vid=7149e19c-0e51-4fb3-be72-219430288b9a","ios":"levelo://app?vid=7149e19c-0e51-4fb3-be72-219430288b9a"},"vehicle_type_id":"4","last_reported":1732349447,"current_range_meters":9200,"station_id":"ce4bhhh2rcd13ifvqfk0","pricing_plan_id":"cebpf4jnsgd1na2vs0mg"},{"bike_id":"216bffcf-1b87-4e7e-9ea8-7ffd8995fe38","system_id":"levelo_inurba_marseille","lat":43.289243,"lon":5.384015,"is_reserved":false,"is_disabled":true,"rental_uris":{"android":"levelo://app?vid=216bffcf-1b87-4e7e-9ea8-7ffd8995fe38","ios":"levelo://app?vid=216bffcf-1b87-4e7e-9ea8-7ffd8995fe38"},"vehicle_type_id":"4","last_reported":1732349447,"current_range_meters":14000,"station_id":"ce4bh612rcd13ifvqe6g","pricing_plan_id":"cebpf4jnsgd1na2vs0mg"},{"bike_id":"e888f574-cbea-4e1a-9b7a-78a72589740f","system_id":"levelo_inurba_marseille","lat":43.28943,"lon":5.39626,"is_reserved":false,"is_disabled":false,"rental_uris":{"android":"levelo://app?vid=e888f574-cbea-4e1a-9b7a-78a72589740f","ios":"levelo://app?vid=e888f574-cbea-4e1a-9b7a-78a72589740f"},"vehicle_type_id":"4","last_reported":1732349447,"current_range_meters":38800,"station_id":"ce4bh3h2rcd13ifvqdn0","pricing_plan_id":"cebpf4jnsgd1na2vs0mg"},{"bike_id":"08f392b7-fb0b-40fb-b32a-822f164ec237","system_id":"levelo_inurba_marseille","lat":43.26937,"lon":5.40243,"is_reserved":false,"is_disabled":false,"rental_uris":{"android":"levelo://app?vid=08f392b7-fb0b-40fb-b32a-822f164ec237","ios":"levelo://app?vid=08f392b7-fb0b-40fb-b32a-822f164ec237"},"vehicle_type_id":"4","last_reported":1732349447,"current_range_meters":8400,"station_id":"cjm6bp8fraef2m0cb0m0","pricing_plan_id":"cebpf4jnsgd1na2vs0mg"},{"bike_id":"81cbecd7-365c-4a9c-9de6-a98cb001a78f","system_id":"levelo_inurba_marseille","lat":43.310698,"lon":5.383505,"is_reserved":false,"is_disabled":false,"rental_uris":{"android":"levelo://app?vid=81cbecd7-365c-4a9c-9de6-a98cb001a78f","ios":"levelo://app?vid=81cbecd7-365c-4a9c-9de6-a98cb001a78f"},"vehicle_type_id":"4","last_reported":1732349447,"current_range_meters":36800,"station_id":"ce4bgv92rcd13ifvqcr0","pricing_plan_id":"cebpf4jnsgd1na2vs0mg"},{"bike_id":"f161b73c-800a-452d-afd1-5f6db18abd34","system_id":"levelo_inurba_marseille","lat":43.27616,"lon":5.36115,"is_reserved":false,"is_disabled":false,"rental_uris":{"android":"levelo://app?vid=f161b73c-800a-452d-afd1-5f6db18abd34","ios":"levelo://app?vid=f161b73c-800a-452d-afd1-5f6db18abd34"},"vehicle_type_id":"4","last_reported":1732349447,"current_range_meters":12400,"station_id":"ce4bgj92rcd13ifvqbe0","pricing_plan_id":"cebpf4jnsgd1na2vs0mg"},{"bike_id":"8a121b48-1f5b-4c33-b9ca-47a97d05b778","system_id":"levelo_inurba_marseille","lat":43.32481,"lon":5.36552,"is_reserved":false,"is_disabled":false,"rental_uris":{"android":"levelo://app?vid=8a121b48-1f5b-4c33-b9ca-47a97d05b778","ios":"levelo://app?vid=8a121b48-1f5b-4c33-b9ca-47a97d05b778"},"vehicle_type_id":"4","last_reported":1732349447,"current_range_meters":10000,"station_id":"ce4bhs12rcd13ifvqhvg","pricing_plan_id":"cebpf4jnsgd1na2vs0mg"},{"bike_id":"726def48-b4d2-40c1-a18c-2ee5385fe287","system_id":"levelo_inurba_marseille","lat":43.29674,"lon":5.37298,"is_reserved":false,"is_disabled":false,"rental_uris":{"android":"levelo://app?vid=726def48-b4d2-40c1-a18c-2ee5385fe287","ios":"levelo://app?vid=726def48-b4d2-40c1-a18c-2ee5385fe287"},"vehicle_type_id":"4","last_reported":1732349447,"current_range_meters":38400,"station_id":"ce4bgk12rcd13ifvqbj0","pricing_plan_id":"cebpf4jnsgd1na2vs0mg"},{"bike_id":"11114092-3108-4d5a-be35-06e9090d2527","system_id":"levelo_inurba_marseille","lat":43.27055,"lon":5.40261,"is_reserved":false,"is_disabled":false,"rental_uris":{"android":"levelo://app?vid=11114092-3108-4d5a-be35-06e9090d2527","ios":"levelo://app?vid=11114092-3108-4d5a-be35-06e9090d2527"},"vehicle_type_id":"4","last_reported":1732349447,"current_range_meters":24400,"station_id":"ce4bhk92rcd13ifvqgc0","pricing_plan_id":"cebpf4jnsgd1na2vs0mg"},{"bike_id":"5247f402-6312-4ef7-9fa1-11a1830f043f","system_id":"levelo_inurba_marseille","lat":43.30607,"lon":5.3936,"is_reserved":false,"is_disabled":false,"rental_uris":{"android":"levelo://app?vid=5247f402-6312-4ef7-9fa1-11a1830f043f","ios":"levelo://app?vid=5247f402-6312-4ef7-9fa1-11a1830f043f"},"vehicle_type_id":"4","last_reported":1732349447,"current_range_meters":37600,"station_id":"ce4bh0p2rcd13ifvqd80","pricing_plan_id":"cebpf4jnsgd1na2vs0mg"},{"bike_id":"cc45001e-86ba-42cc-9993-ed5261abbfe0","system_id":"levelo_inurba_marseille","lat":43.32364,"lon":5.38882,"is_reserved":false,"is_disabled":false,"rental_uris":{"android":"levelo://app?vid=cc45001e-86ba-42cc-9993-ed5261abbfe0","ios":"levelo://app?vid=cc45001e-86ba-42cc-9993-ed5261abbfe0"},"vehicle_type_id":"4","last_reported":1732349447,"current_range_meters":9200,"station_id":"ce4bhqp2rcd13ifvqhog","pricing_plan_id":"cebpf4jnsgd1na2vs0mg"},{"bike_id":"5d39d563-1de5-4b84-8127-7326954dce5a","system_id":"levelo_inurba_marseille","lat":43.27372,"lon":5.36263,"is_reserved":false,"is_disabled":false,"rental_uris":{"android":"levelo://app?vid=5d39d563-1de5-4b84-8127-7326954dce5a","ios":"levelo://app?vid=5d39d563-1de5-4b84-8127-7326954dce5a"},"vehicle_type_id":"4","last_reported":1732349447,"current_range_meters":38800,"station_id":"ce4bhbh2rcd13ifvqeo0","pricing_plan_id":"cebpf4jnsgd1na2vs0mg"},{"bike_id":"c0755ad7-8353-40d1-98a4-bba43ca0e3ab","system_id":"levelo_inurba_marseille","lat":43.3372,"lon":5.39176,"is_reserved":false,"is_disabled":false,"rental_uris":{"android":"levelo://app?vid=c0755ad7-8353-40d1-98a4-bba43ca0e3ab","ios":"levelo://app?vid=c0755ad7-8353-40d1-98a4-bba43ca0e3ab"},"vehicle_type_id":"4","last_reported":1732349447,"current_range_meters":8400,"station_id":"ce4bhr92rcd13ifvqhsg","pricing_plan_id":"cebpf4jnsgd1na2vs0mg"},{"bike_id":"56da415b-5ee1-4735-93ed-bfb3238cffa6","system_id":"levelo_inurba_marseille","lat":43.3054,"lon":5.3671,"is_reserved":false,"is_disabled":false,"rental_uris":{"android":"levelo://app?vid=56da415b-5ee1-4735-93ed-bfb3238cffa6","ios":"levelo://app?vid=56da415b-5ee1-4735-93ed-bfb3238cffa6"},"vehicle_type_id":"4","last_reported":1732349447,"current_range_meters":19600,"station_id":"ce4bgrp2rcd13ifvqc9g","pricing_plan_id":"cebpf4jnsgd1na2vs0mg"},{"bike_id":"d3a939c1-c073-43b5-a24f-f191fd9ab4ab","system_id":"levelo_inurba_marseille","lat":43.26188,"lon":5.37447,"is_reserved":false,"is_disabled":false,"rental_uris":{"android":"levelo://app?vid=d3a939c1-c073-43b5-a24f-f191fd9ab4ab","ios":"levelo://app?vid=d3a939c1-c073-43b5-a24f-f191fd9ab4ab"},"vehicle_type_id":"4","last_reported":1732349447,"current_range_meters":38400,"station_id":"ce4bhgp2rcd13ifvqfc0","pricing_plan_id":"cebpf4jnsgd1na2vs0mg"},{"bike_id":"92aca063-e395-402a-a362-69eb5641c33c","system_id":"levelo_inurba_marseille","lat":43.28623,"lon":5.35094,"is_reserved":false,"is_disabled":false,"rental_uris":{"android":"levelo://app?vid=92aca063-e395-402a-a362-69eb5641c33c","ios":"levelo://app?vid=92aca063-e395-402a-a362-69eb5641c33c"},"vehicle_type_id":"4","last_reported":1732349447,"current_range_meters":6800,"station_id":"ce4bhch2rcd13ifvqeug","pricing_plan_id":"cebpf4jnsgd1na2vs0mg"},{"bike_id":"9b280c9c-fd49-45c4-951e-8b6e17f414f5","system_id":"levelo_inurba_marseille","lat":43.25867,"lon":5.39898,"is_reserved":false,"is_disabled":false,"rental_uris":{"android":"levelo://app?vid=9b280c9c-fd49-45c4-951e-8b6e17f414f5","ios":"levelo://app?vid=9b280c9c-fd49-45c4-951e-8b6e17f414f5"},"vehicle_type_id":"4","last_reported":1732349447,"current_range_meters":38800,"station_id":"ce4bhl92rcd13ifvqghg","pricing_plan_id":"cebpf4jnsgd1na2vs0mg"},{"bike_id":"a6c94c2c-35f1-4847-a167-3bce3311fbbd","system_id":"levelo_inurba_marseille","lat":43.2861,"lon":5.37061,"is_reserved":false,"is_disabled":false,"rental_uris":{"android":"levelo://app?vid=a6c94c2c-35f1-4847-a167-3bce3311fbbd","ios":"levelo://app?vid=a6c94c2c-35f1-4847-a167-3bce3311fbbd"},"vehicle_type_id":"4","last_reported":1732349447,"current_range_meters":38400,"station_id":"ce4bht12rcd13ifvqi60","pricing_plan_id":"cebpf4jnsgd1na2vs0mg"},{"bike_id":"648fea4c-d15a-4229-9feb-bafe88cbbe70","system_id":"levelo_inurba_marseille","lat":43.27949,"lon":5.41758,"is_reserved":false,"is_disabled":true,"rental_uris":{"android":"levelo://app?vid=648fea4c-d15a-4229-9feb-bafe88cbbe70","ios":"levelo://app?vid=648fea4c-d15a-4229-9feb-bafe88cbbe70"},"vehicle_type_id":"4","last_reported":1732349447,"current_range_meters":0,"station_id":"","pricing_plan_id":"cebpf4jnsgd1na2vs0mg"},{"bike_id":"561692a1-369c-4ac8-a04a-5193554f2e90","system_id":"levelo_inurba_marseille","lat":43.32112,"lon":5.36774,"is_reserved":false,"is_disabled":false,"rental_uris":{"android":"levelo://app?vid=561692a1-369c-4ac8-a04a-5193554f2e90","ios":"levelo://app?vid=561692a1-369c-4ac8-a04a-5193554f2e90"},"vehicle_type_id":"4","last_reported":1732349447,"current_range_meters":27200,"station_id":"ce4bhrh2rcd13ifvqhug","pricing_plan_id":"cebpf4jnsgd1na2vs0mg"},{"bike_id":"a3dfa29f-d880-4cbe-b909-b4e217158e03","system_id":"levelo_inurba_marseille","lat":43.27166,"lon":5.40998,"is_reserved":false,"is_disabled":false,"rental_uris":{"android":"levelo://app?vid=a3dfa29f-d880-4cbe-b909-b4e217158e03","ios":"levelo://app?vid=a3dfa29f-d880-4cbe-b909-b4e217158e03"},"vehicle_type_id":"4","last_reported":1732349447,"current_range_meters":35600,"station_id":"ce4bhl12rcd13ifvqgf0","pricing_plan_id":"cebpf4jnsgd1na2vs0mg"},{"bike_id":"d2321b4c-ae3a-4b43-8bcd-12cb7984481d","system_id":"levelo_inurba_marseille","lat":43.30743,"lon":5.3703,"is_reserved":false,"is_disabled":true,"rental_uris":{"android":"levelo://app?vid=d2321b4c-ae3a-4b43-8bcd-12cb7984481d","ios":"levelo://app?vid=d2321b4c-ae3a-4b43-8bcd-12cb7984481d"},"vehicle_type_id":"4","last_reported":1732349447,"current_range_meters":12000,"station_id":"","pricing_plan_id":"cebpf4jnsgd1na2vs0mg"},{"bike_id":"27d8d3ee-c64d-40a8-8b39-f1a8f00306c8","system_id":"levelo_inurba_marseille","lat":43.26197,"lon":5.37931,"is_reserved":false,"is_disabled":false,"rental_uris":{"android":"levelo://app?vid=27d8d3ee-c64d-40a8-8b39-f1a8f00306c8","ios":"levelo://app?vid=27d8d3ee-c64d-40a8-8b39-f1a8f00306c8"},"vehicle_type_id":"4","last_reported":1732349447,"current_range_meters":26800,"station_id":"ce4bhjp2rcd13ifvqg90","pricing_plan_id":"cebpf4jnsgd1na2vs0mg"},{"bike_id":"c4816f35-2aa7-454c-adc5-a6af754e6767","system_id":"levelo_inurba_marseille","lat":43.28943,"lon":5.39628,"is_reserved":false,"is_disabled":false,"rental_uris":{"android":"levelo://app?vid=c4816f35-2aa7-454c-adc5-a6af754e6767","ios":"levelo://app?vid=c4816f35-2aa7-454c-adc5-a6af754e6767"},"vehicle_type_id":"4","last_reported":1732349447,"current_range_meters":35600,"station_id":"ce4bh3h2rcd13ifvqdn0","pricing_plan_id":"cebpf4jnsgd1na2vs0mg"},{"bike_id":"48b71b88-52ac-4070-a8e2-91183b7afa48","system_id":"levelo_inurba_marseille","lat":43.24651,"lon":5.38896,"is_reserved":false,"is_disabled":false,"rental_uris":{"android":"levelo://app?vid=48b71b88-52ac-4070-a8e2-91183b7afa48","ios":"levelo://app?vid=48b71b88-52ac-4070-a8e2-91183b7afa48"},"vehicle_type_id":"4","last_reported":1732349447,"current_range_meters":36800,"station_id":"ce4bhg12rcd13ifvqf60","pricing_plan_id":"cebpf4jnsgd1na2vs0mg"},{"bike_id":"5c3000a0-a190-4007-a723-aa2707fd1ce3","system_id":"levelo_inurba_marseille","lat":43.2294,"lon":5.35371,"is_reserved":false,"is_disabled":false,"rental_uris":{"android":"levelo://app?vid=5c3000a0-a190-4007-a723-aa2707fd1ce3","ios":"levelo://app?vid=5c3000a0-a190-4007-a723-aa2707fd1ce3"},"vehicle_type_id":"4","last_reported":1732349447,"current_range_meters":38800,"station_id":"cpo3532slgdg3j2ikp40","pricing_plan_id":"cebpf4jnsgd1na2vs0mg"},{"bike_id":"1c5fdcc2-ba84-4c46-bf38-3d224d434b52","system_id":"levelo_inurba_marseille","lat":43.32347,"lon":5.40632,"is_reserved":false,"is_disabled":false,"rental_uris":{"android":"levelo://app?vid=1c5fdcc2-ba84-4c46-bf38-3d224d434b52","ios":"levelo://app?vid=1c5fdcc2-ba84-4c46-bf38-3d224d434b52"},"vehicle_type_id":"4","last_reported":1732349447,"current_range_meters":36800,"station_id":"ce4bhq92rcd13ifvqhjg","pricing_plan_id":"cebpf4jnsgd1na2vs0mg"},{"bike_id":"84f36880-d089-4da5-b05e-ea75d90c3ac4","system_id":"levelo_inurba_marseille","lat":43.30595,"lon":5.39363,"is_reserved":false,"is_disabled":false,"rental_uris":{"android":"levelo://app?vid=84f36880-d089-4da5-b05e-ea75d90c3ac4","ios":"levelo://app?vid=84f36880-d089-4da5-b05e-ea75d90c3ac4"},"vehicle_type_id":"4","last_reported":1732349447,"current_range_meters":18800,"station_id":"ce4bh0p2rcd13ifvqd80","pricing_plan_id":"cebpf4jnsgd1na2vs0mg"},{"bike_id":"1fdcdbac-b6e5-46db-8e02-32707719fed3","system_id":"levelo_inurba_marseille","lat":43.287,"lon":5.39983,"is_reserved":false,"is_disabled":false,"rental_uris":{"android":"levelo://app?vid=1fdcdbac-b6e5-46db-8e02-32707719fed3","ios":"levelo://app?vid=1fdcdbac-b6e5-46db-8e02-32707719fed3"},"vehicle_type_id":"4","last_reported":1732349447,"current_range_meters":14800,"station_id":"ce4bho92rcd13ifvqh3g","pricing_plan_id":"cebpf4jnsgd1na2vs0mg"},{"bike_id":"5b1e2268-6898-4762-b21b-90916d0b09cc","system_id":"levelo_inurba_marseille","lat":43.310672,"lon":5.383524,"is_reserved":false,"is_disabled":false,"rental_uris":{"android":"levelo://app?vid=5b1e2268-6898-4762-b21b-90916d0b09cc","ios":"levelo://app?vid=5b1e2268-6898-4762-b21b-90916d0b09cc"},"vehicle_type_id":"4","last_reported":1732349447,"current_range_meters":18800,"station_id":"ce4bgv92rcd13ifvqcr0","pricing_plan_id":"cebpf4jnsgd1na2vs0mg"},{"bike_id":"3f4b586a-f19b-437c-a62a-b21b76562db2","system_id":"levelo_inurba_marseille","lat":43.23181,"lon":5.39979,"is_reserved":false,"is_disabled":false,"rental_uris":{"android":"levelo://app?vid=3f4b586a-f19b-437c-a62a-b21b76562db2","ios":"levelo://app?vid=3f4b586a-f19b-437c-a62a-b21b76562db2"},"vehicle_type_id":"4","last_reported":1732349447,"current_range_meters":36800,"station_id":"ce4bhn12rcd13ifvqgqg","pricing_plan_id":"cebpf4jnsgd1na2vs0mg"},{"bike_id":"7c9c6c4e-4e7f-441c-9857-1db4a8d60fa3","system_id":"levelo_inurba_marseille","lat":43.27895,"lon":5.38018,"is_reserved":false,"is_disabled":false,"rental_uris":{"android":"levelo://app?vid=7c9c6c4e-4e7f-441c-9857-1db4a8d60fa3","ios":"levelo://app?vid=7c9c6c4e-4e7f-441c-9857-1db4a8d60fa3"},"vehicle_type_id":"4","last_reported":1732349447,"current_range_meters":38800,"station_id":"ce4bhf92rcd13ifvqf50","pricing_plan_id":"cebpf4jnsgd1na2vs0mg"},{"bike_id":"c4edef9b-2b2c-453f-9e1a-6ff299414b8d","system_id":"levelo_inurba_marseille","lat":43.30279,"lon":5.37714,"is_reserved":false,"is_disabled":false,"rental_uris":{"android":"levelo://app?vid=c4edef9b-2b2c-453f-9e1a-6ff299414b8d","ios":"levelo://app?vid=c4edef9b-2b2c-453f-9e1a-6ff299414b8d"},"vehicle_type_id":"4","last_reported":1732349447,"current_range_meters":22000,"station_id":"ce4bguh2rcd13ifvqcj0","pricing_plan_id":"cebpf4jnsgd1na2vs0mg"},{"bike_id":"ff3594ee-f948-4832-9680-599cfdacc368","system_id":"levelo_inurba_marseille","lat":43.27182,"lon":5.40989,"is_reserved":false,"is_disabled":false,"rental_uris":{"android":"levelo://app?vid=ff3594ee-f948-4832-9680-599cfdacc368","ios":"levelo://app?vid=ff3594ee-f948-4832-9680-599cfdacc368"},"vehicle_type_id":"4","last_reported":1732349447,"current_range_meters":38000,"station_id":"ce4bhl12rcd13ifvqgf0","pricing_plan_id":"cebpf4jnsgd1na2vs0mg"},{"bike_id":"2766ad85-ea25-4137-8600-c64cb6363481","system_id":"levelo_inurba_marseille","lat":43.30187,"lon":5.366,"is_reserved":false,"is_disabled":false,"rental_uris":{"android":"levelo://app?vid=2766ad85-ea25-4137-8600-c64cb6363481","ios":"levelo://app?vid=2766ad85-ea25-4137-8600-c64cb6363481"},"vehicle_type_id":"4","last_reported":1732349447,"current_range_meters":16400,"station_id":"ce4bgrh2rcd13ifvqc8g","pricing_plan_id":"cebpf4jnsgd1na2vs0mg"},{"bike_id":"db096ee3-a548-4661-a18a-686fcedc57f8","system_id":"levelo_inurba_marseille","lat":43.32619,"lon":5.41019,"is_reserved":false,"is_disabled":false,"rental_uris":{"android":"levelo://app?vid=db096ee3-a548-4661-a18a-686fcedc57f8","ios":"levelo://app?vid=db096ee3-a548-4661-a18a-686fcedc57f8"},"vehicle_type_id":"4","last_reported":1732349447,"current_range_meters":6800,"station_id":"","pricing_plan_id":"cebpf4jnsgd1na2vs0mg"},{"bike_id":"1cd0daee-d68a-4e66-9883-fbe67fd8260f","system_id":"levelo_inurba_marseille","lat":43.305794,"lon":5.370686,"is_reserved":false,"is_disabled":true,"rental_uris":{"android":"levelo://app?vid=1cd0daee-d68a-4e66-9883-fbe67fd8260f","ios":"levelo://app?vid=1cd0daee-d68a-4e66-9883-fbe67fd8260f"},"vehicle_type_id":"4","last_reported":1732349447,"current_range_meters":0,"station_id":"","pricing_plan_id":"cebpf4jnsgd1na2vs0mg"},{"bike_id":"3ecd968f-1f7e-4bd4-968d-4e3b4005d51b","system_id":"levelo_inurba_marseille","lat":43.31122,"lon":5.37762,"is_reserved":false,"is_disabled":true,"rental_uris":{"android":"levelo://app?vid=3ecd968f-1f7e-4bd4-968d-4e3b4005d51b","ios":"levelo://app?vid=3ecd968f-1f7e-4bd4-968d-4e3b4005d51b"},"vehicle_type_id":"4","last_reported":1732349447,"current_range_meters":4400,"station_id":"ce4bgt92rcd13ifvqcg0","pricing_plan_id":"cebpf4jnsgd1na2vs0mg"},{"bike_id":"13ad8f6f-5ea8-43d5-9643-e38394fa7fe9","system_id":"levelo_inurba_marseille","lat":43.25578,"lon":5.38215,"is_reserved":false,"is_disabled":false,"rental_uris":{"android":"levelo://app?vid=13ad8f6f-5ea8-43d5-9643-e38394fa7fe9","ios":"levelo://app?vid=13ad8f6f-5ea8-43d5-9643-e38394fa7fe9"},"vehicle_type_id":"4","last_reported":1732349447,"current_range_meters":8000,"station_id":"ce4bhih2rcd13ifvqfs0","pricing_plan_id":"cebpf4jnsgd1na2vs0mg"},{"bike_id":"0ddfa46a-4055-4654-8da1-794fa513a354","system_id":"levelo_inurba_marseille","lat":43.26206,"lon":5.37932,"is_reserved":false,"is_disabled":false,"rental_uris":{"android":"levelo://app?vid=0ddfa46a-4055-4654-8da1-794fa513a354","ios":"levelo://app?vid=0ddfa46a-4055-4654-8da1-794fa513a354"},"vehicle_type_id":"4","last_reported":1732349447,"current_range_meters":7200,"station_id":"ce4bhjp2rcd13ifvqg90","pricing_plan_id":"cebpf4jnsgd1na2vs0mg"},{"bike_id":"959366bf-e695-42f7-9f61-1b1ed7ef4dfe","system_id":"levelo_inurba_marseille","lat":43.28617,"lon":5.35106,"is_reserved":false,"is_disabled":false,"rental_uris":{"android":"levelo://app?vid=959366bf-e695-42f7-9f61-1b1ed7ef4dfe","ios":"levelo://app?vid=959366bf-e695-42f7-9f61-1b1ed7ef4dfe"},"vehicle_type_id":"4","last_reported":1732349447,"current_range_meters":16000,"station_id":"ce4bhch2rcd13ifvqeug","pricing_plan_id":"cebpf4jnsgd1na2vs0mg"},{"bike_id":"9396b6c0-74ae-4bfc-9742-6ecd53d20f4f","system_id":"levelo_inurba_marseille","lat":43.306,"lon":5.37215,"is_reserved":false,"is_disabled":false,"rental_uris":{"android":"levelo://app?vid=9396b6c0-74ae-4bfc-9742-6ecd53d20f4f","ios":"levelo://app?vid=9396b6c0-74ae-4bfc-9742-6ecd53d20f4f"},"vehicle_type_id":"4","last_reported":1732349447,"current_range_meters":28800,"station_id":"ce4bgqh2rcd13ifvqc4g","pricing_plan_id":"cebpf4jnsgd1na2vs0mg"},{"bike_id":"e35913d4-6d49-4427-a3ca-5d8c461b3395","system_id":"levelo_inurba_marseille","lat":43.297924,"lon":5.393572,"is_reserved":false,"is_disabled":false,"rental_uris":{"android":"levelo://app?vid=e35913d4-6d49-4427-a3ca-5d8c461b3395","ios":"levelo://app?vid=e35913d4-6d49-4427-a3ca-5d8c461b3395"},"vehicle_type_id":"4","last_reported":1732349447,"current_range_meters":38800,"station_id":"chh1huq6cuj3fo74tm60","pricing_plan_id":"cebpf4jnsgd1na2vs0mg"},{"bike_id":"e9d021a9-f81b-4245-b46b-e03c063c72d8","system_id":"levelo_inurba_marseille","lat":43.26205,"lon":5.37936,"is_reserved":false,"is_disabled":false,"rental_uris":{"android":"levelo://app?vid=e9d021a9-f81b-4245-b46b-e03c063c72d8","ios":"levelo://app?vid=e9d021a9-f81b-4245-b46b-e03c063c72d8"},"vehicle_type_id":"4","last_reported":1732349447,"current_range_meters":23200,"station_id":"ce4bhjp2rcd13ifvqg90","pricing_plan_id":"cebpf4jnsgd1na2vs0mg"},{"bike_id":"ebda3721-5c6d-46e9-8115-7271b59f4ecd","system_id":"levelo_inurba_marseille","lat":43.28695,"lon":5.39977,"is_reserved":false,"is_disabled":false,"rental_uris":{"android":"levelo://app?vid=ebda3721-5c6d-46e9-8115-7271b59f4ecd","ios":"levelo://app?vid=ebda3721-5c6d-46e9-8115-7271b59f4ecd"},"vehicle_type_id":"4","last_reported":1732349447,"current_range_meters":34000,"station_id":"ce4bho92rcd13ifvqh3g","pricing_plan_id":"cebpf4jnsgd1na2vs0mg"},{"bike_id":"ac1b3788-b03a-4376-bf72-320fd033ea51","system_id":"levelo_inurba_marseille","lat":43.27665,"lon":5.389,"is_reserved":false,"is_disabled":true,"rental_uris":{"android":"levelo://app?vid=ac1b3788-b03a-4376-bf72-320fd033ea51","ios":"levelo://app?vid=ac1b3788-b03a-4376-bf72-320fd033ea51"},"vehicle_type_id":"4","last_reported":1732349447,"current_range_meters":4800,"station_id":"ce4bhi12rcd13ifvqfo0","pricing_plan_id":"cebpf4jnsgd1na2vs0mg"},{"bike_id":"e2425c49-1452-4b29-a2c5-ea850be27ca6","system_id":"levelo_inurba_marseille","lat":43.29875,"lon":5.39718,"is_reserved":false,"is_disabled":false,"rental_uris":{"android":"levelo://app?vid=e2425c49-1452-4b29-a2c5-ea850be27ca6","ios":"levelo://app?vid=e2425c49-1452-4b29-a2c5-ea850be27ca6"},"vehicle_type_id":"4","last_reported":1732349447,"current_range_meters":32800,"station_id":"ce4bh0h2rcd13ifvqd50","pricing_plan_id":"cebpf4jnsgd1na2vs0mg"},{"bike_id":"e23b663b-dc39-41f5-9d7c-a6559d2febac","system_id":"levelo_inurba_marseille","lat":43.27496,"lon":5.42451,"is_reserved":false,"is_disabled":false,"rental_uris":{"android":"levelo://app?vid=e23b663b-dc39-41f5-9d7c-a6559d2febac","ios":"levelo://app?vid=e23b663b-dc39-41f5-9d7c-a6559d2febac"},"vehicle_type_id":"4","last_reported":1732349447,"current_range_meters":24800,"station_id":"ce4bhn92rcd13ifvqgrg","pricing_plan_id":"cebpf4jnsgd1na2vs0mg"},{"bike_id":"a67b8463-5c5d-4ba0-940c-03cbd3956f7c","system_id":"levelo_inurba_marseille","lat":43.30438,"lon":5.38881,"is_reserved":false,"is_disabled":false,"rental_uris":{"android":"levelo://app?vid=a67b8463-5c5d-4ba0-940c-03cbd3956f7c","ios":"levelo://app?vid=a67b8463-5c5d-4ba0-940c-03cbd3956f7c"},"vehicle_type_id":"4","last_reported":1732349447,"current_range_meters":37600,"station_id":"ce4bgk12rcd13ifvqbi0","pricing_plan_id":"cebpf4jnsgd1na2vs0mg"},{"bike_id":"11714626-edc4-4e4d-b1fc-9696a17f7cf0","system_id":"levelo_inurba_marseille","lat":43.30806,"lon":5.38153,"is_reserved":false,"is_disabled":false,"rental_uris":{"android":"levelo://app?vid=11714626-edc4-4e4d-b1fc-9696a17f7cf0","ios":"levelo://app?vid=11714626-edc4-4e4d-b1fc-9696a17f7cf0"},"vehicle_type_id":"4","last_reported":1732349447,"current_range_meters":28400,"station_id":"ce4bgt12rcd13ifvqce0","pricing_plan_id":"cebpf4jnsgd1na2vs0mg"},{"bike_id":"ebe2b43b-e5bb-4158-835b-e46b2ce0d167","system_id":"levelo_inurba_marseille","lat":43.22928,"lon":5.35374,"is_reserved":false,"is_disabled":false,"rental_uris":{"android":"levelo://app?vid=ebe2b43b-e5bb-4158-835b-e46b2ce0d167","ios":"levelo://app?vid=ebe2b43b-e5bb-4158-835b-e46b2ce0d167"},"vehicle_type_id":"4","last_reported":1732349447,"current_range_meters":30000,"station_id":"cpo3532slgdg3j2ikp40","pricing_plan_id":"cebpf4jnsgd1na2vs0mg"},{"bike_id":"f4c54dd0-a013-4d39-8669-766de3dd4167","system_id":"levelo_inurba_marseille","lat":43.32361,"lon":5.38888,"is_reserved":false,"is_disabled":false,"rental_uris":{"android":"levelo://app?vid=f4c54dd0-a013-4d39-8669-766de3dd4167","ios":"levelo://app?vid=f4c54dd0-a013-4d39-8669-766de3dd4167"},"vehicle_type_id":"4","last_reported":1732349447,"current_range_meters":36800,"station_id":"ce4bhqp2rcd13ifvqhog","pricing_plan_id":"cebpf4jnsgd1na2vs0mg"},{"bike_id":"77023533-0bf4-43b5-9edd-b88f4e071b77","system_id":"levelo_inurba_marseille","lat":43.28696,"lon":5.39979,"is_reserved":false,"is_disabled":false,"rental_uris":{"android":"levelo://app?vid=77023533-0bf4-43b5-9edd-b88f4e071b77","ios":"levelo://app?vid=77023533-0bf4-43b5-9edd-b88f4e071b77"},"vehicle_type_id":"4","last_reported":1732349447,"current_range_meters":38800,"station_id":"ce4bho92rcd13ifvqh3g","pricing_plan_id":"cebpf4jnsgd1na2vs0mg"},{"bike_id":"fa8314ae-1864-43c4-8fa1-c6e47ea1e55c","system_id":"levelo_inurba_marseille","lat":43.32105,"lon":5.36769,"is_reserved":false,"is_disabled":false,"rental_uris":{"android":"levelo://app?vid=fa8314ae-1864-43c4-8fa1-c6e47ea1e55c","ios":"levelo://app?vid=fa8314ae-1864-43c4-8fa1-c6e47ea1e55c"},"vehicle_type_id":"4","last_reported":1732349447,"current_range_meters":28400,"station_id":"ce4bhrh2rcd13ifvqhug","pricing_plan_id":"cebpf4jnsgd1na2vs0mg"},{"bike_id":"4dbda78b-8ea9-4175-9532-9ae620f0e65d","system_id":"levelo_inurba_marseille","lat":43.23186,"lon":5.39986,"is_reserved":false,"is_disabled":false,"rental_uris":{"android":"levelo://app?vid=4dbda78b-8ea9-4175-9532-9ae620f0e65d","ios":"levelo://app?vid=4dbda78b-8ea9-4175-9532-9ae620f0e65d"},"vehicle_type_id":"4","last_reported":1732349447,"current_range_meters":38800,"station_id":"ce4bhn12rcd13ifvqgqg","pricing_plan_id":"cebpf4jnsgd1na2vs0mg"},{"bike_id":"2839b2c8-1a2b-4a2a-97da-974264f94700","system_id":"levelo_inurba_marseille","lat":43.28706,"lon":5.39989,"is_reserved":false,"is_disabled":true,"rental_uris":{"android":"levelo://app?vid=2839b2c8-1a2b-4a2a-97da-974264f94700","ios":"levelo://app?vid=2839b2c8-1a2b-4a2a-97da-974264f94700"},"vehicle_type_id":"4","last_reported":1732349447,"current_range_meters":25600,"station_id":"ce4bho92rcd13ifvqh3g","pricing_plan_id":"cebpf4jnsgd1na2vs0mg"},{"bike_id":"366363c8-15fd-4cf6-8bfa-8e618579c11d","system_id":"levelo_inurba_marseille","lat":43.27376,"lon":5.36253,"is_reserved":false,"is_disabled":false,"rental_uris":{"android":"levelo://app?vid=366363c8-15fd-4cf6-8bfa-8e618579c11d","ios":"levelo://app?vid=366363c8-15fd-4cf6-8bfa-8e618579c11d"},"vehicle_type_id":"4","last_reported":1732349447,"current_range_meters":38800,"station_id":"ce4bhbh2rcd13ifvqeo0","pricing_plan_id":"cebpf4jnsgd1na2vs0mg"},{"bike_id":"93e22be2-ce4d-4082-96d3-753b4a20df2d","system_id":"levelo_inurba_marseille","lat":43.24075,"lon":5.37758,"is_reserved":false,"is_disabled":false,"rental_uris":{"android":"levelo://app?vid=93e22be2-ce4d-4082-96d3-753b4a20df2d","ios":"levelo://app?vid=93e22be2-ce4d-4082-96d3-753b4a20df2d"},"vehicle_type_id":"4","last_reported":1732349447,"current_range_meters":36800,"station_id":"ce4bhnp2rcd13ifvqgvg","pricing_plan_id":"cebpf4jnsgd1na2vs0mg"},{"bike_id":"50543698-5e8a-4b9f-b4ed-8a96dd331544","system_id":"levelo_inurba_marseille","lat":43.313554,"lon":5.367013,"is_reserved":false,"is_disabled":false,"rental_uris":{"android":"levelo://app?vid=50543698-5e8a-4b9f-b4ed-8a96dd331544","ios":"levelo://app?vid=50543698-5e8a-4b9f-b4ed-8a96dd331544"},"vehicle_type_id":"4","last_reported":1732349447,"current_range_meters":38800,"station_id":"ce4bgr92rcd13ifvqc6g","pricing_plan_id":"cebpf4jnsgd1na2vs0mg"},{"bike_id":"4614c3ce-fa32-4b49-800d-cf02516d6ab9","system_id":"levelo_inurba_marseille","lat":43.32368,"lon":5.38887,"is_reserved":false,"is_disabled":false,"rental_uris":{"android":"levelo://app?vid=4614c3ce-fa32-4b49-800d-cf02516d6ab9","ios":"levelo://app?vid=4614c3ce-fa32-4b49-800d-cf02516d6ab9"},"vehicle_type_id":"4","last_reported":1732349447,"current_range_meters":24800,"station_id":"ce4bhqp2rcd13ifvqhog","pricing_plan_id":"cebpf4jnsgd1na2vs0mg"},{"bike_id":"84418aa3-ca6f-4d2b-bcb8-922fe234b9f4","system_id":"levelo_inurba_marseille","lat":43.28849,"lon":5.35854,"is_reserved":false,"is_disabled":false,"rental_uris":{"android":"levelo://app?vid=84418aa3-ca6f-4d2b-bcb8-922fe234b9f4","ios":"levelo://app?vid=84418aa3-ca6f-4d2b-bcb8-922fe234b9f4"},"vehicle_type_id":"4","last_reported":1732349447,"current_range_meters":12000,"station_id":"ce4bhb12rcd13ifvqem0","pricing_plan_id":"cebpf4jnsgd1na2vs0mg"},{"bike_id":"1f3eee30-4019-4618-ba5a-fdfcc855040d","system_id":"levelo_inurba_marseille","lat":43.28941,"lon":5.39631,"is_reserved":false,"is_disabled":false,"rental_uris":{"android":"levelo://app?vid=1f3eee30-4019-4618-ba5a-fdfcc855040d","ios":"levelo://app?vid=1f3eee30-4019-4618-ba5a-fdfcc855040d"},"vehicle_type_id":"4","last_reported":1732349447,"current_range_meters":36800,"station_id":"ce4bh3h2rcd13ifvqdn0","pricing_plan_id":"cebpf4jnsgd1na2vs0mg"},{"bike_id":"091cc9eb-8580-435f-ab25-55aa0962542e","system_id":"levelo_inurba_marseille","lat":43.26029,"lon":5.37553,"is_reserved":false,"is_disabled":false,"rental_uris":{"android":"levelo://app?vid=091cc9eb-8580-435f-ab25-55aa0962542e","ios":"levelo://app?vid=091cc9eb-8580-435f-ab25-55aa0962542e"},"vehicle_type_id":"4","last_reported":1732349447,"current_range_meters":28400,"station_id":"ce4bhgh2rcd13ifvqfa0","pricing_plan_id":"cebpf4jnsgd1na2vs0mg"},{"bike_id":"f8a8a492-aaea-4018-90af-bfa3e05e159b","system_id":"levelo_inurba_marseille","lat":43.32662,"lon":5.40991,"is_reserved":false,"is_disabled":false,"rental_uris":{"android":"levelo://app?vid=f8a8a492-aaea-4018-90af-bfa3e05e159b","ios":"levelo://app?vid=f8a8a492-aaea-4018-90af-bfa3e05e159b"},"vehicle_type_id":"4","last_reported":1732349447,"current_range_meters":24000,"station_id":"ce4bhpp2rcd13ifvqhgg","pricing_plan_id":"cebpf4jnsgd1na2vs0mg"},{"bike_id":"ab98a49c-144b-468d-871d-e8e8492470bf","system_id":"levelo_inurba_marseille","lat":43.31274,"lon":5.40169,"is_reserved":false,"is_disabled":false,"rental_uris":{"android":"levelo://app?vid=ab98a49c-144b-468d-871d-e8e8492470bf","ios":"levelo://app?vid=ab98a49c-144b-468d-871d-e8e8492470bf"},"vehicle_type_id":"4","last_reported":1732349447,"current_range_meters":11200,"station_id":"ce4bh092rcd13ifvqd30","pricing_plan_id":"cebpf4jnsgd1na2vs0mg"},{"bike_id":"c691c780-7d72-4f4b-9e99-2cb348017806","system_id":"levelo_inurba_marseille","lat":43.28157,"lon":5.42644,"is_reserved":false,"is_disabled":false,"rental_uris":{"android":"levelo://app?vid=c691c780-7d72-4f4b-9e99-2cb348017806","ios":"levelo://app?vid=c691c780-7d72-4f4b-9e99-2cb348017806"},"vehicle_type_id":"4","last_reported":1732349447,"current_range_meters":14800,"station_id":"ce4bhnh2rcd13ifvqgug","pricing_plan_id":"cebpf4jnsgd1na2vs0mg"},{"bike_id":"f3b9b307-39c1-4d62-9dcd-e699fb52c4e1","system_id":"levelo_inurba_marseille","lat":43.29789,"lon":5.39347,"is_reserved":false,"is_disabled":false,"rental_uris":{"android":"levelo://app?vid=f3b9b307-39c1-4d62-9dcd-e699fb52c4e1","ios":"levelo://app?vid=f3b9b307-39c1-4d62-9dcd-e699fb52c4e1"},"vehicle_type_id":"4","last_reported":1732349447,"current_range_meters":8000,"station_id":"chh1huq6cuj3fo74tm60","pricing_plan_id":"cebpf4jnsgd1na2vs0mg"},{"bike_id":"f9e35db8-2f7a-4f43-8c70-83778761d42d","system_id":"levelo_inurba_marseille","lat":43.23187,"lon":5.35554,"is_reserved":false,"is_disabled":true,"rental_uris":{"android":"levelo://app?vid=f9e35db8-2f7a-4f43-8c70-83778761d42d","ios":"levelo://app?vid=f9e35db8-2f7a-4f43-8c70-83778761d42d"},"vehicle_type_id":"4","last_reported":1732349447,"current_range_meters":32800,"station_id":"ce4bhu92rcd13ifvqi70","pricing_plan_id":"cebpf4jnsgd1na2vs0mg"},{"bike_id":"f3d71bf5-431d-42e7-aa32-d2331fc6eec4","system_id":"levelo_inurba_marseille","lat":43.29556,"lon":5.42293,"is_reserved":false,"is_disabled":false,"rental_uris":{"android":"levelo://app?vid=f3d71bf5-431d-42e7-aa32-d2331fc6eec4","ios":"levelo://app?vid=f3d71bf5-431d-42e7-aa32-d2331fc6eec4"},"vehicle_type_id":"4","last_reported":1732349447,"current_range_meters":36000,"station_id":"ce4bhph2rcd13ifvqhdg","pricing_plan_id":"cebpf4jnsgd1na2vs0mg"},{"bike_id":"4923c322-eb4a-4095-bc0c-aa6b225ff01a","system_id":"levelo_inurba_marseille","lat":43.31361,"lon":5.38496,"is_reserved":false,"is_disabled":false,"rental_uris":{"android":"levelo://app?vid=4923c322-eb4a-4095-bc0c-aa6b225ff01a","ios":"levelo://app?vid=4923c322-eb4a-4095-bc0c-aa6b225ff01a"},"vehicle_type_id":"4","last_reported":1732349447,"current_range_meters":29600,"station_id":"ce4bgt92rcd13ifvqcf0","pricing_plan_id":"cebpf4jnsgd1na2vs0mg"},{"bike_id":"1108659d-c798-48fb-a758-9ac015354e35","system_id":"levelo_inurba_marseille","lat":43.26209,"lon":5.37926,"is_reserved":false,"is_disabled":false,"rental_uris":{"android":"levelo://app?vid=1108659d-c798-48fb-a758-9ac015354e35","ios":"levelo://app?vid=1108659d-c798-48fb-a758-9ac015354e35"},"vehicle_type_id":"4","last_reported":1732349447,"current_range_meters":24800,"station_id":"ce4bhjp2rcd13ifvqg90","pricing_plan_id":"cebpf4jnsgd1na2vs0mg"},{"bike_id":"1f5a72a0-3240-401f-8965-8959c734d798","system_id":"levelo_inurba_marseille","lat":43.2396,"lon":5.3663,"is_reserved":false,"is_disabled":false,"rental_uris":{"android":"levelo://app?vid=1f5a72a0-3240-401f-8965-8959c734d798","ios":"levelo://app?vid=1f5a72a0-3240-401f-8965-8959c734d798"},"vehicle_type_id":"4","last_reported":1732349447,"current_range_meters":38800,"station_id":"ce4bhi12rcd13ifvqfp0","pricing_plan_id":"cebpf4jnsgd1na2vs0mg"},{"bike_id":"2859e95c-0b52-439b-97eb-9e21b696cb5d","system_id":"levelo_inurba_marseille","lat":43.30095,"lon":5.3908,"is_reserved":false,"is_disabled":false,"rental_uris":{"android":"levelo://app?vid=2859e95c-0b52-439b-97eb-9e21b696cb5d","ios":"levelo://app?vid=2859e95c-0b52-439b-97eb-9e21b696cb5d"},"vehicle_type_id":"4","last_reported":1732349447,"current_range_meters":39200,"station_id":"ce4bh192rcd13ifvqdb0","pricing_plan_id":"cebpf4jnsgd1na2vs0mg"},{"bike_id":"83591d51-f06f-475a-a77d-ef60a25c1a87","system_id":"levelo_inurba_marseille","lat":43.27976,"lon":5.38729,"is_reserved":false,"is_disabled":false,"rental_uris":{"android":"levelo://app?vid=83591d51-f06f-475a-a77d-ef60a25c1a87","ios":"levelo://app?vid=83591d51-f06f-475a-a77d-ef60a25c1a87"},"vehicle_type_id":"4","last_reported":1732349447,"current_range_meters":27200,"station_id":"ce4bhg12rcd13ifvqf80","pricing_plan_id":"cebpf4jnsgd1na2vs0mg"},{"bike_id":"423a9818-7bff-4486-a519-c2edd613d48b","system_id":"levelo_inurba_marseille","lat":43.29957,"lon":5.41319,"is_reserved":false,"is_disabled":false,"rental_uris":{"android":"levelo://app?vid=423a9818-7bff-4486-a519-c2edd613d48b","ios":"levelo://app?vid=423a9818-7bff-4486-a519-c2edd613d48b"},"vehicle_type_id":"4","last_reported":1732349447,"current_range_meters":28400,"station_id":"ce4bhp12rcd13ifvqh9g","pricing_plan_id":"cebpf4jnsgd1na2vs0mg"},{"bike_id":"cf4599c5-061d-4a97-a13d-8a4249e83d8a","system_id":"levelo_inurba_marseille","lat":43.30479,"lon":5.37911,"is_reserved":false,"is_disabled":false,"rental_uris":{"android":"levelo://app?vid=cf4599c5-061d-4a97-a13d-8a4249e83d8a","ios":"levelo://app?vid=cf4599c5-061d-4a97-a13d-8a4249e83d8a"},"vehicle_type_id":"4","last_reported":1732349447,"current_range_meters":30400,"station_id":"ce4bgup2rcd13ifvqcn0","pricing_plan_id":"cebpf4jnsgd1na2vs0mg"},{"bike_id":"e672334d-d5a9-45e4-8d8e-90a5c5811018","system_id":"levelo_inurba_marseille","lat":43.28101,"lon":5.37839,"is_reserved":false,"is_disabled":false,"rental_uris":{"android":"levelo://app?vid=e672334d-d5a9-45e4-8d8e-90a5c5811018","ios":"levelo://app?vid=e672334d-d5a9-45e4-8d8e-90a5c5811018"},"vehicle_type_id":"4","last_reported":1732349447,"current_range_meters":38800,"station_id":"ce4bha12rcd13ifvqee0","pricing_plan_id":"cebpf4jnsgd1na2vs0mg"},{"bike_id":"3d3e1c02-e434-42cd-a71e-c228de53e864","system_id":"levelo_inurba_marseille","lat":43.24392,"lon":5.37061,"is_reserved":false,"is_disabled":false,"rental_uris":{"android":"levelo://app?vid=3d3e1c02-e434-42cd-a71e-c228de53e864","ios":"levelo://app?vid=3d3e1c02-e434-42cd-a71e-c228de53e864"},"vehicle_type_id":"4","last_reported":1732349447,"current_range_meters":14000,"station_id":"ce4bhhh2rcd13ifvqfk0","pricing_plan_id":"cebpf4jnsgd1na2vs0mg"},{"bike_id":"63c178ba-0266-4590-b3fc-426f0092c35b","system_id":"levelo_inurba_marseille","lat":43.311688,"lon":5.387172,"is_reserved":false,"is_disabled":false,"rental_uris":{"android":"levelo://app?vid=63c178ba-0266-4590-b3fc-426f0092c35b","ios":"levelo://app?vid=63c178ba-0266-4590-b3fc-426f0092c35b"},"vehicle_type_id":"4","last_reported":1732349447,"current_range_meters":6400,"station_id":"ce4bgv12rcd13ifvqcp0","pricing_plan_id":"cebpf4jnsgd1na2vs0mg"},{"bike_id":"5d89816e-0afd-4910-9a3d-37d05296c402","system_id":"levelo_inurba_marseille","lat":43.32481,"lon":5.36555,"is_reserved":false,"is_disabled":false,"rental_uris":{"android":"levelo://app?vid=5d89816e-0afd-4910-9a3d-37d05296c402","ios":"levelo://app?vid=5d89816e-0afd-4910-9a3d-37d05296c402"},"vehicle_type_id":"4","last_reported":1732349447,"current_range_meters":36000,"station_id":"ce4bhs12rcd13ifvqhvg","pricing_plan_id":"cebpf4jnsgd1na2vs0mg"},{"bike_id":"d3e3e973-f89c-4419-9e76-db3faf490d9b","system_id":"levelo_inurba_marseille","lat":43.30151,"lon":5.38079,"is_reserved":false,"is_disabled":false,"rental_uris":{"android":"levelo://app?vid=d3e3e973-f89c-4419-9e76-db3faf490d9b","ios":"levelo://app?vid=d3e3e973-f89c-4419-9e76-db3faf490d9b"},"vehicle_type_id":"4","last_reported":1732349447,"current_range_meters":34000,"station_id":"ce4bgjp2rcd13ifvqbh0","pricing_plan_id":"cebpf4jnsgd1na2vs0mg"},{"bike_id":"6de81487-38c7-44ae-9e2d-f2c1e820c67c","system_id":"levelo_inurba_marseille","lat":43.27208,"lon":5.39171,"is_reserved":false,"is_disabled":false,"rental_uris":{"android":"levelo://app?vid=6de81487-38c7-44ae-9e2d-f2c1e820c67c","ios":"levelo://app?vid=6de81487-38c7-44ae-9e2d-f2c1e820c67c"},"vehicle_type_id":"4","last_reported":1732349447,"current_range_meters":34800,"station_id":"ce4bhhp2rcd13ifvqfm0","pricing_plan_id":"cebpf4jnsgd1na2vs0mg"},{"bike_id":"c26b7658-b62f-4751-91e9-284896b275d7","system_id":"levelo_inurba_marseille","lat":43.29008,"lon":5.42578,"is_reserved":false,"is_disabled":false,"rental_uris":{"android":"levelo://app?vid=c26b7658-b62f-4751-91e9-284896b275d7","ios":"levelo://app?vid=c26b7658-b62f-4751-91e9-284896b275d7"},"vehicle_type_id":"4","last_reported":1732349447,"current_range_meters":8800,"station_id":"","pricing_plan_id":"cebpf4jnsgd1na2vs0mg"},{"bike_id":"fd927606-7b55-4954-8b71-800a5a06c3b5","system_id":"levelo_inurba_marseille","lat":43.28719,"lon":5.36085,"is_reserved":false,"is_disabled":false,"rental_uris":{"android":"levelo://app?vid=fd927606-7b55-4954-8b71-800a5a06c3b5","ios":"levelo://app?vid=fd927606-7b55-4954-8b71-800a5a06c3b5"},"vehicle_type_id":"4","last_reported":1732349447,"current_range_meters":38800,"station_id":"cki0cbj6b192h4jlfktg","pricing_plan_id":"cebpf4jnsgd1na2vs0mg"},{"bike_id":"4cb716de-3f19-43d4-b34b-8b9ce425eaf2","system_id":"levelo_inurba_marseille","lat":43.25864,"lon":5.39898,"is_reserved":false,"is_disabled":false,"rental_uris":{"android":"levelo://app?vid=4cb716de-3f19-43d4-b34b-8b9ce425eaf2","ios":"levelo://app?vid=4cb716de-3f19-43d4-b34b-8b9ce425eaf2"},"vehicle_type_id":"4","last_reported":1732349447,"current_range_meters":24800,"station_id":"ce4bhl92rcd13ifvqghg","pricing_plan_id":"cebpf4jnsgd1na2vs0mg"},{"bike_id":"fa223770-c7b5-4176-b2a9-f62d86c16ea2","system_id":"levelo_inurba_marseille","lat":43.336669,"lon":5.39812,"is_reserved":false,"is_disabled":false,"rental_uris":{"android":"levelo://app?vid=fa223770-c7b5-4176-b2a9-f62d86c16ea2","ios":"levelo://app?vid=fa223770-c7b5-4176-b2a9-f62d86c16ea2"},"vehicle_type_id":"4","last_reported":1732349447,"current_range_meters":30000,"station_id":"","pricing_plan_id":"cebpf4jnsgd1na2vs0mg"},{"bike_id":"1cf045cc-18cc-4180-9a01-a3e4a554f88b","system_id":"levelo_inurba_marseille","lat":43.279933,"lon":5.40007,"is_reserved":false,"is_disabled":false,"rental_uris":{"android":"levelo://app?vid=1cf045cc-18cc-4180-9a01-a3e4a554f88b","ios":"levelo://app?vid=1cf045cc-18cc-4180-9a01-a3e4a554f88b"},"vehicle_type_id":"4","last_reported":1732349447,"current_range_meters":37600,"station_id":"ce4bho92rcd13ifvqh4g","pricing_plan_id":"cebpf4jnsgd1na2vs0mg"},{"bike_id":"99d5eeb3-6513-46db-81bf-de6e43866527","system_id":"levelo_inurba_marseille","lat":43.32365,"lon":5.38884,"is_reserved":false,"is_disabled":false,"rental_uris":{"android":"levelo://app?vid=99d5eeb3-6513-46db-81bf-de6e43866527","ios":"levelo://app?vid=99d5eeb3-6513-46db-81bf-de6e43866527"},"vehicle_type_id":"4","last_reported":1732349447,"current_range_meters":35200,"station_id":"ce4bhqp2rcd13ifvqhog","pricing_plan_id":"cebpf4jnsgd1na2vs0mg"},{"bike_id":"4e31e13d-af00-4bc2-8abc-6145d403c141","system_id":"levelo_inurba_marseille","lat":43.27813,"lon":5.40707,"is_reserved":false,"is_disabled":false,"rental_uris":{"android":"levelo://app?vid=4e31e13d-af00-4bc2-8abc-6145d403c141","ios":"levelo://app?vid=4e31e13d-af00-4bc2-8abc-6145d403c141"},"vehicle_type_id":"4","last_reported":1732349447,"current_range_meters":8400,"station_id":"ce4bhnh2rcd13ifvqgtg","pricing_plan_id":"cebpf4jnsgd1na2vs0mg"},{"bike_id":"f00c8334-c362-4595-b733-3e5b1dcfd596","system_id":"levelo_inurba_marseille","lat":43.30561,"lon":5.3842,"is_reserved":false,"is_disabled":false,"rental_uris":{"android":"levelo://app?vid=f00c8334-c362-4595-b733-3e5b1dcfd596","ios":"levelo://app?vid=f00c8334-c362-4595-b733-3e5b1dcfd596"},"vehicle_type_id":"4","last_reported":1732349447,"current_range_meters":38000,"station_id":"ce4bgg92rcd13ifvqb30","pricing_plan_id":"cebpf4jnsgd1na2vs0mg"},{"bike_id":"e5d63661-ea2d-4e9d-bdce-dbbf19d65c3c","system_id":"levelo_inurba_marseille","lat":43.32368,"lon":5.36768,"is_reserved":false,"is_disabled":true,"rental_uris":{"android":"levelo://app?vid=e5d63661-ea2d-4e9d-bdce-dbbf19d65c3c","ios":"levelo://app?vid=e5d63661-ea2d-4e9d-bdce-dbbf19d65c3c"},"vehicle_type_id":"4","last_reported":1732349447,"current_range_meters":0,"station_id":"ce4bhsh2rcd13ifvqi2g","pricing_plan_id":"cebpf4jnsgd1na2vs0mg"},{"bike_id":"9bd81088-0083-41fe-bb10-323bc946e5a6","system_id":"levelo_inurba_marseille","lat":43.29008,"lon":5.3561,"is_reserved":false,"is_disabled":false,"rental_uris":{"android":"levelo://app?vid=9bd81088-0083-41fe-bb10-323bc946e5a6","ios":"levelo://app?vid=9bd81088-0083-41fe-bb10-323bc946e5a6"},"vehicle_type_id":"4","last_reported":1732349447,"current_range_meters":20000,"station_id":"ce4bhb92rcd13ifvqen0","pricing_plan_id":"cebpf4jnsgd1na2vs0mg"},{"bike_id":"bf651b70-19d2-45ca-8b5f-8cd4fab5a41c","system_id":"levelo_inurba_marseille","lat":43.3064,"lon":5.40073,"is_reserved":false,"is_disabled":false,"rental_uris":{"android":"levelo://app?vid=bf651b70-19d2-45ca-8b5f-8cd4fab5a41c","ios":"levelo://app?vid=bf651b70-19d2-45ca-8b5f-8cd4fab5a41c"},"vehicle_type_id":"4","last_reported":1732349447,"current_range_meters":23200,"station_id":"ce4bh112rcd13ifvqda0","pricing_plan_id":"cebpf4jnsgd1na2vs0mg"},{"bike_id":"0a0a0373-51f3-473f-86af-b59fc3b2de3f","system_id":"levelo_inurba_marseille","lat":43.3132,"lon":5.39695,"is_reserved":false,"is_disabled":false,"rental_uris":{"android":"levelo://app?vid=0a0a0373-51f3-473f-86af-b59fc3b2de3f","ios":"levelo://app?vid=0a0a0373-51f3-473f-86af-b59fc3b2de3f"},"vehicle_type_id":"4","last_reported":1732349447,"current_range_meters":26800,"station_id":"ce4bgvp2rcd13ifvqcu0","pricing_plan_id":"cebpf4jnsgd1na2vs0mg"},{"bike_id":"90cc99af-54e0-4698-bffa-7f2f1beb1a95","system_id":"levelo_inurba_marseille","lat":43.27988,"lon":5.41657,"is_reserved":false,"is_disabled":false,"rental_uris":{"android":"levelo://app?vid=90cc99af-54e0-4698-bffa-7f2f1beb1a95","ios":"levelo://app?vid=90cc99af-54e0-4698-bffa-7f2f1beb1a95"},"vehicle_type_id":"4","last_reported":1732349447,"current_range_meters":39200,"station_id":"ce4bho12rcd13ifvqh1g","pricing_plan_id":"cebpf4jnsgd1na2vs0mg"},{"bike_id":"81640bf4-dd0f-4830-8546-4d4867cc58a5","system_id":"levelo_inurba_marseille","lat":43.23102,"lon":5.40479,"is_reserved":false,"is_disabled":false,"rental_uris":{"android":"levelo://app?vid=81640bf4-dd0f-4830-8546-4d4867cc58a5","ios":"levelo://app?vid=81640bf4-dd0f-4830-8546-4d4867cc58a5"},"vehicle_type_id":"4","last_reported":1732349447,"current_range_meters":8400,"station_id":"","pricing_plan_id":"cebpf4jnsgd1na2vs0mg"},{"bike_id":"c9d20d7e-94a0-4c8b-b70d-f64cda2d5d16","system_id":"levelo_inurba_marseille","lat":43.29218,"lon":5.40009,"is_reserved":false,"is_disabled":false,"rental_uris":{"android":"levelo://app?vid=c9d20d7e-94a0-4c8b-b70d-f64cda2d5d16","ios":"levelo://app?vid=c9d20d7e-94a0-4c8b-b70d-f64cda2d5d16"},"vehicle_type_id":"4","last_reported":1732349447,"current_range_meters":13600,"station_id":"","pricing_plan_id":"cebpf4jnsgd1na2vs0mg"},{"bike_id":"cd78312a-142a-42d0-92e1-dbc654bf8bb4","system_id":"levelo_inurba_marseille","lat":43.24183,"lon":5.3972,"is_reserved":false,"is_disabled":true,"rental_uris":{"android":"levelo://app?vid=cd78312a-142a-42d0-92e1-dbc654bf8bb4","ios":"levelo://app?vid=cd78312a-142a-42d0-92e1-dbc654bf8bb4"},"vehicle_type_id":"4","last_reported":1732349447,"current_range_meters":16000,"station_id":"ce4bhn12rcd13ifvqgpg","pricing_plan_id":"cebpf4jnsgd1na2vs0mg"},{"bike_id":"f28c82ad-6f3c-4c01-88a7-477b9b26f762","system_id":"levelo_inurba_marseille","lat":43.23963,"lon":5.3663,"is_reserved":false,"is_disabled":false,"rental_uris":{"android":"levelo://app?vid=f28c82ad-6f3c-4c01-88a7-477b9b26f762","ios":"levelo://app?vid=f28c82ad-6f3c-4c01-88a7-477b9b26f762"},"vehicle_type_id":"4","last_reported":1732349447,"current_range_meters":27600,"station_id":"ce4bhi12rcd13ifvqfp0","pricing_plan_id":"cebpf4jnsgd1na2vs0mg"},{"bike_id":"11c5ed7c-dad2-4605-8db8-4918d0818190","system_id":"levelo_inurba_marseille","lat":43.31723,"lon":5.42401,"is_reserved":false,"is_disabled":false,"rental_uris":{"android":"levelo://app?vid=11c5ed7c-dad2-4605-8db8-4918d0818190","ios":"levelo://app?vid=11c5ed7c-dad2-4605-8db8-4918d0818190"},"vehicle_type_id":"4","last_reported":1732349447,"current_range_meters":38400,"station_id":"ce4bhp92rcd13ifvqhbg","pricing_plan_id":"cebpf4jnsgd1na2vs0mg"},{"bike_id":"3dedd3a3-3784-47e0-bd52-94265bd44a24","system_id":"levelo_inurba_marseille","lat":43.24551,"lon":5.37326,"is_reserved":false,"is_disabled":true,"rental_uris":{"android":"levelo://app?vid=3dedd3a3-3784-47e0-bd52-94265bd44a24","ios":"levelo://app?vid=3dedd3a3-3784-47e0-bd52-94265bd44a24"},"vehicle_type_id":"4","last_reported":1732349447,"current_range_meters":0,"station_id":"","pricing_plan_id":"cebpf4jnsgd1na2vs0mg"},{"bike_id":"0f73c7e1-9f37-4805-b324-faa77a592d73","system_id":"levelo_inurba_marseille","lat":43.2407,"lon":5.3775,"is_reserved":false,"is_disabled":false,"rental_uris":{"android":"levelo://app?vid=0f73c7e1-9f37-4805-b324-faa77a592d73","ios":"levelo://app?vid=0f73c7e1-9f37-4805-b324-faa77a592d73"},"vehicle_type_id":"4","last_reported":1732349447,"current_range_meters":19200,"station_id":"ce4bhnp2rcd13ifvqgvg","pricing_plan_id":"cebpf4jnsgd1na2vs0mg"},{"bike_id":"12234c16-f83e-4c12-88f7-8a74f5f0de0e","system_id":"levelo_inurba_marseille","lat":43.24807,"lon":5.37448,"is_reserved":false,"is_disabled":false,"rental_uris":{"android":"levelo://app?vid=12234c16-f83e-4c12-88f7-8a74f5f0de0e","ios":"levelo://app?vid=12234c16-f83e-4c12-88f7-8a74f5f0de0e"},"vehicle_type_id":"4","last_reported":1732349447,"current_range_meters":23200,"station_id":"ce4bhgh2rcd13ifvqfb0","pricing_plan_id":"cebpf4jnsgd1na2vs0mg"},{"bike_id":"508e64fb-b601-4256-a33d-1741da3fb5eb","system_id":"levelo_inurba_marseille","lat":43.2408,"lon":5.3775,"is_reserved":false,"is_disabled":false,"rental_uris":{"android":"levelo://app?vid=508e64fb-b601-4256-a33d-1741da3fb5eb","ios":"levelo://app?vid=508e64fb-b601-4256-a33d-1741da3fb5eb"},"vehicle_type_id":"4","last_reported":1732349447,"current_range_meters":4800,"station_id":"ce4bhnp2rcd13ifvqgvg","pricing_plan_id":"cebpf4jnsgd1na2vs0mg"},{"bike_id":"bcf5a7ef-45e7-40a2-a25a-d01db7f9684d","system_id":"levelo_inurba_marseille","lat":43.25383,"lon":5.4017,"is_reserved":false,"is_disabled":true,"rental_uris":{"android":"levelo://app?vid=bcf5a7ef-45e7-40a2-a25a-d01db7f9684d","ios":"levelo://app?vid=bcf5a7ef-45e7-40a2-a25a-d01db7f9684d"},"vehicle_type_id":"4","last_reported":1732349447,"current_range_meters":0,"station_id":"","pricing_plan_id":"cebpf4jnsgd1na2vs0mg"},{"bike_id":"3193222d-584b-4642-a1d8-0c04b2309736","system_id":"levelo_inurba_marseille","lat":43.33729,"lon":5.39185,"is_reserved":false,"is_disabled":false,"rental_uris":{"android":"levelo://app?vid=3193222d-584b-4642-a1d8-0c04b2309736","ios":"levelo://app?vid=3193222d-584b-4642-a1d8-0c04b2309736"},"vehicle_type_id":"4","last_reported":1732349447,"current_range_meters":33200,"station_id":"ce4bhr92rcd13ifvqhsg","pricing_plan_id":"cebpf4jnsgd1na2vs0mg"},{"bike_id":"7c2f19f3-5373-4c2a-87bb-e1fd3ef39822","system_id":"levelo_inurba_marseille","lat":43.26559,"lon":5.39009,"is_reserved":false,"is_disabled":true,"rental_uris":{"android":"levelo://app?vid=7c2f19f3-5373-4c2a-87bb-e1fd3ef39822","ios":"levelo://app?vid=7c2f19f3-5373-4c2a-87bb-e1fd3ef39822"},"vehicle_type_id":"4","last_reported":1732349447,"current_range_meters":26000,"station_id":"ce4bhe12rcd13ifvqf30","pricing_plan_id":"cebpf4jnsgd1na2vs0mg"},{"bike_id":"36ef9a42-f4d8-45f5-adc2-b51fb9b962d0","system_id":"levelo_inurba_marseille","lat":43.3415,"lon":5.40897,"is_reserved":false,"is_disabled":false,"rental_uris":{"android":"levelo://app?vid=36ef9a42-f4d8-45f5-adc2-b51fb9b962d0","ios":"levelo://app?vid=36ef9a42-f4d8-45f5-adc2-b51fb9b962d0"},"vehicle_type_id":"4","last_reported":1732349447,"current_range_meters":38800,"station_id":"ce4bhqh2rcd13ifvqhlg","pricing_plan_id":"cebpf4jnsgd1na2vs0mg"},{"bike_id":"d145285e-3020-420f-8506-6c41aef82607","system_id":"levelo_inurba_marseille","lat":43.308015,"lon":5.381568,"is_reserved":false,"is_disabled":false,"rental_uris":{"android":"levelo://app?vid=d145285e-3020-420f-8506-6c41aef82607","ios":"levelo://app?vid=d145285e-3020-420f-8506-6c41aef82607"},"vehicle_type_id":"4","last_reported":1732349447,"current_range_meters":32800,"station_id":"ce4bgt12rcd13ifvqce0","pricing_plan_id":"cebpf4jnsgd1na2vs0mg"},{"bike_id":"095792c7-a4b8-437f-aedd-efe4efded967","system_id":"levelo_inurba_marseille","lat":43.30543,"lon":5.38438,"is_reserved":false,"is_disabled":false,"rental_uris":{"android":"levelo://app?vid=095792c7-a4b8-437f-aedd-efe4efded967","ios":"levelo://app?vid=095792c7-a4b8-437f-aedd-efe4efded967"},"vehicle_type_id":"4","last_reported":1732349447,"current_range_meters":30000,"station_id":"ce4bgg92rcd13ifvqb30","pricing_plan_id":"cebpf4jnsgd1na2vs0mg"},{"bike_id":"1fe36207-a189-42b7-a2ae-a1bed57e3dd0","system_id":"levelo_inurba_marseille","lat":43.2603,"lon":5.37555,"is_reserved":false,"is_disabled":false,"rental_uris":{"android":"levelo://app?vid=1fe36207-a189-42b7-a2ae-a1bed57e3dd0","ios":"levelo://app?vid=1fe36207-a189-42b7-a2ae-a1bed57e3dd0"},"vehicle_type_id":"4","last_reported":1732349447,"current_range_meters":14400,"station_id":"ce4bhgh2rcd13ifvqfa0","pricing_plan_id":"cebpf4jnsgd1na2vs0mg"},{"bike_id":"4ecdaf55-87e7-42ea-ac0e-a41de2a6b49d","system_id":"levelo_inurba_marseille","lat":43.319933,"lon":5.381536,"is_reserved":false,"is_disabled":false,"rental_uris":{"android":"levelo://app?vid=4ecdaf55-87e7-42ea-ac0e-a41de2a6b49d","ios":"levelo://app?vid=4ecdaf55-87e7-42ea-ac0e-a41de2a6b49d"},"vehicle_type_id":"4","last_reported":1732349447,"current_range_meters":24400,"station_id":"ce4bhr12rcd13ifvqhpg","pricing_plan_id":"cebpf4jnsgd1na2vs0mg"},{"bike_id":"51ce6112-ca51-4a26-8335-063dea88ee84","system_id":"levelo_inurba_marseille","lat":43.26674,"lon":5.38967,"is_reserved":false,"is_disabled":false,"rental_uris":{"android":"levelo://app?vid=51ce6112-ca51-4a26-8335-063dea88ee84","ios":"levelo://app?vid=51ce6112-ca51-4a26-8335-063dea88ee84"},"vehicle_type_id":"4","last_reported":1732349447,"current_range_meters":8000,"station_id":"","pricing_plan_id":"cebpf4jnsgd1na2vs0mg"},{"bike_id":"a02eb68f-c704-45bf-b3f6-d9816f90b1b3","system_id":"levelo_inurba_marseille","lat":43.26945,"lon":5.38638,"is_reserved":false,"is_disabled":false,"rental_uris":{"android":"levelo://app?vid=a02eb68f-c704-45bf-b3f6-d9816f90b1b3","ios":"levelo://app?vid=a02eb68f-c704-45bf-b3f6-d9816f90b1b3"},"vehicle_type_id":"4","last_reported":1732349447,"current_range_meters":36000,"station_id":"ce4bhh92rcd13ifvqfh0","pricing_plan_id":"cebpf4jnsgd1na2vs0mg"},{"bike_id":"dc40093c-1a1f-419a-9052-3d264e01de4a","system_id":"levelo_inurba_marseille","lat":43.30348,"lon":5.41875,"is_reserved":false,"is_disabled":false,"rental_uris":{"android":"levelo://app?vid=dc40093c-1a1f-419a-9052-3d264e01de4a","ios":"levelo://app?vid=dc40093c-1a1f-419a-9052-3d264e01de4a"},"vehicle_type_id":"4","last_reported":1732349447,"current_range_meters":38800,"station_id":"ce4bhop2rcd13ifvqh7g","pricing_plan_id":"cebpf4jnsgd1na2vs0mg"},{"bike_id":"fc0b1b0c-9a21-495d-be52-0d91f5503bfa","system_id":"levelo_inurba_marseille","lat":43.2293,"lon":5.35371,"is_reserved":false,"is_disabled":false,"rental_uris":{"android":"levelo://app?vid=fc0b1b0c-9a21-495d-be52-0d91f5503bfa","ios":"levelo://app?vid=fc0b1b0c-9a21-495d-be52-0d91f5503bfa"},"vehicle_type_id":"4","last_reported":1732349447,"current_range_meters":22800,"station_id":"cpo3532slgdg3j2ikp40","pricing_plan_id":"cebpf4jnsgd1na2vs0mg"},{"bike_id":"fb8722dd-7f32-4ddd-b094-d27e50ec04ba","system_id":"levelo_inurba_marseille","lat":43.24076,"lon":5.37765,"is_reserved":false,"is_disabled":false,"rental_uris":{"android":"levelo://app?vid=fb8722dd-7f32-4ddd-b094-d27e50ec04ba","ios":"levelo://app?vid=fb8722dd-7f32-4ddd-b094-d27e50ec04ba"},"vehicle_type_id":"4","last_reported":1732349447,"current_range_meters":38800,"station_id":"ce4bhnp2rcd13ifvqgvg","pricing_plan_id":"cebpf4jnsgd1na2vs0mg"},{"bike_id":"2ac5acc9-e834-45c9-92b6-375bbcca6244","system_id":"levelo_inurba_marseille","lat":43.25496,"lon":5.37651,"is_reserved":false,"is_disabled":false,"rental_uris":{"android":"levelo://app?vid=2ac5acc9-e834-45c9-92b6-375bbcca6244","ios":"levelo://app?vid=2ac5acc9-e834-45c9-92b6-375bbcca6244"},"vehicle_type_id":"4","last_reported":1732349447,"current_range_meters":17600,"station_id":"ce4bhh12rcd13ifvqff0","pricing_plan_id":"cebpf4jnsgd1na2vs0mg"},{"bike_id":"85e5d55e-46ec-4dae-ada6-d1f7a5aa1508","system_id":"levelo_inurba_marseille","lat":43.25864,"lon":5.39903,"is_reserved":false,"is_disabled":false,"rental_uris":{"android":"levelo://app?vid=85e5d55e-46ec-4dae-ada6-d1f7a5aa1508","ios":"levelo://app?vid=85e5d55e-46ec-4dae-ada6-d1f7a5aa1508"},"vehicle_type_id":"4","last_reported":1732349447,"current_range_meters":28400,"station_id":"ce4bhl92rcd13ifvqghg","pricing_plan_id":"cebpf4jnsgd1na2vs0mg"},{"bike_id":"94101e33-ee43-4b1f-9078-47da1f716263","system_id":"levelo_inurba_marseille","lat":43.2694,"lon":5.38648,"is_reserved":false,"is_disabled":false,"rental_uris":{"android":"levelo://app?vid=94101e33-ee43-4b1f-9078-47da1f716263","ios":"levelo://app?vid=94101e33-ee43-4b1f-9078-47da1f716263"},"vehicle_type_id":"4","last_reported":1732349447,"current_range_meters":39200,"station_id":"ce4bhh92rcd13ifvqfh0","pricing_plan_id":"cebpf4jnsgd1na2vs0mg"},{"bike_id":"97437fd5-e381-403b-962e-cf899defef24","system_id":"levelo_inurba_marseille","lat":43.324869,"lon":5.365696,"is_reserved":false,"is_disabled":false,"rental_uris":{"android":"levelo://app?vid=97437fd5-e381-403b-962e-cf899defef24","ios":"levelo://app?vid=97437fd5-e381-403b-962e-cf899defef24"},"vehicle_type_id":"4","last_reported":1732349447,"current_range_meters":25600,"station_id":"ce4bhs12rcd13ifvqhvg","pricing_plan_id":"cebpf4jnsgd1na2vs0mg"},{"bike_id":"68f9bc67-7a46-4c54-8555-1eed96ca8ef0","system_id":"levelo_inurba_marseille","lat":43.32107,"lon":5.36778,"is_reserved":false,"is_disabled":false,"rental_uris":{"android":"levelo://app?vid=68f9bc67-7a46-4c54-8555-1eed96ca8ef0","ios":"levelo://app?vid=68f9bc67-7a46-4c54-8555-1eed96ca8ef0"},"vehicle_type_id":"4","last_reported":1732349447,"current_range_meters":36800,"station_id":"ce4bhrh2rcd13ifvqhug","pricing_plan_id":"cebpf4jnsgd1na2vs0mg"},{"bike_id":"9f2d87b3-b732-4f0b-a482-72509ea4f76c","system_id":"levelo_inurba_marseille","lat":43.3014,"lon":5.38075,"is_reserved":false,"is_disabled":false,"rental_uris":{"android":"levelo://app?vid=9f2d87b3-b732-4f0b-a482-72509ea4f76c","ios":"levelo://app?vid=9f2d87b3-b732-4f0b-a482-72509ea4f76c"},"vehicle_type_id":"4","last_reported":1732349447,"current_range_meters":33600,"station_id":"ce4bgjp2rcd13ifvqbh0","pricing_plan_id":"cebpf4jnsgd1na2vs0mg"},{"bike_id":"91948578-d867-422c-a4b1-085be40420a4","system_id":"levelo_inurba_marseille","lat":43.24071,"lon":5.37763,"is_reserved":false,"is_disabled":false,"rental_uris":{"android":"levelo://app?vid=91948578-d867-422c-a4b1-085be40420a4","ios":"levelo://app?vid=91948578-d867-422c-a4b1-085be40420a4"},"vehicle_type_id":"4","last_reported":1732349447,"current_range_meters":4000,"station_id":"ce4bhnp2rcd13ifvqgvg","pricing_plan_id":"cebpf4jnsgd1na2vs0mg"},{"bike_id":"31a3efa5-23ff-4d63-a675-e8128f858976","system_id":"levelo_inurba_marseille","lat":43.29844,"lon":5.36262,"is_reserved":false,"is_disabled":false,"rental_uris":{"android":"levelo://app?vid=31a3efa5-23ff-4d63-a675-e8128f858976","ios":"levelo://app?vid=31a3efa5-23ff-4d63-a675-e8128f858976"},"vehicle_type_id":"4","last_reported":1732349447,"current_range_meters":39200,"station_id":"ce4bgpp2rcd13ifvqc3g","pricing_plan_id":"cebpf4jnsgd1na2vs0mg"},{"bike_id":"bee41234-12da-4d21-8d3c-98d1ae5278bc","system_id":"levelo_inurba_marseille","lat":43.2906,"lon":5.388,"is_reserved":false,"is_disabled":false,"rental_uris":{"android":"levelo://app?vid=bee41234-12da-4d21-8d3c-98d1ae5278bc","ios":"levelo://app?vid=bee41234-12da-4d21-8d3c-98d1ae5278bc"},"vehicle_type_id":"4","last_reported":1732349447,"current_range_meters":19600,"station_id":"","pricing_plan_id":"cebpf4jnsgd1na2vs0mg"},{"bike_id":"89dbb5a4-8b1d-43ba-b8c0-b5dcadd2d0c8","system_id":"levelo_inurba_marseille","lat":43.29921,"lon":5.37471,"is_reserved":false,"is_disabled":false,"rental_uris":{"android":"levelo://app?vid=89dbb5a4-8b1d-43ba-b8c0-b5dcadd2d0c8","ios":"levelo://app?vid=89dbb5a4-8b1d-43ba-b8c0-b5dcadd2d0c8"},"vehicle_type_id":"4","last_reported":1732349447,"current_range_meters":37600,"station_id":"ce4bgjh2rcd13ifvqbg0","pricing_plan_id":"cebpf4jnsgd1na2vs0mg"},{"bike_id":"bc253db0-f00b-4bb0-84b9-1f8f01714743","system_id":"levelo_inurba_marseille","lat":43.2396,"lon":5.36632,"is_reserved":false,"is_disabled":false,"rental_uris":{"android":"levelo://app?vid=bc253db0-f00b-4bb0-84b9-1f8f01714743","ios":"levelo://app?vid=bc253db0-f00b-4bb0-84b9-1f8f01714743"},"vehicle_type_id":"4","last_reported":1732349447,"current_range_meters":16400,"station_id":"ce4bhi12rcd13ifvqfp0","pricing_plan_id":"cebpf4jnsgd1na2vs0mg"},{"bike_id":"d60edd73-4923-4330-b16d-caf6d1490a7d","system_id":"levelo_inurba_marseille","lat":43.31534,"lon":5.38035,"is_reserved":false,"is_disabled":false,"rental_uris":{"android":"levelo://app?vid=d60edd73-4923-4330-b16d-caf6d1490a7d","ios":"levelo://app?vid=d60edd73-4923-4330-b16d-caf6d1490a7d"},"vehicle_type_id":"4","last_reported":1732349447,"current_range_meters":11200,"station_id":"ce4bhsp2rcd13ifvqi50","pricing_plan_id":"cebpf4jnsgd1na2vs0mg"},{"bike_id":"589e73fc-b369-4a28-b69f-0a0000220651","system_id":"levelo_inurba_marseille","lat":43.29584,"lon":5.36733,"is_reserved":false,"is_disabled":false,"rental_uris":{"android":"levelo://app?vid=589e73fc-b369-4a28-b69f-0a0000220651","ios":"levelo://app?vid=589e73fc-b369-4a28-b69f-0a0000220651"},"vehicle_type_id":"4","last_reported":1732349447,"current_range_meters":38800,"station_id":"ce4bgph2rcd13ifvqc2g","pricing_plan_id":"cebpf4jnsgd1na2vs0mg"},{"bike_id":"d61cc877-d3c6-41ac-b02b-4bf4e01d2398","system_id":"levelo_inurba_marseille","lat":43.29678,"lon":5.40526,"is_reserved":false,"is_disabled":false,"rental_uris":{"android":"levelo://app?vid=d61cc877-d3c6-41ac-b02b-4bf4e01d2398","ios":"levelo://app?vid=d61cc877-d3c6-41ac-b02b-4bf4e01d2398"},"vehicle_type_id":"4","last_reported":1732349447,"current_range_meters":14000,"station_id":"","pricing_plan_id":"cebpf4jnsgd1na2vs0mg"},{"bike_id":"2ce56eac-607f-4aee-97f1-1efe9a148076","system_id":"levelo_inurba_marseille","lat":43.22927,"lon":5.35377,"is_reserved":false,"is_disabled":false,"rental_uris":{"android":"levelo://app?vid=2ce56eac-607f-4aee-97f1-1efe9a148076","ios":"levelo://app?vid=2ce56eac-607f-4aee-97f1-1efe9a148076"},"vehicle_type_id":"4","last_reported":1732349447,"current_range_meters":10000,"station_id":"cpo3532slgdg3j2ikp40","pricing_plan_id":"cebpf4jnsgd1na2vs0mg"},{"bike_id":"3c5d0254-2542-44e0-aa08-1a8753e937a8","system_id":"levelo_inurba_marseille","lat":43.26688,"lon":5.3827,"is_reserved":false,"is_disabled":false,"rental_uris":{"android":"levelo://app?vid=3c5d0254-2542-44e0-aa08-1a8753e937a8","ios":"levelo://app?vid=3c5d0254-2542-44e0-aa08-1a8753e937a8"},"vehicle_type_id":"4","last_reported":1732349447,"current_range_meters":36800,"station_id":"ce4bhg92rcd13ifvqf90","pricing_plan_id":"cebpf4jnsgd1na2vs0mg"},{"bike_id":"c74abcec-f83d-46ae-b5a9-0a57cc1c1c41","system_id":"levelo_inurba_marseille","lat":43.23194,"lon":5.35551,"is_reserved":false,"is_disabled":false,"rental_uris":{"android":"levelo://app?vid=c74abcec-f83d-46ae-b5a9-0a57cc1c1c41","ios":"levelo://app?vid=c74abcec-f83d-46ae-b5a9-0a57cc1c1c41"},"vehicle_type_id":"4","last_reported":1732349447,"current_range_meters":34800,"station_id":"ce4bhu92rcd13ifvqi70","pricing_plan_id":"cebpf4jnsgd1na2vs0mg"},{"bike_id":"72199e4f-4616-4328-bcb5-d0d184b8428c","system_id":"levelo_inurba_marseille","lat":43.25121,"lon":5.40318,"is_reserved":false,"is_disabled":false,"rental_uris":{"android":"levelo://app?vid=72199e4f-4616-4328-bcb5-d0d184b8428c","ios":"levelo://app?vid=72199e4f-4616-4328-bcb5-d0d184b8428c"},"vehicle_type_id":"4","last_reported":1732349447,"current_range_meters":39200,"station_id":"ce4bhlh2rcd13ifvqgig","pricing_plan_id":"cebpf4jnsgd1na2vs0mg"},{"bike_id":"6bc5e554-d491-43d8-af78-57fbd87f8a20","system_id":"levelo_inurba_marseille","lat":43.29847,"lon":5.36285,"is_reserved":false,"is_disabled":false,"rental_uris":{"android":"levelo://app?vid=6bc5e554-d491-43d8-af78-57fbd87f8a20","ios":"levelo://app?vid=6bc5e554-d491-43d8-af78-57fbd87f8a20"},"vehicle_type_id":"4","last_reported":1732349447,"current_range_meters":37600,"station_id":"ce4bgpp2rcd13ifvqc3g","pricing_plan_id":"cebpf4jnsgd1na2vs0mg"},{"bike_id":"1f95b7bf-cda9-49b3-8eea-8d60d5718c7c","system_id":"levelo_inurba_marseille","lat":43.290273,"lon":5.375552,"is_reserved":false,"is_disabled":true,"rental_uris":{"android":"levelo://app?vid=1f95b7bf-cda9-49b3-8eea-8d60d5718c7c","ios":"levelo://app?vid=1f95b7bf-cda9-49b3-8eea-8d60d5718c7c"},"vehicle_type_id":"4","last_reported":1732349447,"current_range_meters":4800,"station_id":"ce4bh692rcd13ifvqe90","pricing_plan_id":"cebpf4jnsgd1na2vs0mg"},{"bike_id":"c3a9fd83-5a98-42b2-a8f7-5104c351d62e","system_id":"levelo_inurba_marseille","lat":43.30456,"lon":5.37902,"is_reserved":false,"is_disabled":false,"rental_uris":{"android":"levelo://app?vid=c3a9fd83-5a98-42b2-a8f7-5104c351d62e","ios":"levelo://app?vid=c3a9fd83-5a98-42b2-a8f7-5104c351d62e"},"vehicle_type_id":"4","last_reported":1732349447,"current_range_meters":7200,"station_id":"ce4bgup2rcd13ifvqcn0","pricing_plan_id":"cebpf4jnsgd1na2vs0mg"},{"bike_id":"1eff5ce5-2d56-4465-a12c-60db9ec2175a","system_id":"levelo_inurba_marseille","lat":43.22925,"lon":5.35376,"is_reserved":false,"is_disabled":false,"rental_uris":{"android":"levelo://app?vid=1eff5ce5-2d56-4465-a12c-60db9ec2175a","ios":"levelo://app?vid=1eff5ce5-2d56-4465-a12c-60db9ec2175a"},"vehicle_type_id":"4","last_reported":1732349447,"current_range_meters":36800,"station_id":"cpo3532slgdg3j2ikp40","pricing_plan_id":"cebpf4jnsgd1na2vs0mg"},{"bike_id":"dc815649-e3e3-48aa-b0fd-022cdb8ac58a","system_id":"levelo_inurba_marseille","lat":43.32365,"lon":5.38888,"is_reserved":false,"is_disabled":false,"rental_uris":{"android":"levelo://app?vid=dc815649-e3e3-48aa-b0fd-022cdb8ac58a","ios":"levelo://app?vid=dc815649-e3e3-48aa-b0fd-022cdb8ac58a"},"vehicle_type_id":"4","last_reported":1732349447,"current_range_meters":32000,"station_id":"ce4bhqp2rcd13ifvqhog","pricing_plan_id":"cebpf4jnsgd1na2vs0mg"},{"bike_id":"a6c947ec-d484-4556-983a-d984f3f0d64e","system_id":"levelo_inurba_marseille","lat":43.24999,"lon":5.38924,"is_reserved":false,"is_disabled":false,"rental_uris":{"android":"levelo://app?vid=a6c947ec-d484-4556-983a-d984f3f0d64e","ios":"levelo://app?vid=a6c947ec-d484-4556-983a-d984f3f0d64e"},"vehicle_type_id":"4","last_reported":1732349447,"current_range_meters":10000,"station_id":"ce4bhgp2rcd13ifvqfd0","pricing_plan_id":"cebpf4jnsgd1na2vs0mg"},{"bike_id":"c9ac1ef6-9ad3-4bc7-b0a2-8ffc1ae0acff","system_id":"levelo_inurba_marseille","lat":43.2781,"lon":5.40708,"is_reserved":false,"is_disabled":false,"rental_uris":{"android":"levelo://app?vid=c9ac1ef6-9ad3-4bc7-b0a2-8ffc1ae0acff","ios":"levelo://app?vid=c9ac1ef6-9ad3-4bc7-b0a2-8ffc1ae0acff"},"vehicle_type_id":"4","last_reported":1732349447,"current_range_meters":28800,"station_id":"ce4bhnh2rcd13ifvqgtg","pricing_plan_id":"cebpf4jnsgd1na2vs0mg"},{"bike_id":"6009d250-3aea-4d66-91ba-2dc21d6db0ce","system_id":"levelo_inurba_marseille","lat":43.2885,"lon":5.35843,"is_reserved":false,"is_disabled":false,"rental_uris":{"android":"levelo://app?vid=6009d250-3aea-4d66-91ba-2dc21d6db0ce","ios":"levelo://app?vid=6009d250-3aea-4d66-91ba-2dc21d6db0ce"},"vehicle_type_id":"4","last_reported":1732349447,"current_range_meters":32400,"station_id":"ce4bhb12rcd13ifvqem0","pricing_plan_id":"cebpf4jnsgd1na2vs0mg"},{"bike_id":"40bfb175-cda3-4130-9075-6a82c9e7fe72","system_id":"levelo_inurba_marseille","lat":43.32338,"lon":5.40634,"is_reserved":false,"is_disabled":false,"rental_uris":{"android":"levelo://app?vid=40bfb175-cda3-4130-9075-6a82c9e7fe72","ios":"levelo://app?vid=40bfb175-cda3-4130-9075-6a82c9e7fe72"},"vehicle_type_id":"4","last_reported":1732349447,"current_range_meters":15200,"station_id":"ce4bhq92rcd13ifvqhjg","pricing_plan_id":"cebpf4jnsgd1na2vs0mg"},{"bike_id":"c490aaac-88b6-407b-8070-d1f7c2874d9b","system_id":"levelo_inurba_marseille","lat":43.265,"lon":5.39539,"is_reserved":false,"is_disabled":false,"rental_uris":{"android":"levelo://app?vid=c490aaac-88b6-407b-8070-d1f7c2874d9b","ios":"levelo://app?vid=c490aaac-88b6-407b-8070-d1f7c2874d9b"},"vehicle_type_id":"4","last_reported":1732349447,"current_range_meters":38000,"station_id":"ce4bhi12rcd13ifvqfq0","pricing_plan_id":"cebpf4jnsgd1na2vs0mg"},{"bike_id":"b591530d-38c7-4ac0-9ebb-398fb1409b71","system_id":"levelo_inurba_marseille","lat":43.29369,"lon":5.37834,"is_reserved":false,"is_disabled":false,"rental_uris":{"android":"levelo://app?vid=b591530d-38c7-4ac0-9ebb-398fb1409b71","ios":"levelo://app?vid=b591530d-38c7-4ac0-9ebb-398fb1409b71"},"vehicle_type_id":"4","last_reported":1732349447,"current_range_meters":18800,"station_id":"ce4bgjh2rcd13ifvqbf0","pricing_plan_id":"cebpf4jnsgd1na2vs0mg"},{"bike_id":"5f401a72-6ce7-4d38-9fb6-ee5260b34669","system_id":"levelo_inurba_marseille","lat":43.24083,"lon":5.37751,"is_reserved":false,"is_disabled":false,"rental_uris":{"android":"levelo://app?vid=5f401a72-6ce7-4d38-9fb6-ee5260b34669","ios":"levelo://app?vid=5f401a72-6ce7-4d38-9fb6-ee5260b34669"},"vehicle_type_id":"4","last_reported":1732349447,"current_range_meters":38000,"station_id":"ce4bhnp2rcd13ifvqgvg","pricing_plan_id":"cebpf4jnsgd1na2vs0mg"},{"bike_id":"eb22e8b4-2350-4592-b1fa-b1c52ed76f3b","system_id":"levelo_inurba_marseille","lat":43.28571,"lon":5.39493,"is_reserved":false,"is_disabled":false,"rental_uris":{"android":"levelo://app?vid=eb22e8b4-2350-4592-b1fa-b1c52ed76f3b","ios":"levelo://app?vid=eb22e8b4-2350-4592-b1fa-b1c52ed76f3b"},"vehicle_type_id":"4","last_reported":1732349447,"current_range_meters":31200,"station_id":"ce4bh292rcd13ifvqdg0","pricing_plan_id":"cebpf4jnsgd1na2vs0mg"},{"bike_id":"394aa3cb-29a8-40b5-be61-196faf34db54","system_id":"levelo_inurba_marseille","lat":43.287,"lon":5.39982,"is_reserved":false,"is_disabled":false,"rental_uris":{"android":"levelo://app?vid=394aa3cb-29a8-40b5-be61-196faf34db54","ios":"levelo://app?vid=394aa3cb-29a8-40b5-be61-196faf34db54"},"vehicle_type_id":"4","last_reported":1732349447,"current_range_meters":38800,"station_id":"ce4bho92rcd13ifvqh3g","pricing_plan_id":"cebpf4jnsgd1na2vs0mg"},{"bike_id":"f796b412-9140-415f-9f98-4b489dc2b14e","system_id":"levelo_inurba_marseille","lat":43.26936,"lon":5.40246,"is_reserved":false,"is_disabled":false,"rental_uris":{"android":"levelo://app?vid=f796b412-9140-415f-9f98-4b489dc2b14e","ios":"levelo://app?vid=f796b412-9140-415f-9f98-4b489dc2b14e"},"vehicle_type_id":"4","last_reported":1732349447,"current_range_meters":36800,"station_id":"cjm6bp8fraef2m0cb0m0","pricing_plan_id":"cebpf4jnsgd1na2vs0mg"},{"bike_id":"f3db8695-64da-47ec-8340-c4c8a6858e41","system_id":"levelo_inurba_marseille","lat":43.32288,"lon":5.38264,"is_reserved":false,"is_disabled":false,"rental_uris":{"android":"levelo://app?vid=f3db8695-64da-47ec-8340-c4c8a6858e41","ios":"levelo://app?vid=f3db8695-64da-47ec-8340-c4c8a6858e41"},"vehicle_type_id":"4","last_reported":1732349447,"current_range_meters":18800,"station_id":"ce4bhr12rcd13ifvqhqg","pricing_plan_id":"cebpf4jnsgd1na2vs0mg"},{"bike_id":"c5cd9c83-3896-40c8-9aaf-76b4d86b42be","system_id":"levelo_inurba_marseille","lat":43.27564,"lon":5.38434,"is_reserved":false,"is_disabled":false,"rental_uris":{"android":"levelo://app?vid=c5cd9c83-3896-40c8-9aaf-76b4d86b42be","ios":"levelo://app?vid=c5cd9c83-3896-40c8-9aaf-76b4d86b42be"},"vehicle_type_id":"4","last_reported":1732349447,"current_range_meters":4800,"station_id":"ce4bhh92rcd13ifvqfi0","pricing_plan_id":"cebpf4jnsgd1na2vs0mg"},{"bike_id":"8f965d98-ed0b-4d4e-889d-7e115e8d38c5","system_id":"levelo_inurba_marseille","lat":43.31719,"lon":5.424,"is_reserved":false,"is_disabled":false,"rental_uris":{"android":"levelo://app?vid=8f965d98-ed0b-4d4e-889d-7e115e8d38c5","ios":"levelo://app?vid=8f965d98-ed0b-4d4e-889d-7e115e8d38c5"},"vehicle_type_id":"4","last_reported":1732349447,"current_range_meters":9200,"station_id":"ce4bhp92rcd13ifvqhbg","pricing_plan_id":"cebpf4jnsgd1na2vs0mg"},{"bike_id":"1752c724-2da7-45b5-8b48-74d9be0dc05d","system_id":"levelo_inurba_marseille","lat":43.27992,"lon":5.40015,"is_reserved":false,"is_disabled":true,"rental_uris":{"android":"levelo://app?vid=1752c724-2da7-45b5-8b48-74d9be0dc05d","ios":"levelo://app?vid=1752c724-2da7-45b5-8b48-74d9be0dc05d"},"vehicle_type_id":"4","last_reported":1732349447,"current_range_meters":0,"station_id":"ce4bho92rcd13ifvqh4g","pricing_plan_id":"cebpf4jnsgd1na2vs0mg"},{"bike_id":"41d5293c-d310-475c-8514-ad6ad524ece8","system_id":"levelo_inurba_marseille","lat":43.29527,"lon":5.37492,"is_reserved":false,"is_disabled":true,"rental_uris":{"android":"levelo://app?vid=41d5293c-d310-475c-8514-ad6ad524ece8","ios":"levelo://app?vid=41d5293c-d310-475c-8514-ad6ad524ece8"},"vehicle_type_id":"4","last_reported":1732349447,"current_range_meters":36400,"station_id":"ce4bgkp2rcd13ifvqbmg","pricing_plan_id":"cebpf4jnsgd1na2vs0mg"},{"bike_id":"4ee741c5-10d7-46d5-a283-14ca2d2b79e7","system_id":"levelo_inurba_marseille","lat":43.30211,"lon":5.39472,"is_reserved":false,"is_disabled":false,"rental_uris":{"android":"levelo://app?vid=4ee741c5-10d7-46d5-a283-14ca2d2b79e7","ios":"levelo://app?vid=4ee741c5-10d7-46d5-a283-14ca2d2b79e7"},"vehicle_type_id":"4","last_reported":1732349447,"current_range_meters":16800,"station_id":"ce4bh0p2rcd13ifvqd70","pricing_plan_id":"cebpf4jnsgd1na2vs0mg"},{"bike_id":"f099390a-c100-4560-9274-ff7be92824ac","system_id":"levelo_inurba_marseille","lat":43.30295,"lon":5.37691,"is_reserved":false,"is_disabled":false,"rental_uris":{"android":"levelo://app?vid=f099390a-c100-4560-9274-ff7be92824ac","ios":"levelo://app?vid=f099390a-c100-4560-9274-ff7be92824ac"},"vehicle_type_id":"4","last_reported":1732349447,"current_range_meters":34000,"station_id":"ce4bguh2rcd13ifvqcj0","pricing_plan_id":"cebpf4jnsgd1na2vs0mg"},{"bike_id":"dd4544df-eb9d-4c40-8b48-01c6ba03ca19","system_id":"levelo_inurba_marseille","lat":43.32003,"lon":5.38166,"is_reserved":false,"is_disabled":false,"rental_uris":{"android":"levelo://app?vid=dd4544df-eb9d-4c40-8b48-01c6ba03ca19","ios":"levelo://app?vid=dd4544df-eb9d-4c40-8b48-01c6ba03ca19"},"vehicle_type_id":"4","last_reported":1732349447,"current_range_meters":38800,"station_id":"ce4bhr12rcd13ifvqhpg","pricing_plan_id":"cebpf4jnsgd1na2vs0mg"},{"bike_id":"3128828f-d8b9-488d-99b5-908feaf8d4e0","system_id":"levelo_inurba_marseille","lat":43.30649,"lon":5.40078,"is_reserved":false,"is_disabled":false,"rental_uris":{"android":"levelo://app?vid=3128828f-d8b9-488d-99b5-908feaf8d4e0","ios":"levelo://app?vid=3128828f-d8b9-488d-99b5-908feaf8d4e0"},"vehicle_type_id":"4","last_reported":1732349447,"current_range_meters":38800,"station_id":"ce4bh112rcd13ifvqda0","pricing_plan_id":"cebpf4jnsgd1na2vs0mg"},{"bike_id":"7a00ba27-4c7c-429f-8f08-1db185c9d27a","system_id":"levelo_inurba_marseille","lat":43.28859,"lon":5.39309,"is_reserved":false,"is_disabled":false,"rental_uris":{"android":"levelo://app?vid=7a00ba27-4c7c-429f-8f08-1db185c9d27a","ios":"levelo://app?vid=7a00ba27-4c7c-429f-8f08-1db185c9d27a"},"vehicle_type_id":"4","last_reported":1732349447,"current_range_meters":34800,"station_id":"ce4bh2p2rcd13ifvqdi0","pricing_plan_id":"cebpf4jnsgd1na2vs0mg"},{"bike_id":"dffeccd3-600e-418b-9fc1-99c6dfe6c759","system_id":"levelo_inurba_marseille","lat":43.30135,"lon":5.37418,"is_reserved":false,"is_disabled":false,"rental_uris":{"android":"levelo://app?vid=dffeccd3-600e-418b-9fc1-99c6dfe6c759","ios":"levelo://app?vid=dffeccd3-600e-418b-9fc1-99c6dfe6c759"},"vehicle_type_id":"4","last_reported":1732349447,"current_range_meters":22800,"station_id":"ce4bgs92rcd13ifvqcc0","pricing_plan_id":"cebpf4jnsgd1na2vs0mg"},{"bike_id":"d99d745a-edcb-4d3d-bf9d-7fa79bc2aaf5","system_id":"levelo_inurba_marseille","lat":43.31996,"lon":5.38147,"is_reserved":false,"is_disabled":false,"rental_uris":{"android":"levelo://app?vid=d99d745a-edcb-4d3d-bf9d-7fa79bc2aaf5","ios":"levelo://app?vid=d99d745a-edcb-4d3d-bf9d-7fa79bc2aaf5"},"vehicle_type_id":"4","last_reported":1732349447,"current_range_meters":12400,"station_id":"ce4bhr12rcd13ifvqhpg","pricing_plan_id":"cebpf4jnsgd1na2vs0mg"},{"bike_id":"6aed56fc-5aa2-4558-91f1-bd09584fd4b4","system_id":"levelo_inurba_marseille","lat":43.29425,"lon":5.39742,"is_reserved":false,"is_disabled":false,"rental_uris":{"android":"levelo://app?vid=6aed56fc-5aa2-4558-91f1-bd09584fd4b4","ios":"levelo://app?vid=6aed56fc-5aa2-4558-91f1-bd09584fd4b4"},"vehicle_type_id":"4","last_reported":1732349447,"current_range_meters":38000,"station_id":"ce4bh3h2rcd13ifvqdo0","pricing_plan_id":"cebpf4jnsgd1na2vs0mg"},{"bike_id":"ad6e6b29-7df9-499b-bd36-89daa71fbff2","system_id":"levelo_inurba_marseille","lat":43.29272,"lon":5.40117,"is_reserved":false,"is_disabled":false,"rental_uris":{"android":"levelo://app?vid=ad6e6b29-7df9-499b-bd36-89daa71fbff2","ios":"levelo://app?vid=ad6e6b29-7df9-499b-bd36-89daa71fbff2"},"vehicle_type_id":"4","last_reported":1732349447,"current_range_meters":35600,"station_id":"ce4bh312rcd13ifvqdk0","pricing_plan_id":"cebpf4jnsgd1na2vs0mg"},{"bike_id":"8db640b0-0205-49aa-a1c2-12e4b645a9fb","system_id":"levelo_inurba_marseille","lat":43.25088,"lon":5.39511,"is_reserved":false,"is_disabled":false,"rental_uris":{"android":"levelo://app?vid=8db640b0-0205-49aa-a1c2-12e4b645a9fb","ios":"levelo://app?vid=8db640b0-0205-49aa-a1c2-12e4b645a9fb"},"vehicle_type_id":"4","last_reported":1732349447,"current_range_meters":36800,"station_id":"ce4bhm12rcd13ifvqgkg","pricing_plan_id":"cebpf4jnsgd1na2vs0mg"},{"bike_id":"9236cd70-ab5c-43dc-9582-52d3299ba6bd","system_id":"levelo_inurba_marseille","lat":43.29369,"lon":5.37826,"is_reserved":false,"is_disabled":false,"rental_uris":{"android":"levelo://app?vid=9236cd70-ab5c-43dc-9582-52d3299ba6bd","ios":"levelo://app?vid=9236cd70-ab5c-43dc-9582-52d3299ba6bd"},"vehicle_type_id":"4","last_reported":1732349447,"current_range_meters":24800,"station_id":"ce4bgjh2rcd13ifvqbf0","pricing_plan_id":"cebpf4jnsgd1na2vs0mg"},{"bike_id":"552ae1f9-34eb-4d70-a19b-3616d3661778","system_id":"levelo_inurba_marseille","lat":43.33719,"lon":5.3918,"is_reserved":false,"is_disabled":false,"rental_uris":{"android":"levelo://app?vid=552ae1f9-34eb-4d70-a19b-3616d3661778","ios":"levelo://app?vid=552ae1f9-34eb-4d70-a19b-3616d3661778"},"vehicle_type_id":"4","last_reported":1732349447,"current_range_meters":22000,"station_id":"ce4bhr92rcd13ifvqhsg","pricing_plan_id":"cebpf4jnsgd1na2vs0mg"},{"bike_id":"fed0e774-21f9-4eb7-8495-0f2046103edd","system_id":"levelo_inurba_marseille","lat":43.26167,"lon":5.40504,"is_reserved":false,"is_disabled":false,"rental_uris":{"android":"levelo://app?vid=fed0e774-21f9-4eb7-8495-0f2046103edd","ios":"levelo://app?vid=fed0e774-21f9-4eb7-8495-0f2046103edd"},"vehicle_type_id":"4","last_reported":1732349447,"current_range_meters":24400,"station_id":"","pricing_plan_id":"cebpf4jnsgd1na2vs0mg"},{"bike_id":"f7f3756c-1ec7-4782-9c87-6273f87b6774","system_id":"levelo_inurba_marseille","lat":43.337444,"lon":5.374475,"is_reserved":false,"is_disabled":false,"rental_uris":{"android":"levelo://app?vid=f7f3756c-1ec7-4782-9c87-6273f87b6774","ios":"levelo://app?vid=f7f3756c-1ec7-4782-9c87-6273f87b6774"},"vehicle_type_id":"4","last_reported":1732349447,"current_range_meters":33600,"station_id":"","pricing_plan_id":"cebpf4jnsgd1na2vs0mg"},{"bike_id":"bdca9a5b-dace-4172-b957-73aa4aa4eeb4","system_id":"levelo_inurba_marseille","lat":43.26565,"lon":5.39002,"is_reserved":false,"is_disabled":true,"rental_uris":{"android":"levelo://app?vid=bdca9a5b-dace-4172-b957-73aa4aa4eeb4","ios":"levelo://app?vid=bdca9a5b-dace-4172-b957-73aa4aa4eeb4"},"vehicle_type_id":"4","last_reported":1732349447,"current_range_meters":37600,"station_id":"ce4bhe12rcd13ifvqf30","pricing_plan_id":"cebpf4jnsgd1na2vs0mg"},{"bike_id":"9b282b50-9a43-45b7-aca2-3e9b82ac4210","system_id":"levelo_inurba_marseille","lat":43.302453,"lon":5.400616,"is_reserved":false,"is_disabled":false,"rental_uris":{"android":"levelo://app?vid=9b282b50-9a43-45b7-aca2-3e9b82ac4210","ios":"levelo://app?vid=9b282b50-9a43-45b7-aca2-3e9b82ac4210"},"vehicle_type_id":"4","last_reported":1732349447,"current_range_meters":25200,"station_id":"ce4bh392rcd13ifvqdm0","pricing_plan_id":"cebpf4jnsgd1na2vs0mg"},{"bike_id":"e8f826ec-cf1d-427e-a65b-cf83f280be00","system_id":"levelo_inurba_marseille","lat":43.27062,"lon":5.4026,"is_reserved":false,"is_disabled":false,"rental_uris":{"android":"levelo://app?vid=e8f826ec-cf1d-427e-a65b-cf83f280be00","ios":"levelo://app?vid=e8f826ec-cf1d-427e-a65b-cf83f280be00"},"vehicle_type_id":"4","last_reported":1732349447,"current_range_meters":4000,"station_id":"ce4bhk92rcd13ifvqgc0","pricing_plan_id":"cebpf4jnsgd1na2vs0mg"},{"bike_id":"99280cf8-c049-4d28-b9ac-acaa05e32f0f","system_id":"levelo_inurba_marseille","lat":43.29556,"lon":5.42291,"is_reserved":false,"is_disabled":false,"rental_uris":{"android":"levelo://app?vid=99280cf8-c049-4d28-b9ac-acaa05e32f0f","ios":"levelo://app?vid=99280cf8-c049-4d28-b9ac-acaa05e32f0f"},"vehicle_type_id":"4","last_reported":1732349447,"current_range_meters":38400,"station_id":"ce4bhph2rcd13ifvqhdg","pricing_plan_id":"cebpf4jnsgd1na2vs0mg"},{"bike_id":"7321aabf-b088-45e0-9d91-8e497e6d692a","system_id":"levelo_inurba_marseille","lat":43.31755,"lon":5.39019,"is_reserved":false,"is_disabled":false,"rental_uris":{"android":"levelo://app?vid=7321aabf-b088-45e0-9d91-8e497e6d692a","ios":"levelo://app?vid=7321aabf-b088-45e0-9d91-8e497e6d692a"},"vehicle_type_id":"4","last_reported":1732349447,"current_range_meters":27200,"station_id":"ce4bhqp2rcd13ifvqhng","pricing_plan_id":"cebpf4jnsgd1na2vs0mg"},{"bike_id":"0eb61bb6-3d03-4d33-be57-99d7b15d85b5","system_id":"levelo_inurba_marseille","lat":43.22932,"lon":5.35381,"is_reserved":false,"is_disabled":false,"rental_uris":{"android":"levelo://app?vid=0eb61bb6-3d03-4d33-be57-99d7b15d85b5","ios":"levelo://app?vid=0eb61bb6-3d03-4d33-be57-99d7b15d85b5"},"vehicle_type_id":"4","last_reported":1732349447,"current_range_meters":23200,"station_id":"cpo3532slgdg3j2ikp40","pricing_plan_id":"cebpf4jnsgd1na2vs0mg"},{"bike_id":"823ca48e-34f1-449c-a5da-5afdd1a0b554","system_id":"levelo_inurba_marseille","lat":43.32372,"lon":5.38876,"is_reserved":false,"is_disabled":false,"rental_uris":{"android":"levelo://app?vid=823ca48e-34f1-449c-a5da-5afdd1a0b554","ios":"levelo://app?vid=823ca48e-34f1-449c-a5da-5afdd1a0b554"},"vehicle_type_id":"4","last_reported":1732349447,"current_range_meters":29600,"station_id":"ce4bhq92rcd13ifvqhjg","pricing_plan_id":"cebpf4jnsgd1na2vs0mg"},{"bike_id":"e74125a9-74c4-4830-af92-47ce6562e6bd","system_id":"levelo_inurba_marseille","lat":43.24655,"lon":5.38904,"is_reserved":false,"is_disabled":false,"rental_uris":{"android":"levelo://app?vid=e74125a9-74c4-4830-af92-47ce6562e6bd","ios":"levelo://app?vid=e74125a9-74c4-4830-af92-47ce6562e6bd"},"vehicle_type_id":"4","last_reported":1732349447,"current_range_meters":38800,"station_id":"ce4bhg12rcd13ifvqf60","pricing_plan_id":"cebpf4jnsgd1na2vs0mg"},{"bike_id":"62c1332e-4ca5-4073-84d7-54aa3380bdb5","system_id":"levelo_inurba_marseille","lat":43.23191,"lon":5.3555,"is_reserved":false,"is_disabled":false,"rental_uris":{"android":"levelo://app?vid=62c1332e-4ca5-4073-84d7-54aa3380bdb5","ios":"levelo://app?vid=62c1332e-4ca5-4073-84d7-54aa3380bdb5"},"vehicle_type_id":"4","last_reported":1732349447,"current_range_meters":30400,"station_id":"ce4bhu92rcd13ifvqi70","pricing_plan_id":"cebpf4jnsgd1na2vs0mg"},{"bike_id":"a2c58c6c-a2f6-40b4-994d-3b31e7787b44","system_id":"levelo_inurba_marseille","lat":43.28419,"lon":5.34986,"is_reserved":false,"is_disabled":false,"rental_uris":{"android":"levelo://app?vid=a2c58c6c-a2f6-40b4-994d-3b31e7787b44","ios":"levelo://app?vid=a2c58c6c-a2f6-40b4-994d-3b31e7787b44"},"vehicle_type_id":"4","last_reported":1732349447,"current_range_meters":28400,"station_id":"ce4bhbh2rcd13ifvqepg","pricing_plan_id":"cebpf4jnsgd1na2vs0mg"},{"bike_id":"c2a59ab3-d6b8-4918-82c9-bfcce921601e","system_id":"levelo_inurba_marseille","lat":43.32485,"lon":5.3657,"is_reserved":false,"is_disabled":false,"rental_uris":{"android":"levelo://app?vid=c2a59ab3-d6b8-4918-82c9-bfcce921601e","ios":"levelo://app?vid=c2a59ab3-d6b8-4918-82c9-bfcce921601e"},"vehicle_type_id":"4","last_reported":1732349447,"current_range_meters":12000,"station_id":"ce4bhs12rcd13ifvqhvg","pricing_plan_id":"cebpf4jnsgd1na2vs0mg"},{"bike_id":"58c180dc-c06a-46fe-9701-0fd5163c8626","system_id":"levelo_inurba_marseille","lat":43.29578,"lon":5.42304,"is_reserved":false,"is_disabled":false,"rental_uris":{"android":"levelo://app?vid=58c180dc-c06a-46fe-9701-0fd5163c8626","ios":"levelo://app?vid=58c180dc-c06a-46fe-9701-0fd5163c8626"},"vehicle_type_id":"4","last_reported":1732349447,"current_range_meters":37600,"station_id":"ce4bhph2rcd13ifvqhdg","pricing_plan_id":"cebpf4jnsgd1na2vs0mg"},{"bike_id":"7d2c9f35-0324-45e4-a793-48d5db5b2b97","system_id":"levelo_inurba_marseille","lat":43.29022,"lon":5.38131,"is_reserved":false,"is_disabled":true,"rental_uris":{"android":"levelo://app?vid=7d2c9f35-0324-45e4-a793-48d5db5b2b97","ios":"levelo://app?vid=7d2c9f35-0324-45e4-a793-48d5db5b2b97"},"vehicle_type_id":"4","last_reported":1732349447,"current_range_meters":25200,"station_id":"ce4bh4p2rcd13ifvqe1g","pricing_plan_id":"cebpf4jnsgd1na2vs0mg"},{"bike_id":"f3026672-ed92-494a-8a93-7952ffca6a6f","system_id":"levelo_inurba_marseille","lat":43.33752,"lon":5.3745,"is_reserved":false,"is_disabled":false,"rental_uris":{"android":"levelo://app?vid=f3026672-ed92-494a-8a93-7952ffca6a6f","ios":"levelo://app?vid=f3026672-ed92-494a-8a93-7952ffca6a6f"},"vehicle_type_id":"4","last_reported":1732349447,"current_range_meters":38800,"station_id":"","pricing_plan_id":"cebpf4jnsgd1na2vs0mg"},{"bike_id":"252c8262-fde7-42db-851f-9022b4276b02","system_id":"levelo_inurba_marseille","lat":43.26951,"lon":5.3864,"is_reserved":false,"is_disabled":false,"rental_uris":{"android":"levelo://app?vid=252c8262-fde7-42db-851f-9022b4276b02","ios":"levelo://app?vid=252c8262-fde7-42db-851f-9022b4276b02"},"vehicle_type_id":"4","last_reported":1732349447,"current_range_meters":14800,"station_id":"ce4bhh92rcd13ifvqfh0","pricing_plan_id":"cebpf4jnsgd1na2vs0mg"},{"bike_id":"b60466ef-8514-4f53-ab0a-ebf1071dc205","system_id":"levelo_inurba_marseille","lat":43.32362,"lon":5.38881,"is_reserved":false,"is_disabled":false,"rental_uris":{"android":"levelo://app?vid=b60466ef-8514-4f53-ab0a-ebf1071dc205","ios":"levelo://app?vid=b60466ef-8514-4f53-ab0a-ebf1071dc205"},"vehicle_type_id":"4","last_reported":1732349447,"current_range_meters":30400,"station_id":"ce4bhqp2rcd13ifvqhog","pricing_plan_id":"cebpf4jnsgd1na2vs0mg"},{"bike_id":"04b8d8ff-e990-4846-b920-74069d8c09a4","system_id":"levelo_inurba_marseille","lat":43.30131,"lon":5.39863,"is_reserved":false,"is_disabled":false,"rental_uris":{"android":"levelo://app?vid=04b8d8ff-e990-4846-b920-74069d8c09a4","ios":"levelo://app?vid=04b8d8ff-e990-4846-b920-74069d8c09a4"},"vehicle_type_id":"4","last_reported":1732349447,"current_range_meters":38400,"station_id":"ce4bh0h2rcd13ifvqd40","pricing_plan_id":"cebpf4jnsgd1na2vs0mg"},{"bike_id":"20db0e6b-7fc1-4f13-aeb2-811ab390dd13","system_id":"levelo_inurba_marseille","lat":43.32488,"lon":5.36571,"is_reserved":false,"is_disabled":false,"rental_uris":{"android":"levelo://app?vid=20db0e6b-7fc1-4f13-aeb2-811ab390dd13","ios":"levelo://app?vid=20db0e6b-7fc1-4f13-aeb2-811ab390dd13"},"vehicle_type_id":"4","last_reported":1732349447,"current_range_meters":36800,"station_id":"ce4bhs12rcd13ifvqhvg","pricing_plan_id":"cebpf4jnsgd1na2vs0mg"},{"bike_id":"0b0796e8-4aa1-47ec-bf36-a7060666faa4","system_id":"levelo_inurba_marseille","lat":43.29224,"lon":5.36066,"is_reserved":false,"is_disabled":false,"rental_uris":{"android":"levelo://app?vid=0b0796e8-4aa1-47ec-bf36-a7060666faa4","ios":"levelo://app?vid=0b0796e8-4aa1-47ec-bf36-a7060666faa4"},"vehicle_type_id":"4","last_reported":1732349447,"current_range_meters":36400,"station_id":"ce4bhbh2rcd13ifvqeqg","pricing_plan_id":"cebpf4jnsgd1na2vs0mg"},{"bike_id":"13b751d7-077d-4f29-8350-fc32ddaecb6a","system_id":"levelo_inurba_marseille","lat":43.26557,"lon":5.37281,"is_reserved":false,"is_disabled":false,"rental_uris":{"android":"levelo://app?vid=13b751d7-077d-4f29-8350-fc32ddaecb6a","ios":"levelo://app?vid=13b751d7-077d-4f29-8350-fc32ddaecb6a"},"vehicle_type_id":"4","last_reported":1732349447,"current_range_meters":36000,"station_id":"ce4bhg12rcd13ifvqf70","pricing_plan_id":"cebpf4jnsgd1na2vs0mg"},{"bike_id":"e5951ee3-4a5a-4ebb-b469-096c5188dfa3","system_id":"levelo_inurba_marseille","lat":43.23187,"lon":5.35551,"is_reserved":false,"is_disabled":false,"rental_uris":{"android":"levelo://app?vid=e5951ee3-4a5a-4ebb-b469-096c5188dfa3","ios":"levelo://app?vid=e5951ee3-4a5a-4ebb-b469-096c5188dfa3"},"vehicle_type_id":"4","last_reported":1732349447,"current_range_meters":24800,"station_id":"ce4bhu92rcd13ifvqi70","pricing_plan_id":"cebpf4jnsgd1na2vs0mg"},{"bike_id":"31753f3e-d401-4c50-b90a-b53a739d594a","system_id":"levelo_inurba_marseille","lat":43.28301,"lon":5.43214,"is_reserved":false,"is_disabled":false,"rental_uris":{"android":"levelo://app?vid=31753f3e-d401-4c50-b90a-b53a739d594a","ios":"levelo://app?vid=31753f3e-d401-4c50-b90a-b53a739d594a"},"vehicle_type_id":"4","last_reported":1732349447,"current_range_meters":25200,"station_id":"","pricing_plan_id":"cebpf4jnsgd1na2vs0mg"},{"bike_id":"bf9491c2-211c-40b6-a87f-b167fabb26bf","system_id":"levelo_inurba_marseille","lat":43.268088,"lon":5.402553,"is_reserved":false,"is_disabled":false,"rental_uris":{"android":"levelo://app?vid=bf9491c2-211c-40b6-a87f-b167fabb26bf","ios":"levelo://app?vid=bf9491c2-211c-40b6-a87f-b167fabb26bf"},"vehicle_type_id":"4","last_reported":1732349447,"current_range_meters":26800,"station_id":"ce501612rcd8frsf0b60","pricing_plan_id":"cebpf4jnsgd1na2vs0mg"},{"bike_id":"62a03bda-a202-40e6-8e85-4ee6a9251c26","system_id":"levelo_inurba_marseille","lat":43.28612,"lon":5.35099,"is_reserved":false,"is_disabled":false,"rental_uris":{"android":"levelo://app?vid=62a03bda-a202-40e6-8e85-4ee6a9251c26","ios":"levelo://app?vid=62a03bda-a202-40e6-8e85-4ee6a9251c26"},"vehicle_type_id":"4","last_reported":1732349447,"current_range_meters":11600,"station_id":"ce4bhch2rcd13ifvqeug","pricing_plan_id":"cebpf4jnsgd1na2vs0mg"},{"bike_id":"598543c3-4504-4ea3-976e-b45e767de5ed","system_id":"levelo_inurba_marseille","lat":43.32362,"lon":5.38885,"is_reserved":false,"is_disabled":false,"rental_uris":{"android":"levelo://app?vid=598543c3-4504-4ea3-976e-b45e767de5ed","ios":"levelo://app?vid=598543c3-4504-4ea3-976e-b45e767de5ed"},"vehicle_type_id":"4","last_reported":1732349447,"current_range_meters":32000,"station_id":"ce4bhqp2rcd13ifvqhog","pricing_plan_id":"cebpf4jnsgd1na2vs0mg"},{"bike_id":"a9748626-bc71-417f-b5da-457016318390","system_id":"levelo_inurba_marseille","lat":43.24177,"lon":5.39737,"is_reserved":false,"is_disabled":false,"rental_uris":{"android":"levelo://app?vid=a9748626-bc71-417f-b5da-457016318390","ios":"levelo://app?vid=a9748626-bc71-417f-b5da-457016318390"},"vehicle_type_id":"4","last_reported":1732349447,"current_range_meters":36800,"station_id":"ce4bhn12rcd13ifvqgpg","pricing_plan_id":"cebpf4jnsgd1na2vs0mg"},{"bike_id":"44abef4f-7bb3-417f-9f17-632a234b6e5d","system_id":"levelo_inurba_marseille","lat":43.32107,"lon":5.36773,"is_reserved":false,"is_disabled":false,"rental_uris":{"android":"levelo://app?vid=44abef4f-7bb3-417f-9f17-632a234b6e5d","ios":"levelo://app?vid=44abef4f-7bb3-417f-9f17-632a234b6e5d"},"vehicle_type_id":"4","last_reported":1732349447,"current_range_meters":17600,"station_id":"ce4bhrh2rcd13ifvqhug","pricing_plan_id":"cebpf4jnsgd1na2vs0mg"},{"bike_id":"830ab6f1-9f97-4b81-a374-96032fba99d2","system_id":"levelo_inurba_marseille","lat":43.24469,"lon":5.36926,"is_reserved":false,"is_disabled":true,"rental_uris":{"android":"levelo://app?vid=830ab6f1-9f97-4b81-a374-96032fba99d2","ios":"levelo://app?vid=830ab6f1-9f97-4b81-a374-96032fba99d2"},"vehicle_type_id":"4","last_reported":1732349447,"current_range_meters":23200,"station_id":"","pricing_plan_id":"cebpf4jnsgd1na2vs0mg"},{"bike_id":"6c948e9c-d5b3-4fe5-a918-1bd2f7c83b02","system_id":"levelo_inurba_marseille","lat":43.321095,"lon":5.367702,"is_reserved":false,"is_disabled":false,"rental_uris":{"android":"levelo://app?vid=6c948e9c-d5b3-4fe5-a918-1bd2f7c83b02","ios":"levelo://app?vid=6c948e9c-d5b3-4fe5-a918-1bd2f7c83b02"},"vehicle_type_id":"4","last_reported":1732349447,"current_range_meters":34000,"station_id":"ce4bhrh2rcd13ifvqhug","pricing_plan_id":"cebpf4jnsgd1na2vs0mg"},{"bike_id":"9e620abf-d324-4f99-84fc-d67e71109f2a","system_id":"levelo_inurba_marseille","lat":43.31079,"lon":5.42425,"is_reserved":false,"is_disabled":true,"rental_uris":{"android":"levelo://app?vid=9e620abf-d324-4f99-84fc-d67e71109f2a","ios":"levelo://app?vid=9e620abf-d324-4f99-84fc-d67e71109f2a"},"vehicle_type_id":"4","last_reported":1732349447,"current_range_meters":0,"station_id":"ce4bhp92rcd13ifvqhag","pricing_plan_id":"cebpf4jnsgd1na2vs0mg"},{"bike_id":"9388a7ff-9c5c-4c26-9899-39b2408cf7e3","system_id":"levelo_inurba_marseille","lat":43.31025,"lon":5.38342,"is_reserved":false,"is_disabled":true,"rental_uris":{"android":"levelo://app?vid=9388a7ff-9c5c-4c26-9899-39b2408cf7e3","ios":"levelo://app?vid=9388a7ff-9c5c-4c26-9899-39b2408cf7e3"},"vehicle_type_id":"4","last_reported":1732349447,"current_range_meters":0,"station_id":"","pricing_plan_id":"cebpf4jnsgd1na2vs0mg"},{"bike_id":"510e9f28-21eb-4f2f-8550-9e4424ec416c","system_id":"levelo_inurba_marseille","lat":43.23961,"lon":5.36634,"is_reserved":false,"is_disabled":false,"rental_uris":{"android":"levelo://app?vid=510e9f28-21eb-4f2f-8550-9e4424ec416c","ios":"levelo://app?vid=510e9f28-21eb-4f2f-8550-9e4424ec416c"},"vehicle_type_id":"4","last_reported":1732349447,"current_range_meters":39200,"station_id":"ce4bhi12rcd13ifvqfp0","pricing_plan_id":"cebpf4jnsgd1na2vs0mg"},{"bike_id":"5107f061-ec16-425c-94c0-96240520b5b6","system_id":"levelo_inurba_marseille","lat":43.2467,"lon":5.38155,"is_reserved":false,"is_disabled":false,"rental_uris":{"android":"levelo://app?vid=5107f061-ec16-425c-94c0-96240520b5b6","ios":"levelo://app?vid=5107f061-ec16-425c-94c0-96240520b5b6"},"vehicle_type_id":"4","last_reported":1732349447,"current_range_meters":20400,"station_id":"ce4bhih2rcd13ifvqfr0","pricing_plan_id":"cebpf4jnsgd1na2vs0mg"},{"bike_id":"b655e67f-3daa-4d19-94e5-9c754246564d","system_id":"levelo_inurba_marseille","lat":43.32366,"lon":5.38891,"is_reserved":false,"is_disabled":false,"rental_uris":{"android":"levelo://app?vid=b655e67f-3daa-4d19-94e5-9c754246564d","ios":"levelo://app?vid=b655e67f-3daa-4d19-94e5-9c754246564d"},"vehicle_type_id":"4","last_reported":1732349447,"current_range_meters":15200,"station_id":"ce4bhqp2rcd13ifvqhog","pricing_plan_id":"cebpf4jnsgd1na2vs0mg"},{"bike_id":"9a7b1cc4-a42f-439c-b87f-f6f03dc77f15","system_id":"levelo_inurba_marseille","lat":43.2827,"lon":5.35058,"is_reserved":false,"is_disabled":false,"rental_uris":{"android":"levelo://app?vid=9a7b1cc4-a42f-439c-b87f-f6f03dc77f15","ios":"levelo://app?vid=9a7b1cc4-a42f-439c-b87f-f6f03dc77f15"},"vehicle_type_id":"4","last_reported":1732349447,"current_range_meters":36400,"station_id":"ce4bhbp2rcd13ifvqerg","pricing_plan_id":"cebpf4jnsgd1na2vs0mg"},{"bike_id":"d7741e62-27c5-44e6-b344-0df08ce2f28d","system_id":"levelo_inurba_marseille","lat":43.29594,"lon":5.38102,"is_reserved":false,"is_disabled":false,"rental_uris":{"android":"levelo://app?vid=d7741e62-27c5-44e6-b344-0df08ce2f28d","ios":"levelo://app?vid=d7741e62-27c5-44e6-b344-0df08ce2f28d"},"vehicle_type_id":"4","last_reported":1732349447,"current_range_meters":20800,"station_id":"ce4bgl12rcd13ifvqbo0","pricing_plan_id":"cebpf4jnsgd1na2vs0mg"},{"bike_id":"5c53cfbd-2547-413a-b79a-f8cc3b1ca992","system_id":"levelo_inurba_marseille","lat":43.321129,"lon":5.367699,"is_reserved":false,"is_disabled":false,"rental_uris":{"android":"levelo://app?vid=5c53cfbd-2547-413a-b79a-f8cc3b1ca992","ios":"levelo://app?vid=5c53cfbd-2547-413a-b79a-f8cc3b1ca992"},"vehicle_type_id":"4","last_reported":1732349447,"current_range_meters":10800,"station_id":"ce4bhrh2rcd13ifvqhug","pricing_plan_id":"cebpf4jnsgd1na2vs0mg"},{"bike_id":"e0b9eeec-d583-4d8c-8128-8821fd6a95c8","system_id":"levelo_inurba_marseille","lat":43.30878,"lon":5.39641,"is_reserved":false,"is_disabled":false,"rental_uris":{"android":"levelo://app?vid=e0b9eeec-d583-4d8c-8128-8821fd6a95c8","ios":"levelo://app?vid=e0b9eeec-d583-4d8c-8128-8821fd6a95c8"},"vehicle_type_id":"4","last_reported":1732349447,"current_range_meters":36000,"station_id":"ce4bh012rcd13ifvqcv0","pricing_plan_id":"cebpf4jnsgd1na2vs0mg"},{"bike_id":"61a35f1c-54d8-4a01-80b9-5352ba3741f9","system_id":"levelo_inurba_marseille","lat":43.311671,"lon":5.38722,"is_reserved":false,"is_disabled":false,"rental_uris":{"android":"levelo://app?vid=61a35f1c-54d8-4a01-80b9-5352ba3741f9","ios":"levelo://app?vid=61a35f1c-54d8-4a01-80b9-5352ba3741f9"},"vehicle_type_id":"4","last_reported":1732349447,"current_range_meters":26800,"station_id":"ce4bgv12rcd13ifvqcp0","pricing_plan_id":"cebpf4jnsgd1na2vs0mg"},{"bike_id":"85c01c0b-dd5c-4809-bf61-68287b12d903","system_id":"levelo_inurba_marseille","lat":43.32367,"lon":5.38885,"is_reserved":false,"is_disabled":false,"rental_uris":{"android":"levelo://app?vid=85c01c0b-dd5c-4809-bf61-68287b12d903","ios":"levelo://app?vid=85c01c0b-dd5c-4809-bf61-68287b12d903"},"vehicle_type_id":"4","last_reported":1732349447,"current_range_meters":32000,"station_id":"ce4bhqp2rcd13ifvqhog","pricing_plan_id":"cebpf4jnsgd1na2vs0mg"},{"bike_id":"a15108ae-54d2-4b2f-970a-15e75a3b6fcf","system_id":"levelo_inurba_marseille","lat":43.29652,"lon":5.37548,"is_reserved":false,"is_disabled":false,"rental_uris":{"android":"levelo://app?vid=a15108ae-54d2-4b2f-970a-15e75a3b6fcf","ios":"levelo://app?vid=a15108ae-54d2-4b2f-970a-15e75a3b6fcf"},"vehicle_type_id":"4","last_reported":1732349447,"current_range_meters":17200,"station_id":"ce4bgh92rcd13ifvqb50","pricing_plan_id":"cebpf4jnsgd1na2vs0mg"},{"bike_id":"7d22169d-907d-479c-8664-ebd6dadb86ca","system_id":"levelo_inurba_marseille","lat":43.24387,"lon":5.37051,"is_reserved":false,"is_disabled":false,"rental_uris":{"android":"levelo://app?vid=7d22169d-907d-479c-8664-ebd6dadb86ca","ios":"levelo://app?vid=7d22169d-907d-479c-8664-ebd6dadb86ca"},"vehicle_type_id":"4","last_reported":1732349447,"current_range_meters":27200,"station_id":"ce4bhhh2rcd13ifvqfk0","pricing_plan_id":"cebpf4jnsgd1na2vs0mg"},{"bike_id":"1da22032-27e7-48f9-b965-f42f92d4fc92","system_id":"levelo_inurba_marseille","lat":43.28931,"lon":5.36634,"is_reserved":false,"is_disabled":false,"rental_uris":{"android":"levelo://app?vid=1da22032-27e7-48f9-b965-f42f92d4fc92","ios":"levelo://app?vid=1da22032-27e7-48f9-b965-f42f92d4fc92"},"vehicle_type_id":"4","last_reported":1732349447,"current_range_meters":38800,"station_id":"ce4bhap2rcd13ifvqek0","pricing_plan_id":"cebpf4jnsgd1na2vs0mg"},{"bike_id":"62100017-c228-4778-8fb1-55628752a109","system_id":"levelo_inurba_marseille","lat":43.29592,"lon":5.38108,"is_reserved":false,"is_disabled":false,"rental_uris":{"android":"levelo://app?vid=62100017-c228-4778-8fb1-55628752a109","ios":"levelo://app?vid=62100017-c228-4778-8fb1-55628752a109"},"vehicle_type_id":"4","last_reported":1732349447,"current_range_meters":37600,"station_id":"ce4bgl12rcd13ifvqbo0","pricing_plan_id":"cebpf4jnsgd1na2vs0mg"},{"bike_id":"8b913213-c82c-4e11-967e-7d3c72942d7d","system_id":"levelo_inurba_marseille","lat":43.27988,"lon":5.40011,"is_reserved":false,"is_disabled":true,"rental_uris":{"android":"levelo://app?vid=8b913213-c82c-4e11-967e-7d3c72942d7d","ios":"levelo://app?vid=8b913213-c82c-4e11-967e-7d3c72942d7d"},"vehicle_type_id":"4","last_reported":1732349447,"current_range_meters":30800,"station_id":"ce4bho92rcd13ifvqh4g","pricing_plan_id":"cebpf4jnsgd1na2vs0mg"},{"bike_id":"9efab7bb-b9af-4dfb-bd79-748c30966d28","system_id":"levelo_inurba_marseille","lat":43.31762,"lon":5.3901,"is_reserved":false,"is_disabled":false,"rental_uris":{"android":"levelo://app?vid=9efab7bb-b9af-4dfb-bd79-748c30966d28","ios":"levelo://app?vid=9efab7bb-b9af-4dfb-bd79-748c30966d28"},"vehicle_type_id":"4","last_reported":1732349447,"current_range_meters":38000,"station_id":"ce4bhqp2rcd13ifvqhng","pricing_plan_id":"cebpf4jnsgd1na2vs0mg"},{"bike_id":"b04a5d23-69db-43c4-a00d-54d48d348f24","system_id":"levelo_inurba_marseille","lat":43.29371,"lon":5.37841,"is_reserved":false,"is_disabled":false,"rental_uris":{"android":"levelo://app?vid=b04a5d23-69db-43c4-a00d-54d48d348f24","ios":"levelo://app?vid=b04a5d23-69db-43c4-a00d-54d48d348f24"},"vehicle_type_id":"4","last_reported":1732349447,"current_range_meters":20400,"station_id":"ce4bgjh2rcd13ifvqbf0","pricing_plan_id":"cebpf4jnsgd1na2vs0mg"},{"bike_id":"e20e6c63-fcf1-4384-a7f2-e0329692513c","system_id":"levelo_inurba_marseille","lat":43.24807,"lon":5.37453,"is_reserved":false,"is_disabled":false,"rental_uris":{"android":"levelo://app?vid=e20e6c63-fcf1-4384-a7f2-e0329692513c","ios":"levelo://app?vid=e20e6c63-fcf1-4384-a7f2-e0329692513c"},"vehicle_type_id":"4","last_reported":1732349447,"current_range_meters":30400,"station_id":"ce4bhgh2rcd13ifvqfb0","pricing_plan_id":"cebpf4jnsgd1na2vs0mg"},{"bike_id":"83337326-f5c3-42c2-859d-557e46247110","system_id":"levelo_inurba_marseille","lat":43.323675,"lon":5.388854,"is_reserved":false,"is_disabled":false,"rental_uris":{"android":"levelo://app?vid=83337326-f5c3-42c2-859d-557e46247110","ios":"levelo://app?vid=83337326-f5c3-42c2-859d-557e46247110"},