{"last_updated":1713031669,"ttl":30,"version":"2.2","data":{"bikes":[{"bike_id":"d7dac225-5d68-4298-aaa0-4611d2ba8ed7","system_id":"levelo_inurba_marseille","lat":43.313391,"lon":5.36706,"is_reserved":false,"is_disabled":false,"rental_uris":{"android":"levelo://app?vid=d7dac225-5d68-4298-aaa0-4611d2ba8ed7","ios":"levelo://app?vid=d7dac225-5d68-4298-aaa0-4611d2ba8ed7"},"vehicle_type_id":"4","last_reported":1713031669,"current_range_meters":800,"station_id":"ce4bgr92rcd13ifvqc6g","pricing_plan_id":"cebpf4jnsgd1na2vs0mg"},{"bike_id":"91870d20-3572-4796-bb31-0c41d5672165","system_id":"levelo_inurba_marseille","lat":43.312239,"lon":5.368562,"is_reserved":false,"is_disabled":false,"rental_uris":{"android":"levelo://app?vid=91870d20-3572-4796-bb31-0c41d5672165","ios":"levelo://app?vid=91870d20-3572-4796-bb31-0c41d5672165"},"vehicle_type_id":"4","last_reported":1713031669,"current_range_meters":0,"station_id":"ce4bgl92rcd13ifvqbq0","pricing_plan_id":"cebpf4jnsgd1na2vs0mg"},{"bike_id":"eea3f33e-a5bd-4ffe-8df0-72aeaf94747c","system_id":"levelo_inurba_marseille","lat":43.309076,"lon":5.368465,"is_reserved":false,"is_disabled":false,"rental_uris":{"android":"levelo://app?vid=eea3f33e-a5bd-4ffe-8df0-72aeaf94747c","ios":"levelo://app?vid=eea3f33e-a5bd-4ffe-8df0-72aeaf94747c"},"vehicle_type_id":"4","last_reported":1713031669,"current_range_meters":0,"station_id":"ce4bgn92rcd13ifvqbvg","pricing_plan_id":"cebpf4jnsgd1na2vs0mg"},{"bike_id":"0740062b-184b-4985-b8b0-224980da8d11","system_id":"levelo_inurba_marseille","lat":43.315,"lon":5.37312,"is_reserved":false,"is_disabled":false,"rental_uris":{"android":"levelo://app?vid=0740062b-184b-4985-b8b0-224980da8d11","ios":"levelo://app?vid=0740062b-184b-4985-b8b0-224980da8d11"},"vehicle_type_id":"4","last_reported":1713031669,"current_range_meters":0,"station_id":"ce4bgt12rcd13ifvqcd0","pricing_plan_id":"cebpf4jnsgd1na2vs0mg"},{"bike_id":"f7fd982c-dfd2-4c2e-84e3-43b287de8299","system_id":"levelo_inurba_marseille","lat":43.308908,"lon":5.371912,"is_reserved":false,"is_disabled":false,"rental_uris":{"android":"levelo://app?vid=f7fd982c-dfd2-4c2e-84e3-43b287de8299","ios":"levelo://app?vid=f7fd982c-dfd2-4c2e-84e3-43b287de8299"},"vehicle_type_id":"4","last_reported":1713031669,"current_range_meters":800,"station_id":"ce4bguh2rcd13ifvqckg","pricing_plan_id":"cebpf4jnsgd1na2vs0mg"},{"bike_id":"d55a28f8-b396-41d1-9046-26c6689cabb6","system_id":"levelo_inurba_marseille","lat":43.309034,"lon":5.371783,"is_reserved":false,"is_disabled":false,"rental_uris":{"android":"levelo://app?vid=d55a28f8-b396-41d1-9046-26c6689cabb6","ios":"levelo://app?vid=d55a28f8-b396-41d1-9046-26c6689cabb6"},"vehicle_type_id":"4","last_reported":1713031669,"current_range_meters":9600,"station_id":"ce4bguh2rcd13ifvqckg","pricing_plan_id":"cebpf4jnsgd1na2vs0mg"},{"bike_id":"aa029a95-a38b-4279-9331-f6d61b0d5e8e","system_id":"levelo_inurba_marseille","lat":43.309034,"lon":5.371783,"is_reserved":false,"is_disabled":false,"rental_uris":{"android":"levelo://app?vid=aa029a95-a38b-4279-9331-f6d61b0d5e8e","ios":"levelo://app?vid=aa029a95-a38b-4279-9331-f6d61b0d5e8e"},"vehicle_type_id":"4","last_reported":1713031669,"current_range_meters":13600,"station_id":"ce4bguh2rcd13ifvqckg","pricing_plan_id":"cebpf4jnsgd1na2vs0mg"},{"bike_id":"b7c9e31a-c14d-4b03-a9c6-48393652d7f8","system_id":"levelo_inurba_marseille","lat":43.305368,"lon":5.367343,"is_reserved":false,"is_disabled":false,"rental_uris":{"android":"levelo://app?vid=b7c9e31a-c14d-4b03-a9c6-48393652d7f8","ios":"levelo://app?vid=b7c9e31a-c14d-4b03-a9c6-48393652d7f8"},"vehicle_type_id":"4","last_reported":1713031669,"current_range_meters":15200,"station_id":"ce4bgrp2rcd13ifvqc9g","pricing_plan_id":"cebpf4jnsgd1na2vs0mg"},{"bike_id":"3db173c6-6f4c-4555-958f-a03cb2de3cf9","system_id":"levelo_inurba_marseille","lat":43.305714,"lon":5.365633,"is_reserved":false,"is_disabled":false,"rental_uris":{"android":"levelo://app?vid=3db173c6-6f4c-4555-958f-a03cb2de3cf9","ios":"levelo://app?vid=3db173c6-6f4c-4555-958f-a03cb2de3cf9"},"vehicle_type_id":"4","last_reported":1713031669,"current_range_meters":0,"station_id":"ce4bgs12rcd13ifvqcag","pricing_plan_id":"cebpf4jnsgd1na2vs0mg"},{"bike_id":"1765d094-dfb0-4912-a696-c6e36b6d5599","system_id":"levelo_inurba_marseille","lat":43.30543,"lon":5.36543,"is_reserved":false,"is_disabled":false,"rental_uris":{"android":"levelo://app?vid=1765d094-dfb0-4912-a696-c6e36b6d5599","ios":"levelo://app?vid=1765d094-dfb0-4912-a696-c6e36b6d5599"},"vehicle_type_id":"4","last_reported":1713031669,"current_range_meters":0,"station_id":"ce4bgs12rcd13ifvqcag","pricing_plan_id":"cebpf4jnsgd1na2vs0mg"},{"bike_id":"a98986b3-f1ae-4687-a3cd-5a32167f2e2f","system_id":"levelo_inurba_marseille","lat":43.305368,"lon":5.367343,"is_reserved":false,"is_disabled":false,"rental_uris":{"android":"levelo://app?vid=a98986b3-f1ae-4687-a3cd-5a32167f2e2f","ios":"levelo://app?vid=a98986b3-f1ae-4687-a3cd-5a32167f2e2f"},"vehicle_type_id":"4","last_reported":1713031669,"current_range_meters":7200,"station_id":"ce4bgrp2rcd13ifvqc9g","pricing_plan_id":"cebpf4jnsgd1na2vs0mg"},{"bike_id":"65c9d116-03bb-4feb-b152-8bf4a6d2819d","system_id":"levelo_inurba_marseille","lat":43.305706,"lon":5.365654,"is_reserved":false,"is_disabled":false,"rental_uris":{"android":"levelo://app?vid=65c9d116-03bb-4feb-b152-8bf4a6d2819d","ios":"levelo://app?vid=65c9d116-03bb-4feb-b152-8bf4a6d2819d"},"vehicle_type_id":"4","last_reported":1713031669,"current_range_meters":29600,"station_id":"ce4bgs12rcd13ifvqcag","pricing_plan_id":"cebpf4jnsgd1na2vs0mg"},{"bike_id":"96f88a21-ce86-4ddd-8686-7832a44c84cf","system_id":"levelo_inurba_marseille","lat":43.305989,"lon":5.37225,"is_reserved":false,"is_disabled":false,"rental_uris":{"android":"levelo://app?vid=96f88a21-ce86-4ddd-8686-7832a44c84cf","ios":"levelo://app?vid=96f88a21-ce86-4ddd-8686-7832a44c84cf"},"vehicle_type_id":"4","last_reported":1713031669,"current_range_meters":15200,"station_id":"ce4bgqh2rcd13ifvqc4g","pricing_plan_id":"cebpf4jnsgd1na2vs0mg"},{"bike_id":"5aa63d3e-5d9a-4b22-a44f-b9c60e31f520","system_id":"levelo_inurba_marseille","lat":43.311125,"lon":5.377624,"is_reserved":false,"is_disabled":false,"rental_uris":{"android":"levelo://app?vid=5aa63d3e-5d9a-4b22-a44f-b9c60e31f520","ios":"levelo://app?vid=5aa63d3e-5d9a-4b22-a44f-b9c60e31f520"},"vehicle_type_id":"4","last_reported":1713031669,"current_range_meters":2400,"station_id":"ce4bgt92rcd13ifvqcg0","pricing_plan_id":"cebpf4jnsgd1na2vs0mg"},{"bike_id":"c60adede-719b-4a53-b445-833abf0a8fb5","system_id":"levelo_inurba_marseille","lat":43.303046,"lon":5.368981,"is_reserved":false,"is_disabled":false,"rental_uris":{"android":"levelo://app?vid=c60adede-719b-4a53-b445-833abf0a8fb5","ios":"levelo://app?vid=c60adede-719b-4a53-b445-833abf0a8fb5"},"vehicle_type_id":"4","last_reported":1713031669,"current_range_meters":2800,"station_id":"ce4bgqh2rcd13ifvqc5g","pricing_plan_id":"cebpf4jnsgd1na2vs0mg"},{"bike_id":"c9aac6d6-0a50-4459-af89-8c9dbef05cba","system_id":"levelo_inurba_marseille","lat":43.315289,"lon":5.380349,"is_reserved":false,"is_disabled":false,"rental_uris":{"android":"levelo://app?vid=c9aac6d6-0a50-4459-af89-8c9dbef05cba","ios":"levelo://app?vid=c9aac6d6-0a50-4459-af89-8c9dbef05cba"},"vehicle_type_id":"4","last_reported":1713031669,"current_range_meters":13200,"station_id":"ce4bhsp2rcd13ifvqi50","pricing_plan_id":"cebpf4jnsgd1na2vs0mg"},{"bike_id":"c973c696-6cf3-4ef6-9922-20142626237f","system_id":"levelo_inurba_marseille","lat":43.30282,"lon":5.37259,"is_reserved":false,"is_disabled":false,"rental_uris":{"android":"levelo://app?vid=c973c696-6cf3-4ef6-9922-20142626237f","ios":"levelo://app?vid=c973c696-6cf3-4ef6-9922-20142626237f"},"vehicle_type_id":"4","last_reported":1713031669,"current_range_meters":14400,"station_id":"","pricing_plan_id":"cebpf4jnsgd1na2vs0mg"},{"bike_id":"f5a3f466-5519-44bf-977c-e286a7d55481","system_id":"levelo_inurba_marseille","lat":43.308012,"lon":5.381511,"is_reserved":false,"is_disabled":false,"rental_uris":{"android":"levelo://app?vid=f5a3f466-5519-44bf-977c-e286a7d55481","ios":"levelo://app?vid=f5a3f466-5519-44bf-977c-e286a7d55481"},"vehicle_type_id":"4","last_reported":1713031669,"current_range_meters":0,"station_id":"ce4bgt12rcd13ifvqce0","pricing_plan_id":"cebpf4jnsgd1na2vs0mg"},{"bike_id":"3d8d977e-dabf-4e0f-84b9-25af31a93565","system_id":"levelo_inurba_marseille","lat":43.30805,"lon":5.3816,"is_reserved":false,"is_disabled":false,"rental_uris":{"android":"levelo://app?vid=3d8d977e-dabf-4e0f-84b9-25af31a93565","ios":"levelo://app?vid=3d8d977e-dabf-4e0f-84b9-25af31a93565"},"vehicle_type_id":"4","last_reported":1713031669,"current_range_meters":0,"station_id":"ce4bgt12rcd13ifvqce0","pricing_plan_id":"cebpf4jnsgd1na2vs0mg"},{"bike_id":"f8a601a2-d2d2-4689-a97e-bbdbf9dfe1ad","system_id":"levelo_inurba_marseille","lat":43.324771,"lon":5.36557,"is_reserved":false,"is_disabled":false,"rental_uris":{"android":"levelo://app?vid=f8a601a2-d2d2-4689-a97e-bbdbf9dfe1ad","ios":"levelo://app?vid=f8a601a2-d2d2-4689-a97e-bbdbf9dfe1ad"},"vehicle_type_id":"4","last_reported":1713031669,"current_range_meters":3600,"station_id":"ce4bhs12rcd13ifvqhvg","pricing_plan_id":"cebpf4jnsgd1na2vs0mg"},{"bike_id":"c1a4e4fc-91e6-4d8c-b1ff-5893e3499cf7","system_id":"levelo_inurba_marseille","lat":43.324771,"lon":5.36557,"is_reserved":false,"is_disabled":false,"rental_uris":{"android":"levelo://app?vid=c1a4e4fc-91e6-4d8c-b1ff-5893e3499cf7","ios":"levelo://app?vid=c1a4e4fc-91e6-4d8c-b1ff-5893e3499cf7"},"vehicle_type_id":"4","last_reported":1713031669,"current_range_meters":5200,"station_id":"ce4bhs12rcd13ifvqhvg","pricing_plan_id":"cebpf4jnsgd1na2vs0mg"},{"bike_id":"731ac6c5-fcc0-4b86-a53e-7adc129e3fb4","system_id":"levelo_inurba_marseille","lat":43.324771,"lon":5.36557,"is_reserved":false,"is_disabled":false,"rental_uris":{"android":"levelo://app?vid=731ac6c5-fcc0-4b86-a53e-7adc129e3fb4","ios":"levelo://app?vid=731ac6c5-fcc0-4b86-a53e-7adc129e3fb4"},"vehicle_type_id":"4","last_reported":1713031669,"current_range_meters":6000,"station_id":"ce4bhs12rcd13ifvqhvg","pricing_plan_id":"cebpf4jnsgd1na2vs0mg"},{"bike_id":"8503c1b7-7952-439f-9158-38818ee794bd","system_id":"levelo_inurba_marseille","lat":43.310804,"lon":5.38359,"is_reserved":false,"is_disabled":false,"rental_uris":{"android":"levelo://app?vid=8503c1b7-7952-439f-9158-38818ee794bd","ios":"levelo://app?vid=8503c1b7-7952-439f-9158-38818ee794bd"},"vehicle_type_id":"4","last_reported":1713031669,"current_range_meters":7600,"station_id":"ce4bgv92rcd13ifvqcr0","pricing_plan_id":"cebpf4jnsgd1na2vs0mg"},{"bike_id":"f2319324-c16a-4667-a311-1e426cf73adf","system_id":"levelo_inurba_marseille","lat":43.319867,"lon":5.381048,"is_reserved":false,"is_disabled":false,"rental_uris":{"android":"levelo://app?vid=f2319324-c16a-4667-a311-1e426cf73adf","ios":"levelo://app?vid=f2319324-c16a-4667-a311-1e426cf73adf"},"vehicle_type_id":"4","last_reported":1713031669,"current_range_meters":0,"station_id":"","pricing_plan_id":"cebpf4jnsgd1na2vs0mg"},{"bike_id":"d8f3f771-d700-4667-80cd-d59baa539927","system_id":"levelo_inurba_marseille","lat":43.302784,"lon":5.377158,"is_reserved":false,"is_disabled":false,"rental_uris":{"android":"levelo://app?vid=d8f3f771-d700-4667-80cd-d59baa539927","ios":"levelo://app?vid=d8f3f771-d700-4667-80cd-d59baa539927"},"vehicle_type_id":"4","last_reported":1713031669,"current_range_meters":18800,"station_id":"ce4bguh2rcd13ifvqcj0","pricing_plan_id":"cebpf4jnsgd1na2vs0mg"},{"bike_id":"4b43623a-a9ba-4b7f-b293-e9bd2492d227","system_id":"levelo_inurba_marseille","lat":43.320048,"lon":5.381426,"is_reserved":false,"is_disabled":false,"rental_uris":{"android":"levelo://app?vid=4b43623a-a9ba-4b7f-b293-e9bd2492d227","ios":"levelo://app?vid=4b43623a-a9ba-4b7f-b293-e9bd2492d227"},"vehicle_type_id":"4","last_reported":1713031669,"current_range_meters":20400,"station_id":"ce4bhr12rcd13ifvqhpg","pricing_plan_id":"cebpf4jnsgd1na2vs0mg"},{"bike_id":"f20c6e9b-dcc7-4cfd-87f9-44495aae8f00","system_id":"levelo_inurba_marseille","lat":43.319935,"lon":5.381699,"is_reserved":false,"is_disabled":false,"rental_uris":{"android":"levelo://app?vid=f20c6e9b-dcc7-4cfd-87f9-44495aae8f00","ios":"levelo://app?vid=f20c6e9b-dcc7-4cfd-87f9-44495aae8f00"},"vehicle_type_id":"4","last_reported":1713031669,"current_range_meters":9600,"station_id":"ce4bhr12rcd13ifvqhpg","pricing_plan_id":"cebpf4jnsgd1na2vs0mg"},{"bike_id":"0ed099b7-6236-4c18-975e-89a6e08ebb1b","system_id":"levelo_inurba_marseille","lat":43.313647,"lon":5.38493,"is_reserved":false,"is_disabled":false,"rental_uris":{"android":"levelo://app?vid=0ed099b7-6236-4c18-975e-89a6e08ebb1b","ios":"levelo://app?vid=0ed099b7-6236-4c18-975e-89a6e08ebb1b"},"vehicle_type_id":"4","last_reported":1713031669,"current_range_meters":2800,"station_id":"ce4bgt92rcd13ifvqcf0","pricing_plan_id":"cebpf4jnsgd1na2vs0mg"},{"bike_id":"6961787c-1695-4765-8a49-9d4883e78ed5","system_id":"levelo_inurba_marseille","lat":43.31361,"lon":5.38494,"is_reserved":false,"is_disabled":false,"rental_uris":{"android":"levelo://app?vid=6961787c-1695-4765-8a49-9d4883e78ed5","ios":"levelo://app?vid=6961787c-1695-4765-8a49-9d4883e78ed5"},"vehicle_type_id":"4","last_reported":1713031669,"current_range_meters":8000,"station_id":"ce4bgt92rcd13ifvqcf0","pricing_plan_id":"cebpf4jnsgd1na2vs0mg"},{"bike_id":"8d27867c-7d61-4556-af38-6148384543a3","system_id":"levelo_inurba_marseille","lat":43.309076,"lon":5.368465,"is_reserved":false,"is_disabled":false,"rental_uris":{"android":"levelo://app?vid=8d27867c-7d61-4556-af38-6148384543a3","ios":"levelo://app?vid=8d27867c-7d61-4556-af38-6148384543a3"},"vehicle_type_id":"4","last_reported":1713031669,"current_range_meters":0,"station_id":"ce4bgn92rcd13ifvqbvg","pricing_plan_id":"cebpf4jnsgd1na2vs0mg"},{"bike_id":"023f253d-c811-48ee-af8a-034390b9d45e","system_id":"levelo_inurba_marseille","lat":43.305364,"lon":5.384119,"is_reserved":false,"is_disabled":false,"rental_uris":{"android":"levelo://app?vid=023f253d-c811-48ee-af8a-034390b9d45e","ios":"levelo://app?vid=023f253d-c811-48ee-af8a-034390b9d45e"},"vehicle_type_id":"4","last_reported":1713031669,"current_range_meters":24000,"station_id":"ce4bgg92rcd13ifvqb30","pricing_plan_id":"cebpf4jnsgd1na2vs0mg"},{"bike_id":"a6e8b1a2-de31-419a-87f4-e7ca2bf5dc75","system_id":"levelo_inurba_marseille","lat":43.305364,"lon":5.384119,"is_reserved":false,"is_disabled":false,"rental_uris":{"android":"levelo://app?vid=a6e8b1a2-de31-419a-87f4-e7ca2bf5dc75","ios":"levelo://app?vid=a6e8b1a2-de31-419a-87f4-e7ca2bf5dc75"},"vehicle_type_id":"4","last_reported":1713031669,"current_range_meters":0,"station_id":"ce4bgg92rcd13ifvqb30","pricing_plan_id":"cebpf4jnsgd1na2vs0mg"},{"bike_id":"98cf6772-1562-4f12-8ae3-4581e9625f82","system_id":"levelo_inurba_marseille","lat":43.29845,"lon":5.36281,"is_reserved":false,"is_disabled":false,"rental_uris":{"android":"levelo://app?vid=98cf6772-1562-4f12-8ae3-4581e9625f82","ios":"levelo://app?vid=98cf6772-1562-4f12-8ae3-4581e9625f82"},"vehicle_type_id":"4","last_reported":1713031669,"current_range_meters":0,"station_id":"ce4bgpp2rcd13ifvqc3g","pricing_plan_id":"cebpf4jnsgd1na2vs0mg"},{"bike_id":"e0ee1ffd-906e-4523-b791-919d6d9d8044","system_id":"levelo_inurba_marseille","lat":43.311722,"lon":5.387247,"is_reserved":false,"is_disabled":false,"rental_uris":{"android":"levelo://app?vid=e0ee1ffd-906e-4523-b791-919d6d9d8044","ios":"levelo://app?vid=e0ee1ffd-906e-4523-b791-919d6d9d8044"},"vehicle_type_id":"4","last_reported":1713031669,"current_range_meters":11200,"station_id":"ce4bgv12rcd13ifvqcp0","pricing_plan_id":"cebpf4jnsgd1na2vs0mg"},{"bike_id":"4b062aad-25db-4843-872d-d388d0410ce7","system_id":"levelo_inurba_marseille","lat":43.322872,"lon":5.382756,"is_reserved":false,"is_disabled":false,"rental_uris":{"android":"levelo://app?vid=4b062aad-25db-4843-872d-d388d0410ce7","ios":"levelo://app?vid=4b062aad-25db-4843-872d-d388d0410ce7"},"vehicle_type_id":"4","last_reported":1713031669,"current_range_meters":26000,"station_id":"ce4bhr12rcd13ifvqhqg","pricing_plan_id":"cebpf4jnsgd1na2vs0mg"},{"bike_id":"29df6e39-affa-4345-80eb-a14f7210ab74","system_id":"levelo_inurba_marseille","lat":43.2972,"lon":5.36614,"is_reserved":false,"is_disabled":false,"rental_uris":{"android":"levelo://app?vid=29df6e39-affa-4345-80eb-a14f7210ab74","ios":"levelo://app?vid=29df6e39-affa-4345-80eb-a14f7210ab74"},"vehicle_type_id":"4","last_reported":1713031669,"current_range_meters":5200,"station_id":"ce4bgn12rcd13ifvqbt0","pricing_plan_id":"cebpf4jnsgd1na2vs0mg"},{"bike_id":"979c3746-e0c6-45eb-aa25-9aa2353a72da","system_id":"levelo_inurba_marseille","lat":43.295748,"lon":5.37522,"is_reserved":false,"is_disabled":false,"rental_uris":{"android":"levelo://app?vid=979c3746-e0c6-45eb-aa25-9aa2353a72da","ios":"levelo://app?vid=979c3746-e0c6-45eb-aa25-9aa2353a72da"},"vehicle_type_id":"4","last_reported":1713031669,"current_range_meters":0,"station_id":"ce4bgh92rcd13ifvqb50","pricing_plan_id":"cebpf4jnsgd1na2vs0mg"},{"bike_id":"e346591c-887d-4fa8-a749-534582a15ac3","system_id":"levelo_inurba_marseille","lat":43.296131,"lon":5.370773,"is_reserved":false,"is_disabled":false,"rental_uris":{"android":"levelo://app?vid=e346591c-887d-4fa8-a749-534582a15ac3","ios":"levelo://app?vid=e346591c-887d-4fa8-a749-534582a15ac3"},"vehicle_type_id":"4","last_reported":1713031669,"current_range_meters":2400,"station_id":"ce4bgnh2rcd13ifvqc0g","pricing_plan_id":"cebpf4jnsgd1na2vs0mg"},{"bike_id":"8691ea44-d71a-438e-8065-73a012a379df","system_id":"levelo_inurba_marseille","lat":43.29625,"lon":5.37168,"is_reserved":false,"is_disabled":false,"rental_uris":{"android":"levelo://app?vid=8691ea44-d71a-438e-8065-73a012a379df","ios":"levelo://app?vid=8691ea44-d71a-438e-8065-73a012a379df"},"vehicle_type_id":"4","last_reported":1713031669,"current_range_meters":1200,"station_id":"ce4bgnh2rcd13ifvqc0g","pricing_plan_id":"cebpf4jnsgd1na2vs0mg"},{"bike_id":"719d97ed-2218-4718-ad8e-7c016bf7dc78","system_id":"levelo_inurba_marseille","lat":43.2971,"lon":5.37688,"is_reserved":false,"is_disabled":false,"rental_uris":{"android":"levelo://app?vid=719d97ed-2218-4718-ad8e-7c016bf7dc78","ios":"levelo://app?vid=719d97ed-2218-4718-ad8e-7c016bf7dc78"},"vehicle_type_id":"4","last_reported":1713031669,"current_range_meters":0,"station_id":"ce4bgkh2rcd13ifvqbl0","pricing_plan_id":"cebpf4jnsgd1na2vs0mg"},{"bike_id":"6cca20b1-e3bc-493a-9a85-4235f5b9da35","system_id":"levelo_inurba_marseille","lat":43.30953,"lon":5.390309,"is_reserved":false,"is_disabled":false,"rental_uris":{"android":"levelo://app?vid=6cca20b1-e3bc-493a-9a85-4235f5b9da35","ios":"levelo://app?vid=6cca20b1-e3bc-493a-9a85-4235f5b9da35"},"vehicle_type_id":"4","last_reported":1713031669,"current_range_meters":0,"station_id":"ce4bgup2rcd13ifvqco0","pricing_plan_id":"cebpf4jnsgd1na2vs0mg"},{"bike_id":"fae354f1-1049-4637-9294-b8c756b62948","system_id":"levelo_inurba_marseille","lat":43.232144,"lon":5.436661,"is_reserved":false,"is_disabled":false,"rental_uris":{"android":"levelo://app?vid=fae354f1-1049-4637-9294-b8c756b62948","ios":"levelo://app?vid=fae354f1-1049-4637-9294-b8c756b62948"},"vehicle_type_id":"4","last_reported":1713031669,"current_range_meters":0,"station_id":"ce4bhgp2rcd13ifvqfc0","pricing_plan_id":"cebpf4jnsgd1na2vs0mg"},{"bike_id":"622898a9-2152-47e4-a8b4-14ec73613ffa","system_id":"levelo_inurba_marseille","lat":43.299028,"lon":5.381509,"is_reserved":false,"is_disabled":false,"rental_uris":{"android":"levelo://app?vid=622898a9-2152-47e4-a8b4-14ec73613ffa","ios":"levelo://app?vid=622898a9-2152-47e4-a8b4-14ec73613ffa"},"vehicle_type_id":"4","last_reported":1713031669,"current_range_meters":4400,"station_id":"ce4bgj12rcd13ifvqbc0","pricing_plan_id":"cebpf4jnsgd1na2vs0mg"},{"bike_id":"1ad6c318-a8a1-45b4-846e-e5434a7e3903","system_id":"levelo_inurba_marseille","lat":43.32367,"lon":5.388836,"is_reserved":false,"is_disabled":false,"rental_uris":{"android":"levelo://app?vid=1ad6c318-a8a1-45b4-846e-e5434a7e3903","ios":"levelo://app?vid=1ad6c318-a8a1-45b4-846e-e5434a7e3903"},"vehicle_type_id":"4","last_reported":1713031669,"current_range_meters":12400,"station_id":"ce4bhqp2rcd13ifvqhog","pricing_plan_id":"cebpf4jnsgd1na2vs0mg"},{"bike_id":"d0b18a7f-22ba-4384-863e-6e01197147ce","system_id":"levelo_inurba_marseille","lat":43.294153,"lon":5.386305,"is_reserved":false,"is_disabled":false,"rental_uris":{"android":"levelo://app?vid=d0b18a7f-22ba-4384-863e-6e01197147ce","ios":"levelo://app?vid=d0b18a7f-22ba-4384-863e-6e01197147ce"},"vehicle_type_id":"4","last_reported":1713031669,"current_range_meters":0,"station_id":"ce4bh2h2rcd13ifvqdh0","pricing_plan_id":"cebpf4jnsgd1na2vs0mg"},{"bike_id":"0b4799a5-be55-4194-95d0-2b05570f765c","system_id":"levelo_inurba_marseille","lat":43.317557,"lon":5.390173,"is_reserved":false,"is_disabled":false,"rental_uris":{"android":"levelo://app?vid=0b4799a5-be55-4194-95d0-2b05570f765c","ios":"levelo://app?vid=0b4799a5-be55-4194-95d0-2b05570f765c"},"vehicle_type_id":"4","last_reported":1713031669,"current_range_meters":18000,"station_id":"ce4bhqp2rcd13ifvqhng","pricing_plan_id":"cebpf4jnsgd1na2vs0mg"},{"bike_id":"19fe547a-0bdb-468f-a9d8-30c51b6d9678","system_id":"levelo_inurba_marseille","lat":43.31759,"lon":5.39019,"is_reserved":false,"is_disabled":false,"rental_uris":{"android":"levelo://app?vid=19fe547a-0bdb-468f-a9d8-30c51b6d9678","ios":"levelo://app?vid=19fe547a-0bdb-468f-a9d8-30c51b6d9678"},"vehicle_type_id":"4","last_reported":1713031669,"current_range_meters":5200,"station_id":"ce4bhqp2rcd13ifvqhng","pricing_plan_id":"cebpf4jnsgd1na2vs0mg"},{"bike_id":"145cb2b7-9f50-4da9-9ea1-e1a1763f3b75","system_id":"levelo_inurba_marseille","lat":43.29748,"lon":5.37915,"is_reserved":false,"is_disabled":false,"rental_uris":{"android":"levelo://app?vid=145cb2b7-9f50-4da9-9ea1-e1a1763f3b75","ios":"levelo://app?vid=145cb2b7-9f50-4da9-9ea1-e1a1763f3b75"},"vehicle_type_id":"4","last_reported":1713031669,"current_range_meters":16400,"station_id":"","pricing_plan_id":"cebpf4jnsgd1na2vs0mg"},{"bike_id":"92f75077-29f1-4664-8682-63ce26196366","system_id":"levelo_inurba_marseille","lat":43.297996,"lon":5.381018,"is_reserved":false,"is_disabled":false,"rental_uris":{"android":"levelo://app?vid=92f75077-29f1-4664-8682-63ce26196366","ios":"levelo://app?vid=92f75077-29f1-4664-8682-63ce26196366"},"vehicle_type_id":"4","last_reported":1713031669,"current_range_meters":0,"station_id":"ce4bgip2rcd13ifvqbb0","pricing_plan_id":"cebpf4jnsgd1na2vs0mg"},{"bike_id":"9a89599b-5f53-4c25-a150-544f9c458913","system_id":"levelo_inurba_marseille","lat":43.298037,"lon":5.381066,"is_reserved":false,"is_disabled":false,"rental_uris":{"android":"levelo://app?vid=9a89599b-5f53-4c25-a150-544f9c458913","ios":"levelo://app?vid=9a89599b-5f53-4c25-a150-544f9c458913"},"vehicle_type_id":"4","last_reported":1713031669,"current_range_meters":0,"station_id":"ce4bgip2rcd13ifvqbb0","pricing_plan_id":"cebpf4jnsgd1na2vs0mg"},{"bike_id":"c76151ff-6a4d-4003-84ed-d5776ca7de1d","system_id":"levelo_inurba_marseille","lat":43.295748,"lon":5.37522,"is_reserved":false,"is_disabled":false,"rental_uris":{"android":"levelo://app?vid=c76151ff-6a4d-4003-84ed-d5776ca7de1d","ios":"levelo://app?vid=c76151ff-6a4d-4003-84ed-d5776ca7de1d"},"vehicle_type_id":"4","last_reported":1713031669,"current_range_meters":0,"station_id":"ce4bgh92rcd13ifvqb50","pricing_plan_id":"cebpf4jnsgd1na2vs0mg"},{"bike_id":"3ad96ebf-3315-4047-bb5e-0c76aaff59c7","system_id":"levelo_inurba_marseille","lat":43.29793,"lon":5.38104,"is_reserved":false,"is_disabled":false,"rental_uris":{"android":"levelo://app?vid=3ad96ebf-3315-4047-bb5e-0c76aaff59c7","ios":"levelo://app?vid=3ad96ebf-3315-4047-bb5e-0c76aaff59c7"},"vehicle_type_id":"4","last_reported":1713031669,"current_range_meters":0,"station_id":"ce4bgip2rcd13ifvqbb0","pricing_plan_id":"cebpf4jnsgd1na2vs0mg"},{"bike_id":"86264db5-e4ba-4ed9-91d9-6ba0c70d28c3","system_id":"levelo_inurba_marseille","lat":43.304278,"lon":5.388868,"is_reserved":false,"is_disabled":false,"rental_uris":{"android":"levelo://app?vid=86264db5-e4ba-4ed9-91d9-6ba0c70d28c3","ios":"levelo://app?vid=86264db5-e4ba-4ed9-91d9-6ba0c70d28c3"},"vehicle_type_id":"4","last_reported":1713031669,"current_range_meters":1200,"station_id":"ce4bgk12rcd13ifvqbi0","pricing_plan_id":"cebpf4jnsgd1na2vs0mg"},{"bike_id":"f4824af5-30fe-4dc7-9577-7ab9ab60dc12","system_id":"levelo_inurba_marseille","lat":43.295748,"lon":5.37522,"is_reserved":false,"is_disabled":false,"rental_uris":{"android":"levelo://app?vid=f4824af5-30fe-4dc7-9577-7ab9ab60dc12","ios":"levelo://app?vid=f4824af5-30fe-4dc7-9577-7ab9ab60dc12"},"vehicle_type_id":"4","last_reported":1713031669,"current_range_meters":22800,"station_id":"ce4bgh92rcd13ifvqb50","pricing_plan_id":"cebpf4jnsgd1na2vs0mg"},{"bike_id":"bd51b2a1-fde0-4f0d-ba60-e3bfc2c79ee7","system_id":"levelo_inurba_marseille","lat":43.29628,"lon":5.37725,"is_reserved":false,"is_disabled":false,"rental_uris":{"android":"levelo://app?vid=bd51b2a1-fde0-4f0d-ba60-e3bfc2c79ee7","ios":"levelo://app?vid=bd51b2a1-fde0-4f0d-ba60-e3bfc2c79ee7"},"vehicle_type_id":"4","last_reported":1713031669,"current_range_meters":0,"station_id":"ce4bgi92rcd13ifvqb90","pricing_plan_id":"cebpf4jnsgd1na2vs0mg"},{"bike_id":"883821f6-1f26-478b-9326-1520b817c1e1","system_id":"levelo_inurba_marseille","lat":43.29567,"lon":5.3752,"is_reserved":false,"is_disabled":false,"rental_uris":{"android":"levelo://app?vid=883821f6-1f26-478b-9326-1520b817c1e1","ios":"levelo://app?vid=883821f6-1f26-478b-9326-1520b817c1e1"},"vehicle_type_id":"4","last_reported":1713031669,"current_range_meters":0,"station_id":"ce4bgh92rcd13ifvqb50","pricing_plan_id":"cebpf4jnsgd1na2vs0mg"},{"bike_id":"affc6411-1342-4c8f-b2b4-cb71f1f2865a","system_id":"levelo_inurba_marseille","lat":43.295748,"lon":5.37522,"is_reserved":false,"is_disabled":false,"rental_uris":{"android":"levelo://app?vid=affc6411-1342-4c8f-b2b4-cb71f1f2865a","ios":"levelo://app?vid=affc6411-1342-4c8f-b2b4-cb71f1f2865a"},"vehicle_type_id":"4","last_reported":1713031669,"current_range_meters":0,"station_id":"ce4bgh92rcd13ifvqb50","pricing_plan_id":"cebpf4jnsgd1na2vs0mg"},{"bike_id":"e0559db3-5dde-483d-b472-6f80f65851b8","system_id":"levelo_inurba_marseille","lat":43.304278,"lon":5.388868,"is_reserved":false,"is_disabled":false,"rental_uris":{"android":"levelo://app?vid=e0559db3-5dde-483d-b472-6f80f65851b8","ios":"levelo://app?vid=e0559db3-5dde-483d-b472-6f80f65851b8"},"vehicle_type_id":"4","last_reported":1713031669,"current_range_meters":2000,"station_id":"ce4bgk12rcd13ifvqbi0","pricing_plan_id":"cebpf4jnsgd1na2vs0mg"},{"bike_id":"b16aadf5-abdf-472d-a46b-f651d592b48c","system_id":"levelo_inurba_marseille","lat":43.2961,"lon":5.37734,"is_reserved":false,"is_disabled":false,"rental_uris":{"android":"levelo://app?vid=b16aadf5-abdf-472d-a46b-f651d592b48c","ios":"levelo://app?vid=b16aadf5-abdf-472d-a46b-f651d592b48c"},"vehicle_type_id":"4","last_reported":1713031669,"current_range_meters":0,"station_id":"ce4bgi92rcd13ifvqb90","pricing_plan_id":"cebpf4jnsgd1na2vs0mg"},{"bike_id":"00c32fb1-a2c1-4c1b-aa52-da12c2b8bfea","system_id":"levelo_inurba_marseille","lat":43.275625,"lon":5.384392,"is_reserved":false,"is_disabled":false,"rental_uris":{"android":"levelo://app?vid=00c32fb1-a2c1-4c1b-aa52-da12c2b8bfea","ios":"levelo://app?vid=00c32fb1-a2c1-4c1b-aa52-da12c2b8bfea"},"vehicle_type_id":"4","last_reported":1713031669,"current_range_meters":20800,"station_id":"ce4bhh92rcd13ifvqfi0","pricing_plan_id":"cebpf4jnsgd1na2vs0mg"},{"bike_id":"44cfbc4a-0e72-4449-b108-267a0df5b9c9","system_id":"levelo_inurba_marseille","lat":43.304274,"lon":5.388873,"is_reserved":false,"is_disabled":false,"rental_uris":{"android":"levelo://app?vid=44cfbc4a-0e72-4449-b108-267a0df5b9c9","ios":"levelo://app?vid=44cfbc4a-0e72-4449-b108-267a0df5b9c9"},"vehicle_type_id":"4","last_reported":1713031669,"current_range_meters":2000,"station_id":"ce4bgk12rcd13ifvqbi0","pricing_plan_id":"cebpf4jnsgd1na2vs0mg"},{"bike_id":"91acedf7-736d-4532-8b92-536d572363b5","system_id":"levelo_inurba_marseille","lat":43.29501,"lon":5.37399,"is_reserved":false,"is_disabled":false,"rental_uris":{"android":"levelo://app?vid=91acedf7-736d-4532-8b92-536d572363b5","ios":"levelo://app?vid=91acedf7-736d-4532-8b92-536d572363b5"},"vehicle_type_id":"4","last_reported":1713031669,"current_range_meters":0,"station_id":"","pricing_plan_id":"cebpf4jnsgd1na2vs0mg"},{"bike_id":"80669cdd-e51e-440f-9ee8-f893ec8c3c34","system_id":"levelo_inurba_marseille","lat":43.299707,"lon":5.384859,"is_reserved":false,"is_disabled":false,"rental_uris":{"android":"levelo://app?vid=80669cdd-e51e-440f-9ee8-f893ec8c3c34","ios":"levelo://app?vid=80669cdd-e51e-440f-9ee8-f893ec8c3c34"},"vehicle_type_id":"4","last_reported":1713031669,"current_range_meters":400,"station_id":"ce4bgj92rcd13ifvqbd0","pricing_plan_id":"cebpf4jnsgd1na2vs0mg"},{"bike_id":"3f049af5-ef28-4ee4-9cda-c97940e3c2fb","system_id":"levelo_inurba_marseille","lat":43.304274,"lon":5.388873,"is_reserved":false,"is_disabled":false,"rental_uris":{"android":"levelo://app?vid=3f049af5-ef28-4ee4-9cda-c97940e3c2fb","ios":"levelo://app?vid=3f049af5-ef28-4ee4-9cda-c97940e3c2fb"},"vehicle_type_id":"4","last_reported":1713031669,"current_range_meters":12000,"station_id":"ce4bgk12rcd13ifvqbi0","pricing_plan_id":"cebpf4jnsgd1na2vs0mg"},{"bike_id":"286425c5-3771-43e2-bb21-2198ac39650a","system_id":"levelo_inurba_marseille","lat":43.299717,"lon":5.384845,"is_reserved":false,"is_disabled":false,"rental_uris":{"android":"levelo://app?vid=286425c5-3771-43e2-bb21-2198ac39650a","ios":"levelo://app?vid=286425c5-3771-43e2-bb21-2198ac39650a"},"vehicle_type_id":"4","last_reported":1713031669,"current_range_meters":400,"station_id":"ce4bgj92rcd13ifvqbd0","pricing_plan_id":"cebpf4jnsgd1na2vs0mg"},{"bike_id":"e20ae9bf-a6a2-4e35-9e15-1cb8d3b7b3dc","system_id":"levelo_inurba_marseille","lat":43.294934,"lon":5.374588,"is_reserved":false,"is_disabled":false,"rental_uris":{"android":"levelo://app?vid=e20ae9bf-a6a2-4e35-9e15-1cb8d3b7b3dc","ios":"levelo://app?vid=e20ae9bf-a6a2-4e35-9e15-1cb8d3b7b3dc"},"vehicle_type_id":"4","last_reported":1713031669,"current_range_meters":0,"station_id":"ce4bgkp2rcd13ifvqbmg","pricing_plan_id":"cebpf4jnsgd1na2vs0mg"},{"bike_id":"d8baea62-988e-4625-9c8f-6e995c5cf346","system_id":"levelo_inurba_marseille","lat":43.300677,"lon":5.386547,"is_reserved":false,"is_disabled":false,"rental_uris":{"android":"levelo://app?vid=d8baea62-988e-4625-9c8f-6e995c5cf346","ios":"levelo://app?vid=d8baea62-988e-4625-9c8f-6e995c5cf346"},"vehicle_type_id":"4","last_reported":1713031669,"current_range_meters":0,"station_id":"","pricing_plan_id":"cebpf4jnsgd1na2vs0mg"},{"bike_id":"5966a690-b678-4c04-95ed-5ce3b882a8bb","system_id":"levelo_inurba_marseille","lat":43.32367,"lon":5.388836,"is_reserved":false,"is_disabled":false,"rental_uris":{"android":"levelo://app?vid=5966a690-b678-4c04-95ed-5ce3b882a8bb","ios":"levelo://app?vid=5966a690-b678-4c04-95ed-5ce3b882a8bb"},"vehicle_type_id":"4","last_reported":1713031669,"current_range_meters":0,"station_id":"ce4bhqp2rcd13ifvqhog","pricing_plan_id":"cebpf4jnsgd1na2vs0mg"},{"bike_id":"756672ae-8439-44cb-ae29-33f04b573359","system_id":"levelo_inurba_marseille","lat":43.32367,"lon":5.388836,"is_reserved":false,"is_disabled":false,"rental_uris":{"android":"levelo://app?vid=756672ae-8439-44cb-ae29-33f04b573359","ios":"levelo://app?vid=756672ae-8439-44cb-ae29-33f04b573359"},"vehicle_type_id":"4","last_reported":1713031669,"current_range_meters":0,"station_id":"ce4bhqp2rcd13ifvqhog","pricing_plan_id":"cebpf4jnsgd1na2vs0mg"},{"bike_id":"a06d3b01-cc20-4467-9cc1-06ee2890fa59","system_id":"levelo_inurba_marseille","lat":43.29602,"lon":5.381084,"is_reserved":false,"is_disabled":false,"rental_uris":{"android":"levelo://app?vid=a06d3b01-cc20-4467-9cc1-06ee2890fa59","ios":"levelo://app?vid=a06d3b01-cc20-4467-9cc1-06ee2890fa59"},"vehicle_type_id":"4","last_reported":1713031669,"current_range_meters":24000,"station_id":"ce4bgl12rcd13ifvqbo0","pricing_plan_id":"cebpf4jnsgd1na2vs0mg"},{"bike_id":"7bd3051a-1a11-43f9-95e1-ca84474e0b0e","system_id":"levelo_inurba_marseille","lat":43.29277,"lon":5.368449,"is_reserved":false,"is_disabled":false,"rental_uris":{"android":"levelo://app?vid=7bd3051a-1a11-43f9-95e1-ca84474e0b0e","ios":"levelo://app?vid=7bd3051a-1a11-43f9-95e1-ca84474e0b0e"},"vehicle_type_id":"4","last_reported":1713031669,"current_range_meters":0,"station_id":"ce4bhbp2rcd13ifvqesg","pricing_plan_id":"cebpf4jnsgd1na2vs0mg"},{"bike_id":"08915538-1dd2-4517-b1ff-92b559377809","system_id":"levelo_inurba_marseille","lat":43.293249,"lon":5.371578,"is_reserved":false,"is_disabled":false,"rental_uris":{"android":"levelo://app?vid=08915538-1dd2-4517-b1ff-92b559377809","ios":"levelo://app?vid=08915538-1dd2-4517-b1ff-92b559377809"},"vehicle_type_id":"4","last_reported":1713031669,"current_range_meters":0,"station_id":"ce4bgh92rcd13ifvqb40","pricing_plan_id":"cebpf4jnsgd1na2vs0mg"},{"bike_id":"fb75e36a-d0ec-4dd9-8eff-c143fa8d39a8","system_id":"levelo_inurba_marseille","lat":43.292749,"lon":5.368398,"is_reserved":false,"is_disabled":false,"rental_uris":{"android":"levelo://app?vid=fb75e36a-d0ec-4dd9-8eff-c143fa8d39a8","ios":"levelo://app?vid=fb75e36a-d0ec-4dd9-8eff-c143fa8d39a8"},"vehicle_type_id":"4","last_reported":1713031669,"current_range_meters":0,"station_id":"ce4bhbp2rcd13ifvqesg","pricing_plan_id":"cebpf4jnsgd1na2vs0mg"},{"bike_id":"98689da5-aa51-49cf-87ac-02a60fb5dbc2","system_id":"levelo_inurba_marseille","lat":43.29275,"lon":5.36844,"is_reserved":false,"is_disabled":false,"rental_uris":{"android":"levelo://app?vid=98689da5-aa51-49cf-87ac-02a60fb5dbc2","ios":"levelo://app?vid=98689da5-aa51-49cf-87ac-02a60fb5dbc2"},"vehicle_type_id":"4","last_reported":1713031669,"current_range_meters":0,"station_id":"ce4bhbp2rcd13ifvqesg","pricing_plan_id":"cebpf4jnsgd1na2vs0mg"},{"bike_id":"8c7b8283-ed1e-44bc-8253-3a1ba960272a","system_id":"levelo_inurba_marseille","lat":43.292693,"lon":5.368423,"is_reserved":false,"is_disabled":false,"rental_uris":{"android":"levelo://app?vid=8c7b8283-ed1e-44bc-8253-3a1ba960272a","ios":"levelo://app?vid=8c7b8283-ed1e-44bc-8253-3a1ba960272a"},"vehicle_type_id":"4","last_reported":1713031669,"current_range_meters":29200,"station_id":"ce4bhbp2rcd13ifvqesg","pricing_plan_id":"cebpf4jnsgd1na2vs0mg"},{"bike_id":"1b7f04be-b1b0-4afa-ab67-c09b603b9217","system_id":"levelo_inurba_marseille","lat":43.293286,"lon":5.374455,"is_reserved":false,"is_disabled":false,"rental_uris":{"android":"levelo://app?vid=1b7f04be-b1b0-4afa-ab67-c09b603b9217","ios":"levelo://app?vid=1b7f04be-b1b0-4afa-ab67-c09b603b9217"},"vehicle_type_id":"4","last_reported":1713031669,"current_range_meters":0,"station_id":"ce4bgi12rcd13ifvqb70","pricing_plan_id":"cebpf4jnsgd1na2vs0mg"},{"bike_id":"bd847718-d277-4584-84c6-0d49e33e23e6","system_id":"levelo_inurba_marseille","lat":43.281044,"lon":5.378308,"is_reserved":false,"is_disabled":false,"rental_uris":{"android":"levelo://app?vid=bd847718-d277-4584-84c6-0d49e33e23e6","ios":"levelo://app?vid=bd847718-d277-4584-84c6-0d49e33e23e6"},"vehicle_type_id":"4","last_reported":1713031669,"current_range_meters":20000,"station_id":"ce4bha12rcd13ifvqee0","pricing_plan_id":"cebpf4jnsgd1na2vs0mg"},{"bike_id":"c27241a8-5296-43c2-af55-2791daedbb08","system_id":"levelo_inurba_marseille","lat":43.292426,"lon":5.365876,"is_reserved":false,"is_disabled":false,"rental_uris":{"android":"levelo://app?vid=c27241a8-5296-43c2-af55-2791daedbb08","ios":"levelo://app?vid=c27241a8-5296-43c2-af55-2791daedbb08"},"vehicle_type_id":"4","last_reported":1713031669,"current_range_meters":0,"station_id":"","pricing_plan_id":"cebpf4jnsgd1na2vs0mg"},{"bike_id":"55707440-6a1b-4170-a36d-e63257101651","system_id":"levelo_inurba_marseille","lat":43.293009,"lon":5.374584,"is_reserved":false,"is_disabled":false,"rental_uris":{"android":"levelo://app?vid=55707440-6a1b-4170-a36d-e63257101651","ios":"levelo://app?vid=55707440-6a1b-4170-a36d-e63257101651"},"vehicle_type_id":"4","last_reported":1713031669,"current_range_meters":0,"station_id":"ce4bgi12rcd13ifvqb70","pricing_plan_id":"cebpf4jnsgd1na2vs0mg"},{"bike_id":"45877fb7-6da4-434f-80fe-82c7375416dc","system_id":"levelo_inurba_marseille","lat":43.305994,"lon":5.393687,"is_reserved":false,"is_disabled":false,"rental_uris":{"android":"levelo://app?vid=45877fb7-6da4-434f-80fe-82c7375416dc","ios":"levelo://app?vid=45877fb7-6da4-434f-80fe-82c7375416dc"},"vehicle_type_id":"4","last_reported":1713031669,"current_range_meters":7200,"station_id":"ce4bh0p2rcd13ifvqd80","pricing_plan_id":"cebpf4jnsgd1na2vs0mg"},{"bike_id":"f87f8393-089d-4e90-a0f5-4a828081acb2","system_id":"levelo_inurba_marseille","lat":43.293009,"lon":5.374584,"is_reserved":false,"is_disabled":false,"rental_uris":{"android":"levelo://app?vid=f87f8393-089d-4e90-a0f5-4a828081acb2","ios":"levelo://app?vid=f87f8393-089d-4e90-a0f5-4a828081acb2"},"vehicle_type_id":"4","last_reported":1713031669,"current_range_meters":0,"station_id":"ce4bgi12rcd13ifvqb70","pricing_plan_id":"cebpf4jnsgd1na2vs0mg"},{"bike_id":"2247eac3-70cb-4869-bbb8-7050531a3a53","system_id":"levelo_inurba_marseille","lat":43.305994,"lon":5.393687,"is_reserved":false,"is_disabled":false,"rental_uris":{"android":"levelo://app?vid=2247eac3-70cb-4869-bbb8-7050531a3a53","ios":"levelo://app?vid=2247eac3-70cb-4869-bbb8-7050531a3a53"},"vehicle_type_id":"4","last_reported":1713031669,"current_range_meters":26400,"station_id":"ce4bh0p2rcd13ifvqd80","pricing_plan_id":"cebpf4jnsgd1na2vs0mg"},{"bike_id":"0f062833-6bed-4472-bfc5-15186d5a2631","system_id":"levelo_inurba_marseille","lat":43.293009,"lon":5.374584,"is_reserved":false,"is_disabled":false,"rental_uris":{"android":"levelo://app?vid=0f062833-6bed-4472-bfc5-15186d5a2631","ios":"levelo://app?vid=0f062833-6bed-4472-bfc5-15186d5a2631"},"vehicle_type_id":"4","last_reported":1713031669,"current_range_meters":11600,"station_id":"ce4bgi12rcd13ifvqb70","pricing_plan_id":"cebpf4jnsgd1na2vs0mg"},{"bike_id":"2a90a6ff-9ad8-499d-ae80-3cc9999b81fc","system_id":"levelo_inurba_marseille","lat":43.303002,"lon":5.392142,"is_reserved":false,"is_disabled":false,"rental_uris":{"android":"levelo://app?vid=2a90a6ff-9ad8-499d-ae80-3cc9999b81fc","ios":"levelo://app?vid=2a90a6ff-9ad8-499d-ae80-3cc9999b81fc"},"vehicle_type_id":"4","last_reported":1713031669,"current_range_meters":0,"station_id":"ce4bgkh2rcd13ifvqbk0","pricing_plan_id":"cebpf4jnsgd1na2vs0mg"},{"bike_id":"864191e0-db92-4593-8a8a-cea80551e5bb","system_id":"levelo_inurba_marseille","lat":43.304278,"lon":5.388868,"is_reserved":false,"is_disabled":false,"rental_uris":{"android":"levelo://app?vid=864191e0-db92-4593-8a8a-cea80551e5bb","ios":"levelo://app?vid=864191e0-db92-4593-8a8a-cea80551e5bb"},"vehicle_type_id":"4","last_reported":1713031669,"current_range_meters":12000,"station_id":"ce4bgk12rcd13ifvqbi0","pricing_plan_id":"cebpf4jnsgd1na2vs0mg"},{"bike_id":"ea3f92a5-cfdb-4b64-b5b9-88429b0c272b","system_id":"levelo_inurba_marseille","lat":43.303002,"lon":5.392142,"is_reserved":false,"is_disabled":false,"rental_uris":{"android":"levelo://app?vid=ea3f92a5-cfdb-4b64-b5b9-88429b0c272b","ios":"levelo://app?vid=ea3f92a5-cfdb-4b64-b5b9-88429b0c272b"},"vehicle_type_id":"4","last_reported":1713031669,"current_range_meters":0,"station_id":"ce4bgkh2rcd13ifvqbk0","pricing_plan_id":"cebpf4jnsgd1na2vs0mg"},{"bike_id":"4fc48183-b8a2-44d5-98a8-8ab1b373c0f8","system_id":"levelo_inurba_marseille","lat":43.305034,"lon":5.393486,"is_reserved":false,"is_disabled":false,"rental_uris":{"android":"levelo://app?vid=4fc48183-b8a2-44d5-98a8-8ab1b373c0f8","ios":"levelo://app?vid=4fc48183-b8a2-44d5-98a8-8ab1b373c0f8"},"vehicle_type_id":"4","last_reported":1713031669,"current_range_meters":0,"station_id":"ce4bhb92rcd13ifvqen0","pricing_plan_id":"cebpf4jnsgd1na2vs0mg"},{"bike_id":"8d139983-896d-47d4-9a36-988a2627dbdd","system_id":"levelo_inurba_marseille","lat":43.292311,"lon":5.360731,"is_reserved":false,"is_disabled":false,"rental_uris":{"android":"levelo://app?vid=8d139983-896d-47d4-9a36-988a2627dbdd","ios":"levelo://app?vid=8d139983-896d-47d4-9a36-988a2627dbdd"},"vehicle_type_id":"4","last_reported":1713031669,"current_range_meters":2400,"station_id":"ce4bhbh2rcd13ifvqeqg","pricing_plan_id":"cebpf4jnsgd1na2vs0mg"},{"bike_id":"33f83a6b-09c2-4501-b887-64ce1acd6ee3","system_id":"levelo_inurba_marseille","lat":43.300852,"lon":5.390859,"is_reserved":false,"is_disabled":false,"rental_uris":{"android":"levelo://app?vid=33f83a6b-09c2-4501-b887-64ce1acd6ee3","ios":"levelo://app?vid=33f83a6b-09c2-4501-b887-64ce1acd6ee3"},"vehicle_type_id":"4","last_reported":1713031669,"current_range_meters":8800,"station_id":"ce4bh192rcd13ifvqdb0","pricing_plan_id":"cebpf4jnsgd1na2vs0mg"},{"bike_id":"ceac8809-9b6d-4f6a-b144-09d87b46c5f4","system_id":"levelo_inurba_marseille","lat":43.298764,"lon":5.388973,"is_reserved":false,"is_disabled":false,"rental_uris":{"android":"levelo://app?vid=ceac8809-9b6d-4f6a-b144-09d87b46c5f4","ios":"levelo://app?vid=ceac8809-9b6d-4f6a-b144-09d87b46c5f4"},"vehicle_type_id":"4","last_reported":1713031669,"current_range_meters":12000,"station_id":"ce4bh392rcd13ifvqdl0","pricing_plan_id":"cebpf4jnsgd1na2vs0mg"},{"bike_id":"a6a49625-1569-47a9-b9b9-59780a0b060a","system_id":"levelo_inurba_marseille","lat":43.298764,"lon":5.388973,"is_reserved":false,"is_disabled":false,"rental_uris":{"android":"levelo://app?vid=a6a49625-1569-47a9-b9b9-59780a0b060a","ios":"levelo://app?vid=a6a49625-1569-47a9-b9b9-59780a0b060a"},"vehicle_type_id":"4","last_reported":1713031669,"current_range_meters":0,"station_id":"ce4bh392rcd13ifvqdl0","pricing_plan_id":"cebpf4jnsgd1na2vs0mg"},{"bike_id":"faf8c463-b402-4417-85f0-5705f67183e6","system_id":"levelo_inurba_marseille","lat":43.29872,"lon":5.38907,"is_reserved":false,"is_disabled":false,"rental_uris":{"android":"levelo://app?vid=faf8c463-b402-4417-85f0-5705f67183e6","ios":"levelo://app?vid=faf8c463-b402-4417-85f0-5705f67183e6"},"vehicle_type_id":"4","last_reported":1713031669,"current_range_meters":0,"station_id":"ce4bh392rcd13ifvqdl0","pricing_plan_id":"cebpf4jnsgd1na2vs0mg"},{"bike_id":"9a16a0c5-85ac-48b4-b06a-cb2716e0ae08","system_id":"levelo_inurba_marseille","lat":43.31331,"lon":5.39686,"is_reserved":false,"is_disabled":false,"rental_uris":{"android":"levelo://app?vid=9a16a0c5-85ac-48b4-b06a-cb2716e0ae08","ios":"levelo://app?vid=9a16a0c5-85ac-48b4-b06a-cb2716e0ae08"},"vehicle_type_id":"4","last_reported":1713031669,"current_range_meters":8000,"station_id":"ce4bgvp2rcd13ifvqcu0","pricing_plan_id":"cebpf4jnsgd1na2vs0mg"},{"bike_id":"104520fa-ec2d-49d1-b95b-df53d47a8e6f","system_id":"levelo_inurba_marseille","lat":43.291994,"lon":5.357886,"is_reserved":false,"is_disabled":false,"rental_uris":{"android":"levelo://app?vid=104520fa-ec2d-49d1-b95b-df53d47a8e6f","ios":"levelo://app?vid=104520fa-ec2d-49d1-b95b-df53d47a8e6f"},"vehicle_type_id":"4","last_reported":1713031669,"current_range_meters":4800,"station_id":"ce4bhb12rcd13ifvqel0","pricing_plan_id":"cebpf4jnsgd1na2vs0mg"},{"bike_id":"1bdf7835-f19f-4e95-ab26-373ae9fc3090","system_id":"levelo_inurba_marseille","lat":43.309038,"lon":5.396546,"is_reserved":false,"is_disabled":false,"rental_uris":{"android":"levelo://app?vid=1bdf7835-f19f-4e95-ab26-373ae9fc3090","ios":"levelo://app?vid=1bdf7835-f19f-4e95-ab26-373ae9fc3090"},"vehicle_type_id":"4","last_reported":1713031669,"current_range_meters":12000,"station_id":"ce4bh012rcd13ifvqcv0","pricing_plan_id":"cebpf4jnsgd1na2vs0mg"},{"bike_id":"b010a7d4-19d0-4ad7-a87e-db8b5b835faa","system_id":"levelo_inurba_marseille","lat":43.290779,"lon":5.371482,"is_reserved":false,"is_disabled":false,"rental_uris":{"android":"levelo://app?vid=b010a7d4-19d0-4ad7-a87e-db8b5b835faa","ios":"levelo://app?vid=b010a7d4-19d0-4ad7-a87e-db8b5b835faa"},"vehicle_type_id":"4","last_reported":1713031669,"current_range_meters":22000,"station_id":"ce4bh5p2rcd13ifvqe4g","pricing_plan_id":"cebpf4jnsgd1na2vs0mg"},{"bike_id":"4e744c31-597c-4890-8b7a-f958381cc58e","system_id":"levelo_inurba_marseille","lat":43.290779,"lon":5.371482,"is_reserved":false,"is_disabled":false,"rental_uris":{"android":"levelo://app?vid=4e744c31-597c-4890-8b7a-f958381cc58e","ios":"levelo://app?vid=4e744c31-597c-4890-8b7a-f958381cc58e"},"vehicle_type_id":"4","last_reported":1713031669,"current_range_meters":0,"station_id":"ce4bh5p2rcd13ifvqe4g","pricing_plan_id":"cebpf4jnsgd1na2vs0mg"},{"bike_id":"06faa94b-4f10-4199-ad42-c49ba44c8489","system_id":"levelo_inurba_marseille","lat":43.290779,"lon":5.371482,"is_reserved":false,"is_disabled":false,"rental_uris":{"android":"levelo://app?vid=06faa94b-4f10-4199-ad42-c49ba44c8489","ios":"levelo://app?vid=06faa94b-4f10-4199-ad42-c49ba44c8489"},"vehicle_type_id":"4","last_reported":1713031669,"current_range_meters":0,"station_id":"ce4bh5p2rcd13ifvqe4g","pricing_plan_id":"cebpf4jnsgd1na2vs0mg"},{"bike_id":"f480c151-8500-43f4-a3a4-808d82958383","system_id":"levelo_inurba_marseille","lat":43.290779,"lon":5.371482,"is_reserved":false,"is_disabled":false,"rental_uris":{"android":"levelo://app?vid=f480c151-8500-43f4-a3a4-808d82958383","ios":"levelo://app?vid=f480c151-8500-43f4-a3a4-808d82958383"},"vehicle_type_id":"4","last_reported":1713031669,"current_range_meters":1600,"station_id":"ce4bh5p2rcd13ifvqe4g","pricing_plan_id":"cebpf4jnsgd1na2vs0mg"},{"bike_id":"466e1602-327a-4cce-b4b2-d4053dfa0870","system_id":"levelo_inurba_marseille","lat":43.29424,"lon":5.38619,"is_reserved":false,"is_disabled":false,"rental_uris":{"android":"levelo://app?vid=466e1602-327a-4cce-b4b2-d4053dfa0870","ios":"levelo://app?vid=466e1602-327a-4cce-b4b2-d4053dfa0870"},"vehicle_type_id":"4","last_reported":1713031669,"current_range_meters":0,"station_id":"ce4bh2h2rcd13ifvqdh0","pricing_plan_id":"cebpf4jnsgd1na2vs0mg"},{"bike_id":"ea0ed78a-6431-4be6-a418-846d4737a9ee","system_id":"levelo_inurba_marseille","lat":43.290319,"lon":5.375732,"is_reserved":false,"is_disabled":false,"rental_uris":{"android":"levelo://app?vid=ea0ed78a-6431-4be6-a418-846d4737a9ee","ios":"levelo://app?vid=ea0ed78a-6431-4be6-a418-846d4737a9ee"},"vehicle_type_id":"4","last_reported":1713031669,"current_range_meters":22400,"station_id":"ce4bh692rcd13ifvqe90","pricing_plan_id":"cebpf4jnsgd1na2vs0mg"},{"bike_id":"f32ad56f-3211-4903-b661-a3e4cea62f2c","system_id":"levelo_inurba_marseille","lat":43.29422,"lon":5.38628,"is_reserved":false,"is_disabled":false,"rental_uris":{"android":"levelo://app?vid=f32ad56f-3211-4903-b661-a3e4cea62f2c","ios":"levelo://app?vid=f32ad56f-3211-4903-b661-a3e4cea62f2c"},"vehicle_type_id":"4","last_reported":1713031669,"current_range_meters":0,"station_id":"ce4bh2h2rcd13ifvqdh0","pricing_plan_id":"cebpf4jnsgd1na2vs0mg"},{"bike_id":"e4bd61ee-840e-48ff-8fbe-cf6683b58622","system_id":"levelo_inurba_marseille","lat":43.316821,"lon":5.404737,"is_reserved":false,"is_disabled":false,"rental_uris":{"android":"levelo://app?vid=e4bd61ee-840e-48ff-8fbe-cf6683b58622","ios":"levelo://app?vid=e4bd61ee-840e-48ff-8fbe-cf6683b58622"},"vehicle_type_id":"4","last_reported":1713031669,"current_range_meters":0,"station_id":"ce4bh012rcd13ifvqd00","pricing_plan_id":"cebpf4jnsgd1na2vs0mg"},{"bike_id":"77e54ce3-63bc-425c-a9ae-9d2b3b47cba6","system_id":"levelo_inurba_marseille","lat":43.29415,"lon":5.386284,"is_reserved":false,"is_disabled":false,"rental_uris":{"android":"levelo://app?vid=77e54ce3-63bc-425c-a9ae-9d2b3b47cba6","ios":"levelo://app?vid=77e54ce3-63bc-425c-a9ae-9d2b3b47cba6"},"vehicle_type_id":"4","last_reported":1713031669,"current_range_meters":0,"station_id":"ce4bh2h2rcd13ifvqdh0","pricing_plan_id":"cebpf4jnsgd1na2vs0mg"},{"bike_id":"4ea8459e-004d-4704-8e20-8325c03fa404","system_id":"levelo_inurba_marseille","lat":43.29408,"lon":5.38638,"is_reserved":false,"is_disabled":false,"rental_uris":{"android":"levelo://app?vid=4ea8459e-004d-4704-8e20-8325c03fa404","ios":"levelo://app?vid=4ea8459e-004d-4704-8e20-8325c03fa404"},"vehicle_type_id":"4","last_reported":1713031669,"current_range_meters":0,"station_id":"ce4bh2h2rcd13ifvqdh0","pricing_plan_id":"cebpf4jnsgd1na2vs0mg"},{"bike_id":"41d4cf2b-ccc7-4fda-96be-b1a5353fe2d3","system_id":"levelo_inurba_marseille","lat":43.292495,"lon":5.383578,"is_reserved":false,"is_disabled":false,"rental_uris":{"android":"levelo://app?vid=41d4cf2b-ccc7-4fda-96be-b1a5353fe2d3","ios":"levelo://app?vid=41d4cf2b-ccc7-4fda-96be-b1a5353fe2d3"},"vehicle_type_id":"4","last_reported":1713031669,"current_range_meters":0,"station_id":"","pricing_plan_id":"cebpf4jnsgd1na2vs0mg"},{"bike_id":"3727b848-2650-4564-872a-e415e324bf60","system_id":"levelo_inurba_marseille","lat":43.292644,"lon":5.384257,"is_reserved":false,"is_disabled":false,"rental_uris":{"android":"levelo://app?vid=3727b848-2650-4564-872a-e415e324bf60","ios":"levelo://app?vid=3727b848-2650-4564-872a-e415e324bf60"},"vehicle_type_id":"4","last_reported":1713031669,"current_range_meters":4000,"station_id":"ce4bh692rcd13ifvqea0","pricing_plan_id":"cebpf4jnsgd1na2vs0mg"},{"bike_id":"aab866f9-b567-422d-a003-0bc58cb3d447","system_id":"levelo_inurba_marseille","lat":43.292644,"lon":5.384257,"is_reserved":false,"is_disabled":false,"rental_uris":{"android":"levelo://app?vid=aab866f9-b567-422d-a003-0bc58cb3d447","ios":"levelo://app?vid=aab866f9-b567-422d-a003-0bc58cb3d447"},"vehicle_type_id":"4","last_reported":1713031669,"current_range_meters":22800,"station_id":"ce4bh692rcd13ifvqea0","pricing_plan_id":"cebpf4jnsgd1na2vs0mg"},{"bike_id":"92576bd3-08b4-4127-83c7-12cd129ab0de","system_id":"levelo_inurba_marseille","lat":43.292555,"lon":5.38398,"is_reserved":false,"is_disabled":false,"rental_uris":{"android":"levelo://app?vid=92576bd3-08b4-4127-83c7-12cd129ab0de","ios":"levelo://app?vid=92576bd3-08b4-4127-83c7-12cd129ab0de"},"vehicle_type_id":"4","last_reported":1713031669,"current_range_meters":2800,"station_id":"ce4bh692rcd13ifvqea0","pricing_plan_id":"cebpf4jnsgd1na2vs0mg"},{"bike_id":"62a10d8e-283d-41e0-999a-69f53bcdda21","system_id":"levelo_inurba_marseille","lat":43.292644,"lon":5.384257,"is_reserved":false,"is_disabled":false,"rental_uris":{"android":"levelo://app?vid=62a10d8e-283d-41e0-999a-69f53bcdda21","ios":"levelo://app?vid=62a10d8e-283d-41e0-999a-69f53bcdda21"},"vehicle_type_id":"4","last_reported":1713031669,"current_range_meters":0,"station_id":"ce4bh692rcd13ifvqea0","pricing_plan_id":"cebpf4jnsgd1na2vs0mg"},{"bike_id":"d9f8d9cf-3b90-4357-b298-4285104e0f7e","system_id":"levelo_inurba_marseille","lat":43.292644,"lon":5.384257,"is_reserved":false,"is_disabled":false,"rental_uris":{"android":"levelo://app?vid=d9f8d9cf-3b90-4357-b298-4285104e0f7e","ios":"levelo://app?vid=d9f8d9cf-3b90-4357-b298-4285104e0f7e"},"vehicle_type_id":"4","last_reported":1713031669,"current_range_meters":0,"station_id":"ce4bh692rcd13ifvqea0","pricing_plan_id":"cebpf4jnsgd1na2vs0mg"},{"bike_id":"d654e19c-b2e0-4fdd-81c7-ec30ef213c8c","system_id":"levelo_inurba_marseille","lat":43.292644,"lon":5.384257,"is_reserved":false,"is_disabled":false,"rental_uris":{"android":"levelo://app?vid=d654e19c-b2e0-4fdd-81c7-ec30ef213c8c","ios":"levelo://app?vid=d654e19c-b2e0-4fdd-81c7-ec30ef213c8c"},"vehicle_type_id":"4","last_reported":1713031669,"current_range_meters":7200,"station_id":"ce4bh692rcd13ifvqea0","pricing_plan_id":"cebpf4jnsgd1na2vs0mg"},{"bike_id":"82305ab3-3986-4edc-81e7-8d8b3b286695","system_id":"levelo_inurba_marseille","lat":43.29259,"lon":5.38433,"is_reserved":false,"is_disabled":false,"rental_uris":{"android":"levelo://app?vid=82305ab3-3986-4edc-81e7-8d8b3b286695","ios":"levelo://app?vid=82305ab3-3986-4edc-81e7-8d8b3b286695"},"vehicle_type_id":"4","last_reported":1713031669,"current_range_meters":1600,"station_id":"ce4bh692rcd13ifvqea0","pricing_plan_id":"cebpf4jnsgd1na2vs0mg"},{"bike_id":"8988f9a5-c11a-4ded-aa22-0fdcda45a1a8","system_id":"levelo_inurba_marseille","lat":43.29254,"lon":5.38434,"is_reserved":false,"is_disabled":false,"rental_uris":{"android":"levelo://app?vid=8988f9a5-c11a-4ded-aa22-0fdcda45a1a8","ios":"levelo://app?vid=8988f9a5-c11a-4ded-aa22-0fdcda45a1a8"},"vehicle_type_id":"4","last_reported":1713031669,"current_range_meters":5600,"station_id":"ce4bh692rcd13ifvqea0","pricing_plan_id":"cebpf4jnsgd1na2vs0mg"},{"bike_id":"d5166107-21a4-4040-89e2-ad914de421ac","system_id":"levelo_inurba_marseille","lat":43.30422,"lon":5.39754,"is_reserved":false,"is_disabled":false,"rental_uris":{"android":"levelo://app?vid=d5166107-21a4-4040-89e2-ad914de421ac","ios":"levelo://app?vid=d5166107-21a4-4040-89e2-ad914de421ac"},"vehicle_type_id":"4","last_reported":1713031669,"current_range_meters":0,"station_id":"ce4bh092rcd13ifvqd20","pricing_plan_id":"cebpf4jnsgd1na2vs0mg"},{"bike_id":"b7add011-d47d-4032-8cd8-8f19f9778c79","system_id":"levelo_inurba_marseille","lat":43.292644,"lon":5.384257,"is_reserved":false,"is_disabled":false,"rental_uris":{"android":"levelo://app?vid=b7add011-d47d-4032-8cd8-8f19f9778c79","ios":"levelo://app?vid=b7add011-d47d-4032-8cd8-8f19f9778c79"},"vehicle_type_id":"4","last_reported":1713031669,"current_range_meters":8000,"station_id":"ce4bh692rcd13ifvqea0","pricing_plan_id":"cebpf4jnsgd1na2vs0mg"},{"bike_id":"9d319d11-983a-4f32-9b87-f10d41d3ad4a","system_id":"levelo_inurba_marseille","lat":43.29254,"lon":5.38441,"is_reserved":false,"is_disabled":false,"rental_uris":{"android":"levelo://app?vid=9d319d11-983a-4f32-9b87-f10d41d3ad4a","ios":"levelo://app?vid=9d319d11-983a-4f32-9b87-f10d41d3ad4a"},"vehicle_type_id":"4","last_reported":1713031669,"current_range_meters":0,"station_id":"ce4bh692rcd13ifvqea0","pricing_plan_id":"cebpf4jnsgd1na2vs0mg"},{"bike_id":"5b79b014-bc1d-4c29-8119-6fbdb0e75a74","system_id":"levelo_inurba_marseille","lat":43.29253,"lon":5.38447,"is_reserved":false,"is_disabled":false,"rental_uris":{"android":"levelo://app?vid=5b79b014-bc1d-4c29-8119-6fbdb0e75a74","ios":"levelo://app?vid=5b79b014-bc1d-4c29-8119-6fbdb0e75a74"},"vehicle_type_id":"4","last_reported":1713031669,"current_range_meters":0,"station_id":"ce4bh692rcd13ifvqea0","pricing_plan_id":"cebpf4jnsgd1na2vs0mg"},{"bike_id":"6cf5a270-7e73-46ad-add0-a474b7a141b8","system_id":"levelo_inurba_marseille","lat":43.291104,"lon":5.380947,"is_reserved":false,"is_disabled":false,"rental_uris":{"android":"levelo://app?vid=6cf5a270-7e73-46ad-add0-a474b7a141b8","ios":"levelo://app?vid=6cf5a270-7e73-46ad-add0-a474b7a141b8"},"vehicle_type_id":"4","last_reported":1713031669,"current_range_meters":0,"station_id":"ce4bh512rcd13ifvqe2g","pricing_plan_id":"cebpf4jnsgd1na2vs0mg"},{"bike_id":"d565e61b-9f0d-4450-84a3-88222695502c","system_id":"levelo_inurba_marseille","lat":43.29007,"lon":5.35618,"is_reserved":false,"is_disabled":false,"rental_uris":{"android":"levelo://app?vid=d565e61b-9f0d-4450-84a3-88222695502c","ios":"levelo://app?vid=d565e61b-9f0d-4450-84a3-88222695502c"},"vehicle_type_id":"4","last_reported":1713031669,"current_range_meters":30000,"station_id":"ce4bhb92rcd13ifvqen0","pricing_plan_id":"cebpf4jnsgd1na2vs0mg"},{"bike_id":"2c569e52-c2d7-4c0f-8584-b5b07646b7dc","system_id":"levelo_inurba_marseille","lat":43.290104,"lon":5.356111,"is_reserved":false,"is_disabled":false,"rental_uris":{"android":"levelo://app?vid=2c569e52-c2d7-4c0f-8584-b5b07646b7dc","ios":"levelo://app?vid=2c569e52-c2d7-4c0f-8584-b5b07646b7dc"},"vehicle_type_id":"4","last_reported":1713031669,"current_range_meters":1600,"station_id":"ce4bhb92rcd13ifvqen0","pricing_plan_id":"cebpf4jnsgd1na2vs0mg"},{"bike_id":"342d5c8f-534d-4275-893c-6e86d138ddb9","system_id":"levelo_inurba_marseille","lat":43.29002,"lon":5.35606,"is_reserved":false,"is_disabled":false,"rental_uris":{"android":"levelo://app?vid=342d5c8f-534d-4275-893c-6e86d138ddb9","ios":"levelo://app?vid=342d5c8f-534d-4275-893c-6e86d138ddb9"},"vehicle_type_id":"4","last_reported":1713031669,"current_range_meters":20400,"station_id":"","pricing_plan_id":"cebpf4jnsgd1na2vs0mg"},{"bike_id":"f16a0b97-2d83-4127-89e7-3ce5bc6263df","system_id":"levelo_inurba_marseille","lat":43.292644,"lon":5.384257,"is_reserved":false,"is_disabled":false,"rental_uris":{"android":"levelo://app?vid=f16a0b97-2d83-4127-89e7-3ce5bc6263df","ios":"levelo://app?vid=f16a0b97-2d83-4127-89e7-3ce5bc6263df"},"vehicle_type_id":"4","last_reported":1713031669,"current_range_meters":12800,"station_id":"ce4bh692rcd13ifvqea0","pricing_plan_id":"cebpf4jnsgd1na2vs0mg"},{"bike_id":"98ae5faa-1757-44f7-b7d3-76bf11b46167","system_id":"levelo_inurba_marseille","lat":43.290967,"lon":5.381229,"is_reserved":false,"is_disabled":false,"rental_uris":{"android":"levelo://app?vid=98ae5faa-1757-44f7-b7d3-76bf11b46167","ios":"levelo://app?vid=98ae5faa-1757-44f7-b7d3-76bf11b46167"},"vehicle_type_id":"4","last_reported":1713031669,"current_range_meters":0,"station_id":"ce4bh512rcd13ifvqe2g","pricing_plan_id":"cebpf4jnsgd1na2vs0mg"},{"bike_id":"784b514e-aec4-47bf-a088-cc5ea8a325ec","system_id":"levelo_inurba_marseille","lat":43.290928,"lon":5.3813,"is_reserved":false,"is_disabled":false,"rental_uris":{"android":"levelo://app?vid=784b514e-aec4-47bf-a088-cc5ea8a325ec","ios":"levelo://app?vid=784b514e-aec4-47bf-a088-cc5ea8a325ec"},"vehicle_type_id":"4","last_reported":1713031669,"current_range_meters":0,"station_id":"ce4bh512rcd13ifvqe2g","pricing_plan_id":"cebpf4jnsgd1na2vs0mg"},{"bike_id":"8abe8f07-1f46-44b0-8066-f7eadb21eae2","system_id":"levelo_inurba_marseille","lat":43.29082,"lon":5.38144,"is_reserved":false,"is_disabled":false,"rental_uris":{"android":"levelo://app?vid=8abe8f07-1f46-44b0-8066-f7eadb21eae2","ios":"levelo://app?vid=8abe8f07-1f46-44b0-8066-f7eadb21eae2"},"vehicle_type_id":"4","last_reported":1713031669,"current_range_meters":0,"station_id":"ce4bh512rcd13ifvqe2g","pricing_plan_id":"cebpf4jnsgd1na2vs0mg"},{"bike_id":"4c308f5a-884b-4803-ae80-d1535c6e3a91","system_id":"levelo_inurba_marseille","lat":43.295169,"lon":5.390426,"is_reserved":false,"is_disabled":false,"rental_uris":{"android":"levelo://app?vid=4c308f5a-884b-4803-ae80-d1535c6e3a91","ios":"levelo://app?vid=4c308f5a-884b-4803-ae80-d1535c6e3a91"},"vehicle_type_id":"4","last_reported":1713031669,"current_range_meters":0,"station_id":"ce4bh3p2rcd13ifvqdp0","pricing_plan_id":"cebpf4jnsgd1na2vs0mg"},{"bike_id":"56b8dad8-e7ec-4c83-ae73-93d5992ddfc4","system_id":"levelo_inurba_marseille","lat":43.330442,"lon":5.389148,"is_reserved":false,"is_disabled":false,"rental_uris":{"android":"levelo://app?vid=56b8dad8-e7ec-4c83-ae73-93d5992ddfc4","ios":"levelo://app?vid=56b8dad8-e7ec-4c83-ae73-93d5992ddfc4"},"vehicle_type_id":"4","last_reported":1713031669,"current_range_meters":27200,"station_id":"ce4bhr92rcd13ifvqhrg","pricing_plan_id":"cebpf4jnsgd1na2vs0mg"},{"bike_id":"cd9cdd86-a7e9-46bc-80be-0f6d0663c71c","system_id":"levelo_inurba_marseille","lat":43.330442,"lon":5.389148,"is_reserved":false,"is_disabled":false,"rental_uris":{"android":"levelo://app?vid=cd9cdd86-a7e9-46bc-80be-0f6d0663c71c","ios":"levelo://app?vid=cd9cdd86-a7e9-46bc-80be-0f6d0663c71c"},"vehicle_type_id":"4","last_reported":1713031669,"current_range_meters":5200,"station_id":"ce4bhr92rcd13ifvqhrg","pricing_plan_id":"cebpf4jnsgd1na2vs0mg"},{"bike_id":"40de11fe-c1f3-44ea-a3f6-4261335a1f87","system_id":"levelo_inurba_marseille","lat":43.330442,"lon":5.389148,"is_reserved":false,"is_disabled":false,"rental_uris":{"android":"levelo://app?vid=40de11fe-c1f3-44ea-a3f6-4261335a1f87","ios":"levelo://app?vid=40de11fe-c1f3-44ea-a3f6-4261335a1f87"},"vehicle_type_id":"4","last_reported":1713031669,"current_range_meters":8800,"station_id":"ce4bhr92rcd13ifvqhrg","pricing_plan_id":"cebpf4jnsgd1na2vs0mg"},{"bike_id":"d900a918-9aa4-427c-aa24-f7ee15938d99","system_id":"levelo_inurba_marseille","lat":43.330442,"lon":5.389148,"is_reserved":false,"is_disabled":false,"rental_uris":{"android":"levelo://app?vid=d900a918-9aa4-427c-aa24-f7ee15938d99","ios":"levelo://app?vid=d900a918-9aa4-427c-aa24-f7ee15938d99"},"vehicle_type_id":"4","last_reported":1713031669,"current_range_meters":22800,"station_id":"ce4bhr92rcd13ifvqhrg","pricing_plan_id":"cebpf4jnsgd1na2vs0mg"},{"bike_id":"5bf68fbf-086b-4ae2-93bb-627ee6ac646b","system_id":"levelo_inurba_marseille","lat":43.295169,"lon":5.390426,"is_reserved":false,"is_disabled":false,"rental_uris":{"android":"levelo://app?vid=5bf68fbf-086b-4ae2-93bb-627ee6ac646b","ios":"levelo://app?vid=5bf68fbf-086b-4ae2-93bb-627ee6ac646b"},"vehicle_type_id":"4","last_reported":1713031669,"current_range_meters":400,"station_id":"ce4bh3p2rcd13ifvqdp0","pricing_plan_id":"cebpf4jnsgd1na2vs0mg"},{"bike_id":"aad570c8-2878-4b4e-9ec3-ae0420a766eb","system_id":"levelo_inurba_marseille","lat":43.289743,"lon":5.378304,"is_reserved":false,"is_disabled":false,"rental_uris":{"android":"levelo://app?vid=aad570c8-2878-4b4e-9ec3-ae0420a766eb","ios":"levelo://app?vid=aad570c8-2878-4b4e-9ec3-ae0420a766eb"},"vehicle_type_id":"4","last_reported":1713031669,"current_range_meters":800,"station_id":"ce4bh9p2rcd13ifvqed0","pricing_plan_id":"cebpf4jnsgd1na2vs0mg"},{"bike_id":"e9ba5764-b63a-42db-b160-1490411487ca","system_id":"levelo_inurba_marseille","lat":43.295226,"lon":5.390433,"is_reserved":false,"is_disabled":false,"rental_uris":{"android":"levelo://app?vid=e9ba5764-b63a-42db-b160-1490411487ca","ios":"levelo://app?vid=e9ba5764-b63a-42db-b160-1490411487ca"},"vehicle_type_id":"4","last_reported":1713031669,"current_range_meters":400,"station_id":"ce4bh3p2rcd13ifvqdp0","pricing_plan_id":"cebpf4jnsgd1na2vs0mg"},{"bike_id":"9fb6f238-7e17-46e6-a523-c3145d2f6200","system_id":"levelo_inurba_marseille","lat":43.290094,"lon":5.381264,"is_reserved":false,"is_disabled":false,"rental_uris":{"android":"levelo://app?vid=9fb6f238-7e17-46e6-a523-c3145d2f6200","ios":"levelo://app?vid=9fb6f238-7e17-46e6-a523-c3145d2f6200"},"vehicle_type_id":"4","last_reported":1713031669,"current_range_meters":21600,"station_id":"ce4bh4p2rcd13ifvqe1g","pricing_plan_id":"cebpf4jnsgd1na2vs0mg"},{"bike_id":"b49c1ef7-b7d5-497f-af07-f9a7c9617fe8","system_id":"levelo_inurba_marseille","lat":43.290094,"lon":5.381264,"is_reserved":false,"is_disabled":false,"rental_uris":{"android":"levelo://app?vid=b49c1ef7-b7d5-497f-af07-f9a7c9617fe8","ios":"levelo://app?vid=b49c1ef7-b7d5-497f-af07-f9a7c9617fe8"},"vehicle_type_id":"4","last_reported":1713031669,"current_range_meters":24000,"station_id":"ce4bh4p2rcd13ifvqe1g","pricing_plan_id":"cebpf4jnsgd1na2vs0mg"},{"bike_id":"134f1271-b16a-4dd9-bd49-d9db8ed35936","system_id":"levelo_inurba_marseille","lat":43.2901,"lon":5.381269,"is_reserved":false,"is_disabled":false,"rental_uris":{"android":"levelo://app?vid=134f1271-b16a-4dd9-bd49-d9db8ed35936","ios":"levelo://app?vid=134f1271-b16a-4dd9-bd49-d9db8ed35936"},"vehicle_type_id":"4","last_reported":1713031669,"current_range_meters":0,"station_id":"ce4bh4p2rcd13ifvqe1g","pricing_plan_id":"cebpf4jnsgd1na2vs0mg"},{"bike_id":"586aa45b-6093-437d-a07f-248f9bf6b176","system_id":"levelo_inurba_marseille","lat":43.290094,"lon":5.381264,"is_reserved":false,"is_disabled":false,"rental_uris":{"android":"levelo://app?vid=586aa45b-6093-437d-a07f-248f9bf6b176","ios":"levelo://app?vid=586aa45b-6093-437d-a07f-248f9bf6b176"},"vehicle_type_id":"4","last_reported":1713031669,"current_range_meters":1600,"station_id":"ce4bh4p2rcd13ifvqe1g","pricing_plan_id":"cebpf4jnsgd1na2vs0mg"},{"bike_id":"876bd36b-cb84-47ca-bab3-dac59701efdd","system_id":"levelo_inurba_marseille","lat":43.28856,"lon":5.358371,"is_reserved":false,"is_disabled":false,"rental_uris":{"android":"levelo://app?vid=876bd36b-cb84-47ca-bab3-dac59701efdd","ios":"levelo://app?vid=876bd36b-cb84-47ca-bab3-dac59701efdd"},"vehicle_type_id":"4","last_reported":1713031669,"current_range_meters":0,"station_id":"ce4bhb12rcd13ifvqem0","pricing_plan_id":"cebpf4jnsgd1na2vs0mg"},{"bike_id":"3f42192a-29d2-4bb6-87aa-9099aa65e90e","system_id":"levelo_inurba_marseille","lat":43.2885,"lon":5.358616,"is_reserved":false,"is_disabled":false,"rental_uris":{"android":"levelo://app?vid=3f42192a-29d2-4bb6-87aa-9099aa65e90e","ios":"levelo://app?vid=3f42192a-29d2-4bb6-87aa-9099aa65e90e"},"vehicle_type_id":"4","last_reported":1713031669,"current_range_meters":0,"station_id":"ce4bhb12rcd13ifvqem0","pricing_plan_id":"cebpf4jnsgd1na2vs0mg"},{"bike_id":"2cc2a59f-2378-48ae-9eac-0c82c0510caa","system_id":"levelo_inurba_marseille","lat":43.288475,"lon":5.35857,"is_reserved":false,"is_disabled":false,"rental_uris":{"android":"levelo://app?vid=2cc2a59f-2378-48ae-9eac-0c82c0510caa","ios":"levelo://app?vid=2cc2a59f-2378-48ae-9eac-0c82c0510caa"},"vehicle_type_id":"4","last_reported":1713031669,"current_range_meters":0,"station_id":"ce4bhb12rcd13ifvqem0","pricing_plan_id":"cebpf4jnsgd1na2vs0mg"},{"bike_id":"aec930d3-d95b-4685-93f4-24772cab6952","system_id":"levelo_inurba_marseille","lat":43.312609,"lon":5.401662,"is_reserved":false,"is_disabled":false,"rental_uris":{"android":"levelo://app?vid=aec930d3-d95b-4685-93f4-24772cab6952","ios":"levelo://app?vid=aec930d3-d95b-4685-93f4-24772cab6952"},"vehicle_type_id":"4","last_reported":1713031669,"current_range_meters":18000,"station_id":"ce4bh092rcd13ifvqd30","pricing_plan_id":"cebpf4jnsgd1na2vs0mg"},{"bike_id":"68d8be03-f6d1-46f2-a453-2da5238745a9","system_id":"levelo_inurba_marseille","lat":43.309371,"lon":5.401449,"is_reserved":false,"is_disabled":false,"rental_uris":{"android":"levelo://app?vid=68d8be03-f6d1-46f2-a453-2da5238745a9","ios":"levelo://app?vid=68d8be03-f6d1-46f2-a453-2da5238745a9"},"vehicle_type_id":"4","last_reported":1713031669,"current_range_meters":29200,"station_id":"ce4bgvp2rcd13ifvqct0","pricing_plan_id":"cebpf4jnsgd1na2vs0mg"},{"bike_id":"c0ff7e7e-deaa-416a-8c35-126ddcde366a","system_id":"levelo_inurba_marseille","lat":43.312609,"lon":5.401662,"is_reserved":false,"is_disabled":false,"rental_uris":{"android":"levelo://app?vid=c0ff7e7e-deaa-416a-8c35-126ddcde366a","ios":"levelo://app?vid=c0ff7e7e-deaa-416a-8c35-126ddcde366a"},"vehicle_type_id":"4","last_reported":1713031669,"current_range_meters":8000,"station_id":"ce4bh092rcd13ifvqd30","pricing_plan_id":"cebpf4jnsgd1na2vs0mg"},{"bike_id":"23c222d8-6f79-4746-97eb-e26706bf6014","system_id":"levelo_inurba_marseille","lat":43.312609,"lon":5.401662,"is_reserved":false,"is_disabled":false,"rental_uris":{"android":"levelo://app?vid=23c222d8-6f79-4746-97eb-e26706bf6014","ios":"levelo://app?vid=23c222d8-6f79-4746-97eb-e26706bf6014"},"vehicle_type_id":"4","last_reported":1713031669,"current_range_meters":17600,"station_id":"ce4bh092rcd13ifvqd30","pricing_plan_id":"cebpf4jnsgd1na2vs0mg"},{"bike_id":"e9bc6536-2254-4628-bbb5-ae6f00115e46","system_id":"levelo_inurba_marseille","lat":43.312609,"lon":5.401662,"is_reserved":false,"is_disabled":false,"rental_uris":{"android":"levelo://app?vid=e9bc6536-2254-4628-bbb5-ae6f00115e46","ios":"levelo://app?vid=e9bc6536-2254-4628-bbb5-ae6f00115e46"},"vehicle_type_id":"4","last_reported":1713031669,"current_range_meters":0,"station_id":"ce4bh092rcd13ifvqd30","pricing_plan_id":"cebpf4jnsgd1na2vs0mg"},{"bike_id":"585e6de1-4edd-4e4c-9c30-2b2b62f5b29d","system_id":"levelo_inurba_marseille","lat":43.309371,"lon":5.401449,"is_reserved":false,"is_disabled":false,"rental_uris":{"android":"levelo://app?vid=585e6de1-4edd-4e4c-9c30-2b2b62f5b29d","ios":"levelo://app?vid=585e6de1-4edd-4e4c-9c30-2b2b62f5b29d"},"vehicle_type_id":"4","last_reported":1713031669,"current_range_meters":1200,"station_id":"ce4bgvp2rcd13ifvqct0","pricing_plan_id":"cebpf4jnsgd1na2vs0mg"},{"bike_id":"71cc5d9a-d305-497b-9583-f2815c310563","system_id":"levelo_inurba_marseille","lat":43.30929,"lon":5.40151,"is_reserved":false,"is_disabled":false,"rental_uris":{"android":"levelo://app?vid=71cc5d9a-d305-497b-9583-f2815c310563","ios":"levelo://app?vid=71cc5d9a-d305-497b-9583-f2815c310563"},"vehicle_type_id":"4","last_reported":1713031669,"current_range_meters":400,"station_id":"ce4bgvp2rcd13ifvqct0","pricing_plan_id":"cebpf4jnsgd1na2vs0mg"},{"bike_id":"d3ea26f4-7d4d-45b7-8172-0133ecd9329b","system_id":"levelo_inurba_marseille","lat":43.337577,"lon":5.374548,"is_reserved":false,"is_disabled":false,"rental_uris":{"android":"levelo://app?vid=d3ea26f4-7d4d-45b7-8172-0133ecd9329b","ios":"levelo://app?vid=d3ea26f4-7d4d-45b7-8172-0133ecd9329b"},"vehicle_type_id":"4","last_reported":1713031669,"current_range_meters":24800,"station_id":"","pricing_plan_id":"cebpf4jnsgd1na2vs0mg"},{"bike_id":"54aa7596-d6e6-4daf-b6ca-bf339e91064f","system_id":"levelo_inurba_marseille","lat":43.306412,"lon":5.401035,"is_reserved":false,"is_disabled":false,"rental_uris":{"android":"levelo://app?vid=54aa7596-d6e6-4daf-b6ca-bf339e91064f","ios":"levelo://app?vid=54aa7596-d6e6-4daf-b6ca-bf339e91064f"},"vehicle_type_id":"4","last_reported":1713031669,"current_range_meters":12000,"station_id":"ce4bh112rcd13ifvqda0","pricing_plan_id":"cebpf4jnsgd1na2vs0mg"},{"bike_id":"7a527b3d-c5a6-4a94-9f1c-ee5bffb24e75","system_id":"levelo_inurba_marseille","lat":43.30642,"lon":5.401031,"is_reserved":false,"is_disabled":false,"rental_uris":{"android":"levelo://app?vid=7a527b3d-c5a6-4a94-9f1c-ee5bffb24e75","ios":"levelo://app?vid=7a527b3d-c5a6-4a94-9f1c-ee5bffb24e75"},"vehicle_type_id":"4","last_reported":1713031669,"current_range_meters":800,"station_id":"ce4bh112rcd13ifvqda0","pricing_plan_id":"cebpf4jnsgd1na2vs0mg"},{"bike_id":"38ee1843-ba6d-43ff-9a22-e01a582f481c","system_id":"levelo_inurba_marseille","lat":43.306434,"lon":5.401026,"is_reserved":false,"is_disabled":false,"rental_uris":{"android":"levelo://app?vid=38ee1843-ba6d-43ff-9a22-e01a582f481c","ios":"levelo://app?vid=38ee1843-ba6d-43ff-9a22-e01a582f481c"},"vehicle_type_id":"4","last_reported":1713031669,"current_range_meters":1200,"station_id":"ce4bh112rcd13ifvqda0","pricing_plan_id":"cebpf4jnsgd1na2vs0mg"},{"bike_id":"254ca328-9dba-49cf-9364-b13a0e68b504","system_id":"levelo_inurba_marseille","lat":43.301117,"lon":5.398795,"is_reserved":false,"is_disabled":false,"rental_uris":{"android":"levelo://app?vid=254ca328-9dba-49cf-9364-b13a0e68b504","ios":"levelo://app?vid=254ca328-9dba-49cf-9364-b13a0e68b504"},"vehicle_type_id":"4","last_reported":1713031669,"current_range_meters":0,"station_id":"ce4bh0h2rcd13ifvqd40","pricing_plan_id":"cebpf4jnsgd1na2vs0mg"},{"bike_id":"51a06e66-2f34-421e-9bd8-79ea231696d9","system_id":"levelo_inurba_marseille","lat":43.30147,"lon":5.39869,"is_reserved":false,"is_disabled":false,"rental_uris":{"android":"levelo://app?vid=51a06e66-2f34-421e-9bd8-79ea231696d9","ios":"levelo://app?vid=51a06e66-2f34-421e-9bd8-79ea231696d9"},"vehicle_type_id":"4","last_reported":1713031669,"current_range_meters":4800,"station_id":"ce4bh0h2rcd13ifvqd40","pricing_plan_id":"cebpf4jnsgd1na2vs0mg"},{"bike_id":"63e6d078-2317-478f-a522-7b825d9c0aba","system_id":"levelo_inurba_marseille","lat":43.301117,"lon":5.398795,"is_reserved":false,"is_disabled":false,"rental_uris":{"android":"levelo://app?vid=63e6d078-2317-478f-a522-7b825d9c0aba","ios":"levelo://app?vid=63e6d078-2317-478f-a522-7b825d9c0aba"},"vehicle_type_id":"4","last_reported":1713031669,"current_range_meters":1600,"station_id":"ce4bh0h2rcd13ifvqd40","pricing_plan_id":"cebpf4jnsgd1na2vs0mg"},{"bike_id":"624f1408-c961-4543-920d-f582ddec1973","system_id":"levelo_inurba_marseille","lat":43.298681,"lon":5.397225,"is_reserved":false,"is_disabled":false,"rental_uris":{"android":"levelo://app?vid=624f1408-c961-4543-920d-f582ddec1973","ios":"levelo://app?vid=624f1408-c961-4543-920d-f582ddec1973"},"vehicle_type_id":"4","last_reported":1713031669,"current_range_meters":0,"station_id":"ce4bh0h2rcd13ifvqd50","pricing_plan_id":"cebpf4jnsgd1na2vs0mg"},{"bike_id":"41bc4d58-6619-4e9d-9d65-881109cb9c63","system_id":"levelo_inurba_marseille","lat":43.287056,"lon":5.373849,"is_reserved":false,"is_disabled":false,"rental_uris":{"android":"levelo://app?vid=41bc4d58-6619-4e9d-9d65-881109cb9c63","ios":"levelo://app?vid=41bc4d58-6619-4e9d-9d65-881109cb9c63"},"vehicle_type_id":"4","last_reported":1713031669,"current_range_meters":0,"station_id":"ce4bh3p2rcd13ifvqdq0","pricing_plan_id":"cebpf4jnsgd1na2vs0mg"},{"bike_id":"fa5753d9-6ce6-49e4-b50a-eed0ce8b88a8","system_id":"levelo_inurba_marseille","lat":43.309371,"lon":5.401449,"is_reserved":false,"is_disabled":false,"rental_uris":{"android":"levelo://app?vid=fa5753d9-6ce6-49e4-b50a-eed0ce8b88a8","ios":"levelo://app?vid=fa5753d9-6ce6-49e4-b50a-eed0ce8b88a8"},"vehicle_type_id":"4","last_reported":1713031669,"current_range_meters":0,"station_id":"ce4bgvp2rcd13ifvqct0","pricing_plan_id":"cebpf4jnsgd1na2vs0mg"},{"bike_id":"ac9513d5-7496-422a-86f5-c29305743cb0","system_id":"levelo_inurba_marseille","lat":43.28699,"lon":5.373921,"is_reserved":false,"is_disabled":false,"rental_uris":{"android":"levelo://app?vid=ac9513d5-7496-422a-86f5-c29305743cb0","ios":"levelo://app?vid=ac9513d5-7496-422a-86f5-c29305743cb0"},"vehicle_type_id":"4","last_reported":1713031669,"current_range_meters":0,"station_id":"ce4bh3p2rcd13ifvqdq0","pricing_plan_id":"cebpf4jnsgd1na2vs0mg"},{"bike_id":"37a5a3e4-ab08-46ec-9b73-bb4a9df9259d","system_id":"levelo_inurba_marseille","lat":43.290345,"lon":5.38646,"is_reserved":false,"is_disabled":false,"rental_uris":{"android":"levelo://app?vid=37a5a3e4-ab08-46ec-9b73-bb4a9df9259d","ios":"levelo://app?vid=37a5a3e4-ab08-46ec-9b73-bb4a9df9259d"},"vehicle_type_id":"4","last_reported":1713031669,"current_range_meters":800,"station_id":"ce4bh4p2rcd13ifvqe0g","pricing_plan_id":"cebpf4jnsgd1na2vs0mg"},{"bike_id":"b02abaf6-8a65-46d6-8501-b76deadc886e","system_id":"levelo_inurba_marseille","lat":43.290336,"lon":5.386425,"is_reserved":false,"is_disabled":false,"rental_uris":{"android":"levelo://app?vid=b02abaf6-8a65-46d6-8501-b76deadc886e","ios":"levelo://app?vid=b02abaf6-8a65-46d6-8501-b76deadc886e"},"vehicle_type_id":"4","last_reported":1713031669,"current_range_meters":0,"station_id":"ce4bh4p2rcd13ifvqe0g","pricing_plan_id":"cebpf4jnsgd1na2vs0mg"},{"bike_id":"b1cb9f7f-aa20-4fd5-b924-33755a9973f8","system_id":"levelo_inurba_marseille","lat":43.295194,"lon":5.39397,"is_reserved":false,"is_disabled":false,"rental_uris":{"android":"levelo://app?vid=b1cb9f7f-aa20-4fd5-b924-33755a9973f8","ios":"levelo://app?vid=b1cb9f7f-aa20-4fd5-b924-33755a9973f8"},"vehicle_type_id":"4","last_reported":1713031669,"current_range_meters":0,"station_id":"ce4bh292rcd13ifvqdf0","pricing_plan_id":"cebpf4jnsgd1na2vs0mg"},{"bike_id":"c8903235-4024-476e-9b95-da4f049e34a2","system_id":"levelo_inurba_marseille","lat":43.290336,"lon":5.386425,"is_reserved":false,"is_disabled":false,"rental_uris":{"android":"levelo://app?vid=c8903235-4024-476e-9b95-da4f049e34a2","ios":"levelo://app?vid=c8903235-4024-476e-9b95-da4f049e34a2"},"vehicle_type_id":"4","last_reported":1713031669,"current_range_meters":22400,"station_id":"ce4bh4p2rcd13ifvqe0g","pricing_plan_id":"cebpf4jnsgd1na2vs0mg"},{"bike_id":"90085009-a1f1-4185-87c1-2feb06b484e8","system_id":"levelo_inurba_marseille","lat":43.29038,"lon":5.38647,"is_reserved":false,"is_disabled":false,"rental_uris":{"android":"levelo://app?vid=90085009-a1f1-4185-87c1-2feb06b484e8","ios":"levelo://app?vid=90085009-a1f1-4185-87c1-2feb06b484e8"},"vehicle_type_id":"4","last_reported":1713031669,"current_range_meters":0,"station_id":"ce4bh4p2rcd13ifvqe0g","pricing_plan_id":"cebpf4jnsgd1na2vs0mg"},{"bike_id":"1d3f8936-8e3b-4fed-b292-42953b00c218","system_id":"levelo_inurba_marseille","lat":43.289307,"lon":5.38406,"is_reserved":false,"is_disabled":false,"rental_uris":{"android":"levelo://app?vid=1d3f8936-8e3b-4fed-b292-42953b00c218","ios":"levelo://app?vid=1d3f8936-8e3b-4fed-b292-42953b00c218"},"vehicle_type_id":"4","last_reported":1713031669,"current_range_meters":0,"station_id":"ce4bh612rcd13ifvqe6g","pricing_plan_id":"cebpf4jnsgd1na2vs0mg"},{"bike_id":"fd3a499f-ec4f-4e3d-9994-e3691ba67eb2","system_id":"levelo_inurba_marseille","lat":43.290336,"lon":5.386425,"is_reserved":false,"is_disabled":false,"rental_uris":{"android":"levelo://app?vid=fd3a499f-ec4f-4e3d-9994-e3691ba67eb2","ios":"levelo://app?vid=fd3a499f-ec4f-4e3d-9994-e3691ba67eb2"},"vehicle_type_id":"4","last_reported":1713031669,"current_range_meters":0,"station_id":"ce4bh4p2rcd13ifvqe0g","pricing_plan_id":"cebpf4jnsgd1na2vs0mg"},{"bike_id":"67b648c4-4a53-41b3-9d3e-f1e38b467cae","system_id":"levelo_inurba_marseille","lat":43.290336,"lon":5.386425,"is_reserved":false,"is_disabled":false,"rental_uris":{"android":"levelo://app?vid=67b648c4-4a53-41b3-9d3e-f1e38b467cae","ios":"levelo://app?vid=67b648c4-4a53-41b3-9d3e-f1e38b467cae"},"vehicle_type_id":"4","last_reported":1713031669,"current_range_meters":0,"station_id":"ce4bh4p2rcd13ifvqe0g","pricing_plan_id":"cebpf4jnsgd1na2vs0mg"},{"bike_id":"27d08eff-90ae-498b-a003-a8f59255fbdd","system_id":"levelo_inurba_marseille","lat":43.286039,"lon":5.370679,"is_reserved":false,"is_disabled":false,"rental_uris":{"android":"levelo://app?vid=27d08eff-90ae-498b-a003-a8f59255fbdd","ios":"levelo://app?vid=27d08eff-90ae-498b-a003-a8f59255fbdd"},"vehicle_type_id":"4","last_reported":1713031669,"current_range_meters":22800,"station_id":"ce4bht12rcd13ifvqi60","pricing_plan_id":"cebpf4jnsgd1na2vs0mg"},{"bike_id":"7bfd62f8-f0a4-46d0-acca-a7570ad89195","system_id":"levelo_inurba_marseille","lat":43.287108,"lon":5.379383,"is_reserved":false,"is_disabled":false,"rental_uris":{"android":"levelo://app?vid=7bfd62f8-f0a4-46d0-acca-a7570ad89195","ios":"levelo://app?vid=7bfd62f8-f0a4-46d0-acca-a7570ad89195"},"vehicle_type_id":"4","last_reported":1713031669,"current_range_meters":0,"station_id":"ce4bh9p2rcd13ifvqec0","pricing_plan_id":"cebpf4jnsgd1na2vs0mg"},{"bike_id":"2255aae9-5cd4-483e-9bb7-0d90c1a86c4e","system_id":"levelo_inurba_marseille","lat":43.31682,"lon":5.40469,"is_reserved":false,"is_disabled":false,"rental_uris":{"android":"levelo://app?vid=2255aae9-5cd4-483e-9bb7-0d90c1a86c4e","ios":"levelo://app?vid=2255aae9-5cd4-483e-9bb7-0d90c1a86c4e"},"vehicle_type_id":"4","last_reported":1713031669,"current_range_meters":0,"station_id":"ce4bh012rcd13ifvqd00","pricing_plan_id":"cebpf4jnsgd1na2vs0mg"},{"bike_id":"8ddfb2e7-99d1-4b4a-8b86-5ca15bfbfdd0","system_id":"levelo_inurba_marseille","lat":43.316821,"lon":5.404737,"is_reserved":false,"is_disabled":false,"rental_uris":{"android":"levelo://app?vid=8ddfb2e7-99d1-4b4a-8b86-5ca15bfbfdd0","ios":"levelo://app?vid=8ddfb2e7-99d1-4b4a-8b86-5ca15bfbfdd0"},"vehicle_type_id":"4","last_reported":1713031669,"current_range_meters":2800,"station_id":"ce4bh012rcd13ifvqd00","pricing_plan_id":"cebpf4jnsgd1na2vs0mg"},{"bike_id":"99f95891-b2c6-4f1a-a71b-f17815f2802f","system_id":"levelo_inurba_marseille","lat":43.316845,"lon":5.404688,"is_reserved":false,"is_disabled":false,"rental_uris":{"android":"levelo://app?vid=99f95891-b2c6-4f1a-a71b-f17815f2802f","ios":"levelo://app?vid=99f95891-b2c6-4f1a-a71b-f17815f2802f"},"vehicle_type_id":"4","last_reported":1713031669,"current_range_meters":5200,"station_id":"ce4bh012rcd13ifvqd00","pricing_plan_id":"cebpf4jnsgd1na2vs0mg"},{"bike_id":"adad8cdc-6e3b-4c12-9a18-9385b419092b","system_id":"levelo_inurba_marseille","lat":43.31686,"lon":5.4047,"is_reserved":false,"is_disabled":false,"rental_uris":{"android":"levelo://app?vid=adad8cdc-6e3b-4c12-9a18-9385b419092b","ios":"levelo://app?vid=adad8cdc-6e3b-4c12-9a18-9385b419092b"},"vehicle_type_id":"4","last_reported":1713031669,"current_range_meters":4400,"station_id":"ce4bh012rcd13ifvqd00","pricing_plan_id":"cebpf4jnsgd1na2vs0mg"},{"bike_id":"75a7df37-00e5-4a4f-8833-a20457736778","system_id":"levelo_inurba_marseille","lat":43.31685,"lon":5.40473,"is_reserved":false,"is_disabled":false,"rental_uris":{"android":"levelo://app?vid=75a7df37-00e5-4a4f-8833-a20457736778","ios":"levelo://app?vid=75a7df37-00e5-4a4f-8833-a20457736778"},"vehicle_type_id":"4","last_reported":1713031669,"current_range_meters":4400,"station_id":"ce4bh012rcd13ifvqd00","pricing_plan_id":"cebpf4jnsgd1na2vs0mg"},{"bike_id":"ec1687b7-38c0-4451-9a77-9a0e1e818004","system_id":"levelo_inurba_marseille","lat":43.31684,"lon":5.40475,"is_reserved":false,"is_disabled":false,"rental_uris":{"android":"levelo://app?vid=ec1687b7-38c0-4451-9a77-9a0e1e818004","ios":"levelo://app?vid=ec1687b7-38c0-4451-9a77-9a0e1e818004"},"vehicle_type_id":"4","last_reported":1713031669,"current_range_meters":0,"station_id":"ce4bh012rcd13ifvqd00","pricing_plan_id":"cebpf4jnsgd1na2vs0mg"},{"bike_id":"4c95e542-c40c-4667-b409-bdf0ec19be4f","system_id":"levelo_inurba_marseille","lat":43.31689,"lon":5.40474,"is_reserved":false,"is_disabled":false,"rental_uris":{"android":"levelo://app?vid=4c95e542-c40c-4667-b409-bdf0ec19be4f","ios":"levelo://app?vid=4c95e542-c40c-4667-b409-bdf0ec19be4f"},"vehicle_type_id":"4","last_reported":1713031669,"current_range_meters":13200,"station_id":"ce4bh012rcd13ifvqd00","pricing_plan_id":"cebpf4jnsgd1na2vs0mg"},{"bike_id":"08578390-1a7e-4783-89da-f0fe069e2d37","system_id":"levelo_inurba_marseille","lat":43.316821,"lon":5.404737,"is_reserved":false,"is_disabled":false,"rental_uris":{"android":"levelo://app?vid=08578390-1a7e-4783-89da-f0fe069e2d37","ios":"levelo://app?vid=08578390-1a7e-4783-89da-f0fe069e2d37"},"vehicle_type_id":"4","last_reported":1713031669,"current_range_meters":31600,"station_id":"ce4bh012rcd13ifvqd00","pricing_plan_id":"cebpf4jnsgd1na2vs0mg"},{"bike_id":"d711aff4-0def-47bd-be82-6f0cd19c3b84","system_id":"levelo_inurba_marseille","lat":43.284538,"lon":5.358657,"is_reserved":false,"is_disabled":false,"rental_uris":{"android":"levelo://app?vid=d711aff4-0def-47bd-be82-6f0cd19c3b84","ios":"levelo://app?vid=d711aff4-0def-47bd-be82-6f0cd19c3b84"},"vehicle_type_id":"4","last_reported":1713031669,"current_range_meters":2800,"station_id":"ce4bhah2rcd13ifvqei0","pricing_plan_id":"cebpf4jnsgd1na2vs0mg"},{"bike_id":"33a1d37d-1097-4517-a6ec-61972a254a37","system_id":"levelo_inurba_marseille","lat":43.316917,"lon":5.405025,"is_reserved":false,"is_disabled":false,"rental_uris":{"android":"levelo://app?vid=33a1d37d-1097-4517-a6ec-61972a254a37","ios":"levelo://app?vid=33a1d37d-1097-4517-a6ec-61972a254a37"},"vehicle_type_id":"4","last_reported":1713031669,"current_range_meters":12000,"station_id":"ce4bh012rcd13ifvqd00","pricing_plan_id":"cebpf4jnsgd1na2vs0mg"},{"bike_id":"001d59d3-1f2d-4e7a-a139-9e53081d65fd","system_id":"levelo_inurba_marseille","lat":43.291994,"lon":5.392907,"is_reserved":false,"is_disabled":false,"rental_uris":{"android":"levelo://app?vid=001d59d3-1f2d-4e7a-a139-9e53081d65fd","ios":"levelo://app?vid=001d59d3-1f2d-4e7a-a139-9e53081d65fd"},"vehicle_type_id":"4","last_reported":1713031669,"current_range_meters":12400,"station_id":"ce4bh192rcd13ifvqdd0","pricing_plan_id":"cebpf4jnsgd1na2vs0mg"},{"bike_id":"53a3d213-91c1-4a04-87dd-45f9aff5c7b0","system_id":"levelo_inurba_marseille","lat":43.29201,"lon":5.39312,"is_reserved":false,"is_disabled":false,"rental_uris":{"android":"levelo://app?vid=53a3d213-91c1-4a04-87dd-45f9aff5c7b0","ios":"levelo://app?vid=53a3d213-91c1-4a04-87dd-45f9aff5c7b0"},"vehicle_type_id":"4","last_reported":1713031669,"current_range_meters":0,"station_id":"ce4bh192rcd13ifvqdd0","pricing_plan_id":"cebpf4jnsgd1na2vs0mg"},{"bike_id":"8746a713-d4ba-4844-ba27-c200145c3bf8","system_id":"levelo_inurba_marseille","lat":43.316821,"lon":5.404737,"is_reserved":false,"is_disabled":false,"rental_uris":{"android":"levelo://app?vid=8746a713-d4ba-4844-ba27-c200145c3bf8","ios":"levelo://app?vid=8746a713-d4ba-4844-ba27-c200145c3bf8"},"vehicle_type_id":"4","last_reported":1713031669,"current_range_meters":0,"station_id":"ce4bh012rcd13ifvqd00","pricing_plan_id":"cebpf4jnsgd1na2vs0mg"},{"bike_id":"265fa289-7571-4c94-9baf-a7b4db19e19a","system_id":"levelo_inurba_marseille","lat":43.294314,"lon":5.397498,"is_reserved":false,"is_disabled":false,"rental_uris":{"android":"levelo://app?vid=265fa289-7571-4c94-9baf-a7b4db19e19a","ios":"levelo://app?vid=265fa289-7571-4c94-9baf-a7b4db19e19a"},"vehicle_type_id":"4","last_reported":1713031669,"current_range_meters":9600,"station_id":"ce4bh3h2rcd13ifvqdo0","pricing_plan_id":"cebpf4jnsgd1na2vs0mg"},{"bike_id":"15b9a25b-0a22-407e-9198-4f5ec113b213","system_id":"levelo_inurba_marseille","lat":43.284666,"lon":5.358907,"is_reserved":false,"is_disabled":false,"rental_uris":{"android":"levelo://app?vid=15b9a25b-0a22-407e-9198-4f5ec113b213","ios":"levelo://app?vid=15b9a25b-0a22-407e-9198-4f5ec113b213"},"vehicle_type_id":"4","last_reported":1713031669,"current_range_meters":0,"station_id":"ce4bhah2rcd13ifvqei0","pricing_plan_id":"cebpf4jnsgd1na2vs0mg"},{"bike_id":"3e9d28e9-1fbb-4114-bcdd-5d42c584f500","system_id":"levelo_inurba_marseille","lat":43.284538,"lon":5.358657,"is_reserved":false,"is_disabled":false,"rental_uris":{"android":"levelo://app?vid=3e9d28e9-1fbb-4114-bcdd-5d42c584f500","ios":"levelo://app?vid=3e9d28e9-1fbb-4114-bcdd-5d42c584f500"},"vehicle_type_id":"4","last_reported":1713031669,"current_range_meters":1600,"station_id":"ce4bhah2rcd13ifvqei0","pricing_plan_id":"cebpf4jnsgd1na2vs0mg"},{"bike_id":"2021233a-b379-4293-a938-f0585bab3a64","system_id":"levelo_inurba_marseille","lat":43.294314,"lon":5.397498,"is_reserved":false,"is_disabled":false,"rental_uris":{"android":"levelo://app?vid=2021233a-b379-4293-a938-f0585bab3a64","ios":"levelo://app?vid=2021233a-b379-4293-a938-f0585bab3a64"},"vehicle_type_id":"4","last_reported":1713031669,"current_range_meters":13600,"station_id":"ce4bh3h2rcd13ifvqdo0","pricing_plan_id":"cebpf4jnsgd1na2vs0mg"},{"bike_id":"64728b7b-ddca-4ca4-b438-12765255a43d","system_id":"levelo_inurba_marseille","lat":43.284524,"lon":5.358751,"is_reserved":false,"is_disabled":false,"rental_uris":{"android":"levelo://app?vid=64728b7b-ddca-4ca4-b438-12765255a43d","ios":"levelo://app?vid=64728b7b-ddca-4ca4-b438-12765255a43d"},"vehicle_type_id":"4","last_reported":1713031669,"current_range_meters":21200,"station_id":"ce4bhah2rcd13ifvqei0","pricing_plan_id":"cebpf4jnsgd1na2vs0mg"},{"bike_id":"bb6d3875-a0c2-4eb7-91c7-c73600cf8af6","system_id":"levelo_inurba_marseille","lat":43.28617,"lon":5.35103,"is_reserved":false,"is_disabled":false,"rental_uris":{"android":"levelo://app?vid=bb6d3875-a0c2-4eb7-91c7-c73600cf8af6","ios":"levelo://app?vid=bb6d3875-a0c2-4eb7-91c7-c73600cf8af6"},"vehicle_type_id":"4","last_reported":1713031669,"current_range_meters":21200,"station_id":"ce4bh512rcd13ifvqe2g","pricing_plan_id":"cebpf4jnsgd1na2vs0mg"},{"bike_id":"7277cf47-d92d-4d04-8577-956ec488da3a","system_id":"levelo_inurba_marseille","lat":43.284538,"lon":5.358657,"is_reserved":false,"is_disabled":false,"rental_uris":{"android":"levelo://app?vid=7277cf47-d92d-4d04-8577-956ec488da3a","ios":"levelo://app?vid=7277cf47-d92d-4d04-8577-956ec488da3a"},"vehicle_type_id":"4","last_reported":1713031669,"current_range_meters":2400,"station_id":"ce4bhah2rcd13ifvqei0","pricing_plan_id":"cebpf4jnsgd1na2vs0mg"},{"bike_id":"ff7e09db-b01f-4088-bb6f-3fbada462a91","system_id":"levelo_inurba_marseille","lat":43.296354,"lon":5.400021,"is_reserved":false,"is_disabled":false,"rental_uris":{"android":"levelo://app?vid=ff7e09db-b01f-4088-bb6f-3fbada462a91","ios":"levelo://app?vid=ff7e09db-b01f-4088-bb6f-3fbada462a91"},"vehicle_type_id":"4","last_reported":1713031669,"current_range_meters":4400,"station_id":"","pricing_plan_id":"cebpf4jnsgd1na2vs0mg"},{"bike_id":"b44c78c2-0765-4193-afb3-34c5d3accaa7","system_id":"levelo_inurba_marseille","lat":43.295713,"lon":5.399639,"is_reserved":false,"is_disabled":false,"rental_uris":{"android":"levelo://app?vid=b44c78c2-0765-4193-afb3-34c5d3accaa7","ios":"levelo://app?vid=b44c78c2-0765-4193-afb3-34c5d3accaa7"},"vehicle_type_id":"4","last_reported":1713031669,"current_range_meters":0,"station_id":"ce4bh312rcd13ifvqdj0","pricing_plan_id":"cebpf4jnsgd1na2vs0mg"},{"bike_id":"375aff79-c228-4eca-aed4-d48f72d93fa7","system_id":"levelo_inurba_marseille","lat":43.319179,"lon":5.407725,"is_reserved":false,"is_disabled":false,"rental_uris":{"android":"levelo://app?vid=375aff79-c228-4eca-aed4-d48f72d93fa7","ios":"levelo://app?vid=375aff79-c228-4eca-aed4-d48f72d93fa7"},"vehicle_type_id":"4","last_reported":1713031669,"current_range_meters":13200,"station_id":"ce4bhq12rcd13ifvqhig","pricing_plan_id":"cebpf4jnsgd1na2vs0mg"},{"bike_id":"0da887e6-69de-4174-be7c-a113f7b7af15","system_id":"levelo_inurba_marseille","lat":43.29574,"lon":5.39977,"is_reserved":false,"is_disabled":false,"rental_uris":{"android":"levelo://app?vid=0da887e6-69de-4174-be7c-a113f7b7af15","ios":"levelo://app?vid=0da887e6-69de-4174-be7c-a113f7b7af15"},"vehicle_type_id":"4","last_reported":1713031669,"current_range_meters":0,"station_id":"ce4bh312rcd13ifvqdj0","pricing_plan_id":"cebpf4jnsgd1na2vs0mg"},{"bike_id":"e421e558-c1e0-4d13-bbf2-3288178f308b","system_id":"levelo_inurba_marseille","lat":43.283998,"lon":5.375062,"is_reserved":false,"is_disabled":false,"rental_uris":{"android":"levelo://app?vid=e421e558-c1e0-4d13-bbf2-3288178f308b","ios":"levelo://app?vid=e421e558-c1e0-4d13-bbf2-3288178f308b"},"vehicle_type_id":"4","last_reported":1713031669,"current_range_meters":1200,"station_id":"ce4bh412rcd13ifvqds0","pricing_plan_id":"cebpf4jnsgd1na2vs0mg"},{"bike_id":"af950bad-834a-423b-9b6d-717d6547874d","system_id":"levelo_inurba_marseille","lat":43.28685,"lon":5.38647,"is_reserved":false,"is_disabled":false,"rental_uris":{"android":"levelo://app?vid=af950bad-834a-423b-9b6d-717d6547874d","ios":"levelo://app?vid=af950bad-834a-423b-9b6d-717d6547874d"},"vehicle_type_id":"4","last_reported":1713031669,"current_range_meters":0,"station_id":"ce4bh492rcd13ifvqdug","pricing_plan_id":"cebpf4jnsgd1na2vs0mg"},{"bike_id":"82594406-ffcf-4f37-9b3f-9a8bcaa5666e","system_id":"levelo_inurba_marseille","lat":43.286595,"lon":5.386795,"is_reserved":false,"is_disabled":false,"rental_uris":{"android":"levelo://app?vid=82594406-ffcf-4f37-9b3f-9a8bcaa5666e","ios":"levelo://app?vid=82594406-ffcf-4f37-9b3f-9a8bcaa5666e"},"vehicle_type_id":"4","last_reported":1713031669,"current_range_meters":2000,"station_id":"ce4bh492rcd13ifvqdug","pricing_plan_id":"cebpf4jnsgd1na2vs0mg"},{"bike_id":"c78441d6-26a8-4762-9555-eed367143d34","system_id":"levelo_inurba_marseille","lat":43.319179,"lon":5.407725,"is_reserved":false,"is_disabled":false,"rental_uris":{"android":"levelo://app?vid=c78441d6-26a8-4762-9555-eed367143d34","ios":"levelo://app?vid=c78441d6-26a8-4762-9555-eed367143d34"},"vehicle_type_id":"4","last_reported":1713031669,"current_range_meters":2000,"station_id":"ce4bhq12rcd13ifvqhig","pricing_plan_id":"cebpf4jnsgd1na2vs0mg"},{"bike_id":"6b353f42-caee-4cc1-9fb1-5688ebb1bf50","system_id":"levelo_inurba_marseille","lat":43.319179,"lon":5.407725,"is_reserved":false,"is_disabled":false,"rental_uris":{"android":"levelo://app?vid=6b353f42-caee-4cc1-9fb1-5688ebb1bf50","ios":"levelo://app?vid=6b353f42-caee-4cc1-9fb1-5688ebb1bf50"},"vehicle_type_id":"4","last_reported":1713031669,"current_range_meters":10400,"station_id":"ce4bhq12rcd13ifvqhig","pricing_plan_id":"cebpf4jnsgd1na2vs0mg"},{"bike_id":"11ac603b-2891-45af-8e0b-4fc0839527e8","system_id":"levelo_inurba_marseille","lat":43.323464,"lon":5.406297,"is_reserved":false,"is_disabled":false,"rental_uris":{"android":"levelo://app?vid=11ac603b-2891-45af-8e0b-4fc0839527e8","ios":"levelo://app?vid=11ac603b-2891-45af-8e0b-4fc0839527e8"},"vehicle_type_id":"4","last_reported":1713031669,"current_range_meters":12400,"station_id":"ce4bhq92rcd13ifvqhjg","pricing_plan_id":"cebpf4jnsgd1na2vs0mg"},{"bike_id":"fe5c1c52-9b51-4a74-b9d2-75211b701327","system_id":"levelo_inurba_marseille","lat":43.32336,"lon":5.40622,"is_reserved":false,"is_disabled":false,"rental_uris":{"android":"levelo://app?vid=fe5c1c52-9b51-4a74-b9d2-75211b701327","ios":"levelo://app?vid=fe5c1c52-9b51-4a74-b9d2-75211b701327"},"vehicle_type_id":"4","last_reported":1713031669,"current_range_meters":5600,"station_id":"ce4bhq92rcd13ifvqhjg","pricing_plan_id":"cebpf4jnsgd1na2vs0mg"},{"bike_id":"3acb0aab-2a59-467c-96d7-3fdc00e2c6ef","system_id":"levelo_inurba_marseille","lat":43.284793,"lon":5.384119,"is_reserved":false,"is_disabled":false,"rental_uris":{"android":"levelo://app?vid=3acb0aab-2a59-467c-96d7-3fdc00e2c6ef","ios":"levelo://app?vid=3acb0aab-2a59-467c-96d7-3fdc00e2c6ef"},"vehicle_type_id":"4","last_reported":1713031669,"current_range_meters":23200,"station_id":"ce4bh512rcd13ifvqe3g","pricing_plan_id":"cebpf4jnsgd1na2vs0mg"},{"bike_id":"0369b8f6-b5d3-4b9f-ba8e-b71ecd8fcf31","system_id":"levelo_inurba_marseille","lat":43.284665,"lon":5.350124,"is_reserved":false,"is_disabled":false,"rental_uris":{"android":"levelo://app?vid=0369b8f6-b5d3-4b9f-ba8e-b71ecd8fcf31","ios":"levelo://app?vid=0369b8f6-b5d3-4b9f-ba8e-b71ecd8fcf31"},"vehicle_type_id":"4","last_reported":1713031669,"current_range_meters":24000,"station_id":"ce4bhbh2rcd13ifvqepg","pricing_plan_id":"cebpf4jnsgd1na2vs0mg"},{"bike_id":"df47d4f9-dbcc-491e-9e82-d2700dfe2529","system_id":"levelo_inurba_marseille","lat":43.28467,"lon":5.38413,"is_reserved":false,"is_disabled":false,"rental_uris":{"android":"levelo://app?vid=df47d4f9-dbcc-491e-9e82-d2700dfe2529","ios":"levelo://app?vid=df47d4f9-dbcc-491e-9e82-d2700dfe2529"},"vehicle_type_id":"4","last_reported":1713031669,"current_range_meters":0,"station_id":"ce4bh512rcd13ifvqe3g","pricing_plan_id":"cebpf4jnsgd1na2vs0mg"},{"bike_id":"f041ed0a-b6b9-4553-95b6-b491a563f4d1","system_id":"levelo_inurba_marseille","lat":43.284793,"lon":5.384119,"is_reserved":false,"is_disabled":false,"rental_uris":{"android":"levelo://app?vid=f041ed0a-b6b9-4553-95b6-b491a563f4d1","ios":"levelo://app?vid=f041ed0a-b6b9-4553-95b6-b491a563f4d1"},"vehicle_type_id":"4","last_reported":1713031669,"current_range_meters":21200,"station_id":"ce4bh512rcd13ifvqe3g","pricing_plan_id":"cebpf4jnsgd1na2vs0mg"},{"bike_id":"5309f90e-8379-47d9-8ebe-4c8c3097a669","system_id":"levelo_inurba_marseille","lat":43.297996,"lon":5.404084,"is_reserved":false,"is_disabled":false,"rental_uris":{"android":"levelo://app?vid=5309f90e-8379-47d9-8ebe-4c8c3097a669","ios":"levelo://app?vid=5309f90e-8379-47d9-8ebe-4c8c3097a669"},"vehicle_type_id":"4","last_reported":1713031669,"current_range_meters":12800,"station_id":"ce4bh112rcd13ifvqd90","pricing_plan_id":"cebpf4jnsgd1na2vs0mg"},{"bike_id":"4231e44f-6e64-47d9-802b-1946e9c53ecf","system_id":"levelo_inurba_marseille","lat":43.32532,"lon":5.40558,"is_reserved":false,"is_disabled":false,"rental_uris":{"android":"levelo://app?vid=4231e44f-6e64-47d9-802b-1946e9c53ecf","ios":"levelo://app?vid=4231e44f-6e64-47d9-802b-1946e9c53ecf"},"vehicle_type_id":"4","last_reported":1713031669,"current_range_meters":4400,"station_id":"","pricing_plan_id":"cebpf4jnsgd1na2vs0mg"},{"bike_id":"d9ca1156-ced6-4c3a-8439-a241fabfb770","system_id":"levelo_inurba_marseille","lat":43.32533,"lon":5.40562,"is_reserved":false,"is_disabled":false,"rental_uris":{"android":"levelo://app?vid=d9ca1156-ced6-4c3a-8439-a241fabfb770","ios":"levelo://app?vid=d9ca1156-ced6-4c3a-8439-a241fabfb770"},"vehicle_type_id":"4","last_reported":1713031669,"current_range_meters":8400,"station_id":"","pricing_plan_id":"cebpf4jnsgd1na2vs0mg"},{"bike_id":"9220796c-850a-4542-af32-b23061a1144d","system_id":"levelo_inurba_marseille","lat":43.288501,"lon":5.393087,"is_reserved":false,"is_disabled":false,"rental_uris":{"android":"levelo://app?vid=9220796c-850a-4542-af32-b23061a1144d","ios":"levelo://app?vid=9220796c-850a-4542-af32-b23061a1144d"},"vehicle_type_id":"4","last_reported":1713031669,"current_range_meters":0,"station_id":"ce4bh2p2rcd13ifvqdi0","pricing_plan_id":"cebpf4jnsgd1na2vs0mg"},{"bike_id":"16354239-de35-43ca-875c-92bb4a5ace82","system_id":"levelo_inurba_marseille","lat":43.32534,"lon":5.40567,"is_reserved":false,"is_disabled":false,"rental_uris":{"android":"levelo://app?vid=16354239-de35-43ca-875c-92bb4a5ace82","ios":"levelo://app?vid=16354239-de35-43ca-875c-92bb4a5ace82"},"vehicle_type_id":"4","last_reported":1713031669,"current_range_meters":23600,"station_id":"","pricing_plan_id":"cebpf4jnsgd1na2vs0mg"},{"bike_id":"8cf3f0c4-c5c4-4668-b153-54e6146f318a","system_id":"levelo_inurba_marseille","lat":43.283494,"lon":5.380945,"is_reserved":false,"is_disabled":false,"rental_uris":{"android":"levelo://app?vid=8cf3f0c4-c5c4-4668-b153-54e6146f318a","ios":"levelo://app?vid=8cf3f0c4-c5c4-4668-b153-54e6146f318a"},"vehicle_type_id":"4","last_reported":1713031669,"current_range_meters":1600,"station_id":"ce4bh412rcd13ifvqdr0","pricing_plan_id":"cebpf4jnsgd1na2vs0mg"},{"bike_id":"30a7d8ad-bb9f-4d38-be19-9967cdf17581","system_id":"levelo_inurba_marseille","lat":43.283498,"lon":5.380948,"is_reserved":false,"is_disabled":false,"rental_uris":{"android":"levelo://app?vid=30a7d8ad-bb9f-4d38-be19-9967cdf17581","ios":"levelo://app?vid=30a7d8ad-bb9f-4d38-be19-9967cdf17581"},"vehicle_type_id":"4","last_reported":1713031669,"current_range_meters":5600,"station_id":"ce4bh412rcd13ifvqdr0","pricing_plan_id":"cebpf4jnsgd1na2vs0mg"},{"bike_id":"b97f21dd-d885-4f71-b72f-429d9821939f","system_id":"levelo_inurba_marseille","lat":43.288501,"lon":5.393087,"is_reserved":false,"is_disabled":false,"rental_uris":{"android":"levelo://app?vid=b97f21dd-d885-4f71-b72f-429d9821939f","ios":"levelo://app?vid=b97f21dd-d885-4f71-b72f-429d9821939f"},"vehicle_type_id":"4","last_reported":1713031669,"current_range_meters":24000,"station_id":"ce4bh2p2rcd13ifvqdi0","pricing_plan_id":"cebpf4jnsgd1na2vs0mg"},{"bike_id":"cfe2af4c-be5c-42f3-aede-2d8c261b184e","system_id":"levelo_inurba_marseille","lat":43.284219,"lon":5.3497,"is_reserved":false,"is_disabled":false,"rental_uris":{"android":"levelo://app?vid=cfe2af4c-be5c-42f3-aede-2d8c261b184e","ios":"levelo://app?vid=cfe2af4c-be5c-42f3-aede-2d8c261b184e"},"vehicle_type_id":"4","last_reported":1713031669,"current_range_meters":26000,"station_id":"ce4bhbh2rcd13ifvqepg","pricing_plan_id":"cebpf4jnsgd1na2vs0mg"},{"bike_id":"1c489f5f-7e48-42b7-b03d-3eb516a804b2","system_id":"levelo_inurba_marseille","lat":43.284217,"lon":5.349697,"is_reserved":false,"is_disabled":false,"rental_uris":{"android":"levelo://app?vid=1c489f5f-7e48-42b7-b03d-3eb516a804b2","ios":"levelo://app?vid=1c489f5f-7e48-42b7-b03d-3eb516a804b2"},"vehicle_type_id":"4","last_reported":1713031669,"current_range_meters":28000,"station_id":"ce4bhbh2rcd13ifvqepg","pricing_plan_id":"cebpf4jnsgd1na2vs0mg"},{"bike_id":"f21de54a-b490-491e-9f4c-e20dc35c7a1f","system_id":"levelo_inurba_marseille","lat":43.284178,"lon":5.34988,"is_reserved":false,"is_disabled":false,"rental_uris":{"android":"levelo://app?vid=f21de54a-b490-491e-9f4c-e20dc35c7a1f","ios":"levelo://app?vid=f21de54a-b490-491e-9f4c-e20dc35c7a1f"},"vehicle_type_id":"4","last_reported":1713031669,"current_range_meters":30000,"station_id":"ce4bhbh2rcd13ifvqepg","pricing_plan_id":"cebpf4jnsgd1na2vs0mg"},{"bike_id":"5a11ab89-3ba9-445c-bc16-af11d4ebd769","system_id":"levelo_inurba_marseille","lat":43.284193,"lon":5.349788,"is_reserved":false,"is_disabled":false,"rental_uris":{"android":"levelo://app?vid=5a11ab89-3ba9-445c-bc16-af11d4ebd769","ios":"levelo://app?vid=5a11ab89-3ba9-445c-bc16-af11d4ebd769"},"vehicle_type_id":"4","last_reported":1713031669,"current_range_meters":26400,"station_id":"ce4bhbh2rcd13ifvqepg","pricing_plan_id":"cebpf4jnsgd1na2vs0mg"},{"bike_id":"d18f77cd-7544-4eb3-90ab-027d5bf36c69","system_id":"levelo_inurba_marseille","lat":43.283494,"lon":5.380945,"is_reserved":false,"is_disabled":false,"rental_uris":{"android":"levelo://app?vid=d18f77cd-7544-4eb3-90ab-027d5bf36c69","ios":"levelo://app?vid=d18f77cd-7544-4eb3-90ab-027d5bf36c69"},"vehicle_type_id":"4","last_reported":1713031669,"current_range_meters":3600,"station_id":"ce4bh412rcd13ifvqdr0","pricing_plan_id":"cebpf4jnsgd1na2vs0mg"},{"bike_id":"72681760-716f-473b-9841-f1269f475b11","system_id":"levelo_inurba_marseille","lat":43.28415,"lon":5.34974,"is_reserved":false,"is_disabled":false,"rental_uris":{"android":"levelo://app?vid=72681760-716f-473b-9841-f1269f475b11","ios":"levelo://app?vid=72681760-716f-473b-9841-f1269f475b11"},"vehicle_type_id":"4","last_reported":1713031669,"current_range_meters":28800,"station_id":"ce4bhbh2rcd13ifvqepg","pricing_plan_id":"cebpf4jnsgd1na2vs0mg"},{"bike_id":"cfb6735d-d685-493d-ad9d-f34fd0a4abfc","system_id":"levelo_inurba_marseille","lat":43.28386,"lon":5.384175,"is_reserved":false,"is_disabled":false,"rental_uris":{"android":"levelo://app?vid=cfb6735d-d685-493d-ad9d-f34fd0a4abfc","ios":"levelo://app?vid=cfb6735d-d685-493d-ad9d-f34fd0a4abfc"},"vehicle_type_id":"4","last_reported":1713031669,"current_range_meters":0,"station_id":"","pricing_plan_id":"cebpf4jnsgd1na2vs0mg"},