{"last_updated":1761991828,"ttl":60,"version":"2.2","data":{"bikes":[{"bike_id":"3f9d89b0-a3c3-4b72-9969-08e348af8256","system_id":"levelo_inurba_marseille","lat":43.29814,"lon":5.40255,"is_reserved":false,"is_disabled":false,"rental_uris":{"android":"levelo://app?vid=3f9d89b0-a3c3-4b72-9969-08e348af8256","ios":"levelo://app?vid=3f9d89b0-a3c3-4b72-9969-08e348af8256"},"vehicle_type_id":"4","last_reported":1761991828,"current_range_meters":2800,"station_id":"","pricing_plan_id":"cebpf4jnsgd1na2vs0mg"},{"bike_id":"8d4aa4ce-75ed-4d8e-9ec4-654ad45888e0","system_id":"levelo_inurba_marseille","lat":43.249534,"lon":5.404993,"is_reserved":false,"is_disabled":false,"rental_uris":{"android":"levelo://app?vid=8d4aa4ce-75ed-4d8e-9ec4-654ad45888e0","ios":"levelo://app?vid=8d4aa4ce-75ed-4d8e-9ec4-654ad45888e0"},"vehicle_type_id":"4","last_reported":1761991828,"current_range_meters":3200,"station_id":"st_d2ngiaodas8pm72gd1h0","pricing_plan_id":"cebpf4jnsgd1na2vs0mg"},{"bike_id":"76cd4da6-7143-4430-8999-59ec86f6aa4d","system_id":"levelo_inurba_marseille","lat":43.29465,"lon":5.43305,"is_reserved":false,"is_disabled":false,"rental_uris":{"android":"levelo://app?vid=76cd4da6-7143-4430-8999-59ec86f6aa4d","ios":"levelo://app?vid=76cd4da6-7143-4430-8999-59ec86f6aa4d"},"vehicle_type_id":"4","last_reported":1761991828,"current_range_meters":3200,"station_id":"st_d3j5ugp08ojc73fj9d10","pricing_plan_id":"cebpf4jnsgd1na2vs0mg"},{"bike_id":"64e9cff7-d48d-477b-bc52-546a94274851","system_id":"levelo_inurba_marseille","lat":43.29535,"lon":5.3902,"is_reserved":false,"is_disabled":true,"rental_uris":{"android":"levelo://app?vid=64e9cff7-d48d-477b-bc52-546a94274851","ios":"levelo://app?vid=64e9cff7-d48d-477b-bc52-546a94274851"},"vehicle_type_id":"4","last_reported":1761991828,"current_range_meters":3600,"station_id":"","pricing_plan_id":"cebpf4jnsgd1na2vs0mg"},{"bike_id":"82a1362f-b61a-46be-a663-3fcb37750770","system_id":"levelo_inurba_marseille","lat":43.28478,"lon":5.48384,"is_reserved":false,"is_disabled":false,"rental_uris":{"android":"levelo://app?vid=82a1362f-b61a-46be-a663-3fcb37750770","ios":"levelo://app?vid=82a1362f-b61a-46be-a663-3fcb37750770"},"vehicle_type_id":"4","last_reported":1761991828,"current_range_meters":4000,"station_id":"st_d3svhcjqgbts73a3dn0g","pricing_plan_id":"cebpf4jnsgd1na2vs0mg"},{"bike_id":"d57a844b-264f-4723-85c5-c5335e858662","system_id":"levelo_inurba_marseille","lat":43.231863,"lon":5.39995,"is_reserved":false,"is_disabled":true,"rental_uris":{"android":"levelo://app?vid=d57a844b-264f-4723-85c5-c5335e858662","ios":"levelo://app?vid=d57a844b-264f-4723-85c5-c5335e858662"},"vehicle_type_id":"4","last_reported":1761991828,"current_range_meters":4000,"station_id":"ce4bhn12rcd13ifvqgqg","pricing_plan_id":"cebpf4jnsgd1na2vs0mg"},{"bike_id":"700a0638-38c5-48ba-a188-e9410b926bb8","system_id":"levelo_inurba_marseille","lat":43.293936,"lon":5.39979,"is_reserved":false,"is_disabled":false,"rental_uris":{"android":"levelo://app?vid=700a0638-38c5-48ba-a188-e9410b926bb8","ios":"levelo://app?vid=700a0638-38c5-48ba-a188-e9410b926bb8"},"vehicle_type_id":"4","last_reported":1761991828,"current_range_meters":4400,"station_id":"","pricing_plan_id":"cebpf4jnsgd1na2vs0mg"},{"bike_id":"98c69ce9-b776-4a35-8190-c3322227776a","system_id":"levelo_inurba_marseille","lat":43.29356,"lon":5.39258,"is_reserved":false,"is_disabled":false,"rental_uris":{"android":"levelo://app?vid=98c69ce9-b776-4a35-8190-c3322227776a","ios":"levelo://app?vid=98c69ce9-b776-4a35-8190-c3322227776a"},"vehicle_type_id":"4","last_reported":1761991828,"current_range_meters":4400,"station_id":"","pricing_plan_id":"cebpf4jnsgd1na2vs0mg"},{"bike_id":"c56524b7-114a-4faf-9c24-aa0b527268a7","system_id":"levelo_inurba_marseille","lat":43.23155,"lon":5.43712,"is_reserved":false,"is_disabled":false,"rental_uris":{"android":"levelo://app?vid=c56524b7-114a-4faf-9c24-aa0b527268a7","ios":"levelo://app?vid=c56524b7-114a-4faf-9c24-aa0b527268a7"},"vehicle_type_id":"4","last_reported":1761991828,"current_range_meters":4800,"station_id":"ce4bhmp2rcd13ifvqgog","pricing_plan_id":"cebpf4jnsgd1na2vs0mg"},{"bike_id":"f2287fbd-65b0-4975-b44b-578b0e69e1ef","system_id":"levelo_inurba_marseille","lat":43.31112,"lon":5.37759,"is_reserved":false,"is_disabled":false,"rental_uris":{"android":"levelo://app?vid=f2287fbd-65b0-4975-b44b-578b0e69e1ef","ios":"levelo://app?vid=f2287fbd-65b0-4975-b44b-578b0e69e1ef"},"vehicle_type_id":"4","last_reported":1761991828,"current_range_meters":5600,"station_id":"ce4bgt92rcd13ifvqcg0","pricing_plan_id":"cebpf4jnsgd1na2vs0mg"},{"bike_id":"688e0991-23bb-4f67-a97d-b9bb7704a66a","system_id":"levelo_inurba_marseille","lat":43.29255,"lon":5.39101,"is_reserved":false,"is_disabled":false,"rental_uris":{"android":"levelo://app?vid=688e0991-23bb-4f67-a97d-b9bb7704a66a","ios":"levelo://app?vid=688e0991-23bb-4f67-a97d-b9bb7704a66a"},"vehicle_type_id":"4","last_reported":1761991828,"current_range_meters":5600,"station_id":"","pricing_plan_id":"cebpf4jnsgd1na2vs0mg"},{"bike_id":"da503111-5feb-4a8e-b697-ab299317bc1a","system_id":"levelo_inurba_marseille","lat":43.28507,"lon":5.36657,"is_reserved":false,"is_disabled":false,"rental_uris":{"android":"levelo://app?vid=da503111-5feb-4a8e-b697-ab299317bc1a","ios":"levelo://app?vid=da503111-5feb-4a8e-b697-ab299317bc1a"},"vehicle_type_id":"4","last_reported":1761991828,"current_range_meters":5600,"station_id":"","pricing_plan_id":"cebpf4jnsgd1na2vs0mg"},{"bike_id":"dbe5a017-5f48-48a9-a30c-d753021d6208","system_id":"levelo_inurba_marseille","lat":43.2973,"lon":5.39644,"is_reserved":false,"is_disabled":false,"rental_uris":{"android":"levelo://app?vid=dbe5a017-5f48-48a9-a30c-d753021d6208","ios":"levelo://app?vid=dbe5a017-5f48-48a9-a30c-d753021d6208"},"vehicle_type_id":"4","last_reported":1761991828,"current_range_meters":5600,"station_id":"","pricing_plan_id":"cebpf4jnsgd1na2vs0mg"},{"bike_id":"f14ad329-0e2b-43a3-a4a2-bcd1ba25a029","system_id":"levelo_inurba_marseille","lat":43.27372,"lon":5.36259,"is_reserved":false,"is_disabled":false,"rental_uris":{"android":"levelo://app?vid=f14ad329-0e2b-43a3-a4a2-bcd1ba25a029","ios":"levelo://app?vid=f14ad329-0e2b-43a3-a4a2-bcd1ba25a029"},"vehicle_type_id":"4","last_reported":1761991828,"current_range_meters":5600,"station_id":"ce4bhbh2rcd13ifvqeo0","pricing_plan_id":"cebpf4jnsgd1na2vs0mg"},{"bike_id":"3dab03ab-b250-4b40-b286-0668266ab52e","system_id":"levelo_inurba_marseille","lat":43.288614,"lon":5.425231,"is_reserved":false,"is_disabled":false,"rental_uris":{"android":"levelo://app?vid=3dab03ab-b250-4b40-b286-0668266ab52e","ios":"levelo://app?vid=3dab03ab-b250-4b40-b286-0668266ab52e"},"vehicle_type_id":"4","last_reported":1761991828,"current_range_meters":6400,"station_id":"st_d3b462108ojc7389ooeg","pricing_plan_id":"cebpf4jnsgd1na2vs0mg"},{"bike_id":"a18dbf48-2c4d-4fa4-a4c5-c9871d73c9a0","system_id":"levelo_inurba_marseille","lat":43.301994,"lon":5.383462,"is_reserved":false,"is_disabled":false,"rental_uris":{"android":"levelo://app?vid=a18dbf48-2c4d-4fa4-a4c5-c9871d73c9a0","ios":"levelo://app?vid=a18dbf48-2c4d-4fa4-a4c5-c9871d73c9a0"},"vehicle_type_id":"4","last_reported":1761991828,"current_range_meters":6400,"station_id":"ce4bgup2rcd13ifvqcn0","pricing_plan_id":"cebpf4jnsgd1na2vs0mg"},{"bike_id":"16a9ce2f-83a1-40de-892f-748492756995","system_id":"levelo_inurba_marseille","lat":43.253377,"lon":5.421707,"is_reserved":false,"is_disabled":false,"rental_uris":{"android":"levelo://app?vid=16a9ce2f-83a1-40de-892f-748492756995","ios":"levelo://app?vid=16a9ce2f-83a1-40de-892f-748492756995"},"vehicle_type_id":"4","last_reported":1761991828,"current_range_meters":6400,"station_id":"st_d2m65c5bi1j21697t3ng","pricing_plan_id":"cebpf4jnsgd1na2vs0mg"},{"bike_id":"c8bb8360-a8d5-4bb3-b5f1-ba0edf0a925f","system_id":"levelo_inurba_marseille","lat":43.317236,"lon":5.423928,"is_reserved":false,"is_disabled":false,"rental_uris":{"android":"levelo://app?vid=c8bb8360-a8d5-4bb3-b5f1-ba0edf0a925f","ios":"levelo://app?vid=c8bb8360-a8d5-4bb3-b5f1-ba0edf0a925f"},"vehicle_type_id":"4","last_reported":1761991828,"current_range_meters":6400,"station_id":"ce4bhp92rcd13ifvqhbg","pricing_plan_id":"cebpf4jnsgd1na2vs0mg"},{"bike_id":"4560dbcf-401f-4f2d-abe8-7f1f9555f70d","system_id":"levelo_inurba_marseille","lat":43.29583,"lon":5.36731,"is_reserved":false,"is_disabled":false,"rental_uris":{"android":"levelo://app?vid=4560dbcf-401f-4f2d-abe8-7f1f9555f70d","ios":"levelo://app?vid=4560dbcf-401f-4f2d-abe8-7f1f9555f70d"},"vehicle_type_id":"4","last_reported":1761991828,"current_range_meters":6800,"station_id":"ce4bgph2rcd13ifvqc2g","pricing_plan_id":"cebpf4jnsgd1na2vs0mg"},{"bike_id":"3c9c6a17-1ccb-4f94-a951-c573da8478fb","system_id":"levelo_inurba_marseille","lat":43.21189,"lon":5.35071,"is_reserved":false,"is_disabled":false,"rental_uris":{"android":"levelo://app?vid=3c9c6a17-1ccb-4f94-a951-c573da8478fb","ios":"levelo://app?vid=3c9c6a17-1ccb-4f94-a951-c573da8478fb"},"vehicle_type_id":"4","last_reported":1761991828,"current_range_meters":6800,"station_id":"st_cvj6sg6p6f1abm77japg","pricing_plan_id":"cebpf4jnsgd1na2vs0mg"},{"bike_id":"7b4b1604-4541-4cb2-b3af-e93bd6f67091","system_id":"levelo_inurba_marseille","lat":43.341388,"lon":5.409073,"is_reserved":false,"is_disabled":false,"rental_uris":{"android":"levelo://app?vid=7b4b1604-4541-4cb2-b3af-e93bd6f67091","ios":"levelo://app?vid=7b4b1604-4541-4cb2-b3af-e93bd6f67091"},"vehicle_type_id":"4","last_reported":1761991828,"current_range_meters":7200,"station_id":"ce4bhqh2rcd13ifvqhlg","pricing_plan_id":"cebpf4jnsgd1na2vs0mg"},{"bike_id":"9b93b5e1-c939-4745-bf85-2d21945442dc","system_id":"levelo_inurba_marseille","lat":43.299967,"lon":5.364002,"is_reserved":false,"is_disabled":false,"rental_uris":{"android":"levelo://app?vid=9b93b5e1-c939-4745-bf85-2d21945442dc","ios":"levelo://app?vid=9b93b5e1-c939-4745-bf85-2d21945442dc"},"vehicle_type_id":"4","last_reported":1761991828,"current_range_meters":7200,"station_id":"","pricing_plan_id":"cebpf4jnsgd1na2vs0mg"},{"bike_id":"079da2d7-3058-45e9-b7ee-d0f976e831e8","system_id":"levelo_inurba_marseille","lat":43.30352,"lon":5.4188,"is_reserved":false,"is_disabled":false,"rental_uris":{"android":"levelo://app?vid=079da2d7-3058-45e9-b7ee-d0f976e831e8","ios":"levelo://app?vid=079da2d7-3058-45e9-b7ee-d0f976e831e8"},"vehicle_type_id":"4","last_reported":1761991828,"current_range_meters":7200,"station_id":"ce4bhop2rcd13ifvqh7g","pricing_plan_id":"cebpf4jnsgd1na2vs0mg"},{"bike_id":"b7bf08da-3155-4ebd-90f6-2c65138a1e9a","system_id":"levelo_inurba_marseille","lat":43.21189,"lon":5.35074,"is_reserved":false,"is_disabled":false,"rental_uris":{"android":"levelo://app?vid=b7bf08da-3155-4ebd-90f6-2c65138a1e9a","ios":"levelo://app?vid=b7bf08da-3155-4ebd-90f6-2c65138a1e9a"},"vehicle_type_id":"4","last_reported":1761991828,"current_range_meters":7200,"station_id":"st_cvj6sg6p6f1abm77japg","pricing_plan_id":"cebpf4jnsgd1na2vs0mg"},{"bike_id":"cccb3ad8-f98c-47f7-986e-02a79ce62ffd","system_id":"levelo_inurba_marseille","lat":43.291844,"lon":5.358026,"is_reserved":false,"is_disabled":true,"rental_uris":{"android":"levelo://app?vid=cccb3ad8-f98c-47f7-986e-02a79ce62ffd","ios":"levelo://app?vid=cccb3ad8-f98c-47f7-986e-02a79ce62ffd"},"vehicle_type_id":"4","last_reported":1761991828,"current_range_meters":7200,"station_id":"ce4bhb12rcd13ifvqel0","pricing_plan_id":"cebpf4jnsgd1na2vs0mg"},{"bike_id":"634049ec-b6ac-4587-8188-7c128b600b82","system_id":"levelo_inurba_marseille","lat":43.2119,"lon":5.35082,"is_reserved":false,"is_disabled":false,"rental_uris":{"android":"levelo://app?vid=634049ec-b6ac-4587-8188-7c128b600b82","ios":"levelo://app?vid=634049ec-b6ac-4587-8188-7c128b600b82"},"vehicle_type_id":"4","last_reported":1761991828,"current_range_meters":7200,"station_id":"","pricing_plan_id":"cebpf4jnsgd1na2vs0mg"},{"bike_id":"212bea36-8bd2-4fb8-8b1c-f53ea872d38c","system_id":"levelo_inurba_marseille","lat":43.2463,"lon":5.43145,"is_reserved":false,"is_disabled":false,"rental_uris":{"android":"levelo://app?vid=212bea36-8bd2-4fb8-8b1c-f53ea872d38c","ios":"levelo://app?vid=212bea36-8bd2-4fb8-8b1c-f53ea872d38c"},"vehicle_type_id":"4","last_reported":1761991828,"current_range_meters":7200,"station_id":"st_d2m6c4gdas8pm72e190g","pricing_plan_id":"cebpf4jnsgd1na2vs0mg"},{"bike_id":"421898f5-6c6d-4850-a304-3c0cc5951bee","system_id":"levelo_inurba_marseille","lat":43.28485,"lon":5.4217,"is_reserved":false,"is_disabled":false,"rental_uris":{"android":"levelo://app?vid=421898f5-6c6d-4850-a304-3c0cc5951bee","ios":"levelo://app?vid=421898f5-6c6d-4850-a304-3c0cc5951bee"},"vehicle_type_id":"4","last_reported":1761991828,"current_range_meters":8000,"station_id":"","pricing_plan_id":"cebpf4jnsgd1na2vs0mg"},{"bike_id":"5fb987d7-0fd0-4ae4-b81e-29cf312b29a5","system_id":"levelo_inurba_marseille","lat":43.28956,"lon":5.39023,"is_reserved":false,"is_disabled":false,"rental_uris":{"android":"levelo://app?vid=5fb987d7-0fd0-4ae4-b81e-29cf312b29a5","ios":"levelo://app?vid=5fb987d7-0fd0-4ae4-b81e-29cf312b29a5"},"vehicle_type_id":"4","last_reported":1761991828,"current_range_meters":8400,"station_id":"","pricing_plan_id":"cebpf4jnsgd1na2vs0mg"},{"bike_id":"2457a6da-e737-4e7a-9c85-e9723cf378b9","system_id":"levelo_inurba_marseille","lat":43.27204,"lon":5.40984,"is_reserved":false,"is_disabled":false,"rental_uris":{"android":"levelo://app?vid=2457a6da-e737-4e7a-9c85-e9723cf378b9","ios":"levelo://app?vid=2457a6da-e737-4e7a-9c85-e9723cf378b9"},"vehicle_type_id":"4","last_reported":1761991828,"current_range_meters":8400,"station_id":"ce4bhl12rcd13ifvqgf0","pricing_plan_id":"cebpf4jnsgd1na2vs0mg"},{"bike_id":"eb2adf7c-8740-4978-a7c2-2dda7ed54401","system_id":"levelo_inurba_marseille","lat":43.279103,"lon":5.380242,"is_reserved":false,"is_disabled":false,"rental_uris":{"android":"levelo://app?vid=eb2adf7c-8740-4978-a7c2-2dda7ed54401","ios":"levelo://app?vid=eb2adf7c-8740-4978-a7c2-2dda7ed54401"},"vehicle_type_id":"4","last_reported":1761991828,"current_range_meters":8400,"station_id":"ce4bhf92rcd13ifvqf50","pricing_plan_id":"cebpf4jnsgd1na2vs0mg"},{"bike_id":"aeb250f6-9d26-491b-956a-8a106fbeece8","system_id":"levelo_inurba_marseille","lat":43.22559,"lon":5.41623,"is_reserved":false,"is_disabled":false,"rental_uris":{"android":"levelo://app?vid=aeb250f6-9d26-491b-956a-8a106fbeece8","ios":"levelo://app?vid=aeb250f6-9d26-491b-956a-8a106fbeece8"},"vehicle_type_id":"4","last_reported":1761991828,"current_range_meters":8400,"station_id":"st_d2o4gvlbi1j2169b742g","pricing_plan_id":"cebpf4jnsgd1na2vs0mg"},{"bike_id":"2dd44c6c-93a7-4ac9-b00f-2127834c61c3","system_id":"levelo_inurba_marseille","lat":43.25113,"lon":5.40318,"is_reserved":false,"is_disabled":false,"rental_uris":{"android":"levelo://app?vid=2dd44c6c-93a7-4ac9-b00f-2127834c61c3","ios":"levelo://app?vid=2dd44c6c-93a7-4ac9-b00f-2127834c61c3"},"vehicle_type_id":"4","last_reported":1761991828,"current_range_meters":8800,"station_id":"ce4bhlh2rcd13ifvqgig","pricing_plan_id":"cebpf4jnsgd1na2vs0mg"},{"bike_id":"05092f09-1612-407c-9f18-e81eeb2945ff","system_id":"levelo_inurba_marseille","lat":43.2854,"lon":5.44097,"is_reserved":false,"is_disabled":false,"rental_uris":{"android":"levelo://app?vid=05092f09-1612-407c-9f18-e81eeb2945ff","ios":"levelo://app?vid=05092f09-1612-407c-9f18-e81eeb2945ff"},"vehicle_type_id":"4","last_reported":1761991828,"current_range_meters":8800,"station_id":"st_d3j3df2ikq2c7380ej80","pricing_plan_id":"cebpf4jnsgd1na2vs0mg"},{"bike_id":"70b7527d-67eb-4818-84c6-51aae343ca97","system_id":"levelo_inurba_marseille","lat":43.28471,"lon":5.4841,"is_reserved":false,"is_disabled":false,"rental_uris":{"android":"levelo://app?vid=70b7527d-67eb-4818-84c6-51aae343ca97","ios":"levelo://app?vid=70b7527d-67eb-4818-84c6-51aae343ca97"},"vehicle_type_id":"4","last_reported":1761991828,"current_range_meters":8800,"station_id":"st_d3svhcjqgbts73a3dn0g","pricing_plan_id":"cebpf4jnsgd1na2vs0mg"},{"bike_id":"0f6f38ac-198a-4f6c-b3a5-9247b2478336","system_id":"levelo_inurba_marseille","lat":43.29899,"lon":5.38087,"is_reserved":false,"is_disabled":false,"rental_uris":{"android":"levelo://app?vid=0f6f38ac-198a-4f6c-b3a5-9247b2478336","ios":"levelo://app?vid=0f6f38ac-198a-4f6c-b3a5-9247b2478336"},"vehicle_type_id":"4","last_reported":1761991828,"current_range_meters":9200,"station_id":"ce4bgj12rcd13ifvqbc0","pricing_plan_id":"cebpf4jnsgd1na2vs0mg"},{"bike_id":"3a8851b0-bea2-4b80-afc7-0c6751111e32","system_id":"levelo_inurba_marseille","lat":43.28849,"lon":5.42529,"is_reserved":false,"is_disabled":false,"rental_uris":{"android":"levelo://app?vid=3a8851b0-bea2-4b80-afc7-0c6751111e32","ios":"levelo://app?vid=3a8851b0-bea2-4b80-afc7-0c6751111e32"},"vehicle_type_id":"4","last_reported":1761991828,"current_range_meters":9200,"station_id":"st_d3b462108ojc7389ooeg","pricing_plan_id":"cebpf4jnsgd1na2vs0mg"},{"bike_id":"cebbc444-92e5-4eff-9602-688db6ef6fff","system_id":"levelo_inurba_marseille","lat":43.29364,"lon":5.37846,"is_reserved":false,"is_disabled":false,"rental_uris":{"android":"levelo://app?vid=cebbc444-92e5-4eff-9602-688db6ef6fff","ios":"levelo://app?vid=cebbc444-92e5-4eff-9602-688db6ef6fff"},"vehicle_type_id":"4","last_reported":1761991828,"current_range_meters":9200,"station_id":"ce4bgjh2rcd13ifvqbf0","pricing_plan_id":"cebpf4jnsgd1na2vs0mg"},{"bike_id":"96ad2f8e-1ff0-415a-a84a-9186f2a5baf6","system_id":"levelo_inurba_marseille","lat":43.29606,"lon":5.37672,"is_reserved":false,"is_disabled":false,"rental_uris":{"android":"levelo://app?vid=96ad2f8e-1ff0-415a-a84a-9186f2a5baf6","ios":"levelo://app?vid=96ad2f8e-1ff0-415a-a84a-9186f2a5baf6"},"vehicle_type_id":"4","last_reported":1761991828,"current_range_meters":9200,"station_id":"ce4bgi12rcd13ifvqb80","pricing_plan_id":"cebpf4jnsgd1na2vs0mg"},{"bike_id":"3f068c0f-e51f-4b73-875b-f7bcf3c9c04d","system_id":"levelo_inurba_marseille","lat":43.25105,"lon":5.40332,"is_reserved":false,"is_disabled":false,"rental_uris":{"android":"levelo://app?vid=3f068c0f-e51f-4b73-875b-f7bcf3c9c04d","ios":"levelo://app?vid=3f068c0f-e51f-4b73-875b-f7bcf3c9c04d"},"vehicle_type_id":"4","last_reported":1761991828,"current_range_meters":9200,"station_id":"ce4bhlh2rcd13ifvqgig","pricing_plan_id":"cebpf4jnsgd1na2vs0mg"},{"bike_id":"a4dac4fa-66e6-48be-a654-6e17cdc7ca0b","system_id":"levelo_inurba_marseille","lat":43.337571,"lon":5.374323,"is_reserved":false,"is_disabled":false,"rental_uris":{"android":"levelo://app?vid=a4dac4fa-66e6-48be-a654-6e17cdc7ca0b","ios":"levelo://app?vid=a4dac4fa-66e6-48be-a654-6e17cdc7ca0b"},"vehicle_type_id":"4","last_reported":1761991828,"current_range_meters":9600,"station_id":"","pricing_plan_id":"cebpf4jnsgd1na2vs0mg"},{"bike_id":"27abc7d1-dd85-495f-9415-aa00cef4846e","system_id":"levelo_inurba_marseille","lat":43.27774,"lon":5.3955,"is_reserved":false,"is_disabled":false,"rental_uris":{"android":"levelo://app?vid=27abc7d1-dd85-495f-9415-aa00cef4846e","ios":"levelo://app?vid=27abc7d1-dd85-495f-9415-aa00cef4846e"},"vehicle_type_id":"4","last_reported":1761991828,"current_range_meters":9600,"station_id":"","pricing_plan_id":"cebpf4jnsgd1na2vs0mg"},{"bike_id":"2395b0db-6e82-47c6-b6f2-1db6eba2fced","system_id":"levelo_inurba_marseille","lat":43.22558,"lon":5.41597,"is_reserved":false,"is_disabled":false,"rental_uris":{"android":"levelo://app?vid=2395b0db-6e82-47c6-b6f2-1db6eba2fced","ios":"levelo://app?vid=2395b0db-6e82-47c6-b6f2-1db6eba2fced"},"vehicle_type_id":"4","last_reported":1761991828,"current_range_meters":10000,"station_id":"st_d2o4gvlbi1j2169b742g","pricing_plan_id":"cebpf4jnsgd1na2vs0mg"},{"bike_id":"2238af03-da67-4c99-9c23-d2a840b0efe0","system_id":"levelo_inurba_marseille","lat":43.28494,"lon":5.38558,"is_reserved":false,"is_disabled":false,"rental_uris":{"android":"levelo://app?vid=2238af03-da67-4c99-9c23-d2a840b0efe0","ios":"levelo://app?vid=2238af03-da67-4c99-9c23-d2a840b0efe0"},"vehicle_type_id":"4","last_reported":1761991828,"current_range_meters":10000,"station_id":"ce4bh8p2rcd13ifvqeb0","pricing_plan_id":"cebpf4jnsgd1na2vs0mg"},{"bike_id":"3b0ed919-3f15-4150-9bb7-c2e454e63927","system_id":"levelo_inurba_marseille","lat":43.246601,"lon":5.381651,"is_reserved":false,"is_disabled":false,"rental_uris":{"android":"levelo://app?vid=3b0ed919-3f15-4150-9bb7-c2e454e63927","ios":"levelo://app?vid=3b0ed919-3f15-4150-9bb7-c2e454e63927"},"vehicle_type_id":"4","last_reported":1761991828,"current_range_meters":10000,"station_id":"ce4bhih2rcd13ifvqfr0","pricing_plan_id":"cebpf4jnsgd1na2vs0mg"},{"bike_id":"dacea13e-ff7f-4447-9d68-7558315e0463","system_id":"levelo_inurba_marseille","lat":43.30438,"lon":5.36762,"is_reserved":false,"is_disabled":false,"rental_uris":{"android":"levelo://app?vid=dacea13e-ff7f-4447-9d68-7558315e0463","ios":"levelo://app?vid=dacea13e-ff7f-4447-9d68-7558315e0463"},"vehicle_type_id":"4","last_reported":1761991828,"current_range_meters":10000,"station_id":"","pricing_plan_id":"cebpf4jnsgd1na2vs0mg"},{"bike_id":"58172239-827f-4359-beec-c3afce5ae4ba","system_id":"levelo_inurba_marseille","lat":43.29605,"lon":5.38096,"is_reserved":false,"is_disabled":false,"rental_uris":{"android":"levelo://app?vid=58172239-827f-4359-beec-c3afce5ae4ba","ios":"levelo://app?vid=58172239-827f-4359-beec-c3afce5ae4ba"},"vehicle_type_id":"4","last_reported":1761991828,"current_range_meters":10800,"station_id":"ce4bgl12rcd13ifvqbo0","pricing_plan_id":"cebpf4jnsgd1na2vs0mg"},{"bike_id":"b3cd1420-5644-4539-b1e7-40de7d2c72fb","system_id":"levelo_inurba_marseille","lat":43.241794,"lon":5.397243,"is_reserved":false,"is_disabled":false,"rental_uris":{"android":"levelo://app?vid=b3cd1420-5644-4539-b1e7-40de7d2c72fb","ios":"levelo://app?vid=b3cd1420-5644-4539-b1e7-40de7d2c72fb"},"vehicle_type_id":"4","last_reported":1761991828,"current_range_meters":10800,"station_id":"ce4bhn12rcd13ifvqgpg","pricing_plan_id":"cebpf4jnsgd1na2vs0mg"},{"bike_id":"52b117f2-4c01-4f66-887d-006722496528","system_id":"levelo_inurba_marseille","lat":43.30872,"lon":5.371487,"is_reserved":false,"is_disabled":false,"rental_uris":{"android":"levelo://app?vid=52b117f2-4c01-4f66-887d-006722496528","ios":"levelo://app?vid=52b117f2-4c01-4f66-887d-006722496528"},"vehicle_type_id":"4","last_reported":1761991828,"current_range_meters":10800,"station_id":"ce4bguh2rcd13ifvqckg","pricing_plan_id":"cebpf4jnsgd1na2vs0mg"},{"bike_id":"4d23c425-a082-40df-9a3d-4f372c0b2209","system_id":"levelo_inurba_marseille","lat":43.251136,"lon":5.403197,"is_reserved":false,"is_disabled":false,"rental_uris":{"android":"levelo://app?vid=4d23c425-a082-40df-9a3d-4f372c0b2209","ios":"levelo://app?vid=4d23c425-a082-40df-9a3d-4f372c0b2209"},"vehicle_type_id":"4","last_reported":1761991828,"current_range_meters":10800,"station_id":"ce4bhlh2rcd13ifvqgig","pricing_plan_id":"cebpf4jnsgd1na2vs0mg"},{"bike_id":"f34db612-7437-4eb6-b622-d7f6824be59a","system_id":"levelo_inurba_marseille","lat":43.28542,"lon":5.44089,"is_reserved":false,"is_disabled":false,"rental_uris":{"android":"levelo://app?vid=f34db612-7437-4eb6-b622-d7f6824be59a","ios":"levelo://app?vid=f34db612-7437-4eb6-b622-d7f6824be59a"},"vehicle_type_id":"4","last_reported":1761991828,"current_range_meters":10800,"station_id":"st_d3j3df2ikq2c7380ej80","pricing_plan_id":"cebpf4jnsgd1na2vs0mg"},{"bike_id":"6cd59db7-cb12-4301-8385-22b87d7a5cfd","system_id":"levelo_inurba_marseille","lat":43.285353,"lon":5.440985,"is_reserved":false,"is_disabled":false,"rental_uris":{"android":"levelo://app?vid=6cd59db7-cb12-4301-8385-22b87d7a5cfd","ios":"levelo://app?vid=6cd59db7-cb12-4301-8385-22b87d7a5cfd"},"vehicle_type_id":"4","last_reported":1761991828,"current_range_meters":11200,"station_id":"st_d3j3df2ikq2c7380ej80","pricing_plan_id":"cebpf4jnsgd1na2vs0mg"},{"bike_id":"3e0ee96b-8fbf-40c7-b23e-bbfbbf69c224","system_id":"levelo_inurba_marseille","lat":43.285418,"lon":5.441061,"is_reserved":false,"is_disabled":false,"rental_uris":{"android":"levelo://app?vid=3e0ee96b-8fbf-40c7-b23e-bbfbbf69c224","ios":"levelo://app?vid=3e0ee96b-8fbf-40c7-b23e-bbfbbf69c224"},"vehicle_type_id":"4","last_reported":1761991828,"current_range_meters":11200,"station_id":"st_d3j3df2ikq2c7380ej80","pricing_plan_id":"cebpf4jnsgd1na2vs0mg"},{"bike_id":"19fa1a0f-377c-4c66-a08b-025fc999d98a","system_id":"levelo_inurba_marseille","lat":43.29372,"lon":5.37857,"is_reserved":false,"is_disabled":false,"rental_uris":{"android":"levelo://app?vid=19fa1a0f-377c-4c66-a08b-025fc999d98a","ios":"levelo://app?vid=19fa1a0f-377c-4c66-a08b-025fc999d98a"},"vehicle_type_id":"4","last_reported":1761991828,"current_range_meters":11600,"station_id":"ce4bgjh2rcd13ifvqbf0","pricing_plan_id":"cebpf4jnsgd1na2vs0mg"},{"bike_id":"ef3c599f-c4ca-4eb8-aa71-b3f4816507b8","system_id":"levelo_inurba_marseille","lat":43.29483,"lon":5.43308,"is_reserved":false,"is_disabled":false,"rental_uris":{"android":"levelo://app?vid=ef3c599f-c4ca-4eb8-aa71-b3f4816507b8","ios":"levelo://app?vid=ef3c599f-c4ca-4eb8-aa71-b3f4816507b8"},"vehicle_type_id":"4","last_reported":1761991828,"current_range_meters":11600,"station_id":"st_d3j5ugp08ojc73fj9d10","pricing_plan_id":"cebpf4jnsgd1na2vs0mg"},{"bike_id":"0c65bfb1-17c6-493b-9909-73364fa1a7e5","system_id":"levelo_inurba_marseille","lat":43.29195,"lon":5.39317,"is_reserved":false,"is_disabled":false,"rental_uris":{"android":"levelo://app?vid=0c65bfb1-17c6-493b-9909-73364fa1a7e5","ios":"levelo://app?vid=0c65bfb1-17c6-493b-9909-73364fa1a7e5"},"vehicle_type_id":"4","last_reported":1761991828,"current_range_meters":11600,"station_id":"ce4bh192rcd13ifvqdd0","pricing_plan_id":"cebpf4jnsgd1na2vs0mg"},{"bike_id":"74b15735-564b-4f09-952a-ba8cccb96884","system_id":"levelo_inurba_marseille","lat":43.298162,"lon":5.44069,"is_reserved":false,"is_disabled":false,"rental_uris":{"android":"levelo://app?vid=74b15735-564b-4f09-952a-ba8cccb96884","ios":"levelo://app?vid=74b15735-564b-4f09-952a-ba8cccb96884"},"vehicle_type_id":"4","last_reported":1761991828,"current_range_meters":11600,"station_id":"","pricing_plan_id":"cebpf4jnsgd1na2vs0mg"},{"bike_id":"7c0ed41a-95cf-40f2-8e13-b648b8f28e59","system_id":"levelo_inurba_marseille","lat":43.28153,"lon":5.42638,"is_reserved":false,"is_disabled":false,"rental_uris":{"android":"levelo://app?vid=7c0ed41a-95cf-40f2-8e13-b648b8f28e59","ios":"levelo://app?vid=7c0ed41a-95cf-40f2-8e13-b648b8f28e59"},"vehicle_type_id":"4","last_reported":1761991828,"current_range_meters":12000,"station_id":"ce4bhnh2rcd13ifvqgug","pricing_plan_id":"cebpf4jnsgd1na2vs0mg"},{"bike_id":"fb69d51b-ae0f-492c-aaa8-8334b036d8a4","system_id":"levelo_inurba_marseille","lat":43.21195,"lon":5.35069,"is_reserved":false,"is_disabled":false,"rental_uris":{"android":"levelo://app?vid=fb69d51b-ae0f-492c-aaa8-8334b036d8a4","ios":"levelo://app?vid=fb69d51b-ae0f-492c-aaa8-8334b036d8a4"},"vehicle_type_id":"4","last_reported":1761991828,"current_range_meters":12000,"station_id":"st_cvj6sg6p6f1abm77japg","pricing_plan_id":"cebpf4jnsgd1na2vs0mg"},{"bike_id":"35777ef3-5f62-43e7-bf07-7088729c09fa","system_id":"levelo_inurba_marseille","lat":43.29622,"lon":5.37709,"is_reserved":false,"is_disabled":false,"rental_uris":{"android":"levelo://app?vid=35777ef3-5f62-43e7-bf07-7088729c09fa","ios":"levelo://app?vid=35777ef3-5f62-43e7-bf07-7088729c09fa"},"vehicle_type_id":"4","last_reported":1761991828,"current_range_meters":12400,"station_id":"ce4bgi92rcd13ifvqb90","pricing_plan_id":"cebpf4jnsgd1na2vs0mg"},{"bike_id":"b1e81361-2b17-4ef1-8a58-6def5753471b","system_id":"levelo_inurba_marseille","lat":43.33753,"lon":5.37484,"is_reserved":false,"is_disabled":false,"rental_uris":{"android":"levelo://app?vid=b1e81361-2b17-4ef1-8a58-6def5753471b","ios":"levelo://app?vid=b1e81361-2b17-4ef1-8a58-6def5753471b"},"vehicle_type_id":"4","last_reported":1761991828,"current_range_meters":12400,"station_id":"","pricing_plan_id":"cebpf4jnsgd1na2vs0mg"},{"bike_id":"b3f5f7eb-18bf-48e5-a4fa-341c906bf3b5","system_id":"levelo_inurba_marseille","lat":43.29233,"lon":5.36062,"is_reserved":false,"is_disabled":false,"rental_uris":{"android":"levelo://app?vid=b3f5f7eb-18bf-48e5-a4fa-341c906bf3b5","ios":"levelo://app?vid=b3f5f7eb-18bf-48e5-a4fa-341c906bf3b5"},"vehicle_type_id":"4","last_reported":1761991828,"current_range_meters":12400,"station_id":"ce4bhbh2rcd13ifvqeqg","pricing_plan_id":"cebpf4jnsgd1na2vs0mg"},{"bike_id":"44dcfba7-3720-4214-80db-f6574feaa764","system_id":"levelo_inurba_marseille","lat":43.2976,"lon":5.42777,"is_reserved":false,"is_disabled":false,"rental_uris":{"android":"levelo://app?vid=44dcfba7-3720-4214-80db-f6574feaa764","ios":"levelo://app?vid=44dcfba7-3720-4214-80db-f6574feaa764"},"vehicle_type_id":"4","last_reported":1761991828,"current_range_meters":12400,"station_id":"st_d3md5207bmas73dh9klg","pricing_plan_id":"cebpf4jnsgd1na2vs0mg"},{"bike_id":"f13402d6-bcfe-43c6-9455-f54d46eee62e","system_id":"levelo_inurba_marseille","lat":43.30456,"lon":5.3675,"is_reserved":false,"is_disabled":false,"rental_uris":{"android":"levelo://app?vid=f13402d6-bcfe-43c6-9455-f54d46eee62e","ios":"levelo://app?vid=f13402d6-bcfe-43c6-9455-f54d46eee62e"},"vehicle_type_id":"4","last_reported":1761991828,"current_range_meters":12400,"station_id":"","pricing_plan_id":"cebpf4jnsgd1na2vs0mg"},{"bike_id":"6df5d1b3-a573-47f0-acd9-dcc1039518a8","system_id":"levelo_inurba_marseille","lat":43.27949,"lon":5.41045,"is_reserved":false,"is_disabled":false,"rental_uris":{"android":"levelo://app?vid=6df5d1b3-a573-47f0-acd9-dcc1039518a8","ios":"levelo://app?vid=6df5d1b3-a573-47f0-acd9-dcc1039518a8"},"vehicle_type_id":"4","last_reported":1761991828,"current_range_meters":12400,"station_id":"ce4bhnp2rcd13ifvqh0g","pricing_plan_id":"cebpf4jnsgd1na2vs0mg"},{"bike_id":"1fc3004a-01dd-49f4-8601-2877bde851e3","system_id":"levelo_inurba_marseille","lat":43.30805,"lon":5.43516,"is_reserved":false,"is_disabled":false,"rental_uris":{"android":"levelo://app?vid=1fc3004a-01dd-49f4-8601-2877bde851e3","ios":"levelo://app?vid=1fc3004a-01dd-49f4-8601-2877bde851e3"},"vehicle_type_id":"4","last_reported":1761991828,"current_range_meters":12800,"station_id":"","pricing_plan_id":"cebpf4jnsgd1na2vs0mg"},{"bike_id":"e04f332d-b41c-47fd-b12f-6fdc7d63f429","system_id":"levelo_inurba_marseille","lat":43.30856,"lon":5.38289,"is_reserved":false,"is_disabled":false,"rental_uris":{"android":"levelo://app?vid=e04f332d-b41c-47fd-b12f-6fdc7d63f429","ios":"levelo://app?vid=e04f332d-b41c-47fd-b12f-6fdc7d63f429"},"vehicle_type_id":"4","last_reported":1761991828,"current_range_meters":12800,"station_id":"","pricing_plan_id":"cebpf4jnsgd1na2vs0mg"},{"bike_id":"c2807477-fd8d-44ed-9bdc-b3f90f0cbde0","system_id":"levelo_inurba_marseille","lat":43.31889,"lon":5.39967,"is_reserved":false,"is_disabled":false,"rental_uris":{"android":"levelo://app?vid=c2807477-fd8d-44ed-9bdc-b3f90f0cbde0","ios":"levelo://app?vid=c2807477-fd8d-44ed-9bdc-b3f90f0cbde0"},"vehicle_type_id":"4","last_reported":1761991828,"current_range_meters":12800,"station_id":"","pricing_plan_id":"cebpf4jnsgd1na2vs0mg"},{"bike_id":"bfc82e72-9c79-45c9-abc5-9f0f0b9628b2","system_id":"levelo_inurba_marseille","lat":43.2737,"lon":5.36243,"is_reserved":false,"is_disabled":false,"rental_uris":{"android":"levelo://app?vid=bfc82e72-9c79-45c9-abc5-9f0f0b9628b2","ios":"levelo://app?vid=bfc82e72-9c79-45c9-abc5-9f0f0b9628b2"},"vehicle_type_id":"4","last_reported":1761991828,"current_range_meters":12800,"station_id":"ce4bhbh2rcd13ifvqeo0","pricing_plan_id":"cebpf4jnsgd1na2vs0mg"},{"bike_id":"dfc7a01c-191a-4fb3-a933-fead92605f3c","system_id":"levelo_inurba_marseille","lat":43.288147,"lon":5.391652,"is_reserved":false,"is_disabled":false,"rental_uris":{"android":"levelo://app?vid=dfc7a01c-191a-4fb3-a933-fead92605f3c","ios":"levelo://app?vid=dfc7a01c-191a-4fb3-a933-fead92605f3c"},"vehicle_type_id":"4","last_reported":1761991828,"current_range_meters":13600,"station_id":"","pricing_plan_id":"cebpf4jnsgd1na2vs0mg"},{"bike_id":"ae3598c3-d5d8-4133-922b-9187802cb4d8","system_id":"levelo_inurba_marseille","lat":43.321083,"lon":5.36767,"is_reserved":false,"is_disabled":false,"rental_uris":{"android":"levelo://app?vid=ae3598c3-d5d8-4133-922b-9187802cb4d8","ios":"levelo://app?vid=ae3598c3-d5d8-4133-922b-9187802cb4d8"},"vehicle_type_id":"4","last_reported":1761991828,"current_range_meters":14000,"station_id":"ce4bhrh2rcd13ifvqhug","pricing_plan_id":"cebpf4jnsgd1na2vs0mg"},{"bike_id":"935d4f82-c3fb-462f-8fcf-5f887ca5ea34","system_id":"levelo_inurba_marseille","lat":43.27202,"lon":5.3918,"is_reserved":false,"is_disabled":false,"rental_uris":{"android":"levelo://app?vid=935d4f82-c3fb-462f-8fcf-5f887ca5ea34","ios":"levelo://app?vid=935d4f82-c3fb-462f-8fcf-5f887ca5ea34"},"vehicle_type_id":"4","last_reported":1761991828,"current_range_meters":14000,"station_id":"ce4bhhp2rcd13ifvqfm0","pricing_plan_id":"cebpf4jnsgd1na2vs0mg"},{"bike_id":"c04ea6ec-c85d-4b9a-aa74-f0de2415a6d2","system_id":"levelo_inurba_marseille","lat":43.31545,"lon":5.38362,"is_reserved":false,"is_disabled":false,"rental_uris":{"android":"levelo://app?vid=c04ea6ec-c85d-4b9a-aa74-f0de2415a6d2","ios":"levelo://app?vid=c04ea6ec-c85d-4b9a-aa74-f0de2415a6d2"},"vehicle_type_id":"4","last_reported":1761991828,"current_range_meters":14000,"station_id":"","pricing_plan_id":"cebpf4jnsgd1na2vs0mg"},{"bike_id":"fbcc5886-69e3-488f-96fd-e45314a075e6","system_id":"levelo_inurba_marseille","lat":43.28875,"lon":5.42526,"is_reserved":false,"is_disabled":false,"rental_uris":{"android":"levelo://app?vid=fbcc5886-69e3-488f-96fd-e45314a075e6","ios":"levelo://app?vid=fbcc5886-69e3-488f-96fd-e45314a075e6"},"vehicle_type_id":"4","last_reported":1761991828,"current_range_meters":14000,"station_id":"st_d3b462108ojc7389ooeg","pricing_plan_id":"cebpf4jnsgd1na2vs0mg"},{"bike_id":"26a5504d-8832-4d22-8c38-bc79a3b1c352","system_id":"levelo_inurba_marseille","lat":43.294856,"lon":5.433039,"is_reserved":false,"is_disabled":false,"rental_uris":{"android":"levelo://app?vid=26a5504d-8832-4d22-8c38-bc79a3b1c352","ios":"levelo://app?vid=26a5504d-8832-4d22-8c38-bc79a3b1c352"},"vehicle_type_id":"4","last_reported":1761991828,"current_range_meters":14000,"station_id":"st_d3j5ugp08ojc73fj9d10","pricing_plan_id":"cebpf4jnsgd1na2vs0mg"},{"bike_id":"57a07059-3b10-4e01-bd9b-200835e6e775","system_id":"levelo_inurba_marseille","lat":43.317086,"lon":5.436996,"is_reserved":false,"is_disabled":false,"rental_uris":{"android":"levelo://app?vid=57a07059-3b10-4e01-bd9b-200835e6e775","ios":"levelo://app?vid=57a07059-3b10-4e01-bd9b-200835e6e775"},"vehicle_type_id":"4","last_reported":1761991828,"current_range_meters":14400,"station_id":"ce4bhp92rcd13ifvqhcg","pricing_plan_id":"cebpf4jnsgd1na2vs0mg"},{"bike_id":"68dfe5bf-96d8-40ed-a701-d1cafa21ceb7","system_id":"levelo_inurba_marseille","lat":43.305773,"lon":5.38965,"is_reserved":false,"is_disabled":false,"rental_uris":{"android":"levelo://app?vid=68dfe5bf-96d8-40ed-a701-d1cafa21ceb7","ios":"levelo://app?vid=68dfe5bf-96d8-40ed-a701-d1cafa21ceb7"},"vehicle_type_id":"4","last_reported":1761991828,"current_range_meters":14400,"station_id":"ce4bgk12rcd13ifvqbi0","pricing_plan_id":"cebpf4jnsgd1na2vs0mg"},{"bike_id":"7a9e1e86-52dc-42e4-a53b-236a591ba00d","system_id":"levelo_inurba_marseille","lat":43.28819,"lon":5.36382,"is_reserved":false,"is_disabled":false,"rental_uris":{"android":"levelo://app?vid=7a9e1e86-52dc-42e4-a53b-236a591ba00d","ios":"levelo://app?vid=7a9e1e86-52dc-42e4-a53b-236a591ba00d"},"vehicle_type_id":"4","last_reported":1761991828,"current_range_meters":14800,"station_id":"","pricing_plan_id":"cebpf4jnsgd1na2vs0mg"},{"bike_id":"cd34d17f-3532-46cd-94d6-9f325351c996","system_id":"levelo_inurba_marseille","lat":43.26562,"lon":5.40324,"is_reserved":false,"is_disabled":false,"rental_uris":{"android":"levelo://app?vid=cd34d17f-3532-46cd-94d6-9f325351c996","ios":"levelo://app?vid=cd34d17f-3532-46cd-94d6-9f325351c996"},"vehicle_type_id":"4","last_reported":1761991828,"current_range_meters":15200,"station_id":"ce4bhmp2rcd13ifvqgng","pricing_plan_id":"cebpf4jnsgd1na2vs0mg"},{"bike_id":"aad6a064-c048-4ba9-a156-1745b89548aa","system_id":"levelo_inurba_marseille","lat":43.283078,"lon":5.411091,"is_reserved":false,"is_disabled":false,"rental_uris":{"android":"levelo://app?vid=aad6a064-c048-4ba9-a156-1745b89548aa","ios":"levelo://app?vid=aad6a064-c048-4ba9-a156-1745b89548aa"},"vehicle_type_id":"4","last_reported":1761991828,"current_range_meters":15200,"station_id":"","pricing_plan_id":"cebpf4jnsgd1na2vs0mg"},{"bike_id":"0089665c-d050-4f0d-8d27-e9a6af9208fc","system_id":"levelo_inurba_marseille","lat":43.30166,"lon":5.38016,"is_reserved":false,"is_disabled":false,"rental_uris":{"android":"levelo://app?vid=0089665c-d050-4f0d-8d27-e9a6af9208fc","ios":"levelo://app?vid=0089665c-d050-4f0d-8d27-e9a6af9208fc"},"vehicle_type_id":"4","last_reported":1761991828,"current_range_meters":15200,"station_id":"","pricing_plan_id":"cebpf4jnsgd1na2vs0mg"},{"bike_id":"0c3bfe72-1bfa-4fe4-8ec1-abc531b0b6c5","system_id":"levelo_inurba_marseille","lat":43.265461,"lon":5.372856,"is_reserved":false,"is_disabled":true,"rental_uris":{"android":"levelo://app?vid=0c3bfe72-1bfa-4fe4-8ec1-abc531b0b6c5","ios":"levelo://app?vid=0c3bfe72-1bfa-4fe4-8ec1-abc531b0b6c5"},"vehicle_type_id":"4","last_reported":1761991828,"current_range_meters":15200,"station_id":"ce4bhg12rcd13ifvqf70","pricing_plan_id":"cebpf4jnsgd1na2vs0mg"},{"bike_id":"af5fb5e5-ec1b-48e3-9fd8-2b54a9d6b7f8","system_id":"levelo_inurba_marseille","lat":43.24549,"lon":5.39519,"is_reserved":false,"is_disabled":false,"rental_uris":{"android":"levelo://app?vid=af5fb5e5-ec1b-48e3-9fd8-2b54a9d6b7f8","ios":"levelo://app?vid=af5fb5e5-ec1b-48e3-9fd8-2b54a9d6b7f8"},"vehicle_type_id":"4","last_reported":1761991828,"current_range_meters":15200,"station_id":"ce4bhlp2rcd13ifvqgjg","pricing_plan_id":"cebpf4jnsgd1na2vs0mg"},{"bike_id":"a4bbad58-8103-47f1-8af1-9667ef07b1bf","system_id":"levelo_inurba_marseille","lat":43.32119,"lon":5.36755,"is_reserved":false,"is_disabled":false,"rental_uris":{"android":"levelo://app?vid=a4bbad58-8103-47f1-8af1-9667ef07b1bf","ios":"levelo://app?vid=a4bbad58-8103-47f1-8af1-9667ef07b1bf"},"vehicle_type_id":"4","last_reported":1761991828,"current_range_meters":15200,"station_id":"ce4bhrh2rcd13ifvqhug","pricing_plan_id":"cebpf4jnsgd1na2vs0mg"},{"bike_id":"712b7649-f440-4e95-bc0a-6525a9259dc8","system_id":"levelo_inurba_marseille","lat":43.291948,"lon":5.402657,"is_reserved":false,"is_disabled":false,"rental_uris":{"android":"levelo://app?vid=712b7649-f440-4e95-bc0a-6525a9259dc8","ios":"levelo://app?vid=712b7649-f440-4e95-bc0a-6525a9259dc8"},"vehicle_type_id":"4","last_reported":1761991828,"current_range_meters":15200,"station_id":"","pricing_plan_id":"cebpf4jnsgd1na2vs0mg"},{"bike_id":"1da464de-a87c-49fb-939a-9732a97a4ebd","system_id":"levelo_inurba_marseille","lat":43.32112,"lon":5.36781,"is_reserved":false,"is_disabled":false,"rental_uris":{"android":"levelo://app?vid=1da464de-a87c-49fb-939a-9732a97a4ebd","ios":"levelo://app?vid=1da464de-a87c-49fb-939a-9732a97a4ebd"},"vehicle_type_id":"4","last_reported":1761991828,"current_range_meters":16000,"station_id":"ce4bhrh2rcd13ifvqhug","pricing_plan_id":"cebpf4jnsgd1na2vs0mg"},{"bike_id":"5ebb2617-c81f-4a0e-a676-bfeb61c026f6","system_id":"levelo_inurba_marseille","lat":43.21189,"lon":5.35058,"is_reserved":false,"is_disabled":false,"rental_uris":{"android":"levelo://app?vid=5ebb2617-c81f-4a0e-a676-bfeb61c026f6","ios":"levelo://app?vid=5ebb2617-c81f-4a0e-a676-bfeb61c026f6"},"vehicle_type_id":"4","last_reported":1761991828,"current_range_meters":16000,"station_id":"st_cvj6sg6p6f1abm77japg","pricing_plan_id":"cebpf4jnsgd1na2vs0mg"},{"bike_id":"bfd47976-4b12-4a3a-abee-96cc29a7d071","system_id":"levelo_inurba_marseille","lat":43.29489,"lon":5.43302,"is_reserved":false,"is_disabled":false,"rental_uris":{"android":"levelo://app?vid=bfd47976-4b12-4a3a-abee-96cc29a7d071","ios":"levelo://app?vid=bfd47976-4b12-4a3a-abee-96cc29a7d071"},"vehicle_type_id":"4","last_reported":1761991828,"current_range_meters":16000,"station_id":"st_d3j5ugp08ojc73fj9d10","pricing_plan_id":"cebpf4jnsgd1na2vs0mg"},{"bike_id":"f4c38a56-4a35-49a9-bdea-5d14ae1ba768","system_id":"levelo_inurba_marseille","lat":43.297555,"lon":5.427839,"is_reserved":false,"is_disabled":false,"rental_uris":{"android":"levelo://app?vid=f4c38a56-4a35-49a9-bdea-5d14ae1ba768","ios":"levelo://app?vid=f4c38a56-4a35-49a9-bdea-5d14ae1ba768"},"vehicle_type_id":"4","last_reported":1761991828,"current_range_meters":16000,"station_id":"st_d3md5207bmas73dh9klg","pricing_plan_id":"cebpf4jnsgd1na2vs0mg"},{"bike_id":"dfb01125-5850-4938-8675-2ee67ab493b7","system_id":"levelo_inurba_marseille","lat":43.33766,"lon":5.37423,"is_reserved":false,"is_disabled":false,"rental_uris":{"android":"levelo://app?vid=dfb01125-5850-4938-8675-2ee67ab493b7","ios":"levelo://app?vid=dfb01125-5850-4938-8675-2ee67ab493b7"},"vehicle_type_id":"4","last_reported":1761991828,"current_range_meters":16000,"station_id":"","pricing_plan_id":"cebpf4jnsgd1na2vs0mg"},{"bike_id":"35c5eff1-6c48-49f5-b44e-1b2d21fe3798","system_id":"levelo_inurba_marseille","lat":43.32104,"lon":5.36785,"is_reserved":false,"is_disabled":false,"rental_uris":{"android":"levelo://app?vid=35c5eff1-6c48-49f5-b44e-1b2d21fe3798","ios":"levelo://app?vid=35c5eff1-6c48-49f5-b44e-1b2d21fe3798"},"vehicle_type_id":"4","last_reported":1761991828,"current_range_meters":16000,"station_id":"ce4bhrh2rcd13ifvqhug","pricing_plan_id":"cebpf4jnsgd1na2vs0mg"},{"bike_id":"252ff558-e70b-4ae0-9044-acc668b445bb","system_id":"levelo_inurba_marseille","lat":43.21191,"lon":5.35064,"is_reserved":false,"is_disabled":false,"rental_uris":{"android":"levelo://app?vid=252ff558-e70b-4ae0-9044-acc668b445bb","ios":"levelo://app?vid=252ff558-e70b-4ae0-9044-acc668b445bb"},"vehicle_type_id":"4","last_reported":1761991828,"current_range_meters":16000,"station_id":"st_cvj6sg6p6f1abm77japg","pricing_plan_id":"cebpf4jnsgd1na2vs0mg"},{"bike_id":"5382a3f0-2e84-46ae-97e9-af88defb662e","system_id":"levelo_inurba_marseille","lat":43.30154,"lon":5.38077,"is_reserved":false,"is_disabled":false,"rental_uris":{"android":"levelo://app?vid=5382a3f0-2e84-46ae-97e9-af88defb662e","ios":"levelo://app?vid=5382a3f0-2e84-46ae-97e9-af88defb662e"},"vehicle_type_id":"4","last_reported":1761991828,"current_range_meters":16000,"station_id":"ce4bgjp2rcd13ifvqbh0","pricing_plan_id":"cebpf4jnsgd1na2vs0mg"},{"bike_id":"01101f52-783d-4a69-b659-15bcb3f48805","system_id":"levelo_inurba_marseille","lat":43.31192,"lon":5.37853,"is_reserved":false,"is_disabled":false,"rental_uris":{"android":"levelo://app?vid=01101f52-783d-4a69-b659-15bcb3f48805","ios":"levelo://app?vid=01101f52-783d-4a69-b659-15bcb3f48805"},"vehicle_type_id":"4","last_reported":1761991828,"current_range_meters":16000,"station_id":"","pricing_plan_id":"cebpf4jnsgd1na2vs0mg"},{"bike_id":"243eb6bd-9f35-49fc-be7d-dcad93d8e088","system_id":"levelo_inurba_marseille","lat":43.335615,"lon":5.410248,"is_reserved":false,"is_disabled":true,"rental_uris":{"android":"levelo://app?vid=243eb6bd-9f35-49fc-be7d-dcad93d8e088","ios":"levelo://app?vid=243eb6bd-9f35-49fc-be7d-dcad93d8e088"},"vehicle_type_id":"4","last_reported":1761991828,"current_range_meters":16400,"station_id":"","pricing_plan_id":"cebpf4jnsgd1na2vs0mg"},{"bike_id":"077dbc7f-4454-4bf9-9070-0f322c6eebe0","system_id":"levelo_inurba_marseille","lat":43.33603,"lon":5.41036,"is_reserved":false,"is_disabled":false,"rental_uris":{"android":"levelo://app?vid=077dbc7f-4454-4bf9-9070-0f322c6eebe0","ios":"levelo://app?vid=077dbc7f-4454-4bf9-9070-0f322c6eebe0"},"vehicle_type_id":"4","last_reported":1761991828,"current_range_meters":16400,"station_id":"ce4bhqh2rcd13ifvqhmg","pricing_plan_id":"cebpf4jnsgd1na2vs0mg"},{"bike_id":"899c87b1-6bff-45be-9ccf-1bef8f01d021","system_id":"levelo_inurba_marseille","lat":43.31693,"lon":5.40453,"is_reserved":false,"is_disabled":false,"rental_uris":{"android":"levelo://app?vid=899c87b1-6bff-45be-9ccf-1bef8f01d021","ios":"levelo://app?vid=899c87b1-6bff-45be-9ccf-1bef8f01d021"},"vehicle_type_id":"4","last_reported":1761991828,"current_range_meters":16400,"station_id":"ce4bh012rcd13ifvqd00","pricing_plan_id":"cebpf4jnsgd1na2vs0mg"},{"bike_id":"32632625-b281-4348-990f-071d78c42b84","system_id":"levelo_inurba_marseille","lat":43.26569,"lon":5.39014,"is_reserved":false,"is_disabled":false,"rental_uris":{"android":"levelo://app?vid=32632625-b281-4348-990f-071d78c42b84","ios":"levelo://app?vid=32632625-b281-4348-990f-071d78c42b84"},"vehicle_type_id":"4","last_reported":1761991828,"current_range_meters":16400,"station_id":"","pricing_plan_id":"cebpf4jnsgd1na2vs0mg"},{"bike_id":"33ae0dab-3749-43ff-9793-2b7dc4ecf75d","system_id":"levelo_inurba_marseille","lat":43.25346,"lon":5.4218,"is_reserved":false,"is_disabled":false,"rental_uris":{"android":"levelo://app?vid=33ae0dab-3749-43ff-9793-2b7dc4ecf75d","ios":"levelo://app?vid=33ae0dab-3749-43ff-9793-2b7dc4ecf75d"},"vehicle_type_id":"4","last_reported":1761991828,"current_range_meters":16400,"station_id":"st_d2m65c5bi1j21697t3ng","pricing_plan_id":"cebpf4jnsgd1na2vs0mg"},{"bike_id":"05a43803-6330-4f9d-8f80-87bc3917bace","system_id":"levelo_inurba_marseille","lat":43.24413,"lon":5.37064,"is_reserved":false,"is_disabled":false,"rental_uris":{"android":"levelo://app?vid=05a43803-6330-4f9d-8f80-87bc3917bace","ios":"levelo://app?vid=05a43803-6330-4f9d-8f80-87bc3917bace"},"vehicle_type_id":"4","last_reported":1761991828,"current_range_meters":16400,"station_id":"ce4bhhh2rcd13ifvqfk0","pricing_plan_id":"cebpf4jnsgd1na2vs0mg"},{"bike_id":"cc0d6697-bf7c-4001-828f-c5cf42c80c59","system_id":"levelo_inurba_marseille","lat":43.21181,"lon":5.35071,"is_reserved":false,"is_disabled":false,"rental_uris":{"android":"levelo://app?vid=cc0d6697-bf7c-4001-828f-c5cf42c80c59","ios":"levelo://app?vid=cc0d6697-bf7c-4001-828f-c5cf42c80c59"},"vehicle_type_id":"4","last_reported":1761991828,"current_range_meters":16400,"station_id":"","pricing_plan_id":"cebpf4jnsgd1na2vs0mg"},{"bike_id":"94084d75-b1ec-4cf5-8736-b1d0c7eed7ce","system_id":"levelo_inurba_marseille","lat":43.33035,"lon":5.39037,"is_reserved":false,"is_disabled":false,"rental_uris":{"android":"levelo://app?vid=94084d75-b1ec-4cf5-8736-b1d0c7eed7ce","ios":"levelo://app?vid=94084d75-b1ec-4cf5-8736-b1d0c7eed7ce"},"vehicle_type_id":"4","last_reported":1761991828,"current_range_meters":16800,"station_id":"ce4bhr92rcd13ifvqhrg","pricing_plan_id":"cebpf4jnsgd1na2vs0mg"},{"bike_id":"ab87b31a-8909-4a80-9b1c-ae11de0518f9","system_id":"levelo_inurba_marseille","lat":43.30166,"lon":5.36622,"is_reserved":false,"is_disabled":false,"rental_uris":{"android":"levelo://app?vid=ab87b31a-8909-4a80-9b1c-ae11de0518f9","ios":"levelo://app?vid=ab87b31a-8909-4a80-9b1c-ae11de0518f9"},"vehicle_type_id":"4","last_reported":1761991828,"current_range_meters":16800,"station_id":"ce4bgrh2rcd13ifvqc8g","pricing_plan_id":"cebpf4jnsgd1na2vs0mg"},{"bike_id":"92c4ecea-a870-4734-96b0-1c8b639bde58","system_id":"levelo_inurba_marseille","lat":43.253345,"lon":5.421671,"is_reserved":false,"is_disabled":false,"rental_uris":{"android":"levelo://app?vid=92c4ecea-a870-4734-96b0-1c8b639bde58","ios":"levelo://app?vid=92c4ecea-a870-4734-96b0-1c8b639bde58"},"vehicle_type_id":"4","last_reported":1761991828,"current_range_meters":16800,"station_id":"st_d2m65c5bi1j21697t3ng","pricing_plan_id":"cebpf4jnsgd1na2vs0mg"},{"bike_id":"41598790-345d-414f-9e87-720cb432f278","system_id":"levelo_inurba_marseille","lat":43.29477,"lon":5.36227,"is_reserved":false,"is_disabled":false,"rental_uris":{"android":"levelo://app?vid=41598790-345d-414f-9e87-720cb432f278","ios":"levelo://app?vid=41598790-345d-414f-9e87-720cb432f278"},"vehicle_type_id":"4","last_reported":1761991828,"current_range_meters":16800,"station_id":"","pricing_plan_id":"cebpf4jnsgd1na2vs0mg"},{"bike_id":"fafa4589-30aa-410f-bafe-e1b351d8b989","system_id":"levelo_inurba_marseille","lat":43.2258,"lon":5.41621,"is_reserved":false,"is_disabled":false,"rental_uris":{"android":"levelo://app?vid=fafa4589-30aa-410f-bafe-e1b351d8b989","ios":"levelo://app?vid=fafa4589-30aa-410f-bafe-e1b351d8b989"},"vehicle_type_id":"4","last_reported":1761991828,"current_range_meters":16800,"station_id":"st_d2o4gvlbi1j2169b742g","pricing_plan_id":"cebpf4jnsgd1na2vs0mg"},{"bike_id":"f48c2369-952a-4c4f-864f-4da168ab283a","system_id":"levelo_inurba_marseille","lat":43.288629,"lon":5.425269,"is_reserved":false,"is_disabled":false,"rental_uris":{"android":"levelo://app?vid=f48c2369-952a-4c4f-864f-4da168ab283a","ios":"levelo://app?vid=f48c2369-952a-4c4f-864f-4da168ab283a"},"vehicle_type_id":"4","last_reported":1761991828,"current_range_meters":16800,"station_id":"st_d3b462108ojc7389ooeg","pricing_plan_id":"cebpf4jnsgd1na2vs0mg"},{"bike_id":"50c2c89c-4a9b-41f6-af05-b4e430e07029","system_id":"levelo_inurba_marseille","lat":43.246421,"lon":5.431485,"is_reserved":false,"is_disabled":false,"rental_uris":{"android":"levelo://app?vid=50c2c89c-4a9b-41f6-af05-b4e430e07029","ios":"levelo://app?vid=50c2c89c-4a9b-41f6-af05-b4e430e07029"},"vehicle_type_id":"4","last_reported":1761991828,"current_range_meters":16800,"station_id":"st_d2m6c4gdas8pm72e190g","pricing_plan_id":"cebpf4jnsgd1na2vs0mg"},{"bike_id":"d3edba6f-a38d-4f39-85cd-ad176b184599","system_id":"levelo_inurba_marseille","lat":43.24074,"lon":5.37761,"is_reserved":false,"is_disabled":false,"rental_uris":{"android":"levelo://app?vid=d3edba6f-a38d-4f39-85cd-ad176b184599","ios":"levelo://app?vid=d3edba6f-a38d-4f39-85cd-ad176b184599"},"vehicle_type_id":"4","last_reported":1761991828,"current_range_meters":16800,"station_id":"ce4bhnp2rcd13ifvqgvg","pricing_plan_id":"cebpf4jnsgd1na2vs0mg"},{"bike_id":"269b302d-3c48-4bb6-a063-2ab24423c89a","system_id":"levelo_inurba_marseille","lat":43.22546,"lon":5.41611,"is_reserved":false,"is_disabled":false,"rental_uris":{"android":"levelo://app?vid=269b302d-3c48-4bb6-a063-2ab24423c89a","ios":"levelo://app?vid=269b302d-3c48-4bb6-a063-2ab24423c89a"},"vehicle_type_id":"4","last_reported":1761991828,"current_range_meters":16800,"station_id":"st_d2o4gvlbi1j2169b742g","pricing_plan_id":"cebpf4jnsgd1na2vs0mg"},{"bike_id":"1d29646a-da1f-4f66-b008-0838ffb2fa84","system_id":"levelo_inurba_marseille","lat":43.30009,"lon":5.37204,"is_reserved":false,"is_disabled":false,"rental_uris":{"android":"levelo://app?vid=1d29646a-da1f-4f66-b008-0838ffb2fa84","ios":"levelo://app?vid=1d29646a-da1f-4f66-b008-0838ffb2fa84"},"vehicle_type_id":"4","last_reported":1761991828,"current_range_meters":16800,"station_id":"ce4bgr92rcd13ifvqc7g","pricing_plan_id":"cebpf4jnsgd1na2vs0mg"},{"bike_id":"52b04612-cd38-411f-a68e-6bb9cb24a90a","system_id":"levelo_inurba_marseille","lat":43.241623,"lon":5.363947,"is_reserved":false,"is_disabled":false,"rental_uris":{"android":"levelo://app?vid=52b04612-cd38-411f-a68e-6bb9cb24a90a","ios":"levelo://app?vid=52b04612-cd38-411f-a68e-6bb9cb24a90a"},"vehicle_type_id":"4","last_reported":1761991828,"current_range_meters":17200,"station_id":"cpo36qri1sfpv3e86is0","pricing_plan_id":"cebpf4jnsgd1na2vs0mg"},{"bike_id":"bd787a0f-baf0-43a5-a3f2-abe77af6fb04","system_id":"levelo_inurba_marseille","lat":43.311278,"lon":5.377479,"is_reserved":false,"is_disabled":false,"rental_uris":{"android":"levelo://app?vid=bd787a0f-baf0-43a5-a3f2-abe77af6fb04","ios":"levelo://app?vid=bd787a0f-baf0-43a5-a3f2-abe77af6fb04"},"vehicle_type_id":"4","last_reported":1761991828,"current_range_meters":17200,"station_id":"ce4bgt92rcd13ifvqcg0","pricing_plan_id":"cebpf4jnsgd1na2vs0mg"},{"bike_id":"528e3c88-b623-43f9-a15b-cba9eb4d6f1a","system_id":"levelo_inurba_marseille","lat":43.284894,"lon":5.483883,"is_reserved":false,"is_disabled":false,"rental_uris":{"android":"levelo://app?vid=528e3c88-b623-43f9-a15b-cba9eb4d6f1a","ios":"levelo://app?vid=528e3c88-b623-43f9-a15b-cba9eb4d6f1a"},"vehicle_type_id":"4","last_reported":1761991828,"current_range_meters":17200,"station_id":"st_d3svhcjqgbts73a3dn0g","pricing_plan_id":"cebpf4jnsgd1na2vs0mg"},{"bike_id":"565cc599-e2e4-4d0e-aef3-effc6ee3ffe7","system_id":"levelo_inurba_marseille","lat":43.279407,"lon":5.410438,"is_reserved":false,"is_disabled":false,"rental_uris":{"android":"levelo://app?vid=565cc599-e2e4-4d0e-aef3-effc6ee3ffe7","ios":"levelo://app?vid=565cc599-e2e4-4d0e-aef3-effc6ee3ffe7"},"vehicle_type_id":"4","last_reported":1761991828,"current_range_meters":17200,"station_id":"ce4bhnp2rcd13ifvqh0g","pricing_plan_id":"cebpf4jnsgd1na2vs0mg"},{"bike_id":"578a57cc-dd8f-4b86-9eea-c52481c8e90f","system_id":"levelo_inurba_marseille","lat":43.21188,"lon":5.35073,"is_reserved":false,"is_disabled":false,"rental_uris":{"android":"levelo://app?vid=578a57cc-dd8f-4b86-9eea-c52481c8e90f","ios":"levelo://app?vid=578a57cc-dd8f-4b86-9eea-c52481c8e90f"},"vehicle_type_id":"4","last_reported":1761991828,"current_range_meters":17200,"station_id":"st_cvj6sg6p6f1abm77japg","pricing_plan_id":"cebpf4jnsgd1na2vs0mg"},{"bike_id":"098e52bc-bd78-48c8-aa56-18b60278b9cb","system_id":"levelo_inurba_marseille","lat":43.24391,"lon":5.37045,"is_reserved":false,"is_disabled":false,"rental_uris":{"android":"levelo://app?vid=098e52bc-bd78-48c8-aa56-18b60278b9cb","ios":"levelo://app?vid=098e52bc-bd78-48c8-aa56-18b60278b9cb"},"vehicle_type_id":"4","last_reported":1761991828,"current_range_meters":17200,"station_id":"ce4bhhh2rcd13ifvqfk0","pricing_plan_id":"cebpf4jnsgd1na2vs0mg"},{"bike_id":"7c19b7e9-393b-4fa2-b057-4dd7dff08f6d","system_id":"levelo_inurba_marseille","lat":43.211932,"lon":5.350672,"is_reserved":false,"is_disabled":false,"rental_uris":{"android":"levelo://app?vid=7c19b7e9-393b-4fa2-b057-4dd7dff08f6d","ios":"levelo://app?vid=7c19b7e9-393b-4fa2-b057-4dd7dff08f6d"},"vehicle_type_id":"4","last_reported":1761991828,"current_range_meters":17200,"station_id":"st_cvj6sg6p6f1abm77japg","pricing_plan_id":"cebpf4jnsgd1na2vs0mg"},{"bike_id":"559dd85a-7aa9-44d9-a59a-779baf8c5c22","system_id":"levelo_inurba_marseille","lat":43.29491,"lon":5.43298,"is_reserved":false,"is_disabled":false,"rental_uris":{"android":"levelo://app?vid=559dd85a-7aa9-44d9-a59a-779baf8c5c22","ios":"levelo://app?vid=559dd85a-7aa9-44d9-a59a-779baf8c5c22"},"vehicle_type_id":"4","last_reported":1761991828,"current_range_meters":17600,"station_id":"st_d3j5ugp08ojc73fj9d10","pricing_plan_id":"cebpf4jnsgd1na2vs0mg"},{"bike_id":"0637f46b-5769-4460-8994-de2008ecd4b8","system_id":"levelo_inurba_marseille","lat":43.292658,"lon":5.384364,"is_reserved":false,"is_disabled":false,"rental_uris":{"android":"levelo://app?vid=0637f46b-5769-4460-8994-de2008ecd4b8","ios":"levelo://app?vid=0637f46b-5769-4460-8994-de2008ecd4b8"},"vehicle_type_id":"4","last_reported":1761991828,"current_range_meters":17600,"station_id":"ce4bh692rcd13ifvqea0","pricing_plan_id":"cebpf4jnsgd1na2vs0mg"},{"bike_id":"a5cb859b-d1f6-4546-b44d-58f2af5faab8","system_id":"levelo_inurba_marseille","lat":43.30138,"lon":5.3811,"is_reserved":false,"is_disabled":true,"rental_uris":{"android":"levelo://app?vid=a5cb859b-d1f6-4546-b44d-58f2af5faab8","ios":"levelo://app?vid=a5cb859b-d1f6-4546-b44d-58f2af5faab8"},"vehicle_type_id":"4","last_reported":1761991828,"current_range_meters":17600,"station_id":"ce4bgjp2rcd13ifvqbh0","pricing_plan_id":"cebpf4jnsgd1na2vs0mg"},{"bike_id":"a599ea86-16bb-4d79-89fe-01c4b3b42dc5","system_id":"levelo_inurba_marseille","lat":43.32138,"lon":5.36808,"is_reserved":false,"is_disabled":false,"rental_uris":{"android":"levelo://app?vid=a599ea86-16bb-4d79-89fe-01c4b3b42dc5","ios":"levelo://app?vid=a599ea86-16bb-4d79-89fe-01c4b3b42dc5"},"vehicle_type_id":"4","last_reported":1761991828,"current_range_meters":17600,"station_id":"ce4bhrh2rcd13ifvqhug","pricing_plan_id":"cebpf4jnsgd1na2vs0mg"},{"bike_id":"dff066ad-40a3-4b65-acd7-ce3c5096064e","system_id":"levelo_inurba_marseille","lat":43.28622,"lon":5.35089,"is_reserved":false,"is_disabled":false,"rental_uris":{"android":"levelo://app?vid=dff066ad-40a3-4b65-acd7-ce3c5096064e","ios":"levelo://app?vid=dff066ad-40a3-4b65-acd7-ce3c5096064e"},"vehicle_type_id":"4","last_reported":1761991828,"current_range_meters":17600,"station_id":"ce4bhch2rcd13ifvqeug","pricing_plan_id":"cebpf4jnsgd1na2vs0mg"},{"bike_id":"7bffee3d-9d7b-4fd6-bd76-b4108b0a75ba","system_id":"levelo_inurba_marseille","lat":43.25142,"lon":5.40368,"is_reserved":false,"is_disabled":false,"rental_uris":{"android":"levelo://app?vid=7bffee3d-9d7b-4fd6-bd76-b4108b0a75ba","ios":"levelo://app?vid=7bffee3d-9d7b-4fd6-bd76-b4108b0a75ba"},"vehicle_type_id":"4","last_reported":1761991828,"current_range_meters":17600,"station_id":"","pricing_plan_id":"cebpf4jnsgd1na2vs0mg"},{"bike_id":"81cbc3a1-762c-408c-8d0c-4e80122bb5b3","system_id":"levelo_inurba_marseille","lat":43.25711,"lon":5.41114,"is_reserved":false,"is_disabled":false,"rental_uris":{"android":"levelo://app?vid=81cbc3a1-762c-408c-8d0c-4e80122bb5b3","ios":"levelo://app?vid=81cbc3a1-762c-408c-8d0c-4e80122bb5b3"},"vehicle_type_id":"4","last_reported":1761991828,"current_range_meters":17600,"station_id":"ce4bhkp2rcd13ifvqgd0","pricing_plan_id":"cebpf4jnsgd1na2vs0mg"},{"bike_id":"ba541a52-7e4e-4241-9791-ae6f1fb03dcd","system_id":"levelo_inurba_marseille","lat":43.319925,"lon":5.415953,"is_reserved":false,"is_disabled":false,"rental_uris":{"android":"levelo://app?vid=ba541a52-7e4e-4241-9791-ae6f1fb03dcd","ios":"levelo://app?vid=ba541a52-7e4e-4241-9791-ae6f1fb03dcd"},"vehicle_type_id":"4","last_reported":1761991828,"current_range_meters":17600,"station_id":"","pricing_plan_id":"cebpf4jnsgd1na2vs0mg"},{"bike_id":"3d2e2924-f112-49fd-a219-246cd2f9c2d0","system_id":"levelo_inurba_marseille","lat":43.29851,"lon":5.36289,"is_reserved":false,"is_disabled":false,"rental_uris":{"android":"levelo://app?vid=3d2e2924-f112-49fd-a219-246cd2f9c2d0","ios":"levelo://app?vid=3d2e2924-f112-49fd-a219-246cd2f9c2d0"},"vehicle_type_id":"4","last_reported":1761991828,"current_range_meters":17600,"station_id":"ce4bgpp2rcd13ifvqc3g","pricing_plan_id":"cebpf4jnsgd1na2vs0mg"},{"bike_id":"c7d57f9b-8ba9-4435-ac3b-54d333c0b4c7","system_id":"levelo_inurba_marseille","lat":43.323616,"lon":5.367435,"is_reserved":false,"is_disabled":false,"rental_uris":{"android":"levelo://app?vid=c7d57f9b-8ba9-4435-ac3b-54d333c0b4c7","ios":"levelo://app?vid=c7d57f9b-8ba9-4435-ac3b-54d333c0b4c7"},"vehicle_type_id":"4","last_reported":1761991828,"current_range_meters":18000,"station_id":"ce4bhsh2rcd13ifvqi2g","pricing_plan_id":"cebpf4jnsgd1na2vs0mg"},{"bike_id":"137b611e-0d30-42e5-bd0e-4ca1b1f19b3a","system_id":"levelo_inurba_marseille","lat":43.28007,"lon":5.39995,"is_reserved":false,"is_disabled":false,"rental_uris":{"android":"levelo://app?vid=137b611e-0d30-42e5-bd0e-4ca1b1f19b3a","ios":"levelo://app?vid=137b611e-0d30-42e5-bd0e-4ca1b1f19b3a"},"vehicle_type_id":"4","last_reported":1761991828,"current_range_meters":18000,"station_id":"ce4bho92rcd13ifvqh4g","pricing_plan_id":"cebpf4jnsgd1na2vs0mg"},{"bike_id":"ce6f105d-cc72-46c1-9abc-063a32145241","system_id":"levelo_inurba_marseille","lat":43.28627,"lon":5.35069,"is_reserved":false,"is_disabled":false,"rental_uris":{"android":"levelo://app?vid=ce6f105d-cc72-46c1-9abc-063a32145241","ios":"levelo://app?vid=ce6f105d-cc72-46c1-9abc-063a32145241"},"vehicle_type_id":"4","last_reported":1761991828,"current_range_meters":18000,"station_id":"ce4bhch2rcd13ifvqeug","pricing_plan_id":"cebpf4jnsgd1na2vs0mg"},{"bike_id":"c622ca4e-4d49-41b2-a171-8a8304e3b8f0","system_id":"levelo_inurba_marseille","lat":43.2892,"lon":5.3839,"is_reserved":false,"is_disabled":false,"rental_uris":{"android":"levelo://app?vid=c622ca4e-4d49-41b2-a171-8a8304e3b8f0","ios":"levelo://app?vid=c622ca4e-4d49-41b2-a171-8a8304e3b8f0"},"vehicle_type_id":"4","last_reported":1761991828,"current_range_meters":18000,"station_id":"ce4bh612rcd13ifvqe6g","pricing_plan_id":"cebpf4jnsgd1na2vs0mg"},{"bike_id":"7b0eaa70-7657-4098-8e47-f6fae1ad1d21","system_id":"levelo_inurba_marseille","lat":43.258758,"lon":5.398913,"is_reserved":false,"is_disabled":false,"rental_uris":{"android":"levelo://app?vid=7b0eaa70-7657-4098-8e47-f6fae1ad1d21","ios":"levelo://app?vid=7b0eaa70-7657-4098-8e47-f6fae1ad1d21"},"vehicle_type_id":"4","last_reported":1761991828,"current_range_meters":18000,"station_id":"ce4bhl92rcd13ifvqghg","pricing_plan_id":"cebpf4jnsgd1na2vs0mg"},{"bike_id":"0462e1e6-c802-4473-8418-6ae2ab333385","system_id":"levelo_inurba_marseille","lat":43.28618,"lon":5.35096,"is_reserved":false,"is_disabled":false,"rental_uris":{"android":"levelo://app?vid=0462e1e6-c802-4473-8418-6ae2ab333385","ios":"levelo://app?vid=0462e1e6-c802-4473-8418-6ae2ab333385"},"vehicle_type_id":"4","last_reported":1761991828,"current_range_meters":18000,"station_id":"ce4bhch2rcd13ifvqeug","pricing_plan_id":"cebpf4jnsgd1na2vs0mg"},{"bike_id":"7c67ca55-5282-4172-a838-78be8ea8762e","system_id":"levelo_inurba_marseille","lat":43.31265,"lon":5.40169,"is_reserved":false,"is_disabled":false,"rental_uris":{"android":"levelo://app?vid=7c67ca55-5282-4172-a838-78be8ea8762e","ios":"levelo://app?vid=7c67ca55-5282-4172-a838-78be8ea8762e"},"vehicle_type_id":"4","last_reported":1761991828,"current_range_meters":18000,"station_id":"ce4bh092rcd13ifvqd30","pricing_plan_id":"cebpf4jnsgd1na2vs0mg"},{"bike_id":"1407ca8e-dc3a-4c83-932b-399155c17789","system_id":"levelo_inurba_marseille","lat":43.279095,"lon":5.380181,"is_reserved":false,"is_disabled":false,"rental_uris":{"android":"levelo://app?vid=1407ca8e-dc3a-4c83-932b-399155c17789","ios":"levelo://app?vid=1407ca8e-dc3a-4c83-932b-399155c17789"},"vehicle_type_id":"4","last_reported":1761991828,"current_range_meters":18800,"station_id":"ce4bhf92rcd13ifvqf50","pricing_plan_id":"cebpf4jnsgd1na2vs0mg"},{"bike_id":"84f1bfac-8d21-499b-b8e1-fdc8049e10ac","system_id":"levelo_inurba_marseille","lat":43.31271,"lon":5.37718,"is_reserved":false,"is_disabled":false,"rental_uris":{"android":"levelo://app?vid=84f1bfac-8d21-499b-b8e1-fdc8049e10ac","ios":"levelo://app?vid=84f1bfac-8d21-499b-b8e1-fdc8049e10ac"},"vehicle_type_id":"4","last_reported":1761991828,"current_range_meters":18800,"station_id":"","pricing_plan_id":"cebpf4jnsgd1na2vs0mg"},{"bike_id":"7faa217f-bf9b-4fae-a2a5-605e5bc6065e","system_id":"levelo_inurba_marseille","lat":43.27917,"lon":5.38019,"is_reserved":false,"is_disabled":false,"rental_uris":{"android":"levelo://app?vid=7faa217f-bf9b-4fae-a2a5-605e5bc6065e","ios":"levelo://app?vid=7faa217f-bf9b-4fae-a2a5-605e5bc6065e"},"vehicle_type_id":"4","last_reported":1761991828,"current_range_meters":18800,"station_id":"ce4bhf92rcd13ifvqf50","pricing_plan_id":"cebpf4jnsgd1na2vs0mg"},{"bike_id":"2a32e756-8076-4328-a472-196c9c9d4e25","system_id":"levelo_inurba_marseille","lat":43.28617,"lon":5.37056,"is_reserved":false,"is_disabled":false,"rental_uris":{"android":"levelo://app?vid=2a32e756-8076-4328-a472-196c9c9d4e25","ios":"levelo://app?vid=2a32e756-8076-4328-a472-196c9c9d4e25"},"vehicle_type_id":"4","last_reported":1761991828,"current_range_meters":18800,"station_id":"ce4bht12rcd13ifvqi60","pricing_plan_id":"cebpf4jnsgd1na2vs0mg"},{"bike_id":"c2f2b30e-29f4-4890-a8cc-400c9aaf47fd","system_id":"levelo_inurba_marseille","lat":43.30599,"lon":5.37229,"is_reserved":false,"is_disabled":false,"rental_uris":{"android":"levelo://app?vid=c2f2b30e-29f4-4890-a8cc-400c9aaf47fd","ios":"levelo://app?vid=c2f2b30e-29f4-4890-a8cc-400c9aaf47fd"},"vehicle_type_id":"4","last_reported":1761991828,"current_range_meters":18800,"station_id":"ce4bgqh2rcd13ifvqc4g","pricing_plan_id":"cebpf4jnsgd1na2vs0mg"},{"bike_id":"20c7bad9-32fc-4dd7-bc49-c99c74f64ba6","system_id":"levelo_inurba_marseille","lat":43.23185,"lon":5.35543,"is_reserved":false,"is_disabled":false,"rental_uris":{"android":"levelo://app?vid=20c7bad9-32fc-4dd7-bc49-c99c74f64ba6","ios":"levelo://app?vid=20c7bad9-32fc-4dd7-bc49-c99c74f64ba6"},"vehicle_type_id":"4","last_reported":1761991828,"current_range_meters":19200,"station_id":"ce4bhu92rcd13ifvqi70","pricing_plan_id":"cebpf4jnsgd1na2vs0mg"},{"bike_id":"12a18d4a-7b67-4876-88d1-1820554fc400","system_id":"levelo_inurba_marseille","lat":43.29746,"lon":5.38091,"is_reserved":false,"is_disabled":false,"rental_uris":{"android":"levelo://app?vid=12a18d4a-7b67-4876-88d1-1820554fc400","ios":"levelo://app?vid=12a18d4a-7b67-4876-88d1-1820554fc400"},"vehicle_type_id":"4","last_reported":1761991828,"current_range_meters":19200,"station_id":"","pricing_plan_id":"cebpf4jnsgd1na2vs0mg"},{"bike_id":"fd2a3e15-d6ed-4064-b7e2-d83799925ad0","system_id":"levelo_inurba_marseille","lat":43.29742,"lon":5.42784,"is_reserved":false,"is_disabled":false,"rental_uris":{"android":"levelo://app?vid=fd2a3e15-d6ed-4064-b7e2-d83799925ad0","ios":"levelo://app?vid=fd2a3e15-d6ed-4064-b7e2-d83799925ad0"},"vehicle_type_id":"4","last_reported":1761991828,"current_range_meters":19200,"station_id":"st_d3md5207bmas73dh9klg","pricing_plan_id":"cebpf4jnsgd1na2vs0mg"},{"bike_id":"708ba87a-b6fe-412b-b52f-b23f135c4cda","system_id":"levelo_inurba_marseille","lat":43.26799,"lon":5.40267,"is_reserved":false,"is_disabled":false,"rental_uris":{"android":"levelo://app?vid=708ba87a-b6fe-412b-b52f-b23f135c4cda","ios":"levelo://app?vid=708ba87a-b6fe-412b-b52f-b23f135c4cda"},"vehicle_type_id":"4","last_reported":1761991828,"current_range_meters":19200,"station_id":"ce501612rcd8frsf0b60","pricing_plan_id":"cebpf4jnsgd1na2vs0mg"},{"bike_id":"1c2de41b-474e-40da-99a4-719f00c24016","system_id":"levelo_inurba_marseille","lat":43.22566,"lon":5.41621,"is_reserved":false,"is_disabled":false,"rental_uris":{"android":"levelo://app?vid=1c2de41b-474e-40da-99a4-719f00c24016","ios":"levelo://app?vid=1c2de41b-474e-40da-99a4-719f00c24016"},"vehicle_type_id":"4","last_reported":1761991828,"current_range_meters":19200,"station_id":"st_d2o4gvlbi1j2169b742g","pricing_plan_id":"cebpf4jnsgd1na2vs0mg"},{"bike_id":"3320ccd2-3738-4379-b23b-2565ce37ff22","system_id":"levelo_inurba_marseille","lat":43.279077,"lon":5.380132,"is_reserved":false,"is_disabled":false,"rental_uris":{"android":"levelo://app?vid=3320ccd2-3738-4379-b23b-2565ce37ff22","ios":"levelo://app?vid=3320ccd2-3738-4379-b23b-2565ce37ff22"},"vehicle_type_id":"4","last_reported":1761991828,"current_range_meters":19200,"station_id":"ce4bhf92rcd13ifvqf50","pricing_plan_id":"cebpf4jnsgd1na2vs0mg"},{"bike_id":"fbc899d2-8c60-432e-a054-080f9183e9de","system_id":"levelo_inurba_marseille","lat":43.25328,"lon":5.42153,"is_reserved":false,"is_disabled":false,"rental_uris":{"android":"levelo://app?vid=fbc899d2-8c60-432e-a054-080f9183e9de","ios":"levelo://app?vid=fbc899d2-8c60-432e-a054-080f9183e9de"},"vehicle_type_id":"4","last_reported":1761991828,"current_range_meters":19600,"station_id":"st_d2m65c5bi1j21697t3ng","pricing_plan_id":"cebpf4jnsgd1na2vs0mg"},{"bike_id":"23b84cec-a4ce-4921-abb7-d9c0576be498","system_id":"levelo_inurba_marseille","lat":43.29002,"lon":5.35599,"is_reserved":false,"is_disabled":false,"rental_uris":{"android":"levelo://app?vid=23b84cec-a4ce-4921-abb7-d9c0576be498","ios":"levelo://app?vid=23b84cec-a4ce-4921-abb7-d9c0576be498"},"vehicle_type_id":"4","last_reported":1761991828,"current_range_meters":19600,"station_id":"ce4bhb92rcd13ifvqen0","pricing_plan_id":"cebpf4jnsgd1na2vs0mg"},{"bike_id":"82307e5d-1d88-4836-b33e-a10a4da30997","system_id":"levelo_inurba_marseille","lat":43.26558,"lon":5.4033,"is_reserved":false,"is_disabled":false,"rental_uris":{"android":"levelo://app?vid=82307e5d-1d88-4836-b33e-a10a4da30997","ios":"levelo://app?vid=82307e5d-1d88-4836-b33e-a10a4da30997"},"vehicle_type_id":"4","last_reported":1761991828,"current_range_meters":19600,"station_id":"ce4bhmp2rcd13ifvqgng","pricing_plan_id":"cebpf4jnsgd1na2vs0mg"},{"bike_id":"9b0d9e28-79a3-4616-8e57-580f61942c1e","system_id":"levelo_inurba_marseille","lat":43.28784,"lon":5.38375,"is_reserved":false,"is_disabled":false,"rental_uris":{"android":"levelo://app?vid=9b0d9e28-79a3-4616-8e57-580f61942c1e","ios":"levelo://app?vid=9b0d9e28-79a3-4616-8e57-580f61942c1e"},"vehicle_type_id":"4","last_reported":1761991828,"current_range_meters":19600,"station_id":"","pricing_plan_id":"cebpf4jnsgd1na2vs0mg"},{"bike_id":"78b5a2e7-845d-4887-822f-8c1d6b043178","system_id":"levelo_inurba_marseille","lat":43.31164,"lon":5.38718,"is_reserved":false,"is_disabled":false,"rental_uris":{"android":"levelo://app?vid=78b5a2e7-845d-4887-822f-8c1d6b043178","ios":"levelo://app?vid=78b5a2e7-845d-4887-822f-8c1d6b043178"},"vehicle_type_id":"4","last_reported":1761991828,"current_range_meters":19600,"station_id":"ce4bgv12rcd13ifvqcp0","pricing_plan_id":"cebpf4jnsgd1na2vs0mg"},{"bike_id":"dd70bcc2-2e6b-447f-adc2-e0826cf93554","system_id":"levelo_inurba_marseille","lat":43.319069,"lon":5.401552,"is_reserved":false,"is_disabled":false,"rental_uris":{"android":"levelo://app?vid=dd70bcc2-2e6b-447f-adc2-e0826cf93554","ios":"levelo://app?vid=dd70bcc2-2e6b-447f-adc2-e0826cf93554"},"vehicle_type_id":"4","last_reported":1761991828,"current_range_meters":19600,"station_id":"","pricing_plan_id":"cebpf4jnsgd1na2vs0mg"},{"bike_id":"25131427-85e5-432e-867f-75f99f0812a0","system_id":"levelo_inurba_marseille","lat":43.248017,"lon":5.374569,"is_reserved":false,"is_disabled":false,"rental_uris":{"android":"levelo://app?vid=25131427-85e5-432e-867f-75f99f0812a0","ios":"levelo://app?vid=25131427-85e5-432e-867f-75f99f0812a0"},"vehicle_type_id":"4","last_reported":1761991828,"current_range_meters":19600,"station_id":"ce4bhgh2rcd13ifvqfb0","pricing_plan_id":"cebpf4jnsgd1na2vs0mg"},{"bike_id":"423802bb-722e-4533-9018-c0f75cce34a6","system_id":"levelo_inurba_marseille","lat":43.306714,"lon":5.381802,"is_reserved":false,"is_disabled":false,"rental_uris":{"android":"levelo://app?vid=423802bb-722e-4533-9018-c0f75cce34a6","ios":"levelo://app?vid=423802bb-722e-4533-9018-c0f75cce34a6"},"vehicle_type_id":"4","last_reported":1761991828,"current_range_meters":20000,"station_id":"","pricing_plan_id":"cebpf4jnsgd1na2vs0mg"},{"bike_id":"de0ca7a8-116a-46c8-8c50-6b445a473423","system_id":"levelo_inurba_marseille","lat":43.28886,"lon":5.42531,"is_reserved":false,"is_disabled":false,"rental_uris":{"android":"levelo://app?vid=de0ca7a8-116a-46c8-8c50-6b445a473423","ios":"levelo://app?vid=de0ca7a8-116a-46c8-8c50-6b445a473423"},"vehicle_type_id":"4","last_reported":1761991828,"current_range_meters":20000,"station_id":"st_d3b462108ojc7389ooeg","pricing_plan_id":"cebpf4jnsgd1na2vs0mg"},{"bike_id":"2a24c3df-a12e-4c52-893c-b53e0607b978","system_id":"levelo_inurba_marseille","lat":43.29524,"lon":5.37476,"is_reserved":false,"is_disabled":false,"rental_uris":{"android":"levelo://app?vid=2a24c3df-a12e-4c52-893c-b53e0607b978","ios":"levelo://app?vid=2a24c3df-a12e-4c52-893c-b53e0607b978"},"vehicle_type_id":"4","last_reported":1761991828,"current_range_meters":20000,"station_id":"ce4bgkp2rcd13ifvqbmg","pricing_plan_id":"cebpf4jnsgd1na2vs0mg"},{"bike_id":"8adef542-af60-4b61-8a5b-4b604c3bcfe4","system_id":"levelo_inurba_marseille","lat":43.24647,"lon":5.43135,"is_reserved":false,"is_disabled":false,"rental_uris":{"android":"levelo://app?vid=8adef542-af60-4b61-8a5b-4b604c3bcfe4","ios":"levelo://app?vid=8adef542-af60-4b61-8a5b-4b604c3bcfe4"},"vehicle_type_id":"4","last_reported":1761991828,"current_range_meters":20000,"station_id":"st_d2m6c4gdas8pm72e190g","pricing_plan_id":"cebpf4jnsgd1na2vs0mg"},{"bike_id":"f20f3629-12f9-4df4-b72e-3fb18082368c","system_id":"levelo_inurba_marseille","lat":43.24073,"lon":5.37761,"is_reserved":false,"is_disabled":false,"rental_uris":{"android":"levelo://app?vid=f20f3629-12f9-4df4-b72e-3fb18082368c","ios":"levelo://app?vid=f20f3629-12f9-4df4-b72e-3fb18082368c"},"vehicle_type_id":"4","last_reported":1761991828,"current_range_meters":20000,"station_id":"ce4bhnp2rcd13ifvqgvg","pricing_plan_id":"cebpf4jnsgd1na2vs0mg"},{"bike_id":"72667045-b816-48de-95ee-6e55de9900ca","system_id":"levelo_inurba_marseille","lat":43.2511,"lon":5.40333,"is_reserved":false,"is_disabled":false,"rental_uris":{"android":"levelo://app?vid=72667045-b816-48de-95ee-6e55de9900ca","ios":"levelo://app?vid=72667045-b816-48de-95ee-6e55de9900ca"},"vehicle_type_id":"4","last_reported":1761991828,"current_range_meters":20000,"station_id":"ce4bhlh2rcd13ifvqgig","pricing_plan_id":"cebpf4jnsgd1na2vs0mg"},{"bike_id":"4ca54057-5595-499d-b43e-d69adefc8adc","system_id":"levelo_inurba_marseille","lat":43.29618,"lon":5.37162,"is_reserved":false,"is_disabled":false,"rental_uris":{"android":"levelo://app?vid=4ca54057-5595-499d-b43e-d69adefc8adc","ios":"levelo://app?vid=4ca54057-5595-499d-b43e-d69adefc8adc"},"vehicle_type_id":"4","last_reported":1761991828,"current_range_meters":20000,"station_id":"ce4bgnh2rcd13ifvqc0g","pricing_plan_id":"cebpf4jnsgd1na2vs0mg"},{"bike_id":"4c1896d9-a522-438b-a603-2b8556bd3edb","system_id":"levelo_inurba_marseille","lat":43.211881,"lon":5.350701,"is_reserved":false,"is_disabled":false,"rental_uris":{"android":"levelo://app?vid=4c1896d9-a522-438b-a603-2b8556bd3edb","ios":"levelo://app?vid=4c1896d9-a522-438b-a603-2b8556bd3edb"},"vehicle_type_id":"4","last_reported":1761991828,"current_range_meters":20000,"station_id":"st_cvj6sg6p6f1abm77japg","pricing_plan_id":"cebpf4jnsgd1na2vs0mg"},{"bike_id":"825db691-228d-4fd1-9ffb-c1eda05e39e6","system_id":"levelo_inurba_marseille","lat":43.30467,"lon":5.37898,"is_reserved":false,"is_disabled":false,"rental_uris":{"android":"levelo://app?vid=825db691-228d-4fd1-9ffb-c1eda05e39e6","ios":"levelo://app?vid=825db691-228d-4fd1-9ffb-c1eda05e39e6"},"vehicle_type_id":"4","last_reported":1761991828,"current_range_meters":20000,"station_id":"ce4bgup2rcd13ifvqcn0","pricing_plan_id":"cebpf4jnsgd1na2vs0mg"},{"bike_id":"256489bb-a0f6-4be1-ba92-05d3e173bc8b","system_id":"levelo_inurba_marseille","lat":43.241828,"lon":5.397256,"is_reserved":false,"is_disabled":false,"rental_uris":{"android":"levelo://app?vid=256489bb-a0f6-4be1-ba92-05d3e173bc8b","ios":"levelo://app?vid=256489bb-a0f6-4be1-ba92-05d3e173bc8b"},"vehicle_type_id":"4","last_reported":1761991828,"current_range_meters":20400,"station_id":"ce4bhn12rcd13ifvqgpg","pricing_plan_id":"cebpf4jnsgd1na2vs0mg"},{"bike_id":"d0fed751-922f-49cc-8c48-e0fe4a18bcc8","system_id":"levelo_inurba_marseille","lat":43.30152,"lon":5.38082,"is_reserved":false,"is_disabled":false,"rental_uris":{"android":"levelo://app?vid=d0fed751-922f-49cc-8c48-e0fe4a18bcc8","ios":"levelo://app?vid=d0fed751-922f-49cc-8c48-e0fe4a18bcc8"},"vehicle_type_id":"4","last_reported":1761991828,"current_range_meters":20400,"station_id":"ce4bgjp2rcd13ifvqbh0","pricing_plan_id":"cebpf4jnsgd1na2vs0mg"},{"bike_id":"9694b8f1-c0f6-483b-a9d2-8b67a16b59df","system_id":"levelo_inurba_marseille","lat":43.26791,"lon":5.39404,"is_reserved":false,"is_disabled":false,"rental_uris":{"android":"levelo://app?vid=9694b8f1-c0f6-483b-a9d2-8b67a16b59df","ios":"levelo://app?vid=9694b8f1-c0f6-483b-a9d2-8b67a16b59df"},"vehicle_type_id":"4","last_reported":1761991828,"current_range_meters":20800,"station_id":"ce4bhh12rcd13ifvqfg0","pricing_plan_id":"cebpf4jnsgd1na2vs0mg"},{"bike_id":"2ea8b295-6a13-47c7-8965-8106cf796d7e","system_id":"levelo_inurba_marseille","lat":43.31349,"lon":5.37669,"is_reserved":false,"is_disabled":false,"rental_uris":{"android":"levelo://app?vid=2ea8b295-6a13-47c7-8965-8106cf796d7e","ios":"levelo://app?vid=2ea8b295-6a13-47c7-8965-8106cf796d7e"},"vehicle_type_id":"4","last_reported":1761991828,"current_range_meters":20800,"station_id":"","pricing_plan_id":"cebpf4jnsgd1na2vs0mg"},{"bike_id":"6eb523a4-350d-4959-ac5e-1335d8f70954","system_id":"levelo_inurba_marseille","lat":43.315717,"lon":5.406423,"is_reserved":false,"is_disabled":false,"rental_uris":{"android":"levelo://app?vid=6eb523a4-350d-4959-ac5e-1335d8f70954","ios":"levelo://app?vid=6eb523a4-350d-4959-ac5e-1335d8f70954"},"vehicle_type_id":"4","last_reported":1761991828,"current_range_meters":20800,"station_id":"","pricing_plan_id":"cebpf4jnsgd1na2vs0mg"},{"bike_id":"ed062260-216a-4006-a7b0-960c217412b1","system_id":"levelo_inurba_marseille","lat":43.28723,"lon":5.37931,"is_reserved":false,"is_disabled":false,"rental_uris":{"android":"levelo://app?vid=ed062260-216a-4006-a7b0-960c217412b1","ios":"levelo://app?vid=ed062260-216a-4006-a7b0-960c217412b1"},"vehicle_type_id":"4","last_reported":1761991828,"current_range_meters":20800,"station_id":"ce4bh9p2rcd13ifvqec0","pricing_plan_id":"cebpf4jnsgd1na2vs0mg"},{"bike_id":"4310e05b-fcc4-43d7-bc0f-1aaabebdc73b","system_id":"levelo_inurba_marseille","lat":43.28616,"lon":5.35113,"is_reserved":false,"is_disabled":false,"rental_uris":{"android":"levelo://app?vid=4310e05b-fcc4-43d7-bc0f-1aaabebdc73b","ios":"levelo://app?vid=4310e05b-fcc4-43d7-bc0f-1aaabebdc73b"},"vehicle_type_id":"4","last_reported":1761991828,"current_range_meters":20800,"station_id":"ce4bhch2rcd13ifvqeug","pricing_plan_id":"cebpf4jnsgd1na2vs0mg"},{"bike_id":"066ede02-47a2-4c83-bcb1-7eb633a370fb","system_id":"levelo_inurba_marseille","lat":43.3127,"lon":5.37756,"is_reserved":false,"is_disabled":false,"rental_uris":{"android":"levelo://app?vid=066ede02-47a2-4c83-bcb1-7eb633a370fb","ios":"levelo://app?vid=066ede02-47a2-4c83-bcb1-7eb633a370fb"},"vehicle_type_id":"4","last_reported":1761991828,"current_range_meters":21600,"station_id":"","pricing_plan_id":"cebpf4jnsgd1na2vs0mg"},{"bike_id":"2198b023-8001-46e9-b0fa-a8ceaafa5eb1","system_id":"levelo_inurba_marseille","lat":43.28268,"lon":5.35072,"is_reserved":false,"is_disabled":false,"rental_uris":{"android":"levelo://app?vid=2198b023-8001-46e9-b0fa-a8ceaafa5eb1","ios":"levelo://app?vid=2198b023-8001-46e9-b0fa-a8ceaafa5eb1"},"vehicle_type_id":"4","last_reported":1761991828,"current_range_meters":21600,"station_id":"ce4bhbp2rcd13ifvqerg","pricing_plan_id":"cebpf4jnsgd1na2vs0mg"},{"bike_id":"fe2272ea-7316-4280-b90c-d8c4db7bc73e","system_id":"levelo_inurba_marseille","lat":43.27937,"lon":5.3928,"is_reserved":false,"is_disabled":false,"rental_uris":{"android":"levelo://app?vid=fe2272ea-7316-4280-b90c-d8c4db7bc73e","ios":"levelo://app?vid=fe2272ea-7316-4280-b90c-d8c4db7bc73e"},"vehicle_type_id":"4","last_reported":1761991828,"current_range_meters":21600,"station_id":"","pricing_plan_id":"cebpf4jnsgd1na2vs0mg"},{"bike_id":"986d7965-1c0e-4cfb-91d2-20b5cb0e0d20","system_id":"levelo_inurba_marseille","lat":43.2925,"lon":5.3843,"is_reserved":false,"is_disabled":true,"rental_uris":{"android":"levelo://app?vid=986d7965-1c0e-4cfb-91d2-20b5cb0e0d20","ios":"levelo://app?vid=986d7965-1c0e-4cfb-91d2-20b5cb0e0d20"},"vehicle_type_id":"4","last_reported":1761991828,"current_range_meters":21600,"station_id":"ce4bh692rcd13ifvqea0","pricing_plan_id":"cebpf4jnsgd1na2vs0mg"},{"bike_id":"a5c1a7dc-2a94-42b2-b3a1-a02fc67fb305","system_id":"levelo_inurba_marseille","lat":43.24651,"lon":5.38889,"is_reserved":false,"is_disabled":false,"rental_uris":{"android":"levelo://app?vid=a5c1a7dc-2a94-42b2-b3a1-a02fc67fb305","ios":"levelo://app?vid=a5c1a7dc-2a94-42b2-b3a1-a02fc67fb305"},"vehicle_type_id":"4","last_reported":1761991828,"current_range_meters":21600,"station_id":"ce4bhg12rcd13ifvqf60","pricing_plan_id":"cebpf4jnsgd1na2vs0mg"},{"bike_id":"340d772a-f368-4f03-8769-4ca25abdb371","system_id":"levelo_inurba_marseille","lat":43.29204,"lon":5.39317,"is_reserved":false,"is_disabled":false,"rental_uris":{"android":"levelo://app?vid=340d772a-f368-4f03-8769-4ca25abdb371","ios":"levelo://app?vid=340d772a-f368-4f03-8769-4ca25abdb371"},"vehicle_type_id":"4","last_reported":1761991828,"current_range_meters":21600,"station_id":"ce4bh192rcd13ifvqdd0","pricing_plan_id":"cebpf4jnsgd1na2vs0mg"},{"bike_id":"cc475582-0cc3-4b14-a66c-6041b0d2e976","system_id":"levelo_inurba_marseille","lat":43.293413,"lon":5.411949,"is_reserved":false,"is_disabled":false,"rental_uris":{"android":"levelo://app?vid=cc475582-0cc3-4b14-a66c-6041b0d2e976","ios":"levelo://app?vid=cc475582-0cc3-4b14-a66c-6041b0d2e976"},"vehicle_type_id":"4","last_reported":1761991828,"current_range_meters":21600,"station_id":"","pricing_plan_id":"cebpf4jnsgd1na2vs0mg"},{"bike_id":"aa56963e-5f6a-4043-b1c7-23e4d9f05d8c","system_id":"levelo_inurba_marseille","lat":43.313499,"lon":5.379119,"is_reserved":false,"is_disabled":false,"rental_uris":{"android":"levelo://app?vid=aa56963e-5f6a-4043-b1c7-23e4d9f05d8c","ios":"levelo://app?vid=aa56963e-5f6a-4043-b1c7-23e4d9f05d8c"},"vehicle_type_id":"4","last_reported":1761991828,"current_range_meters":21600,"station_id":"","pricing_plan_id":"cebpf4jnsgd1na2vs0mg"},{"bike_id":"ea981441-de44-4e91-a60f-0f3605343256","system_id":"levelo_inurba_marseille","lat":43.32368,"lon":5.36763,"is_reserved":false,"is_disabled":false,"rental_uris":{"android":"levelo://app?vid=ea981441-de44-4e91-a60f-0f3605343256","ios":"levelo://app?vid=ea981441-de44-4e91-a60f-0f3605343256"},"vehicle_type_id":"4","last_reported":1761991828,"current_range_meters":21600,"station_id":"ce4bhsh2rcd13ifvqi2g","pricing_plan_id":"cebpf4jnsgd1na2vs0mg"},{"bike_id":"65959e76-2dec-43d3-b15c-b4e7433182fd","system_id":"levelo_inurba_marseille","lat":43.293631,"lon":5.371955,"is_reserved":false,"is_disabled":false,"rental_uris":{"android":"levelo://app?vid=65959e76-2dec-43d3-b15c-b4e7433182fd","ios":"levelo://app?vid=65959e76-2dec-43d3-b15c-b4e7433182fd"},"vehicle_type_id":"4","last_reported":1761991828,"current_range_meters":22000,"station_id":"","pricing_plan_id":"cebpf4jnsgd1na2vs0mg"},{"bike_id":"1a7149c3-d2c1-4b7a-aa0b-bcf39678cabd","system_id":"levelo_inurba_marseille","lat":43.28485,"lon":5.38561,"is_reserved":false,"is_disabled":false,"rental_uris":{"android":"levelo://app?vid=1a7149c3-d2c1-4b7a-aa0b-bcf39678cabd","ios":"levelo://app?vid=1a7149c3-d2c1-4b7a-aa0b-bcf39678cabd"},"vehicle_type_id":"4","last_reported":1761991828,"current_range_meters":22000,"station_id":"ce4bh8p2rcd13ifvqeb0","pricing_plan_id":"cebpf4jnsgd1na2vs0mg"},{"bike_id":"c695b713-3bc3-411d-b98f-7753f873ef56","system_id":"levelo_inurba_marseille","lat":43.286167,"lon":5.370618,"is_reserved":false,"is_disabled":false,"rental_uris":{"android":"levelo://app?vid=c695b713-3bc3-411d-b98f-7753f873ef56","ios":"levelo://app?vid=c695b713-3bc3-411d-b98f-7753f873ef56"},"vehicle_type_id":"4","last_reported":1761991828,"current_range_meters":22000,"station_id":"ce4bht12rcd13ifvqi60","pricing_plan_id":"cebpf4jnsgd1na2vs0mg"},{"bike_id":"beed1966-8b09-448b-a00b-57602d89131c","system_id":"levelo_inurba_marseille","lat":43.280986,"lon":5.396527,"is_reserved":false,"is_disabled":false,"rental_uris":{"android":"levelo://app?vid=beed1966-8b09-448b-a00b-57602d89131c","ios":"levelo://app?vid=beed1966-8b09-448b-a00b-57602d89131c"},"vehicle_type_id":"4","last_reported":1761991828,"current_range_meters":22400,"station_id":"ce4bh8p2rcd13ifvqeb0","pricing_plan_id":"cebpf4jnsgd1na2vs0mg"},{"bike_id":"cc192047-2056-41f7-b820-d6b0587e4ab7","system_id":"levelo_inurba_marseille","lat":43.269644,"lon":5.403007,"is_reserved":false,"is_disabled":false,"rental_uris":{"android":"levelo://app?vid=cc192047-2056-41f7-b820-d6b0587e4ab7","ios":"levelo://app?vid=cc192047-2056-41f7-b820-d6b0587e4ab7"},"vehicle_type_id":"4","last_reported":1761991828,"current_range_meters":22400,"station_id":"cjm6bp8fraef2m0cb0m0","pricing_plan_id":"cebpf4jnsgd1na2vs0mg"},{"bike_id":"edcda535-fe1f-4590-a82e-7e91a2bdcbf9","system_id":"levelo_inurba_marseille","lat":43.29527,"lon":5.38534,"is_reserved":false,"is_disabled":false,"rental_uris":{"android":"levelo://app?vid=edcda535-fe1f-4590-a82e-7e91a2bdcbf9","ios":"levelo://app?vid=edcda535-fe1f-4590-a82e-7e91a2bdcbf9"},"vehicle_type_id":"4","last_reported":1761991828,"current_range_meters":22400,"station_id":"ce4bgih2rcd13ifvqba0","pricing_plan_id":"cebpf4jnsgd1na2vs0mg"},{"bike_id":"123ec047-d6a2-4308-aee4-8ec0b2bea538","system_id":"levelo_inurba_marseille","lat":43.23197,"lon":5.35552,"is_reserved":false,"is_disabled":false,"rental_uris":{"android":"levelo://app?vid=123ec047-d6a2-4308-aee4-8ec0b2bea538","ios":"levelo://app?vid=123ec047-d6a2-4308-aee4-8ec0b2bea538"},"vehicle_type_id":"4","last_reported":1761991828,"current_range_meters":22400,"station_id":"ce4bhu92rcd13ifvqi70","pricing_plan_id":"cebpf4jnsgd1na2vs0mg"},{"bike_id":"f1f280c3-4ab7-4d47-9213-a3cc78044125","system_id":"levelo_inurba_marseille","lat":43.253958,"lon":5.376282,"is_reserved":false,"is_disabled":false,"rental_uris":{"android":"levelo://app?vid=f1f280c3-4ab7-4d47-9213-a3cc78044125","ios":"levelo://app?vid=f1f280c3-4ab7-4d47-9213-a3cc78044125"},"vehicle_type_id":"4","last_reported":1761991828,"current_range_meters":22400,"station_id":"","pricing_plan_id":"cebpf4jnsgd1na2vs0mg"},{"bike_id":"cfd2d681-a383-40fb-ae57-d936471e8fc3","system_id":"levelo_inurba_marseille","lat":43.266638,"lon":5.38193,"is_reserved":false,"is_disabled":false,"rental_uris":{"android":"levelo://app?vid=cfd2d681-a383-40fb-ae57-d936471e8fc3","ios":"levelo://app?vid=cfd2d681-a383-40fb-ae57-d936471e8fc3"},"vehicle_type_id":"4","last_reported":1761991828,"current_range_meters":22400,"station_id":"ce4bhjp2rcd13ifvqg90","pricing_plan_id":"cebpf4jnsgd1na2vs0mg"},{"bike_id":"360e3c75-8fe4-48b0-a2aa-4c7a095c39b7","system_id":"levelo_inurba_marseille","lat":43.28153,"lon":5.42644,"is_reserved":false,"is_disabled":false,"rental_uris":{"android":"levelo://app?vid=360e3c75-8fe4-48b0-a2aa-4c7a095c39b7","ios":"levelo://app?vid=360e3c75-8fe4-48b0-a2aa-4c7a095c39b7"},"vehicle_type_id":"4","last_reported":1761991828,"current_range_meters":22800,"station_id":"ce4bhnh2rcd13ifvqgug","pricing_plan_id":"cebpf4jnsgd1na2vs0mg"},{"bike_id":"fcc7a5b9-eb88-45bf-aebf-cf96cca8c3ef","system_id":"levelo_inurba_marseille","lat":43.24675,"lon":5.38113,"is_reserved":false,"is_disabled":false,"rental_uris":{"android":"levelo://app?vid=fcc7a5b9-eb88-45bf-aebf-cf96cca8c3ef","ios":"levelo://app?vid=fcc7a5b9-eb88-45bf-aebf-cf96cca8c3ef"},"vehicle_type_id":"4","last_reported":1761991828,"current_range_meters":22800,"station_id":"ce4bhih2rcd13ifvqfr0","pricing_plan_id":"cebpf4jnsgd1na2vs0mg"},{"bike_id":"f505b5eb-b5c4-4a4e-af6e-7bdee2cbd539","system_id":"levelo_inurba_marseille","lat":43.33776,"lon":5.36695,"is_reserved":false,"is_disabled":false,"rental_uris":{"android":"levelo://app?vid=f505b5eb-b5c4-4a4e-af6e-7bdee2cbd539","ios":"levelo://app?vid=f505b5eb-b5c4-4a4e-af6e-7bdee2cbd539"},"vehicle_type_id":"4","last_reported":1761991828,"current_range_meters":22800,"station_id":"","pricing_plan_id":"cebpf4jnsgd1na2vs0mg"},{"bike_id":"60a72042-cd11-48c9-932d-4eea5f4e349c","system_id":"levelo_inurba_marseille","lat":43.29182,"lon":5.37147,"is_reserved":false,"is_disabled":false,"rental_uris":{"android":"levelo://app?vid=60a72042-cd11-48c9-932d-4eea5f4e349c","ios":"levelo://app?vid=60a72042-cd11-48c9-932d-4eea5f4e349c"},"vehicle_type_id":"4","last_reported":1761991828,"current_range_meters":22800,"station_id":"ce4bha92rcd13ifvqeh0","pricing_plan_id":"cebpf4jnsgd1na2vs0mg"},{"bike_id":"d74c19c2-033e-4024-9fbf-0535dd83c31c","system_id":"levelo_inurba_marseille","lat":43.30187,"lon":5.36629,"is_reserved":false,"is_disabled":false,"rental_uris":{"android":"levelo://app?vid=d74c19c2-033e-4024-9fbf-0535dd83c31c","ios":"levelo://app?vid=d74c19c2-033e-4024-9fbf-0535dd83c31c"},"vehicle_type_id":"4","last_reported":1761991828,"current_range_meters":22800,"station_id":"ce4bgrh2rcd13ifvqc8g","pricing_plan_id":"cebpf4jnsgd1na2vs0mg"},{"bike_id":"4668435e-bcae-4775-b1ba-0c729cc77a71","system_id":"levelo_inurba_marseille","lat":43.284812,"lon":5.483992,"is_reserved":false,"is_disabled":false,"rental_uris":{"android":"levelo://app?vid=4668435e-bcae-4775-b1ba-0c729cc77a71","ios":"levelo://app?vid=4668435e-bcae-4775-b1ba-0c729cc77a71"},"vehicle_type_id":"4","last_reported":1761991828,"current_range_meters":22800,"station_id":"st_d3svhcjqgbts73a3dn0g","pricing_plan_id":"cebpf4jnsgd1na2vs0mg"},{"bike_id":"4a375c7e-ac89-43bc-ae0c-4abd3b628678","system_id":"levelo_inurba_marseille","lat":43.2957,"lon":5.3751,"is_reserved":false,"is_disabled":false,"rental_uris":{"android":"levelo://app?vid=4a375c7e-ac89-43bc-ae0c-4abd3b628678","ios":"levelo://app?vid=4a375c7e-ac89-43bc-ae0c-4abd3b628678"},"vehicle_type_id":"4","last_reported":1761991828,"current_range_meters":22800,"station_id":"ce4bgh92rcd13ifvqb50","pricing_plan_id":"cebpf4jnsgd1na2vs0mg"},{"bike_id":"9eac3894-6b3d-4f82-8464-2d5b9c4cc59c","system_id":"levelo_inurba_marseille","lat":43.29187,"lon":5.35808,"is_reserved":false,"is_disabled":false,"rental_uris":{"android":"levelo://app?vid=9eac3894-6b3d-4f82-8464-2d5b9c4cc59c","ios":"levelo://app?vid=9eac3894-6b3d-4f82-8464-2d5b9c4cc59c"},"vehicle_type_id":"4","last_reported":1761991828,"current_range_meters":22800,"station_id":"ce4bhb12rcd13ifvqel0","pricing_plan_id":"cebpf4jnsgd1na2vs0mg"},{"bike_id":"4a141d2a-67fd-4b83-b7f2-ce0580c4e386","system_id":"levelo_inurba_marseille","lat":43.22571,"lon":5.41631,"is_reserved":false,"is_disabled":false,"rental_uris":{"android":"levelo://app?vid=4a141d2a-67fd-4b83-b7f2-ce0580c4e386","ios":"levelo://app?vid=4a141d2a-67fd-4b83-b7f2-ce0580c4e386"},"vehicle_type_id":"4","last_reported":1761991828,"current_range_meters":22800,"station_id":"st_d2o4gvlbi1j2169b742g","pricing_plan_id":"cebpf4jnsgd1na2vs0mg"},{"bike_id":"19095684-3b10-4b7c-a0ff-258a9ffdb700","system_id":"levelo_inurba_marseille","lat":43.28606,"lon":5.40113,"is_reserved":false,"is_disabled":false,"rental_uris":{"android":"levelo://app?vid=19095684-3b10-4b7c-a0ff-258a9ffdb700","ios":"levelo://app?vid=19095684-3b10-4b7c-a0ff-258a9ffdb700"},"vehicle_type_id":"4","last_reported":1761991828,"current_range_meters":23200,"station_id":"","pricing_plan_id":"cebpf4jnsgd1na2vs0mg"},{"bike_id":"5a243ed8-d561-41d9-b71b-a26664421369","system_id":"levelo_inurba_marseille","lat":43.225359,"lon":5.34828,"is_reserved":false,"is_disabled":false,"rental_uris":{"android":"levelo://app?vid=5a243ed8-d561-41d9-b71b-a26664421369","ios":"levelo://app?vid=5a243ed8-d561-41d9-b71b-a26664421369"},"vehicle_type_id":"4","last_reported":1761991828,"current_range_meters":23200,"station_id":"","pricing_plan_id":"cebpf4jnsgd1na2vs0mg"},{"bike_id":"3deabf56-c0e4-4b10-ae53-186b13e88106","system_id":"levelo_inurba_marseille","lat":43.28746,"lon":5.39975,"is_reserved":false,"is_disabled":false,"rental_uris":{"android":"levelo://app?vid=3deabf56-c0e4-4b10-ae53-186b13e88106","ios":"levelo://app?vid=3deabf56-c0e4-4b10-ae53-186b13e88106"},"vehicle_type_id":"4","last_reported":1761991828,"current_range_meters":23200,"station_id":"ce4bho92rcd13ifvqh3g","pricing_plan_id":"cebpf4jnsgd1na2vs0mg"},{"bike_id":"d65bee36-f3cd-446f-853f-739fd8d03959","system_id":"levelo_inurba_marseille","lat":43.31178,"lon":5.3737,"is_reserved":false,"is_disabled":false,"rental_uris":{"android":"levelo://app?vid=d65bee36-f3cd-446f-853f-739fd8d03959","ios":"levelo://app?vid=d65bee36-f3cd-446f-853f-739fd8d03959"},"vehicle_type_id":"4","last_reported":1761991828,"current_range_meters":23200,"station_id":"","pricing_plan_id":"cebpf4jnsgd1na2vs0mg"},{"bike_id":"8d851da5-0989-45f4-b4e2-ad9254fb4c15","system_id":"levelo_inurba_marseille","lat":43.211907,"lon":5.350755,"is_reserved":false,"is_disabled":false,"rental_uris":{"android":"levelo://app?vid=8d851da5-0989-45f4-b4e2-ad9254fb4c15","ios":"levelo://app?vid=8d851da5-0989-45f4-b4e2-ad9254fb4c15"},"vehicle_type_id":"4","last_reported":1761991828,"current_range_meters":24000,"station_id":"st_cvj6sg6p6f1abm77japg","pricing_plan_id":"cebpf4jnsgd1na2vs0mg"},{"bike_id":"06756d68-f601-4313-a049-fec54d37d722","system_id":"levelo_inurba_marseille","lat":43.336107,"lon":5.410388,"is_reserved":false,"is_disabled":false,"rental_uris":{"android":"levelo://app?vid=06756d68-f601-4313-a049-fec54d37d722","ios":"levelo://app?vid=06756d68-f601-4313-a049-fec54d37d722"},"vehicle_type_id":"4","last_reported":1761991828,"current_range_meters":24000,"station_id":"ce4bhq92rcd13ifvqhkg","pricing_plan_id":"cebpf4jnsgd1na2vs0mg"},{"bike_id":"79a20a56-3c2f-46eb-8715-0e2a6ceb3667","system_id":"levelo_inurba_marseille","lat":43.307732,"lon":5.376625,"is_reserved":false,"is_disabled":false,"rental_uris":{"android":"levelo://app?vid=79a20a56-3c2f-46eb-8715-0e2a6ceb3667","ios":"levelo://app?vid=79a20a56-3c2f-46eb-8715-0e2a6ceb3667"},"vehicle_type_id":"4","last_reported":1761991828,"current_range_meters":24000,"station_id":"","pricing_plan_id":"cebpf4jnsgd1na2vs0mg"},{"bike_id":"24b0457e-2276-46f6-8386-aa991ab872ec","system_id":"levelo_inurba_marseille","lat":43.25106,"lon":5.4032,"is_reserved":false,"is_disabled":false,"rental_uris":{"android":"levelo://app?vid=24b0457e-2276-46f6-8386-aa991ab872ec","ios":"levelo://app?vid=24b0457e-2276-46f6-8386-aa991ab872ec"},"vehicle_type_id":"4","last_reported":1761991828,"current_range_meters":24000,"station_id":"ce4bhlh2rcd13ifvqgig","pricing_plan_id":"cebpf4jnsgd1na2vs0mg"},{"bike_id":"4c2e795a-4ac2-4fba-b47e-7412c196e673","system_id":"levelo_inurba_marseille","lat":43.321117,"lon":5.367786,"is_reserved":false,"is_disabled":false,"rental_uris":{"android":"levelo://app?vid=4c2e795a-4ac2-4fba-b47e-7412c196e673","ios":"levelo://app?vid=4c2e795a-4ac2-4fba-b47e-7412c196e673"},"vehicle_type_id":"4","last_reported":1761991828,"current_range_meters":24000,"station_id":"ce4bhrh2rcd13ifvqhug","pricing_plan_id":"cebpf4jnsgd1na2vs0mg"},{"bike_id":"1b3118a0-32ed-4e9a-8ce2-b67fde1dc1ac","system_id":"levelo_inurba_marseille","lat":43.23195,"lon":5.35551,"is_reserved":false,"is_disabled":false,"rental_uris":{"android":"levelo://app?vid=1b3118a0-32ed-4e9a-8ce2-b67fde1dc1ac","ios":"levelo://app?vid=1b3118a0-32ed-4e9a-8ce2-b67fde1dc1ac"},"vehicle_type_id":"4","last_reported":1761991828,"current_range_meters":24000,"station_id":"ce4bhu92rcd13ifvqi70","pricing_plan_id":"cebpf4jnsgd1na2vs0mg"},{"bike_id":"295cc6a4-8acf-45ef-95d1-70b82a4bc5a2","system_id":"levelo_inurba_marseille","lat":43.26233,"lon":5.40449,"is_reserved":false,"is_disabled":false,"rental_uris":{"android":"levelo://app?vid=295cc6a4-8acf-45ef-95d1-70b82a4bc5a2","ios":"levelo://app?vid=295cc6a4-8acf-45ef-95d1-70b82a4bc5a2"},"vehicle_type_id":"4","last_reported":1761991828,"current_range_meters":24000,"station_id":"ce4bhmh2rcd13ifvqgmg","pricing_plan_id":"cebpf4jnsgd1na2vs0mg"},{"bike_id":"8b9c8a46-4734-4a0a-ad27-a4c9742a3cf7","system_id":"levelo_inurba_marseille","lat":43.2407,"lon":5.377465,"is_reserved":false,"is_disabled":false,"rental_uris":{"android":"levelo://app?vid=8b9c8a46-4734-4a0a-ad27-a4c9742a3cf7","ios":"levelo://app?vid=8b9c8a46-4734-4a0a-ad27-a4c9742a3cf7"},"vehicle_type_id":"4","last_reported":1761991828,"current_range_meters":24000,"station_id":"ce4bhnp2rcd13ifvqgvg","pricing_plan_id":"cebpf4jnsgd1na2vs0mg"},{"bike_id":"3da96598-cb6e-4bc7-8b0a-672ca77af410","system_id":"levelo_inurba_marseille","lat":43.312786,"lon":5.401626,"is_reserved":false,"is_disabled":false,"rental_uris":{"android":"levelo://app?vid=3da96598-cb6e-4bc7-8b0a-672ca77af410","ios":"levelo://app?vid=3da96598-cb6e-4bc7-8b0a-672ca77af410"},"vehicle_type_id":"4","last_reported":1761991828,"current_range_meters":24400,"station_id":"ce4bh092rcd13ifvqd30","pricing_plan_id":"cebpf4jnsgd1na2vs0mg"},{"bike_id":"6793f867-615d-416f-860e-87781bdb31b2","system_id":"levelo_inurba_marseille","lat":43.298169,"lon":5.380594,"is_reserved":false,"is_disabled":false,"rental_uris":{"android":"levelo://app?vid=6793f867-615d-416f-860e-87781bdb31b2","ios":"levelo://app?vid=6793f867-615d-416f-860e-87781bdb31b2"},"vehicle_type_id":"4","last_reported":1761991828,"current_range_meters":24400,"station_id":"ce4bgip2rcd13ifvqbb0","pricing_plan_id":"cebpf4jnsgd1na2vs0mg"},{"bike_id":"7d6025be-69e6-4a7f-9b67-97250c4686c8","system_id":"levelo_inurba_marseille","lat":43.286904,"lon":5.399962,"is_reserved":false,"is_disabled":false,"rental_uris":{"android":"levelo://app?vid=7d6025be-69e6-4a7f-9b67-97250c4686c8","ios":"levelo://app?vid=7d6025be-69e6-4a7f-9b67-97250c4686c8"},"vehicle_type_id":"4","last_reported":1761991828,"current_range_meters":24400,"station_id":"ce4bho92rcd13ifvqh3g","pricing_plan_id":"cebpf4jnsgd1na2vs0mg"},{"bike_id":"75d22462-e54d-48ca-8bba-30c7de3454fb","system_id":"levelo_inurba_marseille","lat":43.253394,"lon":5.421614,"is_reserved":false,"is_disabled":false,"rental_uris":{"android":"levelo://app?vid=75d22462-e54d-48ca-8bba-30c7de3454fb","ios":"levelo://app?vid=75d22462-e54d-48ca-8bba-30c7de3454fb"},"vehicle_type_id":"4","last_reported":1761991828,"current_range_meters":24400,"station_id":"st_d2m65c5bi1j21697t3ng","pricing_plan_id":"cebpf4jnsgd1na2vs0mg"},{"bike_id":"363918ef-16cb-4423-9661-d1efbb2c30e2","system_id":"levelo_inurba_marseille","lat":43.246266,"lon":5.431446,"is_reserved":false,"is_disabled":false,"rental_uris":{"android":"levelo://app?vid=363918ef-16cb-4423-9661-d1efbb2c30e2","ios":"levelo://app?vid=363918ef-16cb-4423-9661-d1efbb2c30e2"},"vehicle_type_id":"4","last_reported":1761991828,"current_range_meters":24400,"station_id":"st_d2m6c4gdas8pm72e190g","pricing_plan_id":"cebpf4jnsgd1na2vs0mg"},{"bike_id":"6e7d27a0-b509-4c9f-bd8d-2993bf434c67","system_id":"levelo_inurba_marseille","lat":43.311132,"lon":5.377574,"is_reserved":false,"is_disabled":false,"rental_uris":{"android":"levelo://app?vid=6e7d27a0-b509-4c9f-bd8d-2993bf434c67","ios":"levelo://app?vid=6e7d27a0-b509-4c9f-bd8d-2993bf434c67"},"vehicle_type_id":"4","last_reported":1761991828,"current_range_meters":24400,"station_id":"ce4bgt92rcd13ifvqcg0","pricing_plan_id":"cebpf4jnsgd1na2vs0mg"},{"bike_id":"9d5b90c2-0cb3-4c3a-9a10-9589ee89a210","system_id":"levelo_inurba_marseille","lat":43.30737,"lon":5.42439,"is_reserved":false,"is_disabled":false,"rental_uris":{"android":"levelo://app?vid=9d5b90c2-0cb3-4c3a-9a10-9589ee89a210","ios":"levelo://app?vid=9d5b90c2-0cb3-4c3a-9a10-9589ee89a210"},"vehicle_type_id":"4","last_reported":1761991828,"current_range_meters":24400,"station_id":"st_cvj6ca6bvosntc0bfgr0","pricing_plan_id":"cebpf4jnsgd1na2vs0mg"},{"bike_id":"b7200403-6cf2-4b80-8b43-58c623795990","system_id":"levelo_inurba_marseille","lat":43.23199,"lon":5.35553,"is_reserved":false,"is_disabled":false,"rental_uris":{"android":"levelo://app?vid=b7200403-6cf2-4b80-8b43-58c623795990","ios":"levelo://app?vid=b7200403-6cf2-4b80-8b43-58c623795990"},"vehicle_type_id":"4","last_reported":1761991828,"current_range_meters":24400,"station_id":"ce4bhu92rcd13ifvqi70","pricing_plan_id":"cebpf4jnsgd1na2vs0mg"},{"bike_id":"cb44ef38-82ad-4246-b852-8b26222c73f4","system_id":"levelo_inurba_marseille","lat":43.26558,"lon":5.37281,"is_reserved":false,"is_disabled":false,"rental_uris":{"android":"levelo://app?vid=cb44ef38-82ad-4246-b852-8b26222c73f4","ios":"levelo://app?vid=cb44ef38-82ad-4246-b852-8b26222c73f4"},"vehicle_type_id":"4","last_reported":1761991828,"current_range_meters":24400,"station_id":"ce4bhg12rcd13ifvqf70","pricing_plan_id":"cebpf4jnsgd1na2vs0mg"},{"bike_id":"0ef4a483-c035-40b8-9a64-ebbb518f23b0","system_id":"levelo_inurba_marseille","lat":43.25088,"lon":5.39514,"is_reserved":false,"is_disabled":false,"rental_uris":{"android":"levelo://app?vid=0ef4a483-c035-40b8-9a64-ebbb518f23b0","ios":"levelo://app?vid=0ef4a483-c035-40b8-9a64-ebbb518f23b0"},"vehicle_type_id":"4","last_reported":1761991828,"current_range_meters":24800,"station_id":"ce4bhm12rcd13ifvqgkg","pricing_plan_id":"cebpf4jnsgd1na2vs0mg"},{"bike_id":"5a0bfa84-84eb-4579-9d82-bb3fec3b9478","system_id":"levelo_inurba_marseille","lat":43.24086,"lon":5.37834,"is_reserved":false,"is_disabled":false,"rental_uris":{"android":"levelo://app?vid=5a0bfa84-84eb-4579-9d82-bb3fec3b9478","ios":"levelo://app?vid=5a0bfa84-84eb-4579-9d82-bb3fec3b9478"},"vehicle_type_id":"4","last_reported":1761991828,"current_range_meters":24800,"station_id":"","pricing_plan_id":"cebpf4jnsgd1na2vs0mg"},{"bike_id":"e37a3e06-24f5-4130-8d50-b62005271d50","system_id":"levelo_inurba_marseille","lat":43.241679,"lon":5.363924,"is_reserved":false,"is_disabled":false,"rental_uris":{"android":"levelo://app?vid=e37a3e06-24f5-4130-8d50-b62005271d50","ios":"levelo://app?vid=e37a3e06-24f5-4130-8d50-b62005271d50"},"vehicle_type_id":"4","last_reported":1761991828,"current_range_meters":24800,"station_id":"cpo36qri1sfpv3e86is0","pricing_plan_id":"cebpf4jnsgd1na2vs0mg"},{"bike_id":"e31a4ed0-74cf-452c-a9bf-6dd88fe1698a","system_id":"levelo_inurba_marseille","lat":43.29787,"lon":5.37092,"is_reserved":false,"is_disabled":false,"rental_uris":{"android":"levelo://app?vid=e31a4ed0-74cf-452c-a9bf-6dd88fe1698a","ios":"levelo://app?vid=e31a4ed0-74cf-452c-a9bf-6dd88fe1698a"},"vehicle_type_id":"4","last_reported":1761991828,"current_range_meters":24800,"station_id":"ce4bgop2rcd13ifvqc1g","pricing_plan_id":"cebpf4jnsgd1na2vs0mg"},