{"last_updated":1750756355,"ttl":60,"version":"2.2","data":{"bikes":[{"bike_id":"3da29fb8-fc97-44c6-b9ac-31dd456b2fd4","system_id":"levelo_inurba_marseille","lat":43.33771,"lon":5.37424,"is_reserved":false,"is_disabled":true,"rental_uris":{"android":"levelo://app?vid=3da29fb8-fc97-44c6-b9ac-31dd456b2fd4","ios":"levelo://app?vid=3da29fb8-fc97-44c6-b9ac-31dd456b2fd4"},"vehicle_type_id":"4","last_reported":1750756356,"current_range_meters":0,"station_id":"","pricing_plan_id":"cebpf4jnsgd1na2vs0mg"},{"bike_id":"01861ad8-a8d7-4be6-816e-651927c87584","system_id":"levelo_inurba_marseille","lat":43.33751,"lon":5.37456,"is_reserved":false,"is_disabled":true,"rental_uris":{"android":"levelo://app?vid=01861ad8-a8d7-4be6-816e-651927c87584","ios":"levelo://app?vid=01861ad8-a8d7-4be6-816e-651927c87584"},"vehicle_type_id":"4","last_reported":1750756356,"current_range_meters":0,"station_id":"","pricing_plan_id":"cebpf4jnsgd1na2vs0mg"},{"bike_id":"f0a1d594-9817-42ab-a8d6-aea4947e8858","system_id":"levelo_inurba_marseille","lat":43.28825,"lon":5.4344,"is_reserved":false,"is_disabled":true,"rental_uris":{"android":"levelo://app?vid=f0a1d594-9817-42ab-a8d6-aea4947e8858","ios":"levelo://app?vid=f0a1d594-9817-42ab-a8d6-aea4947e8858"},"vehicle_type_id":"4","last_reported":1750756356,"current_range_meters":0,"station_id":"","pricing_plan_id":"cebpf4jnsgd1na2vs0mg"},{"bike_id":"62a493c7-4534-4419-ad43-0582de34a72a","system_id":"levelo_inurba_marseille","lat":43.21366,"lon":5.355183,"is_reserved":false,"is_disabled":true,"rental_uris":{"android":"levelo://app?vid=62a493c7-4534-4419-ad43-0582de34a72a","ios":"levelo://app?vid=62a493c7-4534-4419-ad43-0582de34a72a"},"vehicle_type_id":"4","last_reported":1750756356,"current_range_meters":0,"station_id":"","pricing_plan_id":"cebpf4jnsgd1na2vs0mg"},{"bike_id":"139d47bd-ff87-42d8-a4c6-89da4be6f80c","system_id":"levelo_inurba_marseille","lat":43.27962,"lon":5.44252,"is_reserved":false,"is_disabled":true,"rental_uris":{"android":"levelo://app?vid=139d47bd-ff87-42d8-a4c6-89da4be6f80c","ios":"levelo://app?vid=139d47bd-ff87-42d8-a4c6-89da4be6f80c"},"vehicle_type_id":"4","last_reported":1750756356,"current_range_meters":0,"station_id":"","pricing_plan_id":"cebpf4jnsgd1na2vs0mg"},{"bike_id":"d07b07aa-5732-4368-b606-c642421b7603","system_id":"levelo_inurba_marseille","lat":43.3432,"lon":5.35004,"is_reserved":false,"is_disabled":true,"rental_uris":{"android":"levelo://app?vid=d07b07aa-5732-4368-b606-c642421b7603","ios":"levelo://app?vid=d07b07aa-5732-4368-b606-c642421b7603"},"vehicle_type_id":"4","last_reported":1750756356,"current_range_meters":0,"station_id":"","pricing_plan_id":"cebpf4jnsgd1na2vs0mg"},{"bike_id":"b029dd7d-66f2-41c6-b792-e13f00a5aa4a","system_id":"levelo_inurba_marseille","lat":43.30855,"lon":5.3841,"is_reserved":false,"is_disabled":true,"rental_uris":{"android":"levelo://app?vid=b029dd7d-66f2-41c6-b792-e13f00a5aa4a","ios":"levelo://app?vid=b029dd7d-66f2-41c6-b792-e13f00a5aa4a"},"vehicle_type_id":"4","last_reported":1750756356,"current_range_meters":0,"station_id":"","pricing_plan_id":"cebpf4jnsgd1na2vs0mg"},{"bike_id":"3a3a1818-f20a-442b-bfcf-0e0a18008f43","system_id":"levelo_inurba_marseille","lat":43.26612,"lon":5.37491,"is_reserved":false,"is_disabled":true,"rental_uris":{"android":"levelo://app?vid=3a3a1818-f20a-442b-bfcf-0e0a18008f43","ios":"levelo://app?vid=3a3a1818-f20a-442b-bfcf-0e0a18008f43"},"vehicle_type_id":"4","last_reported":1750756356,"current_range_meters":0,"station_id":"","pricing_plan_id":"cebpf4jnsgd1na2vs0mg"},{"bike_id":"1077b5b0-6cc3-4ca3-a74a-ec713036c223","system_id":"levelo_inurba_marseille","lat":43.2973,"lon":5.38016,"is_reserved":false,"is_disabled":true,"rental_uris":{"android":"levelo://app?vid=1077b5b0-6cc3-4ca3-a74a-ec713036c223","ios":"levelo://app?vid=1077b5b0-6cc3-4ca3-a74a-ec713036c223"},"vehicle_type_id":"4","last_reported":1750756356,"current_range_meters":0,"station_id":"","pricing_plan_id":"cebpf4jnsgd1na2vs0mg"},{"bike_id":"d6609b4f-333b-43c1-9ebe-8726f5e76e88","system_id":"levelo_inurba_marseille","lat":43.337444,"lon":5.374475,"is_reserved":false,"is_disabled":true,"rental_uris":{"android":"levelo://app?vid=d6609b4f-333b-43c1-9ebe-8726f5e76e88","ios":"levelo://app?vid=d6609b4f-333b-43c1-9ebe-8726f5e76e88"},"vehicle_type_id":"4","last_reported":1750756356,"current_range_meters":0,"station_id":"","pricing_plan_id":"cebpf4jnsgd1na2vs0mg"},{"bike_id":"0503e1d2-ec4f-4cb3-9ea6-e4f3eb558d3e","system_id":"levelo_inurba_marseille","lat":43.29929,"lon":5.36957,"is_reserved":false,"is_disabled":true,"rental_uris":{"android":"levelo://app?vid=0503e1d2-ec4f-4cb3-9ea6-e4f3eb558d3e","ios":"levelo://app?vid=0503e1d2-ec4f-4cb3-9ea6-e4f3eb558d3e"},"vehicle_type_id":"4","last_reported":1750756356,"current_range_meters":0,"station_id":"","pricing_plan_id":"cebpf4jnsgd1na2vs0mg"},{"bike_id":"9cb193d0-906b-4ac2-85c5-eea810b1d20f","system_id":"levelo_inurba_marseille","lat":43.294048,"lon":5.431776,"is_reserved":false,"is_disabled":true,"rental_uris":{"android":"levelo://app?vid=9cb193d0-906b-4ac2-85c5-eea810b1d20f","ios":"levelo://app?vid=9cb193d0-906b-4ac2-85c5-eea810b1d20f"},"vehicle_type_id":"4","last_reported":1750756356,"current_range_meters":0,"station_id":"","pricing_plan_id":"cebpf4jnsgd1na2vs0mg"},{"bike_id":"bd17737b-22d2-4e4f-88e8-4eb661d864c4","system_id":"levelo_inurba_marseille","lat":43.29176,"lon":5.46066,"is_reserved":false,"is_disabled":true,"rental_uris":{"android":"levelo://app?vid=bd17737b-22d2-4e4f-88e8-4eb661d864c4","ios":"levelo://app?vid=bd17737b-22d2-4e4f-88e8-4eb661d864c4"},"vehicle_type_id":"4","last_reported":1750756356,"current_range_meters":0,"station_id":"","pricing_plan_id":"cebpf4jnsgd1na2vs0mg"},{"bike_id":"5aa00661-d581-4293-bff6-1039cc48d2b4","system_id":"levelo_inurba_marseille","lat":43.29618,"lon":5.37812,"is_reserved":false,"is_disabled":true,"rental_uris":{"android":"levelo://app?vid=5aa00661-d581-4293-bff6-1039cc48d2b4","ios":"levelo://app?vid=5aa00661-d581-4293-bff6-1039cc48d2b4"},"vehicle_type_id":"4","last_reported":1750756356,"current_range_meters":0,"station_id":"","pricing_plan_id":"cebpf4jnsgd1na2vs0mg"},{"bike_id":"0c86cdad-b64a-47bf-ba91-5b398064181c","system_id":"levelo_inurba_marseille","lat":43.384196,"lon":5.358629,"is_reserved":false,"is_disabled":true,"rental_uris":{"android":"levelo://app?vid=0c86cdad-b64a-47bf-ba91-5b398064181c","ios":"levelo://app?vid=0c86cdad-b64a-47bf-ba91-5b398064181c"},"vehicle_type_id":"4","last_reported":1750756356,"current_range_meters":0,"station_id":"","pricing_plan_id":"cebpf4jnsgd1na2vs0mg"},{"bike_id":"f2727ec7-873b-44f8-a7f5-e2c48ecdb982","system_id":"levelo_inurba_marseille","lat":43.29784,"lon":5.38098,"is_reserved":false,"is_disabled":true,"rental_uris":{"android":"levelo://app?vid=f2727ec7-873b-44f8-a7f5-e2c48ecdb982","ios":"levelo://app?vid=f2727ec7-873b-44f8-a7f5-e2c48ecdb982"},"vehicle_type_id":"4","last_reported":1750756356,"current_range_meters":0,"station_id":"ce4bgip2rcd13ifvqbb0","pricing_plan_id":"cebpf4jnsgd1na2vs0mg"},{"bike_id":"9f5e60f9-10c1-4d58-bd8e-b60cdf1d8601","system_id":"levelo_inurba_marseille","lat":43.29386,"lon":5.37857,"is_reserved":false,"is_disabled":true,"rental_uris":{"android":"levelo://app?vid=9f5e60f9-10c1-4d58-bd8e-b60cdf1d8601","ios":"levelo://app?vid=9f5e60f9-10c1-4d58-bd8e-b60cdf1d8601"},"vehicle_type_id":"4","last_reported":1750756356,"current_range_meters":0,"station_id":"ce4bgjh2rcd13ifvqbf0","pricing_plan_id":"cebpf4jnsgd1na2vs0mg"},{"bike_id":"d6251bf0-70f0-437f-b0e0-6984cb1b4121","system_id":"levelo_inurba_marseille","lat":43.31499,"lon":5.37297,"is_reserved":false,"is_disabled":true,"rental_uris":{"android":"levelo://app?vid=d6251bf0-70f0-437f-b0e0-6984cb1b4121","ios":"levelo://app?vid=d6251bf0-70f0-437f-b0e0-6984cb1b4121"},"vehicle_type_id":"4","last_reported":1750756356,"current_range_meters":0,"station_id":"ce4bgt12rcd13ifvqcd0","pricing_plan_id":"cebpf4jnsgd1na2vs0mg"},{"bike_id":"26ebbe96-fb9b-4fdc-9f98-629b0189c97f","system_id":"levelo_inurba_marseille","lat":43.31716,"lon":5.40444,"is_reserved":false,"is_disabled":true,"rental_uris":{"android":"levelo://app?vid=26ebbe96-fb9b-4fdc-9f98-629b0189c97f","ios":"levelo://app?vid=26ebbe96-fb9b-4fdc-9f98-629b0189c97f"},"vehicle_type_id":"4","last_reported":1750756356,"current_range_meters":0,"station_id":"ce4bh012rcd13ifvqd00","pricing_plan_id":"cebpf4jnsgd1na2vs0mg"},{"bike_id":"91b70578-6882-4aab-8b95-8ba61add0655","system_id":"levelo_inurba_marseille","lat":43.28107,"lon":5.3785,"is_reserved":false,"is_disabled":true,"rental_uris":{"android":"levelo://app?vid=91b70578-6882-4aab-8b95-8ba61add0655","ios":"levelo://app?vid=91b70578-6882-4aab-8b95-8ba61add0655"},"vehicle_type_id":"4","last_reported":1750756356,"current_range_meters":0,"station_id":"ce4bha12rcd13ifvqee0","pricing_plan_id":"cebpf4jnsgd1na2vs0mg"},{"bike_id":"30d7c405-d16c-42da-be1a-f160a85ef4fd","system_id":"levelo_inurba_marseille","lat":43.2917,"lon":5.37165,"is_reserved":false,"is_disabled":true,"rental_uris":{"android":"levelo://app?vid=30d7c405-d16c-42da-be1a-f160a85ef4fd","ios":"levelo://app?vid=30d7c405-d16c-42da-be1a-f160a85ef4fd"},"vehicle_type_id":"4","last_reported":1750756356,"current_range_meters":0,"station_id":"ce4bha92rcd13ifvqeh0","pricing_plan_id":"cebpf4jnsgd1na2vs0mg"},{"bike_id":"345b004f-0aa5-4bd4-a013-a82d1da01995","system_id":"levelo_inurba_marseille","lat":43.28424,"lon":5.34995,"is_reserved":false,"is_disabled":true,"rental_uris":{"android":"levelo://app?vid=345b004f-0aa5-4bd4-a013-a82d1da01995","ios":"levelo://app?vid=345b004f-0aa5-4bd4-a013-a82d1da01995"},"vehicle_type_id":"4","last_reported":1750756356,"current_range_meters":0,"station_id":"ce4bhbh2rcd13ifvqepg","pricing_plan_id":"cebpf4jnsgd1na2vs0mg"},{"bike_id":"ea711894-7e8a-43fb-8b1c-e4d0d77f82dc","system_id":"levelo_inurba_marseille","lat":43.26558,"lon":5.37284,"is_reserved":false,"is_disabled":true,"rental_uris":{"android":"levelo://app?vid=ea711894-7e8a-43fb-8b1c-e4d0d77f82dc","ios":"levelo://app?vid=ea711894-7e8a-43fb-8b1c-e4d0d77f82dc"},"vehicle_type_id":"4","last_reported":1750756356,"current_range_meters":0,"station_id":"ce4bhg12rcd13ifvqf70","pricing_plan_id":"cebpf4jnsgd1na2vs0mg"},{"bike_id":"93248c0f-fa08-4f48-9e54-abba07909a63","system_id":"levelo_inurba_marseille","lat":43.27311,"lon":5.39069,"is_reserved":false,"is_disabled":true,"rental_uris":{"android":"levelo://app?vid=93248c0f-fa08-4f48-9e54-abba07909a63","ios":"levelo://app?vid=93248c0f-fa08-4f48-9e54-abba07909a63"},"vehicle_type_id":"4","last_reported":1750756356,"current_range_meters":0,"station_id":"ce4bhgp2rcd13ifvqfe0","pricing_plan_id":"cebpf4jnsgd1na2vs0mg"},{"bike_id":"1414e526-d84b-4cf1-bd8a-e4798a70cf8d","system_id":"levelo_inurba_marseille","lat":43.27839,"lon":5.39192,"is_reserved":false,"is_disabled":true,"rental_uris":{"android":"levelo://app?vid=1414e526-d84b-4cf1-bd8a-e4798a70cf8d","ios":"levelo://app?vid=1414e526-d84b-4cf1-bd8a-e4798a70cf8d"},"vehicle_type_id":"4","last_reported":1750756356,"current_range_meters":0,"station_id":"ce4bhjp2rcd13ifvqga0","pricing_plan_id":"cebpf4jnsgd1na2vs0mg"},{"bike_id":"4050fd80-eca3-4ae7-98f7-d7274d689046","system_id":"levelo_inurba_marseille","lat":43.25868,"lon":5.39894,"is_reserved":false,"is_disabled":true,"rental_uris":{"android":"levelo://app?vid=4050fd80-eca3-4ae7-98f7-d7274d689046","ios":"levelo://app?vid=4050fd80-eca3-4ae7-98f7-d7274d689046"},"vehicle_type_id":"4","last_reported":1750756356,"current_range_meters":0,"station_id":"ce4bhl92rcd13ifvqghg","pricing_plan_id":"cebpf4jnsgd1na2vs0mg"},{"bike_id":"41c8c0a1-8e5d-49b3-b232-d30cbb38ba09","system_id":"levelo_inurba_marseille","lat":43.23142,"lon":5.43733,"is_reserved":false,"is_disabled":true,"rental_uris":{"android":"levelo://app?vid=41c8c0a1-8e5d-49b3-b232-d30cbb38ba09","ios":"levelo://app?vid=41c8c0a1-8e5d-49b3-b232-d30cbb38ba09"},"vehicle_type_id":"4","last_reported":1750756356,"current_range_meters":0,"station_id":"ce4bhmp2rcd13ifvqgog","pricing_plan_id":"cebpf4jnsgd1na2vs0mg"},{"bike_id":"e324236b-d280-44b2-8e88-455c30f219da","system_id":"levelo_inurba_marseille","lat":43.23161,"lon":5.43715,"is_reserved":false,"is_disabled":true,"rental_uris":{"android":"levelo://app?vid=e324236b-d280-44b2-8e88-455c30f219da","ios":"levelo://app?vid=e324236b-d280-44b2-8e88-455c30f219da"},"vehicle_type_id":"4","last_reported":1750756356,"current_range_meters":0,"station_id":"ce4bhmp2rcd13ifvqgog","pricing_plan_id":"cebpf4jnsgd1na2vs0mg"},{"bike_id":"9c2ca8b7-b9be-4794-bd25-0dd99fea6b8e","system_id":"levelo_inurba_marseille","lat":43.278103,"lon":5.40705,"is_reserved":false,"is_disabled":true,"rental_uris":{"android":"levelo://app?vid=9c2ca8b7-b9be-4794-bd25-0dd99fea6b8e","ios":"levelo://app?vid=9c2ca8b7-b9be-4794-bd25-0dd99fea6b8e"},"vehicle_type_id":"4","last_reported":1750756356,"current_range_meters":0,"station_id":"ce4bhnh2rcd13ifvqgtg","pricing_plan_id":"cebpf4jnsgd1na2vs0mg"},{"bike_id":"5d8d4a37-f1d7-4561-89e7-a9621ebd96c2","system_id":"levelo_inurba_marseille","lat":43.32555,"lon":5.41432,"is_reserved":false,"is_disabled":true,"rental_uris":{"android":"levelo://app?vid=5d8d4a37-f1d7-4561-89e7-a9621ebd96c2","ios":"levelo://app?vid=5d8d4a37-f1d7-4561-89e7-a9621ebd96c2"},"vehicle_type_id":"4","last_reported":1750756356,"current_range_meters":0,"station_id":"ce4bhq12rcd13ifvqhhg","pricing_plan_id":"cebpf4jnsgd1na2vs0mg"},{"bike_id":"f2ba8ddf-b7b7-44e3-b66e-0a787481918d","system_id":"levelo_inurba_marseille","lat":43.33607,"lon":5.41032,"is_reserved":false,"is_disabled":true,"rental_uris":{"android":"levelo://app?vid=f2ba8ddf-b7b7-44e3-b66e-0a787481918d","ios":"levelo://app?vid=f2ba8ddf-b7b7-44e3-b66e-0a787481918d"},"vehicle_type_id":"4","last_reported":1750756356,"current_range_meters":0,"station_id":"ce4bhqh2rcd13ifvqhmg","pricing_plan_id":"cebpf4jnsgd1na2vs0mg"},{"bike_id":"ea8008a8-ef77-477c-b86d-9f6549c9f9ae","system_id":"levelo_inurba_marseille","lat":43.32105,"lon":5.36766,"is_reserved":false,"is_disabled":true,"rental_uris":{"android":"levelo://app?vid=ea8008a8-ef77-477c-b86d-9f6549c9f9ae","ios":"levelo://app?vid=ea8008a8-ef77-477c-b86d-9f6549c9f9ae"},"vehicle_type_id":"4","last_reported":1750756356,"current_range_meters":0,"station_id":"ce4bhrh2rcd13ifvqhug","pricing_plan_id":"cebpf4jnsgd1na2vs0mg"},{"bike_id":"38fa1014-dc0c-49c9-ad0a-4ed146026865","system_id":"levelo_inurba_marseille","lat":43.21191,"lon":5.35075,"is_reserved":false,"is_disabled":true,"rental_uris":{"android":"levelo://app?vid=38fa1014-dc0c-49c9-ad0a-4ed146026865","ios":"levelo://app?vid=38fa1014-dc0c-49c9-ad0a-4ed146026865"},"vehicle_type_id":"4","last_reported":1750756356,"current_range_meters":0,"station_id":"st_cvj6sg6p6f1abm77japg","pricing_plan_id":"cebpf4jnsgd1na2vs0mg"},{"bike_id":"dc6b1448-0118-4d30-a85d-fac6d4b97d8b","system_id":"levelo_inurba_marseille","lat":43.284761,"lon":5.384178,"is_reserved":false,"is_disabled":true,"rental_uris":{"android":"levelo://app?vid=dc6b1448-0118-4d30-a85d-fac6d4b97d8b","ios":"levelo://app?vid=dc6b1448-0118-4d30-a85d-fac6d4b97d8b"},"vehicle_type_id":"4","last_reported":1750756356,"current_range_meters":400,"station_id":"ce4bh512rcd13ifvqe3g","pricing_plan_id":"cebpf4jnsgd1na2vs0mg"},{"bike_id":"ec596a85-2d7e-4599-83c3-c16ffff6325a","system_id":"levelo_inurba_marseille","lat":43.2737,"lon":5.36248,"is_reserved":false,"is_disabled":true,"rental_uris":{"android":"levelo://app?vid=ec596a85-2d7e-4599-83c3-c16ffff6325a","ios":"levelo://app?vid=ec596a85-2d7e-4599-83c3-c16ffff6325a"},"vehicle_type_id":"4","last_reported":1750756356,"current_range_meters":400,"station_id":"ce4bhbh2rcd13ifvqeo0","pricing_plan_id":"cebpf4jnsgd1na2vs0mg"},{"bike_id":"b1d602c0-8e2c-4268-b2ee-5f9e237053f7","system_id":"levelo_inurba_marseille","lat":43.269391,"lon":5.402634,"is_reserved":false,"is_disabled":false,"rental_uris":{"android":"levelo://app?vid=b1d602c0-8e2c-4268-b2ee-5f9e237053f7","ios":"levelo://app?vid=b1d602c0-8e2c-4268-b2ee-5f9e237053f7"},"vehicle_type_id":"4","last_reported":1750756356,"current_range_meters":400,"station_id":"cjm6bp8fraef2m0cb0m0","pricing_plan_id":"cebpf4jnsgd1na2vs0mg"},{"bike_id":"3d07ef76-af52-42e0-81f1-5f4963c9ee29","system_id":"levelo_inurba_marseille","lat":43.294701,"lon":5.438349,"is_reserved":false,"is_disabled":true,"rental_uris":{"android":"levelo://app?vid=3d07ef76-af52-42e0-81f1-5f4963c9ee29","ios":"levelo://app?vid=3d07ef76-af52-42e0-81f1-5f4963c9ee29"},"vehicle_type_id":"4","last_reported":1750756356,"current_range_meters":800,"station_id":"","pricing_plan_id":"cebpf4jnsgd1na2vs0mg"},{"bike_id":"b930b6e8-30eb-4016-8a2b-96b6bb439569","system_id":"levelo_inurba_marseille","lat":43.29063,"lon":5.3717,"is_reserved":false,"is_disabled":true,"rental_uris":{"android":"levelo://app?vid=b930b6e8-30eb-4016-8a2b-96b6bb439569","ios":"levelo://app?vid=b930b6e8-30eb-4016-8a2b-96b6bb439569"},"vehicle_type_id":"4","last_reported":1750756356,"current_range_meters":800,"station_id":"ce4bh5p2rcd13ifvqe4g","pricing_plan_id":"cebpf4jnsgd1na2vs0mg"},{"bike_id":"ac49569c-40dc-447d-a62e-cc4ff9bf11e5","system_id":"levelo_inurba_marseille","lat":43.27942,"lon":5.39582,"is_reserved":false,"is_disabled":true,"rental_uris":{"android":"levelo://app?vid=ac49569c-40dc-447d-a62e-cc4ff9bf11e5","ios":"levelo://app?vid=ac49569c-40dc-447d-a62e-cc4ff9bf11e5"},"vehicle_type_id":"4","last_reported":1750756356,"current_range_meters":800,"station_id":"ce4bhf92rcd13ifvqf40","pricing_plan_id":"cebpf4jnsgd1na2vs0mg"},{"bike_id":"547fe919-da0c-47e5-b20d-b90f51b2d8ae","system_id":"levelo_inurba_marseille","lat":43.2844,"lon":5.39198,"is_reserved":false,"is_disabled":true,"rental_uris":{"android":"levelo://app?vid=547fe919-da0c-47e5-b20d-b90f51b2d8ae","ios":"levelo://app?vid=547fe919-da0c-47e5-b20d-b90f51b2d8ae"},"vehicle_type_id":"4","last_reported":1750756356,"current_range_meters":800,"station_id":"ce4bhoh2rcd13ifvqh5g","pricing_plan_id":"cebpf4jnsgd1na2vs0mg"},{"bike_id":"0032b41f-e702-48e0-a561-160b8fb6cb78","system_id":"levelo_inurba_marseille","lat":43.28931,"lon":5.39035,"is_reserved":false,"is_disabled":true,"rental_uris":{"android":"levelo://app?vid=0032b41f-e702-48e0-a561-160b8fb6cb78","ios":"levelo://app?vid=0032b41f-e702-48e0-a561-160b8fb6cb78"},"vehicle_type_id":"4","last_reported":1750756356,"current_range_meters":1200,"station_id":"","pricing_plan_id":"cebpf4jnsgd1na2vs0mg"},{"bike_id":"420aec1d-907c-40b7-9025-3e0b1efc7d4f","system_id":"levelo_inurba_marseille","lat":43.28106,"lon":5.37864,"is_reserved":false,"is_disabled":true,"rental_uris":{"android":"levelo://app?vid=420aec1d-907c-40b7-9025-3e0b1efc7d4f","ios":"levelo://app?vid=420aec1d-907c-40b7-9025-3e0b1efc7d4f"},"vehicle_type_id":"4","last_reported":1750756356,"current_range_meters":1200,"station_id":"ce4bha12rcd13ifvqee0","pricing_plan_id":"cebpf4jnsgd1na2vs0mg"},{"bike_id":"5da3a38a-c200-4aea-bf70-11f89f4fb439","system_id":"levelo_inurba_marseille","lat":43.28622,"lon":5.35111,"is_reserved":false,"is_disabled":true,"rental_uris":{"android":"levelo://app?vid=5da3a38a-c200-4aea-bf70-11f89f4fb439","ios":"levelo://app?vid=5da3a38a-c200-4aea-bf70-11f89f4fb439"},"vehicle_type_id":"4","last_reported":1750756356,"current_range_meters":1200,"station_id":"ce4bhch2rcd13ifvqeug","pricing_plan_id":"cebpf4jnsgd1na2vs0mg"},{"bike_id":"e2d65c6a-a4e4-41ab-8f25-62b7306de778","system_id":"levelo_inurba_marseille","lat":43.27212,"lon":5.39184,"is_reserved":false,"is_disabled":true,"rental_uris":{"android":"levelo://app?vid=e2d65c6a-a4e4-41ab-8f25-62b7306de778","ios":"levelo://app?vid=e2d65c6a-a4e4-41ab-8f25-62b7306de778"},"vehicle_type_id":"4","last_reported":1750756356,"current_range_meters":1200,"station_id":"ce4bhhp2rcd13ifvqfm0","pricing_plan_id":"cebpf4jnsgd1na2vs0mg"},{"bike_id":"f0650f35-803d-4209-9a46-a9ea96924ba4","system_id":"levelo_inurba_marseille","lat":43.28717,"lon":5.37942,"is_reserved":false,"is_disabled":true,"rental_uris":{"android":"levelo://app?vid=f0650f35-803d-4209-9a46-a9ea96924ba4","ios":"levelo://app?vid=f0650f35-803d-4209-9a46-a9ea96924ba4"},"vehicle_type_id":"4","last_reported":1750756356,"current_range_meters":1600,"station_id":"ce4bh9p2rcd13ifvqec0","pricing_plan_id":"cebpf4jnsgd1na2vs0mg"},{"bike_id":"20b428a8-47c8-4120-a0c6-635352bc6b91","system_id":"levelo_inurba_marseille","lat":43.29009,"lon":5.35604,"is_reserved":false,"is_disabled":true,"rental_uris":{"android":"levelo://app?vid=20b428a8-47c8-4120-a0c6-635352bc6b91","ios":"levelo://app?vid=20b428a8-47c8-4120-a0c6-635352bc6b91"},"vehicle_type_id":"4","last_reported":1750756356,"current_range_meters":1600,"station_id":"ce4bhb92rcd13ifvqen0","pricing_plan_id":"cebpf4jnsgd1na2vs0mg"},{"bike_id":"1be766dd-0c04-4ab7-957e-c123a6ae3d23","system_id":"levelo_inurba_marseille","lat":43.27561,"lon":5.3843,"is_reserved":false,"is_disabled":true,"rental_uris":{"android":"levelo://app?vid=1be766dd-0c04-4ab7-957e-c123a6ae3d23","ios":"levelo://app?vid=1be766dd-0c04-4ab7-957e-c123a6ae3d23"},"vehicle_type_id":"4","last_reported":1750756356,"current_range_meters":1600,"station_id":"ce4bhh92rcd13ifvqfi0","pricing_plan_id":"cebpf4jnsgd1na2vs0mg"},{"bike_id":"a328647e-70c2-407e-8803-ddb82780d80f","system_id":"levelo_inurba_marseille","lat":43.32115,"lon":5.36767,"is_reserved":false,"is_disabled":true,"rental_uris":{"android":"levelo://app?vid=a328647e-70c2-407e-8803-ddb82780d80f","ios":"levelo://app?vid=a328647e-70c2-407e-8803-ddb82780d80f"},"vehicle_type_id":"4","last_reported":1750756356,"current_range_meters":1600,"station_id":"ce4bhrh2rcd13ifvqhug","pricing_plan_id":"cebpf4jnsgd1na2vs0mg"},{"bike_id":"0033c338-1b58-4795-85bb-4dcf147df95e","system_id":"levelo_inurba_marseille","lat":43.324885,"lon":5.365671,"is_reserved":false,"is_disabled":true,"rental_uris":{"android":"levelo://app?vid=0033c338-1b58-4795-85bb-4dcf147df95e","ios":"levelo://app?vid=0033c338-1b58-4795-85bb-4dcf147df95e"},"vehicle_type_id":"4","last_reported":1750756356,"current_range_meters":1600,"station_id":"ce4bhs12rcd13ifvqhvg","pricing_plan_id":"cebpf4jnsgd1na2vs0mg"},{"bike_id":"737412bf-14b7-4cbb-b857-7e293f47e553","system_id":"levelo_inurba_marseille","lat":43.25497,"lon":5.3765,"is_reserved":false,"is_disabled":false,"rental_uris":{"android":"levelo://app?vid=737412bf-14b7-4cbb-b857-7e293f47e553","ios":"levelo://app?vid=737412bf-14b7-4cbb-b857-7e293f47e553"},"vehicle_type_id":"4","last_reported":1750756356,"current_range_meters":2000,"station_id":"ce4bhh12rcd13ifvqff0","pricing_plan_id":"cebpf4jnsgd1na2vs0mg"},{"bike_id":"a66e40d1-a633-4688-a1ba-b3644c656c7f","system_id":"levelo_inurba_marseille","lat":43.33023,"lon":5.39038,"is_reserved":false,"is_disabled":false,"rental_uris":{"android":"levelo://app?vid=a66e40d1-a633-4688-a1ba-b3644c656c7f","ios":"levelo://app?vid=a66e40d1-a633-4688-a1ba-b3644c656c7f"},"vehicle_type_id":"4","last_reported":1750756356,"current_range_meters":3200,"station_id":"","pricing_plan_id":"cebpf4jnsgd1na2vs0mg"},{"bike_id":"85c58f10-925d-4344-b389-09267487a6fc","system_id":"levelo_inurba_marseille","lat":43.21094,"lon":5.41938,"is_reserved":false,"is_disabled":false,"rental_uris":{"android":"levelo://app?vid=85c58f10-925d-4344-b389-09267487a6fc","ios":"levelo://app?vid=85c58f10-925d-4344-b389-09267487a6fc"},"vehicle_type_id":"4","last_reported":1750756356,"current_range_meters":3200,"station_id":"","pricing_plan_id":"cebpf4jnsgd1na2vs0mg"},{"bike_id":"3457d662-44e8-45a5-9ad4-0c705caa051e","system_id":"levelo_inurba_marseille","lat":43.25724,"lon":5.41109,"is_reserved":false,"is_disabled":false,"rental_uris":{"android":"levelo://app?vid=3457d662-44e8-45a5-9ad4-0c705caa051e","ios":"levelo://app?vid=3457d662-44e8-45a5-9ad4-0c705caa051e"},"vehicle_type_id":"4","last_reported":1750756356,"current_range_meters":3200,"station_id":"ce4bhkp2rcd13ifvqgd0","pricing_plan_id":"cebpf4jnsgd1na2vs0mg"},{"bike_id":"6e354a70-6fc7-4f23-8ffb-1672443f4919","system_id":"levelo_inurba_marseille","lat":43.28703,"lon":5.39978,"is_reserved":false,"is_disabled":false,"rental_uris":{"android":"levelo://app?vid=6e354a70-6fc7-4f23-8ffb-1672443f4919","ios":"levelo://app?vid=6e354a70-6fc7-4f23-8ffb-1672443f4919"},"vehicle_type_id":"4","last_reported":1750756356,"current_range_meters":3200,"station_id":"ce4bho92rcd13ifvqh3g","pricing_plan_id":"cebpf4jnsgd1na2vs0mg"},{"bike_id":"d864f708-3490-4be9-af59-002dafce2a2a","system_id":"levelo_inurba_marseille","lat":43.28722,"lon":5.36098,"is_reserved":false,"is_disabled":false,"rental_uris":{"android":"levelo://app?vid=d864f708-3490-4be9-af59-002dafce2a2a","ios":"levelo://app?vid=d864f708-3490-4be9-af59-002dafce2a2a"},"vehicle_type_id":"4","last_reported":1750756356,"current_range_meters":3200,"station_id":"cki0cbj6b192h4jlfktg","pricing_plan_id":"cebpf4jnsgd1na2vs0mg"},{"bike_id":"9767b533-38d5-4d85-9210-c5d59ef219f1","system_id":"levelo_inurba_marseille","lat":43.29033,"lon":5.37564,"is_reserved":false,"is_disabled":false,"rental_uris":{"android":"levelo://app?vid=9767b533-38d5-4d85-9210-c5d59ef219f1","ios":"levelo://app?vid=9767b533-38d5-4d85-9210-c5d59ef219f1"},"vehicle_type_id":"4","last_reported":1750756356,"current_range_meters":3600,"station_id":"ce4bh692rcd13ifvqe90","pricing_plan_id":"cebpf4jnsgd1na2vs0mg"},{"bike_id":"6354adfe-49a9-46dd-ad38-53b2323b18f0","system_id":"levelo_inurba_marseille","lat":43.273749,"lon":5.36263,"is_reserved":false,"is_disabled":false,"rental_uris":{"android":"levelo://app?vid=6354adfe-49a9-46dd-ad38-53b2323b18f0","ios":"levelo://app?vid=6354adfe-49a9-46dd-ad38-53b2323b18f0"},"vehicle_type_id":"4","last_reported":1750756356,"current_range_meters":3600,"station_id":"ce4bhbh2rcd13ifvqeo0","pricing_plan_id":"cebpf4jnsgd1na2vs0mg"},{"bike_id":"8aa545cb-9b66-4c36-8eae-0522d5cc1905","system_id":"levelo_inurba_marseille","lat":43.28276,"lon":5.35071,"is_reserved":false,"is_disabled":false,"rental_uris":{"android":"levelo://app?vid=8aa545cb-9b66-4c36-8eae-0522d5cc1905","ios":"levelo://app?vid=8aa545cb-9b66-4c36-8eae-0522d5cc1905"},"vehicle_type_id":"4","last_reported":1750756356,"current_range_meters":3600,"station_id":"ce4bhbp2rcd13ifvqerg","pricing_plan_id":"cebpf4jnsgd1na2vs0mg"},{"bike_id":"0adfa96e-0cd1-405e-aa71-718acff38533","system_id":"levelo_inurba_marseille","lat":43.27906,"lon":5.39577,"is_reserved":false,"is_disabled":false,"rental_uris":{"android":"levelo://app?vid=0adfa96e-0cd1-405e-aa71-718acff38533","ios":"levelo://app?vid=0adfa96e-0cd1-405e-aa71-718acff38533"},"vehicle_type_id":"4","last_reported":1750756356,"current_range_meters":3600,"station_id":"ce4bhf92rcd13ifvqf40","pricing_plan_id":"cebpf4jnsgd1na2vs0mg"},{"bike_id":"01f2a692-824c-49db-b272-bcf28e20e086","system_id":"levelo_inurba_marseille","lat":43.281241,"lon":5.441999,"is_reserved":false,"is_disabled":false,"rental_uris":{"android":"levelo://app?vid=01f2a692-824c-49db-b272-bcf28e20e086","ios":"levelo://app?vid=01f2a692-824c-49db-b272-bcf28e20e086"},"vehicle_type_id":"4","last_reported":1750756356,"current_range_meters":4000,"station_id":"","pricing_plan_id":"cebpf4jnsgd1na2vs0mg"},{"bike_id":"1ceb963e-551c-4a3a-9581-2fbc5936ddc1","system_id":"levelo_inurba_marseille","lat":43.30426,"lon":5.38889,"is_reserved":false,"is_disabled":false,"rental_uris":{"android":"levelo://app?vid=1ceb963e-551c-4a3a-9581-2fbc5936ddc1","ios":"levelo://app?vid=1ceb963e-551c-4a3a-9581-2fbc5936ddc1"},"vehicle_type_id":"4","last_reported":1750756356,"current_range_meters":4000,"station_id":"ce4bgk12rcd13ifvqbi0","pricing_plan_id":"cebpf4jnsgd1na2vs0mg"},{"bike_id":"5709b588-b96c-43ac-8915-c09cebe0bd4e","system_id":"levelo_inurba_marseille","lat":43.29093,"lon":5.3814,"is_reserved":false,"is_disabled":false,"rental_uris":{"android":"levelo://app?vid=5709b588-b96c-43ac-8915-c09cebe0bd4e","ios":"levelo://app?vid=5709b588-b96c-43ac-8915-c09cebe0bd4e"},"vehicle_type_id":"4","last_reported":1750756356,"current_range_meters":4000,"station_id":"ce4bh512rcd13ifvqe2g","pricing_plan_id":"cebpf4jnsgd1na2vs0mg"},{"bike_id":"e72dd990-ddf2-4dca-b858-e79fdb088ec9","system_id":"levelo_inurba_marseille","lat":43.28421,"lon":5.3499,"is_reserved":false,"is_disabled":false,"rental_uris":{"android":"levelo://app?vid=e72dd990-ddf2-4dca-b858-e79fdb088ec9","ios":"levelo://app?vid=e72dd990-ddf2-4dca-b858-e79fdb088ec9"},"vehicle_type_id":"4","last_reported":1750756356,"current_range_meters":4000,"station_id":"ce4bhbh2rcd13ifvqepg","pricing_plan_id":"cebpf4jnsgd1na2vs0mg"},{"bike_id":"d1a32e84-ee91-4887-a80e-acc8807888fe","system_id":"levelo_inurba_marseille","lat":43.26684,"lon":5.38271,"is_reserved":false,"is_disabled":false,"rental_uris":{"android":"levelo://app?vid=d1a32e84-ee91-4887-a80e-acc8807888fe","ios":"levelo://app?vid=d1a32e84-ee91-4887-a80e-acc8807888fe"},"vehicle_type_id":"4","last_reported":1750756356,"current_range_meters":4000,"station_id":"ce4bhg92rcd13ifvqf90","pricing_plan_id":"cebpf4jnsgd1na2vs0mg"},{"bike_id":"8c6de0c1-9eaf-4c18-8155-d956789067ae","system_id":"levelo_inurba_marseille","lat":43.27957,"lon":5.4421,"is_reserved":false,"is_disabled":false,"rental_uris":{"android":"levelo://app?vid=8c6de0c1-9eaf-4c18-8155-d956789067ae","ios":"levelo://app?vid=8c6de0c1-9eaf-4c18-8155-d956789067ae"},"vehicle_type_id":"4","last_reported":1750756356,"current_range_meters":4400,"station_id":"","pricing_plan_id":"cebpf4jnsgd1na2vs0mg"},{"bike_id":"a9e5e555-fdaf-49c0-b286-f0f2659b17d0","system_id":"levelo_inurba_marseille","lat":43.28318,"lon":5.43236,"is_reserved":false,"is_disabled":false,"rental_uris":{"android":"levelo://app?vid=a9e5e555-fdaf-49c0-b286-f0f2659b17d0","ios":"levelo://app?vid=a9e5e555-fdaf-49c0-b286-f0f2659b17d0"},"vehicle_type_id":"4","last_reported":1750756356,"current_range_meters":4400,"station_id":"","pricing_plan_id":"cebpf4jnsgd1na2vs0mg"},{"bike_id":"b0f7857a-9c6a-43fc-9bf3-139d42c02566","system_id":"levelo_inurba_marseille","lat":43.30131,"lon":5.37398,"is_reserved":false,"is_disabled":false,"rental_uris":{"android":"levelo://app?vid=b0f7857a-9c6a-43fc-9bf3-139d42c02566","ios":"levelo://app?vid=b0f7857a-9c6a-43fc-9bf3-139d42c02566"},"vehicle_type_id":"4","last_reported":1750756356,"current_range_meters":4400,"station_id":"ce4bgs92rcd13ifvqcc0","pricing_plan_id":"cebpf4jnsgd1na2vs0mg"},{"bike_id":"35e60b79-4452-4c93-bede-fbf4f4969a7b","system_id":"levelo_inurba_marseille","lat":43.28603,"lon":5.3511,"is_reserved":false,"is_disabled":false,"rental_uris":{"android":"levelo://app?vid=35e60b79-4452-4c93-bede-fbf4f4969a7b","ios":"levelo://app?vid=35e60b79-4452-4c93-bede-fbf4f4969a7b"},"vehicle_type_id":"4","last_reported":1750756356,"current_range_meters":4400,"station_id":"ce4bhch2rcd13ifvqeug","pricing_plan_id":"cebpf4jnsgd1na2vs0mg"},{"bike_id":"9e2660c2-e8e7-4ec5-a66e-e2145d95e096","system_id":"levelo_inurba_marseille","lat":43.2667,"lon":5.38272,"is_reserved":false,"is_disabled":false,"rental_uris":{"android":"levelo://app?vid=9e2660c2-e8e7-4ec5-a66e-e2145d95e096","ios":"levelo://app?vid=9e2660c2-e8e7-4ec5-a66e-e2145d95e096"},"vehicle_type_id":"4","last_reported":1750756356,"current_range_meters":4400,"station_id":"ce4bhg92rcd13ifvqf90","pricing_plan_id":"cebpf4jnsgd1na2vs0mg"},{"bike_id":"32452a7c-a21b-4705-b0e0-19cb2a14bd49","system_id":"levelo_inurba_marseille","lat":43.27713,"lon":5.38877,"is_reserved":false,"is_disabled":false,"rental_uris":{"android":"levelo://app?vid=32452a7c-a21b-4705-b0e0-19cb2a14bd49","ios":"levelo://app?vid=32452a7c-a21b-4705-b0e0-19cb2a14bd49"},"vehicle_type_id":"4","last_reported":1750756356,"current_range_meters":4400,"station_id":"ce4bhi12rcd13ifvqfo0","pricing_plan_id":"cebpf4jnsgd1na2vs0mg"},{"bike_id":"5db18a16-177a-49e6-850a-05463ff04e1b","system_id":"levelo_inurba_marseille","lat":43.32529,"lon":5.4143,"is_reserved":false,"is_disabled":false,"rental_uris":{"android":"levelo://app?vid=5db18a16-177a-49e6-850a-05463ff04e1b","ios":"levelo://app?vid=5db18a16-177a-49e6-850a-05463ff04e1b"},"vehicle_type_id":"4","last_reported":1750756356,"current_range_meters":4400,"station_id":"ce4bhq12rcd13ifvqhhg","pricing_plan_id":"cebpf4jnsgd1na2vs0mg"},{"bike_id":"66a61950-5fe0-430d-aab1-9fd03f291255","system_id":"levelo_inurba_marseille","lat":43.2417,"lon":5.36379,"is_reserved":false,"is_disabled":false,"rental_uris":{"android":"levelo://app?vid=66a61950-5fe0-430d-aab1-9fd03f291255","ios":"levelo://app?vid=66a61950-5fe0-430d-aab1-9fd03f291255"},"vehicle_type_id":"4","last_reported":1750756356,"current_range_meters":4400,"station_id":"cpo36qri1sfpv3e86is0","pricing_plan_id":"cebpf4jnsgd1na2vs0mg"},{"bike_id":"64a7fa1f-b0d7-4fe8-9c16-df2d7d946509","system_id":"levelo_inurba_marseille","lat":43.295227,"lon":5.375028,"is_reserved":false,"is_disabled":false,"rental_uris":{"android":"levelo://app?vid=64a7fa1f-b0d7-4fe8-9c16-df2d7d946509","ios":"levelo://app?vid=64a7fa1f-b0d7-4fe8-9c16-df2d7d946509"},"vehicle_type_id":"4","last_reported":1750756356,"current_range_meters":4800,"station_id":"ce4bgkp2rcd13ifvqbmg","pricing_plan_id":"cebpf4jnsgd1na2vs0mg"},{"bike_id":"58d1d69f-e793-4191-9ae1-cae1f61052f2","system_id":"levelo_inurba_marseille","lat":43.26548,"lon":5.3729,"is_reserved":false,"is_disabled":false,"rental_uris":{"android":"levelo://app?vid=58d1d69f-e793-4191-9ae1-cae1f61052f2","ios":"levelo://app?vid=58d1d69f-e793-4191-9ae1-cae1f61052f2"},"vehicle_type_id":"4","last_reported":1750756356,"current_range_meters":4800,"station_id":"ce4bhg12rcd13ifvqf70","pricing_plan_id":"cebpf4jnsgd1na2vs0mg"},{"bike_id":"c8a888f0-a5ad-413f-b002-e2eb93c57fae","system_id":"levelo_inurba_marseille","lat":43.27502,"lon":5.4244,"is_reserved":false,"is_disabled":false,"rental_uris":{"android":"levelo://app?vid=c8a888f0-a5ad-413f-b002-e2eb93c57fae","ios":"levelo://app?vid=c8a888f0-a5ad-413f-b002-e2eb93c57fae"},"vehicle_type_id":"4","last_reported":1750756356,"current_range_meters":4800,"station_id":"ce4bhn92rcd13ifvqgrg","pricing_plan_id":"cebpf4jnsgd1na2vs0mg"},{"bike_id":"77b559e8-f59f-4a3e-8643-e6adb2d227b9","system_id":"levelo_inurba_marseille","lat":43.30373,"lon":5.42494,"is_reserved":false,"is_disabled":false,"rental_uris":{"android":"levelo://app?vid=77b559e8-f59f-4a3e-8643-e6adb2d227b9","ios":"levelo://app?vid=77b559e8-f59f-4a3e-8643-e6adb2d227b9"},"vehicle_type_id":"4","last_reported":1750756356,"current_range_meters":4800,"station_id":"ce4bhoh2rcd13ifvqh6g","pricing_plan_id":"cebpf4jnsgd1na2vs0mg"},{"bike_id":"67339d15-72ef-4625-9242-27b1f4c78143","system_id":"levelo_inurba_marseille","lat":43.26804,"lon":5.40271,"is_reserved":false,"is_disabled":false,"rental_uris":{"android":"levelo://app?vid=67339d15-72ef-4625-9242-27b1f4c78143","ios":"levelo://app?vid=67339d15-72ef-4625-9242-27b1f4c78143"},"vehicle_type_id":"4","last_reported":1750756356,"current_range_meters":4800,"station_id":"ce501612rcd8frsf0b60","pricing_plan_id":"cebpf4jnsgd1na2vs0mg"},{"bike_id":"d7c56714-1585-4954-976a-05b319c2a630","system_id":"levelo_inurba_marseille","lat":43.30751,"lon":5.3744,"is_reserved":false,"is_disabled":false,"rental_uris":{"android":"levelo://app?vid=d7c56714-1585-4954-976a-05b319c2a630","ios":"levelo://app?vid=d7c56714-1585-4954-976a-05b319c2a630"},"vehicle_type_id":"4","last_reported":1750756356,"current_range_meters":5600,"station_id":"","pricing_plan_id":"cebpf4jnsgd1na2vs0mg"},{"bike_id":"56041e84-2b95-4054-bf88-7fe30e24a984","system_id":"levelo_inurba_marseille","lat":43.26197,"lon":5.37449,"is_reserved":false,"is_disabled":false,"rental_uris":{"android":"levelo://app?vid=56041e84-2b95-4054-bf88-7fe30e24a984","ios":"levelo://app?vid=56041e84-2b95-4054-bf88-7fe30e24a984"},"vehicle_type_id":"4","last_reported":1750756356,"current_range_meters":5600,"station_id":"ce4bhgp2rcd13ifvqfc0","pricing_plan_id":"cebpf4jnsgd1na2vs0mg"},{"bike_id":"ccce5b2a-d1c8-4ec6-8753-4b70c0993133","system_id":"levelo_inurba_marseille","lat":43.25501,"lon":5.37655,"is_reserved":false,"is_disabled":false,"rental_uris":{"android":"levelo://app?vid=ccce5b2a-d1c8-4ec6-8753-4b70c0993133","ios":"levelo://app?vid=ccce5b2a-d1c8-4ec6-8753-4b70c0993133"},"vehicle_type_id":"4","last_reported":1750756356,"current_range_meters":5600,"station_id":"ce4bhh12rcd13ifvqff0","pricing_plan_id":"cebpf4jnsgd1na2vs0mg"},{"bike_id":"ee633776-49fb-4001-8429-54435e3e8151","system_id":"levelo_inurba_marseille","lat":43.25721,"lon":5.41111,"is_reserved":false,"is_disabled":false,"rental_uris":{"android":"levelo://app?vid=ee633776-49fb-4001-8429-54435e3e8151","ios":"levelo://app?vid=ee633776-49fb-4001-8429-54435e3e8151"},"vehicle_type_id":"4","last_reported":1750756356,"current_range_meters":5600,"station_id":"ce4bhkp2rcd13ifvqgd0","pricing_plan_id":"cebpf4jnsgd1na2vs0mg"},{"bike_id":"17d0afaa-6951-4dde-a43d-60017e75021c","system_id":"levelo_inurba_marseille","lat":43.291681,"lon":5.421175,"is_reserved":false,"is_disabled":false,"rental_uris":{"android":"levelo://app?vid=17d0afaa-6951-4dde-a43d-60017e75021c","ios":"levelo://app?vid=17d0afaa-6951-4dde-a43d-60017e75021c"},"vehicle_type_id":"4","last_reported":1750756356,"current_range_meters":6000,"station_id":"","pricing_plan_id":"cebpf4jnsgd1na2vs0mg"},{"bike_id":"734c7c70-1863-4e30-9432-3908e5d79494","system_id":"levelo_inurba_marseille","lat":43.28267,"lon":5.35062,"is_reserved":false,"is_disabled":false,"rental_uris":{"android":"levelo://app?vid=734c7c70-1863-4e30-9432-3908e5d79494","ios":"levelo://app?vid=734c7c70-1863-4e30-9432-3908e5d79494"},"vehicle_type_id":"4","last_reported":1750756356,"current_range_meters":6000,"station_id":"ce4bhbp2rcd13ifvqerg","pricing_plan_id":"cebpf4jnsgd1na2vs0mg"},{"bike_id":"f10e38ce-c08a-4001-873a-ec3e8846285a","system_id":"levelo_inurba_marseille","lat":43.32906,"lon":5.38053,"is_reserved":false,"is_disabled":false,"rental_uris":{"android":"levelo://app?vid=f10e38ce-c08a-4001-873a-ec3e8846285a","ios":"levelo://app?vid=f10e38ce-c08a-4001-873a-ec3e8846285a"},"vehicle_type_id":"4","last_reported":1750756356,"current_range_meters":6400,"station_id":"","pricing_plan_id":"cebpf4jnsgd1na2vs0mg"},{"bike_id":"4db5cf9d-20f1-4462-aac0-2615a9da6004","system_id":"levelo_inurba_marseille","lat":43.316876,"lon":5.404603,"is_reserved":false,"is_disabled":false,"rental_uris":{"android":"levelo://app?vid=4db5cf9d-20f1-4462-aac0-2615a9da6004","ios":"levelo://app?vid=4db5cf9d-20f1-4462-aac0-2615a9da6004"},"vehicle_type_id":"4","last_reported":1750756356,"current_range_meters":6400,"station_id":"ce4bh012rcd13ifvqd00","pricing_plan_id":"cebpf4jnsgd1na2vs0mg"},{"bike_id":"429ac440-9e32-4eba-9b6b-69fe26b6a5bb","system_id":"levelo_inurba_marseille","lat":43.29028,"lon":5.37554,"is_reserved":false,"is_disabled":false,"rental_uris":{"android":"levelo://app?vid=429ac440-9e32-4eba-9b6b-69fe26b6a5bb","ios":"levelo://app?vid=429ac440-9e32-4eba-9b6b-69fe26b6a5bb"},"vehicle_type_id":"4","last_reported":1750756356,"current_range_meters":6400,"station_id":"ce4bh692rcd13ifvqe90","pricing_plan_id":"cebpf4jnsgd1na2vs0mg"},{"bike_id":"6db37174-ea98-49f4-9f7a-2f2e791027a2","system_id":"levelo_inurba_marseille","lat":43.27174,"lon":5.41,"is_reserved":false,"is_disabled":false,"rental_uris":{"android":"levelo://app?vid=6db37174-ea98-49f4-9f7a-2f2e791027a2","ios":"levelo://app?vid=6db37174-ea98-49f4-9f7a-2f2e791027a2"},"vehicle_type_id":"4","last_reported":1750756356,"current_range_meters":6400,"station_id":"ce4bhl12rcd13ifvqgf0","pricing_plan_id":"cebpf4jnsgd1na2vs0mg"},{"bike_id":"ee8574bf-5d71-4dd4-b8ec-2f4249ec0a6c","system_id":"levelo_inurba_marseille","lat":43.29302,"lon":5.37178,"is_reserved":false,"is_disabled":false,"rental_uris":{"android":"levelo://app?vid=ee8574bf-5d71-4dd4-b8ec-2f4249ec0a6c","ios":"levelo://app?vid=ee8574bf-5d71-4dd4-b8ec-2f4249ec0a6c"},"vehicle_type_id":"4","last_reported":1750756356,"current_range_meters":6800,"station_id":"ce4bgh92rcd13ifvqb40","pricing_plan_id":"cebpf4jnsgd1na2vs0mg"},{"bike_id":"745b26d9-a73c-406a-8102-3002bf244d65","system_id":"levelo_inurba_marseille","lat":43.29368,"lon":5.37851,"is_reserved":false,"is_disabled":false,"rental_uris":{"android":"levelo://app?vid=745b26d9-a73c-406a-8102-3002bf244d65","ios":"levelo://app?vid=745b26d9-a73c-406a-8102-3002bf244d65"},"vehicle_type_id":"4","last_reported":1750756356,"current_range_meters":6800,"station_id":"ce4bgjh2rcd13ifvqbf0","pricing_plan_id":"cebpf4jnsgd1na2vs0mg"},{"bike_id":"eee12dc1-781e-421b-a01e-63f140de5a6d","system_id":"levelo_inurba_marseille","lat":43.28002,"lon":5.40003,"is_reserved":false,"is_disabled":false,"rental_uris":{"android":"levelo://app?vid=eee12dc1-781e-421b-a01e-63f140de5a6d","ios":"levelo://app?vid=eee12dc1-781e-421b-a01e-63f140de5a6d"},"vehicle_type_id":"4","last_reported":1750756356,"current_range_meters":6800,"station_id":"ce4bho92rcd13ifvqh4g","pricing_plan_id":"cebpf4jnsgd1na2vs0mg"},{"bike_id":"6ed60de0-d4d8-4bcf-87eb-77bc6bd99ae7","system_id":"levelo_inurba_marseille","lat":43.30866,"lon":5.38167,"is_reserved":false,"is_disabled":false,"rental_uris":{"android":"levelo://app?vid=6ed60de0-d4d8-4bcf-87eb-77bc6bd99ae7","ios":"levelo://app?vid=6ed60de0-d4d8-4bcf-87eb-77bc6bd99ae7"},"vehicle_type_id":"4","last_reported":1750756356,"current_range_meters":7200,"station_id":"","pricing_plan_id":"cebpf4jnsgd1na2vs0mg"},{"bike_id":"70764641-799a-4261-99bd-903918c1b74a","system_id":"levelo_inurba_marseille","lat":43.32896,"lon":5.38388,"is_reserved":false,"is_disabled":false,"rental_uris":{"android":"levelo://app?vid=70764641-799a-4261-99bd-903918c1b74a","ios":"levelo://app?vid=70764641-799a-4261-99bd-903918c1b74a"},"vehicle_type_id":"4","last_reported":1750756356,"current_range_meters":7200,"station_id":"","pricing_plan_id":"cebpf4jnsgd1na2vs0mg"},{"bike_id":"4acc9837-351f-4119-83d3-897383da79ed","system_id":"levelo_inurba_marseille","lat":43.30104,"lon":5.38045,"is_reserved":false,"is_disabled":false,"rental_uris":{"android":"levelo://app?vid=4acc9837-351f-4119-83d3-897383da79ed","ios":"levelo://app?vid=4acc9837-351f-4119-83d3-897383da79ed"},"vehicle_type_id":"4","last_reported":1750756356,"current_range_meters":7200,"station_id":"","pricing_plan_id":"cebpf4jnsgd1na2vs0mg"},{"bike_id":"69f50f15-e6f6-4683-aa4a-1244889bef4b","system_id":"levelo_inurba_marseille","lat":43.28265,"lon":5.35063,"is_reserved":false,"is_disabled":false,"rental_uris":{"android":"levelo://app?vid=69f50f15-e6f6-4683-aa4a-1244889bef4b","ios":"levelo://app?vid=69f50f15-e6f6-4683-aa4a-1244889bef4b"},"vehicle_type_id":"4","last_reported":1750756356,"current_range_meters":7200,"station_id":"ce4bhbp2rcd13ifvqerg","pricing_plan_id":"cebpf4jnsgd1na2vs0mg"},{"bike_id":"b1a1d65a-13b4-404f-8e26-c7829a3d63f8","system_id":"levelo_inurba_marseille","lat":43.24385,"lon":5.37059,"is_reserved":false,"is_disabled":false,"rental_uris":{"android":"levelo://app?vid=b1a1d65a-13b4-404f-8e26-c7829a3d63f8","ios":"levelo://app?vid=b1a1d65a-13b4-404f-8e26-c7829a3d63f8"},"vehicle_type_id":"4","last_reported":1750756356,"current_range_meters":7200,"station_id":"ce4bhhh2rcd13ifvqfk0","pricing_plan_id":"cebpf4jnsgd1na2vs0mg"},{"bike_id":"20942cfe-936a-46ca-b62e-9ad2167bf510","system_id":"levelo_inurba_marseille","lat":43.32105,"lon":5.36772,"is_reserved":false,"is_disabled":false,"rental_uris":{"android":"levelo://app?vid=20942cfe-936a-46ca-b62e-9ad2167bf510","ios":"levelo://app?vid=20942cfe-936a-46ca-b62e-9ad2167bf510"},"vehicle_type_id":"4","last_reported":1750756356,"current_range_meters":7200,"station_id":"ce4bhrh2rcd13ifvqhug","pricing_plan_id":"cebpf4jnsgd1na2vs0mg"},{"bike_id":"6609a24d-085d-4d78-adc9-29a5eee1202d","system_id":"levelo_inurba_marseille","lat":43.324823,"lon":5.365637,"is_reserved":false,"is_disabled":false,"rental_uris":{"android":"levelo://app?vid=6609a24d-085d-4d78-adc9-29a5eee1202d","ios":"levelo://app?vid=6609a24d-085d-4d78-adc9-29a5eee1202d"},"vehicle_type_id":"4","last_reported":1750756356,"current_range_meters":7200,"station_id":"ce4bhs12rcd13ifvqhvg","pricing_plan_id":"cebpf4jnsgd1na2vs0mg"},{"bike_id":"5fc4b091-86bf-412c-9589-29e42ad5f115","system_id":"levelo_inurba_marseille","lat":43.30142,"lon":5.38057,"is_reserved":false,"is_disabled":false,"rental_uris":{"android":"levelo://app?vid=5fc4b091-86bf-412c-9589-29e42ad5f115","ios":"levelo://app?vid=5fc4b091-86bf-412c-9589-29e42ad5f115"},"vehicle_type_id":"4","last_reported":1750756356,"current_range_meters":8000,"station_id":"ce4bgjp2rcd13ifvqbh0","pricing_plan_id":"cebpf4jnsgd1na2vs0mg"},{"bike_id":"3c3800c0-cd59-4b8b-8390-04274d8b0573","system_id":"levelo_inurba_marseille","lat":43.29605,"lon":5.38112,"is_reserved":false,"is_disabled":false,"rental_uris":{"android":"levelo://app?vid=3c3800c0-cd59-4b8b-8390-04274d8b0573","ios":"levelo://app?vid=3c3800c0-cd59-4b8b-8390-04274d8b0573"},"vehicle_type_id":"4","last_reported":1750756356,"current_range_meters":8000,"station_id":"ce4bgl12rcd13ifvqbo0","pricing_plan_id":"cebpf4jnsgd1na2vs0mg"},{"bike_id":"ec7c042e-f7da-42bc-be79-83224ee96f4f","system_id":"levelo_inurba_marseille","lat":43.2919,"lon":5.35805,"is_reserved":false,"is_disabled":false,"rental_uris":{"android":"levelo://app?vid=ec7c042e-f7da-42bc-be79-83224ee96f4f","ios":"levelo://app?vid=ec7c042e-f7da-42bc-be79-83224ee96f4f"},"vehicle_type_id":"4","last_reported":1750756356,"current_range_meters":8000,"station_id":"ce4bhb12rcd13ifvqel0","pricing_plan_id":"cebpf4jnsgd1na2vs0mg"},{"bike_id":"0c05d705-1a2d-4d55-b70e-628effcec38f","system_id":"levelo_inurba_marseille","lat":43.2465,"lon":5.38896,"is_reserved":false,"is_disabled":false,"rental_uris":{"android":"levelo://app?vid=0c05d705-1a2d-4d55-b70e-628effcec38f","ios":"levelo://app?vid=0c05d705-1a2d-4d55-b70e-628effcec38f"},"vehicle_type_id":"4","last_reported":1750756356,"current_range_meters":8000,"station_id":"ce4bhg12rcd13ifvqf60","pricing_plan_id":"cebpf4jnsgd1na2vs0mg"},{"bike_id":"37292929-c637-4018-9400-618a2a736d95","system_id":"levelo_inurba_marseille","lat":43.33722,"lon":5.39184,"is_reserved":false,"is_disabled":false,"rental_uris":{"android":"levelo://app?vid=37292929-c637-4018-9400-618a2a736d95","ios":"levelo://app?vid=37292929-c637-4018-9400-618a2a736d95"},"vehicle_type_id":"4","last_reported":1750756356,"current_range_meters":8000,"station_id":"ce4bhr92rcd13ifvqhsg","pricing_plan_id":"cebpf4jnsgd1na2vs0mg"},{"bike_id":"d1dbc170-fe56-4491-9a11-c3d149082527","system_id":"levelo_inurba_marseille","lat":43.324791,"lon":5.365738,"is_reserved":false,"is_disabled":false,"rental_uris":{"android":"levelo://app?vid=d1dbc170-fe56-4491-9a11-c3d149082527","ios":"levelo://app?vid=d1dbc170-fe56-4491-9a11-c3d149082527"},"vehicle_type_id":"4","last_reported":1750756356,"current_range_meters":8000,"station_id":"ce4bhs12rcd13ifvqhvg","pricing_plan_id":"cebpf4jnsgd1na2vs0mg"},{"bike_id":"e746e79a-3800-4fea-b7a5-d7ac2497a2e1","system_id":"levelo_inurba_marseille","lat":43.30526,"lon":5.36687,"is_reserved":false,"is_disabled":false,"rental_uris":{"android":"levelo://app?vid=e746e79a-3800-4fea-b7a5-d7ac2497a2e1","ios":"levelo://app?vid=e746e79a-3800-4fea-b7a5-d7ac2497a2e1"},"vehicle_type_id":"4","last_reported":1750756356,"current_range_meters":8400,"station_id":"ce4bgrp2rcd13ifvqc9g","pricing_plan_id":"cebpf4jnsgd1na2vs0mg"},{"bike_id":"003c0064-cb6d-4f66-b6ce-b1e87e37a33d","system_id":"levelo_inurba_marseille","lat":43.28613,"lon":5.35106,"is_reserved":false,"is_disabled":false,"rental_uris":{"android":"levelo://app?vid=003c0064-cb6d-4f66-b6ce-b1e87e37a33d","ios":"levelo://app?vid=003c0064-cb6d-4f66-b6ce-b1e87e37a33d"},"vehicle_type_id":"4","last_reported":1750756356,"current_range_meters":8400,"station_id":"ce4bhch2rcd13ifvqeug","pricing_plan_id":"cebpf4jnsgd1na2vs0mg"},{"bike_id":"675ca601-8d61-4b30-b170-2f48adbb7843","system_id":"levelo_inurba_marseille","lat":43.25577,"lon":5.38253,"is_reserved":false,"is_disabled":false,"rental_uris":{"android":"levelo://app?vid=675ca601-8d61-4b30-b170-2f48adbb7843","ios":"levelo://app?vid=675ca601-8d61-4b30-b170-2f48adbb7843"},"vehicle_type_id":"4","last_reported":1750756356,"current_range_meters":8400,"station_id":"ce4bhih2rcd13ifvqfs0","pricing_plan_id":"cebpf4jnsgd1na2vs0mg"},{"bike_id":"02b8caa6-5e2c-49d2-b361-2d267531c126","system_id":"levelo_inurba_marseille","lat":43.2315,"lon":5.43698,"is_reserved":false,"is_disabled":false,"rental_uris":{"android":"levelo://app?vid=02b8caa6-5e2c-49d2-b361-2d267531c126","ios":"levelo://app?vid=02b8caa6-5e2c-49d2-b361-2d267531c126"},"vehicle_type_id":"4","last_reported":1750756356,"current_range_meters":8400,"station_id":"ce4bhmp2rcd13ifvqgog","pricing_plan_id":"cebpf4jnsgd1na2vs0mg"},{"bike_id":"8db616e2-9b85-463c-b9ec-a921956427ff","system_id":"levelo_inurba_marseille","lat":43.3254,"lon":5.41463,"is_reserved":false,"is_disabled":false,"rental_uris":{"android":"levelo://app?vid=8db616e2-9b85-463c-b9ec-a921956427ff","ios":"levelo://app?vid=8db616e2-9b85-463c-b9ec-a921956427ff"},"vehicle_type_id":"4","last_reported":1750756356,"current_range_meters":8400,"station_id":"ce4bhq12rcd13ifvqhhg","pricing_plan_id":"cebpf4jnsgd1na2vs0mg"},{"bike_id":"8527eef5-3a92-4bba-b4de-34be96ff921e","system_id":"levelo_inurba_marseille","lat":43.324848,"lon":5.365735,"is_reserved":false,"is_disabled":false,"rental_uris":{"android":"levelo://app?vid=8527eef5-3a92-4bba-b4de-34be96ff921e","ios":"levelo://app?vid=8527eef5-3a92-4bba-b4de-34be96ff921e"},"vehicle_type_id":"4","last_reported":1750756356,"current_range_meters":8400,"station_id":"ce4bhs12rcd13ifvqhvg","pricing_plan_id":"cebpf4jnsgd1na2vs0mg"},{"bike_id":"465d2323-f97d-48b0-a820-bc5fa54ae0fa","system_id":"levelo_inurba_marseille","lat":43.28397,"lon":5.45967,"is_reserved":false,"is_disabled":false,"rental_uris":{"android":"levelo://app?vid=465d2323-f97d-48b0-a820-bc5fa54ae0fa","ios":"levelo://app?vid=465d2323-f97d-48b0-a820-bc5fa54ae0fa"},"vehicle_type_id":"4","last_reported":1750756356,"current_range_meters":8800,"station_id":"","pricing_plan_id":"cebpf4jnsgd1na2vs0mg"},{"bike_id":"b03f484c-f1d4-4e89-90e6-72dc53b99482","system_id":"levelo_inurba_marseille","lat":43.31218,"lon":5.36848,"is_reserved":false,"is_disabled":false,"rental_uris":{"android":"levelo://app?vid=b03f484c-f1d4-4e89-90e6-72dc53b99482","ios":"levelo://app?vid=b03f484c-f1d4-4e89-90e6-72dc53b99482"},"vehicle_type_id":"4","last_reported":1750756356,"current_range_meters":8800,"station_id":"ce4bgl92rcd13ifvqbq0","pricing_plan_id":"cebpf4jnsgd1na2vs0mg"},{"bike_id":"7c078f3c-ded9-4245-8c56-f45050bc8cdd","system_id":"levelo_inurba_marseille","lat":43.32553,"lon":5.41439,"is_reserved":false,"is_disabled":false,"rental_uris":{"android":"levelo://app?vid=7c078f3c-ded9-4245-8c56-f45050bc8cdd","ios":"levelo://app?vid=7c078f3c-ded9-4245-8c56-f45050bc8cdd"},"vehicle_type_id":"4","last_reported":1750756356,"current_range_meters":8800,"station_id":"ce4bhq12rcd13ifvqhhg","pricing_plan_id":"cebpf4jnsgd1na2vs0mg"},{"bike_id":"0e8d5a55-0a0e-400a-ac5f-e6c775b0b2a2","system_id":"levelo_inurba_marseille","lat":43.27609,"lon":5.36117,"is_reserved":false,"is_disabled":false,"rental_uris":{"android":"levelo://app?vid=0e8d5a55-0a0e-400a-ac5f-e6c775b0b2a2","ios":"levelo://app?vid=0e8d5a55-0a0e-400a-ac5f-e6c775b0b2a2"},"vehicle_type_id":"4","last_reported":1750756356,"current_range_meters":9200,"station_id":"ce4bgj92rcd13ifvqbe0","pricing_plan_id":"cebpf4jnsgd1na2vs0mg"},{"bike_id":"edbe87f6-def4-4745-93b7-3abf1db71992","system_id":"levelo_inurba_marseille","lat":43.28263,"lon":5.35058,"is_reserved":false,"is_disabled":false,"rental_uris":{"android":"levelo://app?vid=edbe87f6-def4-4745-93b7-3abf1db71992","ios":"levelo://app?vid=edbe87f6-def4-4745-93b7-3abf1db71992"},"vehicle_type_id":"4","last_reported":1750756356,"current_range_meters":9200,"station_id":"ce4bhbp2rcd13ifvqerg","pricing_plan_id":"cebpf4jnsgd1na2vs0mg"},{"bike_id":"eba6a322-f2d2-41a0-8986-b5e24e9c3cca","system_id":"levelo_inurba_marseille","lat":43.282624,"lon":5.35068,"is_reserved":false,"is_disabled":false,"rental_uris":{"android":"levelo://app?vid=eba6a322-f2d2-41a0-8986-b5e24e9c3cca","ios":"levelo://app?vid=eba6a322-f2d2-41a0-8986-b5e24e9c3cca"},"vehicle_type_id":"4","last_reported":1750756356,"current_range_meters":9200,"station_id":"ce4bhbp2rcd13ifvqerg","pricing_plan_id":"cebpf4jnsgd1na2vs0mg"},{"bike_id":"2aa41f90-2ca4-41dc-9522-66f1b7c27e10","system_id":"levelo_inurba_marseille","lat":43.27908,"lon":5.38017,"is_reserved":false,"is_disabled":false,"rental_uris":{"android":"levelo://app?vid=2aa41f90-2ca4-41dc-9522-66f1b7c27e10","ios":"levelo://app?vid=2aa41f90-2ca4-41dc-9522-66f1b7c27e10"},"vehicle_type_id":"4","last_reported":1750756356,"current_range_meters":9200,"station_id":"ce4bhf92rcd13ifvqf50","pricing_plan_id":"cebpf4jnsgd1na2vs0mg"},{"bike_id":"73f0613a-b681-469b-9478-3a5490a7609e","system_id":"levelo_inurba_marseille","lat":43.23156,"lon":5.43703,"is_reserved":false,"is_disabled":false,"rental_uris":{"android":"levelo://app?vid=73f0613a-b681-469b-9478-3a5490a7609e","ios":"levelo://app?vid=73f0613a-b681-469b-9478-3a5490a7609e"},"vehicle_type_id":"4","last_reported":1750756356,"current_range_meters":9200,"station_id":"ce4bhmp2rcd13ifvqgog","pricing_plan_id":"cebpf4jnsgd1na2vs0mg"},{"bike_id":"af1ee2aa-9649-4a84-92f8-a833c0e1efe3","system_id":"levelo_inurba_marseille","lat":43.32352,"lon":5.36748,"is_reserved":false,"is_disabled":false,"rental_uris":{"android":"levelo://app?vid=af1ee2aa-9649-4a84-92f8-a833c0e1efe3","ios":"levelo://app?vid=af1ee2aa-9649-4a84-92f8-a833c0e1efe3"},"vehicle_type_id":"4","last_reported":1750756356,"current_range_meters":9200,"station_id":"ce4bhsh2rcd13ifvqi2g","pricing_plan_id":"cebpf4jnsgd1na2vs0mg"},{"bike_id":"a092c41c-0118-4d86-b43e-981a2615e33e","system_id":"levelo_inurba_marseille","lat":43.3469,"lon":5.34533,"is_reserved":false,"is_disabled":false,"rental_uris":{"android":"levelo://app?vid=a092c41c-0118-4d86-b43e-981a2615e33e","ios":"levelo://app?vid=a092c41c-0118-4d86-b43e-981a2615e33e"},"vehicle_type_id":"4","last_reported":1750756356,"current_range_meters":9600,"station_id":"","pricing_plan_id":"cebpf4jnsgd1na2vs0mg"},{"bike_id":"23eda1de-7440-4504-9e5b-607db57c6e71","system_id":"levelo_inurba_marseille","lat":43.31352,"lon":5.36742,"is_reserved":false,"is_disabled":false,"rental_uris":{"android":"levelo://app?vid=23eda1de-7440-4504-9e5b-607db57c6e71","ios":"levelo://app?vid=23eda1de-7440-4504-9e5b-607db57c6e71"},"vehicle_type_id":"4","last_reported":1750756356,"current_range_meters":9600,"station_id":"ce4bgr92rcd13ifvqc6g","pricing_plan_id":"cebpf4jnsgd1na2vs0mg"},{"bike_id":"0f8a17d8-ca6e-4acb-9bb7-92544d829fbf","system_id":"levelo_inurba_marseille","lat":43.31394,"lon":5.36681,"is_reserved":false,"is_disabled":false,"rental_uris":{"android":"levelo://app?vid=0f8a17d8-ca6e-4acb-9bb7-92544d829fbf","ios":"levelo://app?vid=0f8a17d8-ca6e-4acb-9bb7-92544d829fbf"},"vehicle_type_id":"4","last_reported":1750756356,"current_range_meters":9600,"station_id":"ce4bgr92rcd13ifvqc6g","pricing_plan_id":"cebpf4jnsgd1na2vs0mg"},{"bike_id":"5f8e401d-f5e9-467e-8253-eda24ef0c519","system_id":"levelo_inurba_marseille","lat":43.30965,"lon":5.39044,"is_reserved":false,"is_disabled":false,"rental_uris":{"android":"levelo://app?vid=5f8e401d-f5e9-467e-8253-eda24ef0c519","ios":"levelo://app?vid=5f8e401d-f5e9-467e-8253-eda24ef0c519"},"vehicle_type_id":"4","last_reported":1750756356,"current_range_meters":9600,"station_id":"ce4bgup2rcd13ifvqco0","pricing_plan_id":"cebpf4jnsgd1na2vs0mg"},{"bike_id":"cbf74b3f-8507-41d7-ba76-d1d88d25d63b","system_id":"levelo_inurba_marseille","lat":43.24996,"lon":5.38927,"is_reserved":false,"is_disabled":false,"rental_uris":{"android":"levelo://app?vid=cbf74b3f-8507-41d7-ba76-d1d88d25d63b","ios":"levelo://app?vid=cbf74b3f-8507-41d7-ba76-d1d88d25d63b"},"vehicle_type_id":"4","last_reported":1750756356,"current_range_meters":9600,"station_id":"ce4bhgp2rcd13ifvqfd0","pricing_plan_id":"cebpf4jnsgd1na2vs0mg"},{"bike_id":"10074545-9fcf-4c79-8296-c95981abcde1","system_id":"levelo_inurba_marseille","lat":43.24389,"lon":5.37058,"is_reserved":false,"is_disabled":false,"rental_uris":{"android":"levelo://app?vid=10074545-9fcf-4c79-8296-c95981abcde1","ios":"levelo://app?vid=10074545-9fcf-4c79-8296-c95981abcde1"},"vehicle_type_id":"4","last_reported":1750756356,"current_range_meters":9600,"station_id":"ce4bhhh2rcd13ifvqfk0","pricing_plan_id":"cebpf4jnsgd1na2vs0mg"},{"bike_id":"5832c915-901d-4eeb-80b0-bae78ff8eccf","system_id":"levelo_inurba_marseille","lat":43.26195,"lon":5.379284,"is_reserved":false,"is_disabled":false,"rental_uris":{"android":"levelo://app?vid=5832c915-901d-4eeb-80b0-bae78ff8eccf","ios":"levelo://app?vid=5832c915-901d-4eeb-80b0-bae78ff8eccf"},"vehicle_type_id":"4","last_reported":1750756356,"current_range_meters":9600,"station_id":"ce4bhjp2rcd13ifvqg90","pricing_plan_id":"cebpf4jnsgd1na2vs0mg"},{"bike_id":"8b1bec8f-7c47-4261-bf9f-f1bb6397af1b","system_id":"levelo_inurba_marseille","lat":43.23148,"lon":5.43712,"is_reserved":false,"is_disabled":false,"rental_uris":{"android":"levelo://app?vid=8b1bec8f-7c47-4261-bf9f-f1bb6397af1b","ios":"levelo://app?vid=8b1bec8f-7c47-4261-bf9f-f1bb6397af1b"},"vehicle_type_id":"4","last_reported":1750756356,"current_range_meters":9600,"station_id":"ce4bhmp2rcd13ifvqgog","pricing_plan_id":"cebpf4jnsgd1na2vs0mg"},{"bike_id":"296635d7-1353-47af-ac2e-b307bc56f513","system_id":"levelo_inurba_marseille","lat":43.33608,"lon":5.41013,"is_reserved":false,"is_disabled":false,"rental_uris":{"android":"levelo://app?vid=296635d7-1353-47af-ac2e-b307bc56f513","ios":"levelo://app?vid=296635d7-1353-47af-ac2e-b307bc56f513"},"vehicle_type_id":"4","last_reported":1750756356,"current_range_meters":9600,"station_id":"ce4bhqh2rcd13ifvqhmg","pricing_plan_id":"cebpf4jnsgd1na2vs0mg"},{"bike_id":"087f2159-7753-4646-b13a-36c8508d6b4f","system_id":"levelo_inurba_marseille","lat":43.32468,"lon":5.36554,"is_reserved":false,"is_disabled":false,"rental_uris":{"android":"levelo://app?vid=087f2159-7753-4646-b13a-36c8508d6b4f","ios":"levelo://app?vid=087f2159-7753-4646-b13a-36c8508d6b4f"},"vehicle_type_id":"4","last_reported":1750756356,"current_range_meters":9600,"station_id":"ce4bhs12rcd13ifvqhvg","pricing_plan_id":"cebpf4jnsgd1na2vs0mg"},{"bike_id":"bb655025-1fa6-4b73-a5c9-0aa281c97c1a","system_id":"levelo_inurba_marseille","lat":43.31502,"lon":5.38037,"is_reserved":false,"is_disabled":false,"rental_uris":{"android":"levelo://app?vid=bb655025-1fa6-4b73-a5c9-0aa281c97c1a","ios":"levelo://app?vid=bb655025-1fa6-4b73-a5c9-0aa281c97c1a"},"vehicle_type_id":"4","last_reported":1750756356,"current_range_meters":9600,"station_id":"ce4bhsp2rcd13ifvqi50","pricing_plan_id":"cebpf4jnsgd1na2vs0mg"},{"bike_id":"e127ef7e-24d3-4248-81fa-66c5e7c3e582","system_id":"levelo_inurba_marseille","lat":43.29614,"lon":5.37936,"is_reserved":false,"is_disabled":false,"rental_uris":{"android":"levelo://app?vid=e127ef7e-24d3-4248-81fa-66c5e7c3e582","ios":"levelo://app?vid=e127ef7e-24d3-4248-81fa-66c5e7c3e582"},"vehicle_type_id":"4","last_reported":1750756356,"current_range_meters":10000,"station_id":"","pricing_plan_id":"cebpf4jnsgd1na2vs0mg"},{"bike_id":"ccf1b8a2-36ec-4706-892e-e99b1f1dc32e","system_id":"levelo_inurba_marseille","lat":43.30919,"lon":5.36845,"is_reserved":false,"is_disabled":false,"rental_uris":{"android":"levelo://app?vid=ccf1b8a2-36ec-4706-892e-e99b1f1dc32e","ios":"levelo://app?vid=ccf1b8a2-36ec-4706-892e-e99b1f1dc32e"},"vehicle_type_id":"4","last_reported":1750756356,"current_range_meters":10000,"station_id":"ce4bgn92rcd13ifvqbvg","pricing_plan_id":"cebpf4jnsgd1na2vs0mg"},{"bike_id":"7effef4e-27de-49b2-8f91-b52155b43836","system_id":"levelo_inurba_marseille","lat":43.30145,"lon":5.37403,"is_reserved":false,"is_disabled":false,"rental_uris":{"android":"levelo://app?vid=7effef4e-27de-49b2-8f91-b52155b43836","ios":"levelo://app?vid=7effef4e-27de-49b2-8f91-b52155b43836"},"vehicle_type_id":"4","last_reported":1750756356,"current_range_meters":10000,"station_id":"ce4bgs92rcd13ifvqcc0","pricing_plan_id":"cebpf4jnsgd1na2vs0mg"},{"bike_id":"f8ec349e-9813-4b53-8a75-d2ce2a0c1838","system_id":"levelo_inurba_marseille","lat":43.30955,"lon":5.39041,"is_reserved":false,"is_disabled":false,"rental_uris":{"android":"levelo://app?vid=f8ec349e-9813-4b53-8a75-d2ce2a0c1838","ios":"levelo://app?vid=f8ec349e-9813-4b53-8a75-d2ce2a0c1838"},"vehicle_type_id":"4","last_reported":1750756356,"current_range_meters":10000,"station_id":"ce4bgup2rcd13ifvqco0","pricing_plan_id":"cebpf4jnsgd1na2vs0mg"},{"bike_id":"903e5fff-e121-4261-a7a9-e4e6a9a358ec","system_id":"levelo_inurba_marseille","lat":43.255013,"lon":5.376496,"is_reserved":false,"is_disabled":false,"rental_uris":{"android":"levelo://app?vid=903e5fff-e121-4261-a7a9-e4e6a9a358ec","ios":"levelo://app?vid=903e5fff-e121-4261-a7a9-e4e6a9a358ec"},"vehicle_type_id":"4","last_reported":1750756356,"current_range_meters":10000,"station_id":"ce4bhh12rcd13ifvqff0","pricing_plan_id":"cebpf4jnsgd1na2vs0mg"},{"bike_id":"e6dfbed9-c34a-4f43-a73e-f17a8a5c92d0","system_id":"levelo_inurba_marseille","lat":43.25503,"lon":5.37647,"is_reserved":false,"is_disabled":false,"rental_uris":{"android":"levelo://app?vid=e6dfbed9-c34a-4f43-a73e-f17a8a5c92d0","ios":"levelo://app?vid=e6dfbed9-c34a-4f43-a73e-f17a8a5c92d0"},"vehicle_type_id":"4","last_reported":1750756356,"current_range_meters":10000,"station_id":"ce4bhh12rcd13ifvqff0","pricing_plan_id":"cebpf4jnsgd1na2vs0mg"},{"bike_id":"b138e712-0371-4aa9-aa13-905b40101dba","system_id":"levelo_inurba_marseille","lat":43.25587,"lon":5.38215,"is_reserved":false,"is_disabled":false,"rental_uris":{"android":"levelo://app?vid=b138e712-0371-4aa9-aa13-905b40101dba","ios":"levelo://app?vid=b138e712-0371-4aa9-aa13-905b40101dba"},"vehicle_type_id":"4","last_reported":1750756356,"current_range_meters":10000,"station_id":"ce4bhih2rcd13ifvqfs0","pricing_plan_id":"cebpf4jnsgd1na2vs0mg"},{"bike_id":"feb139e7-f1c0-49f0-b9a6-b74f88f5d5a5","system_id":"levelo_inurba_marseille","lat":43.27059,"lon":5.40258,"is_reserved":false,"is_disabled":false,"rental_uris":{"android":"levelo://app?vid=feb139e7-f1c0-49f0-b9a6-b74f88f5d5a5","ios":"levelo://app?vid=feb139e7-f1c0-49f0-b9a6-b74f88f5d5a5"},"vehicle_type_id":"4","last_reported":1750756356,"current_range_meters":10000,"station_id":"ce4bhk92rcd13ifvqgc0","pricing_plan_id":"cebpf4jnsgd1na2vs0mg"},{"bike_id":"f3db4143-3f6e-4aae-9a79-60cc7a231acf","system_id":"levelo_inurba_marseille","lat":43.2872,"lon":5.3999,"is_reserved":false,"is_disabled":false,"rental_uris":{"android":"levelo://app?vid=f3db4143-3f6e-4aae-9a79-60cc7a231acf","ios":"levelo://app?vid=f3db4143-3f6e-4aae-9a79-60cc7a231acf"},"vehicle_type_id":"4","last_reported":1750756356,"current_range_meters":10000,"station_id":"ce4bho92rcd13ifvqh3g","pricing_plan_id":"cebpf4jnsgd1na2vs0mg"},{"bike_id":"1ff66e05-8f8c-4d27-a908-f8991b9c0df6","system_id":"levelo_inurba_marseille","lat":43.32483,"lon":5.3656,"is_reserved":false,"is_disabled":false,"rental_uris":{"android":"levelo://app?vid=1ff66e05-8f8c-4d27-a908-f8991b9c0df6","ios":"levelo://app?vid=1ff66e05-8f8c-4d27-a908-f8991b9c0df6"},"vehicle_type_id":"4","last_reported":1750756356,"current_range_meters":10000,"station_id":"ce4bhs12rcd13ifvqhvg","pricing_plan_id":"cebpf4jnsgd1na2vs0mg"},{"bike_id":"531ed5b1-c7cc-48c6-b8f2-68a920d805d9","system_id":"levelo_inurba_marseille","lat":43.269424,"lon":5.402617,"is_reserved":false,"is_disabled":false,"rental_uris":{"android":"levelo://app?vid=531ed5b1-c7cc-48c6-b8f2-68a920d805d9","ios":"levelo://app?vid=531ed5b1-c7cc-48c6-b8f2-68a920d805d9"},"vehicle_type_id":"4","last_reported":1750756356,"current_range_meters":10800,"station_id":"","pricing_plan_id":"cebpf4jnsgd1na2vs0mg"},{"bike_id":"9f754f6a-d755-48d0-bb43-98e338a9df6d","system_id":"levelo_inurba_marseille","lat":43.30896,"lon":5.36842,"is_reserved":false,"is_disabled":false,"rental_uris":{"android":"levelo://app?vid=9f754f6a-d755-48d0-bb43-98e338a9df6d","ios":"levelo://app?vid=9f754f6a-d755-48d0-bb43-98e338a9df6d"},"vehicle_type_id":"4","last_reported":1750756356,"current_range_meters":10800,"station_id":"ce4bgn92rcd13ifvqbvg","pricing_plan_id":"cebpf4jnsgd1na2vs0mg"},{"bike_id":"9a1d9e0b-ed07-4edc-870d-e9ae7a2d5946","system_id":"levelo_inurba_marseille","lat":43.3014,"lon":5.37413,"is_reserved":false,"is_disabled":false,"rental_uris":{"android":"levelo://app?vid=9a1d9e0b-ed07-4edc-870d-e9ae7a2d5946","ios":"levelo://app?vid=9a1d9e0b-ed07-4edc-870d-e9ae7a2d5946"},"vehicle_type_id":"4","last_reported":1750756356,"current_range_meters":10800,"station_id":"ce4bgs92rcd13ifvqcc0","pricing_plan_id":"cebpf4jnsgd1na2vs0mg"},{"bike_id":"e892ea9a-aae2-461c-b4a8-60432557574a","system_id":"levelo_inurba_marseille","lat":43.30137,"lon":5.37421,"is_reserved":false,"is_disabled":false,"rental_uris":{"android":"levelo://app?vid=e892ea9a-aae2-461c-b4a8-60432557574a","ios":"levelo://app?vid=e892ea9a-aae2-461c-b4a8-60432557574a"},"vehicle_type_id":"4","last_reported":1750756356,"current_range_meters":10800,"station_id":"ce4bgs92rcd13ifvqcc0","pricing_plan_id":"cebpf4jnsgd1na2vs0mg"},{"bike_id":"a7794009-9fb0-4d03-b8f8-6edf9031eddf","system_id":"levelo_inurba_marseille","lat":43.26555,"lon":5.39014,"is_reserved":false,"is_disabled":false,"rental_uris":{"android":"levelo://app?vid=a7794009-9fb0-4d03-b8f8-6edf9031eddf","ios":"levelo://app?vid=a7794009-9fb0-4d03-b8f8-6edf9031eddf"},"vehicle_type_id":"4","last_reported":1750756356,"current_range_meters":10800,"station_id":"ce4bhe12rcd13ifvqf30","pricing_plan_id":"cebpf4jnsgd1na2vs0mg"},{"bike_id":"fcb287e3-3e27-417b-bfa2-ab3be453e5bf","system_id":"levelo_inurba_marseille","lat":43.24652,"lon":5.38889,"is_reserved":false,"is_disabled":false,"rental_uris":{"android":"levelo://app?vid=fcb287e3-3e27-417b-bfa2-ab3be453e5bf","ios":"levelo://app?vid=fcb287e3-3e27-417b-bfa2-ab3be453e5bf"},"vehicle_type_id":"4","last_reported":1750756356,"current_range_meters":10800,"station_id":"ce4bhg12rcd13ifvqf60","pricing_plan_id":"cebpf4jnsgd1na2vs0mg"},{"bike_id":"a4175dd1-9acb-40c2-8059-58f7cc375103","system_id":"levelo_inurba_marseille","lat":43.270629,"lon":5.387996,"is_reserved":false,"is_disabled":false,"rental_uris":{"android":"levelo://app?vid=a4175dd1-9acb-40c2-8059-58f7cc375103","ios":"levelo://app?vid=a4175dd1-9acb-40c2-8059-58f7cc375103"},"vehicle_type_id":"4","last_reported":1750756356,"current_range_meters":10800,"station_id":"ce4bhgp2rcd13ifvqfc0","pricing_plan_id":"cebpf4jnsgd1na2vs0mg"},{"bike_id":"575c3ba3-89a4-44ac-9206-0407a92f442c","system_id":"levelo_inurba_marseille","lat":43.27067,"lon":5.42282,"is_reserved":false,"is_disabled":false,"rental_uris":{"android":"levelo://app?vid=575c3ba3-89a4-44ac-9206-0407a92f442c","ios":"levelo://app?vid=575c3ba3-89a4-44ac-9206-0407a92f442c"},"vehicle_type_id":"4","last_reported":1750756356,"current_range_meters":10800,"station_id":"ce4bhk92rcd13ifvqgb0","pricing_plan_id":"cebpf4jnsgd1na2vs0mg"},{"bike_id":"20ee7690-aced-4e48-9e5e-0d7fdfa26dae","system_id":"levelo_inurba_marseille","lat":43.33722,"lon":5.39189,"is_reserved":false,"is_disabled":false,"rental_uris":{"android":"levelo://app?vid=20ee7690-aced-4e48-9e5e-0d7fdfa26dae","ios":"levelo://app?vid=20ee7690-aced-4e48-9e5e-0d7fdfa26dae"},"vehicle_type_id":"4","last_reported":1750756356,"current_range_meters":10800,"station_id":"ce4bhr92rcd13ifvqhsg","pricing_plan_id":"cebpf4jnsgd1na2vs0mg"},{"bike_id":"9213f417-38fe-4ac6-ba73-fa7495d6b748","system_id":"levelo_inurba_marseille","lat":43.241684,"lon":5.364118,"is_reserved":false,"is_disabled":false,"rental_uris":{"android":"levelo://app?vid=9213f417-38fe-4ac6-ba73-fa7495d6b748","ios":"levelo://app?vid=9213f417-38fe-4ac6-ba73-fa7495d6b748"},"vehicle_type_id":"4","last_reported":1750756356,"current_range_meters":10800,"station_id":"cpo36qri1sfpv3e86is0","pricing_plan_id":"cebpf4jnsgd1na2vs0mg"},{"bike_id":"cada33e7-7feb-4285-bb16-b2e63d63815b","system_id":"levelo_inurba_marseille","lat":43.2366,"lon":5.39163,"is_reserved":false,"is_disabled":false,"rental_uris":{"android":"levelo://app?vid=cada33e7-7feb-4285-bb16-b2e63d63815b","ios":"levelo://app?vid=cada33e7-7feb-4285-bb16-b2e63d63815b"},"vehicle_type_id":"4","last_reported":1750756356,"current_range_meters":11200,"station_id":"","pricing_plan_id":"cebpf4jnsgd1na2vs0mg"},{"bike_id":"82daa609-66e4-4b91-8a1c-a20f4b557675","system_id":"levelo_inurba_marseille","lat":43.30336,"lon":5.36691,"is_reserved":false,"is_disabled":false,"rental_uris":{"android":"levelo://app?vid=82daa609-66e4-4b91-8a1c-a20f4b557675","ios":"levelo://app?vid=82daa609-66e4-4b91-8a1c-a20f4b557675"},"vehicle_type_id":"4","last_reported":1750756356,"current_range_meters":11200,"station_id":"","pricing_plan_id":"cebpf4jnsgd1na2vs0mg"},{"bike_id":"11453444-4ae0-471d-93be-a047ef0b0d85","system_id":"levelo_inurba_marseille","lat":43.30923,"lon":5.36797,"is_reserved":false,"is_disabled":false,"rental_uris":{"android":"levelo://app?vid=11453444-4ae0-471d-93be-a047ef0b0d85","ios":"levelo://app?vid=11453444-4ae0-471d-93be-a047ef0b0d85"},"vehicle_type_id":"4","last_reported":1750756356,"current_range_meters":11200,"station_id":"ce4bgn92rcd13ifvqbvg","pricing_plan_id":"cebpf4jnsgd1na2vs0mg"},{"bike_id":"30b12711-e581-4855-8b66-fb178c04edc9","system_id":"levelo_inurba_marseille","lat":43.30266,"lon":5.37704,"is_reserved":false,"is_disabled":false,"rental_uris":{"android":"levelo://app?vid=30b12711-e581-4855-8b66-fb178c04edc9","ios":"levelo://app?vid=30b12711-e581-4855-8b66-fb178c04edc9"},"vehicle_type_id":"4","last_reported":1750756356,"current_range_meters":11200,"station_id":"ce4bguh2rcd13ifvqcj0","pricing_plan_id":"cebpf4jnsgd1na2vs0mg"},{"bike_id":"82be2e4a-0f66-4ddf-a9de-dc4a5d8121a0","system_id":"levelo_inurba_marseille","lat":43.24652,"lon":5.38893,"is_reserved":false,"is_disabled":false,"rental_uris":{"android":"levelo://app?vid=82be2e4a-0f66-4ddf-a9de-dc4a5d8121a0","ios":"levelo://app?vid=82be2e4a-0f66-4ddf-a9de-dc4a5d8121a0"},"vehicle_type_id":"4","last_reported":1750756356,"current_range_meters":11200,"station_id":"ce4bhg12rcd13ifvqf60","pricing_plan_id":"cebpf4jnsgd1na2vs0mg"},{"bike_id":"07ea9e21-55cb-4549-848d-90465aa0c40c","system_id":"levelo_inurba_marseille","lat":43.28448,"lon":5.39204,"is_reserved":false,"is_disabled":false,"rental_uris":{"android":"levelo://app?vid=07ea9e21-55cb-4549-848d-90465aa0c40c","ios":"levelo://app?vid=07ea9e21-55cb-4549-848d-90465aa0c40c"},"vehicle_type_id":"4","last_reported":1750756356,"current_range_meters":11200,"station_id":"ce4bhoh2rcd13ifvqh5g","pricing_plan_id":"cebpf4jnsgd1na2vs0mg"},{"bike_id":"db03ee7a-36f7-4744-b897-906f94947310","system_id":"levelo_inurba_marseille","lat":43.30144,"lon":5.37988,"is_reserved":false,"is_disabled":false,"rental_uris":{"android":"levelo://app?vid=db03ee7a-36f7-4744-b897-906f94947310","ios":"levelo://app?vid=db03ee7a-36f7-4744-b897-906f94947310"},"vehicle_type_id":"4","last_reported":1750756356,"current_range_meters":11600,"station_id":"","pricing_plan_id":"cebpf4jnsgd1na2vs0mg"},{"bike_id":"28afd8eb-1bf7-4d15-b305-be0b45c2d297","system_id":"levelo_inurba_marseille","lat":43.31071,"lon":5.3835,"is_reserved":false,"is_disabled":false,"rental_uris":{"android":"levelo://app?vid=28afd8eb-1bf7-4d15-b305-be0b45c2d297","ios":"levelo://app?vid=28afd8eb-1bf7-4d15-b305-be0b45c2d297"},"vehicle_type_id":"4","last_reported":1750756356,"current_range_meters":11600,"station_id":"ce4bgv92rcd13ifvqcr0","pricing_plan_id":"cebpf4jnsgd1na2vs0mg"},{"bike_id":"1cf64885-4bef-4d74-b82e-592d13031009","system_id":"levelo_inurba_marseille","lat":43.29258,"lon":5.40902,"is_reserved":false,"is_disabled":false,"rental_uris":{"android":"levelo://app?vid=1cf64885-4bef-4d74-b82e-592d13031009","ios":"levelo://app?vid=1cf64885-4bef-4d74-b82e-592d13031009"},"vehicle_type_id":"4","last_reported":1750756356,"current_range_meters":11600,"station_id":"ce4bh192rcd13ifvqdc0","pricing_plan_id":"cebpf4jnsgd1na2vs0mg"},{"bike_id":"5a3c89c2-3450-4abf-8f80-3c018505aaa7","system_id":"levelo_inurba_marseille","lat":43.32112,"lon":5.3676,"is_reserved":false,"is_disabled":false,"rental_uris":{"android":"levelo://app?vid=5a3c89c2-3450-4abf-8f80-3c018505aaa7","ios":"levelo://app?vid=5a3c89c2-3450-4abf-8f80-3c018505aaa7"},"vehicle_type_id":"4","last_reported":1750756356,"current_range_meters":11600,"station_id":"ce4bhrh2rcd13ifvqhug","pricing_plan_id":"cebpf4jnsgd1na2vs0mg"},{"bike_id":"ba7009b7-dbb9-4c29-8645-d0a68dca7b4f","system_id":"levelo_inurba_marseille","lat":43.312975,"lon":5.445535,"is_reserved":false,"is_disabled":false,"rental_uris":{"android":"levelo://app?vid=ba7009b7-dbb9-4c29-8645-d0a68dca7b4f","ios":"levelo://app?vid=ba7009b7-dbb9-4c29-8645-d0a68dca7b4f"},"vehicle_type_id":"4","last_reported":1750756356,"current_range_meters":12000,"station_id":"","pricing_plan_id":"cebpf4jnsgd1na2vs0mg"},{"bike_id":"450a3642-ad05-4765-9a3a-f8f356367bc2","system_id":"levelo_inurba_marseille","lat":43.305436,"lon":5.365404,"is_reserved":false,"is_disabled":false,"rental_uris":{"android":"levelo://app?vid=450a3642-ad05-4765-9a3a-f8f356367bc2","ios":"levelo://app?vid=450a3642-ad05-4765-9a3a-f8f356367bc2"},"vehicle_type_id":"4","last_reported":1750756356,"current_range_meters":12000,"station_id":"ce4bgs12rcd13ifvqcag","pricing_plan_id":"cebpf4jnsgd1na2vs0mg"},{"bike_id":"8ab7cf53-a934-4f28-9fd6-8a85c44a152d","system_id":"levelo_inurba_marseille","lat":43.30947,"lon":5.390352,"is_reserved":false,"is_disabled":false,"rental_uris":{"android":"levelo://app?vid=8ab7cf53-a934-4f28-9fd6-8a85c44a152d","ios":"levelo://app?vid=8ab7cf53-a934-4f28-9fd6-8a85c44a152d"},"vehicle_type_id":"4","last_reported":1750756356,"current_range_meters":12000,"station_id":"ce4bgup2rcd13ifvqco0","pricing_plan_id":"cebpf4jnsgd1na2vs0mg"},{"bike_id":"984455f4-d51a-4995-b34c-402f6c830235","system_id":"levelo_inurba_marseille","lat":43.26195,"lon":5.37928,"is_reserved":false,"is_disabled":false,"rental_uris":{"android":"levelo://app?vid=984455f4-d51a-4995-b34c-402f6c830235","ios":"levelo://app?vid=984455f4-d51a-4995-b34c-402f6c830235"},"vehicle_type_id":"4","last_reported":1750756356,"current_range_meters":12000,"station_id":"ce4bhjp2rcd13ifvqg90","pricing_plan_id":"cebpf4jnsgd1na2vs0mg"},{"bike_id":"11987b5c-26ac-4854-8322-bb533a1e4efa","system_id":"levelo_inurba_marseille","lat":43.23151,"lon":5.43713,"is_reserved":false,"is_disabled":false,"rental_uris":{"android":"levelo://app?vid=11987b5c-26ac-4854-8322-bb533a1e4efa","ios":"levelo://app?vid=11987b5c-26ac-4854-8322-bb533a1e4efa"},"vehicle_type_id":"4","last_reported":1750756356,"current_range_meters":12000,"station_id":"ce4bhmp2rcd13ifvqgog","pricing_plan_id":"cebpf4jnsgd1na2vs0mg"},{"bike_id":"d3b4acd1-475d-43e1-bb04-3b5b22c96457","system_id":"levelo_inurba_marseille","lat":43.29891,"lon":5.43667,"is_reserved":false,"is_disabled":false,"rental_uris":{"android":"levelo://app?vid=d3b4acd1-475d-43e1-bb04-3b5b22c96457","ios":"levelo://app?vid=d3b4acd1-475d-43e1-bb04-3b5b22c96457"},"vehicle_type_id":"4","last_reported":1750756356,"current_range_meters":12000,"station_id":"ce4bhpp2rcd13ifvqhfg","pricing_plan_id":"cebpf4jnsgd1na2vs0mg"},{"bike_id":"d671bbab-c147-45fe-9cff-13d25c8e0b45","system_id":"levelo_inurba_marseille","lat":43.28161,"lon":5.39855,"is_reserved":false,"is_disabled":false,"rental_uris":{"android":"levelo://app?vid=d671bbab-c147-45fe-9cff-13d25c8e0b45","ios":"levelo://app?vid=d671bbab-c147-45fe-9cff-13d25c8e0b45"},"vehicle_type_id":"4","last_reported":1750756356,"current_range_meters":12400,"station_id":"","pricing_plan_id":"cebpf4jnsgd1na2vs0mg"},{"bike_id":"21189056-4f83-41a9-a23e-40efe14ca570","system_id":"levelo_inurba_marseille","lat":43.23966,"lon":5.36633,"is_reserved":false,"is_disabled":false,"rental_uris":{"android":"levelo://app?vid=21189056-4f83-41a9-a23e-40efe14ca570","ios":"levelo://app?vid=21189056-4f83-41a9-a23e-40efe14ca570"},"vehicle_type_id":"4","last_reported":1750756356,"current_range_meters":12400,"station_id":"ce4bhi12rcd13ifvqfp0","pricing_plan_id":"cebpf4jnsgd1na2vs0mg"},{"bike_id":"ec2f4356-c098-404a-ace2-7909c4714602","system_id":"levelo_inurba_marseille","lat":43.32481,"lon":5.36563,"is_reserved":false,"is_disabled":false,"rental_uris":{"android":"levelo://app?vid=ec2f4356-c098-404a-ace2-7909c4714602","ios":"levelo://app?vid=ec2f4356-c098-404a-ace2-7909c4714602"},"vehicle_type_id":"4","last_reported":1750756356,"current_range_meters":12400,"station_id":"ce4bhs12rcd13ifvqhvg","pricing_plan_id":"cebpf4jnsgd1na2vs0mg"},{"bike_id":"de002d9d-83b0-41e6-99fe-f9eb013d6ff3","system_id":"levelo_inurba_marseille","lat":43.21752,"lon":5.34614,"is_reserved":false,"is_disabled":false,"rental_uris":{"android":"levelo://app?vid=de002d9d-83b0-41e6-99fe-f9eb013d6ff3","ios":"levelo://app?vid=de002d9d-83b0-41e6-99fe-f9eb013d6ff3"},"vehicle_type_id":"4","last_reported":1750756356,"current_range_meters":12400,"station_id":"st_cvj6r9ubvosntc0bgbag","pricing_plan_id":"cebpf4jnsgd1na2vs0mg"},{"bike_id":"9bba0450-8058-454f-bf64-d7d8d9cb601e","system_id":"levelo_inurba_marseille","lat":43.31235,"lon":5.36856,"is_reserved":false,"is_disabled":false,"rental_uris":{"android":"levelo://app?vid=9bba0450-8058-454f-bf64-d7d8d9cb601e","ios":"levelo://app?vid=9bba0450-8058-454f-bf64-d7d8d9cb601e"},"vehicle_type_id":"4","last_reported":1750756356,"current_range_meters":12800,"station_id":"ce4bgl92rcd13ifvqbq0","pricing_plan_id":"cebpf4jnsgd1na2vs0mg"},{"bike_id":"ff359b06-e82b-4518-b602-f9c62162a27d","system_id":"levelo_inurba_marseille","lat":43.21189,"lon":5.35069,"is_reserved":false,"is_disabled":false,"rental_uris":{"android":"levelo://app?vid=ff359b06-e82b-4518-b602-f9c62162a27d","ios":"levelo://app?vid=ff359b06-e82b-4518-b602-f9c62162a27d"},"vehicle_type_id":"4","last_reported":1750756356,"current_range_meters":12800,"station_id":"st_cvj6sg6p6f1abm77japg","pricing_plan_id":"cebpf4jnsgd1na2vs0mg"},{"bike_id":"3e0f5345-cfae-479a-9b41-9237c8726756","system_id":"levelo_inurba_marseille","lat":43.29682,"lon":5.36331,"is_reserved":false,"is_disabled":false,"rental_uris":{"android":"levelo://app?vid=3e0f5345-cfae-479a-9b41-9237c8726756","ios":"levelo://app?vid=3e0f5345-cfae-479a-9b41-9237c8726756"},"vehicle_type_id":"4","last_reported":1750756356,"current_range_meters":13600,"station_id":"","pricing_plan_id":"cebpf4jnsgd1na2vs0mg"},{"bike_id":"095eabd1-5dcf-4106-9219-bdac4470d970","system_id":"levelo_inurba_marseille","lat":43.32825,"lon":5.43359,"is_reserved":false,"is_disabled":false,"rental_uris":{"android":"levelo://app?vid=095eabd1-5dcf-4106-9219-bdac4470d970","ios":"levelo://app?vid=095eabd1-5dcf-4106-9219-bdac4470d970"},"vehicle_type_id":"4","last_reported":1750756356,"current_range_meters":13600,"station_id":"","pricing_plan_id":"cebpf4jnsgd1na2vs0mg"},{"bike_id":"ea58c5af-7e24-472a-9042-4626112e91cb","system_id":"levelo_inurba_marseille","lat":43.291979,"lon":5.358054,"is_reserved":false,"is_disabled":false,"rental_uris":{"android":"levelo://app?vid=ea58c5af-7e24-472a-9042-4626112e91cb","ios":"levelo://app?vid=ea58c5af-7e24-472a-9042-4626112e91cb"},"vehicle_type_id":"4","last_reported":1750756356,"current_range_meters":13600,"station_id":"","pricing_plan_id":"cebpf4jnsgd1na2vs0mg"},{"bike_id":"b6b861fa-fd27-43ad-89fb-4be1a264be92","system_id":"levelo_inurba_marseille","lat":43.25307,"lon":5.37497,"is_reserved":false,"is_disabled":false,"rental_uris":{"android":"levelo://app?vid=b6b861fa-fd27-43ad-89fb-4be1a264be92","ios":"levelo://app?vid=b6b861fa-fd27-43ad-89fb-4be1a264be92"},"vehicle_type_id":"4","last_reported":1750756356,"current_range_meters":14000,"station_id":"","pricing_plan_id":"cebpf4jnsgd1na2vs0mg"},{"bike_id":"18fa55f1-0cbd-46cc-b443-f568df0614dd","system_id":"levelo_inurba_marseille","lat":43.30145,"lon":5.37417,"is_reserved":false,"is_disabled":false,"rental_uris":{"android":"levelo://app?vid=18fa55f1-0cbd-46cc-b443-f568df0614dd","ios":"levelo://app?vid=18fa55f1-0cbd-46cc-b443-f568df0614dd"},"vehicle_type_id":"4","last_reported":1750756356,"current_range_meters":14000,"station_id":"ce4bgs92rcd13ifvqcc0","pricing_plan_id":"cebpf4jnsgd1na2vs0mg"},{"bike_id":"0e950435-f0da-487b-a421-c6d09ae17b83","system_id":"levelo_inurba_marseille","lat":43.28264,"lon":5.35077,"is_reserved":false,"is_disabled":false,"rental_uris":{"android":"levelo://app?vid=0e950435-f0da-487b-a421-c6d09ae17b83","ios":"levelo://app?vid=0e950435-f0da-487b-a421-c6d09ae17b83"},"vehicle_type_id":"4","last_reported":1750756356,"current_range_meters":14000,"station_id":"ce4bhbp2rcd13ifvqerg","pricing_plan_id":"cebpf4jnsgd1na2vs0mg"},{"bike_id":"20d4f4c0-e94b-4c59-b410-33d83d647368","system_id":"levelo_inurba_marseille","lat":43.28611,"lon":5.35112,"is_reserved":false,"is_disabled":false,"rental_uris":{"android":"levelo://app?vid=20d4f4c0-e94b-4c59-b410-33d83d647368","ios":"levelo://app?vid=20d4f4c0-e94b-4c59-b410-33d83d647368"},"vehicle_type_id":"4","last_reported":1750756356,"current_range_meters":14000,"station_id":"ce4bhch2rcd13ifvqeug","pricing_plan_id":"cebpf4jnsgd1na2vs0mg"},{"bike_id":"98c5a76b-133d-4c70-8e92-6bdccae4f6dc","system_id":"levelo_inurba_marseille","lat":43.25931,"lon":5.40904,"is_reserved":false,"is_disabled":false,"rental_uris":{"android":"levelo://app?vid=98c5a76b-133d-4c70-8e92-6bdccae4f6dc","ios":"levelo://app?vid=98c5a76b-133d-4c70-8e92-6bdccae4f6dc"},"vehicle_type_id":"4","last_reported":1750756356,"current_range_meters":14000,"station_id":"ce4bhm92rcd13ifvqglg","pricing_plan_id":"cebpf4jnsgd1na2vs0mg"},{"bike_id":"bd58d58d-5e35-4da8-8d20-de8db6a96b22","system_id":"levelo_inurba_marseille","lat":43.33617,"lon":5.4097,"is_reserved":false,"is_disabled":false,"rental_uris":{"android":"levelo://app?vid=bd58d58d-5e35-4da8-8d20-de8db6a96b22","ios":"levelo://app?vid=bd58d58d-5e35-4da8-8d20-de8db6a96b22"},"vehicle_type_id":"4","last_reported":1750756356,"current_range_meters":14000,"station_id":"ce4bhqh2rcd13ifvqhmg","pricing_plan_id":"cebpf4jnsgd1na2vs0mg"},{"bike_id":"7c3f6852-4f29-42a9-a8c1-e2b82bb43fcf","system_id":"levelo_inurba_marseille","lat":43.292445,"lon":5.426639,"is_reserved":false,"is_disabled":false,"rental_uris":{"android":"levelo://app?vid=7c3f6852-4f29-42a9-a8c1-e2b82bb43fcf","ios":"levelo://app?vid=7c3f6852-4f29-42a9-a8c1-e2b82bb43fcf"},"vehicle_type_id":"4","last_reported":1750756356,"current_range_meters":14400,"station_id":"","pricing_plan_id":"cebpf4jnsgd1na2vs0mg"},{"bike_id":"a554455b-02a3-4243-a1d6-6c0959b9aa9e","system_id":"levelo_inurba_marseille","lat":43.32366,"lon":5.3888,"is_reserved":false,"is_disabled":false,"rental_uris":{"android":"levelo://app?vid=a554455b-02a3-4243-a1d6-6c0959b9aa9e","ios":"levelo://app?vid=a554455b-02a3-4243-a1d6-6c0959b9aa9e"},"vehicle_type_id":"4","last_reported":1750756356,"current_range_meters":14400,"station_id":"ce4bhqp2rcd13ifvqhog","pricing_plan_id":"cebpf4jnsgd1na2vs0mg"},{"bike_id":"b5ded488-4c78-4967-aeb0-cb08d00fbd9e","system_id":"levelo_inurba_marseille","lat":43.337444,"lon":5.374475,"is_reserved":false,"is_disabled":false,"rental_uris":{"android":"levelo://app?vid=b5ded488-4c78-4967-aeb0-cb08d00fbd9e","ios":"levelo://app?vid=b5ded488-4c78-4967-aeb0-cb08d00fbd9e"},"vehicle_type_id":"4","last_reported":1750756356,"current_range_meters":14800,"station_id":"","pricing_plan_id":"cebpf4jnsgd1na2vs0mg"},{"bike_id":"11ebf4fb-e752-44af-81e3-7d28e8eee9cc","system_id":"levelo_inurba_marseille","lat":43.28107,"lon":5.43217,"is_reserved":false,"is_disabled":false,"rental_uris":{"android":"levelo://app?vid=11ebf4fb-e752-44af-81e3-7d28e8eee9cc","ios":"levelo://app?vid=11ebf4fb-e752-44af-81e3-7d28e8eee9cc"},"vehicle_type_id":"4","last_reported":1750756356,"current_range_meters":14800,"station_id":"","pricing_plan_id":"cebpf4jnsgd1na2vs0mg"},{"bike_id":"9a0dca87-30f2-4ca4-b14d-4bcd7b0bfbd8","system_id":"levelo_inurba_marseille","lat":43.313497,"lon":5.36723,"is_reserved":false,"is_disabled":false,"rental_uris":{"android":"levelo://app?vid=9a0dca87-30f2-4ca4-b14d-4bcd7b0bfbd8","ios":"levelo://app?vid=9a0dca87-30f2-4ca4-b14d-4bcd7b0bfbd8"},"vehicle_type_id":"4","last_reported":1750756356,"current_range_meters":15200,"station_id":"ce4bgr92rcd13ifvqc6g","pricing_plan_id":"cebpf4jnsgd1na2vs0mg"},{"bike_id":"2c6e7c9f-c319-488f-97f2-12e7a44da27e","system_id":"levelo_inurba_marseille","lat":43.30542,"lon":5.36533,"is_reserved":false,"is_disabled":false,"rental_uris":{"android":"levelo://app?vid=2c6e7c9f-c319-488f-97f2-12e7a44da27e","ios":"levelo://app?vid=2c6e7c9f-c319-488f-97f2-12e7a44da27e"},"vehicle_type_id":"4","last_reported":1750756356,"current_range_meters":15200,"station_id":"ce4bgs12rcd13ifvqcag","pricing_plan_id":"cebpf4jnsgd1na2vs0mg"},{"bike_id":"eeb17925-285c-40ac-b377-d36992a3376c","system_id":"levelo_inurba_marseille","lat":43.25108,"lon":5.4032,"is_reserved":false,"is_disabled":false,"rental_uris":{"android":"levelo://app?vid=eeb17925-285c-40ac-b377-d36992a3376c","ios":"levelo://app?vid=eeb17925-285c-40ac-b377-d36992a3376c"},"vehicle_type_id":"4","last_reported":1750756356,"current_range_meters":15200,"station_id":"ce4bhlh2rcd13ifvqgig","pricing_plan_id":"cebpf4jnsgd1na2vs0mg"},{"bike_id":"6cda4487-4aef-442b-be27-620fe881195d","system_id":"levelo_inurba_marseille","lat":43.30115,"lon":5.38339,"is_reserved":false,"is_disabled":false,"rental_uris":{"android":"levelo://app?vid=6cda4487-4aef-442b-be27-620fe881195d","ios":"levelo://app?vid=6cda4487-4aef-442b-be27-620fe881195d"},"vehicle_type_id":"4","last_reported":1750756356,"current_range_meters":16000,"station_id":"","pricing_plan_id":"cebpf4jnsgd1na2vs0mg"},{"bike_id":"d640a7b8-1397-43d6-a186-6115f601992f","system_id":"levelo_inurba_marseille","lat":43.31257,"lon":5.36831,"is_reserved":false,"is_disabled":false,"rental_uris":{"android":"levelo://app?vid=d640a7b8-1397-43d6-a186-6115f601992f","ios":"levelo://app?vid=d640a7b8-1397-43d6-a186-6115f601992f"},"vehicle_type_id":"4","last_reported":1750756356,"current_range_meters":16000,"station_id":"ce4bgl92rcd13ifvqbq0","pricing_plan_id":"cebpf4jnsgd1na2vs0mg"},{"bike_id":"61cde9bc-c96a-4ff2-9e00-e173343f0474","system_id":"levelo_inurba_marseille","lat":43.30905,"lon":5.36832,"is_reserved":false,"is_disabled":false,"rental_uris":{"android":"levelo://app?vid=61cde9bc-c96a-4ff2-9e00-e173343f0474","ios":"levelo://app?vid=61cde9bc-c96a-4ff2-9e00-e173343f0474"},"vehicle_type_id":"4","last_reported":1750756356,"current_range_meters":16000,"station_id":"ce4bgn92rcd13ifvqbvg","pricing_plan_id":"cebpf4jnsgd1na2vs0mg"},{"bike_id":"cef721fd-afe4-48d0-89b0-0777a634e87f","system_id":"levelo_inurba_marseille","lat":43.244,"lon":5.37109,"is_reserved":false,"is_disabled":false,"rental_uris":{"android":"levelo://app?vid=cef721fd-afe4-48d0-89b0-0777a634e87f","ios":"levelo://app?vid=cef721fd-afe4-48d0-89b0-0777a634e87f"},"vehicle_type_id":"4","last_reported":1750756356,"current_range_meters":16000,"station_id":"ce4bhhh2rcd13ifvqfk0","pricing_plan_id":"cebpf4jnsgd1na2vs0mg"},{"bike_id":"68926176-3dcc-4058-a2fb-ab3e04992f57","system_id":"levelo_inurba_marseille","lat":43.2315,"lon":5.43717,"is_reserved":false,"is_disabled":false,"rental_uris":{"android":"levelo://app?vid=68926176-3dcc-4058-a2fb-ab3e04992f57","ios":"levelo://app?vid=68926176-3dcc-4058-a2fb-ab3e04992f57"},"vehicle_type_id":"4","last_reported":1750756356,"current_range_meters":16000,"station_id":"ce4bhmp2rcd13ifvqgog","pricing_plan_id":"cebpf4jnsgd1na2vs0mg"},{"bike_id":"35b14479-4a4d-4383-83de-c7fea66894b3","system_id":"levelo_inurba_marseille","lat":43.29894,"lon":5.43673,"is_reserved":false,"is_disabled":false,"rental_uris":{"android":"levelo://app?vid=35b14479-4a4d-4383-83de-c7fea66894b3","ios":"levelo://app?vid=35b14479-4a4d-4383-83de-c7fea66894b3"},"vehicle_type_id":"4","last_reported":1750756356,"current_range_meters":16000,"station_id":"ce4bhpp2rcd13ifvqhfg","pricing_plan_id":"cebpf4jnsgd1na2vs0mg"},{"bike_id":"94c9b4b7-f1b2-4e1a-bb69-ef0e1d78a809","system_id":"levelo_inurba_marseille","lat":43.32552,"lon":5.41431,"is_reserved":false,"is_disabled":false,"rental_uris":{"android":"levelo://app?vid=94c9b4b7-f1b2-4e1a-bb69-ef0e1d78a809","ios":"levelo://app?vid=94c9b4b7-f1b2-4e1a-bb69-ef0e1d78a809"},"vehicle_type_id":"4","last_reported":1750756356,"current_range_meters":16000,"station_id":"ce4bhq12rcd13ifvqhhg","pricing_plan_id":"cebpf4jnsgd1na2vs0mg"},{"bike_id":"8af77382-b654-44fc-b71d-8bdc0eab0c96","system_id":"levelo_inurba_marseille","lat":43.32491,"lon":5.36565,"is_reserved":false,"is_disabled":false,"rental_uris":{"android":"levelo://app?vid=8af77382-b654-44fc-b71d-8bdc0eab0c96","ios":"levelo://app?vid=8af77382-b654-44fc-b71d-8bdc0eab0c96"},"vehicle_type_id":"4","last_reported":1750756356,"current_range_meters":16000,"station_id":"ce4bhs12rcd13ifvqhvg","pricing_plan_id":"cebpf4jnsgd1na2vs0mg"},{"bike_id":"51df9c8d-f116-4628-8c40-f3171ceea641","system_id":"levelo_inurba_marseille","lat":43.281223,"lon":5.446037,"is_reserved":false,"is_disabled":false,"rental_uris":{"android":"levelo://app?vid=51df9c8d-f116-4628-8c40-f3171ceea641","ios":"levelo://app?vid=51df9c8d-f116-4628-8c40-f3171ceea641"},"vehicle_type_id":"4","last_reported":1750756356,"current_range_meters":16400,"station_id":"","pricing_plan_id":"cebpf4jnsgd1na2vs0mg"},{"bike_id":"51b217be-9488-41c1-b083-6d728251b280","system_id":"levelo_inurba_marseille","lat":43.24341,"lon":5.36877,"is_reserved":false,"is_disabled":false,"rental_uris":{"android":"levelo://app?vid=51b217be-9488-41c1-b083-6d728251b280","ios":"levelo://app?vid=51b217be-9488-41c1-b083-6d728251b280"},"vehicle_type_id":"4","last_reported":1750756356,"current_range_meters":16400,"station_id":"","pricing_plan_id":"cebpf4jnsgd1na2vs0mg"},{"bike_id":"15e7c2e1-9660-4145-a06d-389491cb5c05","system_id":"levelo_inurba_marseille","lat":43.30302,"lon":5.36884,"is_reserved":false,"is_disabled":false,"rental_uris":{"android":"levelo://app?vid=15e7c2e1-9660-4145-a06d-389491cb5c05","ios":"levelo://app?vid=15e7c2e1-9660-4145-a06d-389491cb5c05"},"vehicle_type_id":"4","last_reported":1750756356,"current_range_meters":16400,"station_id":"ce4bgqh2rcd13ifvqc5g","pricing_plan_id":"cebpf4jnsgd1na2vs0mg"},{"bike_id":"8e7bde1b-03bf-41dd-8428-2f8beba0e27e","system_id":"levelo_inurba_marseille","lat":43.31346,"lon":5.36751,"is_reserved":false,"is_disabled":false,"rental_uris":{"android":"levelo://app?vid=8e7bde1b-03bf-41dd-8428-2f8beba0e27e","ios":"levelo://app?vid=8e7bde1b-03bf-41dd-8428-2f8beba0e27e"},"vehicle_type_id":"4","last_reported":1750756356,"current_range_meters":16400,"station_id":"ce4bgr92rcd13ifvqc6g","pricing_plan_id":"cebpf4jnsgd1na2vs0mg"},{"bike_id":"6af11411-eaec-434d-8aec-5ac25bed1ca3","system_id":"levelo_inurba_marseille","lat":43.31341,"lon":5.36733,"is_reserved":false,"is_disabled":false,"rental_uris":{"android":"levelo://app?vid=6af11411-eaec-434d-8aec-5ac25bed1ca3","ios":"levelo://app?vid=6af11411-eaec-434d-8aec-5ac25bed1ca3"},"vehicle_type_id":"4","last_reported":1750756356,"current_range_meters":16400,"station_id":"ce4bgr92rcd13ifvqc6g","pricing_plan_id":"cebpf4jnsgd1na2vs0mg"},{"bike_id":"a62acbd1-1fdd-4926-821f-bb2af212c12a","system_id":"levelo_inurba_marseille","lat":43.31117,"lon":5.37772,"is_reserved":false,"is_disabled":false,"rental_uris":{"android":"levelo://app?vid=a62acbd1-1fdd-4926-821f-bb2af212c12a","ios":"levelo://app?vid=a62acbd1-1fdd-4926-821f-bb2af212c12a"},"vehicle_type_id":"4","last_reported":1750756356,"current_range_meters":16400,"station_id":"ce4bgt92rcd13ifvqcg0","pricing_plan_id":"cebpf4jnsgd1na2vs0mg"},{"bike_id":"26743e95-f872-4768-95e2-45f246ee7a3d","system_id":"levelo_inurba_marseille","lat":43.28457,"lon":5.34966,"is_reserved":false,"is_disabled":false,"rental_uris":{"android":"levelo://app?vid=26743e95-f872-4768-95e2-45f246ee7a3d","ios":"levelo://app?vid=26743e95-f872-4768-95e2-45f246ee7a3d"},"vehicle_type_id":"4","last_reported":1750756356,"current_range_meters":16400,"station_id":"ce4bhbh2rcd13ifvqepg","pricing_plan_id":"cebpf4jnsgd1na2vs0mg"},{"bike_id":"cc889fb2-f766-4a1b-9004-b2a9af2894c5","system_id":"levelo_inurba_marseille","lat":43.26684,"lon":5.38263,"is_reserved":false,"is_disabled":false,"rental_uris":{"android":"levelo://app?vid=cc889fb2-f766-4a1b-9004-b2a9af2894c5","ios":"levelo://app?vid=cc889fb2-f766-4a1b-9004-b2a9af2894c5"},"vehicle_type_id":"4","last_reported":1750756356,"current_range_meters":16400,"station_id":"ce4bhg92rcd13ifvqf90","pricing_plan_id":"cebpf4jnsgd1na2vs0mg"},{"bike_id":"de2b2a42-573b-4d83-8270-2b4cb5a91387","system_id":"levelo_inurba_marseille","lat":43.26214,"lon":5.37442,"is_reserved":false,"is_disabled":false,"rental_uris":{"android":"levelo://app?vid=de2b2a42-573b-4d83-8270-2b4cb5a91387","ios":"levelo://app?vid=de2b2a42-573b-4d83-8270-2b4cb5a91387"},"vehicle_type_id":"4","last_reported":1750756356,"current_range_meters":16400,"station_id":"ce4bhgp2rcd13ifvqfc0","pricing_plan_id":"cebpf4jnsgd1na2vs0mg"},{"bike_id":"8cd3e3ea-2346-42fe-bba2-e7a68790f830","system_id":"levelo_inurba_marseille","lat":43.25939,"lon":5.4091,"is_reserved":false,"is_disabled":false,"rental_uris":{"android":"levelo://app?vid=8cd3e3ea-2346-42fe-bba2-e7a68790f830","ios":"levelo://app?vid=8cd3e3ea-2346-42fe-bba2-e7a68790f830"},"vehicle_type_id":"4","last_reported":1750756356,"current_range_meters":16400,"station_id":"ce4bhm92rcd13ifvqglg","pricing_plan_id":"cebpf4jnsgd1na2vs0mg"},{"bike_id":"17554c52-9615-46f6-b92a-7d0e6af39209","system_id":"levelo_inurba_marseille","lat":43.23154,"lon":5.43704,"is_reserved":false,"is_disabled":false,"rental_uris":{"android":"levelo://app?vid=17554c52-9615-46f6-b92a-7d0e6af39209","ios":"levelo://app?vid=17554c52-9615-46f6-b92a-7d0e6af39209"},"vehicle_type_id":"4","last_reported":1750756356,"current_range_meters":16400,"station_id":"ce4bhmp2rcd13ifvqgog","pricing_plan_id":"cebpf4jnsgd1na2vs0mg"},{"bike_id":"9d17ba94-28b9-4307-96c9-7a19692d51f0","system_id":"levelo_inurba_marseille","lat":43.33096,"lon":5.39377,"is_reserved":false,"is_disabled":false,"rental_uris":{"android":"levelo://app?vid=9d17ba94-28b9-4307-96c9-7a19692d51f0","ios":"levelo://app?vid=9d17ba94-28b9-4307-96c9-7a19692d51f0"},"vehicle_type_id":"4","last_reported":1750756356,"current_range_meters":16800,"station_id":"","pricing_plan_id":"cebpf4jnsgd1na2vs0mg"},{"bike_id":"ff1500cc-ac8f-45c9-881c-9fd6595094a3","system_id":"levelo_inurba_marseille","lat":43.31793,"lon":5.40124,"is_reserved":false,"is_disabled":false,"rental_uris":{"android":"levelo://app?vid=ff1500cc-ac8f-45c9-881c-9fd6595094a3","ios":"levelo://app?vid=ff1500cc-ac8f-45c9-881c-9fd6595094a3"},"vehicle_type_id":"4","last_reported":1750756356,"current_range_meters":16800,"station_id":"","pricing_plan_id":"cebpf4jnsgd1na2vs0mg"},{"bike_id":"3d39f4f7-5ecc-4e4b-808d-6584f2b02e94","system_id":"levelo_inurba_marseille","lat":43.312351,"lon":5.368794,"is_reserved":false,"is_disabled":false,"rental_uris":{"android":"levelo://app?vid=3d39f4f7-5ecc-4e4b-808d-6584f2b02e94","ios":"levelo://app?vid=3d39f4f7-5ecc-4e4b-808d-6584f2b02e94"},"vehicle_type_id":"4","last_reported":1750756356,"current_range_meters":16800,"station_id":"ce4bgl92rcd13ifvqbq0","pricing_plan_id":"cebpf4jnsgd1na2vs0mg"},{"bike_id":"b87f5e37-a4df-4bc8-a944-6d6d09b0f782","system_id":"levelo_inurba_marseille","lat":43.3054,"lon":5.36682,"is_reserved":false,"is_disabled":false,"rental_uris":{"android":"levelo://app?vid=b87f5e37-a4df-4bc8-a944-6d6d09b0f782","ios":"levelo://app?vid=b87f5e37-a4df-4bc8-a944-6d6d09b0f782"},"vehicle_type_id":"4","last_reported":1750756356,"current_range_meters":16800,"station_id":"ce4bgrp2rcd13ifvqc9g","pricing_plan_id":"cebpf4jnsgd1na2vs0mg"},{"bike_id":"70560b10-a18a-4ae6-b143-172467ca8cdc","system_id":"levelo_inurba_marseille","lat":43.30543,"lon":5.36546,"is_reserved":false,"is_disabled":false,"rental_uris":{"android":"levelo://app?vid=70560b10-a18a-4ae6-b143-172467ca8cdc","ios":"levelo://app?vid=70560b10-a18a-4ae6-b143-172467ca8cdc"},"vehicle_type_id":"4","last_reported":1750756356,"current_range_meters":16800,"station_id":"ce4bgs12rcd13ifvqcag","pricing_plan_id":"cebpf4jnsgd1na2vs0mg"},{"bike_id":"dfe1dcd7-5ca9-4034-bc31-0102149cd03c","system_id":"levelo_inurba_marseille","lat":43.30138,"lon":5.37424,"is_reserved":false,"is_disabled":false,"rental_uris":{"android":"levelo://app?vid=dfe1dcd7-5ca9-4034-bc31-0102149cd03c","ios":"levelo://app?vid=dfe1dcd7-5ca9-4034-bc31-0102149cd03c"},"vehicle_type_id":"4","last_reported":1750756356,"current_range_meters":16800,"station_id":"ce4bgs92rcd13ifvqcc0","pricing_plan_id":"cebpf4jnsgd1na2vs0mg"},{"bike_id":"98e8ebb5-e759-4b2a-98b2-a6d517058646","system_id":"levelo_inurba_marseille","lat":43.287188,"lon":5.379447,"is_reserved":false,"is_disabled":false,"rental_uris":{"android":"levelo://app?vid=98e8ebb5-e759-4b2a-98b2-a6d517058646","ios":"levelo://app?vid=98e8ebb5-e759-4b2a-98b2-a6d517058646"},"vehicle_type_id":"4","last_reported":1750756356,"current_range_meters":16800,"station_id":"ce4bh9p2rcd13ifvqec0","pricing_plan_id":"cebpf4jnsgd1na2vs0mg"},{"bike_id":"98f6a20a-fd34-4f77-a03e-460e4ea070b7","system_id":"levelo_inurba_marseille","lat":43.32349,"lon":5.36727,"is_reserved":false,"is_disabled":false,"rental_uris":{"android":"levelo://app?vid=98f6a20a-fd34-4f77-a03e-460e4ea070b7","ios":"levelo://app?vid=98f6a20a-fd34-4f77-a03e-460e4ea070b7"},"vehicle_type_id":"4","last_reported":1750756356,"current_range_meters":16800,"station_id":"ce4bhsh2rcd13ifvqi2g","pricing_plan_id":"cebpf4jnsgd1na2vs0mg"},{"bike_id":"af112b62-19de-41d4-b8d7-e14d0172315d","system_id":"levelo_inurba_marseille","lat":43.3271,"lon":5.39187,"is_reserved":false,"is_disabled":false,"rental_uris":{"android":"levelo://app?vid=af112b62-19de-41d4-b8d7-e14d0172315d","ios":"levelo://app?vid=af112b62-19de-41d4-b8d7-e14d0172315d"},"vehicle_type_id":"4","last_reported":1750756356,"current_range_meters":17200,"station_id":"","pricing_plan_id":"cebpf4jnsgd1na2vs0mg"},{"bike_id":"9b61e1c8-664a-4014-a79a-87f8bfda347d","system_id":"levelo_inurba_marseille","lat":43.305404,"lon":5.367042,"is_reserved":false,"is_disabled":false,"rental_uris":{"android":"levelo://app?vid=9b61e1c8-664a-4014-a79a-87f8bfda347d","ios":"levelo://app?vid=9b61e1c8-664a-4014-a79a-87f8bfda347d"},"vehicle_type_id":"4","last_reported":1750756356,"current_range_meters":17200,"station_id":"","pricing_plan_id":"cebpf4jnsgd1na2vs0mg"},{"bike_id":"ea253832-b8bd-4a85-850f-63d25959d942","system_id":"levelo_inurba_marseille","lat":43.26683,"lon":5.38268,"is_reserved":false,"is_disabled":false,"rental_uris":{"android":"levelo://app?vid=ea253832-b8bd-4a85-850f-63d25959d942","ios":"levelo://app?vid=ea253832-b8bd-4a85-850f-63d25959d942"},"vehicle_type_id":"4","last_reported":1750756356,"current_range_meters":17200,"station_id":"ce4bhg92rcd13ifvqf90","pricing_plan_id":"cebpf4jnsgd1na2vs0mg"},{"bike_id":"2eb78acd-d44a-4d23-8924-1970d196397a","system_id":"levelo_inurba_marseille","lat":43.23967,"lon":5.36626,"is_reserved":false,"is_disabled":false,"rental_uris":{"android":"levelo://app?vid=2eb78acd-d44a-4d23-8924-1970d196397a","ios":"levelo://app?vid=2eb78acd-d44a-4d23-8924-1970d196397a"},"vehicle_type_id":"4","last_reported":1750756356,"current_range_meters":17200,"station_id":"ce4bhi12rcd13ifvqfp0","pricing_plan_id":"cebpf4jnsgd1na2vs0mg"},{"bike_id":"1f9cae37-aac4-4db4-be31-c1f871b3bdd7","system_id":"levelo_inurba_marseille","lat":43.304185,"lon":5.412909,"is_reserved":false,"is_disabled":false,"rental_uris":{"android":"levelo://app?vid=1f9cae37-aac4-4db4-be31-c1f871b3bdd7","ios":"levelo://app?vid=1f9cae37-aac4-4db4-be31-c1f871b3bdd7"},"vehicle_type_id":"4","last_reported":1750756356,"current_range_meters":17200,"station_id":"ce4bhop2rcd13ifvqh8g","pricing_plan_id":"cebpf4jnsgd1na2vs0mg"},{"bike_id":"b8ce578d-7cf5-4a38-bd36-6a6897c9f454","system_id":"levelo_inurba_marseille","lat":43.29896,"lon":5.43659,"is_reserved":false,"is_disabled":false,"rental_uris":{"android":"levelo://app?vid=b8ce578d-7cf5-4a38-bd36-6a6897c9f454","ios":"levelo://app?vid=b8ce578d-7cf5-4a38-bd36-6a6897c9f454"},"vehicle_type_id":"4","last_reported":1750756356,"current_range_meters":17200,"station_id":"ce4bhpp2rcd13ifvqhfg","pricing_plan_id":"cebpf4jnsgd1na2vs0mg"},{"bike_id":"9eceafb3-edc3-445a-8120-aaae8887c94f","system_id":"levelo_inurba_marseille","lat":43.32551,"lon":5.41431,"is_reserved":false,"is_disabled":false,"rental_uris":{"android":"levelo://app?vid=9eceafb3-edc3-445a-8120-aaae8887c94f","ios":"levelo://app?vid=9eceafb3-edc3-445a-8120-aaae8887c94f"},"vehicle_type_id":"4","last_reported":1750756356,"current_range_meters":17200,"station_id":"ce4bhq12rcd13ifvqhhg","pricing_plan_id":"cebpf4jnsgd1na2vs0mg"},