{"last_updated":1738629923,"ttl":60,"version":"2.2","data":{"bikes":[{"bike_id":"a6accd57-54cf-4d44-87f9-766d1013e2f7","system_id":"levelo_inurba_marseille","lat":43.260259,"lon":5.375492,"is_reserved":false,"is_disabled":false,"rental_uris":{"android":"levelo://app?vid=a6accd57-54cf-4d44-87f9-766d1013e2f7","ios":"levelo://app?vid=a6accd57-54cf-4d44-87f9-766d1013e2f7"},"vehicle_type_id":"4","last_reported":1738629923,"current_range_meters":38400,"station_id":"ce4bhgh2rcd13ifvqfa0","pricing_plan_id":"cebpf4jnsgd1na2vs0mg"},{"bike_id":"51c51056-c14e-414d-b8da-6e0805d9f9a6","system_id":"levelo_inurba_marseille","lat":43.24552,"lon":5.39546,"is_reserved":false,"is_disabled":false,"rental_uris":{"android":"levelo://app?vid=51c51056-c14e-414d-b8da-6e0805d9f9a6","ios":"levelo://app?vid=51c51056-c14e-414d-b8da-6e0805d9f9a6"},"vehicle_type_id":"4","last_reported":1738629923,"current_range_meters":38800,"station_id":"ce4bhlp2rcd13ifvqgjg","pricing_plan_id":"cebpf4jnsgd1na2vs0mg"},{"bike_id":"cbff7df9-2ff4-40f2-b8d5-30e355ea07d1","system_id":"levelo_inurba_marseille","lat":43.25865,"lon":5.39902,"is_reserved":false,"is_disabled":false,"rental_uris":{"android":"levelo://app?vid=cbff7df9-2ff4-40f2-b8d5-30e355ea07d1","ios":"levelo://app?vid=cbff7df9-2ff4-40f2-b8d5-30e355ea07d1"},"vehicle_type_id":"4","last_reported":1738629923,"current_range_meters":27600,"station_id":"ce4bhl92rcd13ifvqghg","pricing_plan_id":"cebpf4jnsgd1na2vs0mg"},{"bike_id":"59c830b9-d6f0-49df-91e9-084aeda66649","system_id":"levelo_inurba_marseille","lat":43.29182,"lon":5.3581,"is_reserved":false,"is_disabled":false,"rental_uris":{"android":"levelo://app?vid=59c830b9-d6f0-49df-91e9-084aeda66649","ios":"levelo://app?vid=59c830b9-d6f0-49df-91e9-084aeda66649"},"vehicle_type_id":"4","last_reported":1738629923,"current_range_meters":30000,"station_id":"ce4bhb12rcd13ifvqel0","pricing_plan_id":"cebpf4jnsgd1na2vs0mg"},{"bike_id":"8cf73cc3-5792-493b-b453-af5e49989385","system_id":"levelo_inurba_marseille","lat":43.2439,"lon":5.37069,"is_reserved":false,"is_disabled":false,"rental_uris":{"android":"levelo://app?vid=8cf73cc3-5792-493b-b453-af5e49989385","ios":"levelo://app?vid=8cf73cc3-5792-493b-b453-af5e49989385"},"vehicle_type_id":"4","last_reported":1738629923,"current_range_meters":38800,"station_id":"ce4bhhh2rcd13ifvqfk0","pricing_plan_id":"cebpf4jnsgd1na2vs0mg"},{"bike_id":"176cb06f-f5e2-40ce-a5f0-b94c8af2011d","system_id":"levelo_inurba_marseille","lat":43.30888,"lon":5.36853,"is_reserved":false,"is_disabled":true,"rental_uris":{"android":"levelo://app?vid=176cb06f-f5e2-40ce-a5f0-b94c8af2011d","ios":"levelo://app?vid=176cb06f-f5e2-40ce-a5f0-b94c8af2011d"},"vehicle_type_id":"4","last_reported":1738629923,"current_range_meters":28000,"station_id":"ce4bgn92rcd13ifvqbvg","pricing_plan_id":"cebpf4jnsgd1na2vs0mg"},{"bike_id":"3623d7c5-0c4c-487e-8771-ef60e9a137c4","system_id":"levelo_inurba_marseille","lat":43.28401,"lon":5.37534,"is_reserved":false,"is_disabled":false,"rental_uris":{"android":"levelo://app?vid=3623d7c5-0c4c-487e-8771-ef60e9a137c4","ios":"levelo://app?vid=3623d7c5-0c4c-487e-8771-ef60e9a137c4"},"vehicle_type_id":"4","last_reported":1738629923,"current_range_meters":35200,"station_id":"ce4bh412rcd13ifvqds0","pricing_plan_id":"cebpf4jnsgd1na2vs0mg"},{"bike_id":"51141bc4-8209-4ad3-9875-3290bd48084f","system_id":"levelo_inurba_marseille","lat":43.30456,"lon":5.38866,"is_reserved":false,"is_disabled":false,"rental_uris":{"android":"levelo://app?vid=51141bc4-8209-4ad3-9875-3290bd48084f","ios":"levelo://app?vid=51141bc4-8209-4ad3-9875-3290bd48084f"},"vehicle_type_id":"4","last_reported":1738629923,"current_range_meters":24000,"station_id":"ce4bgk12rcd13ifvqbi0","pricing_plan_id":"cebpf4jnsgd1na2vs0mg"},{"bike_id":"97ef53a4-c790-4c65-8638-26840152d973","system_id":"levelo_inurba_marseille","lat":43.31535,"lon":5.38033,"is_reserved":false,"is_disabled":false,"rental_uris":{"android":"levelo://app?vid=97ef53a4-c790-4c65-8638-26840152d973","ios":"levelo://app?vid=97ef53a4-c790-4c65-8638-26840152d973"},"vehicle_type_id":"4","last_reported":1738629923,"current_range_meters":12800,"station_id":"ce4bhsp2rcd13ifvqi50","pricing_plan_id":"cebpf4jnsgd1na2vs0mg"},{"bike_id":"845977e1-6330-4fa1-b2a7-54339a5e4fdc","system_id":"levelo_inurba_marseille","lat":43.26493,"lon":5.39542,"is_reserved":false,"is_disabled":false,"rental_uris":{"android":"levelo://app?vid=845977e1-6330-4fa1-b2a7-54339a5e4fdc","ios":"levelo://app?vid=845977e1-6330-4fa1-b2a7-54339a5e4fdc"},"vehicle_type_id":"4","last_reported":1738629923,"current_range_meters":36800,"station_id":"ce4bhi12rcd13ifvqfq0","pricing_plan_id":"cebpf4jnsgd1na2vs0mg"},{"bike_id":"0b593fea-7699-4daf-95f5-8bf1b27d334d","system_id":"levelo_inurba_marseille","lat":43.28691,"lon":5.374,"is_reserved":false,"is_disabled":false,"rental_uris":{"android":"levelo://app?vid=0b593fea-7699-4daf-95f5-8bf1b27d334d","ios":"levelo://app?vid=0b593fea-7699-4daf-95f5-8bf1b27d334d"},"vehicle_type_id":"4","last_reported":1738629923,"current_range_meters":30800,"station_id":"ce4bh3p2rcd13ifvqdq0","pricing_plan_id":"cebpf4jnsgd1na2vs0mg"},{"bike_id":"26050afd-b0a5-477d-84eb-5b4b37ed4a13","system_id":"levelo_inurba_marseille","lat":43.28456,"lon":5.3589,"is_reserved":false,"is_disabled":false,"rental_uris":{"android":"levelo://app?vid=26050afd-b0a5-477d-84eb-5b4b37ed4a13","ios":"levelo://app?vid=26050afd-b0a5-477d-84eb-5b4b37ed4a13"},"vehicle_type_id":"4","last_reported":1738629923,"current_range_meters":19200,"station_id":"ce4bhah2rcd13ifvqei0","pricing_plan_id":"cebpf4jnsgd1na2vs0mg"},{"bike_id":"7ad543c6-fb45-451c-add8-0b23712390bd","system_id":"levelo_inurba_marseille","lat":43.269408,"lon":5.402644,"is_reserved":false,"is_disabled":false,"rental_uris":{"android":"levelo://app?vid=7ad543c6-fb45-451c-add8-0b23712390bd","ios":"levelo://app?vid=7ad543c6-fb45-451c-add8-0b23712390bd"},"vehicle_type_id":"4","last_reported":1738629923,"current_range_meters":19200,"station_id":"cjm6bp8fraef2m0cb0m0","pricing_plan_id":"cebpf4jnsgd1na2vs0mg"},{"bike_id":"19c9a953-0823-4458-832d-b85e4ed269c8","system_id":"levelo_inurba_marseille","lat":43.25112,"lon":5.40345,"is_reserved":false,"is_disabled":false,"rental_uris":{"android":"levelo://app?vid=19c9a953-0823-4458-832d-b85e4ed269c8","ios":"levelo://app?vid=19c9a953-0823-4458-832d-b85e4ed269c8"},"vehicle_type_id":"4","last_reported":1738629923,"current_range_meters":25200,"station_id":"ce4bhlh2rcd13ifvqgig","pricing_plan_id":"cebpf4jnsgd1na2vs0mg"},{"bike_id":"6662c50b-7088-4c8f-9ff4-bd1a53b4cd38","system_id":"levelo_inurba_marseille","lat":43.25863,"lon":5.39918,"is_reserved":false,"is_disabled":false,"rental_uris":{"android":"levelo://app?vid=6662c50b-7088-4c8f-9ff4-bd1a53b4cd38","ios":"levelo://app?vid=6662c50b-7088-4c8f-9ff4-bd1a53b4cd38"},"vehicle_type_id":"4","last_reported":1738629923,"current_range_meters":26800,"station_id":"ce4bhl92rcd13ifvqghg","pricing_plan_id":"cebpf4jnsgd1na2vs0mg"},{"bike_id":"653e04d9-d32c-45f5-a9b0-a056ff2ec984","system_id":"levelo_inurba_marseille","lat":43.2905,"lon":5.37151,"is_reserved":false,"is_disabled":false,"rental_uris":{"android":"levelo://app?vid=653e04d9-d32c-45f5-a9b0-a056ff2ec984","ios":"levelo://app?vid=653e04d9-d32c-45f5-a9b0-a056ff2ec984"},"vehicle_type_id":"4","last_reported":1738629923,"current_range_meters":38400,"station_id":"ce4bh5p2rcd13ifvqe4g","pricing_plan_id":"cebpf4jnsgd1na2vs0mg"},{"bike_id":"81fc2b49-7d41-4bc4-9c6c-fc4ded896c4f","system_id":"levelo_inurba_marseille","lat":43.299228,"lon":5.374569,"is_reserved":false,"is_disabled":true,"rental_uris":{"android":"levelo://app?vid=81fc2b49-7d41-4bc4-9c6c-fc4ded896c4f","ios":"levelo://app?vid=81fc2b49-7d41-4bc4-9c6c-fc4ded896c4f"},"vehicle_type_id":"4","last_reported":1738629923,"current_range_meters":36000,"station_id":"ce4bgjh2rcd13ifvqbg0","pricing_plan_id":"cebpf4jnsgd1na2vs0mg"},{"bike_id":"b2f5ad0b-e859-4a5a-afe6-19f2444b14ba","system_id":"levelo_inurba_marseille","lat":43.31991,"lon":5.38149,"is_reserved":false,"is_disabled":false,"rental_uris":{"android":"levelo://app?vid=b2f5ad0b-e859-4a5a-afe6-19f2444b14ba","ios":"levelo://app?vid=b2f5ad0b-e859-4a5a-afe6-19f2444b14ba"},"vehicle_type_id":"4","last_reported":1738629923,"current_range_meters":38800,"station_id":"ce4bhr12rcd13ifvqhpg","pricing_plan_id":"cebpf4jnsgd1na2vs0mg"},{"bike_id":"84e53465-926b-43ef-956d-fb0614e2633b","system_id":"levelo_inurba_marseille","lat":43.30418,"lon":5.4128,"is_reserved":false,"is_disabled":false,"rental_uris":{"android":"levelo://app?vid=84e53465-926b-43ef-956d-fb0614e2633b","ios":"levelo://app?vid=84e53465-926b-43ef-956d-fb0614e2633b"},"vehicle_type_id":"4","last_reported":1738629923,"current_range_meters":37600,"station_id":"ce4bhop2rcd13ifvqh8g","pricing_plan_id":"cebpf4jnsgd1na2vs0mg"},{"bike_id":"f3bc6157-d3f0-49f7-ae4e-bc39e46470c3","system_id":"levelo_inurba_marseille","lat":43.27815,"lon":5.40749,"is_reserved":false,"is_disabled":false,"rental_uris":{"android":"levelo://app?vid=f3bc6157-d3f0-49f7-ae4e-bc39e46470c3","ios":"levelo://app?vid=f3bc6157-d3f0-49f7-ae4e-bc39e46470c3"},"vehicle_type_id":"4","last_reported":1738629923,"current_range_meters":24800,"station_id":"ce4bhnh2rcd13ifvqgtg","pricing_plan_id":"cebpf4jnsgd1na2vs0mg"},{"bike_id":"b04af40c-403c-4407-9e42-e0557c0b9076","system_id":"levelo_inurba_marseille","lat":43.30881,"lon":5.39639,"is_reserved":false,"is_disabled":false,"rental_uris":{"android":"levelo://app?vid=b04af40c-403c-4407-9e42-e0557c0b9076","ios":"levelo://app?vid=b04af40c-403c-4407-9e42-e0557c0b9076"},"vehicle_type_id":"4","last_reported":1738629923,"current_range_meters":32800,"station_id":"ce4bh012rcd13ifvqcv0","pricing_plan_id":"cebpf4jnsgd1na2vs0mg"},{"bike_id":"517d12c7-022b-4f83-801f-8815a8a13e19","system_id":"levelo_inurba_marseille","lat":43.30888,"lon":5.39642,"is_reserved":false,"is_disabled":false,"rental_uris":{"android":"levelo://app?vid=517d12c7-022b-4f83-801f-8815a8a13e19","ios":"levelo://app?vid=517d12c7-022b-4f83-801f-8815a8a13e19"},"vehicle_type_id":"4","last_reported":1738629923,"current_range_meters":16800,"station_id":"ce4bh012rcd13ifvqcv0","pricing_plan_id":"cebpf4jnsgd1na2vs0mg"},{"bike_id":"a96afd49-2183-4402-b4cb-2b9e2b2fa8b9","system_id":"levelo_inurba_marseille","lat":43.266826,"lon":5.382677,"is_reserved":false,"is_disabled":false,"rental_uris":{"android":"levelo://app?vid=a96afd49-2183-4402-b4cb-2b9e2b2fa8b9","ios":"levelo://app?vid=a96afd49-2183-4402-b4cb-2b9e2b2fa8b9"},"vehicle_type_id":"4","last_reported":1738629923,"current_range_meters":38800,"station_id":"ce4bhg92rcd13ifvqf90","pricing_plan_id":"cebpf4jnsgd1na2vs0mg"},{"bike_id":"eaad052b-6bc0-464a-8b9d-a306e57017ed","system_id":"levelo_inurba_marseille","lat":43.28725,"lon":5.3608,"is_reserved":false,"is_disabled":false,"rental_uris":{"android":"levelo://app?vid=eaad052b-6bc0-464a-8b9d-a306e57017ed","ios":"levelo://app?vid=eaad052b-6bc0-464a-8b9d-a306e57017ed"},"vehicle_type_id":"4","last_reported":1738629923,"current_range_meters":18000,"station_id":"cki0cbj6b192h4jlfktg","pricing_plan_id":"cebpf4jnsgd1na2vs0mg"},{"bike_id":"ccb54b22-b6b4-4173-84db-e27b7ccce743","system_id":"levelo_inurba_marseille","lat":43.27285,"lon":5.3912,"is_reserved":false,"is_disabled":false,"rental_uris":{"android":"levelo://app?vid=ccb54b22-b6b4-4173-84db-e27b7ccce743","ios":"levelo://app?vid=ccb54b22-b6b4-4173-84db-e27b7ccce743"},"vehicle_type_id":"4","last_reported":1738629923,"current_range_meters":38400,"station_id":"ce4bhgp2rcd13ifvqfe0","pricing_plan_id":"cebpf4jnsgd1na2vs0mg"},{"bike_id":"c92d27b3-011a-4b9b-85d3-c7a68cdf0054","system_id":"levelo_inurba_marseille","lat":43.324777,"lon":5.365669,"is_reserved":false,"is_disabled":false,"rental_uris":{"android":"levelo://app?vid=c92d27b3-011a-4b9b-85d3-c7a68cdf0054","ios":"levelo://app?vid=c92d27b3-011a-4b9b-85d3-c7a68cdf0054"},"vehicle_type_id":"4","last_reported":1738629923,"current_range_meters":19200,"station_id":"","pricing_plan_id":"cebpf4jnsgd1na2vs0mg"},{"bike_id":"3e574816-3754-460d-8072-f6ebe3757ea0","system_id":"levelo_inurba_marseille","lat":43.32347,"lon":5.36752,"is_reserved":false,"is_disabled":false,"rental_uris":{"android":"levelo://app?vid=3e574816-3754-460d-8072-f6ebe3757ea0","ios":"levelo://app?vid=3e574816-3754-460d-8072-f6ebe3757ea0"},"vehicle_type_id":"4","last_reported":1738629923,"current_range_meters":20000,"station_id":"ce4bhsh2rcd13ifvqi2g","pricing_plan_id":"cebpf4jnsgd1na2vs0mg"},{"bike_id":"10d97f48-6262-478c-8f2b-5860141d8d1e","system_id":"levelo_inurba_marseille","lat":43.290738,"lon":5.371388,"is_reserved":false,"is_disabled":false,"rental_uris":{"android":"levelo://app?vid=10d97f48-6262-478c-8f2b-5860141d8d1e","ios":"levelo://app?vid=10d97f48-6262-478c-8f2b-5860141d8d1e"},"vehicle_type_id":"4","last_reported":1738629923,"current_range_meters":36400,"station_id":"ce4bh5p2rcd13ifvqe4g","pricing_plan_id":"cebpf4jnsgd1na2vs0mg"},{"bike_id":"8ba86456-ad3d-455a-b194-ca45ff77e0e4","system_id":"levelo_inurba_marseille","lat":43.30209,"lon":5.39468,"is_reserved":false,"is_disabled":false,"rental_uris":{"android":"levelo://app?vid=8ba86456-ad3d-455a-b194-ca45ff77e0e4","ios":"levelo://app?vid=8ba86456-ad3d-455a-b194-ca45ff77e0e4"},"vehicle_type_id":"4","last_reported":1738629923,"current_range_meters":38000,"station_id":"ce4bh0p2rcd13ifvqd70","pricing_plan_id":"cebpf4jnsgd1na2vs0mg"},{"bike_id":"a1a7079b-68b5-45ca-9af8-b6bc9f7cd559","system_id":"levelo_inurba_marseille","lat":43.22931,"lon":5.35374,"is_reserved":false,"is_disabled":false,"rental_uris":{"android":"levelo://app?vid=a1a7079b-68b5-45ca-9af8-b6bc9f7cd559","ios":"levelo://app?vid=a1a7079b-68b5-45ca-9af8-b6bc9f7cd559"},"vehicle_type_id":"4","last_reported":1738629923,"current_range_meters":38800,"station_id":"cpo3532slgdg3j2ikp40","pricing_plan_id":"cebpf4jnsgd1na2vs0mg"},{"bike_id":"391156ab-23e6-4087-9fff-4d00554806c8","system_id":"levelo_inurba_marseille","lat":43.27562,"lon":5.3839,"is_reserved":false,"is_disabled":false,"rental_uris":{"android":"levelo://app?vid=391156ab-23e6-4087-9fff-4d00554806c8","ios":"levelo://app?vid=391156ab-23e6-4087-9fff-4d00554806c8"},"vehicle_type_id":"4","last_reported":1738629923,"current_range_meters":35600,"station_id":"ce4bhh92rcd13ifvqfi0","pricing_plan_id":"cebpf4jnsgd1na2vs0mg"},{"bike_id":"2858eea7-6ac3-464c-97ad-2ed0418e0461","system_id":"levelo_inurba_marseille","lat":43.31717,"lon":5.423986,"is_reserved":false,"is_disabled":false,"rental_uris":{"android":"levelo://app?vid=2858eea7-6ac3-464c-97ad-2ed0418e0461","ios":"levelo://app?vid=2858eea7-6ac3-464c-97ad-2ed0418e0461"},"vehicle_type_id":"4","last_reported":1738629923,"current_range_meters":22400,"station_id":"ce4bhp92rcd13ifvqhbg","pricing_plan_id":"cebpf4jnsgd1na2vs0mg"},{"bike_id":"6e515a09-e648-4841-950c-80b44d7756c6","system_id":"levelo_inurba_marseille","lat":43.29211,"lon":5.39325,"is_reserved":false,"is_disabled":false,"rental_uris":{"android":"levelo://app?vid=6e515a09-e648-4841-950c-80b44d7756c6","ios":"levelo://app?vid=6e515a09-e648-4841-950c-80b44d7756c6"},"vehicle_type_id":"4","last_reported":1738629923,"current_range_meters":38800,"station_id":"ce4bh192rcd13ifvqdd0","pricing_plan_id":"cebpf4jnsgd1na2vs0mg"},{"bike_id":"03c58b86-6f9e-4876-a067-63e726c4181d","system_id":"levelo_inurba_marseille","lat":43.29789,"lon":5.39337,"is_reserved":false,"is_disabled":false,"rental_uris":{"android":"levelo://app?vid=03c58b86-6f9e-4876-a067-63e726c4181d","ios":"levelo://app?vid=03c58b86-6f9e-4876-a067-63e726c4181d"},"vehicle_type_id":"4","last_reported":1738629923,"current_range_meters":38800,"station_id":"chh1huq6cuj3fo74tm60","pricing_plan_id":"cebpf4jnsgd1na2vs0mg"},{"bike_id":"8b7cdb48-c19b-44dd-8859-dc2aba3e48ea","system_id":"levelo_inurba_marseille","lat":43.25577,"lon":5.38238,"is_reserved":false,"is_disabled":false,"rental_uris":{"android":"levelo://app?vid=8b7cdb48-c19b-44dd-8859-dc2aba3e48ea","ios":"levelo://app?vid=8b7cdb48-c19b-44dd-8859-dc2aba3e48ea"},"vehicle_type_id":"4","last_reported":1738629923,"current_range_meters":8800,"station_id":"ce4bhih2rcd13ifvqfs0","pricing_plan_id":"cebpf4jnsgd1na2vs0mg"},{"bike_id":"1e80229c-3730-4f6a-ad92-db35f7d75e3d","system_id":"levelo_inurba_marseille","lat":43.27167,"lon":5.40991,"is_reserved":false,"is_disabled":false,"rental_uris":{"android":"levelo://app?vid=1e80229c-3730-4f6a-ad92-db35f7d75e3d","ios":"levelo://app?vid=1e80229c-3730-4f6a-ad92-db35f7d75e3d"},"vehicle_type_id":"4","last_reported":1738629923,"current_range_meters":38800,"station_id":"ce4bhl12rcd13ifvqgf0","pricing_plan_id":"cebpf4jnsgd1na2vs0mg"},{"bike_id":"f738eb8f-3268-4a0f-af5c-e51042433d2c","system_id":"levelo_inurba_marseille","lat":43.30301,"lon":5.39888,"is_reserved":false,"is_disabled":false,"rental_uris":{"android":"levelo://app?vid=f738eb8f-3268-4a0f-af5c-e51042433d2c","ios":"levelo://app?vid=f738eb8f-3268-4a0f-af5c-e51042433d2c"},"vehicle_type_id":"4","last_reported":1738629923,"current_range_meters":24400,"station_id":"","pricing_plan_id":"cebpf4jnsgd1na2vs0mg"},{"bike_id":"b2a6436f-4c95-46dd-a3bd-6af91e9591d2","system_id":"levelo_inurba_marseille","lat":43.25568,"lon":5.38229,"is_reserved":false,"is_disabled":false,"rental_uris":{"android":"levelo://app?vid=b2a6436f-4c95-46dd-a3bd-6af91e9591d2","ios":"levelo://app?vid=b2a6436f-4c95-46dd-a3bd-6af91e9591d2"},"vehicle_type_id":"4","last_reported":1738629923,"current_range_meters":21600,"station_id":"ce4bhih2rcd13ifvqfs0","pricing_plan_id":"cebpf4jnsgd1na2vs0mg"},{"bike_id":"17040f9e-e33b-4447-b83e-1e0cf0ca2432","system_id":"levelo_inurba_marseille","lat":43.2988,"lon":5.398,"is_reserved":false,"is_disabled":false,"rental_uris":{"android":"levelo://app?vid=17040f9e-e33b-4447-b83e-1e0cf0ca2432","ios":"levelo://app?vid=17040f9e-e33b-4447-b83e-1e0cf0ca2432"},"vehicle_type_id":"4","last_reported":1738629923,"current_range_meters":30000,"station_id":"","pricing_plan_id":"cebpf4jnsgd1na2vs0mg"},{"bike_id":"9522633e-dafc-4cf1-a369-b26448cdc852","system_id":"levelo_inurba_marseille","lat":43.291924,"lon":5.393175,"is_reserved":false,"is_disabled":false,"rental_uris":{"android":"levelo://app?vid=9522633e-dafc-4cf1-a369-b26448cdc852","ios":"levelo://app?vid=9522633e-dafc-4cf1-a369-b26448cdc852"},"vehicle_type_id":"4","last_reported":1738629923,"current_range_meters":38800,"station_id":"ce4bh192rcd13ifvqdd0","pricing_plan_id":"cebpf4jnsgd1na2vs0mg"},{"bike_id":"b089039a-2028-4558-adde-35e974e6b260","system_id":"levelo_inurba_marseille","lat":43.27057,"lon":5.40253,"is_reserved":false,"is_disabled":false,"rental_uris":{"android":"levelo://app?vid=b089039a-2028-4558-adde-35e974e6b260","ios":"levelo://app?vid=b089039a-2028-4558-adde-35e974e6b260"},"vehicle_type_id":"4","last_reported":1738629923,"current_range_meters":33200,"station_id":"ce4bhk92rcd13ifvqgc0","pricing_plan_id":"cebpf4jnsgd1na2vs0mg"},{"bike_id":"0ded5e0f-fa22-4c94-8cea-93dd5234c044","system_id":"levelo_inurba_marseille","lat":43.262077,"lon":5.404739,"is_reserved":false,"is_disabled":false,"rental_uris":{"android":"levelo://app?vid=0ded5e0f-fa22-4c94-8cea-93dd5234c044","ios":"levelo://app?vid=0ded5e0f-fa22-4c94-8cea-93dd5234c044"},"vehicle_type_id":"4","last_reported":1738629923,"current_range_meters":38800,"station_id":"ce4bhmh2rcd13ifvqgmg","pricing_plan_id":"cebpf4jnsgd1na2vs0mg"},{"bike_id":"f9828797-7b54-4307-a075-30c9ff328a13","system_id":"levelo_inurba_marseille","lat":43.3026,"lon":5.40046,"is_reserved":false,"is_disabled":false,"rental_uris":{"android":"levelo://app?vid=f9828797-7b54-4307-a075-30c9ff328a13","ios":"levelo://app?vid=f9828797-7b54-4307-a075-30c9ff328a13"},"vehicle_type_id":"4","last_reported":1738629923,"current_range_meters":12400,"station_id":"ce4bgvh2rcd13ifvqcs0","pricing_plan_id":"cebpf4jnsgd1na2vs0mg"},{"bike_id":"1a794636-1de8-48ff-a1bf-f41557cb147d","system_id":"levelo_inurba_marseille","lat":43.34633,"lon":5.38059,"is_reserved":false,"is_disabled":false,"rental_uris":{"android":"levelo://app?vid=1a794636-1de8-48ff-a1bf-f41557cb147d","ios":"levelo://app?vid=1a794636-1de8-48ff-a1bf-f41557cb147d"},"vehicle_type_id":"4","last_reported":1738629923,"current_range_meters":16000,"station_id":"","pricing_plan_id":"cebpf4jnsgd1na2vs0mg"},{"bike_id":"3c8e5445-cf86-469e-9c11-4a5caaef9b7e","system_id":"levelo_inurba_marseille","lat":43.24676,"lon":5.38881,"is_reserved":false,"is_disabled":false,"rental_uris":{"android":"levelo://app?vid=3c8e5445-cf86-469e-9c11-4a5caaef9b7e","ios":"levelo://app?vid=3c8e5445-cf86-469e-9c11-4a5caaef9b7e"},"vehicle_type_id":"4","last_reported":1738629923,"current_range_meters":38800,"station_id":"ce4bhg12rcd13ifvqf60","pricing_plan_id":"cebpf4jnsgd1na2vs0mg"},{"bike_id":"c10b5c55-974f-463a-9ead-3843db6a050e","system_id":"levelo_inurba_marseille","lat":43.24561,"lon":5.39507,"is_reserved":false,"is_disabled":false,"rental_uris":{"android":"levelo://app?vid=c10b5c55-974f-463a-9ead-3843db6a050e","ios":"levelo://app?vid=c10b5c55-974f-463a-9ead-3843db6a050e"},"vehicle_type_id":"4","last_reported":1738629923,"current_range_meters":38800,"station_id":"ce4bhlp2rcd13ifvqgjg","pricing_plan_id":"cebpf4jnsgd1na2vs0mg"},{"bike_id":"a3d934d8-f52f-4a18-87f9-50ef83776b43","system_id":"levelo_inurba_marseille","lat":43.24386,"lon":5.37057,"is_reserved":false,"is_disabled":false,"rental_uris":{"android":"levelo://app?vid=a3d934d8-f52f-4a18-87f9-50ef83776b43","ios":"levelo://app?vid=a3d934d8-f52f-4a18-87f9-50ef83776b43"},"vehicle_type_id":"4","last_reported":1738629923,"current_range_meters":38000,"station_id":"ce4bhhh2rcd13ifvqfk0","pricing_plan_id":"cebpf4jnsgd1na2vs0mg"},{"bike_id":"97bd8221-38e8-4ff0-8cc6-c7836c6b1e93","system_id":"levelo_inurba_marseille","lat":43.28258,"lon":5.35083,"is_reserved":false,"is_disabled":false,"rental_uris":{"android":"levelo://app?vid=97bd8221-38e8-4ff0-8cc6-c7836c6b1e93","ios":"levelo://app?vid=97bd8221-38e8-4ff0-8cc6-c7836c6b1e93"},"vehicle_type_id":"4","last_reported":1738629923,"current_range_meters":27600,"station_id":"ce4bhbp2rcd13ifvqerg","pricing_plan_id":"cebpf4jnsgd1na2vs0mg"},{"bike_id":"0580b22c-e37b-43ae-9129-b4938c90022d","system_id":"levelo_inurba_marseille","lat":43.31498,"lon":5.37288,"is_reserved":false,"is_disabled":false,"rental_uris":{"android":"levelo://app?vid=0580b22c-e37b-43ae-9129-b4938c90022d","ios":"levelo://app?vid=0580b22c-e37b-43ae-9129-b4938c90022d"},"vehicle_type_id":"4","last_reported":1738629923,"current_range_meters":31200,"station_id":"ce4bgt12rcd13ifvqcd0","pricing_plan_id":"cebpf4jnsgd1na2vs0mg"},{"bike_id":"acadeea3-d7b3-4b81-9b5e-212952c26350","system_id":"levelo_inurba_marseille","lat":43.2872,"lon":5.36102,"is_reserved":false,"is_disabled":false,"rental_uris":{"android":"levelo://app?vid=acadeea3-d7b3-4b81-9b5e-212952c26350","ios":"levelo://app?vid=acadeea3-d7b3-4b81-9b5e-212952c26350"},"vehicle_type_id":"4","last_reported":1738629923,"current_range_meters":36400,"station_id":"cki0cbj6b192h4jlfktg","pricing_plan_id":"cebpf4jnsgd1na2vs0mg"},{"bike_id":"30d68ac6-7ba6-4749-8154-bf914e372a6a","system_id":"levelo_inurba_marseille","lat":43.32349,"lon":5.38877,"is_reserved":false,"is_disabled":false,"rental_uris":{"android":"levelo://app?vid=30d68ac6-7ba6-4749-8154-bf914e372a6a","ios":"levelo://app?vid=30d68ac6-7ba6-4749-8154-bf914e372a6a"},"vehicle_type_id":"4","last_reported":1738629923,"current_range_meters":38800,"station_id":"ce4bhqp2rcd13ifvqhog","pricing_plan_id":"cebpf4jnsgd1na2vs0mg"},{"bike_id":"70db77fa-5101-4cc3-b5ef-7ecd27e20697","system_id":"levelo_inurba_marseille","lat":43.23053,"lon":5.35501,"is_reserved":false,"is_disabled":false,"rental_uris":{"android":"levelo://app?vid=70db77fa-5101-4cc3-b5ef-7ecd27e20697","ios":"levelo://app?vid=70db77fa-5101-4cc3-b5ef-7ecd27e20697"},"vehicle_type_id":"4","last_reported":1738629923,"current_range_meters":26000,"station_id":"cpo3342slgdg3j2ifvpg","pricing_plan_id":"cebpf4jnsgd1na2vs0mg"},{"bike_id":"f6dacf6b-80aa-4ed3-b60f-a447a5860aff","system_id":"levelo_inurba_marseille","lat":43.2922,"lon":5.36068,"is_reserved":false,"is_disabled":false,"rental_uris":{"android":"levelo://app?vid=f6dacf6b-80aa-4ed3-b60f-a447a5860aff","ios":"levelo://app?vid=f6dacf6b-80aa-4ed3-b60f-a447a5860aff"},"vehicle_type_id":"4","last_reported":1738629923,"current_range_meters":16400,"station_id":"ce4bhbh2rcd13ifvqeqg","pricing_plan_id":"cebpf4jnsgd1na2vs0mg"},{"bike_id":"e33c097b-83d0-40ec-9fbf-364e5b0a9ef8","system_id":"levelo_inurba_marseille","lat":43.231961,"lon":5.355449,"is_reserved":false,"is_disabled":false,"rental_uris":{"android":"levelo://app?vid=e33c097b-83d0-40ec-9fbf-364e5b0a9ef8","ios":"levelo://app?vid=e33c097b-83d0-40ec-9fbf-364e5b0a9ef8"},"vehicle_type_id":"4","last_reported":1738629923,"current_range_meters":38800,"station_id":"ce4bhu92rcd13ifvqi70","pricing_plan_id":"cebpf4jnsgd1na2vs0mg"},{"bike_id":"561e8cc1-d7cd-46b3-9f08-9c099770ed95","system_id":"levelo_inurba_marseille","lat":43.28932,"lon":5.36643,"is_reserved":false,"is_disabled":false,"rental_uris":{"android":"levelo://app?vid=561e8cc1-d7cd-46b3-9f08-9c099770ed95","ios":"levelo://app?vid=561e8cc1-d7cd-46b3-9f08-9c099770ed95"},"vehicle_type_id":"4","last_reported":1738629923,"current_range_meters":12400,"station_id":"ce4bhap2rcd13ifvqek0","pricing_plan_id":"cebpf4jnsgd1na2vs0mg"},{"bike_id":"1c76b995-c945-44fc-a497-fc47eb597fd6","system_id":"levelo_inurba_marseille","lat":43.288479,"lon":5.358463,"is_reserved":false,"is_disabled":false,"rental_uris":{"android":"levelo://app?vid=1c76b995-c945-44fc-a497-fc47eb597fd6","ios":"levelo://app?vid=1c76b995-c945-44fc-a497-fc47eb597fd6"},"vehicle_type_id":"4","last_reported":1738629923,"current_range_meters":37600,"station_id":"ce4bhb12rcd13ifvqem0","pricing_plan_id":"cebpf4jnsgd1na2vs0mg"},{"bike_id":"272a6181-bfe1-4f12-b3df-d057573256ce","system_id":"levelo_inurba_marseille","lat":43.28445,"lon":5.35882,"is_reserved":false,"is_disabled":false,"rental_uris":{"android":"levelo://app?vid=272a6181-bfe1-4f12-b3df-d057573256ce","ios":"levelo://app?vid=272a6181-bfe1-4f12-b3df-d057573256ce"},"vehicle_type_id":"4","last_reported":1738629923,"current_range_meters":38400,"station_id":"ce4bhah2rcd13ifvqei0","pricing_plan_id":"cebpf4jnsgd1na2vs0mg"},{"bike_id":"07d2f310-751b-4ba4-99ee-8b923750faba","system_id":"levelo_inurba_marseille","lat":43.29804,"lon":5.39351,"is_reserved":false,"is_disabled":false,"rental_uris":{"android":"levelo://app?vid=07d2f310-751b-4ba4-99ee-8b923750faba","ios":"levelo://app?vid=07d2f310-751b-4ba4-99ee-8b923750faba"},"vehicle_type_id":"4","last_reported":1738629923,"current_range_meters":29600,"station_id":"chh1huq6cuj3fo74tm60","pricing_plan_id":"cebpf4jnsgd1na2vs0mg"},{"bike_id":"74e38673-59cf-412f-b2bf-faca5f349f67","system_id":"levelo_inurba_marseille","lat":43.25863,"lon":5.39901,"is_reserved":false,"is_disabled":false,"rental_uris":{"android":"levelo://app?vid=74e38673-59cf-412f-b2bf-faca5f349f67","ios":"levelo://app?vid=74e38673-59cf-412f-b2bf-faca5f349f67"},"vehicle_type_id":"4","last_reported":1738629923,"current_range_meters":39200,"station_id":"ce4bhl92rcd13ifvqghg","pricing_plan_id":"cebpf4jnsgd1na2vs0mg"},{"bike_id":"d95125c6-c745-4f2f-8a65-9fe0ea75ec43","system_id":"levelo_inurba_marseille","lat":43.28501,"lon":5.35848,"is_reserved":false,"is_disabled":false,"rental_uris":{"android":"levelo://app?vid=d95125c6-c745-4f2f-8a65-9fe0ea75ec43","ios":"levelo://app?vid=d95125c6-c745-4f2f-8a65-9fe0ea75ec43"},"vehicle_type_id":"4","last_reported":1738629923,"current_range_meters":30800,"station_id":"ce4bhah2rcd13ifvqei0","pricing_plan_id":"cebpf4jnsgd1na2vs0mg"},{"bike_id":"89e0fb27-5f26-4cfe-9f61-e8651117733f","system_id":"levelo_inurba_marseille","lat":43.229239,"lon":5.353756,"is_reserved":false,"is_disabled":false,"rental_uris":{"android":"levelo://app?vid=89e0fb27-5f26-4cfe-9f61-e8651117733f","ios":"levelo://app?vid=89e0fb27-5f26-4cfe-9f61-e8651117733f"},"vehicle_type_id":"4","last_reported":1738629923,"current_range_meters":38800,"station_id":"cpo3532slgdg3j2ikp40","pricing_plan_id":"cebpf4jnsgd1na2vs0mg"},{"bike_id":"3bb3b37a-9802-41d5-894a-e5e76ec7972f","system_id":"levelo_inurba_marseille","lat":43.2892,"lon":5.35616,"is_reserved":false,"is_disabled":false,"rental_uris":{"android":"levelo://app?vid=3bb3b37a-9802-41d5-894a-e5e76ec7972f","ios":"levelo://app?vid=3bb3b37a-9802-41d5-894a-e5e76ec7972f"},"vehicle_type_id":"4","last_reported":1738629923,"current_range_meters":38400,"station_id":"ce4bhb92rcd13ifvqen0","pricing_plan_id":"cebpf4jnsgd1na2vs0mg"},{"bike_id":"cfdf0950-ea3c-4b92-804b-57a6b13d3e7a","system_id":"levelo_inurba_marseille","lat":43.274974,"lon":5.424509,"is_reserved":false,"is_disabled":false,"rental_uris":{"android":"levelo://app?vid=cfdf0950-ea3c-4b92-804b-57a6b13d3e7a","ios":"levelo://app?vid=cfdf0950-ea3c-4b92-804b-57a6b13d3e7a"},"vehicle_type_id":"4","last_reported":1738629923,"current_range_meters":36000,"station_id":"ce4bhn92rcd13ifvqgrg","pricing_plan_id":"cebpf4jnsgd1na2vs0mg"},{"bike_id":"d9a0037b-ea73-422f-86c2-72b990424241","system_id":"levelo_inurba_marseille","lat":43.23971,"lon":5.36629,"is_reserved":false,"is_disabled":false,"rental_uris":{"android":"levelo://app?vid=d9a0037b-ea73-422f-86c2-72b990424241","ios":"levelo://app?vid=d9a0037b-ea73-422f-86c2-72b990424241"},"vehicle_type_id":"4","last_reported":1738629923,"current_range_meters":16800,"station_id":"ce4bhi12rcd13ifvqfp0","pricing_plan_id":"cebpf4jnsgd1na2vs0mg"},{"bike_id":"de27dfc9-f2fb-4778-8226-69a993c0eb2e","system_id":"levelo_inurba_marseille","lat":43.24575,"lon":5.39502,"is_reserved":false,"is_disabled":false,"rental_uris":{"android":"levelo://app?vid=de27dfc9-f2fb-4778-8226-69a993c0eb2e","ios":"levelo://app?vid=de27dfc9-f2fb-4778-8226-69a993c0eb2e"},"vehicle_type_id":"4","last_reported":1738629923,"current_range_meters":38000,"station_id":"ce4bhlp2rcd13ifvqgjg","pricing_plan_id":"cebpf4jnsgd1na2vs0mg"},{"bike_id":"bbacedf1-5d29-49eb-aad8-970862565212","system_id":"levelo_inurba_marseille","lat":43.31106,"lon":5.37774,"is_reserved":false,"is_disabled":false,"rental_uris":{"android":"levelo://app?vid=bbacedf1-5d29-49eb-aad8-970862565212","ios":"levelo://app?vid=bbacedf1-5d29-49eb-aad8-970862565212"},"vehicle_type_id":"4","last_reported":1738629923,"current_range_meters":38800,"station_id":"ce4bgt92rcd13ifvqcg0","pricing_plan_id":"cebpf4jnsgd1na2vs0mg"},{"bike_id":"8b4643de-8d66-4ef9-a182-264baeb716f4","system_id":"levelo_inurba_marseille","lat":43.28711,"lon":5.37931,"is_reserved":false,"is_disabled":false,"rental_uris":{"android":"levelo://app?vid=8b4643de-8d66-4ef9-a182-264baeb716f4","ios":"levelo://app?vid=8b4643de-8d66-4ef9-a182-264baeb716f4"},"vehicle_type_id":"4","last_reported":1738629923,"current_range_meters":27600,"station_id":"ce4bh9p2rcd13ifvqec0","pricing_plan_id":"cebpf4jnsgd1na2vs0mg"},{"bike_id":"f15d8bba-7379-40a8-b1fd-ac563c3c8549","system_id":"levelo_inurba_marseille","lat":43.24544,"lon":5.39534,"is_reserved":false,"is_disabled":false,"rental_uris":{"android":"levelo://app?vid=f15d8bba-7379-40a8-b1fd-ac563c3c8549","ios":"levelo://app?vid=f15d8bba-7379-40a8-b1fd-ac563c3c8549"},"vehicle_type_id":"4","last_reported":1738629923,"current_range_meters":19600,"station_id":"ce4bhlp2rcd13ifvqgjg","pricing_plan_id":"cebpf4jnsgd1na2vs0mg"},{"bike_id":"8800dd5a-d74f-4ee5-bc96-f6630250f422","system_id":"levelo_inurba_marseille","lat":43.23962,"lon":5.3665,"is_reserved":false,"is_disabled":false,"rental_uris":{"android":"levelo://app?vid=8800dd5a-d74f-4ee5-bc96-f6630250f422","ios":"levelo://app?vid=8800dd5a-d74f-4ee5-bc96-f6630250f422"},"vehicle_type_id":"4","last_reported":1738629923,"current_range_meters":35200,"station_id":"ce4bhi12rcd13ifvqfp0","pricing_plan_id":"cebpf4jnsgd1na2vs0mg"},{"bike_id":"8270da70-a2d5-49f3-9df0-efc0215a4d15","system_id":"levelo_inurba_marseille","lat":43.32333,"lon":5.40612,"is_reserved":false,"is_disabled":false,"rental_uris":{"android":"levelo://app?vid=8270da70-a2d5-49f3-9df0-efc0215a4d15","ios":"levelo://app?vid=8270da70-a2d5-49f3-9df0-efc0215a4d15"},"vehicle_type_id":"4","last_reported":1738629923,"current_range_meters":38800,"station_id":"ce4bhq92rcd13ifvqhjg","pricing_plan_id":"cebpf4jnsgd1na2vs0mg"},{"bike_id":"f793b0f1-dc3d-4665-8119-792bda6e89e8","system_id":"levelo_inurba_marseille","lat":43.23182,"lon":5.3999,"is_reserved":false,"is_disabled":false,"rental_uris":{"android":"levelo://app?vid=f793b0f1-dc3d-4665-8119-792bda6e89e8","ios":"levelo://app?vid=f793b0f1-dc3d-4665-8119-792bda6e89e8"},"vehicle_type_id":"4","last_reported":1738629923,"current_range_meters":4800,"station_id":"ce4bhn12rcd13ifvqgqg","pricing_plan_id":"cebpf4jnsgd1na2vs0mg"},{"bike_id":"9a246337-8b93-40ac-8041-a37c41945aaf","system_id":"levelo_inurba_marseille","lat":43.26957,"lon":5.40247,"is_reserved":false,"is_disabled":false,"rental_uris":{"android":"levelo://app?vid=9a246337-8b93-40ac-8041-a37c41945aaf","ios":"levelo://app?vid=9a246337-8b93-40ac-8041-a37c41945aaf"},"vehicle_type_id":"4","last_reported":1738629923,"current_range_meters":8400,"station_id":"cjm6bp8fraef2m0cb0m0","pricing_plan_id":"cebpf4jnsgd1na2vs0mg"},{"bike_id":"3bee43d5-e27e-4692-8630-5bfa4bfc3f39","system_id":"levelo_inurba_marseille","lat":43.32282,"lon":5.3834,"is_reserved":false,"is_disabled":false,"rental_uris":{"android":"levelo://app?vid=3bee43d5-e27e-4692-8630-5bfa4bfc3f39","ios":"levelo://app?vid=3bee43d5-e27e-4692-8630-5bfa4bfc3f39"},"vehicle_type_id":"4","last_reported":1738629923,"current_range_meters":27200,"station_id":"","pricing_plan_id":"cebpf4jnsgd1na2vs0mg"},{"bike_id":"dff19049-5568-464f-8195-da5ffd56d6e5","system_id":"levelo_inurba_marseille","lat":43.29706,"lon":5.36601,"is_reserved":false,"is_disabled":false,"rental_uris":{"android":"levelo://app?vid=dff19049-5568-464f-8195-da5ffd56d6e5","ios":"levelo://app?vid=dff19049-5568-464f-8195-da5ffd56d6e5"},"vehicle_type_id":"4","last_reported":1738629923,"current_range_meters":38800,"station_id":"ce4bgn12rcd13ifvqbt0","pricing_plan_id":"cebpf4jnsgd1na2vs0mg"},{"bike_id":"cb9e092a-81a9-4536-b645-1d1f9d6be896","system_id":"levelo_inurba_marseille","lat":43.28399,"lon":5.37531,"is_reserved":false,"is_disabled":false,"rental_uris":{"android":"levelo://app?vid=cb9e092a-81a9-4536-b645-1d1f9d6be896","ios":"levelo://app?vid=cb9e092a-81a9-4536-b645-1d1f9d6be896"},"vehicle_type_id":"4","last_reported":1738629923,"current_range_meters":12800,"station_id":"ce4bh412rcd13ifvqds0","pricing_plan_id":"cebpf4jnsgd1na2vs0mg"},{"bike_id":"706c6195-eb74-41bc-add5-7abef4d5033c","system_id":"levelo_inurba_marseille","lat":43.31273,"lon":5.40166,"is_reserved":false,"is_disabled":false,"rental_uris":{"android":"levelo://app?vid=706c6195-eb74-41bc-add5-7abef4d5033c","ios":"levelo://app?vid=706c6195-eb74-41bc-add5-7abef4d5033c"},"vehicle_type_id":"4","last_reported":1738629923,"current_range_meters":7200,"station_id":"ce4bh092rcd13ifvqd30","pricing_plan_id":"cebpf4jnsgd1na2vs0mg"},{"bike_id":"190f01fd-2b34-4b4c-90cd-f2f9af442a24","system_id":"levelo_inurba_marseille","lat":43.30648,"lon":5.4009,"is_reserved":false,"is_disabled":false,"rental_uris":{"android":"levelo://app?vid=190f01fd-2b34-4b4c-90cd-f2f9af442a24","ios":"levelo://app?vid=190f01fd-2b34-4b4c-90cd-f2f9af442a24"},"vehicle_type_id":"4","last_reported":1738629923,"current_range_meters":27200,"station_id":"ce4bh112rcd13ifvqda0","pricing_plan_id":"cebpf4jnsgd1na2vs0mg"},{"bike_id":"3ab0ceb6-cd89-477f-8038-1be761eb4bda","system_id":"levelo_inurba_marseille","lat":43.2921,"lon":5.36053,"is_reserved":false,"is_disabled":false,"rental_uris":{"android":"levelo://app?vid=3ab0ceb6-cd89-477f-8038-1be761eb4bda","ios":"levelo://app?vid=3ab0ceb6-cd89-477f-8038-1be761eb4bda"},"vehicle_type_id":"4","last_reported":1738629923,"current_range_meters":16400,"station_id":"ce4bhbh2rcd13ifvqeqg","pricing_plan_id":"cebpf4jnsgd1na2vs0mg"},{"bike_id":"8e367088-52d8-4cc0-b329-31afa3683a7d","system_id":"levelo_inurba_marseille","lat":43.25705,"lon":5.41097,"is_reserved":false,"is_disabled":false,"rental_uris":{"android":"levelo://app?vid=8e367088-52d8-4cc0-b329-31afa3683a7d","ios":"levelo://app?vid=8e367088-52d8-4cc0-b329-31afa3683a7d"},"vehicle_type_id":"4","last_reported":1738629923,"current_range_meters":38800,"station_id":"ce4bhkp2rcd13ifvqgd0","pricing_plan_id":"cebpf4jnsgd1na2vs0mg"},{"bike_id":"8e599b88-5a17-40c8-a99e-aa5dfac0c156","system_id":"levelo_inurba_marseille","lat":43.24824,"lon":5.37462,"is_reserved":false,"is_disabled":false,"rental_uris":{"android":"levelo://app?vid=8e599b88-5a17-40c8-a99e-aa5dfac0c156","ios":"levelo://app?vid=8e599b88-5a17-40c8-a99e-aa5dfac0c156"},"vehicle_type_id":"4","last_reported":1738629923,"current_range_meters":28400,"station_id":"ce4bhgh2rcd13ifvqfb0","pricing_plan_id":"cebpf4jnsgd1na2vs0mg"},{"bike_id":"fe745455-0613-455d-b522-adcf02e49ffc","system_id":"levelo_inurba_marseille","lat":43.28461,"lon":5.35888,"is_reserved":false,"is_disabled":false,"rental_uris":{"android":"levelo://app?vid=fe745455-0613-455d-b522-adcf02e49ffc","ios":"levelo://app?vid=fe745455-0613-455d-b522-adcf02e49ffc"},"vehicle_type_id":"4","last_reported":1738629923,"current_range_meters":17200,"station_id":"ce4bhah2rcd13ifvqei0","pricing_plan_id":"cebpf4jnsgd1na2vs0mg"},{"bike_id":"a7707bf1-29c6-4f48-976f-2880303742fc","system_id":"levelo_inurba_marseille","lat":43.29526,"lon":5.39008,"is_reserved":false,"is_disabled":true,"rental_uris":{"android":"levelo://app?vid=a7707bf1-29c6-4f48-976f-2880303742fc","ios":"levelo://app?vid=a7707bf1-29c6-4f48-976f-2880303742fc"},"vehicle_type_id":"4","last_reported":1738629923,"current_range_meters":16400,"station_id":"ce4bh3p2rcd13ifvqdp0","pricing_plan_id":"cebpf4jnsgd1na2vs0mg"},{"bike_id":"14093a1f-103e-4dfd-886e-e2bf40e444e7","system_id":"levelo_inurba_marseille","lat":43.304181,"lon":5.397516,"is_reserved":false,"is_disabled":false,"rental_uris":{"android":"levelo://app?vid=14093a1f-103e-4dfd-886e-e2bf40e444e7","ios":"levelo://app?vid=14093a1f-103e-4dfd-886e-e2bf40e444e7"},"vehicle_type_id":"4","last_reported":1738629923,"current_range_meters":38800,"station_id":"ce4bh092rcd13ifvqd20","pricing_plan_id":"cebpf4jnsgd1na2vs0mg"},{"bike_id":"fe7841ee-6c3b-41b6-ba59-419273b65ba5","system_id":"levelo_inurba_marseille","lat":43.29254,"lon":5.409,"is_reserved":false,"is_disabled":false,"rental_uris":{"android":"levelo://app?vid=fe7841ee-6c3b-41b6-ba59-419273b65ba5","ios":"levelo://app?vid=fe7841ee-6c3b-41b6-ba59-419273b65ba5"},"vehicle_type_id":"4","last_reported":1738629923,"current_range_meters":38800,"station_id":"ce4bh192rcd13ifvqdc0","pricing_plan_id":"cebpf4jnsgd1na2vs0mg"},{"bike_id":"b9687930-f2fe-4cdc-aefe-cf832adcf3ee","system_id":"levelo_inurba_marseille","lat":43.255778,"lon":5.382399,"is_reserved":false,"is_disabled":false,"rental_uris":{"android":"levelo://app?vid=b9687930-f2fe-4cdc-aefe-cf832adcf3ee","ios":"levelo://app?vid=b9687930-f2fe-4cdc-aefe-cf832adcf3ee"},"vehicle_type_id":"4","last_reported":1738629923,"current_range_meters":8400,"station_id":"ce4bhih2rcd13ifvqfs0","pricing_plan_id":"cebpf4jnsgd1na2vs0mg"},{"bike_id":"ef0b827a-3bfd-40d9-b97f-011d633ca06b","system_id":"levelo_inurba_marseille","lat":43.302487,"lon":5.400679,"is_reserved":false,"is_disabled":false,"rental_uris":{"android":"levelo://app?vid=ef0b827a-3bfd-40d9-b97f-011d633ca06b","ios":"levelo://app?vid=ef0b827a-3bfd-40d9-b97f-011d633ca06b"},"vehicle_type_id":"4","last_reported":1738629923,"current_range_meters":24000,"station_id":"ce4bgvh2rcd13ifvqcs0","pricing_plan_id":"cebpf4jnsgd1na2vs0mg"},{"bike_id":"cfbc261f-ee24-4ecc-8865-0b410e61ded6","system_id":"levelo_inurba_marseille","lat":43.33616,"lon":5.40996,"is_reserved":false,"is_disabled":false,"rental_uris":{"android":"levelo://app?vid=cfbc261f-ee24-4ecc-8865-0b410e61ded6","ios":"levelo://app?vid=cfbc261f-ee24-4ecc-8865-0b410e61ded6"},"vehicle_type_id":"4","last_reported":1738629923,"current_range_meters":8000,"station_id":"ce4bhqh2rcd13ifvqhmg","pricing_plan_id":"cebpf4jnsgd1na2vs0mg"},{"bike_id":"ea0afcf9-5132-45fb-99e4-e388ec64503c","system_id":"levelo_inurba_marseille","lat":43.25579,"lon":5.3823,"is_reserved":false,"is_disabled":false,"rental_uris":{"android":"levelo://app?vid=ea0afcf9-5132-45fb-99e4-e388ec64503c","ios":"levelo://app?vid=ea0afcf9-5132-45fb-99e4-e388ec64503c"},"vehicle_type_id":"4","last_reported":1738629923,"current_range_meters":37600,"station_id":"ce4bhih2rcd13ifvqfs0","pricing_plan_id":"cebpf4jnsgd1na2vs0mg"},{"bike_id":"70369681-e619-4b48-b459-3a84c7ba413d","system_id":"levelo_inurba_marseille","lat":43.29636,"lon":5.37136,"is_reserved":false,"is_disabled":false,"rental_uris":{"android":"levelo://app?vid=70369681-e619-4b48-b459-3a84c7ba413d","ios":"levelo://app?vid=70369681-e619-4b48-b459-3a84c7ba413d"},"vehicle_type_id":"4","last_reported":1738629923,"current_range_meters":33200,"station_id":"ce4bgnh2rcd13ifvqc0g","pricing_plan_id":"cebpf4jnsgd1na2vs0mg"},{"bike_id":"7dd68174-1d38-48a0-87e4-e5911f1e11f7","system_id":"levelo_inurba_marseille","lat":43.28833,"lon":5.35843,"is_reserved":false,"is_disabled":false,"rental_uris":{"android":"levelo://app?vid=7dd68174-1d38-48a0-87e4-e5911f1e11f7","ios":"levelo://app?vid=7dd68174-1d38-48a0-87e4-e5911f1e11f7"},"vehicle_type_id":"4","last_reported":1738629923,"current_range_meters":38800,"station_id":"ce4bhb12rcd13ifvqem0","pricing_plan_id":"cebpf4jnsgd1na2vs0mg"},{"bike_id":"61245831-2a5b-499b-a7bd-326ecf7b0019","system_id":"levelo_inurba_marseille","lat":43.28388,"lon":5.37537,"is_reserved":false,"is_disabled":false,"rental_uris":{"android":"levelo://app?vid=61245831-2a5b-499b-a7bd-326ecf7b0019","ios":"levelo://app?vid=61245831-2a5b-499b-a7bd-326ecf7b0019"},"vehicle_type_id":"4","last_reported":1738629923,"current_range_meters":23200,"station_id":"ce4bh412rcd13ifvqds0","pricing_plan_id":"cebpf4jnsgd1na2vs0mg"},{"bike_id":"4dc550ec-37dd-49b9-9f15-2e9ac146c935","system_id":"levelo_inurba_marseille","lat":43.28459,"lon":5.35877,"is_reserved":false,"is_disabled":false,"rental_uris":{"android":"levelo://app?vid=4dc550ec-37dd-49b9-9f15-2e9ac146c935","ios":"levelo://app?vid=4dc550ec-37dd-49b9-9f15-2e9ac146c935"},"vehicle_type_id":"4","last_reported":1738629923,"current_range_meters":32000,"station_id":"ce4bhah2rcd13ifvqei0","pricing_plan_id":"cebpf4jnsgd1na2vs0mg"},{"bike_id":"d9edc55f-495f-4c48-b545-15a5790aba7f","system_id":"levelo_inurba_marseille","lat":43.31169,"lon":5.38713,"is_reserved":false,"is_disabled":false,"rental_uris":{"android":"levelo://app?vid=d9edc55f-495f-4c48-b545-15a5790aba7f","ios":"levelo://app?vid=d9edc55f-495f-4c48-b545-15a5790aba7f"},"vehicle_type_id":"4","last_reported":1738629923,"current_range_meters":38400,"station_id":"ce4bgv12rcd13ifvqcp0","pricing_plan_id":"cebpf4jnsgd1na2vs0mg"},{"bike_id":"20bca8e8-37e6-4d29-982c-68d2be9250be","system_id":"levelo_inurba_marseille","lat":43.285716,"lon":5.394972,"is_reserved":false,"is_disabled":false,"rental_uris":{"android":"levelo://app?vid=20bca8e8-37e6-4d29-982c-68d2be9250be","ios":"levelo://app?vid=20bca8e8-37e6-4d29-982c-68d2be9250be"},"vehicle_type_id":"4","last_reported":1738629923,"current_range_meters":27200,"station_id":"ce4bh292rcd13ifvqdg0","pricing_plan_id":"cebpf4jnsgd1na2vs0mg"},{"bike_id":"6798d5d3-70d0-4ecd-9426-a330886bca53","system_id":"levelo_inurba_marseille","lat":43.25118,"lon":5.40321,"is_reserved":false,"is_disabled":false,"rental_uris":{"android":"levelo://app?vid=6798d5d3-70d0-4ecd-9426-a330886bca53","ios":"levelo://app?vid=6798d5d3-70d0-4ecd-9426-a330886bca53"},"vehicle_type_id":"4","last_reported":1738629923,"current_range_meters":26000,"station_id":"ce4bhlh2rcd13ifvqgig","pricing_plan_id":"cebpf4jnsgd1na2vs0mg"},{"bike_id":"0416cf78-7863-4eec-b5e5-3557e2310ee1","system_id":"levelo_inurba_marseille","lat":43.26792,"lon":5.394291,"is_reserved":false,"is_disabled":true,"rental_uris":{"android":"levelo://app?vid=0416cf78-7863-4eec-b5e5-3557e2310ee1","ios":"levelo://app?vid=0416cf78-7863-4eec-b5e5-3557e2310ee1"},"vehicle_type_id":"4","last_reported":1738629923,"current_range_meters":0,"station_id":"ce4bhh12rcd13ifvqfg0","pricing_plan_id":"cebpf4jnsgd1na2vs0mg"},{"bike_id":"96882b58-a2e4-4087-a18d-18e516c835e0","system_id":"levelo_inurba_marseille","lat":43.30628,"lon":5.40088,"is_reserved":false,"is_disabled":false,"rental_uris":{"android":"levelo://app?vid=96882b58-a2e4-4087-a18d-18e516c835e0","ios":"levelo://app?vid=96882b58-a2e4-4087-a18d-18e516c835e0"},"vehicle_type_id":"4","last_reported":1738629923,"current_range_meters":39200,"station_id":"ce4bh112rcd13ifvqda0","pricing_plan_id":"cebpf4jnsgd1na2vs0mg"},{"bike_id":"d956c0fa-8e81-4a5c-a819-66560ebeacd2","system_id":"levelo_inurba_marseille","lat":43.28157,"lon":5.42654,"is_reserved":false,"is_disabled":false,"rental_uris":{"android":"levelo://app?vid=d956c0fa-8e81-4a5c-a819-66560ebeacd2","ios":"levelo://app?vid=d956c0fa-8e81-4a5c-a819-66560ebeacd2"},"vehicle_type_id":"4","last_reported":1738629923,"current_range_meters":8400,"station_id":"ce4bhnh2rcd13ifvqgug","pricing_plan_id":"cebpf4jnsgd1na2vs0mg"},{"bike_id":"da34d4f8-fcc3-4716-a4b5-ebb5e90aeefc","system_id":"levelo_inurba_marseille","lat":43.313289,"lon":5.397113,"is_reserved":false,"is_disabled":false,"rental_uris":{"android":"levelo://app?vid=da34d4f8-fcc3-4716-a4b5-ebb5e90aeefc","ios":"levelo://app?vid=da34d4f8-fcc3-4716-a4b5-ebb5e90aeefc"},"vehicle_type_id":"4","last_reported":1738629923,"current_range_meters":38800,"station_id":"ce4bgvp2rcd13ifvqcu0","pricing_plan_id":"cebpf4jnsgd1na2vs0mg"},{"bike_id":"21c89297-c791-4464-9214-e643c17f7aa6","system_id":"levelo_inurba_marseille","lat":43.31321,"lon":5.39704,"is_reserved":false,"is_disabled":false,"rental_uris":{"android":"levelo://app?vid=21c89297-c791-4464-9214-e643c17f7aa6","ios":"levelo://app?vid=21c89297-c791-4464-9214-e643c17f7aa6"},"vehicle_type_id":"4","last_reported":1738629923,"current_range_meters":38000,"station_id":"ce4bgvp2rcd13ifvqcu0","pricing_plan_id":"cebpf4jnsgd1na2vs0mg"},{"bike_id":"ead1a90f-2507-43c6-815c-131a52640323","system_id":"levelo_inurba_marseille","lat":43.28103,"lon":5.3784,"is_reserved":false,"is_disabled":false,"rental_uris":{"android":"levelo://app?vid=ead1a90f-2507-43c6-815c-131a52640323","ios":"levelo://app?vid=ead1a90f-2507-43c6-815c-131a52640323"},"vehicle_type_id":"4","last_reported":1738629923,"current_range_meters":30000,"station_id":"ce4bha12rcd13ifvqee0","pricing_plan_id":"cebpf4jnsgd1na2vs0mg"},{"bike_id":"d3f767b3-28c7-4c7d-9ffa-3a59559dd085","system_id":"levelo_inurba_marseille","lat":43.27053,"lon":5.4227,"is_reserved":false,"is_disabled":false,"rental_uris":{"android":"levelo://app?vid=d3f767b3-28c7-4c7d-9ffa-3a59559dd085","ios":"levelo://app?vid=d3f767b3-28c7-4c7d-9ffa-3a59559dd085"},"vehicle_type_id":"4","last_reported":1738629923,"current_range_meters":8400,"station_id":"ce4bhk92rcd13ifvqgb0","pricing_plan_id":"cebpf4jnsgd1na2vs0mg"},{"bike_id":"ea790d70-597c-4d4a-8ead-75aafe1605d1","system_id":"levelo_inurba_marseille","lat":43.260616,"lon":5.393908,"is_reserved":false,"is_disabled":false,"rental_uris":{"android":"levelo://app?vid=ea790d70-597c-4d4a-8ead-75aafe1605d1","ios":"levelo://app?vid=ea790d70-597c-4d4a-8ead-75aafe1605d1"},"vehicle_type_id":"4","last_reported":1738629923,"current_range_meters":39200,"station_id":"ce4bhh92rcd13ifvqfj0","pricing_plan_id":"cebpf4jnsgd1na2vs0mg"},{"bike_id":"35e900ce-d69f-464a-bbd5-cee92e0449da","system_id":"levelo_inurba_marseille","lat":43.31358,"lon":5.38498,"is_reserved":false,"is_disabled":false,"rental_uris":{"android":"levelo://app?vid=35e900ce-d69f-464a-bbd5-cee92e0449da","ios":"levelo://app?vid=35e900ce-d69f-464a-bbd5-cee92e0449da"},"vehicle_type_id":"4","last_reported":1738629923,"current_range_meters":32800,"station_id":"ce4bgt92rcd13ifvqcf0","pricing_plan_id":"cebpf4jnsgd1na2vs0mg"},{"bike_id":"71ec8193-f671-4e06-9ff4-9da8f309a0bc","system_id":"levelo_inurba_marseille","lat":43.28464,"lon":5.38433,"is_reserved":false,"is_disabled":true,"rental_uris":{"android":"levelo://app?vid=71ec8193-f671-4e06-9ff4-9da8f309a0bc","ios":"levelo://app?vid=71ec8193-f671-4e06-9ff4-9da8f309a0bc"},"vehicle_type_id":"4","last_reported":1738629923,"current_range_meters":21600,"station_id":"ce4bh512rcd13ifvqe3g","pricing_plan_id":"cebpf4jnsgd1na2vs0mg"},{"bike_id":"9a153ca3-9d91-4203-b42e-9c96ff5dd69d","system_id":"levelo_inurba_marseille","lat":43.28934,"lon":5.36399,"is_reserved":false,"is_disabled":false,"rental_uris":{"android":"levelo://app?vid=9a153ca3-9d91-4203-b42e-9c96ff5dd69d","ios":"levelo://app?vid=9a153ca3-9d91-4203-b42e-9c96ff5dd69d"},"vehicle_type_id":"4","last_reported":1738629923,"current_range_meters":38800,"station_id":"ce4bhc92rcd13ifvqetg","pricing_plan_id":"cebpf4jnsgd1na2vs0mg"},{"bike_id":"31370946-063b-4a9b-8fe9-7d03c9ed266a","system_id":"levelo_inurba_marseille","lat":43.25124,"lon":5.40314,"is_reserved":false,"is_disabled":false,"rental_uris":{"android":"levelo://app?vid=31370946-063b-4a9b-8fe9-7d03c9ed266a","ios":"levelo://app?vid=31370946-063b-4a9b-8fe9-7d03c9ed266a"},"vehicle_type_id":"4","last_reported":1738629923,"current_range_meters":38800,"station_id":"ce4bhlh2rcd13ifvqgig","pricing_plan_id":"cebpf4jnsgd1na2vs0mg"},{"bike_id":"af6afeaf-502f-42e9-9f5e-56ed1c47c923","system_id":"levelo_inurba_marseille","lat":43.2834,"lon":5.38111,"is_reserved":false,"is_disabled":false,"rental_uris":{"android":"levelo://app?vid=af6afeaf-502f-42e9-9f5e-56ed1c47c923","ios":"levelo://app?vid=af6afeaf-502f-42e9-9f5e-56ed1c47c923"},"vehicle_type_id":"4","last_reported":1738629923,"current_range_meters":33200,"station_id":"ce4bh412rcd13ifvqdr0","pricing_plan_id":"cebpf4jnsgd1na2vs0mg"},{"bike_id":"fba2d570-63f1-46ed-9880-2d27e601a924","system_id":"levelo_inurba_marseille","lat":43.28569,"lon":5.39492,"is_reserved":false,"is_disabled":false,"rental_uris":{"android":"levelo://app?vid=fba2d570-63f1-46ed-9880-2d27e601a924","ios":"levelo://app?vid=fba2d570-63f1-46ed-9880-2d27e601a924"},"vehicle_type_id":"4","last_reported":1738629923,"current_range_meters":14400,"station_id":"ce4bh292rcd13ifvqdg0","pricing_plan_id":"cebpf4jnsgd1na2vs0mg"},{"bike_id":"0a733b1d-f13b-444e-9e43-e39fc35c314a","system_id":"levelo_inurba_marseille","lat":43.28253,"lon":5.35093,"is_reserved":false,"is_disabled":false,"rental_uris":{"android":"levelo://app?vid=0a733b1d-f13b-444e-9e43-e39fc35c314a","ios":"levelo://app?vid=0a733b1d-f13b-444e-9e43-e39fc35c314a"},"vehicle_type_id":"4","last_reported":1738629923,"current_range_meters":8800,"station_id":"ce4bhbp2rcd13ifvqerg","pricing_plan_id":"cebpf4jnsgd1na2vs0mg"},{"bike_id":"88f6ec14-1047-428a-bfc8-ed7564b679d3","system_id":"levelo_inurba_marseille","lat":43.244,"lon":5.37062,"is_reserved":false,"is_disabled":false,"rental_uris":{"android":"levelo://app?vid=88f6ec14-1047-428a-bfc8-ed7564b679d3","ios":"levelo://app?vid=88f6ec14-1047-428a-bfc8-ed7564b679d3"},"vehicle_type_id":"4","last_reported":1738629923,"current_range_meters":6800,"station_id":"ce4bhhh2rcd13ifvqfk0","pricing_plan_id":"cebpf4jnsgd1na2vs0mg"},{"bike_id":"43d988d8-aa0a-4d83-b229-91c67838a3b7","system_id":"levelo_inurba_marseille","lat":43.30226,"lon":5.39472,"is_reserved":false,"is_disabled":false,"rental_uris":{"android":"levelo://app?vid=43d988d8-aa0a-4d83-b229-91c67838a3b7","ios":"levelo://app?vid=43d988d8-aa0a-4d83-b229-91c67838a3b7"},"vehicle_type_id":"4","last_reported":1738629923,"current_range_meters":38800,"station_id":"ce4bh0p2rcd13ifvqd70","pricing_plan_id":"cebpf4jnsgd1na2vs0mg"},{"bike_id":"8eb79678-984e-484b-a63b-0b2f7c106148","system_id":"levelo_inurba_marseille","lat":43.26927,"lon":5.38657,"is_reserved":false,"is_disabled":false,"rental_uris":{"android":"levelo://app?vid=8eb79678-984e-484b-a63b-0b2f7c106148","ios":"levelo://app?vid=8eb79678-984e-484b-a63b-0b2f7c106148"},"vehicle_type_id":"4","last_reported":1738629923,"current_range_meters":38000,"station_id":"ce4bhh92rcd13ifvqfh0","pricing_plan_id":"cebpf4jnsgd1na2vs0mg"},{"bike_id":"fad26299-4859-48d9-af16-461be31a4018","system_id":"levelo_inurba_marseille","lat":43.23197,"lon":5.39984,"is_reserved":false,"is_disabled":true,"rental_uris":{"android":"levelo://app?vid=fad26299-4859-48d9-af16-461be31a4018","ios":"levelo://app?vid=fad26299-4859-48d9-af16-461be31a4018"},"vehicle_type_id":"4","last_reported":1738629923,"current_range_meters":0,"station_id":"ce4bhn12rcd13ifvqgqg","pricing_plan_id":"cebpf4jnsgd1na2vs0mg"},{"bike_id":"e2bd0d25-b4ff-4b60-8ee6-03f051b283e1","system_id":"levelo_inurba_marseille","lat":43.30435,"lon":5.38891,"is_reserved":false,"is_disabled":false,"rental_uris":{"android":"levelo://app?vid=e2bd0d25-b4ff-4b60-8ee6-03f051b283e1","ios":"levelo://app?vid=e2bd0d25-b4ff-4b60-8ee6-03f051b283e1"},"vehicle_type_id":"4","last_reported":1738629923,"current_range_meters":38400,"station_id":"ce4bgk12rcd13ifvqbi0","pricing_plan_id":"cebpf4jnsgd1na2vs0mg"},{"bike_id":"1bccba03-0dba-4c87-ab16-976617f428c5","system_id":"levelo_inurba_marseille","lat":43.28617,"lon":5.35104,"is_reserved":false,"is_disabled":false,"rental_uris":{"android":"levelo://app?vid=1bccba03-0dba-4c87-ab16-976617f428c5","ios":"levelo://app?vid=1bccba03-0dba-4c87-ab16-976617f428c5"},"vehicle_type_id":"4","last_reported":1738629923,"current_range_meters":16400,"station_id":"ce4bhch2rcd13ifvqeug","pricing_plan_id":"cebpf4jnsgd1na2vs0mg"},{"bike_id":"4c1bcbda-b2a7-4910-8e6c-50ca691bf170","system_id":"levelo_inurba_marseille","lat":43.33729,"lon":5.3919,"is_reserved":false,"is_disabled":false,"rental_uris":{"android":"levelo://app?vid=4c1bcbda-b2a7-4910-8e6c-50ca691bf170","ios":"levelo://app?vid=4c1bcbda-b2a7-4910-8e6c-50ca691bf170"},"vehicle_type_id":"4","last_reported":1738629923,"current_range_meters":38000,"station_id":"ce4bhr92rcd13ifvqhsg","pricing_plan_id":"cebpf4jnsgd1na2vs0mg"},{"bike_id":"75316a8b-2d8a-4ecb-9d30-af5fc114d3c7","system_id":"levelo_inurba_marseille","lat":43.28843,"lon":5.35829,"is_reserved":false,"is_disabled":false,"rental_uris":{"android":"levelo://app?vid=75316a8b-2d8a-4ecb-9d30-af5fc114d3c7","ios":"levelo://app?vid=75316a8b-2d8a-4ecb-9d30-af5fc114d3c7"},"vehicle_type_id":"4","last_reported":1738629923,"current_range_meters":38000,"station_id":"ce4bhb12rcd13ifvqem0","pricing_plan_id":"cebpf4jnsgd1na2vs0mg"},{"bike_id":"03215b30-aa65-4b10-b451-ed50967ec88e","system_id":"levelo_inurba_marseille","lat":43.34435,"lon":5.35962,"is_reserved":false,"is_disabled":true,"rental_uris":{"android":"levelo://app?vid=03215b30-aa65-4b10-b451-ed50967ec88e","ios":"levelo://app?vid=03215b30-aa65-4b10-b451-ed50967ec88e"},"vehicle_type_id":"4","last_reported":1738629923,"current_range_meters":0,"station_id":"","pricing_plan_id":"cebpf4jnsgd1na2vs0mg"},{"bike_id":"59b90432-c14b-4d08-9f6a-6406881d0496","system_id":"levelo_inurba_marseille","lat":43.26935,"lon":5.40237,"is_reserved":false,"is_disabled":false,"rental_uris":{"android":"levelo://app?vid=59b90432-c14b-4d08-9f6a-6406881d0496","ios":"levelo://app?vid=59b90432-c14b-4d08-9f6a-6406881d0496"},"vehicle_type_id":"4","last_reported":1738629923,"current_range_meters":28800,"station_id":"cjm6bp8fraef2m0cb0m0","pricing_plan_id":"cebpf4jnsgd1na2vs0mg"},{"bike_id":"2adfaedc-761e-491f-92ad-a68e10122b3c","system_id":"levelo_inurba_marseille","lat":43.24679,"lon":5.38131,"is_reserved":false,"is_disabled":false,"rental_uris":{"android":"levelo://app?vid=2adfaedc-761e-491f-92ad-a68e10122b3c","ios":"levelo://app?vid=2adfaedc-761e-491f-92ad-a68e10122b3c"},"vehicle_type_id":"4","last_reported":1738629923,"current_range_meters":8800,"station_id":"ce4bhih2rcd13ifvqfr0","pricing_plan_id":"cebpf4jnsgd1na2vs0mg"},{"bike_id":"2509f9f2-7eec-4e24-bb35-90e3c0fac945","system_id":"levelo_inurba_marseille","lat":43.28452,"lon":5.35882,"is_reserved":false,"is_disabled":false,"rental_uris":{"android":"levelo://app?vid=2509f9f2-7eec-4e24-bb35-90e3c0fac945","ios":"levelo://app?vid=2509f9f2-7eec-4e24-bb35-90e3c0fac945"},"vehicle_type_id":"4","last_reported":1738629923,"current_range_meters":16800,"station_id":"ce4bhah2rcd13ifvqei0","pricing_plan_id":"cebpf4jnsgd1na2vs0mg"},{"bike_id":"d1d51ec2-e1ab-4b92-9a4b-f935b04ef436","system_id":"levelo_inurba_marseille","lat":43.24985,"lon":5.38945,"is_reserved":false,"is_disabled":false,"rental_uris":{"android":"levelo://app?vid=d1d51ec2-e1ab-4b92-9a4b-f935b04ef436","ios":"levelo://app?vid=d1d51ec2-e1ab-4b92-9a4b-f935b04ef436"},"vehicle_type_id":"4","last_reported":1738629923,"current_range_meters":26800,"station_id":"ce4bhgp2rcd13ifvqfd0","pricing_plan_id":"cebpf4jnsgd1na2vs0mg"},{"bike_id":"30e962a5-ed17-4781-966d-335d338660e0","system_id":"levelo_inurba_marseille","lat":43.3237,"lon":5.38876,"is_reserved":false,"is_disabled":false,"rental_uris":{"android":"levelo://app?vid=30e962a5-ed17-4781-966d-335d338660e0","ios":"levelo://app?vid=30e962a5-ed17-4781-966d-335d338660e0"},"vehicle_type_id":"4","last_reported":1738629923,"current_range_meters":14400,"station_id":"ce4bhqp2rcd13ifvqhog","pricing_plan_id":"cebpf4jnsgd1na2vs0mg"},{"bike_id":"7a2080c9-d44a-471c-9acd-526428e8e5dc","system_id":"levelo_inurba_marseille","lat":43.22938,"lon":5.35375,"is_reserved":false,"is_disabled":false,"rental_uris":{"android":"levelo://app?vid=7a2080c9-d44a-471c-9acd-526428e8e5dc","ios":"levelo://app?vid=7a2080c9-d44a-471c-9acd-526428e8e5dc"},"vehicle_type_id":"4","last_reported":1738629923,"current_range_meters":38000,"station_id":"cpo3532slgdg3j2ikp40","pricing_plan_id":"cebpf4jnsgd1na2vs0mg"},{"bike_id":"448fb59f-ac91-4d62-b7f5-feccdad90e45","system_id":"levelo_inurba_marseille","lat":43.3095,"lon":5.39078,"is_reserved":false,"is_disabled":false,"rental_uris":{"android":"levelo://app?vid=448fb59f-ac91-4d62-b7f5-feccdad90e45","ios":"levelo://app?vid=448fb59f-ac91-4d62-b7f5-feccdad90e45"},"vehicle_type_id":"4","last_reported":1738629923,"current_range_meters":38800,"station_id":"ce4bgup2rcd13ifvqco0","pricing_plan_id":"cebpf4jnsgd1na2vs0mg"},{"bike_id":"c7ffedac-349c-4fc0-8875-a3ceaf85f7b5","system_id":"levelo_inurba_marseille","lat":43.24178,"lon":5.36414,"is_reserved":false,"is_disabled":false,"rental_uris":{"android":"levelo://app?vid=c7ffedac-349c-4fc0-8875-a3ceaf85f7b5","ios":"levelo://app?vid=c7ffedac-349c-4fc0-8875-a3ceaf85f7b5"},"vehicle_type_id":"4","last_reported":1738629923,"current_range_meters":5600,"station_id":"cpo36qri1sfpv3e86is0","pricing_plan_id":"cebpf4jnsgd1na2vs0mg"},{"bike_id":"227d1457-7acb-444d-bf95-2cc0d4b33a5a","system_id":"levelo_inurba_marseille","lat":43.265622,"lon":5.390113,"is_reserved":false,"is_disabled":false,"rental_uris":{"android":"levelo://app?vid=227d1457-7acb-444d-bf95-2cc0d4b33a5a","ios":"levelo://app?vid=227d1457-7acb-444d-bf95-2cc0d4b33a5a"},"vehicle_type_id":"4","last_reported":1738629923,"current_range_meters":22000,"station_id":"ce4bhe12rcd13ifvqf30","pricing_plan_id":"cebpf4jnsgd1na2vs0mg"},{"bike_id":"0bb638d0-2838-47fa-8a2d-f175e9aec41a","system_id":"levelo_inurba_marseille","lat":43.23964,"lon":5.36641,"is_reserved":false,"is_disabled":false,"rental_uris":{"android":"levelo://app?vid=0bb638d0-2838-47fa-8a2d-f175e9aec41a","ios":"levelo://app?vid=0bb638d0-2838-47fa-8a2d-f175e9aec41a"},"vehicle_type_id":"4","last_reported":1738629923,"current_range_meters":16800,"station_id":"ce4bhi12rcd13ifvqfp0","pricing_plan_id":"cebpf4jnsgd1na2vs0mg"},{"bike_id":"2cbd5193-ddde-4715-a2bf-e1cb8bb201c9","system_id":"levelo_inurba_marseille","lat":43.2849,"lon":5.38432,"is_reserved":false,"is_disabled":true,"rental_uris":{"android":"levelo://app?vid=2cbd5193-ddde-4715-a2bf-e1cb8bb201c9","ios":"levelo://app?vid=2cbd5193-ddde-4715-a2bf-e1cb8bb201c9"},"vehicle_type_id":"4","last_reported":1738629923,"current_range_meters":0,"station_id":"ce4bh512rcd13ifvqe3g","pricing_plan_id":"cebpf4jnsgd1na2vs0mg"},{"bike_id":"2addaff5-7407-44d0-ad72-5edc95733e9d","system_id":"levelo_inurba_marseille","lat":43.3111,"lon":5.37752,"is_reserved":false,"is_disabled":false,"rental_uris":{"android":"levelo://app?vid=2addaff5-7407-44d0-ad72-5edc95733e9d","ios":"levelo://app?vid=2addaff5-7407-44d0-ad72-5edc95733e9d"},"vehicle_type_id":"4","last_reported":1738629923,"current_range_meters":19600,"station_id":"ce4bgt92rcd13ifvqcg0","pricing_plan_id":"cebpf4jnsgd1na2vs0mg"},{"bike_id":"4a18fa25-a72b-4cad-ab40-77dc9d93d71e","system_id":"levelo_inurba_marseille","lat":43.28419,"lon":5.37499,"is_reserved":false,"is_disabled":true,"rental_uris":{"android":"levelo://app?vid=4a18fa25-a72b-4cad-ab40-77dc9d93d71e","ios":"levelo://app?vid=4a18fa25-a72b-4cad-ab40-77dc9d93d71e"},"vehicle_type_id":"4","last_reported":1738629923,"current_range_meters":0,"station_id":"ce4bh412rcd13ifvqds0","pricing_plan_id":"cebpf4jnsgd1na2vs0mg"},{"bike_id":"2fed9ba3-3909-423b-8e60-69abd9978d73","system_id":"levelo_inurba_marseille","lat":43.26814,"lon":5.40252,"is_reserved":false,"is_disabled":false,"rental_uris":{"android":"levelo://app?vid=2fed9ba3-3909-423b-8e60-69abd9978d73","ios":"levelo://app?vid=2fed9ba3-3909-423b-8e60-69abd9978d73"},"vehicle_type_id":"4","last_reported":1738629923,"current_range_meters":39200,"station_id":"ce501612rcd8frsf0b60","pricing_plan_id":"cebpf4jnsgd1na2vs0mg"},{"bike_id":"0ef78f64-634e-45d3-b852-265271aaa948","system_id":"levelo_inurba_marseille","lat":43.31355,"lon":5.38512,"is_reserved":false,"is_disabled":false,"rental_uris":{"android":"levelo://app?vid=0ef78f64-634e-45d3-b852-265271aaa948","ios":"levelo://app?vid=0ef78f64-634e-45d3-b852-265271aaa948"},"vehicle_type_id":"4","last_reported":1738629923,"current_range_meters":36800,"station_id":"ce4bgt92rcd13ifvqcf0","pricing_plan_id":"cebpf4jnsgd1na2vs0mg"},{"bike_id":"98709c99-b7fd-450f-bb98-395cad9c7ffe","system_id":"levelo_inurba_marseille","lat":43.287245,"lon":5.361067,"is_reserved":false,"is_disabled":false,"rental_uris":{"android":"levelo://app?vid=98709c99-b7fd-450f-bb98-395cad9c7ffe","ios":"levelo://app?vid=98709c99-b7fd-450f-bb98-395cad9c7ffe"},"vehicle_type_id":"4","last_reported":1738629923,"current_range_meters":8000,"station_id":"cki0cbj6b192h4jlfktg","pricing_plan_id":"cebpf4jnsgd1na2vs0mg"},{"bike_id":"c9a53036-fdd2-406b-9e70-c17f21e2eb93","system_id":"levelo_inurba_marseille","lat":43.28404,"lon":5.37519,"is_reserved":false,"is_disabled":false,"rental_uris":{"android":"levelo://app?vid=c9a53036-fdd2-406b-9e70-c17f21e2eb93","ios":"levelo://app?vid=c9a53036-fdd2-406b-9e70-c17f21e2eb93"},"vehicle_type_id":"4","last_reported":1738629923,"current_range_meters":16000,"station_id":"ce4bh412rcd13ifvqds0","pricing_plan_id":"cebpf4jnsgd1na2vs0mg"},{"bike_id":"f000e45e-9693-4019-a0c1-ec14f32c1f35","system_id":"levelo_inurba_marseille","lat":43.32997,"lon":5.39001,"is_reserved":false,"is_disabled":false,"rental_uris":{"android":"levelo://app?vid=f000e45e-9693-4019-a0c1-ec14f32c1f35","ios":"levelo://app?vid=f000e45e-9693-4019-a0c1-ec14f32c1f35"},"vehicle_type_id":"4","last_reported":1738629923,"current_range_meters":38000,"station_id":"ce4bhr92rcd13ifvqhrg","pricing_plan_id":"cebpf4jnsgd1na2vs0mg"},{"bike_id":"6b4ad843-2c33-4528-9b7d-c58d8abd0594","system_id":"levelo_inurba_marseille","lat":43.28614,"lon":5.35103,"is_reserved":false,"is_disabled":false,"rental_uris":{"android":"levelo://app?vid=6b4ad843-2c33-4528-9b7d-c58d8abd0594","ios":"levelo://app?vid=6b4ad843-2c33-4528-9b7d-c58d8abd0594"},"vehicle_type_id":"4","last_reported":1738629923,"current_range_meters":28000,"station_id":"ce4bhch2rcd13ifvqeug","pricing_plan_id":"cebpf4jnsgd1na2vs0mg"},{"bike_id":"1b46daa4-ff22-40c1-96e0-6e19e1bb0d1f","system_id":"levelo_inurba_marseille","lat":43.24799,"lon":5.37453,"is_reserved":false,"is_disabled":false,"rental_uris":{"android":"levelo://app?vid=1b46daa4-ff22-40c1-96e0-6e19e1bb0d1f","ios":"levelo://app?vid=1b46daa4-ff22-40c1-96e0-6e19e1bb0d1f"},"vehicle_type_id":"4","last_reported":1738629923,"current_range_meters":38800,"station_id":"ce4bhgh2rcd13ifvqfb0","pricing_plan_id":"cebpf4jnsgd1na2vs0mg"},{"bike_id":"ec2c929a-5340-4193-8255-391498354d2c","system_id":"levelo_inurba_marseille","lat":43.26224,"lon":5.4046,"is_reserved":false,"is_disabled":false,"rental_uris":{"android":"levelo://app?vid=ec2c929a-5340-4193-8255-391498354d2c","ios":"levelo://app?vid=ec2c929a-5340-4193-8255-391498354d2c"},"vehicle_type_id":"4","last_reported":1738629923,"current_range_meters":29600,"station_id":"ce4bhmh2rcd13ifvqgmg","pricing_plan_id":"cebpf4jnsgd1na2vs0mg"},{"bike_id":"9bd6d962-0ee2-42f8-98b3-edaae254c627","system_id":"levelo_inurba_marseille","lat":43.24797,"lon":5.37464,"is_reserved":false,"is_disabled":false,"rental_uris":{"android":"levelo://app?vid=9bd6d962-0ee2-42f8-98b3-edaae254c627","ios":"levelo://app?vid=9bd6d962-0ee2-42f8-98b3-edaae254c627"},"vehicle_type_id":"4","last_reported":1738629923,"current_range_meters":38400,"station_id":"ce4bhgh2rcd13ifvqfb0","pricing_plan_id":"cebpf4jnsgd1na2vs0mg"},{"bike_id":"5875daa5-2b51-4890-86b6-114703e4a4f2","system_id":"levelo_inurba_marseille","lat":43.31137,"lon":5.38005,"is_reserved":false,"is_disabled":false,"rental_uris":{"android":"levelo://app?vid=5875daa5-2b51-4890-86b6-114703e4a4f2","ios":"levelo://app?vid=5875daa5-2b51-4890-86b6-114703e4a4f2"},"vehicle_type_id":"4","last_reported":1738629923,"current_range_meters":12800,"station_id":"","pricing_plan_id":"cebpf4jnsgd1na2vs0mg"},{"bike_id":"9b98043e-4286-48e6-a324-f85ed04494ec","system_id":"levelo_inurba_marseille","lat":43.28099,"lon":5.37862,"is_reserved":false,"is_disabled":false,"rental_uris":{"android":"levelo://app?vid=9b98043e-4286-48e6-a324-f85ed04494ec","ios":"levelo://app?vid=9b98043e-4286-48e6-a324-f85ed04494ec"},"vehicle_type_id":"4","last_reported":1738629923,"current_range_meters":36400,"station_id":"ce4bha12rcd13ifvqee0","pricing_plan_id":"cebpf4jnsgd1na2vs0mg"},{"bike_id":"89adab4f-4ed9-4a59-a3b8-38cb4289c024","system_id":"levelo_inurba_marseille","lat":43.30654,"lon":5.40074,"is_reserved":false,"is_disabled":false,"rental_uris":{"android":"levelo://app?vid=89adab4f-4ed9-4a59-a3b8-38cb4289c024","ios":"levelo://app?vid=89adab4f-4ed9-4a59-a3b8-38cb4289c024"},"vehicle_type_id":"4","last_reported":1738629923,"current_range_meters":32400,"station_id":"ce4bh112rcd13ifvqda0","pricing_plan_id":"cebpf4jnsgd1na2vs0mg"},{"bike_id":"99630b4f-d397-4cd1-b643-a51d074b76bb","system_id":"levelo_inurba_marseille","lat":43.284605,"lon":5.358964,"is_reserved":false,"is_disabled":false,"rental_uris":{"android":"levelo://app?vid=99630b4f-d397-4cd1-b643-a51d074b76bb","ios":"levelo://app?vid=99630b4f-d397-4cd1-b643-a51d074b76bb"},"vehicle_type_id":"4","last_reported":1738629923,"current_range_meters":38800,"station_id":"ce4bhah2rcd13ifvqei0","pricing_plan_id":"cebpf4jnsgd1na2vs0mg"},{"bike_id":"8287c050-ed39-4c6c-ab1a-058823500666","system_id":"levelo_inurba_marseille","lat":43.2466,"lon":5.38889,"is_reserved":false,"is_disabled":false,"rental_uris":{"android":"levelo://app?vid=8287c050-ed39-4c6c-ab1a-058823500666","ios":"levelo://app?vid=8287c050-ed39-4c6c-ab1a-058823500666"},"vehicle_type_id":"4","last_reported":1738629923,"current_range_meters":38400,"station_id":"ce4bhg12rcd13ifvqf60","pricing_plan_id":"cebpf4jnsgd1na2vs0mg"},{"bike_id":"67461486-f190-4d49-a585-b42010d723a2","system_id":"levelo_inurba_marseille","lat":43.30597,"lon":5.3935,"is_reserved":false,"is_disabled":false,"rental_uris":{"android":"levelo://app?vid=67461486-f190-4d49-a585-b42010d723a2","ios":"levelo://app?vid=67461486-f190-4d49-a585-b42010d723a2"},"vehicle_type_id":"4","last_reported":1738629923,"current_range_meters":32800,"station_id":"ce4bh0p2rcd13ifvqd80","pricing_plan_id":"cebpf4jnsgd1na2vs0mg"},{"bike_id":"f03fd5df-824a-4bfb-91fd-3b6a36330565","system_id":"levelo_inurba_marseille","lat":43.29253,"lon":5.38449,"is_reserved":false,"is_disabled":false,"rental_uris":{"android":"levelo://app?vid=f03fd5df-824a-4bfb-91fd-3b6a36330565","ios":"levelo://app?vid=f03fd5df-824a-4bfb-91fd-3b6a36330565"},"vehicle_type_id":"4","last_reported":1738629923,"current_range_meters":34000,"station_id":"ce4bh692rcd13ifvqea0","pricing_plan_id":"cebpf4jnsgd1na2vs0mg"},{"bike_id":"01880eef-5db8-4553-af30-5892cf4de2d3","system_id":"levelo_inurba_marseille","lat":43.295347,"lon":5.38531,"is_reserved":false,"is_disabled":false,"rental_uris":{"android":"levelo://app?vid=01880eef-5db8-4553-af30-5892cf4de2d3","ios":"levelo://app?vid=01880eef-5db8-4553-af30-5892cf4de2d3"},"vehicle_type_id":"4","last_reported":1738629923,"current_range_meters":4400,"station_id":"ce4bgih2rcd13ifvqba0","pricing_plan_id":"cebpf4jnsgd1na2vs0mg"},{"bike_id":"ca0fde3e-2534-47ba-b253-a7a4579f28b3","system_id":"levelo_inurba_marseille","lat":43.30418,"lon":5.41287,"is_reserved":false,"is_disabled":false,"rental_uris":{"android":"levelo://app?vid=ca0fde3e-2534-47ba-b253-a7a4579f28b3","ios":"levelo://app?vid=ca0fde3e-2534-47ba-b253-a7a4579f28b3"},"vehicle_type_id":"4","last_reported":1738629923,"current_range_meters":38800,"station_id":"ce4bhop2rcd13ifvqh8g","pricing_plan_id":"cebpf4jnsgd1na2vs0mg"},{"bike_id":"d992c199-35ce-45f9-be6c-bc82fb359710","system_id":"levelo_inurba_marseille","lat":43.23075,"lon":5.35434,"is_reserved":false,"is_disabled":false,"rental_uris":{"android":"levelo://app?vid=d992c199-35ce-45f9-be6c-bc82fb359710","ios":"levelo://app?vid=d992c199-35ce-45f9-be6c-bc82fb359710"},"vehicle_type_id":"4","last_reported":1738629923,"current_range_meters":38800,"station_id":"cpo3342slgdg3j2ifvpg","pricing_plan_id":"cebpf4jnsgd1na2vs0mg"},{"bike_id":"df721def-598a-4e24-a89a-4771bf19c6fb","system_id":"levelo_inurba_marseille","lat":43.27812,"lon":5.40701,"is_reserved":false,"is_disabled":false,"rental_uris":{"android":"levelo://app?vid=df721def-598a-4e24-a89a-4771bf19c6fb","ios":"levelo://app?vid=df721def-598a-4e24-a89a-4771bf19c6fb"},"vehicle_type_id":"4","last_reported":1738629923,"current_range_meters":39200,"station_id":"ce4bhnh2rcd13ifvqgtg","pricing_plan_id":"cebpf4jnsgd1na2vs0mg"},{"bike_id":"0361bc85-ece7-4601-8d14-a232acc000f4","system_id":"levelo_inurba_marseille","lat":43.27552,"lon":5.38437,"is_reserved":false,"is_disabled":false,"rental_uris":{"android":"levelo://app?vid=0361bc85-ece7-4601-8d14-a232acc000f4","ios":"levelo://app?vid=0361bc85-ece7-4601-8d14-a232acc000f4"},"vehicle_type_id":"4","last_reported":1738629923,"current_range_meters":8000,"station_id":"ce4bhh92rcd13ifvqfi0","pricing_plan_id":"cebpf4jnsgd1na2vs0mg"},{"bike_id":"905522ef-d4d4-4a33-8994-defbf52775ca","system_id":"levelo_inurba_marseille","lat":43.26222,"lon":5.40448,"is_reserved":false,"is_disabled":false,"rental_uris":{"android":"levelo://app?vid=905522ef-d4d4-4a33-8994-defbf52775ca","ios":"levelo://app?vid=905522ef-d4d4-4a33-8994-defbf52775ca"},"vehicle_type_id":"4","last_reported":1738629923,"current_range_meters":38800,"station_id":"ce4bhmh2rcd13ifvqgmg","pricing_plan_id":"cebpf4jnsgd1na2vs0mg"},{"bike_id":"5df9bf08-43fe-4acc-898a-9db2002f38bc","system_id":"levelo_inurba_marseille","lat":43.25869,"lon":5.39902,"is_reserved":false,"is_disabled":false,"rental_uris":{"android":"levelo://app?vid=5df9bf08-43fe-4acc-898a-9db2002f38bc","ios":"levelo://app?vid=5df9bf08-43fe-4acc-898a-9db2002f38bc"},"vehicle_type_id":"4","last_reported":1738629923,"current_range_meters":18000,"station_id":"ce4bhl92rcd13ifvqghg","pricing_plan_id":"cebpf4jnsgd1na2vs0mg"},{"bike_id":"d9c614f7-8968-45e8-82a0-4ae06e41b32a","system_id":"levelo_inurba_marseille","lat":43.292172,"lon":5.360518,"is_reserved":false,"is_disabled":false,"rental_uris":{"android":"levelo://app?vid=d9c614f7-8968-45e8-82a0-4ae06e41b32a","ios":"levelo://app?vid=d9c614f7-8968-45e8-82a0-4ae06e41b32a"},"vehicle_type_id":"4","last_reported":1738629923,"current_range_meters":11200,"station_id":"ce4bhbh2rcd13ifvqeqg","pricing_plan_id":"cebpf4jnsgd1na2vs0mg"},{"bike_id":"31d03ba9-3332-49a8-8944-c4947d5632cb","system_id":"levelo_inurba_marseille","lat":43.30254,"lon":5.40064,"is_reserved":false,"is_disabled":false,"rental_uris":{"android":"levelo://app?vid=31d03ba9-3332-49a8-8944-c4947d5632cb","ios":"levelo://app?vid=31d03ba9-3332-49a8-8944-c4947d5632cb"},"vehicle_type_id":"4","last_reported":1738629923,"current_range_meters":28400,"station_id":"ce4bgvh2rcd13ifvqcs0","pricing_plan_id":"cebpf4jnsgd1na2vs0mg"},{"bike_id":"3034d64e-f78e-468c-b4d6-2520a053438f","system_id":"levelo_inurba_marseille","lat":43.231879,"lon":5.399925,"is_reserved":false,"is_disabled":true,"rental_uris":{"android":"levelo://app?vid=3034d64e-f78e-468c-b4d6-2520a053438f","ios":"levelo://app?vid=3034d64e-f78e-468c-b4d6-2520a053438f"},"vehicle_type_id":"4","last_reported":1738629923,"current_range_meters":12400,"station_id":"ce4bhn12rcd13ifvqgqg","pricing_plan_id":"cebpf4jnsgd1na2vs0mg"},{"bike_id":"4d56843c-838b-4099-80e1-081325709750","system_id":"levelo_inurba_marseille","lat":43.29204,"lon":5.35787,"is_reserved":false,"is_disabled":false,"rental_uris":{"android":"levelo://app?vid=4d56843c-838b-4099-80e1-081325709750","ios":"levelo://app?vid=4d56843c-838b-4099-80e1-081325709750"},"vehicle_type_id":"4","last_reported":1738629923,"current_range_meters":38800,"station_id":"ce4bhb12rcd13ifvqel0","pricing_plan_id":"cebpf4jnsgd1na2vs0mg"},{"bike_id":"c9081be6-13fa-4dfa-bf68-4258726d871e","system_id":"levelo_inurba_marseille","lat":43.27834,"lon":5.39211,"is_reserved":false,"is_disabled":false,"rental_uris":{"android":"levelo://app?vid=c9081be6-13fa-4dfa-bf68-4258726d871e","ios":"levelo://app?vid=c9081be6-13fa-4dfa-bf68-4258726d871e"},"vehicle_type_id":"4","last_reported":1738629923,"current_range_meters":38000,"station_id":"ce4bhjp2rcd13ifvqga0","pricing_plan_id":"cebpf4jnsgd1na2vs0mg"},{"bike_id":"7f87d5fc-9445-41df-bd3e-5287cb6adb70","system_id":"levelo_inurba_marseille","lat":43.26798,"lon":5.40283,"is_reserved":false,"is_disabled":false,"rental_uris":{"android":"levelo://app?vid=7f87d5fc-9445-41df-bd3e-5287cb6adb70","ios":"levelo://app?vid=7f87d5fc-9445-41df-bd3e-5287cb6adb70"},"vehicle_type_id":"4","last_reported":1738629923,"current_range_meters":11600,"station_id":"ce501612rcd8frsf0b60","pricing_plan_id":"cebpf4jnsgd1na2vs0mg"},{"bike_id":"9e768907-2758-4663-849c-1bfedc158f31","system_id":"levelo_inurba_marseille","lat":43.279114,"lon":5.395864,"is_reserved":false,"is_disabled":true,"rental_uris":{"android":"levelo://app?vid=9e768907-2758-4663-849c-1bfedc158f31","ios":"levelo://app?vid=9e768907-2758-4663-849c-1bfedc158f31"},"vehicle_type_id":"4","last_reported":1738629923,"current_range_meters":0,"station_id":"ce4bhf92rcd13ifvqf40","pricing_plan_id":"cebpf4jnsgd1na2vs0mg"},{"bike_id":"9da2e432-4f65-47d9-bc81-2fec1d9802eb","system_id":"levelo_inurba_marseille","lat":43.24656,"lon":5.38901,"is_reserved":false,"is_disabled":false,"rental_uris":{"android":"levelo://app?vid=9da2e432-4f65-47d9-bc81-2fec1d9802eb","ios":"levelo://app?vid=9da2e432-4f65-47d9-bc81-2fec1d9802eb"},"vehicle_type_id":"4","last_reported":1738629923,"current_range_meters":32000,"station_id":"ce4bhg12rcd13ifvqf60","pricing_plan_id":"cebpf4jnsgd1na2vs0mg"},{"bike_id":"9462e712-389b-45c0-bbe9-f9c9ae7509c3","system_id":"levelo_inurba_marseille","lat":43.282675,"lon":5.350684,"is_reserved":false,"is_disabled":false,"rental_uris":{"android":"levelo://app?vid=9462e712-389b-45c0-bbe9-f9c9ae7509c3","ios":"levelo://app?vid=9462e712-389b-45c0-bbe9-f9c9ae7509c3"},"vehicle_type_id":"4","last_reported":1738629923,"current_range_meters":36400,"station_id":"ce4bhbp2rcd13ifvqerg","pricing_plan_id":"cebpf4jnsgd1na2vs0mg"},{"bike_id":"d37751ab-cc21-4a2c-8c36-fb109c15b551","system_id":"levelo_inurba_marseille","lat":43.29208,"lon":5.36054,"is_reserved":false,"is_disabled":false,"rental_uris":{"android":"levelo://app?vid=d37751ab-cc21-4a2c-8c36-fb109c15b551","ios":"levelo://app?vid=d37751ab-cc21-4a2c-8c36-fb109c15b551"},"vehicle_type_id":"4","last_reported":1738629923,"current_range_meters":38800,"station_id":"ce4bhbh2rcd13ifvqeqg","pricing_plan_id":"cebpf4jnsgd1na2vs0mg"},{"bike_id":"942ee348-f601-4816-a32c-40a8d55d3f6b","system_id":"levelo_inurba_marseille","lat":43.337444,"lon":5.374475,"is_reserved":false,"is_disabled":true,"rental_uris":{"android":"levelo://app?vid=942ee348-f601-4816-a32c-40a8d55d3f6b","ios":"levelo://app?vid=942ee348-f601-4816-a32c-40a8d55d3f6b"},"vehicle_type_id":"4","last_reported":1738629923,"current_range_meters":0,"station_id":"","pricing_plan_id":"cebpf4jnsgd1na2vs0mg"},{"bike_id":"a7dc0848-081a-4438-bce6-7e161a91f066","system_id":"levelo_inurba_marseille","lat":43.281568,"lon":5.426423,"is_reserved":false,"is_disabled":false,"rental_uris":{"android":"levelo://app?vid=a7dc0848-081a-4438-bce6-7e161a91f066","ios":"levelo://app?vid=a7dc0848-081a-4438-bce6-7e161a91f066"},"vehicle_type_id":"4","last_reported":1738629923,"current_range_meters":36800,"station_id":"ce4bhnh2rcd13ifvqgug","pricing_plan_id":"cebpf4jnsgd1na2vs0mg"},{"bike_id":"d5d6e7f4-4e55-4592-b55b-2e87bf63c2f6","system_id":"levelo_inurba_marseille","lat":43.28561,"lon":5.39499,"is_reserved":false,"is_disabled":false,"rental_uris":{"android":"levelo://app?vid=d5d6e7f4-4e55-4592-b55b-2e87bf63c2f6","ios":"levelo://app?vid=d5d6e7f4-4e55-4592-b55b-2e87bf63c2f6"},"vehicle_type_id":"4","last_reported":1738629923,"current_range_meters":38800,"station_id":"ce4bh292rcd13ifvqdg0","pricing_plan_id":"cebpf4jnsgd1na2vs0mg"},{"bike_id":"6dcc4dc5-1a66-4094-a76b-9aacbb440732","system_id":"levelo_inurba_marseille","lat":43.279,"lon":5.38022,"is_reserved":false,"is_disabled":false,"rental_uris":{"android":"levelo://app?vid=6dcc4dc5-1a66-4094-a76b-9aacbb440732","ios":"levelo://app?vid=6dcc4dc5-1a66-4094-a76b-9aacbb440732"},"vehicle_type_id":"4","last_reported":1738629923,"current_range_meters":34000,"station_id":"ce4bhf92rcd13ifvqf50","pricing_plan_id":"cebpf4jnsgd1na2vs0mg"},{"bike_id":"f0b53076-d51d-4c78-be73-c20056d1b4ad","system_id":"levelo_inurba_marseille","lat":43.299726,"lon":5.38491,"is_reserved":false,"is_disabled":true,"rental_uris":{"android":"levelo://app?vid=f0b53076-d51d-4c78-be73-c20056d1b4ad","ios":"levelo://app?vid=f0b53076-d51d-4c78-be73-c20056d1b4ad"},"vehicle_type_id":"4","last_reported":1738629923,"current_range_meters":37600,"station_id":"ce4bgj92rcd13ifvqbd0","pricing_plan_id":"cebpf4jnsgd1na2vs0mg"},{"bike_id":"f1036684-3f76-415a-927d-13a1ba4fe70a","system_id":"levelo_inurba_marseille","lat":43.28722,"lon":5.36083,"is_reserved":false,"is_disabled":false,"rental_uris":{"android":"levelo://app?vid=f1036684-3f76-415a-927d-13a1ba4fe70a","ios":"levelo://app?vid=f1036684-3f76-415a-927d-13a1ba4fe70a"},"vehicle_type_id":"4","last_reported":1738629923,"current_range_meters":19200,"station_id":"cki0cbj6b192h4jlfktg","pricing_plan_id":"cebpf4jnsgd1na2vs0mg"},{"bike_id":"c8bd1d84-2291-473f-ab82-361f165fe1db","system_id":"levelo_inurba_marseille","lat":43.24175,"lon":5.36387,"is_reserved":false,"is_disabled":false,"rental_uris":{"android":"levelo://app?vid=c8bd1d84-2291-473f-ab82-361f165fe1db","ios":"levelo://app?vid=c8bd1d84-2291-473f-ab82-361f165fe1db"},"vehicle_type_id":"4","last_reported":1738629923,"current_range_meters":20400,"station_id":"cpo36qri1sfpv3e86is0","pricing_plan_id":"cebpf4jnsgd1na2vs0mg"},{"bike_id":"ec2a7ad2-c42a-4b37-9774-9b624842148e","system_id":"levelo_inurba_marseille","lat":43.3029,"lon":5.3921,"is_reserved":false,"is_disabled":false,"rental_uris":{"android":"levelo://app?vid=ec2a7ad2-c42a-4b37-9774-9b624842148e","ios":"levelo://app?vid=ec2a7ad2-c42a-4b37-9774-9b624842148e"},"vehicle_type_id":"4","last_reported":1738629923,"current_range_meters":36000,"station_id":"ce4bgkh2rcd13ifvqbk0","pricing_plan_id":"cebpf4jnsgd1na2vs0mg"},{"bike_id":"c76e5035-ca9a-4e01-9735-9f138bfde875","system_id":"levelo_inurba_marseille","lat":43.282761,"lon":5.350708,"is_reserved":false,"is_disabled":false,"rental_uris":{"android":"levelo://app?vid=c76e5035-ca9a-4e01-9735-9f138bfde875","ios":"levelo://app?vid=c76e5035-ca9a-4e01-9735-9f138bfde875"},"vehicle_type_id":"4","last_reported":1738629923,"current_range_meters":39200,"station_id":"ce4bhbp2rcd13ifvqerg","pricing_plan_id":"cebpf4jnsgd1na2vs0mg"},{"bike_id":"bb846df9-2969-480a-aed6-edbcf9c326fb","system_id":"levelo_inurba_marseille","lat":43.24811,"lon":5.37455,"is_reserved":false,"is_disabled":false,"rental_uris":{"android":"levelo://app?vid=bb846df9-2969-480a-aed6-edbcf9c326fb","ios":"levelo://app?vid=bb846df9-2969-480a-aed6-edbcf9c326fb"},"vehicle_type_id":"4","last_reported":1738629923,"current_range_meters":27600,"station_id":"ce4bhgh2rcd13ifvqfb0","pricing_plan_id":"cebpf4jnsgd1na2vs0mg"},{"bike_id":"48ebfd2e-3b3a-4da2-a76d-11ff63396ffb","system_id":"levelo_inurba_marseille","lat":43.27993,"lon":5.40002,"is_reserved":false,"is_disabled":true,"rental_uris":{"android":"levelo://app?vid=48ebfd2e-3b3a-4da2-a76d-11ff63396ffb","ios":"levelo://app?vid=48ebfd2e-3b3a-4da2-a76d-11ff63396ffb"},"vehicle_type_id":"4","last_reported":1738629923,"current_range_meters":18000,"station_id":"ce4bho92rcd13ifvqh4g","pricing_plan_id":"cebpf4jnsgd1na2vs0mg"},{"bike_id":"85e0a930-26fd-4edc-a536-795827c6b8db","system_id":"levelo_inurba_marseille","lat":43.28669,"lon":5.37415,"is_reserved":false,"is_disabled":false,"rental_uris":{"android":"levelo://app?vid=85e0a930-26fd-4edc-a536-795827c6b8db","ios":"levelo://app?vid=85e0a930-26fd-4edc-a536-795827c6b8db"},"vehicle_type_id":"4","last_reported":1738629923,"current_range_meters":16000,"station_id":"ce4bh3p2rcd13ifvqdq0","pricing_plan_id":"cebpf4jnsgd1na2vs0mg"},{"bike_id":"cd07e062-2af1-406e-bcb9-5f1ec4730937","system_id":"levelo_inurba_marseille","lat":43.230644,"lon":5.35495,"is_reserved":false,"is_disabled":false,"rental_uris":{"android":"levelo://app?vid=cd07e062-2af1-406e-bcb9-5f1ec4730937","ios":"levelo://app?vid=cd07e062-2af1-406e-bcb9-5f1ec4730937"},"vehicle_type_id":"4","last_reported":1738629923,"current_range_meters":10000,"station_id":"cpo3342slgdg3j2ifvpg","pricing_plan_id":"cebpf4jnsgd1na2vs0mg"},{"bike_id":"d550a57e-feb8-4dfa-8ceb-649d5efea0ce","system_id":"levelo_inurba_marseille","lat":43.2991,"lon":5.37465,"is_reserved":false,"is_disabled":false,"rental_uris":{"android":"levelo://app?vid=d550a57e-feb8-4dfa-8ceb-649d5efea0ce","ios":"levelo://app?vid=d550a57e-feb8-4dfa-8ceb-649d5efea0ce"},"vehicle_type_id":"4","last_reported":1738629923,"current_range_meters":38800,"station_id":"ce4bgjh2rcd13ifvqbg0","pricing_plan_id":"cebpf4jnsgd1na2vs0mg"},{"bike_id":"a8076933-c95d-42fa-81fc-98f523ccd12c","system_id":"levelo_inurba_marseille","lat":43.284039,"lon":5.375118,"is_reserved":false,"is_disabled":false,"rental_uris":{"android":"levelo://app?vid=a8076933-c95d-42fa-81fc-98f523ccd12c","ios":"levelo://app?vid=a8076933-c95d-42fa-81fc-98f523ccd12c"},"vehicle_type_id":"4","last_reported":1738629923,"current_range_meters":32000,"station_id":"ce4bh412rcd13ifvqds0","pricing_plan_id":"cebpf4jnsgd1na2vs0mg"},{"bike_id":"03d4e594-109a-4c54-9f3a-237df28779be","system_id":"levelo_inurba_marseille","lat":43.279456,"lon":5.410346,"is_reserved":false,"is_disabled":false,"rental_uris":{"android":"levelo://app?vid=03d4e594-109a-4c54-9f3a-237df28779be","ios":"levelo://app?vid=03d4e594-109a-4c54-9f3a-237df28779be"},"vehicle_type_id":"4","last_reported":1738629923,"current_range_meters":9200,"station_id":"ce4bhnp2rcd13ifvqh0g","pricing_plan_id":"cebpf4jnsgd1na2vs0mg"},{"bike_id":"516f2549-79cf-4297-a0ad-3d3f06a71f80","system_id":"levelo_inurba_marseille","lat":43.317113,"lon":5.424023,"is_reserved":false,"is_disabled":true,"rental_uris":{"android":"levelo://app?vid=516f2549-79cf-4297-a0ad-3d3f06a71f80","ios":"levelo://app?vid=516f2549-79cf-4297-a0ad-3d3f06a71f80"},"vehicle_type_id":"4","last_reported":1738629923,"current_range_meters":6400,"station_id":"ce4bhp92rcd13ifvqhbg","pricing_plan_id":"cebpf4jnsgd1na2vs0mg"},{"bike_id":"2560298a-7b73-4b42-b024-41069cd9db21","system_id":"levelo_inurba_marseille","lat":43.270549,"lon":5.402636,"is_reserved":false,"is_disabled":false,"rental_uris":{"android":"levelo://app?vid=2560298a-7b73-4b42-b024-41069cd9db21","ios":"levelo://app?vid=2560298a-7b73-4b42-b024-41069cd9db21"},"vehicle_type_id":"4","last_reported":1738629923,"current_range_meters":38800,"station_id":"ce4bhk92rcd13ifvqgc0","pricing_plan_id":"cebpf4jnsgd1na2vs0mg"},{"bike_id":"98c8136a-16ae-47fa-a564-d42e7b4dc97e","system_id":"levelo_inurba_marseille","lat":43.30893,"lon":5.39631,"is_reserved":false,"is_disabled":true,"rental_uris":{"android":"levelo://app?vid=98c8136a-16ae-47fa-a564-d42e7b4dc97e","ios":"levelo://app?vid=98c8136a-16ae-47fa-a564-d42e7b4dc97e"},"vehicle_type_id":"4","last_reported":1738629923,"current_range_meters":36000,"station_id":"ce4bh012rcd13ifvqcv0","pricing_plan_id":"cebpf4jnsgd1na2vs0mg"},{"bike_id":"3826780d-2f9b-475f-b280-c5a4390b0c81","system_id":"levelo_inurba_marseille","lat":43.30136,"lon":5.3988,"is_reserved":false,"is_disabled":false,"rental_uris":{"android":"levelo://app?vid=3826780d-2f9b-475f-b280-c5a4390b0c81","ios":"levelo://app?vid=3826780d-2f9b-475f-b280-c5a4390b0c81"},"vehicle_type_id":"4","last_reported":1738629923,"current_range_meters":38800,"station_id":"ce4bh0h2rcd13ifvqd40","pricing_plan_id":"cebpf4jnsgd1na2vs0mg"},{"bike_id":"2e000050-3e54-4f5a-9a94-7b366c1367e2","system_id":"levelo_inurba_marseille","lat":43.284,"lon":5.37527,"is_reserved":false,"is_disabled":false,"rental_uris":{"android":"levelo://app?vid=2e000050-3e54-4f5a-9a94-7b366c1367e2","ios":"levelo://app?vid=2e000050-3e54-4f5a-9a94-7b366c1367e2"},"vehicle_type_id":"4","last_reported":1738629923,"current_range_meters":25200,"station_id":"ce4bh412rcd13ifvqds0","pricing_plan_id":"cebpf4jnsgd1na2vs0mg"},{"bike_id":"82b96249-9f3e-451b-ae28-0614063677c1","system_id":"levelo_inurba_marseille","lat":43.23188,"lon":5.3998,"is_reserved":false,"is_disabled":false,"rental_uris":{"android":"levelo://app?vid=82b96249-9f3e-451b-ae28-0614063677c1","ios":"levelo://app?vid=82b96249-9f3e-451b-ae28-0614063677c1"},"vehicle_type_id":"4","last_reported":1738629923,"current_range_meters":22800,"station_id":"ce4bhn12rcd13ifvqgqg","pricing_plan_id":"cebpf4jnsgd1na2vs0mg"},{"bike_id":"92e853dc-07be-4af7-b1f3-3330ea5bb99c","system_id":"levelo_inurba_marseille","lat":43.29873,"lon":5.39733,"is_reserved":false,"is_disabled":false,"rental_uris":{"android":"levelo://app?vid=92e853dc-07be-4af7-b1f3-3330ea5bb99c","ios":"levelo://app?vid=92e853dc-07be-4af7-b1f3-3330ea5bb99c"},"vehicle_type_id":"4","last_reported":1738629923,"current_range_meters":17200,"station_id":"ce4bh0h2rcd13ifvqd50","pricing_plan_id":"cebpf4jnsgd1na2vs0mg"},{"bike_id":"9d611a47-694e-47c1-9f31-92cb2a465008","system_id":"levelo_inurba_marseille","lat":43.27434,"lon":5.39402,"is_reserved":false,"is_disabled":false,"rental_uris":{"android":"levelo://app?vid=9d611a47-694e-47c1-9f31-92cb2a465008","ios":"levelo://app?vid=9d611a47-694e-47c1-9f31-92cb2a465008"},"vehicle_type_id":"4","last_reported":1738629923,"current_range_meters":37600,"station_id":"ce4bhdp2rcd13ifvqf20","pricing_plan_id":"cebpf4jnsgd1na2vs0mg"},{"bike_id":"08691341-08de-4814-8055-e780af04f89c","system_id":"levelo_inurba_marseille","lat":43.24992,"lon":5.38933,"is_reserved":false,"is_disabled":false,"rental_uris":{"android":"levelo://app?vid=08691341-08de-4814-8055-e780af04f89c","ios":"levelo://app?vid=08691341-08de-4814-8055-e780af04f89c"},"vehicle_type_id":"4","last_reported":1738629923,"current_range_meters":38400,"station_id":"ce4bhgp2rcd13ifvqfd0","pricing_plan_id":"cebpf4jnsgd1na2vs0mg"},{"bike_id":"8ec883eb-b186-42b1-a898-c67e51940610","system_id":"levelo_inurba_marseille","lat":43.31174,"lon":5.38719,"is_reserved":false,"is_disabled":false,"rental_uris":{"android":"levelo://app?vid=8ec883eb-b186-42b1-a898-c67e51940610","ios":"levelo://app?vid=8ec883eb-b186-42b1-a898-c67e51940610"},"vehicle_type_id":"4","last_reported":1738629923,"current_range_meters":38800,"station_id":"ce4bgv12rcd13ifvqcp0","pricing_plan_id":"cebpf4jnsgd1na2vs0mg"},{"bike_id":"3eeff02b-8268-4022-b26d-26bab769f3f5","system_id":"levelo_inurba_marseille","lat":43.28408,"lon":5.37523,"is_reserved":false,"is_disabled":false,"rental_uris":{"android":"levelo://app?vid=3eeff02b-8268-4022-b26d-26bab769f3f5","ios":"levelo://app?vid=3eeff02b-8268-4022-b26d-26bab769f3f5"},"vehicle_type_id":"4","last_reported":1738629923,"current_range_meters":25600,"station_id":"ce4bh412rcd13ifvqds0","pricing_plan_id":"cebpf4jnsgd1na2vs0mg"},{"bike_id":"a659468e-92fb-408c-b224-7b187ed486c6","system_id":"levelo_inurba_marseille","lat":43.24067,"lon":5.37763,"is_reserved":false,"is_disabled":false,"rental_uris":{"android":"levelo://app?vid=a659468e-92fb-408c-b224-7b187ed486c6","ios":"levelo://app?vid=a659468e-92fb-408c-b224-7b187ed486c6"},"vehicle_type_id":"4","last_reported":1738629923,"current_range_meters":38800,"station_id":"ce4bhnp2rcd13ifvqgvg","pricing_plan_id":"cebpf4jnsgd1na2vs0mg"},{"bike_id":"35798297-b936-47d1-8a98-bfdb50e14c75","system_id":"levelo_inurba_marseille","lat":43.321,"lon":5.43308,"is_reserved":false,"is_disabled":false,"rental_uris":{"android":"levelo://app?vid=35798297-b936-47d1-8a98-bfdb50e14c75","ios":"levelo://app?vid=35798297-b936-47d1-8a98-bfdb50e14c75"},"vehicle_type_id":"4","last_reported":1738629923,"current_range_meters":38800,"station_id":"","pricing_plan_id":"cebpf4jnsgd1na2vs0mg"},{"bike_id":"c3066916-eed2-4635-b496-6709235f4164","system_id":"levelo_inurba_marseille","lat":43.24996,"lon":5.3893,"is_reserved":false,"is_disabled":false,"rental_uris":{"android":"levelo://app?vid=c3066916-eed2-4635-b496-6709235f4164","ios":"levelo://app?vid=c3066916-eed2-4635-b496-6709235f4164"},"vehicle_type_id":"4","last_reported":1738629923,"current_range_meters":16000,"station_id":"ce4bhgp2rcd13ifvqfd0","pricing_plan_id":"cebpf4jnsgd1na2vs0mg"},{"bike_id":"ce77c1af-a4ba-4f3f-9852-f91b585ab226","system_id":"levelo_inurba_marseille","lat":43.28479,"lon":5.3844,"is_reserved":false,"is_disabled":false,"rental_uris":{"android":"levelo://app?vid=ce77c1af-a4ba-4f3f-9852-f91b585ab226","ios":"levelo://app?vid=ce77c1af-a4ba-4f3f-9852-f91b585ab226"},"vehicle_type_id":"4","last_reported":1738629923,"current_range_meters":37600,"station_id":"ce4bh512rcd13ifvqe3g","pricing_plan_id":"cebpf4jnsgd1na2vs0mg"},{"bike_id":"e6dc612f-7f56-4634-8aac-2cfefb7b3910","system_id":"levelo_inurba_marseille","lat":43.28248,"lon":5.35089,"is_reserved":false,"is_disabled":true,"rental_uris":{"android":"levelo://app?vid=e6dc612f-7f56-4634-8aac-2cfefb7b3910","ios":"levelo://app?vid=e6dc612f-7f56-4634-8aac-2cfefb7b3910"},"vehicle_type_id":"4","last_reported":1738629923,"current_range_meters":33600,"station_id":"ce4bhbp2rcd13ifvqerg","pricing_plan_id":"cebpf4jnsgd1na2vs0mg"},{"bike_id":"fa48af50-f7f8-463b-8073-011bea7848cf","system_id":"levelo_inurba_marseille","lat":43.26981,"lon":5.40193,"is_reserved":false,"is_disabled":false,"rental_uris":{"android":"levelo://app?vid=fa48af50-f7f8-463b-8073-011bea7848cf","ios":"levelo://app?vid=fa48af50-f7f8-463b-8073-011bea7848cf"},"vehicle_type_id":"4","last_reported":1738629923,"current_range_meters":34800,"station_id":"","pricing_plan_id":"cebpf4jnsgd1na2vs0mg"},{"bike_id":"350e05a0-dd4f-42d2-bcda-4f78eefeedf8","system_id":"levelo_inurba_marseille","lat":43.29869,"lon":5.39731,"is_reserved":false,"is_disabled":false,"rental_uris":{"android":"levelo://app?vid=350e05a0-dd4f-42d2-bcda-4f78eefeedf8","ios":"levelo://app?vid=350e05a0-dd4f-42d2-bcda-4f78eefeedf8"},"vehicle_type_id":"4","last_reported":1738629923,"current_range_meters":39200,"station_id":"ce4bh0h2rcd13ifvqd50","pricing_plan_id":"cebpf4jnsgd1na2vs0mg"},{"bike_id":"83d0b710-3e02-4d17-97dd-bd4bcd42d4f9","system_id":"levelo_inurba_marseille","lat":43.26933,"lon":5.40252,"is_reserved":false,"is_disabled":false,"rental_uris":{"android":"levelo://app?vid=83d0b710-3e02-4d17-97dd-bd4bcd42d4f9","ios":"levelo://app?vid=83d0b710-3e02-4d17-97dd-bd4bcd42d4f9"},"vehicle_type_id":"4","last_reported":1738629923,"current_range_meters":12000,"station_id":"cjm6bp8fraef2m0cb0m0","pricing_plan_id":"cebpf4jnsgd1na2vs0mg"},{"bike_id":"bab749bb-d933-48a9-82cb-07f6f36a39e1","system_id":"levelo_inurba_marseille","lat":43.29225,"lon":5.36084,"is_reserved":false,"is_disabled":false,"rental_uris":{"android":"levelo://app?vid=bab749bb-d933-48a9-82cb-07f6f36a39e1","ios":"levelo://app?vid=bab749bb-d933-48a9-82cb-07f6f36a39e1"},"vehicle_type_id":"4","last_reported":1738629923,"current_range_meters":9200,"station_id":"ce4bhbh2rcd13ifvqeqg","pricing_plan_id":"cebpf4jnsgd1na2vs0mg"},{"bike_id":"7bbd1ca9-5cb4-4750-a3f0-60560373cbff","system_id":"levelo_inurba_marseille","lat":43.254923,"lon":5.376492,"is_reserved":false,"is_disabled":false,"rental_uris":{"android":"levelo://app?vid=7bbd1ca9-5cb4-4750-a3f0-60560373cbff","ios":"levelo://app?vid=7bbd1ca9-5cb4-4750-a3f0-60560373cbff"},"vehicle_type_id":"4","last_reported":1738629923,"current_range_meters":38400,"station_id":"ce4bhh12rcd13ifvqff0","pricing_plan_id":"cebpf4jnsgd1na2vs0mg"},{"bike_id":"e30f81a1-0332-4908-a5b7-e29f3605e076","system_id":"levelo_inurba_marseille","lat":43.31677,"lon":5.37752,"is_reserved":false,"is_disabled":false,"rental_uris":{"android":"levelo://app?vid=e30f81a1-0332-4908-a5b7-e29f3605e076","ios":"levelo://app?vid=e30f81a1-0332-4908-a5b7-e29f3605e076"},"vehicle_type_id":"4","last_reported":1738629923,"current_range_meters":9600,"station_id":"ce4bgth2rcd13ifvqch0","pricing_plan_id":"cebpf4jnsgd1na2vs0mg"},{"bike_id":"142fa3db-2f40-4d2f-82fa-8e26205170b7","system_id":"levelo_inurba_marseille","lat":43.28156,"lon":5.42656,"is_reserved":false,"is_disabled":false,"rental_uris":{"android":"levelo://app?vid=142fa3db-2f40-4d2f-82fa-8e26205170b7","ios":"levelo://app?vid=142fa3db-2f40-4d2f-82fa-8e26205170b7"},"vehicle_type_id":"4","last_reported":1738629923,"current_range_meters":10800,"station_id":"ce4bhnh2rcd13ifvqgug","pricing_plan_id":"cebpf4jnsgd1na2vs0mg"},{"bike_id":"506a5841-1d0a-4e9a-bf75-c549116e09f0","system_id":"levelo_inurba_marseille","lat":43.27814,"lon":5.40693,"is_reserved":false,"is_disabled":false,"rental_uris":{"android":"levelo://app?vid=506a5841-1d0a-4e9a-bf75-c549116e09f0","ios":"levelo://app?vid=506a5841-1d0a-4e9a-bf75-c549116e09f0"},"vehicle_type_id":"4","last_reported":1738629923,"current_range_meters":31200,"station_id":"ce4bhnh2rcd13ifvqgtg","pricing_plan_id":"cebpf4jnsgd1na2vs0mg"},{"bike_id":"0894c882-e08b-4078-a8e2-e0c60773828f","system_id":"levelo_inurba_marseille","lat":43.28932,"lon":5.38407,"is_reserved":false,"is_disabled":false,"rental_uris":{"android":"levelo://app?vid=0894c882-e08b-4078-a8e2-e0c60773828f","ios":"levelo://app?vid=0894c882-e08b-4078-a8e2-e0c60773828f"},"vehicle_type_id":"4","last_reported":1738629923,"current_range_meters":38000,"station_id":"ce4bh612rcd13ifvqe6g","pricing_plan_id":"cebpf4jnsgd1na2vs0mg"},{"bike_id":"dd46f1bc-9af9-4edc-9f8c-bb448f9fbea2","system_id":"levelo_inurba_marseille","lat":43.26511,"lon":5.39039,"is_reserved":false,"is_disabled":false,"rental_uris":{"android":"levelo://app?vid=dd46f1bc-9af9-4edc-9f8c-bb448f9fbea2","ios":"levelo://app?vid=dd46f1bc-9af9-4edc-9f8c-bb448f9fbea2"},"vehicle_type_id":"4","last_reported":1738629923,"current_range_meters":38800,"station_id":"ce4bhe12rcd13ifvqf30","pricing_plan_id":"cebpf4jnsgd1na2vs0mg"},{"bike_id":"ae50caec-5ecb-4a77-8148-ffb9866043e3","system_id":"levelo_inurba_marseille","lat":43.32341,"lon":5.38883,"is_reserved":false,"is_disabled":false,"rental_uris":{"android":"levelo://app?vid=ae50caec-5ecb-4a77-8148-ffb9866043e3","ios":"levelo://app?vid=ae50caec-5ecb-4a77-8148-ffb9866043e3"},"vehicle_type_id":"4","last_reported":1738629923,"current_range_meters":27200,"station_id":"ce4bhqp2rcd13ifvqhog","pricing_plan_id":"cebpf4jnsgd1na2vs0mg"},{"bike_id":"6bb18b6b-35db-4080-8375-2a2e83c6fc4b","system_id":"levelo_inurba_marseille","lat":43.231503,"lon":5.437093,"is_reserved":false,"is_disabled":true,"rental_uris":{"android":"levelo://app?vid=6bb18b6b-35db-4080-8375-2a2e83c6fc4b","ios":"levelo://app?vid=6bb18b6b-35db-4080-8375-2a2e83c6fc4b"},"vehicle_type_id":"4","last_reported":1738629923,"current_range_meters":38800,"station_id":"ce4bhmp2rcd13ifvqgog","pricing_plan_id":"cebpf4jnsgd1na2vs0mg"},{"bike_id":"9941cd6a-34cf-406a-8e90-7a8373d985f3","system_id":"levelo_inurba_marseille","lat":43.2559,"lon":5.38256,"is_reserved":false,"is_disabled":false,"rental_uris":{"android":"levelo://app?vid=9941cd6a-34cf-406a-8e90-7a8373d985f3","ios":"levelo://app?vid=9941cd6a-34cf-406a-8e90-7a8373d985f3"},"vehicle_type_id":"4","last_reported":1738629923,"current_range_meters":28800,"station_id":"ce4bhih2rcd13ifvqfs0","pricing_plan_id":"cebpf4jnsgd1na2vs0mg"},{"bike_id":"d0a22736-09d6-46db-a1a2-d82c990ae0d9","system_id":"levelo_inurba_marseille","lat":43.303208,"lon":5.404426,"is_reserved":false,"is_disabled":false,"rental_uris":{"android":"levelo://app?vid=d0a22736-09d6-46db-a1a2-d82c990ae0d9","ios":"levelo://app?vid=d0a22736-09d6-46db-a1a2-d82c990ae0d9"},"vehicle_type_id":"4","last_reported":1738629923,"current_range_meters":37600,"station_id":"ce4bh012rcd13ifvqd10","pricing_plan_id":"cebpf4jnsgd1na2vs0mg"},{"bike_id":"787b7837-f258-4886-bbf5-841ee39c0166","system_id":"levelo_inurba_marseille","lat":43.2827,"lon":5.35086,"is_reserved":false,"is_disabled":true,"rental_uris":{"android":"levelo://app?vid=787b7837-f258-4886-bbf5-841ee39c0166","ios":"levelo://app?vid=787b7837-f258-4886-bbf5-841ee39c0166"},"vehicle_type_id":"4","last_reported":1738629923,"current_range_meters":38800,"station_id":"ce4bhbp2rcd13ifvqerg","pricing_plan_id":"cebpf4jnsgd1na2vs0mg"},{"bike_id":"35e9be92-813b-4a24-804a-34341a2b466d","system_id":"levelo_inurba_marseille","lat":43.26501,"lon":5.39554,"is_reserved":false,"is_disabled":false,"rental_uris":{"android":"levelo://app?vid=35e9be92-813b-4a24-804a-34341a2b466d","ios":"levelo://app?vid=35e9be92-813b-4a24-804a-34341a2b466d"},"vehicle_type_id":"4","last_reported":1738629923,"current_range_meters":10000,"station_id":"ce4bhi12rcd13ifvqfq0","pricing_plan_id":"cebpf4jnsgd1na2vs0mg"},{"bike_id":"f1d332be-033d-4862-b729-550aef6f2edc","system_id":"levelo_inurba_marseille","lat":43.25077,"lon":5.39518,"is_reserved":false,"is_disabled":false,"rental_uris":{"android":"levelo://app?vid=f1d332be-033d-4862-b729-550aef6f2edc","ios":"levelo://app?vid=f1d332be-033d-4862-b729-550aef6f2edc"},"vehicle_type_id":"4","last_reported":1738629923,"current_range_meters":20000,"station_id":"ce4bhm12rcd13ifvqgkg","pricing_plan_id":"cebpf4jnsgd1na2vs0mg"},{"bike_id":"a900de3e-9b85-4eee-8886-aef2be1bd40e","system_id":"levelo_inurba_marseille","lat":43.31322,"lon":5.39689,"is_reserved":false,"is_disabled":false,"rental_uris":{"android":"levelo://app?vid=a900de3e-9b85-4eee-8886-aef2be1bd40e","ios":"levelo://app?vid=a900de3e-9b85-4eee-8886-aef2be1bd40e"},"vehicle_type_id":"4","last_reported":1738629923,"current_range_meters":38000,"station_id":"ce4bgvp2rcd13ifvqcu0","pricing_plan_id":"cebpf4jnsgd1na2vs0mg"},{"bike_id":"1c60721d-66cc-4b26-a3e7-285be6d19c38","system_id":"levelo_inurba_marseille","lat":43.283526,"lon":5.381169,"is_reserved":false,"is_disabled":false,"rental_uris":{"android":"levelo://app?vid=1c60721d-66cc-4b26-a3e7-285be6d19c38","ios":"levelo://app?vid=1c60721d-66cc-4b26-a3e7-285be6d19c38"},"vehicle_type_id":"4","last_reported":1738629923,"current_range_meters":39200,"station_id":"ce4bh412rcd13ifvqdr0","pricing_plan_id":"cebpf4jnsgd1na2vs0mg"},{"bike_id":"56081159-df62-42ae-b364-bd5d318e4fb2","system_id":"levelo_inurba_marseille","lat":43.30886,"lon":5.37214,"is_reserved":false,"is_disabled":false,"rental_uris":{"android":"levelo://app?vid=56081159-df62-42ae-b364-bd5d318e4fb2","ios":"levelo://app?vid=56081159-df62-42ae-b364-bd5d318e4fb2"},"vehicle_type_id":"4","last_reported":1738629923,"current_range_meters":31200,"station_id":"ce4bguh2rcd13ifvqckg","pricing_plan_id":"cebpf4jnsgd1na2vs0mg"},{"bike_id":"7d17c2ea-93c1-4b27-b7bc-57ccea4f34fb","system_id":"levelo_inurba_marseille","lat":43.31267,"lon":5.4018,"is_reserved":false,"is_disabled":false,"rental_uris":{"android":"levelo://app?vid=7d17c2ea-93c1-4b27-b7bc-57ccea4f34fb","ios":"levelo://app?vid=7d17c2ea-93c1-4b27-b7bc-57ccea4f34fb"},"vehicle_type_id":"4","last_reported":1738629923,"current_range_meters":38800,"station_id":"ce4bh092rcd13ifvqd30","pricing_plan_id":"cebpf4jnsgd1na2vs0mg"},{"bike_id":"83350cfc-0836-4fbd-88e8-731d525020a3","system_id":"levelo_inurba_marseille","lat":43.29039,"lon":5.37555,"is_reserved":false,"is_disabled":false,"rental_uris":{"android":"levelo://app?vid=83350cfc-0836-4fbd-88e8-731d525020a3","ios":"levelo://app?vid=83350cfc-0836-4fbd-88e8-731d525020a3"},"vehicle_type_id":"4","last_reported":1738629923,"current_range_meters":37600,"station_id":"ce4bh692rcd13ifvqe90","pricing_plan_id":"cebpf4jnsgd1na2vs0mg"},