{"last_updated":1701234428,"ttl":30,"version":"2.2","data":{"bikes":[{"bike_id":"273d6899-aff4-4593-a92f-5b8dc631b1cb","system_id":"levelo_inurba_marseille","lat":43.313391,"lon":5.36706,"is_reserved":false,"is_disabled":false,"rental_uris":{"android":"levelo://app?vid=273d6899-aff4-4593-a92f-5b8dc631b1cb","ios":"levelo://app?vid=273d6899-aff4-4593-a92f-5b8dc631b1cb"},"vehicle_type_id":"4","last_reported":1701234428,"current_range_meters":28800,"station_id":"ce4bgr92rcd13ifvqc6g","pricing_plan_id":"free"},{"bike_id":"47ba0175-995f-4223-b954-ba3f075cd25c","system_id":"levelo_inurba_marseille","lat":43.31341,"lon":5.367098,"is_reserved":false,"is_disabled":false,"rental_uris":{"android":"levelo://app?vid=47ba0175-995f-4223-b954-ba3f075cd25c","ios":"levelo://app?vid=47ba0175-995f-4223-b954-ba3f075cd25c"},"vehicle_type_id":"4","last_reported":1701234428,"current_range_meters":29600,"station_id":"ce4bgr92rcd13ifvqc6g","pricing_plan_id":"free"},{"bike_id":"227950cb-57c1-48ec-8137-c01c1cde9d37","system_id":"levelo_inurba_marseille","lat":43.314811,"lon":5.373103,"is_reserved":false,"is_disabled":false,"rental_uris":{"android":"levelo://app?vid=227950cb-57c1-48ec-8137-c01c1cde9d37","ios":"levelo://app?vid=227950cb-57c1-48ec-8137-c01c1cde9d37"},"vehicle_type_id":"4","last_reported":1701234428,"current_range_meters":28400,"station_id":"ce4bgt12rcd13ifvqcd0","pricing_plan_id":"free"},{"bike_id":"62cabb95-2e13-44cc-b533-ba3a65f1fa7f","system_id":"levelo_inurba_marseille","lat":43.309039,"lon":5.371797,"is_reserved":false,"is_disabled":false,"rental_uris":{"android":"levelo://app?vid=62cabb95-2e13-44cc-b533-ba3a65f1fa7f","ios":"levelo://app?vid=62cabb95-2e13-44cc-b533-ba3a65f1fa7f"},"vehicle_type_id":"4","last_reported":1701234428,"current_range_meters":21600,"station_id":"ce4bguh2rcd13ifvqckg","pricing_plan_id":"free"},{"bike_id":"c582c196-6d07-4b30-b2c2-0d8b690c923c","system_id":"levelo_inurba_marseille","lat":43.309039,"lon":5.371797,"is_reserved":false,"is_disabled":false,"rental_uris":{"android":"levelo://app?vid=c582c196-6d07-4b30-b2c2-0d8b690c923c","ios":"levelo://app?vid=c582c196-6d07-4b30-b2c2-0d8b690c923c"},"vehicle_type_id":"4","last_reported":1701234428,"current_range_meters":30000,"station_id":"ce4bguh2rcd13ifvqckg","pricing_plan_id":"free"},{"bike_id":"e6cb03c2-5f9e-4178-8416-6f41ed632ae8","system_id":"levelo_inurba_marseille","lat":43.305368,"lon":5.367343,"is_reserved":false,"is_disabled":false,"rental_uris":{"android":"levelo://app?vid=e6cb03c2-5f9e-4178-8416-6f41ed632ae8","ios":"levelo://app?vid=e6cb03c2-5f9e-4178-8416-6f41ed632ae8"},"vehicle_type_id":"4","last_reported":1701234428,"current_range_meters":0,"station_id":"ce4bgrp2rcd13ifvqc9g","pricing_plan_id":"free"},{"bike_id":"65af0e14-afcb-43b7-a1a3-06dce25629b3","system_id":"levelo_inurba_marseille","lat":43.305368,"lon":5.367343,"is_reserved":false,"is_disabled":false,"rental_uris":{"android":"levelo://app?vid=65af0e14-afcb-43b7-a1a3-06dce25629b3","ios":"levelo://app?vid=65af0e14-afcb-43b7-a1a3-06dce25629b3"},"vehicle_type_id":"4","last_reported":1701234428,"current_range_meters":30000,"station_id":"ce4bgrp2rcd13ifvqc9g","pricing_plan_id":"free"},{"bike_id":"50fa95a5-0838-4f69-aa14-89836d3ce4f0","system_id":"levelo_inurba_marseille","lat":43.305989,"lon":5.37225,"is_reserved":false,"is_disabled":false,"rental_uris":{"android":"levelo://app?vid=50fa95a5-0838-4f69-aa14-89836d3ce4f0","ios":"levelo://app?vid=50fa95a5-0838-4f69-aa14-89836d3ce4f0"},"vehicle_type_id":"4","last_reported":1701234428,"current_range_meters":21200,"station_id":"ce4bgqh2rcd13ifvqc4g","pricing_plan_id":"free"},{"bike_id":"7fa2f231-d105-47e6-acb6-4b882951d82b","system_id":"levelo_inurba_marseille","lat":43.306024,"lon":5.372104,"is_reserved":false,"is_disabled":false,"rental_uris":{"android":"levelo://app?vid=7fa2f231-d105-47e6-acb6-4b882951d82b","ios":"levelo://app?vid=7fa2f231-d105-47e6-acb6-4b882951d82b"},"vehicle_type_id":"4","last_reported":1701234428,"current_range_meters":5600,"station_id":"ce4bgqh2rcd13ifvqc4g","pricing_plan_id":"free"},{"bike_id":"d72fd850-1e76-4d1d-9512-eb59d2648389","system_id":"levelo_inurba_marseille","lat":43.30602,"lon":5.3721,"is_reserved":false,"is_disabled":false,"rental_uris":{"android":"levelo://app?vid=d72fd850-1e76-4d1d-9512-eb59d2648389","ios":"levelo://app?vid=d72fd850-1e76-4d1d-9512-eb59d2648389"},"vehicle_type_id":"4","last_reported":1701234428,"current_range_meters":24400,"station_id":"ce4bgqh2rcd13ifvqc4g","pricing_plan_id":"free"},{"bike_id":"1f3ac414-ce46-4010-b946-2357ae3ea287","system_id":"levelo_inurba_marseille","lat":43.306038,"lon":5.372165,"is_reserved":false,"is_disabled":false,"rental_uris":{"android":"levelo://app?vid=1f3ac414-ce46-4010-b946-2357ae3ea287","ios":"levelo://app?vid=1f3ac414-ce46-4010-b946-2357ae3ea287"},"vehicle_type_id":"4","last_reported":1701234428,"current_range_meters":26000,"station_id":"ce4bgqh2rcd13ifvqc4g","pricing_plan_id":"free"},{"bike_id":"b403b39c-6d65-489c-a02e-5794206ab32e","system_id":"levelo_inurba_marseille","lat":43.305953,"lon":5.372236,"is_reserved":false,"is_disabled":false,"rental_uris":{"android":"levelo://app?vid=b403b39c-6d65-489c-a02e-5794206ab32e","ios":"levelo://app?vid=b403b39c-6d65-489c-a02e-5794206ab32e"},"vehicle_type_id":"4","last_reported":1701234428,"current_range_meters":16800,"station_id":"ce4bgqh2rcd13ifvqc4g","pricing_plan_id":"free"},{"bike_id":"b43c0352-9df5-4c6c-a857-30f32fca091c","system_id":"levelo_inurba_marseille","lat":43.311125,"lon":5.377624,"is_reserved":false,"is_disabled":false,"rental_uris":{"android":"levelo://app?vid=b43c0352-9df5-4c6c-a857-30f32fca091c","ios":"levelo://app?vid=b43c0352-9df5-4c6c-a857-30f32fca091c"},"vehicle_type_id":"4","last_reported":1701234428,"current_range_meters":4800,"station_id":"ce4bgt92rcd13ifvqcg0","pricing_plan_id":"free"},{"bike_id":"6948445e-d427-4d92-96f0-50e689e7f781","system_id":"levelo_inurba_marseille","lat":43.311131,"lon":5.377651,"is_reserved":false,"is_disabled":false,"rental_uris":{"android":"levelo://app?vid=6948445e-d427-4d92-96f0-50e689e7f781","ios":"levelo://app?vid=6948445e-d427-4d92-96f0-50e689e7f781"},"vehicle_type_id":"4","last_reported":1701234428,"current_range_meters":23600,"station_id":"ce4bgt92rcd13ifvqcg0","pricing_plan_id":"free"},{"bike_id":"45b3ff23-a937-45d9-9f96-088c308c0189","system_id":"levelo_inurba_marseille","lat":43.308185,"lon":5.376553,"is_reserved":false,"is_disabled":false,"rental_uris":{"android":"levelo://app?vid=45b3ff23-a937-45d9-9f96-088c308c0189","ios":"levelo://app?vid=45b3ff23-a937-45d9-9f96-088c308c0189"},"vehicle_type_id":"4","last_reported":1701234428,"current_range_meters":10400,"station_id":"ce4bgv92rcd13ifvqcq0","pricing_plan_id":"free"},{"bike_id":"f427a2c3-6e4a-446b-ae2f-9be8aa7f4122","system_id":"levelo_inurba_marseille","lat":43.31719,"lon":5.376813,"is_reserved":false,"is_disabled":false,"rental_uris":{"android":"levelo://app?vid=f427a2c3-6e4a-446b-ae2f-9be8aa7f4122","ios":"levelo://app?vid=f427a2c3-6e4a-446b-ae2f-9be8aa7f4122"},"vehicle_type_id":"4","last_reported":1701234428,"current_range_meters":10800,"station_id":"ce4bgth2rcd13ifvqch0","pricing_plan_id":"free"},{"bike_id":"e913f328-1e31-4c22-bd87-f809ea246de4","system_id":"levelo_inurba_marseille","lat":43.317168,"lon":5.376883,"is_reserved":false,"is_disabled":false,"rental_uris":{"android":"levelo://app?vid=e913f328-1e31-4c22-bd87-f809ea246de4","ios":"levelo://app?vid=e913f328-1e31-4c22-bd87-f809ea246de4"},"vehicle_type_id":"4","last_reported":1701234428,"current_range_meters":13200,"station_id":"ce4bgth2rcd13ifvqch0","pricing_plan_id":"free"},{"bike_id":"7cbb935f-6726-4695-a726-02269c036cc1","system_id":"levelo_inurba_marseille","lat":43.307945,"lon":5.376487,"is_reserved":false,"is_disabled":false,"rental_uris":{"android":"levelo://app?vid=7cbb935f-6726-4695-a726-02269c036cc1","ios":"levelo://app?vid=7cbb935f-6726-4695-a726-02269c036cc1"},"vehicle_type_id":"4","last_reported":1701234428,"current_range_meters":1200,"station_id":"ce4bgv92rcd13ifvqcq0","pricing_plan_id":"free"},{"bike_id":"5bc4e475-ab5c-4ba8-9849-973831b65237","system_id":"levelo_inurba_marseille","lat":43.317075,"lon":5.377367,"is_reserved":false,"is_disabled":false,"rental_uris":{"android":"levelo://app?vid=5bc4e475-ab5c-4ba8-9849-973831b65237","ios":"levelo://app?vid=5bc4e475-ab5c-4ba8-9849-973831b65237"},"vehicle_type_id":"4","last_reported":1701234428,"current_range_meters":27600,"station_id":"ce4bgth2rcd13ifvqch0","pricing_plan_id":"free"},{"bike_id":"80395033-0931-4d5e-ab5e-188ad2d45c18","system_id":"levelo_inurba_marseille","lat":43.303046,"lon":5.368981,"is_reserved":false,"is_disabled":false,"rental_uris":{"android":"levelo://app?vid=80395033-0931-4d5e-ab5e-188ad2d45c18","ios":"levelo://app?vid=80395033-0931-4d5e-ab5e-188ad2d45c18"},"vehicle_type_id":"4","last_reported":1701234428,"current_range_meters":27600,"station_id":"ce4bgqh2rcd13ifvqc5g","pricing_plan_id":"free"},{"bike_id":"65efaea0-45e5-4ea1-8d1b-e52a0f544898","system_id":"levelo_inurba_marseille","lat":43.315347,"lon":5.380289,"is_reserved":false,"is_disabled":false,"rental_uris":{"android":"levelo://app?vid=65efaea0-45e5-4ea1-8d1b-e52a0f544898","ios":"levelo://app?vid=65efaea0-45e5-4ea1-8d1b-e52a0f544898"},"vehicle_type_id":"4","last_reported":1701234428,"current_range_meters":12000,"station_id":"ce4bhsp2rcd13ifvqi50","pricing_plan_id":"free"},{"bike_id":"3e09080e-9db5-4c48-951f-c5f672a60264","system_id":"levelo_inurba_marseille","lat":43.321616,"lon":5.374653,"is_reserved":false,"is_disabled":false,"rental_uris":{"android":"levelo://app?vid=3e09080e-9db5-4c48-951f-c5f672a60264","ios":"levelo://app?vid=3e09080e-9db5-4c48-951f-c5f672a60264"},"vehicle_type_id":"4","last_reported":1701234428,"current_range_meters":9600,"station_id":"","pricing_plan_id":"free"},{"bike_id":"06d8ce1f-df42-4162-94de-3b45a02a43d3","system_id":"levelo_inurba_marseille","lat":43.301939,"lon":5.366286,"is_reserved":false,"is_disabled":false,"rental_uris":{"android":"levelo://app?vid=06d8ce1f-df42-4162-94de-3b45a02a43d3","ios":"levelo://app?vid=06d8ce1f-df42-4162-94de-3b45a02a43d3"},"vehicle_type_id":"4","last_reported":1701234428,"current_range_meters":30400,"station_id":"ce4bgrh2rcd13ifvqc8g","pricing_plan_id":"free"},{"bike_id":"3d35ca43-23fe-4daa-81bb-d94d227dd124","system_id":"levelo_inurba_marseille","lat":43.301939,"lon":5.366286,"is_reserved":false,"is_disabled":false,"rental_uris":{"android":"levelo://app?vid=3d35ca43-23fe-4daa-81bb-d94d227dd124","ios":"levelo://app?vid=3d35ca43-23fe-4daa-81bb-d94d227dd124"},"vehicle_type_id":"4","last_reported":1701234428,"current_range_meters":31600,"station_id":"ce4bgrh2rcd13ifvqc8g","pricing_plan_id":"free"},{"bike_id":"3be4ebed-cdce-4b38-ae9a-07b083c9d4e5","system_id":"levelo_inurba_marseille","lat":43.301939,"lon":5.366286,"is_reserved":false,"is_disabled":false,"rental_uris":{"android":"levelo://app?vid=3be4ebed-cdce-4b38-ae9a-07b083c9d4e5","ios":"levelo://app?vid=3be4ebed-cdce-4b38-ae9a-07b083c9d4e5"},"vehicle_type_id":"4","last_reported":1701234428,"current_range_meters":19600,"station_id":"ce4bgrh2rcd13ifvqc8g","pricing_plan_id":"free"},{"bike_id":"9e384e10-7e38-442c-9e21-54e7c8f45ec6","system_id":"levelo_inurba_marseille","lat":43.301799,"lon":5.366152,"is_reserved":false,"is_disabled":false,"rental_uris":{"android":"levelo://app?vid=9e384e10-7e38-442c-9e21-54e7c8f45ec6","ios":"levelo://app?vid=9e384e10-7e38-442c-9e21-54e7c8f45ec6"},"vehicle_type_id":"4","last_reported":1701234428,"current_range_meters":16400,"station_id":"","pricing_plan_id":"free"},{"bike_id":"bf1ef153-cda5-4785-813f-93d302172f11","system_id":"levelo_inurba_marseille","lat":43.308012,"lon":5.381511,"is_reserved":false,"is_disabled":false,"rental_uris":{"android":"levelo://app?vid=bf1ef153-cda5-4785-813f-93d302172f11","ios":"levelo://app?vid=bf1ef153-cda5-4785-813f-93d302172f11"},"vehicle_type_id":"4","last_reported":1701234428,"current_range_meters":9200,"station_id":"ce4bgt12rcd13ifvqce0","pricing_plan_id":"free"},{"bike_id":"99806532-4f3c-43f1-aa27-7b16871be399","system_id":"levelo_inurba_marseille","lat":43.308012,"lon":5.381511,"is_reserved":false,"is_disabled":false,"rental_uris":{"android":"levelo://app?vid=99806532-4f3c-43f1-aa27-7b16871be399","ios":"levelo://app?vid=99806532-4f3c-43f1-aa27-7b16871be399"},"vehicle_type_id":"4","last_reported":1701234428,"current_range_meters":14000,"station_id":"ce4bgt12rcd13ifvqce0","pricing_plan_id":"free"},{"bike_id":"30518cbd-881f-4dec-ba29-4a072e46c975","system_id":"levelo_inurba_marseille","lat":43.30796,"lon":5.3816,"is_reserved":false,"is_disabled":false,"rental_uris":{"android":"levelo://app?vid=30518cbd-881f-4dec-ba29-4a072e46c975","ios":"levelo://app?vid=30518cbd-881f-4dec-ba29-4a072e46c975"},"vehicle_type_id":"4","last_reported":1701234428,"current_range_meters":22400,"station_id":"ce4bgt12rcd13ifvqce0","pricing_plan_id":"free"},{"bike_id":"3f706e49-69d6-44ab-9d8f-ab8108ec2239","system_id":"levelo_inurba_marseille","lat":43.304606,"lon":5.379026,"is_reserved":false,"is_disabled":false,"rental_uris":{"android":"levelo://app?vid=3f706e49-69d6-44ab-9d8f-ab8108ec2239","ios":"levelo://app?vid=3f706e49-69d6-44ab-9d8f-ab8108ec2239"},"vehicle_type_id":"4","last_reported":1701234428,"current_range_meters":30800,"station_id":"ce4bgup2rcd13ifvqcn0","pricing_plan_id":"free"},{"bike_id":"1a82f4e0-e573-4791-bf08-efeab84a0b62","system_id":"levelo_inurba_marseille","lat":43.304606,"lon":5.379026,"is_reserved":false,"is_disabled":false,"rental_uris":{"android":"levelo://app?vid=1a82f4e0-e573-4791-bf08-efeab84a0b62","ios":"levelo://app?vid=1a82f4e0-e573-4791-bf08-efeab84a0b62"},"vehicle_type_id":"4","last_reported":1701234428,"current_range_meters":32000,"station_id":"ce4bgup2rcd13ifvqcn0","pricing_plan_id":"free"},{"bike_id":"5b688605-3239-4132-a774-ce165b3222f7","system_id":"levelo_inurba_marseille","lat":43.30477,"lon":5.37907,"is_reserved":false,"is_disabled":false,"rental_uris":{"android":"levelo://app?vid=5b688605-3239-4132-a774-ce165b3222f7","ios":"levelo://app?vid=5b688605-3239-4132-a774-ce165b3222f7"},"vehicle_type_id":"4","last_reported":1701234428,"current_range_meters":24400,"station_id":"ce4bgup2rcd13ifvqcn0","pricing_plan_id":"free"},{"bike_id":"5af2be37-2fad-4db9-a2b0-e9637595e442","system_id":"levelo_inurba_marseille","lat":43.304606,"lon":5.379026,"is_reserved":false,"is_disabled":false,"rental_uris":{"android":"levelo://app?vid=5af2be37-2fad-4db9-a2b0-e9637595e442","ios":"levelo://app?vid=5af2be37-2fad-4db9-a2b0-e9637595e442"},"vehicle_type_id":"4","last_reported":1701234428,"current_range_meters":29600,"station_id":"ce4bgup2rcd13ifvqcn0","pricing_plan_id":"free"},{"bike_id":"45169c77-0980-40ca-8cee-d4ed64fc752c","system_id":"levelo_inurba_marseille","lat":43.304606,"lon":5.379026,"is_reserved":false,"is_disabled":false,"rental_uris":{"android":"levelo://app?vid=45169c77-0980-40ca-8cee-d4ed64fc752c","ios":"levelo://app?vid=45169c77-0980-40ca-8cee-d4ed64fc752c"},"vehicle_type_id":"4","last_reported":1701234428,"current_range_meters":27600,"station_id":"ce4bgup2rcd13ifvqcn0","pricing_plan_id":"free"},{"bike_id":"32d232ff-881a-48ff-841a-39a538d2be07","system_id":"levelo_inurba_marseille","lat":43.304606,"lon":5.379026,"is_reserved":false,"is_disabled":false,"rental_uris":{"android":"levelo://app?vid=32d232ff-881a-48ff-841a-39a538d2be07","ios":"levelo://app?vid=32d232ff-881a-48ff-841a-39a538d2be07"},"vehicle_type_id":"4","last_reported":1701234428,"current_range_meters":26000,"station_id":"ce4bgup2rcd13ifvqcn0","pricing_plan_id":"free"},{"bike_id":"26ac818e-a747-4f49-8e05-3985a37c7854","system_id":"levelo_inurba_marseille","lat":43.304606,"lon":5.379026,"is_reserved":false,"is_disabled":false,"rental_uris":{"android":"levelo://app?vid=26ac818e-a747-4f49-8e05-3985a37c7854","ios":"levelo://app?vid=26ac818e-a747-4f49-8e05-3985a37c7854"},"vehicle_type_id":"4","last_reported":1701234428,"current_range_meters":12800,"station_id":"ce4bgup2rcd13ifvqcn0","pricing_plan_id":"free"},{"bike_id":"b7567862-d038-44cc-9371-eb650482a2d6","system_id":"levelo_inurba_marseille","lat":43.304606,"lon":5.379026,"is_reserved":false,"is_disabled":false,"rental_uris":{"android":"levelo://app?vid=b7567862-d038-44cc-9371-eb650482a2d6","ios":"levelo://app?vid=b7567862-d038-44cc-9371-eb650482a2d6"},"vehicle_type_id":"4","last_reported":1701234428,"current_range_meters":22400,"station_id":"ce4bgup2rcd13ifvqcn0","pricing_plan_id":"free"},{"bike_id":"7ff9a082-4a95-4f21-9d0f-6f49085af790","system_id":"levelo_inurba_marseille","lat":43.304606,"lon":5.379026,"is_reserved":false,"is_disabled":false,"rental_uris":{"android":"levelo://app?vid=7ff9a082-4a95-4f21-9d0f-6f49085af790","ios":"levelo://app?vid=7ff9a082-4a95-4f21-9d0f-6f49085af790"},"vehicle_type_id":"4","last_reported":1701234428,"current_range_meters":20800,"station_id":"ce4bgup2rcd13ifvqcn0","pricing_plan_id":"free"},{"bike_id":"f24f2fd6-5d9c-40a1-841c-00e781607f90","system_id":"levelo_inurba_marseille","lat":43.304606,"lon":5.379026,"is_reserved":false,"is_disabled":false,"rental_uris":{"android":"levelo://app?vid=f24f2fd6-5d9c-40a1-841c-00e781607f90","ios":"levelo://app?vid=f24f2fd6-5d9c-40a1-841c-00e781607f90"},"vehicle_type_id":"4","last_reported":1701234428,"current_range_meters":29200,"station_id":"ce4bgup2rcd13ifvqcn0","pricing_plan_id":"free"},{"bike_id":"9eb437ae-8e75-4e14-a436-76054326aa6c","system_id":"levelo_inurba_marseille","lat":43.304606,"lon":5.379026,"is_reserved":false,"is_disabled":false,"rental_uris":{"android":"levelo://app?vid=9eb437ae-8e75-4e14-a436-76054326aa6c","ios":"levelo://app?vid=9eb437ae-8e75-4e14-a436-76054326aa6c"},"vehicle_type_id":"4","last_reported":1701234428,"current_range_meters":15600,"station_id":"ce4bgup2rcd13ifvqcn0","pricing_plan_id":"free"},{"bike_id":"6ed5db8e-7816-4dc7-8b62-f4d36185ed4c","system_id":"levelo_inurba_marseille","lat":43.304606,"lon":5.379026,"is_reserved":false,"is_disabled":false,"rental_uris":{"android":"levelo://app?vid=6ed5db8e-7816-4dc7-8b62-f4d36185ed4c","ios":"levelo://app?vid=6ed5db8e-7816-4dc7-8b62-f4d36185ed4c"},"vehicle_type_id":"4","last_reported":1701234428,"current_range_meters":4000,"station_id":"ce4bgup2rcd13ifvqcn0","pricing_plan_id":"free"},{"bike_id":"d8cefe2c-f886-4ec7-9b59-574e1dc5a91d","system_id":"levelo_inurba_marseille","lat":43.304606,"lon":5.379026,"is_reserved":false,"is_disabled":false,"rental_uris":{"android":"levelo://app?vid=d8cefe2c-f886-4ec7-9b59-574e1dc5a91d","ios":"levelo://app?vid=d8cefe2c-f886-4ec7-9b59-574e1dc5a91d"},"vehicle_type_id":"4","last_reported":1701234428,"current_range_meters":30000,"station_id":"ce4bgup2rcd13ifvqcn0","pricing_plan_id":"free"},{"bike_id":"419ea7e3-74ec-4f1a-bf3e-0b0b07c14b5f","system_id":"levelo_inurba_marseille","lat":43.304606,"lon":5.379026,"is_reserved":false,"is_disabled":false,"rental_uris":{"android":"levelo://app?vid=419ea7e3-74ec-4f1a-bf3e-0b0b07c14b5f","ios":"levelo://app?vid=419ea7e3-74ec-4f1a-bf3e-0b0b07c14b5f"},"vehicle_type_id":"4","last_reported":1701234428,"current_range_meters":29600,"station_id":"ce4bgup2rcd13ifvqcn0","pricing_plan_id":"free"},{"bike_id":"5715a9c8-9d8f-4eaf-82a9-ce48688f7ea1","system_id":"levelo_inurba_marseille","lat":43.324794,"lon":5.365649,"is_reserved":false,"is_disabled":false,"rental_uris":{"android":"levelo://app?vid=5715a9c8-9d8f-4eaf-82a9-ce48688f7ea1","ios":"levelo://app?vid=5715a9c8-9d8f-4eaf-82a9-ce48688f7ea1"},"vehicle_type_id":"4","last_reported":1701234428,"current_range_meters":22000,"station_id":"ce4bhs12rcd13ifvqhvg","pricing_plan_id":"free"},{"bike_id":"e7ba107d-3ace-4825-8c2f-822ba52da56e","system_id":"levelo_inurba_marseille","lat":43.301429,"lon":5.37413,"is_reserved":false,"is_disabled":false,"rental_uris":{"android":"levelo://app?vid=e7ba107d-3ace-4825-8c2f-822ba52da56e","ios":"levelo://app?vid=e7ba107d-3ace-4825-8c2f-822ba52da56e"},"vehicle_type_id":"4","last_reported":1701234428,"current_range_meters":6000,"station_id":"ce4bgs92rcd13ifvqcc0","pricing_plan_id":"free"},{"bike_id":"2592df46-6d52-4040-b44a-872969926906","system_id":"levelo_inurba_marseille","lat":43.301429,"lon":5.37413,"is_reserved":false,"is_disabled":false,"rental_uris":{"android":"levelo://app?vid=2592df46-6d52-4040-b44a-872969926906","ios":"levelo://app?vid=2592df46-6d52-4040-b44a-872969926906"},"vehicle_type_id":"4","last_reported":1701234428,"current_range_meters":32000,"station_id":"ce4bgs92rcd13ifvqcc0","pricing_plan_id":"free"},{"bike_id":"d68ff592-86e3-4859-947a-8e3e5c81913c","system_id":"levelo_inurba_marseille","lat":43.319997,"lon":5.381594,"is_reserved":false,"is_disabled":false,"rental_uris":{"android":"levelo://app?vid=d68ff592-86e3-4859-947a-8e3e5c81913c","ios":"levelo://app?vid=d68ff592-86e3-4859-947a-8e3e5c81913c"},"vehicle_type_id":"4","last_reported":1701234428,"current_range_meters":28000,"station_id":"ce4bhr12rcd13ifvqhpg","pricing_plan_id":"free"},{"bike_id":"fe3395dd-dccd-46ed-b724-d8566cb2a469","system_id":"levelo_inurba_marseille","lat":43.313571,"lon":5.384829,"is_reserved":false,"is_disabled":false,"rental_uris":{"android":"levelo://app?vid=fe3395dd-dccd-46ed-b724-d8566cb2a469","ios":"levelo://app?vid=fe3395dd-dccd-46ed-b724-d8566cb2a469"},"vehicle_type_id":"4","last_reported":1701234428,"current_range_meters":30000,"station_id":"ce4bgt92rcd13ifvqcf0","pricing_plan_id":"free"},{"bike_id":"8371f92d-ad70-45a4-8e51-8b6547f90922","system_id":"levelo_inurba_marseille","lat":43.313571,"lon":5.384829,"is_reserved":false,"is_disabled":false,"rental_uris":{"android":"levelo://app?vid=8371f92d-ad70-45a4-8e51-8b6547f90922","ios":"levelo://app?vid=8371f92d-ad70-45a4-8e51-8b6547f90922"},"vehicle_type_id":"4","last_reported":1701234428,"current_range_meters":30400,"station_id":"ce4bgt92rcd13ifvqcf0","pricing_plan_id":"free"},{"bike_id":"14fa3d06-74df-4e80-9f23-2258c90f60d7","system_id":"levelo_inurba_marseille","lat":43.313571,"lon":5.384829,"is_reserved":false,"is_disabled":false,"rental_uris":{"android":"levelo://app?vid=14fa3d06-74df-4e80-9f23-2258c90f60d7","ios":"levelo://app?vid=14fa3d06-74df-4e80-9f23-2258c90f60d7"},"vehicle_type_id":"4","last_reported":1701234428,"current_range_meters":23200,"station_id":"ce4bgt92rcd13ifvqcf0","pricing_plan_id":"free"},{"bike_id":"9af00aeb-cbae-4635-94c4-339e3f9e1539","system_id":"levelo_inurba_marseille","lat":43.313571,"lon":5.384829,"is_reserved":false,"is_disabled":false,"rental_uris":{"android":"levelo://app?vid=9af00aeb-cbae-4635-94c4-339e3f9e1539","ios":"levelo://app?vid=9af00aeb-cbae-4635-94c4-339e3f9e1539"},"vehicle_type_id":"4","last_reported":1701234428,"current_range_meters":28000,"station_id":"ce4bgt92rcd13ifvqcf0","pricing_plan_id":"free"},{"bike_id":"48a116e6-ed22-47cd-b8c6-45fd21f826c7","system_id":"levelo_inurba_marseille","lat":43.313571,"lon":5.384829,"is_reserved":false,"is_disabled":false,"rental_uris":{"android":"levelo://app?vid=48a116e6-ed22-47cd-b8c6-45fd21f826c7","ios":"levelo://app?vid=48a116e6-ed22-47cd-b8c6-45fd21f826c7"},"vehicle_type_id":"4","last_reported":1701234428,"current_range_meters":30400,"station_id":"ce4bgt92rcd13ifvqcf0","pricing_plan_id":"free"},{"bike_id":"4ef2de5b-130e-42dd-8287-b03daacbc3fc","system_id":"levelo_inurba_marseille","lat":43.313571,"lon":5.384829,"is_reserved":false,"is_disabled":false,"rental_uris":{"android":"levelo://app?vid=4ef2de5b-130e-42dd-8287-b03daacbc3fc","ios":"levelo://app?vid=4ef2de5b-130e-42dd-8287-b03daacbc3fc"},"vehicle_type_id":"4","last_reported":1701234428,"current_range_meters":18400,"station_id":"ce4bgt92rcd13ifvqcf0","pricing_plan_id":"free"},{"bike_id":"c3add042-f7ec-4c84-9c66-c895e1a6e483","system_id":"levelo_inurba_marseille","lat":43.313571,"lon":5.384829,"is_reserved":false,"is_disabled":false,"rental_uris":{"android":"levelo://app?vid=c3add042-f7ec-4c84-9c66-c895e1a6e483","ios":"levelo://app?vid=c3add042-f7ec-4c84-9c66-c895e1a6e483"},"vehicle_type_id":"4","last_reported":1701234428,"current_range_meters":24400,"station_id":"ce4bgt92rcd13ifvqcf0","pricing_plan_id":"free"},{"bike_id":"cd1f8a7e-8dcf-44d4-8458-e0300ec3a936","system_id":"levelo_inurba_marseille","lat":43.313571,"lon":5.384829,"is_reserved":false,"is_disabled":false,"rental_uris":{"android":"levelo://app?vid=cd1f8a7e-8dcf-44d4-8458-e0300ec3a936","ios":"levelo://app?vid=cd1f8a7e-8dcf-44d4-8458-e0300ec3a936"},"vehicle_type_id":"4","last_reported":1701234428,"current_range_meters":0,"station_id":"ce4bgt92rcd13ifvqcf0","pricing_plan_id":"free"},{"bike_id":"e4a9c53c-a5c4-40f8-8bc7-660fa7ff6c7b","system_id":"levelo_inurba_marseille","lat":43.311678,"lon":5.387048,"is_reserved":false,"is_disabled":false,"rental_uris":{"android":"levelo://app?vid=e4a9c53c-a5c4-40f8-8bc7-660fa7ff6c7b","ios":"levelo://app?vid=e4a9c53c-a5c4-40f8-8bc7-660fa7ff6c7b"},"vehicle_type_id":"4","last_reported":1701234428,"current_range_meters":26800,"station_id":"ce4bgv12rcd13ifvqcp0","pricing_plan_id":"free"},{"bike_id":"848247d5-db8c-47fd-8b87-1ebc70d97b45","system_id":"levelo_inurba_marseille","lat":43.311722,"lon":5.387247,"is_reserved":false,"is_disabled":false,"rental_uris":{"android":"levelo://app?vid=848247d5-db8c-47fd-8b87-1ebc70d97b45","ios":"levelo://app?vid=848247d5-db8c-47fd-8b87-1ebc70d97b45"},"vehicle_type_id":"4","last_reported":1701234428,"current_range_meters":30400,"station_id":"ce4bgv12rcd13ifvqcp0","pricing_plan_id":"free"},{"bike_id":"68c5792c-3743-46b0-ba80-ead5661e1a6c","system_id":"levelo_inurba_marseille","lat":43.311722,"lon":5.387247,"is_reserved":false,"is_disabled":false,"rental_uris":{"android":"levelo://app?vid=68c5792c-3743-46b0-ba80-ead5661e1a6c","ios":"levelo://app?vid=68c5792c-3743-46b0-ba80-ead5661e1a6c"},"vehicle_type_id":"4","last_reported":1701234428,"current_range_meters":27600,"station_id":"ce4bgv12rcd13ifvqcp0","pricing_plan_id":"free"},{"bike_id":"a71b2f34-318b-4592-88f6-64cd41f77214","system_id":"levelo_inurba_marseille","lat":43.311722,"lon":5.387247,"is_reserved":false,"is_disabled":false,"rental_uris":{"android":"levelo://app?vid=a71b2f34-318b-4592-88f6-64cd41f77214","ios":"levelo://app?vid=a71b2f34-318b-4592-88f6-64cd41f77214"},"vehicle_type_id":"4","last_reported":1701234428,"current_range_meters":27600,"station_id":"ce4bgv12rcd13ifvqcp0","pricing_plan_id":"free"},{"bike_id":"9346bbfa-61ae-460c-bf8b-bd4460ad5997","system_id":"levelo_inurba_marseille","lat":43.299243,"lon":5.37481,"is_reserved":false,"is_disabled":false,"rental_uris":{"android":"levelo://app?vid=9346bbfa-61ae-460c-bf8b-bd4460ad5997","ios":"levelo://app?vid=9346bbfa-61ae-460c-bf8b-bd4460ad5997"},"vehicle_type_id":"4","last_reported":1701234428,"current_range_meters":29200,"station_id":"ce4bgjh2rcd13ifvqbg0","pricing_plan_id":"free"},{"bike_id":"cb54d4b8-7480-4085-b908-47a3fdf1a7c6","system_id":"levelo_inurba_marseille","lat":43.328318,"lon":5.36678,"is_reserved":false,"is_disabled":false,"rental_uris":{"android":"levelo://app?vid=cb54d4b8-7480-4085-b908-47a3fdf1a7c6","ios":"levelo://app?vid=cb54d4b8-7480-4085-b908-47a3fdf1a7c6"},"vehicle_type_id":"4","last_reported":1701234428,"current_range_meters":19600,"station_id":"ce4bhs92rcd13ifvqi0g","pricing_plan_id":"free"},{"bike_id":"0f540c2d-4986-457e-84c0-13bbd0c381ec","system_id":"levelo_inurba_marseille","lat":43.328371,"lon":5.366909,"is_reserved":false,"is_disabled":false,"rental_uris":{"android":"levelo://app?vid=0f540c2d-4986-457e-84c0-13bbd0c381ec","ios":"levelo://app?vid=0f540c2d-4986-457e-84c0-13bbd0c381ec"},"vehicle_type_id":"4","last_reported":1701234428,"current_range_meters":6000,"station_id":"ce4bhs92rcd13ifvqi0g","pricing_plan_id":"free"},{"bike_id":"7dc02b47-8d61-4206-bac7-38260c1d3db5","system_id":"levelo_inurba_marseille","lat":43.297163,"lon":5.365866,"is_reserved":false,"is_disabled":false,"rental_uris":{"android":"levelo://app?vid=7dc02b47-8d61-4206-bac7-38260c1d3db5","ios":"levelo://app?vid=7dc02b47-8d61-4206-bac7-38260c1d3db5"},"vehicle_type_id":"4","last_reported":1701234428,"current_range_meters":26800,"station_id":"ce4bgn12rcd13ifvqbt0","pricing_plan_id":"free"},{"bike_id":"f60580a6-f6e1-4b3b-ac6f-f0889d102b8f","system_id":"levelo_inurba_marseille","lat":43.309589,"lon":5.390258,"is_reserved":false,"is_disabled":false,"rental_uris":{"android":"levelo://app?vid=f60580a6-f6e1-4b3b-ac6f-f0889d102b8f","ios":"levelo://app?vid=f60580a6-f6e1-4b3b-ac6f-f0889d102b8f"},"vehicle_type_id":"4","last_reported":1701234428,"current_range_meters":24800,"station_id":"ce4bgup2rcd13ifvqco0","pricing_plan_id":"free"},{"bike_id":"07abd289-5e58-4204-b31e-d50e426acf80","system_id":"levelo_inurba_marseille","lat":43.309589,"lon":5.390258,"is_reserved":false,"is_disabled":false,"rental_uris":{"android":"levelo://app?vid=07abd289-5e58-4204-b31e-d50e426acf80","ios":"levelo://app?vid=07abd289-5e58-4204-b31e-d50e426acf80"},"vehicle_type_id":"4","last_reported":1701234428,"current_range_meters":29200,"station_id":"ce4bgup2rcd13ifvqco0","pricing_plan_id":"free"},{"bike_id":"8d7bd8f8-096d-409e-b4fc-f36bfa0e920c","system_id":"levelo_inurba_marseille","lat":43.298037,"lon":5.381066,"is_reserved":false,"is_disabled":false,"rental_uris":{"android":"levelo://app?vid=8d7bd8f8-096d-409e-b4fc-f36bfa0e920c","ios":"levelo://app?vid=8d7bd8f8-096d-409e-b4fc-f36bfa0e920c"},"vehicle_type_id":"4","last_reported":1701234428,"current_range_meters":26800,"station_id":"ce4bgip2rcd13ifvqbb0","pricing_plan_id":"free"},{"bike_id":"0d2a18ff-001f-44d9-9463-41774eceef33","system_id":"levelo_inurba_marseille","lat":43.304278,"lon":5.388868,"is_reserved":false,"is_disabled":false,"rental_uris":{"android":"levelo://app?vid=0d2a18ff-001f-44d9-9463-41774eceef33","ios":"levelo://app?vid=0d2a18ff-001f-44d9-9463-41774eceef33"},"vehicle_type_id":"4","last_reported":1701234428,"current_range_meters":29600,"station_id":"ce4bgk12rcd13ifvqbi0","pricing_plan_id":"free"},{"bike_id":"89edf680-64d3-4c49-bc39-5df61538dd8b","system_id":"levelo_inurba_marseille","lat":43.304274,"lon":5.388873,"is_reserved":false,"is_disabled":false,"rental_uris":{"android":"levelo://app?vid=89edf680-64d3-4c49-bc39-5df61538dd8b","ios":"levelo://app?vid=89edf680-64d3-4c49-bc39-5df61538dd8b"},"vehicle_type_id":"4","last_reported":1701234428,"current_range_meters":21200,"station_id":"ce4bgk12rcd13ifvqbi0","pricing_plan_id":"free"},{"bike_id":"ff80453a-9aab-44a9-baa7-7a65519f6aa5","system_id":"levelo_inurba_marseille","lat":43.296109,"lon":5.377259,"is_reserved":false,"is_disabled":false,"rental_uris":{"android":"levelo://app?vid=ff80453a-9aab-44a9-baa7-7a65519f6aa5","ios":"levelo://app?vid=ff80453a-9aab-44a9-baa7-7a65519f6aa5"},"vehicle_type_id":"4","last_reported":1701234428,"current_range_meters":5200,"station_id":"ce4bgi92rcd13ifvqb90","pricing_plan_id":"free"},{"bike_id":"69a4e6e4-c691-44bf-9516-31eb40b6a6e1","system_id":"levelo_inurba_marseille","lat":43.29511,"lon":5.37509,"is_reserved":false,"is_disabled":false,"rental_uris":{"android":"levelo://app?vid=69a4e6e4-c691-44bf-9516-31eb40b6a6e1","ios":"levelo://app?vid=69a4e6e4-c691-44bf-9516-31eb40b6a6e1"},"vehicle_type_id":"4","last_reported":1701234428,"current_range_meters":12000,"station_id":"ce4bgkp2rcd13ifvqbmg","pricing_plan_id":"free"},{"bike_id":"0f932db1-7e7e-4a7b-907f-bd3096281c26","system_id":"levelo_inurba_marseille","lat":43.295984,"lon":5.380984,"is_reserved":false,"is_disabled":false,"rental_uris":{"android":"levelo://app?vid=0f932db1-7e7e-4a7b-907f-bd3096281c26","ios":"levelo://app?vid=0f932db1-7e7e-4a7b-907f-bd3096281c26"},"vehicle_type_id":"4","last_reported":1701234428,"current_range_meters":0,"station_id":"ce4bgl12rcd13ifvqbo0","pricing_plan_id":"free"},{"bike_id":"8c122bd6-762d-41f7-992c-fcc20b25c885","system_id":"levelo_inurba_marseille","lat":43.298037,"lon":5.381066,"is_reserved":false,"is_disabled":false,"rental_uris":{"android":"levelo://app?vid=8c122bd6-762d-41f7-992c-fcc20b25c885","ios":"levelo://app?vid=8c122bd6-762d-41f7-992c-fcc20b25c885"},"vehicle_type_id":"4","last_reported":1701234428,"current_range_meters":29200,"station_id":"ce4bgip2rcd13ifvqbb0","pricing_plan_id":"free"},{"bike_id":"de4ba7c7-b45f-4284-b1a2-c4a6b1e964e5","system_id":"levelo_inurba_marseille","lat":43.303002,"lon":5.392142,"is_reserved":false,"is_disabled":false,"rental_uris":{"android":"levelo://app?vid=de4ba7c7-b45f-4284-b1a2-c4a6b1e964e5","ios":"levelo://app?vid=de4ba7c7-b45f-4284-b1a2-c4a6b1e964e5"},"vehicle_type_id":"4","last_reported":1701234428,"current_range_meters":26400,"station_id":"ce4bgkh2rcd13ifvqbk0","pricing_plan_id":"free"},{"bike_id":"f44aac3d-c57b-4aa5-b8e1-495822828b73","system_id":"levelo_inurba_marseille","lat":43.291994,"lon":5.357886,"is_reserved":false,"is_disabled":false,"rental_uris":{"android":"levelo://app?vid=f44aac3d-c57b-4aa5-b8e1-495822828b73","ios":"levelo://app?vid=f44aac3d-c57b-4aa5-b8e1-495822828b73"},"vehicle_type_id":"4","last_reported":1701234428,"current_range_meters":26400,"station_id":"ce4bhb12rcd13ifvqel0","pricing_plan_id":"free"},{"bike_id":"de22a175-8d72-4272-9522-88c8b3371a0b","system_id":"levelo_inurba_marseille","lat":43.309047,"lon":5.396551,"is_reserved":false,"is_disabled":false,"rental_uris":{"android":"levelo://app?vid=de22a175-8d72-4272-9522-88c8b3371a0b","ios":"levelo://app?vid=de22a175-8d72-4272-9522-88c8b3371a0b"},"vehicle_type_id":"4","last_reported":1701234428,"current_range_meters":30400,"station_id":"ce4bh012rcd13ifvqcv0","pricing_plan_id":"free"},{"bike_id":"9ccbe679-5489-4a12-8575-469752b4dbd4","system_id":"levelo_inurba_marseille","lat":43.291929,"lon":5.357966,"is_reserved":false,"is_disabled":false,"rental_uris":{"android":"levelo://app?vid=9ccbe679-5489-4a12-8575-469752b4dbd4","ios":"levelo://app?vid=9ccbe679-5489-4a12-8575-469752b4dbd4"},"vehicle_type_id":"4","last_reported":1701234428,"current_range_meters":15600,"station_id":"ce4bhb12rcd13ifvqel0","pricing_plan_id":"free"},{"bike_id":"07dfef92-904f-4c33-8c14-53a178d7ae6f","system_id":"levelo_inurba_marseille","lat":43.313295,"lon":5.396898,"is_reserved":false,"is_disabled":false,"rental_uris":{"android":"levelo://app?vid=07dfef92-904f-4c33-8c14-53a178d7ae6f","ios":"levelo://app?vid=07dfef92-904f-4c33-8c14-53a178d7ae6f"},"vehicle_type_id":"4","last_reported":1701234428,"current_range_meters":26400,"station_id":"ce4bgvp2rcd13ifvqcu0","pricing_plan_id":"free"},{"bike_id":"48b098ef-f732-4e52-98f6-fb2279f59078","system_id":"levelo_inurba_marseille","lat":43.309047,"lon":5.396551,"is_reserved":false,"is_disabled":false,"rental_uris":{"android":"levelo://app?vid=48b098ef-f732-4e52-98f6-fb2279f59078","ios":"levelo://app?vid=48b098ef-f732-4e52-98f6-fb2279f59078"},"vehicle_type_id":"4","last_reported":1701234428,"current_range_meters":29200,"station_id":"ce4bh012rcd13ifvqcv0","pricing_plan_id":"free"},{"bike_id":"a431f85e-aab0-4d1e-978a-1b1ee1d4e8ee","system_id":"levelo_inurba_marseille","lat":43.313295,"lon":5.39692,"is_reserved":false,"is_disabled":false,"rental_uris":{"android":"levelo://app?vid=a431f85e-aab0-4d1e-978a-1b1ee1d4e8ee","ios":"levelo://app?vid=a431f85e-aab0-4d1e-978a-1b1ee1d4e8ee"},"vehicle_type_id":"4","last_reported":1701234428,"current_range_meters":11600,"station_id":"ce4bgvp2rcd13ifvqcu0","pricing_plan_id":"free"},{"bike_id":"c77436ed-1696-4f87-a1bb-424a7a09ae35","system_id":"levelo_inurba_marseille","lat":43.313291,"lon":5.396838,"is_reserved":false,"is_disabled":false,"rental_uris":{"android":"levelo://app?vid=c77436ed-1696-4f87-a1bb-424a7a09ae35","ios":"levelo://app?vid=c77436ed-1696-4f87-a1bb-424a7a09ae35"},"vehicle_type_id":"4","last_reported":1701234428,"current_range_meters":20800,"station_id":"ce4bgvp2rcd13ifvqcu0","pricing_plan_id":"free"},{"bike_id":"00f782b6-4b18-433b-bc0a-644ef2fb3594","system_id":"levelo_inurba_marseille","lat":43.313291,"lon":5.396838,"is_reserved":false,"is_disabled":false,"rental_uris":{"android":"levelo://app?vid=00f782b6-4b18-433b-bc0a-644ef2fb3594","ios":"levelo://app?vid=00f782b6-4b18-433b-bc0a-644ef2fb3594"},"vehicle_type_id":"4","last_reported":1701234428,"current_range_meters":25200,"station_id":"ce4bgvp2rcd13ifvqcu0","pricing_plan_id":"free"},{"bike_id":"1cd85cd4-5965-413e-8492-5f2b53ed3e64","system_id":"levelo_inurba_marseille","lat":43.313291,"lon":5.396838,"is_reserved":false,"is_disabled":false,"rental_uris":{"android":"levelo://app?vid=1cd85cd4-5965-413e-8492-5f2b53ed3e64","ios":"levelo://app?vid=1cd85cd4-5965-413e-8492-5f2b53ed3e64"},"vehicle_type_id":"4","last_reported":1701234428,"current_range_meters":25200,"station_id":"ce4bgvp2rcd13ifvqcu0","pricing_plan_id":"free"},{"bike_id":"77621d6b-8990-4544-be4b-ead551752d29","system_id":"levelo_inurba_marseille","lat":43.313267,"lon":5.397024,"is_reserved":false,"is_disabled":false,"rental_uris":{"android":"levelo://app?vid=77621d6b-8990-4544-be4b-ead551752d29","ios":"levelo://app?vid=77621d6b-8990-4544-be4b-ead551752d29"},"vehicle_type_id":"4","last_reported":1701234428,"current_range_meters":23600,"station_id":"ce4bgvp2rcd13ifvqcu0","pricing_plan_id":"free"},{"bike_id":"f250ce4e-be49-477f-976a-278a6a2a08d1","system_id":"levelo_inurba_marseille","lat":43.290779,"lon":5.371482,"is_reserved":false,"is_disabled":false,"rental_uris":{"android":"levelo://app?vid=f250ce4e-be49-477f-976a-278a6a2a08d1","ios":"levelo://app?vid=f250ce4e-be49-477f-976a-278a6a2a08d1"},"vehicle_type_id":"4","last_reported":1701234428,"current_range_meters":25600,"station_id":"ce4bh5p2rcd13ifvqe4g","pricing_plan_id":"free"},{"bike_id":"68de0a99-9f50-454e-b5d3-155473d4740a","system_id":"levelo_inurba_marseille","lat":43.302008,"lon":5.394694,"is_reserved":false,"is_disabled":false,"rental_uris":{"android":"levelo://app?vid=68de0a99-9f50-454e-b5d3-155473d4740a","ios":"levelo://app?vid=68de0a99-9f50-454e-b5d3-155473d4740a"},"vehicle_type_id":"4","last_reported":1701234428,"current_range_meters":30400,"station_id":"ce4bh0p2rcd13ifvqd70","pricing_plan_id":"free"},{"bike_id":"263bfcd0-06d3-466c-bbbe-401e393d4445","system_id":"levelo_inurba_marseille","lat":43.302008,"lon":5.394694,"is_reserved":false,"is_disabled":false,"rental_uris":{"android":"levelo://app?vid=263bfcd0-06d3-466c-bbbe-401e393d4445","ios":"levelo://app?vid=263bfcd0-06d3-466c-bbbe-401e393d4445"},"vehicle_type_id":"4","last_reported":1701234428,"current_range_meters":27600,"station_id":"ce4bh0p2rcd13ifvqd70","pricing_plan_id":"free"},{"bike_id":"d330530f-c130-4105-aea7-8cef8d6635c7","system_id":"levelo_inurba_marseille","lat":43.290624,"lon":5.359245,"is_reserved":false,"is_disabled":false,"rental_uris":{"android":"levelo://app?vid=d330530f-c130-4105-aea7-8cef8d6635c7","ios":"levelo://app?vid=d330530f-c130-4105-aea7-8cef8d6635c7"},"vehicle_type_id":"4","last_reported":1701234428,"current_range_meters":32000,"station_id":"ce4bha92rcd13ifvqeg0","pricing_plan_id":"free"},{"bike_id":"ab0c319a-2714-4426-bec8-33e76c983939","system_id":"levelo_inurba_marseille","lat":43.290327,"lon":5.375711,"is_reserved":false,"is_disabled":false,"rental_uris":{"android":"levelo://app?vid=ab0c319a-2714-4426-bec8-33e76c983939","ios":"levelo://app?vid=ab0c319a-2714-4426-bec8-33e76c983939"},"vehicle_type_id":"4","last_reported":1701234428,"current_range_meters":29200,"station_id":"ce4bh692rcd13ifvqe90","pricing_plan_id":"free"},{"bike_id":"01736101-cd6a-4b27-84ed-1c5b63d574d6","system_id":"levelo_inurba_marseille","lat":43.289463,"lon":5.363984,"is_reserved":false,"is_disabled":false,"rental_uris":{"android":"levelo://app?vid=01736101-cd6a-4b27-84ed-1c5b63d574d6","ios":"levelo://app?vid=01736101-cd6a-4b27-84ed-1c5b63d574d6"},"vehicle_type_id":"4","last_reported":1701234428,"current_range_meters":27600,"station_id":"ce4bhc92rcd13ifvqetg","pricing_plan_id":"free"},{"bike_id":"5b72b84a-ed2c-451a-885f-90b658854034","system_id":"levelo_inurba_marseille","lat":43.289184,"lon":5.366408,"is_reserved":false,"is_disabled":false,"rental_uris":{"android":"levelo://app?vid=5b72b84a-ed2c-451a-885f-90b658854034","ios":"levelo://app?vid=5b72b84a-ed2c-451a-885f-90b658854034"},"vehicle_type_id":"4","last_reported":1701234428,"current_range_meters":22400,"station_id":"ce4bhap2rcd13ifvqek0","pricing_plan_id":"free"},{"bike_id":"2e9a0ea5-69f5-4cd4-b90b-5c3f30cb770c","system_id":"levelo_inurba_marseille","lat":43.289405,"lon":5.363971,"is_reserved":false,"is_disabled":false,"rental_uris":{"android":"levelo://app?vid=2e9a0ea5-69f5-4cd4-b90b-5c3f30cb770c","ios":"levelo://app?vid=2e9a0ea5-69f5-4cd4-b90b-5c3f30cb770c"},"vehicle_type_id":"4","last_reported":1701234428,"current_range_meters":28000,"station_id":"ce4bhc92rcd13ifvqetg","pricing_plan_id":"free"},{"bike_id":"c80ff3fc-20e2-4a8e-803b-88a06705d9d1","system_id":"levelo_inurba_marseille","lat":43.289378,"lon":5.363917,"is_reserved":false,"is_disabled":false,"rental_uris":{"android":"levelo://app?vid=c80ff3fc-20e2-4a8e-803b-88a06705d9d1","ios":"levelo://app?vid=c80ff3fc-20e2-4a8e-803b-88a06705d9d1"},"vehicle_type_id":"4","last_reported":1701234428,"current_range_meters":31200,"station_id":"ce4bhc92rcd13ifvqetg","pricing_plan_id":"free"},{"bike_id":"71aa77f2-e90b-4c02-b55e-e94887531de0","system_id":"levelo_inurba_marseille","lat":43.304274,"lon":5.397513,"is_reserved":false,"is_disabled":false,"rental_uris":{"android":"levelo://app?vid=71aa77f2-e90b-4c02-b55e-e94887531de0","ios":"levelo://app?vid=71aa77f2-e90b-4c02-b55e-e94887531de0"},"vehicle_type_id":"4","last_reported":1701234428,"current_range_meters":28800,"station_id":"ce4bh092rcd13ifvqd20","pricing_plan_id":"free"},{"bike_id":"65a8c888-aae9-4de8-bb2f-81acb72375a9","system_id":"levelo_inurba_marseille","lat":43.304296,"lon":5.397513,"is_reserved":false,"is_disabled":false,"rental_uris":{"android":"levelo://app?vid=65a8c888-aae9-4de8-bb2f-81acb72375a9","ios":"levelo://app?vid=65a8c888-aae9-4de8-bb2f-81acb72375a9"},"vehicle_type_id":"4","last_reported":1701234428,"current_range_meters":28800,"station_id":"ce4bh092rcd13ifvqd20","pricing_plan_id":"free"},{"bike_id":"67810528-fb28-41e8-a8bc-9f1e263f753e","system_id":"levelo_inurba_marseille","lat":43.290104,"lon":5.356111,"is_reserved":false,"is_disabled":false,"rental_uris":{"android":"levelo://app?vid=67810528-fb28-41e8-a8bc-9f1e263f753e","ios":"levelo://app?vid=67810528-fb28-41e8-a8bc-9f1e263f753e"},"vehicle_type_id":"4","last_reported":1701234428,"current_range_meters":29200,"station_id":"ce4bhb92rcd13ifvqen0","pricing_plan_id":"free"},{"bike_id":"fc8fcf9f-c687-4daa-87e8-dcdafa5fa665","system_id":"levelo_inurba_marseille","lat":43.29002,"lon":5.35615,"is_reserved":false,"is_disabled":false,"rental_uris":{"android":"levelo://app?vid=fc8fcf9f-c687-4daa-87e8-dcdafa5fa665","ios":"levelo://app?vid=fc8fcf9f-c687-4daa-87e8-dcdafa5fa665"},"vehicle_type_id":"4","last_reported":1701234428,"current_range_meters":30400,"station_id":"ce4bhb92rcd13ifvqen0","pricing_plan_id":"free"},{"bike_id":"77b088cb-35f9-460a-9f79-0c93b2db5ec1","system_id":"levelo_inurba_marseille","lat":43.28856,"lon":5.358371,"is_reserved":false,"is_disabled":false,"rental_uris":{"android":"levelo://app?vid=77b088cb-35f9-460a-9f79-0c93b2db5ec1","ios":"levelo://app?vid=77b088cb-35f9-460a-9f79-0c93b2db5ec1"},"vehicle_type_id":"4","last_reported":1701234428,"current_range_meters":10800,"station_id":"ce4bhb12rcd13ifvqem0","pricing_plan_id":"free"},{"bike_id":"7236c95f-cfdc-49b2-8998-d157fe8297a8","system_id":"levelo_inurba_marseille","lat":43.28856,"lon":5.358371,"is_reserved":false,"is_disabled":false,"rental_uris":{"android":"levelo://app?vid=7236c95f-cfdc-49b2-8998-d157fe8297a8","ios":"levelo://app?vid=7236c95f-cfdc-49b2-8998-d157fe8297a8"},"vehicle_type_id":"4","last_reported":1701234428,"current_range_meters":31200,"station_id":"ce4bhb12rcd13ifvqem0","pricing_plan_id":"free"},{"bike_id":"e1ea4410-abaf-48c3-bfac-109caf57fcc9","system_id":"levelo_inurba_marseille","lat":43.28856,"lon":5.358371,"is_reserved":false,"is_disabled":false,"rental_uris":{"android":"levelo://app?vid=e1ea4410-abaf-48c3-bfac-109caf57fcc9","ios":"levelo://app?vid=e1ea4410-abaf-48c3-bfac-109caf57fcc9"},"vehicle_type_id":"4","last_reported":1701234428,"current_range_meters":24800,"station_id":"ce4bhb12rcd13ifvqem0","pricing_plan_id":"free"},{"bike_id":"ddf26704-29af-4137-b10b-b42944575399","system_id":"levelo_inurba_marseille","lat":43.28856,"lon":5.358371,"is_reserved":false,"is_disabled":false,"rental_uris":{"android":"levelo://app?vid=ddf26704-29af-4137-b10b-b42944575399","ios":"levelo://app?vid=ddf26704-29af-4137-b10b-b42944575399"},"vehicle_type_id":"4","last_reported":1701234428,"current_range_meters":30000,"station_id":"ce4bhb12rcd13ifvqem0","pricing_plan_id":"free"},{"bike_id":"ccf3a924-b88a-4ef9-ab2f-2b221c8e50b1","system_id":"levelo_inurba_marseille","lat":43.28856,"lon":5.358371,"is_reserved":false,"is_disabled":false,"rental_uris":{"android":"levelo://app?vid=ccf3a924-b88a-4ef9-ab2f-2b221c8e50b1","ios":"levelo://app?vid=ccf3a924-b88a-4ef9-ab2f-2b221c8e50b1"},"vehicle_type_id":"4","last_reported":1701234428,"current_range_meters":30000,"station_id":"ce4bhb12rcd13ifvqem0","pricing_plan_id":"free"},{"bike_id":"c676974d-3d90-40ba-80fe-f46a28fd0516","system_id":"levelo_inurba_marseille","lat":43.309371,"lon":5.401449,"is_reserved":false,"is_disabled":false,"rental_uris":{"android":"levelo://app?vid=c676974d-3d90-40ba-80fe-f46a28fd0516","ios":"levelo://app?vid=c676974d-3d90-40ba-80fe-f46a28fd0516"},"vehicle_type_id":"4","last_reported":1701234428,"current_range_meters":28000,"station_id":"ce4bgvp2rcd13ifvqct0","pricing_plan_id":"free"},{"bike_id":"9b4884c0-c65d-4e20-8a5c-b9cd5f26fa0a","system_id":"levelo_inurba_marseille","lat":43.309371,"lon":5.401449,"is_reserved":false,"is_disabled":false,"rental_uris":{"android":"levelo://app?vid=9b4884c0-c65d-4e20-8a5c-b9cd5f26fa0a","ios":"levelo://app?vid=9b4884c0-c65d-4e20-8a5c-b9cd5f26fa0a"},"vehicle_type_id":"4","last_reported":1701234428,"current_range_meters":20400,"station_id":"ce4bgvp2rcd13ifvqct0","pricing_plan_id":"free"},{"bike_id":"0df8b6ec-6d32-475e-90dd-e684f9a8df9d","system_id":"levelo_inurba_marseille","lat":43.30642,"lon":5.401031,"is_reserved":false,"is_disabled":false,"rental_uris":{"android":"levelo://app?vid=0df8b6ec-6d32-475e-90dd-e684f9a8df9d","ios":"levelo://app?vid=0df8b6ec-6d32-475e-90dd-e684f9a8df9d"},"vehicle_type_id":"4","last_reported":1701234428,"current_range_meters":26000,"station_id":"ce4bh112rcd13ifvqda0","pricing_plan_id":"free"},{"bike_id":"9342acb8-c439-4936-b729-a82e1f6c08f7","system_id":"levelo_inurba_marseille","lat":43.30642,"lon":5.401031,"is_reserved":false,"is_disabled":false,"rental_uris":{"android":"levelo://app?vid=9342acb8-c439-4936-b729-a82e1f6c08f7","ios":"levelo://app?vid=9342acb8-c439-4936-b729-a82e1f6c08f7"},"vehicle_type_id":"4","last_reported":1701234428,"current_range_meters":31200,"station_id":"ce4bh112rcd13ifvqda0","pricing_plan_id":"free"},{"bike_id":"c6503eac-28a2-4119-a392-06af73586e43","system_id":"levelo_inurba_marseille","lat":43.309371,"lon":5.401449,"is_reserved":false,"is_disabled":false,"rental_uris":{"android":"levelo://app?vid=c6503eac-28a2-4119-a392-06af73586e43","ios":"levelo://app?vid=c6503eac-28a2-4119-a392-06af73586e43"},"vehicle_type_id":"4","last_reported":1701234428,"current_range_meters":19600,"station_id":"ce4bgvp2rcd13ifvqct0","pricing_plan_id":"free"},{"bike_id":"6ed92bd8-2dd7-4b69-85f2-8ec61e615ebf","system_id":"levelo_inurba_marseille","lat":43.309284,"lon":5.401512,"is_reserved":false,"is_disabled":false,"rental_uris":{"android":"levelo://app?vid=6ed92bd8-2dd7-4b69-85f2-8ec61e615ebf","ios":"levelo://app?vid=6ed92bd8-2dd7-4b69-85f2-8ec61e615ebf"},"vehicle_type_id":"4","last_reported":1701234428,"current_range_meters":22400,"station_id":"ce4bgvp2rcd13ifvqct0","pricing_plan_id":"free"},{"bike_id":"affd89ff-8a62-4420-80cf-4139d187ca2b","system_id":"levelo_inurba_marseille","lat":43.33754,"lon":5.37452,"is_reserved":false,"is_disabled":false,"rental_uris":{"android":"levelo://app?vid=affd89ff-8a62-4420-80cf-4139d187ca2b","ios":"levelo://app?vid=affd89ff-8a62-4420-80cf-4139d187ca2b"},"vehicle_type_id":"4","last_reported":1701234428,"current_range_meters":27200,"station_id":"","pricing_plan_id":"free"},{"bike_id":"80003ba4-a760-41f4-941e-70dd3e093dcd","system_id":"levelo_inurba_marseille","lat":43.309374,"lon":5.401544,"is_reserved":false,"is_disabled":false,"rental_uris":{"android":"levelo://app?vid=80003ba4-a760-41f4-941e-70dd3e093dcd","ios":"levelo://app?vid=80003ba4-a760-41f4-941e-70dd3e093dcd"},"vehicle_type_id":"4","last_reported":1701234428,"current_range_meters":22400,"station_id":"ce4bgvp2rcd13ifvqct0","pricing_plan_id":"free"},{"bike_id":"b4c0d15a-dfce-4424-9c87-a04445a3f247","system_id":"levelo_inurba_marseille","lat":43.28727,"lon":5.36078,"is_reserved":false,"is_disabled":false,"rental_uris":{"android":"levelo://app?vid=b4c0d15a-dfce-4424-9c87-a04445a3f247","ios":"levelo://app?vid=b4c0d15a-dfce-4424-9c87-a04445a3f247"},"vehicle_type_id":"4","last_reported":1701234428,"current_range_meters":24800,"station_id":"cki0cbj6b192h4jlfktg","pricing_plan_id":"free"},{"bike_id":"13a39a0e-08cf-4107-8d5b-a35794c19404","system_id":"levelo_inurba_marseille","lat":43.28727,"lon":5.36078,"is_reserved":false,"is_disabled":false,"rental_uris":{"android":"levelo://app?vid=13a39a0e-08cf-4107-8d5b-a35794c19404","ios":"levelo://app?vid=13a39a0e-08cf-4107-8d5b-a35794c19404"},"vehicle_type_id":"4","last_reported":1701234428,"current_range_meters":28800,"station_id":"cki0cbj6b192h4jlfktg","pricing_plan_id":"free"},{"bike_id":"0835f735-fbc4-40ca-b02a-112ff61ff6d1","system_id":"levelo_inurba_marseille","lat":43.286591,"lon":5.363346,"is_reserved":false,"is_disabled":false,"rental_uris":{"android":"levelo://app?vid=0835f735-fbc4-40ca-b02a-112ff61ff6d1","ios":"levelo://app?vid=0835f735-fbc4-40ca-b02a-112ff61ff6d1"},"vehicle_type_id":"4","last_reported":1701234428,"current_range_meters":27600,"station_id":"ce4bhah2rcd13ifvqej0","pricing_plan_id":"free"},{"bike_id":"50bada01-5851-437c-9dbf-0054c2a582d8","system_id":"levelo_inurba_marseille","lat":43.286671,"lon":5.363553,"is_reserved":false,"is_disabled":false,"rental_uris":{"android":"levelo://app?vid=50bada01-5851-437c-9dbf-0054c2a582d8","ios":"levelo://app?vid=50bada01-5851-437c-9dbf-0054c2a582d8"},"vehicle_type_id":"4","last_reported":1701234428,"current_range_meters":29600,"station_id":"ce4bhah2rcd13ifvqej0","pricing_plan_id":"free"},{"bike_id":"ccf8a658-8d23-44ae-bcfe-8ae5037717c5","system_id":"levelo_inurba_marseille","lat":43.286591,"lon":5.363346,"is_reserved":false,"is_disabled":false,"rental_uris":{"android":"levelo://app?vid=ccf8a658-8d23-44ae-bcfe-8ae5037717c5","ios":"levelo://app?vid=ccf8a658-8d23-44ae-bcfe-8ae5037717c5"},"vehicle_type_id":"4","last_reported":1701234428,"current_range_meters":19600,"station_id":"ce4bhah2rcd13ifvqej0","pricing_plan_id":"free"},{"bike_id":"3a445392-6308-45bc-b76b-15a63e619af3","system_id":"levelo_inurba_marseille","lat":43.286591,"lon":5.363346,"is_reserved":false,"is_disabled":false,"rental_uris":{"android":"levelo://app?vid=3a445392-6308-45bc-b76b-15a63e619af3","ios":"levelo://app?vid=3a445392-6308-45bc-b76b-15a63e619af3"},"vehicle_type_id":"4","last_reported":1701234428,"current_range_meters":16400,"station_id":"ce4bhah2rcd13ifvqej0","pricing_plan_id":"free"},{"bike_id":"c3a078ae-8dad-4093-86e2-7aafca424107","system_id":"levelo_inurba_marseille","lat":43.286665,"lon":5.363509,"is_reserved":false,"is_disabled":false,"rental_uris":{"android":"levelo://app?vid=c3a078ae-8dad-4093-86e2-7aafca424107","ios":"levelo://app?vid=c3a078ae-8dad-4093-86e2-7aafca424107"},"vehicle_type_id":"4","last_reported":1701234428,"current_range_meters":6400,"station_id":"ce4bhah2rcd13ifvqej0","pricing_plan_id":"free"},{"bike_id":"aaefd6a5-e064-4428-b5ae-532fd6cea1e1","system_id":"levelo_inurba_marseille","lat":43.298681,"lon":5.397225,"is_reserved":false,"is_disabled":false,"rental_uris":{"android":"levelo://app?vid=aaefd6a5-e064-4428-b5ae-532fd6cea1e1","ios":"levelo://app?vid=aaefd6a5-e064-4428-b5ae-532fd6cea1e1"},"vehicle_type_id":"4","last_reported":1701234428,"current_range_meters":15200,"station_id":"ce4bh0h2rcd13ifvqd50","pricing_plan_id":"free"},{"bike_id":"fe6119e7-c38b-40bb-9fc5-279548e896a2","system_id":"levelo_inurba_marseille","lat":43.286593,"lon":5.363346,"is_reserved":false,"is_disabled":false,"rental_uris":{"android":"levelo://app?vid=fe6119e7-c38b-40bb-9fc5-279548e896a2","ios":"levelo://app?vid=fe6119e7-c38b-40bb-9fc5-279548e896a2"},"vehicle_type_id":"4","last_reported":1701234428,"current_range_meters":29600,"station_id":"ce4bhah2rcd13ifvqej0","pricing_plan_id":"free"},{"bike_id":"dbd26251-fadf-421d-9592-7616fbb041dd","system_id":"levelo_inurba_marseille","lat":43.286593,"lon":5.363346,"is_reserved":false,"is_disabled":false,"rental_uris":{"android":"levelo://app?vid=dbd26251-fadf-421d-9592-7616fbb041dd","ios":"levelo://app?vid=dbd26251-fadf-421d-9592-7616fbb041dd"},"vehicle_type_id":"4","last_reported":1701234428,"current_range_meters":16800,"station_id":"ce4bhah2rcd13ifvqej0","pricing_plan_id":"free"},{"bike_id":"910b0632-74d1-4458-bd82-5c82a3b73883","system_id":"levelo_inurba_marseille","lat":43.286593,"lon":5.363346,"is_reserved":false,"is_disabled":false,"rental_uris":{"android":"levelo://app?vid=910b0632-74d1-4458-bd82-5c82a3b73883","ios":"levelo://app?vid=910b0632-74d1-4458-bd82-5c82a3b73883"},"vehicle_type_id":"4","last_reported":1701234428,"current_range_meters":13600,"station_id":"ce4bhah2rcd13ifvqej0","pricing_plan_id":"free"},{"bike_id":"73a2e9e8-22a2-493d-8019-77186ed06d14","system_id":"levelo_inurba_marseille","lat":43.286593,"lon":5.363346,"is_reserved":false,"is_disabled":false,"rental_uris":{"android":"levelo://app?vid=73a2e9e8-22a2-493d-8019-77186ed06d14","ios":"levelo://app?vid=73a2e9e8-22a2-493d-8019-77186ed06d14"},"vehicle_type_id":"4","last_reported":1701234428,"current_range_meters":19200,"station_id":"ce4bhah2rcd13ifvqej0","pricing_plan_id":"free"},{"bike_id":"c07f0312-a415-4cc2-81a0-38436b7503c9","system_id":"levelo_inurba_marseille","lat":43.286593,"lon":5.363346,"is_reserved":false,"is_disabled":false,"rental_uris":{"android":"levelo://app?vid=c07f0312-a415-4cc2-81a0-38436b7503c9","ios":"levelo://app?vid=c07f0312-a415-4cc2-81a0-38436b7503c9"},"vehicle_type_id":"4","last_reported":1701234428,"current_range_meters":31600,"station_id":"ce4bhah2rcd13ifvqej0","pricing_plan_id":"free"},{"bike_id":"e5723a22-18b0-4bba-944e-f4d0788972cf","system_id":"levelo_inurba_marseille","lat":43.286591,"lon":5.363346,"is_reserved":false,"is_disabled":false,"rental_uris":{"android":"levelo://app?vid=e5723a22-18b0-4bba-944e-f4d0788972cf","ios":"levelo://app?vid=e5723a22-18b0-4bba-944e-f4d0788972cf"},"vehicle_type_id":"4","last_reported":1701234428,"current_range_meters":31600,"station_id":"ce4bhah2rcd13ifvqej0","pricing_plan_id":"free"},{"bike_id":"f3c25e05-acea-401c-b66b-350c8e3a8fa3","system_id":"levelo_inurba_marseille","lat":43.286961,"lon":5.373785,"is_reserved":false,"is_disabled":false,"rental_uris":{"android":"levelo://app?vid=f3c25e05-acea-401c-b66b-350c8e3a8fa3","ios":"levelo://app?vid=f3c25e05-acea-401c-b66b-350c8e3a8fa3"},"vehicle_type_id":"4","last_reported":1701234428,"current_range_meters":24400,"station_id":"ce4bh3p2rcd13ifvqdq0","pricing_plan_id":"free"},{"bike_id":"00badb3d-21f6-427b-a43c-c7e91b23a2b5","system_id":"levelo_inurba_marseille","lat":43.286961,"lon":5.373785,"is_reserved":false,"is_disabled":false,"rental_uris":{"android":"levelo://app?vid=00badb3d-21f6-427b-a43c-c7e91b23a2b5","ios":"levelo://app?vid=00badb3d-21f6-427b-a43c-c7e91b23a2b5"},"vehicle_type_id":"4","last_reported":1701234428,"current_range_meters":25200,"station_id":"ce4bh3p2rcd13ifvqdq0","pricing_plan_id":"free"},{"bike_id":"d65ef8c7-beb1-497f-8b51-d908c0fe6de7","system_id":"levelo_inurba_marseille","lat":43.286593,"lon":5.363346,"is_reserved":false,"is_disabled":false,"rental_uris":{"android":"levelo://app?vid=d65ef8c7-beb1-497f-8b51-d908c0fe6de7","ios":"levelo://app?vid=d65ef8c7-beb1-497f-8b51-d908c0fe6de7"},"vehicle_type_id":"4","last_reported":1701234428,"current_range_meters":16800,"station_id":"ce4bhah2rcd13ifvqej0","pricing_plan_id":"free"},{"bike_id":"4c583723-ddf3-463d-afff-20205cc787f8","system_id":"levelo_inurba_marseille","lat":43.286591,"lon":5.363346,"is_reserved":false,"is_disabled":false,"rental_uris":{"android":"levelo://app?vid=4c583723-ddf3-463d-afff-20205cc787f8","ios":"levelo://app?vid=4c583723-ddf3-463d-afff-20205cc787f8"},"vehicle_type_id":"4","last_reported":1701234428,"current_range_meters":18800,"station_id":"ce4bhah2rcd13ifvqej0","pricing_plan_id":"free"},{"bike_id":"e95cc522-325c-4c95-bed6-a2c4b4257899","system_id":"levelo_inurba_marseille","lat":43.289307,"lon":5.38406,"is_reserved":false,"is_disabled":false,"rental_uris":{"android":"levelo://app?vid=e95cc522-325c-4c95-bed6-a2c4b4257899","ios":"levelo://app?vid=e95cc522-325c-4c95-bed6-a2c4b4257899"},"vehicle_type_id":"4","last_reported":1701234428,"current_range_meters":26800,"station_id":"ce4bh612rcd13ifvqe6g","pricing_plan_id":"free"},{"bike_id":"ebe50efd-303e-4b31-a84f-9142c67b01ca","system_id":"levelo_inurba_marseille","lat":43.2903,"lon":5.38647,"is_reserved":false,"is_disabled":false,"rental_uris":{"android":"levelo://app?vid=ebe50efd-303e-4b31-a84f-9142c67b01ca","ios":"levelo://app?vid=ebe50efd-303e-4b31-a84f-9142c67b01ca"},"vehicle_type_id":"4","last_reported":1701234428,"current_range_meters":22000,"station_id":"","pricing_plan_id":"free"},{"bike_id":"c19d926d-fec7-4ece-bf11-7edd7b5b1eff","system_id":"levelo_inurba_marseille","lat":43.302759,"lon":5.400793,"is_reserved":false,"is_disabled":false,"rental_uris":{"android":"levelo://app?vid=c19d926d-fec7-4ece-bf11-7edd7b5b1eff","ios":"levelo://app?vid=c19d926d-fec7-4ece-bf11-7edd7b5b1eff"},"vehicle_type_id":"4","last_reported":1701234428,"current_range_meters":28800,"station_id":"ce4bgvh2rcd13ifvqcs0","pricing_plan_id":"free"},{"bike_id":"9c170648-b835-4ed8-b22f-974e731efb3e","system_id":"levelo_inurba_marseille","lat":43.286039,"lon":5.370681,"is_reserved":false,"is_disabled":false,"rental_uris":{"android":"levelo://app?vid=9c170648-b835-4ed8-b22f-974e731efb3e","ios":"levelo://app?vid=9c170648-b835-4ed8-b22f-974e731efb3e"},"vehicle_type_id":"4","last_reported":1701234428,"current_range_meters":4400,"station_id":"ce4bht12rcd13ifvqi60","pricing_plan_id":"free"},{"bike_id":"13ef9b81-dddf-4300-b06a-fa2d7b791a32","system_id":"levelo_inurba_marseille","lat":43.29204,"lon":5.39334,"is_reserved":false,"is_disabled":false,"rental_uris":{"android":"levelo://app?vid=13ef9b81-dddf-4300-b06a-fa2d7b791a32","ios":"levelo://app?vid=13ef9b81-dddf-4300-b06a-fa2d7b791a32"},"vehicle_type_id":"4","last_reported":1701234428,"current_range_meters":2000,"station_id":"ce4bh192rcd13ifvqdd0","pricing_plan_id":"free"},{"bike_id":"736457ac-9954-4414-85f7-0ffdab74d67f","system_id":"levelo_inurba_marseille","lat":43.284622,"lon":5.358935,"is_reserved":false,"is_disabled":false,"rental_uris":{"android":"levelo://app?vid=736457ac-9954-4414-85f7-0ffdab74d67f","ios":"levelo://app?vid=736457ac-9954-4414-85f7-0ffdab74d67f"},"vehicle_type_id":"4","last_reported":1701234428,"current_range_meters":30000,"station_id":"ce4bhah2rcd13ifvqei0","pricing_plan_id":"free"},{"bike_id":"fd258b51-4b33-4a0a-953f-4cc898e3f8f9","system_id":"levelo_inurba_marseille","lat":43.284534,"lon":5.358662,"is_reserved":false,"is_disabled":false,"rental_uris":{"android":"levelo://app?vid=fd258b51-4b33-4a0a-953f-4cc898e3f8f9","ios":"levelo://app?vid=fd258b51-4b33-4a0a-953f-4cc898e3f8f9"},"vehicle_type_id":"4","last_reported":1701234428,"current_range_meters":30000,"station_id":"ce4bhah2rcd13ifvqei0","pricing_plan_id":"free"},{"bike_id":"25c2ec6d-e178-4d2f-88d3-840244cb8ec0","system_id":"levelo_inurba_marseille","lat":43.284534,"lon":5.358662,"is_reserved":false,"is_disabled":false,"rental_uris":{"android":"levelo://app?vid=25c2ec6d-e178-4d2f-88d3-840244cb8ec0","ios":"levelo://app?vid=25c2ec6d-e178-4d2f-88d3-840244cb8ec0"},"vehicle_type_id":"4","last_reported":1701234428,"current_range_meters":31200,"station_id":"ce4bhah2rcd13ifvqei0","pricing_plan_id":"free"},{"bike_id":"5e43b6eb-37fc-481f-83f6-a4b4faa34f4f","system_id":"levelo_inurba_marseille","lat":43.284538,"lon":5.358657,"is_reserved":false,"is_disabled":false,"rental_uris":{"android":"levelo://app?vid=5e43b6eb-37fc-481f-83f6-a4b4faa34f4f","ios":"levelo://app?vid=5e43b6eb-37fc-481f-83f6-a4b4faa34f4f"},"vehicle_type_id":"4","last_reported":1701234428,"current_range_meters":28800,"station_id":"ce4bhah2rcd13ifvqei0","pricing_plan_id":"free"},{"bike_id":"38e20aee-0f2e-4b14-beaf-ebce34830f09","system_id":"levelo_inurba_marseille","lat":43.284538,"lon":5.358657,"is_reserved":false,"is_disabled":false,"rental_uris":{"android":"levelo://app?vid=38e20aee-0f2e-4b14-beaf-ebce34830f09","ios":"levelo://app?vid=38e20aee-0f2e-4b14-beaf-ebce34830f09"},"vehicle_type_id":"4","last_reported":1701234428,"current_range_meters":31200,"station_id":"ce4bhah2rcd13ifvqei0","pricing_plan_id":"free"},{"bike_id":"637bf9a9-6956-40b0-9ffc-9eaea7c018de","system_id":"levelo_inurba_marseille","lat":43.284534,"lon":5.358662,"is_reserved":false,"is_disabled":false,"rental_uris":{"android":"levelo://app?vid=637bf9a9-6956-40b0-9ffc-9eaea7c018de","ios":"levelo://app?vid=637bf9a9-6956-40b0-9ffc-9eaea7c018de"},"vehicle_type_id":"4","last_reported":1701234428,"current_range_meters":26000,"station_id":"ce4bhah2rcd13ifvqei0","pricing_plan_id":"free"},{"bike_id":"f9d317a2-ff24-41e6-9549-7f0d05f9ec1e","system_id":"levelo_inurba_marseille","lat":43.284534,"lon":5.358662,"is_reserved":false,"is_disabled":false,"rental_uris":{"android":"levelo://app?vid=f9d317a2-ff24-41e6-9549-7f0d05f9ec1e","ios":"levelo://app?vid=f9d317a2-ff24-41e6-9549-7f0d05f9ec1e"},"vehicle_type_id":"4","last_reported":1701234428,"current_range_meters":25200,"station_id":"ce4bhah2rcd13ifvqei0","pricing_plan_id":"free"},{"bike_id":"e4f5a648-844b-4fdf-adea-a3e6c94eb263","system_id":"levelo_inurba_marseille","lat":43.284534,"lon":5.358662,"is_reserved":false,"is_disabled":false,"rental_uris":{"android":"levelo://app?vid=e4f5a648-844b-4fdf-adea-a3e6c94eb263","ios":"levelo://app?vid=e4f5a648-844b-4fdf-adea-a3e6c94eb263"},"vehicle_type_id":"4","last_reported":1701234428,"current_range_meters":31200,"station_id":"ce4bhah2rcd13ifvqei0","pricing_plan_id":"free"},{"bike_id":"bc4918e7-9c1b-4c75-b4c6-2eed2fa76d12","system_id":"levelo_inurba_marseille","lat":43.284534,"lon":5.358662,"is_reserved":false,"is_disabled":false,"rental_uris":{"android":"levelo://app?vid=bc4918e7-9c1b-4c75-b4c6-2eed2fa76d12","ios":"levelo://app?vid=bc4918e7-9c1b-4c75-b4c6-2eed2fa76d12"},"vehicle_type_id":"4","last_reported":1701234428,"current_range_meters":30000,"station_id":"ce4bhah2rcd13ifvqei0","pricing_plan_id":"free"},{"bike_id":"6b1bb58e-c52f-4b27-9d55-59b71617fcb2","system_id":"levelo_inurba_marseille","lat":43.294314,"lon":5.397498,"is_reserved":false,"is_disabled":false,"rental_uris":{"android":"levelo://app?vid=6b1bb58e-c52f-4b27-9d55-59b71617fcb2","ios":"levelo://app?vid=6b1bb58e-c52f-4b27-9d55-59b71617fcb2"},"vehicle_type_id":"4","last_reported":1701234428,"current_range_meters":27200,"station_id":"ce4bh3h2rcd13ifvqdo0","pricing_plan_id":"free"},{"bike_id":"b7ac0b70-e1f3-45e6-8c72-587f249de1c7","system_id":"levelo_inurba_marseille","lat":43.283998,"lon":5.375062,"is_reserved":false,"is_disabled":false,"rental_uris":{"android":"levelo://app?vid=b7ac0b70-e1f3-45e6-8c72-587f249de1c7","ios":"levelo://app?vid=b7ac0b70-e1f3-45e6-8c72-587f249de1c7"},"vehicle_type_id":"4","last_reported":1701234428,"current_range_meters":24000,"station_id":"ce4bh412rcd13ifvqds0","pricing_plan_id":"free"},{"bike_id":"bb08fba1-1d85-49f3-bb19-f02b2f43a564","system_id":"levelo_inurba_marseille","lat":43.284093,"lon":5.375155,"is_reserved":false,"is_disabled":false,"rental_uris":{"android":"levelo://app?vid=bb08fba1-1d85-49f3-bb19-f02b2f43a564","ios":"levelo://app?vid=bb08fba1-1d85-49f3-bb19-f02b2f43a564"},"vehicle_type_id":"4","last_reported":1701234428,"current_range_meters":29600,"station_id":"ce4bh412rcd13ifvqds0","pricing_plan_id":"free"},{"bike_id":"54a0cfc3-0189-4d2f-9bf2-92e16374ced4","system_id":"levelo_inurba_marseille","lat":43.284083,"lon":5.375153,"is_reserved":false,"is_disabled":false,"rental_uris":{"android":"levelo://app?vid=54a0cfc3-0189-4d2f-9bf2-92e16374ced4","ios":"levelo://app?vid=54a0cfc3-0189-4d2f-9bf2-92e16374ced4"},"vehicle_type_id":"4","last_reported":1701234428,"current_range_meters":4000,"station_id":"ce4bh412rcd13ifvqds0","pricing_plan_id":"free"},{"bike_id":"72860c30-41d4-4bc7-8010-479f025df774","system_id":"levelo_inurba_marseille","lat":43.284088,"lon":5.375189,"is_reserved":false,"is_disabled":false,"rental_uris":{"android":"levelo://app?vid=72860c30-41d4-4bc7-8010-479f025df774","ios":"levelo://app?vid=72860c30-41d4-4bc7-8010-479f025df774"},"vehicle_type_id":"4","last_reported":1701234428,"current_range_meters":10000,"station_id":"ce4bh412rcd13ifvqds0","pricing_plan_id":"free"},{"bike_id":"f3eb9299-ac00-4bef-92da-2c38fad5a940","system_id":"levelo_inurba_marseille","lat":43.295713,"lon":5.399639,"is_reserved":false,"is_disabled":false,"rental_uris":{"android":"levelo://app?vid=f3eb9299-ac00-4bef-92da-2c38fad5a940","ios":"levelo://app?vid=f3eb9299-ac00-4bef-92da-2c38fad5a940"},"vehicle_type_id":"4","last_reported":1701234428,"current_range_meters":23200,"station_id":"ce4bh312rcd13ifvqdj0","pricing_plan_id":"free"},{"bike_id":"461dd545-0c00-4a3d-be06-77ace2c40c2c","system_id":"levelo_inurba_marseille","lat":43.295713,"lon":5.399639,"is_reserved":false,"is_disabled":false,"rental_uris":{"android":"levelo://app?vid=461dd545-0c00-4a3d-be06-77ace2c40c2c","ios":"levelo://app?vid=461dd545-0c00-4a3d-be06-77ace2c40c2c"},"vehicle_type_id":"4","last_reported":1701234428,"current_range_meters":26800,"station_id":"ce4bh312rcd13ifvqdj0","pricing_plan_id":"free"},{"bike_id":"bb59681f-6ced-4979-b6e0-3b3bf217e880","system_id":"levelo_inurba_marseille","lat":43.29574,"lon":5.39979,"is_reserved":false,"is_disabled":false,"rental_uris":{"android":"levelo://app?vid=bb59681f-6ced-4979-b6e0-3b3bf217e880","ios":"levelo://app?vid=bb59681f-6ced-4979-b6e0-3b3bf217e880"},"vehicle_type_id":"4","last_reported":1701234428,"current_range_meters":800,"station_id":"ce4bh312rcd13ifvqdj0","pricing_plan_id":"free"},{"bike_id":"6dc3fd46-e5a0-40f5-be80-0dbf1eb835cf","system_id":"levelo_inurba_marseille","lat":43.295713,"lon":5.399639,"is_reserved":false,"is_disabled":false,"rental_uris":{"android":"levelo://app?vid=6dc3fd46-e5a0-40f5-be80-0dbf1eb835cf","ios":"levelo://app?vid=6dc3fd46-e5a0-40f5-be80-0dbf1eb835cf"},"vehicle_type_id":"4","last_reported":1701234428,"current_range_meters":28000,"station_id":"ce4bh312rcd13ifvqdj0","pricing_plan_id":"free"},{"bike_id":"d4d75069-67e2-4cc3-badd-8e669865f20d","system_id":"levelo_inurba_marseille","lat":43.29574,"lon":5.39982,"is_reserved":false,"is_disabled":false,"rental_uris":{"android":"levelo://app?vid=d4d75069-67e2-4cc3-badd-8e669865f20d","ios":"levelo://app?vid=d4d75069-67e2-4cc3-badd-8e669865f20d"},"vehicle_type_id":"4","last_reported":1701234428,"current_range_meters":28400,"station_id":"ce4bh312rcd13ifvqdj0","pricing_plan_id":"free"},{"bike_id":"47e94687-26eb-4171-98b1-dcc28cd21487","system_id":"levelo_inurba_marseille","lat":43.295713,"lon":5.399639,"is_reserved":false,"is_disabled":false,"rental_uris":{"android":"levelo://app?vid=47e94687-26eb-4171-98b1-dcc28cd21487","ios":"levelo://app?vid=47e94687-26eb-4171-98b1-dcc28cd21487"},"vehicle_type_id":"4","last_reported":1701234428,"current_range_meters":28000,"station_id":"ce4bh312rcd13ifvqdj0","pricing_plan_id":"free"},{"bike_id":"965087ee-e084-4dfe-a087-1c07b896b1c4","system_id":"levelo_inurba_marseille","lat":43.2957,"lon":5.3998,"is_reserved":false,"is_disabled":false,"rental_uris":{"android":"levelo://app?vid=965087ee-e084-4dfe-a087-1c07b896b1c4","ios":"levelo://app?vid=965087ee-e084-4dfe-a087-1c07b896b1c4"},"vehicle_type_id":"4","last_reported":1701234428,"current_range_meters":28800,"station_id":"ce4bh312rcd13ifvqdj0","pricing_plan_id":"free"},{"bike_id":"ce6609c1-fcf3-4394-8b60-9bfe6bb829c5","system_id":"levelo_inurba_marseille","lat":43.29568,"lon":5.39979,"is_reserved":false,"is_disabled":false,"rental_uris":{"android":"levelo://app?vid=ce6609c1-fcf3-4394-8b60-9bfe6bb829c5","ios":"levelo://app?vid=ce6609c1-fcf3-4394-8b60-9bfe6bb829c5"},"vehicle_type_id":"4","last_reported":1701234428,"current_range_meters":28400,"station_id":"ce4bh312rcd13ifvqdj0","pricing_plan_id":"free"},{"bike_id":"7004b651-298f-4534-9dc2-d6c58a53bdb9","system_id":"levelo_inurba_marseille","lat":43.29571,"lon":5.399823,"is_reserved":false,"is_disabled":false,"rental_uris":{"android":"levelo://app?vid=7004b651-298f-4534-9dc2-d6c58a53bdb9","ios":"levelo://app?vid=7004b651-298f-4534-9dc2-d6c58a53bdb9"},"vehicle_type_id":"4","last_reported":1701234428,"current_range_meters":28000,"station_id":"ce4bh312rcd13ifvqdj0","pricing_plan_id":"free"},{"bike_id":"242472e5-121e-4353-adcb-19d04f98686c","system_id":"levelo_inurba_marseille","lat":43.29565,"lon":5.39977,"is_reserved":false,"is_disabled":false,"rental_uris":{"android":"levelo://app?vid=242472e5-121e-4353-adcb-19d04f98686c","ios":"levelo://app?vid=242472e5-121e-4353-adcb-19d04f98686c"},"vehicle_type_id":"4","last_reported":1701234428,"current_range_meters":17600,"station_id":"ce4bh312rcd13ifvqdj0","pricing_plan_id":"free"},{"bike_id":"8f919d1c-4563-4250-9c8d-46b61add1583","system_id":"levelo_inurba_marseille","lat":43.295713,"lon":5.399639,"is_reserved":false,"is_disabled":false,"rental_uris":{"android":"levelo://app?vid=8f919d1c-4563-4250-9c8d-46b61add1583","ios":"levelo://app?vid=8f919d1c-4563-4250-9c8d-46b61add1583"},"vehicle_type_id":"4","last_reported":1701234428,"current_range_meters":28000,"station_id":"ce4bh312rcd13ifvqdj0","pricing_plan_id":"free"},{"bike_id":"db29565a-14b9-4b7a-ba4c-57e68976831d","system_id":"levelo_inurba_marseille","lat":43.33717,"lon":5.391857,"is_reserved":false,"is_disabled":false,"rental_uris":{"android":"levelo://app?vid=db29565a-14b9-4b7a-ba4c-57e68976831d","ios":"levelo://app?vid=db29565a-14b9-4b7a-ba4c-57e68976831d"},"vehicle_type_id":"4","last_reported":1701234428,"current_range_meters":23600,"station_id":"ce4bhr92rcd13ifvqhsg","pricing_plan_id":"free"},{"bike_id":"9c2b0bf1-41c8-4f85-aea0-5272aa18387b","system_id":"levelo_inurba_marseille","lat":43.297946,"lon":5.404063,"is_reserved":false,"is_disabled":false,"rental_uris":{"android":"levelo://app?vid=9c2b0bf1-41c8-4f85-aea0-5272aa18387b","ios":"levelo://app?vid=9c2b0bf1-41c8-4f85-aea0-5272aa18387b"},"vehicle_type_id":"4","last_reported":1701234428,"current_range_meters":30000,"station_id":"ce4bh112rcd13ifvqd90","pricing_plan_id":"free"},{"bike_id":"438ea98d-bbf8-4841-a9da-0dd1e60fd016","system_id":"levelo_inurba_marseille","lat":43.297946,"lon":5.404063,"is_reserved":false,"is_disabled":false,"rental_uris":{"android":"levelo://app?vid=438ea98d-bbf8-4841-a9da-0dd1e60fd016","ios":"levelo://app?vid=438ea98d-bbf8-4841-a9da-0dd1e60fd016"},"vehicle_type_id":"4","last_reported":1701234428,"current_range_meters":30400,"station_id":"ce4bh112rcd13ifvqd90","pricing_plan_id":"free"},{"bike_id":"d8b19fce-5560-455c-af99-2de04e870503","system_id":"levelo_inurba_marseille","lat":43.297946,"lon":5.404063,"is_reserved":false,"is_disabled":false,"rental_uris":{"android":"levelo://app?vid=d8b19fce-5560-455c-af99-2de04e870503","ios":"levelo://app?vid=d8b19fce-5560-455c-af99-2de04e870503"},"vehicle_type_id":"4","last_reported":1701234428,"current_range_meters":30400,"station_id":"ce4bh112rcd13ifvqd90","pricing_plan_id":"free"},{"bike_id":"c480e1a6-29e5-4b65-aafa-91ab2f713dc8","system_id":"levelo_inurba_marseille","lat":43.288501,"lon":5.393087,"is_reserved":false,"is_disabled":false,"rental_uris":{"android":"levelo://app?vid=c480e1a6-29e5-4b65-aafa-91ab2f713dc8","ios":"levelo://app?vid=c480e1a6-29e5-4b65-aafa-91ab2f713dc8"},"vehicle_type_id":"4","last_reported":1701234428,"current_range_meters":30000,"station_id":"ce4bh2p2rcd13ifvqdi0","pricing_plan_id":"free"},{"bike_id":"08f18a58-04e6-4cf4-aca5-b83202313fc9","system_id":"levelo_inurba_marseille","lat":43.288534,"lon":5.393069,"is_reserved":false,"is_disabled":false,"rental_uris":{"android":"levelo://app?vid=08f18a58-04e6-4cf4-aca5-b83202313fc9","ios":"levelo://app?vid=08f18a58-04e6-4cf4-aca5-b83202313fc9"},"vehicle_type_id":"4","last_reported":1701234428,"current_range_meters":0,"station_id":"ce4bh2p2rcd13ifvqdi0","pricing_plan_id":"free"},{"bike_id":"111dfb90-3ac2-4a38-894a-f6e2628154ac","system_id":"levelo_inurba_marseille","lat":43.288501,"lon":5.393087,"is_reserved":false,"is_disabled":false,"rental_uris":{"android":"levelo://app?vid=111dfb90-3ac2-4a38-894a-f6e2628154ac","ios":"levelo://app?vid=111dfb90-3ac2-4a38-894a-f6e2628154ac"},"vehicle_type_id":"4","last_reported":1701234428,"current_range_meters":30800,"station_id":"ce4bh2p2rcd13ifvqdi0","pricing_plan_id":"free"},{"bike_id":"c1caa769-c2f6-454f-aca7-b943b29a0b48","system_id":"levelo_inurba_marseille","lat":43.288501,"lon":5.393087,"is_reserved":false,"is_disabled":false,"rental_uris":{"android":"levelo://app?vid=c1caa769-c2f6-454f-aca7-b943b29a0b48","ios":"levelo://app?vid=c1caa769-c2f6-454f-aca7-b943b29a0b48"},"vehicle_type_id":"4","last_reported":1701234428,"current_range_meters":29600,"station_id":"ce4bh2p2rcd13ifvqdi0","pricing_plan_id":"free"},{"bike_id":"bdaa8949-6df9-428d-81d9-84388bcac42e","system_id":"levelo_inurba_marseille","lat":43.283494,"lon":5.380945,"is_reserved":false,"is_disabled":false,"rental_uris":{"android":"levelo://app?vid=bdaa8949-6df9-428d-81d9-84388bcac42e","ios":"levelo://app?vid=bdaa8949-6df9-428d-81d9-84388bcac42e"},"vehicle_type_id":"4","last_reported":1701234428,"current_range_meters":32000,"station_id":"ce4bh412rcd13ifvqdr0","pricing_plan_id":"free"},{"bike_id":"7705f434-627f-4a03-9d03-114757ec476a","system_id":"levelo_inurba_marseille","lat":43.283498,"lon":5.380948,"is_reserved":false,"is_disabled":false,"rental_uris":{"android":"levelo://app?vid=7705f434-627f-4a03-9d03-114757ec476a","ios":"levelo://app?vid=7705f434-627f-4a03-9d03-114757ec476a"},"vehicle_type_id":"4","last_reported":1701234428,"current_range_meters":23200,"station_id":"ce4bh412rcd13ifvqdr0","pricing_plan_id":"free"},{"bike_id":"ba4279f4-259c-43c1-a09b-c986d02f4e30","system_id":"levelo_inurba_marseille","lat":43.284219,"lon":5.3497,"is_reserved":false,"is_disabled":false,"rental_uris":{"android":"levelo://app?vid=ba4279f4-259c-43c1-a09b-c986d02f4e30","ios":"levelo://app?vid=ba4279f4-259c-43c1-a09b-c986d02f4e30"},"vehicle_type_id":"4","last_reported":1701234428,"current_range_meters":19200,"station_id":"ce4bhbh2rcd13ifvqepg","pricing_plan_id":"free"},{"bike_id":"2c73d258-726b-458a-a17d-5bb59ebe2373","system_id":"levelo_inurba_marseille","lat":43.284217,"lon":5.349697,"is_reserved":false,"is_disabled":false,"rental_uris":{"android":"levelo://app?vid=2c73d258-726b-458a-a17d-5bb59ebe2373","ios":"levelo://app?vid=2c73d258-726b-458a-a17d-5bb59ebe2373"},"vehicle_type_id":"4","last_reported":1701234428,"current_range_meters":30000,"station_id":"ce4bhbh2rcd13ifvqepg","pricing_plan_id":"free"},{"bike_id":"1562f9ac-8fa1-4b1c-a12e-af0ae46032f5","system_id":"levelo_inurba_marseille","lat":43.284217,"lon":5.349697,"is_reserved":false,"is_disabled":false,"rental_uris":{"android":"levelo://app?vid=1562f9ac-8fa1-4b1c-a12e-af0ae46032f5","ios":"levelo://app?vid=1562f9ac-8fa1-4b1c-a12e-af0ae46032f5"},"vehicle_type_id":"4","last_reported":1701234428,"current_range_meters":28800,"station_id":"ce4bhbh2rcd13ifvqepg","pricing_plan_id":"free"},{"bike_id":"d28bcf00-f8ac-47d1-b5e4-f6ba253efa69","system_id":"levelo_inurba_marseille","lat":43.292724,"lon":5.401131,"is_reserved":false,"is_disabled":false,"rental_uris":{"android":"levelo://app?vid=d28bcf00-f8ac-47d1-b5e4-f6ba253efa69","ios":"levelo://app?vid=d28bcf00-f8ac-47d1-b5e4-f6ba253efa69"},"vehicle_type_id":"4","last_reported":1701234428,"current_range_meters":28800,"station_id":"ce4bh312rcd13ifvqdk0","pricing_plan_id":"free"},{"bike_id":"7cab3f8d-f8d9-4c6f-9940-3a2d51219c66","system_id":"levelo_inurba_marseille","lat":43.282754,"lon":5.350519,"is_reserved":false,"is_disabled":false,"rental_uris":{"android":"levelo://app?vid=7cab3f8d-f8d9-4c6f-9940-3a2d51219c66","ios":"levelo://app?vid=7cab3f8d-f8d9-4c6f-9940-3a2d51219c66"},"vehicle_type_id":"4","last_reported":1701234428,"current_range_meters":28400,"station_id":"ce4bhbp2rcd13ifvqerg","pricing_plan_id":"free"},{"bike_id":"e4aeb4f8-feae-40be-9dd8-4f8912d79314","system_id":"levelo_inurba_marseille","lat":43.282744,"lon":5.350533,"is_reserved":false,"is_disabled":false,"rental_uris":{"android":"levelo://app?vid=e4aeb4f8-feae-40be-9dd8-4f8912d79314","ios":"levelo://app?vid=e4aeb4f8-feae-40be-9dd8-4f8912d79314"},"vehicle_type_id":"4","last_reported":1701234428,"current_range_meters":27600,"station_id":"ce4bhbp2rcd13ifvqerg","pricing_plan_id":"free"},{"bike_id":"f8e93a5f-b85d-4c01-8630-1453bb55b231","system_id":"levelo_inurba_marseille","lat":43.282656,"lon":5.350719,"is_reserved":false,"is_disabled":false,"rental_uris":{"android":"levelo://app?vid=f8e93a5f-b85d-4c01-8630-1453bb55b231","ios":"levelo://app?vid=f8e93a5f-b85d-4c01-8630-1453bb55b231"},"vehicle_type_id":"4","last_reported":1701234428,"current_range_meters":31200,"station_id":"ce4bhbp2rcd13ifvqerg","pricing_plan_id":"free"},{"bike_id":"d5956e3d-d3de-48b3-9bec-2beb921f893f","system_id":"levelo_inurba_marseille","lat":43.282621,"lon":5.350791,"is_reserved":false,"is_disabled":false,"rental_uris":{"android":"levelo://app?vid=d5956e3d-d3de-48b3-9bec-2beb921f893f","ios":"levelo://app?vid=d5956e3d-d3de-48b3-9bec-2beb921f893f"},"vehicle_type_id":"4","last_reported":1701234428,"current_range_meters":19600,"station_id":"ce4bhbp2rcd13ifvqerg","pricing_plan_id":"free"},{"bike_id":"f947ac04-b32d-4416-b67f-d60000149146","system_id":"levelo_inurba_marseille","lat":43.282631,"lon":5.350716,"is_reserved":false,"is_disabled":false,"rental_uris":{"android":"levelo://app?vid=f947ac04-b32d-4416-b67f-d60000149146","ios":"levelo://app?vid=f947ac04-b32d-4416-b67f-d60000149146"},"vehicle_type_id":"4","last_reported":1701234428,"current_range_meters":30800,"station_id":"ce4bhbp2rcd13ifvqerg","pricing_plan_id":"free"},{"bike_id":"3e39f08a-0dad-4f58-acef-53d1d1ac4d08","system_id":"levelo_inurba_marseille","lat":43.28039,"lon":5.369297,"is_reserved":false,"is_disabled":false,"rental_uris":{"android":"levelo://app?vid=3e39f08a-0dad-4f58-acef-53d1d1ac4d08","ios":"levelo://app?vid=3e39f08a-0dad-4f58-acef-53d1d1ac4d08"},"vehicle_type_id":"4","last_reported":1701234428,"current_range_meters":30000,"station_id":"ce4bha12rcd13ifvqef0","pricing_plan_id":"free"},{"bike_id":"4b5b5b9a-04c9-4c9b-9f27-7f62860aeb4d","system_id":"levelo_inurba_marseille","lat":43.28039,"lon":5.36957,"is_reserved":false,"is_disabled":false,"rental_uris":{"android":"levelo://app?vid=4b5b5b9a-04c9-4c9b-9f27-7f62860aeb4d","ios":"levelo://app?vid=4b5b5b9a-04c9-4c9b-9f27-7f62860aeb4d"},"vehicle_type_id":"4","last_reported":1701234428,"current_range_meters":24000,"station_id":"ce4bha12rcd13ifvqef0","pricing_plan_id":"free"},{"bike_id":"02c5e94d-af4d-4288-85c2-35168750e080","system_id":"levelo_inurba_marseille","lat":43.280368,"lon":5.369443,"is_reserved":false,"is_disabled":false,"rental_uris":{"android":"levelo://app?vid=02c5e94d-af4d-4288-85c2-35168750e080","ios":"levelo://app?vid=02c5e94d-af4d-4288-85c2-35168750e080"},"vehicle_type_id":"4","last_reported":1701234428,"current_range_meters":27600,"station_id":"ce4bha12rcd13ifvqef0","pricing_plan_id":"free"},{"bike_id":"52247a62-d59f-4d74-bea3-d9131cb788c0","system_id":"levelo_inurba_marseille","lat":43.28039,"lon":5.369297,"is_reserved":false,"is_disabled":false,"rental_uris":{"android":"levelo://app?vid=52247a62-d59f-4d74-bea3-d9131cb788c0","ios":"levelo://app?vid=52247a62-d59f-4d74-bea3-d9131cb788c0"},"vehicle_type_id":"4","last_reported":1701234428,"current_range_meters":28800,"station_id":"ce4bha12rcd13ifvqef0","pricing_plan_id":"free"},{"bike_id":"cce2c0f3-e79e-4ebd-92d9-a413229f2414","system_id":"levelo_inurba_marseille","lat":43.29034,"lon":5.39979,"is_reserved":false,"is_disabled":false,"rental_uris":{"android":"levelo://app?vid=cce2c0f3-e79e-4ebd-92d9-a413229f2414","ios":"levelo://app?vid=cce2c0f3-e79e-4ebd-92d9-a413229f2414"},"vehicle_type_id":"4","last_reported":1701234428,"current_range_meters":28400,"station_id":"ce4bh392rcd13ifvqdm0","pricing_plan_id":"free"},{"bike_id":"9b488ac3-ef99-4601-b01c-81499f798224","system_id":"levelo_inurba_marseille","lat":43.28443,"lon":5.391764,"is_reserved":false,"is_disabled":false,"rental_uris":{"android":"levelo://app?vid=9b488ac3-ef99-4601-b01c-81499f798224","ios":"levelo://app?vid=9b488ac3-ef99-4601-b01c-81499f798224"},"vehicle_type_id":"4","last_reported":1701234428,"current_range_meters":4000,"station_id":"ce4bhoh2rcd13ifvqh5g","pricing_plan_id":"free"},{"bike_id":"c41eb779-c361-45d6-9202-6e28bb206143","system_id":"levelo_inurba_marseille","lat":43.28573,"lon":5.394992,"is_reserved":false,"is_disabled":false,"rental_uris":{"android":"levelo://app?vid=c41eb779-c361-45d6-9202-6e28bb206143","ios":"levelo://app?vid=c41eb779-c361-45d6-9202-6e28bb206143"},"vehicle_type_id":"4","last_reported":1701234428,"current_range_meters":28400,"station_id":"ce4bh292rcd13ifvqdg0","pricing_plan_id":"free"},{"bike_id":"a708fc34-8aab-442c-b226-a00b3999fbb1","system_id":"levelo_inurba_marseille","lat":43.28573,"lon":5.394992,"is_reserved":false,"is_disabled":false,"rental_uris":{"android":"levelo://app?vid=a708fc34-8aab-442c-b226-a00b3999fbb1","ios":"levelo://app?vid=a708fc34-8aab-442c-b226-a00b3999fbb1"},"vehicle_type_id":"4","last_reported":1701234428,"current_range_meters":23600,"station_id":"ce4bh292rcd13ifvqdg0","pricing_plan_id":"free"},{"bike_id":"91d5a3ba-2b12-40f6-84a3-9eb5a1f67721","system_id":"levelo_inurba_marseille","lat":43.28573,"lon":5.394992,"is_reserved":false,"is_disabled":false,"rental_uris":{"android":"levelo://app?vid=91d5a3ba-2b12-40f6-84a3-9eb5a1f67721","ios":"levelo://app?vid=91d5a3ba-2b12-40f6-84a3-9eb5a1f67721"},"vehicle_type_id":"4","last_reported":1701234428,"current_range_meters":31600,"station_id":"ce4bh292rcd13ifvqdg0","pricing_plan_id":"free"},{"bike_id":"3e492f28-b62d-4c0f-a2b0-70e837f8e1e5","system_id":"levelo_inurba_marseille","lat":43.287154,"lon":5.399979,"is_reserved":false,"is_disabled":false,"rental_uris":{"android":"levelo://app?vid=3e492f28-b62d-4c0f-a2b0-70e837f8e1e5","ios":"levelo://app?vid=3e492f28-b62d-4c0f-a2b0-70e837f8e1e5"},"vehicle_type_id":"4","last_reported":1701234428,"current_range_meters":31600,"station_id":"ce4bho92rcd13ifvqh3g","pricing_plan_id":"free"},{"bike_id":"40da110b-3190-4990-8af9-74ca9149ca1b","system_id":"levelo_inurba_marseille","lat":43.287154,"lon":5.399979,"is_reserved":false,"is_disabled":false,"rental_uris":{"android":"levelo://app?vid=40da110b-3190-4990-8af9-74ca9149ca1b","ios":"levelo://app?vid=40da110b-3190-4990-8af9-74ca9149ca1b"},"vehicle_type_id":"4","last_reported":1701234428,"current_range_meters":27200,"station_id":"ce4bho92rcd13ifvqh3g","pricing_plan_id":"free"},{"bike_id":"ff51a17e-1a5b-430d-a8e7-202684dacd72","system_id":"levelo_inurba_marseille","lat":43.287154,"lon":5.399979,"is_reserved":false,"is_disabled":false,"rental_uris":{"android":"levelo://app?vid=ff51a17e-1a5b-430d-a8e7-202684dacd72","ios":"levelo://app?vid=ff51a17e-1a5b-430d-a8e7-202684dacd72"},"vehicle_type_id":"4","last_reported":1701234428,"current_range_meters":30000,"station_id":"ce4bho92rcd13ifvqh3g","pricing_plan_id":"free"},{"bike_id":"1e52b1ce-4e03-479b-b074-efaff2ea3d0e","system_id":"levelo_inurba_marseille","lat":43.287154,"lon":5.399979,"is_reserved":false,"is_disabled":false,"rental_uris":{"android":"levelo://app?vid=1e52b1ce-4e03-479b-b074-efaff2ea3d0e","ios":"levelo://app?vid=1e52b1ce-4e03-479b-b074-efaff2ea3d0e"},"vehicle_type_id":"4","last_reported":1701234428,"current_range_meters":31200,"station_id":"ce4bho92rcd13ifvqh3g","pricing_plan_id":"free"},{"bike_id":"f8bde810-fb69-424f-be3c-866c1c69566e","system_id":"levelo_inurba_marseille","lat":43.287154,"lon":5.399979,"is_reserved":false,"is_disabled":false,"rental_uris":{"android":"levelo://app?vid=f8bde810-fb69-424f-be3c-866c1c69566e","ios":"levelo://app?vid=f8bde810-fb69-424f-be3c-866c1c69566e"},"vehicle_type_id":"4","last_reported":1701234428,"current_range_meters":25600,"station_id":"ce4bho92rcd13ifvqh3g","pricing_plan_id":"free"},{"bike_id":"e347cbe9-8758-4f1d-9285-819135a9833c","system_id":"levelo_inurba_marseille","lat":43.287154,"lon":5.399979,"is_reserved":false,"is_disabled":false,"rental_uris":{"android":"levelo://app?vid=e347cbe9-8758-4f1d-9285-819135a9833c","ios":"levelo://app?vid=e347cbe9-8758-4f1d-9285-819135a9833c"},"vehicle_type_id":"4","last_reported":1701234428,"current_range_meters":28400,"station_id":"ce4bho92rcd13ifvqh3g","pricing_plan_id":"free"},{"bike_id":"4f44f999-09c2-4731-9818-9d104f72b33b","system_id":"levelo_inurba_marseille","lat":43.287154,"lon":5.399979,"is_reserved":false,"is_disabled":false,"rental_uris":{"android":"levelo://app?vid=4f44f999-09c2-4731-9818-9d104f72b33b","ios":"levelo://app?vid=4f44f999-09c2-4731-9818-9d104f72b33b"},"vehicle_type_id":"4","last_reported":1701234428,"current_range_meters":32000,"station_id":"ce4bho92rcd13ifvqh3g","pricing_plan_id":"free"},{"bike_id":"c9f5885a-65ab-4ae9-b6da-71b5329c790b","system_id":"levelo_inurba_marseille","lat":43.279832,"lon":5.387476,"is_reserved":false,"is_disabled":false,"rental_uris":{"android":"levelo://app?vid=c9f5885a-65ab-4ae9-b6da-71b5329c790b","ios":"levelo://app?vid=c9f5885a-65ab-4ae9-b6da-71b5329c790b"},"vehicle_type_id":"4","last_reported":1701234428,"current_range_meters":28800,"station_id":"ce4bhg12rcd13ifvqf80","pricing_plan_id":"free"},{"bike_id":"553703cc-a198-4b7c-b4f7-88e7d2d9a97c","system_id":"levelo_inurba_marseille","lat":43.299579,"lon":5.413255,"is_reserved":false,"is_disabled":false,"rental_uris":{"android":"levelo://app?vid=553703cc-a198-4b7c-b4f7-88e7d2d9a97c","ios":"levelo://app?vid=553703cc-a198-4b7c-b4f7-88e7d2d9a97c"},"vehicle_type_id":"4","last_reported":1701234428,"current_range_meters":24000,"station_id":"ce4bhp12rcd13ifvqh9g","pricing_plan_id":"free"},{"bike_id":"c35c24cb-35b6-455f-83cb-19fc23708fa6","system_id":"levelo_inurba_marseille","lat":43.279742,"lon":5.38744,"is_reserved":false,"is_disabled":false,"rental_uris":{"android":"levelo://app?vid=c35c24cb-35b6-455f-83cb-19fc23708fa6","ios":"levelo://app?vid=c35c24cb-35b6-455f-83cb-19fc23708fa6"},"vehicle_type_id":"4","last_reported":1701234428,"current_range_meters":15200,"station_id":"ce4bhg12rcd13ifvqf80","pricing_plan_id":"free"},{"bike_id":"81753472-79e0-4cfa-a233-20c0ecbe4c0a","system_id":"levelo_inurba_marseille","lat":43.320045,"lon":5.415046,"is_reserved":false,"is_disabled":false,"rental_uris":{"android":"levelo://app?vid=81753472-79e0-4cfa-a233-20c0ecbe4c0a","ios":"levelo://app?vid=81753472-79e0-4cfa-a233-20c0ecbe4c0a"},"vehicle_type_id":"4","last_reported":1701234428,"current_range_meters":28800,"station_id":"ce4bhq92rcd13ifvqhkg","pricing_plan_id":"free"},{"bike_id":"50289298-ce8a-4ddf-bd57-79e118aafb72","system_id":"levelo_inurba_marseille","lat":43.279598,"lon":5.387167,"is_reserved":false,"is_disabled":false,"rental_uris":{"android":"levelo://app?vid=50289298-ce8a-4ddf-bd57-79e118aafb72","ios":"levelo://app?vid=50289298-ce8a-4ddf-bd57-79e118aafb72"},"vehicle_type_id":"4","last_reported":1701234428,"current_range_meters":30400,"station_id":"ce4bhg12rcd13ifvqf80","pricing_plan_id":"free"},{"bike_id":"0d410972-8ed3-4feb-8b85-4fc4b172d7fc","system_id":"levelo_inurba_marseille","lat":43.27618,"lon":5.361009,"is_reserved":false,"is_disabled":false,"rental_uris":{"android":"levelo://app?vid=0d410972-8ed3-4feb-8b85-4fc4b172d7fc","ios":"levelo://app?vid=0d410972-8ed3-4feb-8b85-4fc4b172d7fc"},"vehicle_type_id":"4","last_reported":1701234428,"current_range_meters":17200,"station_id":"ce4bgj92rcd13ifvqbe0","pricing_plan_id":"free"},{"bike_id":"0ae4b498-b77c-4813-af12-4503794660e1","system_id":"levelo_inurba_marseille","lat":43.280784,"lon":5.396622,"is_reserved":false,"is_disabled":false,"rental_uris":{"android":"levelo://app?vid=0ae4b498-b77c-4813-af12-4503794660e1","ios":"levelo://app?vid=0ae4b498-b77c-4813-af12-4503794660e1"},"vehicle_type_id":"4","last_reported":1701234428,"current_range_meters":30000,"station_id":"ce4bho12rcd13ifvqh2g","pricing_plan_id":"free"},{"bike_id":"d22b4c57-45cd-4037-84a0-c94114d0e1d4","system_id":"levelo_inurba_marseille","lat":43.27836,"lon":5.39214,"is_reserved":false,"is_disabled":false,"rental_uris":{"android":"levelo://app?vid=d22b4c57-45cd-4037-84a0-c94114d0e1d4","ios":"levelo://app?vid=d22b4c57-45cd-4037-84a0-c94114d0e1d4"},"vehicle_type_id":"4","last_reported":1701234428,"current_range_meters":26800,"station_id":"","pricing_plan_id":"free"},{"bike_id":"c78d9778-891e-4402-aafb-a0e1da2ab261","system_id":"levelo_inurba_marseille","lat":43.275625,"lon":5.384392,"is_reserved":false,"is_disabled":false,"rental_uris":{"android":"levelo://app?vid=c78d9778-891e-4402-aafb-a0e1da2ab261","ios":"levelo://app?vid=c78d9778-891e-4402-aafb-a0e1da2ab261"},"vehicle_type_id":"4","last_reported":1701234428,"current_range_meters":32000,"station_id":"ce4bhh92rcd13ifvqfi0","pricing_plan_id":"free"},{"bike_id":"29b9929f-7c5b-4fd4-9bf0-00a8bc5ba3f1","system_id":"levelo_inurba_marseille","lat":43.275625,"lon":5.384392,"is_reserved":false,"is_disabled":false,"rental_uris":{"android":"levelo://app?vid=29b9929f-7c5b-4fd4-9bf0-00a8bc5ba3f1","ios":"levelo://app?vid=29b9929f-7c5b-4fd4-9bf0-00a8bc5ba3f1"},"vehicle_type_id":"4","last_reported":1701234428,"current_range_meters":16000,"station_id":"ce4bhh92rcd13ifvqfi0","pricing_plan_id":"free"},{"bike_id":"dc987c73-e119-4cfc-9fa7-288eef430c87","system_id":"levelo_inurba_marseille","lat":43.276771,"lon":5.388799,"is_reserved":false,"is_disabled":false,"rental_uris":{"android":"levelo://app?vid=dc987c73-e119-4cfc-9fa7-288eef430c87","ios":"levelo://app?vid=dc987c73-e119-4cfc-9fa7-288eef430c87"},"vehicle_type_id":"4","last_reported":1701234428,"current_range_meters":30000,"station_id":"ce4bhi12rcd13ifvqfo0","pricing_plan_id":"free"},{"bike_id":"42cbd211-cbcb-479e-a7b9-21d55a10e5cb","system_id":"levelo_inurba_marseille","lat":43.317121,"lon":5.423936,"is_reserved":false,"is_disabled":false,"rental_uris":{"android":"levelo://app?vid=42cbd211-cbcb-479e-a7b9-21d55a10e5cb","ios":"levelo://app?vid=42cbd211-cbcb-479e-a7b9-21d55a10e5cb"},"vehicle_type_id":"4","last_reported":1701234428,"current_range_meters":30400,"station_id":"ce4bhp92rcd13ifvqhbg","pricing_plan_id":"free"},{"bike_id":"e91ddd9f-f57e-4e50-9717-c08f71624f1a","system_id":"levelo_inurba_marseille","lat":43.317121,"lon":5.423936,"is_reserved":false,"is_disabled":false,"rental_uris":{"android":"levelo://app?vid=e91ddd9f-f57e-4e50-9717-c08f71624f1a","ios":"levelo://app?vid=e91ddd9f-f57e-4e50-9717-c08f71624f1a"},"vehicle_type_id":"4","last_reported":1701234428,"current_range_meters":19600,"station_id":"ce4bhp92rcd13ifvqhbg","pricing_plan_id":"free"},{"bike_id":"0d2f8383-0939-4bbd-987a-b05def9a4f03","system_id":"levelo_inurba_marseille","lat":43.3108,"lon":5.4243,"is_reserved":false,"is_disabled":false,"rental_uris":{"android":"levelo://app?vid=0d2f8383-0939-4bbd-987a-b05def9a4f03","ios":"levelo://app?vid=0d2f8383-0939-4bbd-987a-b05def9a4f03"},"vehicle_type_id":"4","last_reported":1701234428,"current_range_meters":26400,"station_id":"ce4bhp92rcd13ifvqhag","pricing_plan_id":"free"},{"bike_id":"b96aa254-24de-41e1-8c05-b7d04ceb4118","system_id":"levelo_inurba_marseille","lat":43.317121,"lon":5.423936,"is_reserved":false,"is_disabled":false,"rental_uris":{"android":"levelo://app?vid=b96aa254-24de-41e1-8c05-b7d04ceb4118","ios":"levelo://app?vid=b96aa254-24de-41e1-8c05-b7d04ceb4118"},"vehicle_type_id":"4","last_reported":1701234428,"current_range_meters":29600,"station_id":"ce4bhp92rcd13ifvqhbg","pricing_plan_id":"free"},{"bike_id":"50f6c785-e5b1-4500-b4fa-fd0686dcadb4","system_id":"levelo_inurba_marseille","lat":43.273129,"lon":5.390725,"is_reserved":false,"is_disabled":false,"rental_uris":{"android":"levelo://app?vid=50f6c785-e5b1-4500-b4fa-fd0686dcadb4","ios":"levelo://app?vid=50f6c785-e5b1-4500-b4fa-fd0686dcadb4"},"vehicle_type_id":"4","last_reported":1701234428,"current_range_meters":22400,"station_id":"ce4bhgp2rcd13ifvqfe0","pricing_plan_id":"free"},{"bike_id":"208279bc-1d9d-4e42-be06-d13174c03725","system_id":"levelo_inurba_marseille","lat":43.274103,"lon":5.394016,"is_reserved":false,"is_disabled":false,"rental_uris":{"android":"levelo://app?vid=208279bc-1d9d-4e42-be06-d13174c03725","ios":"levelo://app?vid=208279bc-1d9d-4e42-be06-d13174c03725"},"vehicle_type_id":"4","last_reported":1701234428,"current_range_meters":28000,"station_id":"ce4bhdp2rcd13ifvqf20","pricing_plan_id":"free"},{"bike_id":"ae0f6155-31e5-44f4-89ef-d2360e8a26c9","system_id":"levelo_inurba_marseille","lat":43.295511,"lon":5.422926,"is_reserved":false,"is_disabled":false,"rental_uris":{"android":"levelo://app?vid=ae0f6155-31e5-44f4-89ef-d2360e8a26c9","ios":"levelo://app?vid=ae0f6155-31e5-44f4-89ef-d2360e8a26c9"},"vehicle_type_id":"4","last_reported":1701234428,"current_range_meters":28400,"station_id":"ce4bhph2rcd13ifvqhdg","pricing_plan_id":"free"},{"bike_id":"ba334ea1-b9a0-4c51-a6c5-0b53984e59f9","system_id":"levelo_inurba_marseille","lat":43.295523,"lon":5.422926,"is_reserved":false,"is_disabled":false,"rental_uris":{"android":"levelo://app?vid=ba334ea1-b9a0-4c51-a6c5-0b53984e59f9","ios":"levelo://app?vid=ba334ea1-b9a0-4c51-a6c5-0b53984e59f9"},"vehicle_type_id":"4","last_reported":1701234428,"current_range_meters":28000,"station_id":"ce4bhph2rcd13ifvqhdg","pricing_plan_id":"free"},{"bike_id":"8602d9c8-fd6b-4aa8-a389-2b99d8394dfc","system_id":"levelo_inurba_marseille","lat":43.295511,"lon":5.422926,"is_reserved":false,"is_disabled":false,"rental_uris":{"android":"levelo://app?vid=8602d9c8-fd6b-4aa8-a389-2b99d8394dfc","ios":"levelo://app?vid=8602d9c8-fd6b-4aa8-a389-2b99d8394dfc"},"vehicle_type_id":"4","last_reported":1701234428,"current_range_meters":28800,"station_id":"ce4bhph2rcd13ifvqhdg","pricing_plan_id":"free"},{"bike_id":"2a4e1d3c-89c9-46e2-a0ad-bf12cc897baa","system_id":"levelo_inurba_marseille","lat":43.272124,"lon":5.391768,"is_reserved":false,"is_disabled":false,"rental_uris":{"android":"levelo://app?vid=2a4e1d3c-89c9-46e2-a0ad-bf12cc897baa","ios":"levelo://app?vid=2a4e1d3c-89c9-46e2-a0ad-bf12cc897baa"},"vehicle_type_id":"4","last_reported":1701234428,"current_range_meters":22000,"station_id":"ce4bhhp2rcd13ifvqfm0","pricing_plan_id":"free"},{"bike_id":"62cfa572-51d4-4a04-9e45-ea785883caeb","system_id":"levelo_inurba_marseille","lat":43.272191,"lon":5.392562,"is_reserved":false,"is_disabled":false,"rental_uris":{"android":"levelo://app?vid=62cfa572-51d4-4a04-9e45-ea785883caeb","ios":"levelo://app?vid=62cfa572-51d4-4a04-9e45-ea785883caeb"},"vehicle_type_id":"4","last_reported":1701234428,"current_range_meters":14800,"station_id":"","pricing_plan_id":"free"},{"bike_id":"c9f8a0a6-16e5-4ff4-a061-6028550e1760","system_id":"levelo_inurba_marseille","lat":43.278128,"lon":5.407195,"is_reserved":false,"is_disabled":false,"rental_uris":{"android":"levelo://app?vid=c9f8a0a6-16e5-4ff4-a061-6028550e1760","ios":"levelo://app?vid=c9f8a0a6-16e5-4ff4-a061-6028550e1760"},"vehicle_type_id":"4","last_reported":1701234428,"current_range_meters":11600,"station_id":"ce4bhnh2rcd13ifvqgtg","pricing_plan_id":"free"},{"bike_id":"6747574f-fa5a-44b7-8985-92eff4b667b4","system_id":"levelo_inurba_marseille","lat":43.278128,"lon":5.407195,"is_reserved":false,"is_disabled":false,"rental_uris":{"android":"levelo://app?vid=6747574f-fa5a-44b7-8985-92eff4b667b4","ios":"levelo://app?vid=6747574f-fa5a-44b7-8985-92eff4b667b4"},"vehicle_type_id":"4","last_reported":1701234428,"current_range_meters":4400,"station_id":"ce4bhnh2rcd13ifvqgtg","pricing_plan_id":"free"},{"bike_id":"42e9b9ac-3409-4bd1-9d3c-19eeb06c37c5","system_id":"levelo_inurba_marseille","lat":43.278128,"lon":5.407195,"is_reserved":false,"is_disabled":false,"rental_uris":{"android":"levelo://app?vid=42e9b9ac-3409-4bd1-9d3c-19eeb06c37c5","ios":"levelo://app?vid=42e9b9ac-3409-4bd1-9d3c-19eeb06c37c5"},"vehicle_type_id":"4","last_reported":1701234428,"current_range_meters":28000,"station_id":"ce4bhnh2rcd13ifvqgtg","pricing_plan_id":"free"},{"bike_id":"861ce127-c633-47c4-a541-50848c0dc844","system_id":"levelo_inurba_marseille","lat":43.278128,"lon":5.407195,"is_reserved":false,"is_disabled":false,"rental_uris":{"android":"levelo://app?vid=861ce127-c633-47c4-a541-50848c0dc844","ios":"levelo://app?vid=861ce127-c633-47c4-a541-50848c0dc844"},"vehicle_type_id":"4","last_reported":1701234428,"current_range_meters":25600,"station_id":"ce4bhnh2rcd13ifvqgtg","pricing_plan_id":"free"},{"bike_id":"3225fb83-0680-4e47-b873-e4f092068a31","system_id":"levelo_inurba_marseille","lat":43.27812,"lon":5.40706,"is_reserved":false,"is_disabled":false,"rental_uris":{"android":"levelo://app?vid=3225fb83-0680-4e47-b873-e4f092068a31","ios":"levelo://app?vid=3225fb83-0680-4e47-b873-e4f092068a31"},"vehicle_type_id":"4","last_reported":1701234428,"current_range_meters":30400,"station_id":"ce4bhnh2rcd13ifvqgtg","pricing_plan_id":"free"},{"bike_id":"39347131-f3f0-4227-aa2a-a16ec48c45a8","system_id":"levelo_inurba_marseille","lat":43.278128,"lon":5.407195,"is_reserved":false,"is_disabled":false,"rental_uris":{"android":"levelo://app?vid=39347131-f3f0-4227-aa2a-a16ec48c45a8","ios":"levelo://app?vid=39347131-f3f0-4227-aa2a-a16ec48c45a8"},"vehicle_type_id":"4","last_reported":1701234428,"current_range_meters":21600,"station_id":"ce4bhnh2rcd13ifvqgtg","pricing_plan_id":"free"},{"bike_id":"7a4dcdfc-9a27-49ba-b9fb-f54a01f2d9b2","system_id":"levelo_inurba_marseille","lat":43.278128,"lon":5.407195,"is_reserved":false,"is_disabled":false,"rental_uris":{"android":"levelo://app?vid=7a4dcdfc-9a27-49ba-b9fb-f54a01f2d9b2","ios":"levelo://app?vid=7a4dcdfc-9a27-49ba-b9fb-f54a01f2d9b2"},"vehicle_type_id":"4","last_reported":1701234428,"current_range_meters":32000,"station_id":"ce4bhnh2rcd13ifvqgtg","pricing_plan_id":"free"},{"bike_id":"38f175ae-65e3-4441-bcec-8c3f494df2b3","system_id":"levelo_inurba_marseille","lat":43.278128,"lon":5.407195,"is_reserved":false,"is_disabled":false,"rental_uris":{"android":"levelo://app?vid=38f175ae-65e3-4441-bcec-8c3f494df2b3","ios":"levelo://app?vid=38f175ae-65e3-4441-bcec-8c3f494df2b3"},"vehicle_type_id":"4","last_reported":1701234428,"current_range_meters":31600,"station_id":"ce4bhnh2rcd13ifvqgtg","pricing_plan_id":"free"},{"bike_id":"8b142e0b-7054-49c4-8717-843238b69b39","system_id":"levelo_inurba_marseille","lat":43.278128,"lon":5.407195,"is_reserved":false,"is_disabled":false,"rental_uris":{"android":"levelo://app?vid=8b142e0b-7054-49c4-8717-843238b69b39","ios":"levelo://app?vid=8b142e0b-7054-49c4-8717-843238b69b39"},"vehicle_type_id":"4","last_reported":1701234428,"current_range_meters":32000,"station_id":"ce4bhnh2rcd13ifvqgtg","pricing_plan_id":"free"},{"bike_id":"c7faed10-a6b1-49b6-903c-20f7d23207a5","system_id":"levelo_inurba_marseille","lat":43.279465,"lon":5.410561,"is_reserved":false,"is_disabled":false,"rental_uris":{"android":"levelo://app?vid=c7faed10-a6b1-49b6-903c-20f7d23207a5","ios":"levelo://app?vid=c7faed10-a6b1-49b6-903c-20f7d23207a5"},"vehicle_type_id":"4","last_reported":1701234428,"current_range_meters":30800,"station_id":"ce4bhnp2rcd13ifvqh0g","pricing_plan_id":"free"},{"bike_id":"39b2bd97-f713-41a1-814a-0930689d0578","system_id":"levelo_inurba_marseille","lat":43.279465,"lon":5.410561,"is_reserved":false,"is_disabled":false,"rental_uris":{"android":"levelo://app?vid=39b2bd97-f713-41a1-814a-0930689d0578","ios":"levelo://app?vid=39b2bd97-f713-41a1-814a-0930689d0578"},"vehicle_type_id":"4","last_reported":1701234428,"current_range_meters":29600,"station_id":"ce4bhnp2rcd13ifvqh0g","pricing_plan_id":"free"},{"bike_id":"cc2d09e2-49c6-434d-a2c0-2de64b55ffc7","system_id":"levelo_inurba_marseille","lat":43.279456,"lon":5.410454,"is_reserved":false,"is_disabled":false,"rental_uris":{"android":"levelo://app?vid=cc2d09e2-49c6-434d-a2c0-2de64b55ffc7","ios":"levelo://app?vid=cc2d09e2-49c6-434d-a2c0-2de64b55ffc7"},"vehicle_type_id":"4","last_reported":1701234428,"current_range_meters":2000,"station_id":"ce4bhnp2rcd13ifvqh0g","pricing_plan_id":"free"},