{"last_updated":1727194254,"ttl":60,"version":"2.2","data":{"bikes":[{"bike_id":"31b4590c-cf2d-42dc-9628-67a7b798fa8e","system_id":"levelo_inurba_marseille","lat":43.29695,"lon":5.36615,"is_reserved":false,"is_disabled":false,"rental_uris":{"android":"levelo://app?vid=31b4590c-cf2d-42dc-9628-67a7b798fa8e","ios":"levelo://app?vid=31b4590c-cf2d-42dc-9628-67a7b798fa8e"},"vehicle_type_id":"4","last_reported":1727194255,"current_range_meters":24000,"station_id":"ce4bgn12rcd13ifvqbt0","pricing_plan_id":"cebpf4jnsgd1na2vs0mg"},{"bike_id":"8ee7fb84-da46-476f-a091-3c35d33d7645","system_id":"levelo_inurba_marseille","lat":43.27944,"lon":5.41044,"is_reserved":false,"is_disabled":false,"rental_uris":{"android":"levelo://app?vid=8ee7fb84-da46-476f-a091-3c35d33d7645","ios":"levelo://app?vid=8ee7fb84-da46-476f-a091-3c35d33d7645"},"vehicle_type_id":"4","last_reported":1727194255,"current_range_meters":15200,"station_id":"ce4bhnp2rcd13ifvqh0g","pricing_plan_id":"cebpf4jnsgd1na2vs0mg"},{"bike_id":"a5cd771a-136c-4089-9540-92a43f84b30a","system_id":"levelo_inurba_marseille","lat":43.3234,"lon":5.40615,"is_reserved":false,"is_disabled":false,"rental_uris":{"android":"levelo://app?vid=a5cd771a-136c-4089-9540-92a43f84b30a","ios":"levelo://app?vid=a5cd771a-136c-4089-9540-92a43f84b30a"},"vehicle_type_id":"4","last_reported":1727194255,"current_range_meters":20000,"station_id":"ce4bhq92rcd13ifvqhjg","pricing_plan_id":"cebpf4jnsgd1na2vs0mg"},{"bike_id":"c85c3ac1-ec61-453b-a260-9f3875c4a0d0","system_id":"levelo_inurba_marseille","lat":43.27953,"lon":5.41051,"is_reserved":false,"is_disabled":false,"rental_uris":{"android":"levelo://app?vid=c85c3ac1-ec61-453b-a260-9f3875c4a0d0","ios":"levelo://app?vid=c85c3ac1-ec61-453b-a260-9f3875c4a0d0"},"vehicle_type_id":"4","last_reported":1727194255,"current_range_meters":36000,"station_id":"ce4bhnp2rcd13ifvqh0g","pricing_plan_id":"cebpf4jnsgd1na2vs0mg"},{"bike_id":"4dbeecb4-4ae5-476d-ac47-f55e1e3c1090","system_id":"levelo_inurba_marseille","lat":43.26665,"lon":5.4198,"is_reserved":false,"is_disabled":false,"rental_uris":{"android":"levelo://app?vid=4dbeecb4-4ae5-476d-ac47-f55e1e3c1090","ios":"levelo://app?vid=4dbeecb4-4ae5-476d-ac47-f55e1e3c1090"},"vehicle_type_id":"4","last_reported":1727194255,"current_range_meters":35600,"station_id":"","pricing_plan_id":"cebpf4jnsgd1na2vs0mg"},{"bike_id":"c6274dea-4d64-4afb-9655-251f555df2a8","system_id":"levelo_inurba_marseille","lat":43.28272,"lon":5.35073,"is_reserved":false,"is_disabled":false,"rental_uris":{"android":"levelo://app?vid=c6274dea-4d64-4afb-9655-251f555df2a8","ios":"levelo://app?vid=c6274dea-4d64-4afb-9655-251f555df2a8"},"vehicle_type_id":"4","last_reported":1727194255,"current_range_meters":12400,"station_id":"ce4bhbp2rcd13ifvqerg","pricing_plan_id":"cebpf4jnsgd1na2vs0mg"},{"bike_id":"55a69c3d-dc68-4707-aabf-70494e93d412","system_id":"levelo_inurba_marseille","lat":43.32655,"lon":5.41,"is_reserved":false,"is_disabled":false,"rental_uris":{"android":"levelo://app?vid=55a69c3d-dc68-4707-aabf-70494e93d412","ios":"levelo://app?vid=55a69c3d-dc68-4707-aabf-70494e93d412"},"vehicle_type_id":"4","last_reported":1727194255,"current_range_meters":36400,"station_id":"ce4bhpp2rcd13ifvqhgg","pricing_plan_id":"cebpf4jnsgd1na2vs0mg"},{"bike_id":"c6cd9b70-3b14-42a0-9ee3-01408936a20e","system_id":"levelo_inurba_marseille","lat":43.278162,"lon":5.407116,"is_reserved":false,"is_disabled":false,"rental_uris":{"android":"levelo://app?vid=c6cd9b70-3b14-42a0-9ee3-01408936a20e","ios":"levelo://app?vid=c6cd9b70-3b14-42a0-9ee3-01408936a20e"},"vehicle_type_id":"4","last_reported":1727194255,"current_range_meters":19200,"station_id":"ce4bhnh2rcd13ifvqgtg","pricing_plan_id":"cebpf4jnsgd1na2vs0mg"},{"bike_id":"9c03e0f0-96c4-48fe-a0c9-2ff39af48c29","system_id":"levelo_inurba_marseille","lat":43.31993,"lon":5.38148,"is_reserved":false,"is_disabled":false,"rental_uris":{"android":"levelo://app?vid=9c03e0f0-96c4-48fe-a0c9-2ff39af48c29","ios":"levelo://app?vid=9c03e0f0-96c4-48fe-a0c9-2ff39af48c29"},"vehicle_type_id":"4","last_reported":1727194255,"current_range_meters":30400,"station_id":"ce4bhr12rcd13ifvqhpg","pricing_plan_id":"cebpf4jnsgd1na2vs0mg"},{"bike_id":"008b3880-24d5-46c7-a4d3-53a466cf42db","system_id":"levelo_inurba_marseille","lat":43.30127,"lon":5.38782,"is_reserved":false,"is_disabled":false,"rental_uris":{"android":"levelo://app?vid=008b3880-24d5-46c7-a4d3-53a466cf42db","ios":"levelo://app?vid=008b3880-24d5-46c7-a4d3-53a466cf42db"},"vehicle_type_id":"4","last_reported":1727194255,"current_range_meters":38800,"station_id":"ce4bghh2rcd13ifvqb60","pricing_plan_id":"cebpf4jnsgd1na2vs0mg"},{"bike_id":"2ec5f482-ef2f-4ef8-b42f-3ca6cf554387","system_id":"levelo_inurba_marseille","lat":43.31335,"lon":5.39701,"is_reserved":false,"is_disabled":false,"rental_uris":{"android":"levelo://app?vid=2ec5f482-ef2f-4ef8-b42f-3ca6cf554387","ios":"levelo://app?vid=2ec5f482-ef2f-4ef8-b42f-3ca6cf554387"},"vehicle_type_id":"4","last_reported":1727194255,"current_range_meters":39200,"station_id":"ce4bgvp2rcd13ifvqcu0","pricing_plan_id":"cebpf4jnsgd1na2vs0mg"},{"bike_id":"7737b815-6daf-41f0-8354-4b28ba75917f","system_id":"levelo_inurba_marseille","lat":43.30188,"lon":5.39826,"is_reserved":false,"is_disabled":false,"rental_uris":{"android":"levelo://app?vid=7737b815-6daf-41f0-8354-4b28ba75917f","ios":"levelo://app?vid=7737b815-6daf-41f0-8354-4b28ba75917f"},"vehicle_type_id":"4","last_reported":1727194255,"current_range_meters":22800,"station_id":"ce4bgvp2rcd13ifvqct0","pricing_plan_id":"cebpf4jnsgd1na2vs0mg"},{"bike_id":"c5f8ede6-10b6-4ae4-a007-27ed804f4e88","system_id":"levelo_inurba_marseille","lat":43.29308,"lon":5.37469,"is_reserved":false,"is_disabled":false,"rental_uris":{"android":"levelo://app?vid=c5f8ede6-10b6-4ae4-a007-27ed804f4e88","ios":"levelo://app?vid=c5f8ede6-10b6-4ae4-a007-27ed804f4e88"},"vehicle_type_id":"4","last_reported":1727194255,"current_range_meters":6000,"station_id":"ce4bgi12rcd13ifvqb70","pricing_plan_id":"cebpf4jnsgd1na2vs0mg"},{"bike_id":"29f1c780-618a-45e0-9ebe-ce9781955d3b","system_id":"levelo_inurba_marseille","lat":43.27692,"lon":5.38876,"is_reserved":false,"is_disabled":false,"rental_uris":{"android":"levelo://app?vid=29f1c780-618a-45e0-9ebe-ce9781955d3b","ios":"levelo://app?vid=29f1c780-618a-45e0-9ebe-ce9781955d3b"},"vehicle_type_id":"4","last_reported":1727194255,"current_range_meters":34800,"station_id":"ce4bhi12rcd13ifvqfo0","pricing_plan_id":"cebpf4jnsgd1na2vs0mg"},{"bike_id":"91e10e90-83bd-4d34-9f29-1ac92501e191","system_id":"levelo_inurba_marseille","lat":43.27176,"lon":5.40991,"is_reserved":false,"is_disabled":false,"rental_uris":{"android":"levelo://app?vid=91e10e90-83bd-4d34-9f29-1ac92501e191","ios":"levelo://app?vid=91e10e90-83bd-4d34-9f29-1ac92501e191"},"vehicle_type_id":"4","last_reported":1727194255,"current_range_meters":36800,"station_id":"ce4bhl12rcd13ifvqgf0","pricing_plan_id":"cebpf4jnsgd1na2vs0mg"},{"bike_id":"f8c704cc-636c-4268-80af-5309e4b09904","system_id":"levelo_inurba_marseille","lat":43.24186,"lon":5.39722,"is_reserved":false,"is_disabled":false,"rental_uris":{"android":"levelo://app?vid=f8c704cc-636c-4268-80af-5309e4b09904","ios":"levelo://app?vid=f8c704cc-636c-4268-80af-5309e4b09904"},"vehicle_type_id":"4","last_reported":1727194255,"current_range_meters":36800,"station_id":"ce4bhn12rcd13ifvqgpg","pricing_plan_id":"cebpf4jnsgd1na2vs0mg"},{"bike_id":"8db4eeae-90dc-450b-8149-34b6ce69b1f8","system_id":"levelo_inurba_marseille","lat":43.23182,"lon":5.3999,"is_reserved":false,"is_disabled":false,"rental_uris":{"android":"levelo://app?vid=8db4eeae-90dc-450b-8149-34b6ce69b1f8","ios":"levelo://app?vid=8db4eeae-90dc-450b-8149-34b6ce69b1f8"},"vehicle_type_id":"4","last_reported":1727194255,"current_range_meters":30400,"station_id":"ce4bhn12rcd13ifvqgqg","pricing_plan_id":"cebpf4jnsgd1na2vs0mg"},{"bike_id":"c106d7d4-05d2-447e-b173-8cc4a0392e72","system_id":"levelo_inurba_marseille","lat":43.29003,"lon":5.35617,"is_reserved":false,"is_disabled":false,"rental_uris":{"android":"levelo://app?vid=c106d7d4-05d2-447e-b173-8cc4a0392e72","ios":"levelo://app?vid=c106d7d4-05d2-447e-b173-8cc4a0392e72"},"vehicle_type_id":"4","last_reported":1727194255,"current_range_meters":14400,"station_id":"ce4bhb92rcd13ifvqen0","pricing_plan_id":"cebpf4jnsgd1na2vs0mg"},{"bike_id":"7f8cb1de-9d96-4425-a08c-f2ac49d498a1","system_id":"levelo_inurba_marseille","lat":43.24183,"lon":5.39721,"is_reserved":false,"is_disabled":false,"rental_uris":{"android":"levelo://app?vid=7f8cb1de-9d96-4425-a08c-f2ac49d498a1","ios":"levelo://app?vid=7f8cb1de-9d96-4425-a08c-f2ac49d498a1"},"vehicle_type_id":"4","last_reported":1727194255,"current_range_meters":6000,"station_id":"ce4bhn12rcd13ifvqgpg","pricing_plan_id":"cebpf4jnsgd1na2vs0mg"},{"bike_id":"2b53c05c-7e74-451c-9f0a-5f217febdc56","system_id":"levelo_inurba_marseille","lat":43.30146,"lon":5.3769,"is_reserved":false,"is_disabled":false,"rental_uris":{"android":"levelo://app?vid=2b53c05c-7e74-451c-9f0a-5f217febdc56","ios":"levelo://app?vid=2b53c05c-7e74-451c-9f0a-5f217febdc56"},"vehicle_type_id":"4","last_reported":1727194255,"current_range_meters":8000,"station_id":"","pricing_plan_id":"cebpf4jnsgd1na2vs0mg"},{"bike_id":"7a8458d5-44ac-4f2e-abef-3f01eb31f7ca","system_id":"levelo_inurba_marseille","lat":43.337444,"lon":5.374475,"is_reserved":false,"is_disabled":false,"rental_uris":{"android":"levelo://app?vid=7a8458d5-44ac-4f2e-abef-3f01eb31f7ca","ios":"levelo://app?vid=7a8458d5-44ac-4f2e-abef-3f01eb31f7ca"},"vehicle_type_id":"4","last_reported":1727194255,"current_range_meters":29600,"station_id":"","pricing_plan_id":"cebpf4jnsgd1na2vs0mg"},{"bike_id":"d7362fb7-d482-4ae0-ac64-3c842973aae9","system_id":"levelo_inurba_marseille","lat":43.30432,"lon":5.39742,"is_reserved":false,"is_disabled":false,"rental_uris":{"android":"levelo://app?vid=d7362fb7-d482-4ae0-ac64-3c842973aae9","ios":"levelo://app?vid=d7362fb7-d482-4ae0-ac64-3c842973aae9"},"vehicle_type_id":"4","last_reported":1727194255,"current_range_meters":35200,"station_id":"ce4bh092rcd13ifvqd20","pricing_plan_id":"cebpf4jnsgd1na2vs0mg"},{"bike_id":"e929aa45-fdea-484e-b517-8386f3ab2657","system_id":"levelo_inurba_marseille","lat":43.296922,"lon":5.372855,"is_reserved":false,"is_disabled":false,"rental_uris":{"android":"levelo://app?vid=e929aa45-fdea-484e-b517-8386f3ab2657","ios":"levelo://app?vid=e929aa45-fdea-484e-b517-8386f3ab2657"},"vehicle_type_id":"4","last_reported":1727194255,"current_range_meters":39200,"station_id":"ce4bgk12rcd13ifvqbj0","pricing_plan_id":"cebpf4jnsgd1na2vs0mg"},{"bike_id":"c9b5ec6f-9235-414f-8086-a847b21c71d9","system_id":"levelo_inurba_marseille","lat":43.31994,"lon":5.38149,"is_reserved":false,"is_disabled":false,"rental_uris":{"android":"levelo://app?vid=c9b5ec6f-9235-414f-8086-a847b21c71d9","ios":"levelo://app?vid=c9b5ec6f-9235-414f-8086-a847b21c71d9"},"vehicle_type_id":"4","last_reported":1727194255,"current_range_meters":38800,"station_id":"ce4bhr12rcd13ifvqhpg","pricing_plan_id":"cebpf4jnsgd1na2vs0mg"},{"bike_id":"241040d8-3f46-4020-91ca-34fbeee2337c","system_id":"levelo_inurba_marseille","lat":43.28609,"lon":5.38413,"is_reserved":false,"is_disabled":false,"rental_uris":{"android":"levelo://app?vid=241040d8-3f46-4020-91ca-34fbeee2337c","ios":"levelo://app?vid=241040d8-3f46-4020-91ca-34fbeee2337c"},"vehicle_type_id":"4","last_reported":1727194255,"current_range_meters":8000,"station_id":"","pricing_plan_id":"cebpf4jnsgd1na2vs0mg"},{"bike_id":"5eb30db0-d736-4409-9b91-5b60a549831b","system_id":"levelo_inurba_marseille","lat":43.31484,"lon":5.37311,"is_reserved":false,"is_disabled":false,"rental_uris":{"android":"levelo://app?vid=5eb30db0-d736-4409-9b91-5b60a549831b","ios":"levelo://app?vid=5eb30db0-d736-4409-9b91-5b60a549831b"},"vehicle_type_id":"4","last_reported":1727194255,"current_range_meters":35200,"station_id":"ce4bgt12rcd13ifvqcd0","pricing_plan_id":"cebpf4jnsgd1na2vs0mg"},{"bike_id":"2bb34e6d-f037-4009-aa61-80dd39e322b7","system_id":"levelo_inurba_marseille","lat":43.31282,"lon":5.40167,"is_reserved":false,"is_disabled":false,"rental_uris":{"android":"levelo://app?vid=2bb34e6d-f037-4009-aa61-80dd39e322b7","ios":"levelo://app?vid=2bb34e6d-f037-4009-aa61-80dd39e322b7"},"vehicle_type_id":"4","last_reported":1727194255,"current_range_meters":35600,"station_id":"ce4bh092rcd13ifvqd30","pricing_plan_id":"cebpf4jnsgd1na2vs0mg"},{"bike_id":"1c210966-6cd8-44f2-a760-a0bb4ebe72bb","system_id":"levelo_inurba_marseille","lat":43.2318,"lon":5.3999,"is_reserved":false,"is_disabled":false,"rental_uris":{"android":"levelo://app?vid=1c210966-6cd8-44f2-a760-a0bb4ebe72bb","ios":"levelo://app?vid=1c210966-6cd8-44f2-a760-a0bb4ebe72bb"},"vehicle_type_id":"4","last_reported":1727194255,"current_range_meters":4800,"station_id":"ce4bhn12rcd13ifvqgqg","pricing_plan_id":"cebpf4jnsgd1na2vs0mg"},{"bike_id":"9e176831-71b2-4a7b-901d-fc0737fa1c8f","system_id":"levelo_inurba_marseille","lat":43.30892,"lon":5.39652,"is_reserved":false,"is_disabled":false,"rental_uris":{"android":"levelo://app?vid=9e176831-71b2-4a7b-901d-fc0737fa1c8f","ios":"levelo://app?vid=9e176831-71b2-4a7b-901d-fc0737fa1c8f"},"vehicle_type_id":"4","last_reported":1727194255,"current_range_meters":22800,"station_id":"ce4bh012rcd13ifvqcv0","pricing_plan_id":"cebpf4jnsgd1na2vs0mg"},{"bike_id":"0187dbe4-866c-4031-9cbb-94cdd92f6a82","system_id":"levelo_inurba_marseille","lat":43.29258,"lon":5.36662,"is_reserved":false,"is_disabled":false,"rental_uris":{"android":"levelo://app?vid=0187dbe4-866c-4031-9cbb-94cdd92f6a82","ios":"levelo://app?vid=0187dbe4-866c-4031-9cbb-94cdd92f6a82"},"vehicle_type_id":"4","last_reported":1727194255,"current_range_meters":3600,"station_id":"","pricing_plan_id":"cebpf4jnsgd1na2vs0mg"},{"bike_id":"b811b24d-2f0a-4a2b-8efb-7db47a788038","system_id":"levelo_inurba_marseille","lat":43.29846,"lon":5.36277,"is_reserved":false,"is_disabled":false,"rental_uris":{"android":"levelo://app?vid=b811b24d-2f0a-4a2b-8efb-7db47a788038","ios":"levelo://app?vid=b811b24d-2f0a-4a2b-8efb-7db47a788038"},"vehicle_type_id":"4","last_reported":1727194255,"current_range_meters":24400,"station_id":"ce4bgpp2rcd13ifvqc3g","pricing_plan_id":"cebpf4jnsgd1na2vs0mg"},{"bike_id":"cefb6643-fc89-4b04-b95f-6cff2759399c","system_id":"levelo_inurba_marseille","lat":43.32291,"lon":5.38287,"is_reserved":false,"is_disabled":false,"rental_uris":{"android":"levelo://app?vid=cefb6643-fc89-4b04-b95f-6cff2759399c","ios":"levelo://app?vid=cefb6643-fc89-4b04-b95f-6cff2759399c"},"vehicle_type_id":"4","last_reported":1727194255,"current_range_meters":33200,"station_id":"ce4bhr12rcd13ifvqhqg","pricing_plan_id":"cebpf4jnsgd1na2vs0mg"},{"bike_id":"59076984-aeee-480e-ad47-62b5a7a0c08d","system_id":"levelo_inurba_marseille","lat":43.28608,"lon":5.35098,"is_reserved":false,"is_disabled":false,"rental_uris":{"android":"levelo://app?vid=59076984-aeee-480e-ad47-62b5a7a0c08d","ios":"levelo://app?vid=59076984-aeee-480e-ad47-62b5a7a0c08d"},"vehicle_type_id":"4","last_reported":1727194255,"current_range_meters":37600,"station_id":"ce4bhch2rcd13ifvqeug","pricing_plan_id":"cebpf4jnsgd1na2vs0mg"},{"bike_id":"0af67b68-6f0a-42ec-a329-2a67c4612d4a","system_id":"levelo_inurba_marseille","lat":43.28102,"lon":5.37835,"is_reserved":false,"is_disabled":false,"rental_uris":{"android":"levelo://app?vid=0af67b68-6f0a-42ec-a329-2a67c4612d4a","ios":"levelo://app?vid=0af67b68-6f0a-42ec-a329-2a67c4612d4a"},"vehicle_type_id":"4","last_reported":1727194255,"current_range_meters":9200,"station_id":"ce4bha12rcd13ifvqee0","pricing_plan_id":"cebpf4jnsgd1na2vs0mg"},{"bike_id":"0bee5a77-db9e-4e51-8e05-715a9d68c8c0","system_id":"levelo_inurba_marseille","lat":43.28275,"lon":5.3508,"is_reserved":false,"is_disabled":false,"rental_uris":{"android":"levelo://app?vid=0bee5a77-db9e-4e51-8e05-715a9d68c8c0","ios":"levelo://app?vid=0bee5a77-db9e-4e51-8e05-715a9d68c8c0"},"vehicle_type_id":"4","last_reported":1727194255,"current_range_meters":27200,"station_id":"ce4bhbp2rcd13ifvqerg","pricing_plan_id":"cebpf4jnsgd1na2vs0mg"},{"bike_id":"2da24b92-3734-492c-9a6c-8b09da92c194","system_id":"levelo_inurba_marseille","lat":43.337444,"lon":5.374475,"is_reserved":false,"is_disabled":false,"rental_uris":{"android":"levelo://app?vid=2da24b92-3734-492c-9a6c-8b09da92c194","ios":"levelo://app?vid=2da24b92-3734-492c-9a6c-8b09da92c194"},"vehicle_type_id":"4","last_reported":1727194255,"current_range_meters":25600,"station_id":"","pricing_plan_id":"cebpf4jnsgd1na2vs0mg"},{"bike_id":"4c6bb684-134a-405d-9f1b-2a2d9ca947c9","system_id":"levelo_inurba_marseille","lat":43.287109,"lon":5.385989,"is_reserved":false,"is_disabled":false,"rental_uris":{"android":"levelo://app?vid=4c6bb684-134a-405d-9f1b-2a2d9ca947c9","ios":"levelo://app?vid=4c6bb684-134a-405d-9f1b-2a2d9ca947c9"},"vehicle_type_id":"4","last_reported":1727194255,"current_range_meters":12000,"station_id":"ce4bgi92rcd13ifvqb90","pricing_plan_id":"cebpf4jnsgd1na2vs0mg"},{"bike_id":"498e2d2f-35e4-4dec-a279-8e488f0277bb","system_id":"levelo_inurba_marseille","lat":43.2827,"lon":5.35072,"is_reserved":false,"is_disabled":false,"rental_uris":{"android":"levelo://app?vid=498e2d2f-35e4-4dec-a279-8e488f0277bb","ios":"levelo://app?vid=498e2d2f-35e4-4dec-a279-8e488f0277bb"},"vehicle_type_id":"4","last_reported":1727194255,"current_range_meters":9200,"station_id":"ce4bhbp2rcd13ifvqerg","pricing_plan_id":"cebpf4jnsgd1na2vs0mg"},{"bike_id":"4cdde3ed-c836-42fd-b81b-4de8a37b6655","system_id":"levelo_inurba_marseille","lat":43.28352,"lon":5.39697,"is_reserved":false,"is_disabled":false,"rental_uris":{"android":"levelo://app?vid=4cdde3ed-c836-42fd-b81b-4de8a37b6655","ios":"levelo://app?vid=4cdde3ed-c836-42fd-b81b-4de8a37b6655"},"vehicle_type_id":"4","last_reported":1727194255,"current_range_meters":2800,"station_id":"","pricing_plan_id":"cebpf4jnsgd1na2vs0mg"},{"bike_id":"37b0d8d0-c4f1-4cc9-b2aa-a2ae7067f0b7","system_id":"levelo_inurba_marseille","lat":43.29795,"lon":5.40409,"is_reserved":false,"is_disabled":false,"rental_uris":{"android":"levelo://app?vid=37b0d8d0-c4f1-4cc9-b2aa-a2ae7067f0b7","ios":"levelo://app?vid=37b0d8d0-c4f1-4cc9-b2aa-a2ae7067f0b7"},"vehicle_type_id":"4","last_reported":1727194255,"current_range_meters":19200,"station_id":"ce4bh112rcd13ifvqd90","pricing_plan_id":"cebpf4jnsgd1na2vs0mg"},{"bike_id":"40a5dd0c-9cff-4bc9-b214-d88e60e02be8","system_id":"levelo_inurba_marseille","lat":43.27179,"lon":5.40994,"is_reserved":false,"is_disabled":false,"rental_uris":{"android":"levelo://app?vid=40a5dd0c-9cff-4bc9-b214-d88e60e02be8","ios":"levelo://app?vid=40a5dd0c-9cff-4bc9-b214-d88e60e02be8"},"vehicle_type_id":"4","last_reported":1727194255,"current_range_meters":11200,"station_id":"ce4bhl12rcd13ifvqgf0","pricing_plan_id":"cebpf4jnsgd1na2vs0mg"},{"bike_id":"c00cbaf3-673a-41dc-aefd-e91c0d90b257","system_id":"levelo_inurba_marseille","lat":43.23063,"lon":5.35493,"is_reserved":false,"is_disabled":false,"rental_uris":{"android":"levelo://app?vid=c00cbaf3-673a-41dc-aefd-e91c0d90b257","ios":"levelo://app?vid=c00cbaf3-673a-41dc-aefd-e91c0d90b257"},"vehicle_type_id":"4","last_reported":1727194255,"current_range_meters":28000,"station_id":"cpo3342slgdg3j2ifvpg","pricing_plan_id":"cebpf4jnsgd1na2vs0mg"},{"bike_id":"865486bf-ecf4-4695-aa81-8d1b6e41faa8","system_id":"levelo_inurba_marseille","lat":43.29523,"lon":5.39406,"is_reserved":false,"is_disabled":false,"rental_uris":{"android":"levelo://app?vid=865486bf-ecf4-4695-aa81-8d1b6e41faa8","ios":"levelo://app?vid=865486bf-ecf4-4695-aa81-8d1b6e41faa8"},"vehicle_type_id":"4","last_reported":1727194255,"current_range_meters":36400,"station_id":"ce4bh292rcd13ifvqdf0","pricing_plan_id":"cebpf4jnsgd1na2vs0mg"},{"bike_id":"ecb70881-b110-48a8-b751-24b4690d4031","system_id":"levelo_inurba_marseille","lat":43.23186,"lon":5.39982,"is_reserved":false,"is_disabled":false,"rental_uris":{"android":"levelo://app?vid=ecb70881-b110-48a8-b751-24b4690d4031","ios":"levelo://app?vid=ecb70881-b110-48a8-b751-24b4690d4031"},"vehicle_type_id":"4","last_reported":1727194255,"current_range_meters":11600,"station_id":"ce4bhn12rcd13ifvqgqg","pricing_plan_id":"cebpf4jnsgd1na2vs0mg"},{"bike_id":"25bd7405-be80-4a77-a761-8a1efed52652","system_id":"levelo_inurba_marseille","lat":43.29896,"lon":5.43658,"is_reserved":false,"is_disabled":false,"rental_uris":{"android":"levelo://app?vid=25bd7405-be80-4a77-a761-8a1efed52652","ios":"levelo://app?vid=25bd7405-be80-4a77-a761-8a1efed52652"},"vehicle_type_id":"4","last_reported":1727194255,"current_range_meters":28400,"station_id":"ce4bhpp2rcd13ifvqhfg","pricing_plan_id":"cebpf4jnsgd1na2vs0mg"},{"bike_id":"11c4f5be-b465-471a-b3d0-dbbc3061010b","system_id":"levelo_inurba_marseille","lat":43.30809,"lon":5.43529,"is_reserved":false,"is_disabled":false,"rental_uris":{"android":"levelo://app?vid=11c4f5be-b465-471a-b3d0-dbbc3061010b","ios":"levelo://app?vid=11c4f5be-b465-471a-b3d0-dbbc3061010b"},"vehicle_type_id":"4","last_reported":1727194255,"current_range_meters":22000,"station_id":"ce4bhph2rcd13ifvqheg","pricing_plan_id":"cebpf4jnsgd1na2vs0mg"},{"bike_id":"f381c2c7-2608-4013-89b4-2ab1175a8225","system_id":"levelo_inurba_marseille","lat":43.28267,"lon":5.35075,"is_reserved":false,"is_disabled":false,"rental_uris":{"android":"levelo://app?vid=f381c2c7-2608-4013-89b4-2ab1175a8225","ios":"levelo://app?vid=f381c2c7-2608-4013-89b4-2ab1175a8225"},"vehicle_type_id":"4","last_reported":1727194255,"current_range_meters":19200,"station_id":"ce4bhbp2rcd13ifvqerg","pricing_plan_id":"cebpf4jnsgd1na2vs0mg"},{"bike_id":"162ee78d-83e3-4081-92bd-328649d7b4ba","system_id":"levelo_inurba_marseille","lat":43.31737,"lon":5.39033,"is_reserved":false,"is_disabled":false,"rental_uris":{"android":"levelo://app?vid=162ee78d-83e3-4081-92bd-328649d7b4ba","ios":"levelo://app?vid=162ee78d-83e3-4081-92bd-328649d7b4ba"},"vehicle_type_id":"4","last_reported":1727194255,"current_range_meters":12000,"station_id":"ce4bhqp2rcd13ifvqhng","pricing_plan_id":"cebpf4jnsgd1na2vs0mg"},{"bike_id":"b76accd3-cbb3-425b-ac2d-be3c9519561e","system_id":"levelo_inurba_marseille","lat":43.30894,"lon":5.39654,"is_reserved":false,"is_disabled":false,"rental_uris":{"android":"levelo://app?vid=b76accd3-cbb3-425b-ac2d-be3c9519561e","ios":"levelo://app?vid=b76accd3-cbb3-425b-ac2d-be3c9519561e"},"vehicle_type_id":"4","last_reported":1727194255,"current_range_meters":24800,"station_id":"ce4bh012rcd13ifvqcv0","pricing_plan_id":"cebpf4jnsgd1na2vs0mg"},{"bike_id":"eea2cd5a-ea70-49e4-b38f-c464fb6c5cc3","system_id":"levelo_inurba_marseille","lat":43.337444,"lon":5.374475,"is_reserved":false,"is_disabled":false,"rental_uris":{"android":"levelo://app?vid=eea2cd5a-ea70-49e4-b38f-c464fb6c5cc3","ios":"levelo://app?vid=eea2cd5a-ea70-49e4-b38f-c464fb6c5cc3"},"vehicle_type_id":"4","last_reported":1727194255,"current_range_meters":34000,"station_id":"","pricing_plan_id":"cebpf4jnsgd1na2vs0mg"},{"bike_id":"56ca6ae0-f5c2-4073-bc76-be3067eed049","system_id":"levelo_inurba_marseille","lat":43.29558,"lon":5.4228,"is_reserved":false,"is_disabled":false,"rental_uris":{"android":"levelo://app?vid=56ca6ae0-f5c2-4073-bc76-be3067eed049","ios":"levelo://app?vid=56ca6ae0-f5c2-4073-bc76-be3067eed049"},"vehicle_type_id":"4","last_reported":1727194255,"current_range_meters":17200,"station_id":"ce4bhph2rcd13ifvqhdg","pricing_plan_id":"cebpf4jnsgd1na2vs0mg"},{"bike_id":"41828e73-fe8a-4365-9469-727ed1c6072b","system_id":"levelo_inurba_marseille","lat":43.28101,"lon":5.3784,"is_reserved":false,"is_disabled":false,"rental_uris":{"android":"levelo://app?vid=41828e73-fe8a-4365-9469-727ed1c6072b","ios":"levelo://app?vid=41828e73-fe8a-4365-9469-727ed1c6072b"},"vehicle_type_id":"4","last_reported":1727194255,"current_range_meters":3600,"station_id":"ce4bha12rcd13ifvqee0","pricing_plan_id":"cebpf4jnsgd1na2vs0mg"},{"bike_id":"409c7f0b-65aa-48ec-a077-506be6a4c2b8","system_id":"levelo_inurba_marseille","lat":43.282688,"lon":5.350663,"is_reserved":false,"is_disabled":false,"rental_uris":{"android":"levelo://app?vid=409c7f0b-65aa-48ec-a077-506be6a4c2b8","ios":"levelo://app?vid=409c7f0b-65aa-48ec-a077-506be6a4c2b8"},"vehicle_type_id":"4","last_reported":1727194255,"current_range_meters":28800,"station_id":"ce4bhbh2rcd13ifvqeo0","pricing_plan_id":"cebpf4jnsgd1na2vs0mg"},{"bike_id":"487537f2-89c2-4030-a61c-a25bc2c893bb","system_id":"levelo_inurba_marseille","lat":43.2318,"lon":5.39983,"is_reserved":false,"is_disabled":false,"rental_uris":{"android":"levelo://app?vid=487537f2-89c2-4030-a61c-a25bc2c893bb","ios":"levelo://app?vid=487537f2-89c2-4030-a61c-a25bc2c893bb"},"vehicle_type_id":"4","last_reported":1727194255,"current_range_meters":28000,"station_id":"ce4bhn12rcd13ifvqgqg","pricing_plan_id":"cebpf4jnsgd1na2vs0mg"},{"bike_id":"756ba679-0fd6-459f-ad21-59856cb29383","system_id":"levelo_inurba_marseille","lat":43.32106,"lon":5.36768,"is_reserved":false,"is_disabled":false,"rental_uris":{"android":"levelo://app?vid=756ba679-0fd6-459f-ad21-59856cb29383","ios":"levelo://app?vid=756ba679-0fd6-459f-ad21-59856cb29383"},"vehicle_type_id":"4","last_reported":1727194255,"current_range_meters":38800,"station_id":"ce4bhrh2rcd13ifvqhug","pricing_plan_id":"cebpf4jnsgd1na2vs0mg"},{"bike_id":"b4814b00-a483-4ec2-96a6-eb49cfd1fd14","system_id":"levelo_inurba_marseille","lat":43.31116,"lon":5.37775,"is_reserved":false,"is_disabled":false,"rental_uris":{"android":"levelo://app?vid=b4814b00-a483-4ec2-96a6-eb49cfd1fd14","ios":"levelo://app?vid=b4814b00-a483-4ec2-96a6-eb49cfd1fd14"},"vehicle_type_id":"4","last_reported":1727194255,"current_range_meters":28000,"station_id":"ce4bgt92rcd13ifvqcg0","pricing_plan_id":"cebpf4jnsgd1na2vs0mg"},{"bike_id":"11608c52-4ffd-4e71-af9a-bd779f5cdf1f","system_id":"levelo_inurba_marseille","lat":43.27921,"lon":5.39577,"is_reserved":false,"is_disabled":false,"rental_uris":{"android":"levelo://app?vid=11608c52-4ffd-4e71-af9a-bd779f5cdf1f","ios":"levelo://app?vid=11608c52-4ffd-4e71-af9a-bd779f5cdf1f"},"vehicle_type_id":"4","last_reported":1727194255,"current_range_meters":8000,"station_id":"ce4bhf92rcd13ifvqf40","pricing_plan_id":"cebpf4jnsgd1na2vs0mg"},{"bike_id":"1ed5b1ff-a16f-448b-9552-e8e743c02738","system_id":"levelo_inurba_marseille","lat":43.323423,"lon":5.406157,"is_reserved":false,"is_disabled":false,"rental_uris":{"android":"levelo://app?vid=1ed5b1ff-a16f-448b-9552-e8e743c02738","ios":"levelo://app?vid=1ed5b1ff-a16f-448b-9552-e8e743c02738"},"vehicle_type_id":"4","last_reported":1727194255,"current_range_meters":30400,"station_id":"ce4bhq92rcd13ifvqhjg","pricing_plan_id":"cebpf4jnsgd1na2vs0mg"},{"bike_id":"a825258c-8365-4941-bad4-ac5645e3f073","system_id":"levelo_inurba_marseille","lat":43.30134,"lon":5.39882,"is_reserved":false,"is_disabled":false,"rental_uris":{"android":"levelo://app?vid=a825258c-8365-4941-bad4-ac5645e3f073","ios":"levelo://app?vid=a825258c-8365-4941-bad4-ac5645e3f073"},"vehicle_type_id":"4","last_reported":1727194255,"current_range_meters":39200,"station_id":"ce4bh0h2rcd13ifvqd40","pricing_plan_id":"cebpf4jnsgd1na2vs0mg"},{"bike_id":"500ced11-4b8a-4316-a60a-5194cad51fd0","system_id":"levelo_inurba_marseille","lat":43.255,"lon":5.3765,"is_reserved":false,"is_disabled":false,"rental_uris":{"android":"levelo://app?vid=500ced11-4b8a-4316-a60a-5194cad51fd0","ios":"levelo://app?vid=500ced11-4b8a-4316-a60a-5194cad51fd0"},"vehicle_type_id":"4","last_reported":1727194255,"current_range_meters":29600,"station_id":"ce4bhh12rcd13ifvqff0","pricing_plan_id":"cebpf4jnsgd1na2vs0mg"},{"bike_id":"c9a57a99-e4cb-4bf2-ae82-505d505e6a4c","system_id":"levelo_inurba_marseille","lat":43.27618,"lon":5.36106,"is_reserved":false,"is_disabled":false,"rental_uris":{"android":"levelo://app?vid=c9a57a99-e4cb-4bf2-ae82-505d505e6a4c","ios":"levelo://app?vid=c9a57a99-e4cb-4bf2-ae82-505d505e6a4c"},"vehicle_type_id":"4","last_reported":1727194255,"current_range_meters":28800,"station_id":"ce4bgj92rcd13ifvqbe0","pricing_plan_id":"cebpf4jnsgd1na2vs0mg"},{"bike_id":"b409dc08-5949-4903-b233-2b5434b6bac9","system_id":"levelo_inurba_marseille","lat":43.30243,"lon":5.40054,"is_reserved":false,"is_disabled":false,"rental_uris":{"android":"levelo://app?vid=b409dc08-5949-4903-b233-2b5434b6bac9","ios":"levelo://app?vid=b409dc08-5949-4903-b233-2b5434b6bac9"},"vehicle_type_id":"4","last_reported":1727194255,"current_range_meters":8000,"station_id":"ce4bgvh2rcd13ifvqcs0","pricing_plan_id":"cebpf4jnsgd1na2vs0mg"},{"bike_id":"6526731a-ee9f-4734-a22f-1cda8622d732","system_id":"levelo_inurba_marseille","lat":43.29515,"lon":5.39403,"is_reserved":false,"is_disabled":false,"rental_uris":{"android":"levelo://app?vid=6526731a-ee9f-4734-a22f-1cda8622d732","ios":"levelo://app?vid=6526731a-ee9f-4734-a22f-1cda8622d732"},"vehicle_type_id":"4","last_reported":1727194255,"current_range_meters":3600,"station_id":"ce4bh292rcd13ifvqdf0","pricing_plan_id":"cebpf4jnsgd1na2vs0mg"},{"bike_id":"a5c199d0-f043-4475-a373-54d1d64f3adb","system_id":"levelo_inurba_marseille","lat":43.26555,"lon":5.37286,"is_reserved":false,"is_disabled":false,"rental_uris":{"android":"levelo://app?vid=a5c199d0-f043-4475-a373-54d1d64f3adb","ios":"levelo://app?vid=a5c199d0-f043-4475-a373-54d1d64f3adb"},"vehicle_type_id":"4","last_reported":1727194255,"current_range_meters":7200,"station_id":"ce4bhg12rcd13ifvqf70","pricing_plan_id":"cebpf4jnsgd1na2vs0mg"},{"bike_id":"43d9e1da-cdcd-4230-b189-87bfd3cab2a2","system_id":"levelo_inurba_marseille","lat":43.2956,"lon":5.42294,"is_reserved":false,"is_disabled":false,"rental_uris":{"android":"levelo://app?vid=43d9e1da-cdcd-4230-b189-87bfd3cab2a2","ios":"levelo://app?vid=43d9e1da-cdcd-4230-b189-87bfd3cab2a2"},"vehicle_type_id":"4","last_reported":1727194255,"current_range_meters":21600,"station_id":"ce4bhph2rcd13ifvqhdg","pricing_plan_id":"cebpf4jnsgd1na2vs0mg"},{"bike_id":"f533d3c6-6a7b-4616-a3a1-18848b9d5851","system_id":"levelo_inurba_marseille","lat":43.29519,"lon":5.39404,"is_reserved":false,"is_disabled":false,"rental_uris":{"android":"levelo://app?vid=f533d3c6-6a7b-4616-a3a1-18848b9d5851","ios":"levelo://app?vid=f533d3c6-6a7b-4616-a3a1-18848b9d5851"},"vehicle_type_id":"4","last_reported":1727194255,"current_range_meters":25200,"station_id":"ce4bh292rcd13ifvqdf0","pricing_plan_id":"cebpf4jnsgd1na2vs0mg"},{"bike_id":"2e64cca5-18d1-4672-9056-781656ab8139","system_id":"levelo_inurba_marseille","lat":43.28571,"lon":5.39501,"is_reserved":false,"is_disabled":false,"rental_uris":{"android":"levelo://app?vid=2e64cca5-18d1-4672-9056-781656ab8139","ios":"levelo://app?vid=2e64cca5-18d1-4672-9056-781656ab8139"},"vehicle_type_id":"4","last_reported":1727194255,"current_range_meters":32000,"station_id":"ce4bh292rcd13ifvqdg0","pricing_plan_id":"cebpf4jnsgd1na2vs0mg"},{"bike_id":"fdee4c1a-b409-44dd-a377-cff8e459d51b","system_id":"levelo_inurba_marseille","lat":43.287506,"lon":5.400272,"is_reserved":false,"is_disabled":false,"rental_uris":{"android":"levelo://app?vid=fdee4c1a-b409-44dd-a377-cff8e459d51b","ios":"levelo://app?vid=fdee4c1a-b409-44dd-a377-cff8e459d51b"},"vehicle_type_id":"4","last_reported":1727194255,"current_range_meters":9600,"station_id":"cjm6bp8fraef2m0cb0m0","pricing_plan_id":"cebpf4jnsgd1na2vs0mg"},{"bike_id":"7a907bd8-a31c-44f5-ae26-4d359cad6743","system_id":"levelo_inurba_marseille","lat":43.23061,"lon":5.35489,"is_reserved":false,"is_disabled":false,"rental_uris":{"android":"levelo://app?vid=7a907bd8-a31c-44f5-ae26-4d359cad6743","ios":"levelo://app?vid=7a907bd8-a31c-44f5-ae26-4d359cad6743"},"vehicle_type_id":"4","last_reported":1727194255,"current_range_meters":8400,"station_id":"cpo3342slgdg3j2ifvpg","pricing_plan_id":"cebpf4jnsgd1na2vs0mg"},{"bike_id":"a53e5bc0-12d8-4ce2-ad06-5d7632b6fc8e","system_id":"levelo_inurba_marseille","lat":43.26028,"lon":5.37551,"is_reserved":false,"is_disabled":false,"rental_uris":{"android":"levelo://app?vid=a53e5bc0-12d8-4ce2-ad06-5d7632b6fc8e","ios":"levelo://app?vid=a53e5bc0-12d8-4ce2-ad06-5d7632b6fc8e"},"vehicle_type_id":"4","last_reported":1727194255,"current_range_meters":14400,"station_id":"ce4bhgh2rcd13ifvqfa0","pricing_plan_id":"cebpf4jnsgd1na2vs0mg"},{"bike_id":"aadc46d2-fe20-4c48-81b2-2e8cd1e1f651","system_id":"levelo_inurba_marseille","lat":43.23958,"lon":5.36641,"is_reserved":false,"is_disabled":false,"rental_uris":{"android":"levelo://app?vid=aadc46d2-fe20-4c48-81b2-2e8cd1e1f651","ios":"levelo://app?vid=aadc46d2-fe20-4c48-81b2-2e8cd1e1f651"},"vehicle_type_id":"4","last_reported":1727194255,"current_range_meters":8800,"station_id":"ce4bhi12rcd13ifvqfp0","pricing_plan_id":"cebpf4jnsgd1na2vs0mg"},{"bike_id":"fbc95224-d687-45eb-9f3f-b4804878b96f","system_id":"levelo_inurba_marseille","lat":43.3133,"lon":5.39698,"is_reserved":false,"is_disabled":false,"rental_uris":{"android":"levelo://app?vid=fbc95224-d687-45eb-9f3f-b4804878b96f","ios":"levelo://app?vid=fbc95224-d687-45eb-9f3f-b4804878b96f"},"vehicle_type_id":"4","last_reported":1727194255,"current_range_meters":39200,"station_id":"ce4bgvp2rcd13ifvqcu0","pricing_plan_id":"cebpf4jnsgd1na2vs0mg"},{"bike_id":"ee028bc1-4dc0-423f-8653-de22fffe980c","system_id":"levelo_inurba_marseille","lat":43.29279,"lon":5.36851,"is_reserved":false,"is_disabled":false,"rental_uris":{"android":"levelo://app?vid=ee028bc1-4dc0-423f-8653-de22fffe980c","ios":"levelo://app?vid=ee028bc1-4dc0-423f-8653-de22fffe980c"},"vehicle_type_id":"4","last_reported":1727194255,"current_range_meters":27200,"station_id":"ce4bhbp2rcd13ifvqesg","pricing_plan_id":"cebpf4jnsgd1na2vs0mg"},{"bike_id":"06138e05-a18e-4a99-9c79-38670e01d35d","system_id":"levelo_inurba_marseille","lat":43.28617,"lon":5.35102,"is_reserved":false,"is_disabled":false,"rental_uris":{"android":"levelo://app?vid=06138e05-a18e-4a99-9c79-38670e01d35d","ios":"levelo://app?vid=06138e05-a18e-4a99-9c79-38670e01d35d"},"vehicle_type_id":"4","last_reported":1727194255,"current_range_meters":30800,"station_id":"ce4bhch2rcd13ifvqeug","pricing_plan_id":"cebpf4jnsgd1na2vs0mg"},{"bike_id":"3b2dc4ab-437e-4e45-9121-34aeaa52cc2d","system_id":"levelo_inurba_marseille","lat":43.25495,"lon":5.37655,"is_reserved":false,"is_disabled":false,"rental_uris":{"android":"levelo://app?vid=3b2dc4ab-437e-4e45-9121-34aeaa52cc2d","ios":"levelo://app?vid=3b2dc4ab-437e-4e45-9121-34aeaa52cc2d"},"vehicle_type_id":"4","last_reported":1727194255,"current_range_meters":35600,"station_id":"ce4bhh12rcd13ifvqff0","pricing_plan_id":"cebpf4jnsgd1na2vs0mg"},{"bike_id":"ebec7cd5-5fed-46ce-abdb-3cd659f607ac","system_id":"levelo_inurba_marseille","lat":43.29551,"lon":5.42282,"is_reserved":false,"is_disabled":false,"rental_uris":{"android":"levelo://app?vid=ebec7cd5-5fed-46ce-abdb-3cd659f607ac","ios":"levelo://app?vid=ebec7cd5-5fed-46ce-abdb-3cd659f607ac"},"vehicle_type_id":"4","last_reported":1727194255,"current_range_meters":37600,"station_id":"ce4bhph2rcd13ifvqhdg","pricing_plan_id":"cebpf4jnsgd1na2vs0mg"},{"bike_id":"ca3edcd3-705c-48af-80a7-ed285389a603","system_id":"levelo_inurba_marseille","lat":43.28279,"lon":5.35064,"is_reserved":false,"is_disabled":false,"rental_uris":{"android":"levelo://app?vid=ca3edcd3-705c-48af-80a7-ed285389a603","ios":"levelo://app?vid=ca3edcd3-705c-48af-80a7-ed285389a603"},"vehicle_type_id":"4","last_reported":1727194255,"current_range_meters":19200,"station_id":"ce4bhbp2rcd13ifvqerg","pricing_plan_id":"cebpf4jnsgd1na2vs0mg"},{"bike_id":"6d6065cc-15d1-48a2-aa33-8bac2101b02a","system_id":"levelo_inurba_marseille","lat":43.22928,"lon":5.3538,"is_reserved":false,"is_disabled":false,"rental_uris":{"android":"levelo://app?vid=6d6065cc-15d1-48a2-aa33-8bac2101b02a","ios":"levelo://app?vid=6d6065cc-15d1-48a2-aa33-8bac2101b02a"},"vehicle_type_id":"4","last_reported":1727194255,"current_range_meters":25200,"station_id":"cpo3532slgdg3j2ikp40","pricing_plan_id":"cebpf4jnsgd1na2vs0mg"},{"bike_id":"df5b38d2-64cb-4df0-856f-ea9bd22c082c","system_id":"levelo_inurba_marseille","lat":43.23192,"lon":5.35551,"is_reserved":false,"is_disabled":false,"rental_uris":{"android":"levelo://app?vid=df5b38d2-64cb-4df0-856f-ea9bd22c082c","ios":"levelo://app?vid=df5b38d2-64cb-4df0-856f-ea9bd22c082c"},"vehicle_type_id":"4","last_reported":1727194255,"current_range_meters":11200,"station_id":"ce4bhu92rcd13ifvqi70","pricing_plan_id":"cebpf4jnsgd1na2vs0mg"},{"bike_id":"9e3ee06d-3564-4a83-8e76-1a0dde5d6fae","system_id":"levelo_inurba_marseille","lat":43.30893,"lon":5.3965,"is_reserved":false,"is_disabled":false,"rental_uris":{"android":"levelo://app?vid=9e3ee06d-3564-4a83-8e76-1a0dde5d6fae","ios":"levelo://app?vid=9e3ee06d-3564-4a83-8e76-1a0dde5d6fae"},"vehicle_type_id":"4","last_reported":1727194255,"current_range_meters":8800,"station_id":"ce4bh012rcd13ifvqcv0","pricing_plan_id":"cebpf4jnsgd1na2vs0mg"},{"bike_id":"533a1e78-13ea-4d54-8991-17f7e7524186","system_id":"levelo_inurba_marseille","lat":43.231877,"lon":5.399923,"is_reserved":false,"is_disabled":false,"rental_uris":{"android":"levelo://app?vid=533a1e78-13ea-4d54-8991-17f7e7524186","ios":"levelo://app?vid=533a1e78-13ea-4d54-8991-17f7e7524186"},"vehicle_type_id":"4","last_reported":1727194255,"current_range_meters":6400,"station_id":"ce4bhn12rcd13ifvqgqg","pricing_plan_id":"cebpf4jnsgd1na2vs0mg"},{"bike_id":"d0644bf6-84ce-4751-9333-9f4fcba4478f","system_id":"levelo_inurba_marseille","lat":43.283752,"lon":5.35486,"is_reserved":false,"is_disabled":false,"rental_uris":{"android":"levelo://app?vid=d0644bf6-84ce-4751-9333-9f4fcba4478f","ios":"levelo://app?vid=d0644bf6-84ce-4751-9333-9f4fcba4478f"},"vehicle_type_id":"4","last_reported":1727194255,"current_range_meters":22000,"station_id":"","pricing_plan_id":"cebpf4jnsgd1na2vs0mg"},{"bike_id":"38ffcc1f-53c6-4b29-bebb-593938a0de5c","system_id":"levelo_inurba_marseille","lat":43.23961,"lon":5.36641,"is_reserved":false,"is_disabled":false,"rental_uris":{"android":"levelo://app?vid=38ffcc1f-53c6-4b29-bebb-593938a0de5c","ios":"levelo://app?vid=38ffcc1f-53c6-4b29-bebb-593938a0de5c"},"vehicle_type_id":"4","last_reported":1727194255,"current_range_meters":2800,"station_id":"ce4bhi12rcd13ifvqfp0","pricing_plan_id":"cebpf4jnsgd1na2vs0mg"},{"bike_id":"17b1cd1a-7803-4ca9-91f3-73c4fa44f09e","system_id":"levelo_inurba_marseille","lat":43.29545,"lon":5.42286,"is_reserved":false,"is_disabled":false,"rental_uris":{"android":"levelo://app?vid=17b1cd1a-7803-4ca9-91f3-73c4fa44f09e","ios":"levelo://app?vid=17b1cd1a-7803-4ca9-91f3-73c4fa44f09e"},"vehicle_type_id":"4","last_reported":1727194255,"current_range_meters":8000,"station_id":"ce4bhph2rcd13ifvqhdg","pricing_plan_id":"cebpf4jnsgd1na2vs0mg"},{"bike_id":"1f0dd38e-c748-4dc2-ac46-d553c3ea171d","system_id":"levelo_inurba_marseille","lat":43.25086,"lon":5.39514,"is_reserved":false,"is_disabled":false,"rental_uris":{"android":"levelo://app?vid=1f0dd38e-c748-4dc2-ac46-d553c3ea171d","ios":"levelo://app?vid=1f0dd38e-c748-4dc2-ac46-d553c3ea171d"},"vehicle_type_id":"4","last_reported":1727194255,"current_range_meters":30800,"station_id":"ce4bhm12rcd13ifvqgkg","pricing_plan_id":"cebpf4jnsgd1na2vs0mg"},{"bike_id":"d3aa0548-dc0e-451f-8f9e-b3b5e14011fa","system_id":"levelo_inurba_marseille","lat":43.28613,"lon":5.35111,"is_reserved":false,"is_disabled":false,"rental_uris":{"android":"levelo://app?vid=d3aa0548-dc0e-451f-8f9e-b3b5e14011fa","ios":"levelo://app?vid=d3aa0548-dc0e-451f-8f9e-b3b5e14011fa"},"vehicle_type_id":"4","last_reported":1727194255,"current_range_meters":34800,"station_id":"ce4bhch2rcd13ifvqeug","pricing_plan_id":"cebpf4jnsgd1na2vs0mg"},{"bike_id":"33e46e80-0fb6-49b2-93bf-cf0380c33e93","system_id":"levelo_inurba_marseille","lat":43.29976,"lon":5.37184,"is_reserved":false,"is_disabled":false,"rental_uris":{"android":"levelo://app?vid=33e46e80-0fb6-49b2-93bf-cf0380c33e93","ios":"levelo://app?vid=33e46e80-0fb6-49b2-93bf-cf0380c33e93"},"vehicle_type_id":"4","last_reported":1727194255,"current_range_meters":16000,"station_id":"ce4bgr92rcd13ifvqc7g","pricing_plan_id":"cebpf4jnsgd1na2vs0mg"},{"bike_id":"6c67652a-be38-4055-b78c-6f64171cd43d","system_id":"levelo_inurba_marseille","lat":43.28941,"lon":5.36641,"is_reserved":false,"is_disabled":false,"rental_uris":{"android":"levelo://app?vid=6c67652a-be38-4055-b78c-6f64171cd43d","ios":"levelo://app?vid=6c67652a-be38-4055-b78c-6f64171cd43d"},"vehicle_type_id":"4","last_reported":1727194255,"current_range_meters":5600,"station_id":"ce4bhap2rcd13ifvqek0","pricing_plan_id":"cebpf4jnsgd1na2vs0mg"},{"bike_id":"b1f73128-5271-43d8-af34-94e10e3b804a","system_id":"levelo_inurba_marseille","lat":43.33019,"lon":5.3935,"is_reserved":false,"is_disabled":false,"rental_uris":{"android":"levelo://app?vid=b1f73128-5271-43d8-af34-94e10e3b804a","ios":"levelo://app?vid=b1f73128-5271-43d8-af34-94e10e3b804a"},"vehicle_type_id":"4","last_reported":1727194255,"current_range_meters":38800,"station_id":"","pricing_plan_id":"cebpf4jnsgd1na2vs0mg"},{"bike_id":"e1161fb6-04f8-49d2-bfcb-45a6908c7773","system_id":"levelo_inurba_marseille","lat":43.27178,"lon":5.40992,"is_reserved":false,"is_disabled":false,"rental_uris":{"android":"levelo://app?vid=e1161fb6-04f8-49d2-bfcb-45a6908c7773","ios":"levelo://app?vid=e1161fb6-04f8-49d2-bfcb-45a6908c7773"},"vehicle_type_id":"4","last_reported":1727194255,"current_range_meters":19600,"station_id":"ce4bhl12rcd13ifvqgf0","pricing_plan_id":"cebpf4jnsgd1na2vs0mg"},{"bike_id":"152750dc-39e8-4d09-a3d2-77e9d049b05e","system_id":"levelo_inurba_marseille","lat":43.2976,"lon":5.37126,"is_reserved":false,"is_disabled":false,"rental_uris":{"android":"levelo://app?vid=152750dc-39e8-4d09-a3d2-77e9d049b05e","ios":"levelo://app?vid=152750dc-39e8-4d09-a3d2-77e9d049b05e"},"vehicle_type_id":"4","last_reported":1727194255,"current_range_meters":29600,"station_id":"ce4bgop2rcd13ifvqc1g","pricing_plan_id":"cebpf4jnsgd1na2vs0mg"},{"bike_id":"4b770073-7726-4e78-b34f-a257261dc7d3","system_id":"levelo_inurba_marseille","lat":43.29564,"lon":5.42285,"is_reserved":false,"is_disabled":false,"rental_uris":{"android":"levelo://app?vid=4b770073-7726-4e78-b34f-a257261dc7d3","ios":"levelo://app?vid=4b770073-7726-4e78-b34f-a257261dc7d3"},"vehicle_type_id":"4","last_reported":1727194255,"current_range_meters":28400,"station_id":"ce4bhph2rcd13ifvqhdg","pricing_plan_id":"cebpf4jnsgd1na2vs0mg"},{"bike_id":"1166f6b1-5b87-4bc1-b21d-c61655b2fee0","system_id":"levelo_inurba_marseille","lat":43.2945,"lon":5.38062,"is_reserved":false,"is_disabled":false,"rental_uris":{"android":"levelo://app?vid=1166f6b1-5b87-4bc1-b21d-c61655b2fee0","ios":"levelo://app?vid=1166f6b1-5b87-4bc1-b21d-c61655b2fee0"},"vehicle_type_id":"4","last_reported":1727194255,"current_range_meters":37600,"station_id":"","pricing_plan_id":"cebpf4jnsgd1na2vs0mg"},{"bike_id":"f164cb33-e191-401a-84a0-a9b699544355","system_id":"levelo_inurba_marseille","lat":43.23152,"lon":5.43724,"is_reserved":false,"is_disabled":false,"rental_uris":{"android":"levelo://app?vid=f164cb33-e191-401a-84a0-a9b699544355","ios":"levelo://app?vid=f164cb33-e191-401a-84a0-a9b699544355"},"vehicle_type_id":"4","last_reported":1727194255,"current_range_meters":8800,"station_id":"ce4bhmp2rcd13ifvqgog","pricing_plan_id":"cebpf4jnsgd1na2vs0mg"},{"bike_id":"6cf02193-3ded-4cde-a5e9-273e1e7f9133","system_id":"levelo_inurba_marseille","lat":43.3081,"lon":5.43525,"is_reserved":false,"is_disabled":false,"rental_uris":{"android":"levelo://app?vid=6cf02193-3ded-4cde-a5e9-273e1e7f9133","ios":"levelo://app?vid=6cf02193-3ded-4cde-a5e9-273e1e7f9133"},"vehicle_type_id":"4","last_reported":1727194255,"current_range_meters":19600,"station_id":"ce4bhph2rcd13ifvqheg","pricing_plan_id":"cebpf4jnsgd1na2vs0mg"},{"bike_id":"7e3e7927-9891-4e37-86bf-9f889b6f2808","system_id":"levelo_inurba_marseille","lat":43.24803,"lon":5.37459,"is_reserved":false,"is_disabled":false,"rental_uris":{"android":"levelo://app?vid=7e3e7927-9891-4e37-86bf-9f889b6f2808","ios":"levelo://app?vid=7e3e7927-9891-4e37-86bf-9f889b6f2808"},"vehicle_type_id":"4","last_reported":1727194255,"current_range_meters":39200,"station_id":"ce4bhgh2rcd13ifvqfb0","pricing_plan_id":"cebpf4jnsgd1na2vs0mg"},{"bike_id":"96087b1f-0bef-48b9-8043-36d38d71f738","system_id":"levelo_inurba_marseille","lat":43.26566,"lon":5.39017,"is_reserved":false,"is_disabled":false,"rental_uris":{"android":"levelo://app?vid=96087b1f-0bef-48b9-8043-36d38d71f738","ios":"levelo://app?vid=96087b1f-0bef-48b9-8043-36d38d71f738"},"vehicle_type_id":"4","last_reported":1727194255,"current_range_meters":34000,"station_id":"ce4bhe12rcd13ifvqf30","pricing_plan_id":"cebpf4jnsgd1na2vs0mg"},{"bike_id":"ab5ebbd2-92b8-402b-b1fb-a9551f2895e2","system_id":"levelo_inurba_marseille","lat":43.26031,"lon":5.37553,"is_reserved":false,"is_disabled":false,"rental_uris":{"android":"levelo://app?vid=ab5ebbd2-92b8-402b-b1fb-a9551f2895e2","ios":"levelo://app?vid=ab5ebbd2-92b8-402b-b1fb-a9551f2895e2"},"vehicle_type_id":"4","last_reported":1727194255,"current_range_meters":26800,"station_id":"ce4bhgh2rcd13ifvqfa0","pricing_plan_id":"cebpf4jnsgd1na2vs0mg"},{"bike_id":"f7b1c9ca-c1d4-4905-86b6-5e1485b6e104","system_id":"levelo_inurba_marseille","lat":43.27205,"lon":5.39192,"is_reserved":false,"is_disabled":false,"rental_uris":{"android":"levelo://app?vid=f7b1c9ca-c1d4-4905-86b6-5e1485b6e104","ios":"levelo://app?vid=f7b1c9ca-c1d4-4905-86b6-5e1485b6e104"},"vehicle_type_id":"4","last_reported":1727194255,"current_range_meters":8400,"station_id":"ce4bhhp2rcd13ifvqfm0","pricing_plan_id":"cebpf4jnsgd1na2vs0mg"},{"bike_id":"17701005-77c3-4e4f-a0b4-b2ece630517d","system_id":"levelo_inurba_marseille","lat":43.23948,"lon":5.36639,"is_reserved":false,"is_disabled":false,"rental_uris":{"android":"levelo://app?vid=17701005-77c3-4e4f-a0b4-b2ece630517d","ios":"levelo://app?vid=17701005-77c3-4e4f-a0b4-b2ece630517d"},"vehicle_type_id":"4","last_reported":1727194255,"current_range_meters":38800,"station_id":"ce4bhi12rcd13ifvqfp0","pricing_plan_id":"cebpf4jnsgd1na2vs0mg"},{"bike_id":"4555ca34-67c7-4b8e-a295-4471cd230d16","system_id":"levelo_inurba_marseille","lat":43.2861,"lon":5.37072,"is_reserved":false,"is_disabled":false,"rental_uris":{"android":"levelo://app?vid=4555ca34-67c7-4b8e-a295-4471cd230d16","ios":"levelo://app?vid=4555ca34-67c7-4b8e-a295-4471cd230d16"},"vehicle_type_id":"4","last_reported":1727194255,"current_range_meters":30400,"station_id":"ce4bht12rcd13ifvqi60","pricing_plan_id":"cebpf4jnsgd1na2vs0mg"},{"bike_id":"ab565563-00c4-40e4-a05f-d4e36486a3ac","system_id":"levelo_inurba_marseille","lat":43.2862,"lon":5.35108,"is_reserved":false,"is_disabled":false,"rental_uris":{"android":"levelo://app?vid=ab565563-00c4-40e4-a05f-d4e36486a3ac","ios":"levelo://app?vid=ab565563-00c4-40e4-a05f-d4e36486a3ac"},"vehicle_type_id":"4","last_reported":1727194255,"current_range_meters":9200,"station_id":"ce4bhch2rcd13ifvqeug","pricing_plan_id":"cebpf4jnsgd1na2vs0mg"},{"bike_id":"c3ea5c55-b162-4fb1-8878-2c2276541408","system_id":"levelo_inurba_marseille","lat":43.28462,"lon":5.35893,"is_reserved":false,"is_disabled":false,"rental_uris":{"android":"levelo://app?vid=c3ea5c55-b162-4fb1-8878-2c2276541408","ios":"levelo://app?vid=c3ea5c55-b162-4fb1-8878-2c2276541408"},"vehicle_type_id":"4","last_reported":1727194255,"current_range_meters":4400,"station_id":"ce4bhah2rcd13ifvqei0","pricing_plan_id":"cebpf4jnsgd1na2vs0mg"},{"bike_id":"2008d560-b188-490f-86ae-8ed4668d5bb8","system_id":"levelo_inurba_marseille","lat":43.260773,"lon":5.393634,"is_reserved":false,"is_disabled":false,"rental_uris":{"android":"levelo://app?vid=2008d560-b188-490f-86ae-8ed4668d5bb8","ios":"levelo://app?vid=2008d560-b188-490f-86ae-8ed4668d5bb8"},"vehicle_type_id":"4","last_reported":1727194255,"current_range_meters":2800,"station_id":"ce4bhh92rcd13ifvqfj0","pricing_plan_id":"cebpf4jnsgd1na2vs0mg"},{"bike_id":"f896b6ad-5a2c-4f03-a729-251e86b1ea0f","system_id":"levelo_inurba_marseille","lat":43.29199,"lon":5.39323,"is_reserved":false,"is_disabled":false,"rental_uris":{"android":"levelo://app?vid=f896b6ad-5a2c-4f03-a729-251e86b1ea0f","ios":"levelo://app?vid=f896b6ad-5a2c-4f03-a729-251e86b1ea0f"},"vehicle_type_id":"4","last_reported":1727194255,"current_range_meters":7200,"station_id":"ce4bh192rcd13ifvqdd0","pricing_plan_id":"cebpf4jnsgd1na2vs0mg"},{"bike_id":"a2657f1a-e182-4a03-a506-8dd977b77e1b","system_id":"levelo_inurba_marseille","lat":43.29011,"lon":5.35619,"is_reserved":false,"is_disabled":false,"rental_uris":{"android":"levelo://app?vid=a2657f1a-e182-4a03-a506-8dd977b77e1b","ios":"levelo://app?vid=a2657f1a-e182-4a03-a506-8dd977b77e1b"},"vehicle_type_id":"4","last_reported":1727194255,"current_range_meters":20400,"station_id":"ce4bhb92rcd13ifvqen0","pricing_plan_id":"cebpf4jnsgd1na2vs0mg"},{"bike_id":"aa7fcb97-35f9-454d-9a4e-8bbfa8de553f","system_id":"levelo_inurba_marseille","lat":43.24994,"lon":5.38951,"is_reserved":false,"is_disabled":false,"rental_uris":{"android":"levelo://app?vid=aa7fcb97-35f9-454d-9a4e-8bbfa8de553f","ios":"levelo://app?vid=aa7fcb97-35f9-454d-9a4e-8bbfa8de553f"},"vehicle_type_id":"4","last_reported":1727194255,"current_range_meters":30800,"station_id":"ce4bhgp2rcd13ifvqfd0","pricing_plan_id":"cebpf4jnsgd1na2vs0mg"},{"bike_id":"a7bca3df-0344-4204-86d7-b742d4769839","system_id":"levelo_inurba_marseille","lat":43.30863,"lon":5.3685,"is_reserved":false,"is_disabled":false,"rental_uris":{"android":"levelo://app?vid=a7bca3df-0344-4204-86d7-b742d4769839","ios":"levelo://app?vid=a7bca3df-0344-4204-86d7-b742d4769839"},"vehicle_type_id":"4","last_reported":1727194255,"current_range_meters":32800,"station_id":"ce4bgn92rcd13ifvqbvg","pricing_plan_id":"cebpf4jnsgd1na2vs0mg"},{"bike_id":"fe7a402e-e2a8-457b-bf0d-fc33ee334ae9","system_id":"levelo_inurba_marseille","lat":43.28277,"lon":5.35074,"is_reserved":false,"is_disabled":false,"rental_uris":{"android":"levelo://app?vid=fe7a402e-e2a8-457b-bf0d-fc33ee334ae9","ios":"levelo://app?vid=fe7a402e-e2a8-457b-bf0d-fc33ee334ae9"},"vehicle_type_id":"4","last_reported":1727194255,"current_range_meters":18000,"station_id":"ce4bhbp2rcd13ifvqerg","pricing_plan_id":"cebpf4jnsgd1na2vs0mg"},{"bike_id":"1a7e607f-66b7-4044-8166-44297d459af3","system_id":"levelo_inurba_marseille","lat":43.251074,"lon":5.403182,"is_reserved":false,"is_disabled":false,"rental_uris":{"android":"levelo://app?vid=1a7e607f-66b7-4044-8166-44297d459af3","ios":"levelo://app?vid=1a7e607f-66b7-4044-8166-44297d459af3"},"vehicle_type_id":"4","last_reported":1727194255,"current_range_meters":2800,"station_id":"ce4bhlh2rcd13ifvqgig","pricing_plan_id":"cebpf4jnsgd1na2vs0mg"},{"bike_id":"14bb3ee1-8dcf-4ea8-bda7-4684bef163ee","system_id":"levelo_inurba_marseille","lat":43.31752,"lon":5.39026,"is_reserved":false,"is_disabled":false,"rental_uris":{"android":"levelo://app?vid=14bb3ee1-8dcf-4ea8-bda7-4684bef163ee","ios":"levelo://app?vid=14bb3ee1-8dcf-4ea8-bda7-4684bef163ee"},"vehicle_type_id":"4","last_reported":1727194255,"current_range_meters":32400,"station_id":"ce4bhqp2rcd13ifvqhng","pricing_plan_id":"cebpf4jnsgd1na2vs0mg"},{"bike_id":"58d245f6-bcb2-4e4d-8404-3a158430f902","system_id":"levelo_inurba_marseille","lat":43.304932,"lon":5.36721,"is_reserved":false,"is_disabled":false,"rental_uris":{"android":"levelo://app?vid=58d245f6-bcb2-4e4d-8404-3a158430f902","ios":"levelo://app?vid=58d245f6-bcb2-4e4d-8404-3a158430f902"},"vehicle_type_id":"4","last_reported":1727194255,"current_range_meters":16400,"station_id":"ce4bgrp2rcd13ifvqc9g","pricing_plan_id":"cebpf4jnsgd1na2vs0mg"},{"bike_id":"37ea3e6e-16e9-42b3-b4f9-836c84a7a894","system_id":"levelo_inurba_marseille","lat":43.23181,"lon":5.3999,"is_reserved":false,"is_disabled":false,"rental_uris":{"android":"levelo://app?vid=37ea3e6e-16e9-42b3-b4f9-836c84a7a894","ios":"levelo://app?vid=37ea3e6e-16e9-42b3-b4f9-836c84a7a894"},"vehicle_type_id":"4","last_reported":1727194255,"current_range_meters":33200,"station_id":"ce4bhn12rcd13ifvqgqg","pricing_plan_id":"cebpf4jnsgd1na2vs0mg"},{"bike_id":"337d797f-5bad-4e42-a3a9-741eceae0aa0","system_id":"levelo_inurba_marseille","lat":43.33716,"lon":5.39178,"is_reserved":false,"is_disabled":false,"rental_uris":{"android":"levelo://app?vid=337d797f-5bad-4e42-a3a9-741eceae0aa0","ios":"levelo://app?vid=337d797f-5bad-4e42-a3a9-741eceae0aa0"},"vehicle_type_id":"4","last_reported":1727194255,"current_range_meters":36400,"station_id":"ce4bhr92rcd13ifvqhsg","pricing_plan_id":"cebpf4jnsgd1na2vs0mg"},{"bike_id":"1837f74f-69af-4a52-bf37-70bc877627c1","system_id":"levelo_inurba_marseille","lat":43.2988,"lon":5.39739,"is_reserved":false,"is_disabled":false,"rental_uris":{"android":"levelo://app?vid=1837f74f-69af-4a52-bf37-70bc877627c1","ios":"levelo://app?vid=1837f74f-69af-4a52-bf37-70bc877627c1"},"vehicle_type_id":"4","last_reported":1727194255,"current_range_meters":38800,"station_id":"ce4bh0h2rcd13ifvqd50","pricing_plan_id":"cebpf4jnsgd1na2vs0mg"},{"bike_id":"a356116c-654c-4011-9e9e-4d38d8b9fe39","system_id":"levelo_inurba_marseille","lat":43.2846,"lon":5.35894,"is_reserved":false,"is_disabled":false,"rental_uris":{"android":"levelo://app?vid=a356116c-654c-4011-9e9e-4d38d8b9fe39","ios":"levelo://app?vid=a356116c-654c-4011-9e9e-4d38d8b9fe39"},"vehicle_type_id":"4","last_reported":1727194255,"current_range_meters":11200,"station_id":"ce4bhah2rcd13ifvqei0","pricing_plan_id":"cebpf4jnsgd1na2vs0mg"},{"bike_id":"4a4bfd88-bdfc-4802-b3a8-e798e4274727","system_id":"levelo_inurba_marseille","lat":43.32291,"lon":5.38258,"is_reserved":false,"is_disabled":false,"rental_uris":{"android":"levelo://app?vid=4a4bfd88-bdfc-4802-b3a8-e798e4274727","ios":"levelo://app?vid=4a4bfd88-bdfc-4802-b3a8-e798e4274727"},"vehicle_type_id":"4","last_reported":1727194255,"current_range_meters":32800,"station_id":"ce4bhr12rcd13ifvqhqg","pricing_plan_id":"cebpf4jnsgd1na2vs0mg"},{"bike_id":"193e9b28-8ece-4967-bcd8-8399876bd3e8","system_id":"levelo_inurba_marseille","lat":43.28272,"lon":5.35066,"is_reserved":false,"is_disabled":false,"rental_uris":{"android":"levelo://app?vid=193e9b28-8ece-4967-bcd8-8399876bd3e8","ios":"levelo://app?vid=193e9b28-8ece-4967-bcd8-8399876bd3e8"},"vehicle_type_id":"4","last_reported":1727194255,"current_range_meters":16400,"station_id":"ce4bhbp2rcd13ifvqerg","pricing_plan_id":"cebpf4jnsgd1na2vs0mg"},{"bike_id":"ad1e1a12-20b8-41fe-ac24-5f6acada6cea","system_id":"levelo_inurba_marseille","lat":43.28697,"lon":5.37388,"is_reserved":false,"is_disabled":false,"rental_uris":{"android":"levelo://app?vid=ad1e1a12-20b8-41fe-ac24-5f6acada6cea","ios":"levelo://app?vid=ad1e1a12-20b8-41fe-ac24-5f6acada6cea"},"vehicle_type_id":"4","last_reported":1727194255,"current_range_meters":13600,"station_id":"ce4bh3p2rcd13ifvqdq0","pricing_plan_id":"cebpf4jnsgd1na2vs0mg"},{"bike_id":"0f73c4a6-2abe-4c0a-942c-341412f36309","system_id":"levelo_inurba_marseille","lat":43.33025,"lon":5.39039,"is_reserved":false,"is_disabled":false,"rental_uris":{"android":"levelo://app?vid=0f73c4a6-2abe-4c0a-942c-341412f36309","ios":"levelo://app?vid=0f73c4a6-2abe-4c0a-942c-341412f36309"},"vehicle_type_id":"4","last_reported":1727194255,"current_range_meters":24000,"station_id":"ce4bhr92rcd13ifvqhrg","pricing_plan_id":"cebpf4jnsgd1na2vs0mg"},{"bike_id":"a3c35347-553c-4083-b0ed-b275452fc565","system_id":"levelo_inurba_marseille","lat":43.29895,"lon":5.43676,"is_reserved":false,"is_disabled":false,"rental_uris":{"android":"levelo://app?vid=a3c35347-553c-4083-b0ed-b275452fc565","ios":"levelo://app?vid=a3c35347-553c-4083-b0ed-b275452fc565"},"vehicle_type_id":"4","last_reported":1727194255,"current_range_meters":2800,"station_id":"ce4bhpp2rcd13ifvqhfg","pricing_plan_id":"cebpf4jnsgd1na2vs0mg"},{"bike_id":"c1914418-929f-4475-a940-125a7adb7c5e","system_id":"levelo_inurba_marseille","lat":43.33722,"lon":5.39179,"is_reserved":false,"is_disabled":false,"rental_uris":{"android":"levelo://app?vid=c1914418-929f-4475-a940-125a7adb7c5e","ios":"levelo://app?vid=c1914418-929f-4475-a940-125a7adb7c5e"},"vehicle_type_id":"4","last_reported":1727194255,"current_range_meters":30800,"station_id":"ce4bhr92rcd13ifvqhsg","pricing_plan_id":"cebpf4jnsgd1na2vs0mg"},{"bike_id":"ede37da0-431f-462e-af97-45c71435ab2a","system_id":"levelo_inurba_marseille","lat":43.24175,"lon":5.39711,"is_reserved":false,"is_disabled":false,"rental_uris":{"android":"levelo://app?vid=ede37da0-431f-462e-af97-45c71435ab2a","ios":"levelo://app?vid=ede37da0-431f-462e-af97-45c71435ab2a"},"vehicle_type_id":"4","last_reported":1727194255,"current_range_meters":25200,"station_id":"ce4bhn12rcd13ifvqgpg","pricing_plan_id":"cebpf4jnsgd1na2vs0mg"},{"bike_id":"10f19fb2-001c-4d76-a9f5-0c991eec509d","system_id":"levelo_inurba_marseille","lat":43.24547,"lon":5.39522,"is_reserved":false,"is_disabled":false,"rental_uris":{"android":"levelo://app?vid=10f19fb2-001c-4d76-a9f5-0c991eec509d","ios":"levelo://app?vid=10f19fb2-001c-4d76-a9f5-0c991eec509d"},"vehicle_type_id":"4","last_reported":1727194255,"current_range_meters":8800,"station_id":"ce4bhlp2rcd13ifvqgjg","pricing_plan_id":"cebpf4jnsgd1na2vs0mg"},{"bike_id":"424f5c75-0602-4856-80b7-b41775b68eae","system_id":"levelo_inurba_marseille","lat":43.29522,"lon":5.39403,"is_reserved":false,"is_disabled":false,"rental_uris":{"android":"levelo://app?vid=424f5c75-0602-4856-80b7-b41775b68eae","ios":"levelo://app?vid=424f5c75-0602-4856-80b7-b41775b68eae"},"vehicle_type_id":"4","last_reported":1727194255,"current_range_meters":8400,"station_id":"ce4bh292rcd13ifvqdf0","pricing_plan_id":"cebpf4jnsgd1na2vs0mg"},{"bike_id":"9559b53b-c56e-48cd-8fc6-433930529f8d","system_id":"levelo_inurba_marseille","lat":43.27911,"lon":5.39579,"is_reserved":false,"is_disabled":false,"rental_uris":{"android":"levelo://app?vid=9559b53b-c56e-48cd-8fc6-433930529f8d","ios":"levelo://app?vid=9559b53b-c56e-48cd-8fc6-433930529f8d"},"vehicle_type_id":"4","last_reported":1727194255,"current_range_meters":28400,"station_id":"ce4bhf92rcd13ifvqf40","pricing_plan_id":"cebpf4jnsgd1na2vs0mg"},{"bike_id":"19b29eaa-fc59-4c92-b80c-b69e78c26612","system_id":"levelo_inurba_marseille","lat":43.29895,"lon":5.43674,"is_reserved":false,"is_disabled":false,"rental_uris":{"android":"levelo://app?vid=19b29eaa-fc59-4c92-b80c-b69e78c26612","ios":"levelo://app?vid=19b29eaa-fc59-4c92-b80c-b69e78c26612"},"vehicle_type_id":"4","last_reported":1727194255,"current_range_meters":24800,"station_id":"ce4bhpp2rcd13ifvqhfg","pricing_plan_id":"cebpf4jnsgd1na2vs0mg"},{"bike_id":"dbd7099e-68c7-4730-839d-c5149bd7d256","system_id":"levelo_inurba_marseille","lat":43.26569,"lon":5.3901,"is_reserved":false,"is_disabled":false,"rental_uris":{"android":"levelo://app?vid=dbd7099e-68c7-4730-839d-c5149bd7d256","ios":"levelo://app?vid=dbd7099e-68c7-4730-839d-c5149bd7d256"},"vehicle_type_id":"4","last_reported":1727194255,"current_range_meters":26000,"station_id":"ce4bhe12rcd13ifvqf30","pricing_plan_id":"cebpf4jnsgd1na2vs0mg"},{"bike_id":"9355b769-996d-4f4f-b5dd-c0b8373b1b70","system_id":"levelo_inurba_marseille","lat":43.31334,"lon":5.39694,"is_reserved":false,"is_disabled":false,"rental_uris":{"android":"levelo://app?vid=9355b769-996d-4f4f-b5dd-c0b8373b1b70","ios":"levelo://app?vid=9355b769-996d-4f4f-b5dd-c0b8373b1b70"},"vehicle_type_id":"4","last_reported":1727194255,"current_range_meters":24400,"station_id":"ce4bgvp2rcd13ifvqcu0","pricing_plan_id":"cebpf4jnsgd1na2vs0mg"},{"bike_id":"a5733d4a-d615-4d60-941a-e54957ced1c7","system_id":"levelo_inurba_marseille","lat":43.29255,"lon":5.40911,"is_reserved":false,"is_disabled":false,"rental_uris":{"android":"levelo://app?vid=a5733d4a-d615-4d60-941a-e54957ced1c7","ios":"levelo://app?vid=a5733d4a-d615-4d60-941a-e54957ced1c7"},"vehicle_type_id":"4","last_reported":1727194255,"current_range_meters":3200,"station_id":"ce4bh192rcd13ifvqdc0","pricing_plan_id":"cebpf4jnsgd1na2vs0mg"},{"bike_id":"f2e05670-8e54-4c0c-a533-e98af97a6e48","system_id":"levelo_inurba_marseille","lat":43.29717,"lon":5.3662,"is_reserved":false,"is_disabled":false,"rental_uris":{"android":"levelo://app?vid=f2e05670-8e54-4c0c-a533-e98af97a6e48","ios":"levelo://app?vid=f2e05670-8e54-4c0c-a533-e98af97a6e48"},"vehicle_type_id":"4","last_reported":1727194255,"current_range_meters":31200,"station_id":"ce4bgn12rcd13ifvqbt0","pricing_plan_id":"cebpf4jnsgd1na2vs0mg"},{"bike_id":"9772998c-2089-4fea-ad97-2dcfbb28f75e","system_id":"levelo_inurba_marseille","lat":43.28721,"lon":5.36089,"is_reserved":false,"is_disabled":false,"rental_uris":{"android":"levelo://app?vid=9772998c-2089-4fea-ad97-2dcfbb28f75e","ios":"levelo://app?vid=9772998c-2089-4fea-ad97-2dcfbb28f75e"},"vehicle_type_id":"4","last_reported":1727194255,"current_range_meters":6400,"station_id":"cki0cbj6b192h4jlfktg","pricing_plan_id":"cebpf4jnsgd1na2vs0mg"},{"bike_id":"538db8da-a06e-42f1-aca8-06608cfcd170","system_id":"levelo_inurba_marseille","lat":43.27975,"lon":5.38733,"is_reserved":false,"is_disabled":false,"rental_uris":{"android":"levelo://app?vid=538db8da-a06e-42f1-aca8-06608cfcd170","ios":"levelo://app?vid=538db8da-a06e-42f1-aca8-06608cfcd170"},"vehicle_type_id":"4","last_reported":1727194255,"current_range_meters":12400,"station_id":"ce4bhg12rcd13ifvqf80","pricing_plan_id":"cebpf4jnsgd1na2vs0mg"},{"bike_id":"492fa702-87aa-4f72-817d-931ae8cb01b3","system_id":"levelo_inurba_marseille","lat":43.28932,"lon":5.36644,"is_reserved":false,"is_disabled":false,"rental_uris":{"android":"levelo://app?vid=492fa702-87aa-4f72-817d-931ae8cb01b3","ios":"levelo://app?vid=492fa702-87aa-4f72-817d-931ae8cb01b3"},"vehicle_type_id":"4","last_reported":1727194255,"current_range_meters":20800,"station_id":"ce4bhap2rcd13ifvqek0","pricing_plan_id":"cebpf4jnsgd1na2vs0mg"},{"bike_id":"70df401c-fd80-471b-818d-8c4957e23ad2","system_id":"levelo_inurba_marseille","lat":43.29963,"lon":5.41325,"is_reserved":false,"is_disabled":false,"rental_uris":{"android":"levelo://app?vid=70df401c-fd80-471b-818d-8c4957e23ad2","ios":"levelo://app?vid=70df401c-fd80-471b-818d-8c4957e23ad2"},"vehicle_type_id":"4","last_reported":1727194255,"current_range_meters":39200,"station_id":"ce4bhp12rcd13ifvqh9g","pricing_plan_id":"cebpf4jnsgd1na2vs0mg"},{"bike_id":"5fb92f68-bd77-4523-a013-5ea4d40c7fa3","system_id":"levelo_inurba_marseille","lat":43.30331,"lon":5.40442,"is_reserved":false,"is_disabled":false,"rental_uris":{"android":"levelo://app?vid=5fb92f68-bd77-4523-a013-5ea4d40c7fa3","ios":"levelo://app?vid=5fb92f68-bd77-4523-a013-5ea4d40c7fa3"},"vehicle_type_id":"4","last_reported":1727194255,"current_range_meters":22000,"station_id":"ce4bh012rcd13ifvqd10","pricing_plan_id":"cebpf4jnsgd1na2vs0mg"},{"bike_id":"387b39ff-ea7f-4a2f-b358-2b5e139dc1c9","system_id":"levelo_inurba_marseille","lat":43.28623,"lon":5.35115,"is_reserved":false,"is_disabled":false,"rental_uris":{"android":"levelo://app?vid=387b39ff-ea7f-4a2f-b358-2b5e139dc1c9","ios":"levelo://app?vid=387b39ff-ea7f-4a2f-b358-2b5e139dc1c9"},"vehicle_type_id":"4","last_reported":1727194255,"current_range_meters":36400,"station_id":"ce4bhch2rcd13ifvqeug","pricing_plan_id":"cebpf4jnsgd1na2vs0mg"},{"bike_id":"9b4624e0-cef5-47e9-9c66-e6ca259891e7","system_id":"levelo_inurba_marseille","lat":43.3136,"lon":5.38488,"is_reserved":false,"is_disabled":false,"rental_uris":{"android":"levelo://app?vid=9b4624e0-cef5-47e9-9c66-e6ca259891e7","ios":"levelo://app?vid=9b4624e0-cef5-47e9-9c66-e6ca259891e7"},"vehicle_type_id":"4","last_reported":1727194255,"current_range_meters":36800,"station_id":"ce4bgt92rcd13ifvqcf0","pricing_plan_id":"cebpf4jnsgd1na2vs0mg"},{"bike_id":"6ddafbe1-16f1-463a-be44-0bef68acf23b","system_id":"levelo_inurba_marseille","lat":43.27187,"lon":5.40989,"is_reserved":false,"is_disabled":false,"rental_uris":{"android":"levelo://app?vid=6ddafbe1-16f1-463a-be44-0bef68acf23b","ios":"levelo://app?vid=6ddafbe1-16f1-463a-be44-0bef68acf23b"},"vehicle_type_id":"4","last_reported":1727194255,"current_range_meters":30400,"station_id":"ce4bhl12rcd13ifvqgf0","pricing_plan_id":"cebpf4jnsgd1na2vs0mg"},{"bike_id":"7e05a70d-535e-4d81-8475-5cc12ace7904","system_id":"levelo_inurba_marseille","lat":43.28478,"lon":5.38559,"is_reserved":false,"is_disabled":false,"rental_uris":{"android":"levelo://app?vid=7e05a70d-535e-4d81-8475-5cc12ace7904","ios":"levelo://app?vid=7e05a70d-535e-4d81-8475-5cc12ace7904"},"vehicle_type_id":"4","last_reported":1727194255,"current_range_meters":35200,"station_id":"ce4bh8p2rcd13ifvqeb0","pricing_plan_id":"cebpf4jnsgd1na2vs0mg"},{"bike_id":"641177c1-8341-47cf-bde4-1a809a73439b","system_id":"levelo_inurba_marseille","lat":43.262067,"lon":5.374467,"is_reserved":false,"is_disabled":false,"rental_uris":{"android":"levelo://app?vid=641177c1-8341-47cf-bde4-1a809a73439b","ios":"levelo://app?vid=641177c1-8341-47cf-bde4-1a809a73439b"},"vehicle_type_id":"4","last_reported":1727194255,"current_range_meters":6400,"station_id":"ce4bhgp2rcd13ifvqfc0","pricing_plan_id":"cebpf4jnsgd1na2vs0mg"},{"bike_id":"f18c51aa-2585-485a-ba4f-cd4b183fc264","system_id":"levelo_inurba_marseille","lat":43.26555,"lon":5.37289,"is_reserved":false,"is_disabled":false,"rental_uris":{"android":"levelo://app?vid=f18c51aa-2585-485a-ba4f-cd4b183fc264","ios":"levelo://app?vid=f18c51aa-2585-485a-ba4f-cd4b183fc264"},"vehicle_type_id":"4","last_reported":1727194255,"current_range_meters":3600,"station_id":"ce4bhg12rcd13ifvqf70","pricing_plan_id":"cebpf4jnsgd1na2vs0mg"},{"bike_id":"0a756c34-9088-48af-8ff5-3e1e2e9a3e79","system_id":"levelo_inurba_marseille","lat":43.23181,"lon":5.39984,"is_reserved":false,"is_disabled":false,"rental_uris":{"android":"levelo://app?vid=0a756c34-9088-48af-8ff5-3e1e2e9a3e79","ios":"levelo://app?vid=0a756c34-9088-48af-8ff5-3e1e2e9a3e79"},"vehicle_type_id":"4","last_reported":1727194255,"current_range_meters":36000,"station_id":"ce4bhn12rcd13ifvqgqg","pricing_plan_id":"cebpf4jnsgd1na2vs0mg"},{"bike_id":"b0c2dd3b-c2db-4292-abf9-7a56fc1afc05","system_id":"levelo_inurba_marseille","lat":43.291687,"lon":5.371559,"is_reserved":false,"is_disabled":false,"rental_uris":{"android":"levelo://app?vid=b0c2dd3b-c2db-4292-abf9-7a56fc1afc05","ios":"levelo://app?vid=b0c2dd3b-c2db-4292-abf9-7a56fc1afc05"},"vehicle_type_id":"4","last_reported":1727194255,"current_range_meters":24000,"station_id":"ce4bh012rcd13ifvqcv0","pricing_plan_id":"cebpf4jnsgd1na2vs0mg"},{"bike_id":"abd79631-760d-4023-987e-3837b36f0e53","system_id":"levelo_inurba_marseille","lat":43.30419,"lon":5.41278,"is_reserved":false,"is_disabled":false,"rental_uris":{"android":"levelo://app?vid=abd79631-760d-4023-987e-3837b36f0e53","ios":"levelo://app?vid=abd79631-760d-4023-987e-3837b36f0e53"},"vehicle_type_id":"4","last_reported":1727194255,"current_range_meters":31200,"station_id":"ce4bhop2rcd13ifvqh8g","pricing_plan_id":"cebpf4jnsgd1na2vs0mg"},{"bike_id":"6af514a9-0231-48b0-9caf-8954ab655016","system_id":"levelo_inurba_marseille","lat":43.29962,"lon":5.41324,"is_reserved":false,"is_disabled":false,"rental_uris":{"android":"levelo://app?vid=6af514a9-0231-48b0-9caf-8954ab655016","ios":"levelo://app?vid=6af514a9-0231-48b0-9caf-8954ab655016"},"vehicle_type_id":"4","last_reported":1727194255,"current_range_meters":38400,"station_id":"ce4bhp12rcd13ifvqh9g","pricing_plan_id":"cebpf4jnsgd1na2vs0mg"},{"bike_id":"7a70c4bc-48ae-48f1-bdf7-f769bd475246","system_id":"levelo_inurba_marseille","lat":43.27834,"lon":5.39219,"is_reserved":false,"is_disabled":false,"rental_uris":{"android":"levelo://app?vid=7a70c4bc-48ae-48f1-bdf7-f769bd475246","ios":"levelo://app?vid=7a70c4bc-48ae-48f1-bdf7-f769bd475246"},"vehicle_type_id":"4","last_reported":1727194255,"current_range_meters":23200,"station_id":"ce4bhjp2rcd13ifvqga0","pricing_plan_id":"cebpf4jnsgd1na2vs0mg"},{"bike_id":"e52524e9-6c4d-4a39-b6b8-ff0b8e478303","system_id":"levelo_inurba_marseille","lat":43.31686,"lon":5.40477,"is_reserved":false,"is_disabled":false,"rental_uris":{"android":"levelo://app?vid=e52524e9-6c4d-4a39-b6b8-ff0b8e478303","ios":"levelo://app?vid=e52524e9-6c4d-4a39-b6b8-ff0b8e478303"},"vehicle_type_id":"4","last_reported":1727194255,"current_range_meters":38000,"station_id":"ce4bh012rcd13ifvqd00","pricing_plan_id":"cebpf4jnsgd1na2vs0mg"},{"bike_id":"69aae0c0-8704-47b8-8759-b7fa3b6dd031","system_id":"levelo_inurba_marseille","lat":43.27374,"lon":5.36262,"is_reserved":false,"is_disabled":false,"rental_uris":{"android":"levelo://app?vid=69aae0c0-8704-47b8-8759-b7fa3b6dd031","ios":"levelo://app?vid=69aae0c0-8704-47b8-8759-b7fa3b6dd031"},"vehicle_type_id":"4","last_reported":1727194255,"current_range_meters":6800,"station_id":"ce4bhbh2rcd13ifvqeo0","pricing_plan_id":"cebpf4jnsgd1na2vs0mg"},{"bike_id":"5cd8466d-6637-462e-a32c-b3c275b8a789","system_id":"levelo_inurba_marseille","lat":43.24547,"lon":5.39525,"is_reserved":false,"is_disabled":false,"rental_uris":{"android":"levelo://app?vid=5cd8466d-6637-462e-a32c-b3c275b8a789","ios":"levelo://app?vid=5cd8466d-6637-462e-a32c-b3c275b8a789"},"vehicle_type_id":"4","last_reported":1727194255,"current_range_meters":24400,"station_id":"ce4bhlp2rcd13ifvqgjg","pricing_plan_id":"cebpf4jnsgd1na2vs0mg"},{"bike_id":"62262f98-6d8b-4fb5-9fef-cf4c039af58b","system_id":"levelo_inurba_marseille","lat":43.2773,"lon":5.39531,"is_reserved":false,"is_disabled":false,"rental_uris":{"android":"levelo://app?vid=62262f98-6d8b-4fb5-9fef-cf4c039af58b","ios":"levelo://app?vid=62262f98-6d8b-4fb5-9fef-cf4c039af58b"},"vehicle_type_id":"4","last_reported":1727194255,"current_range_meters":17600,"station_id":"ce4bhjp2rcd13ifvqga0","pricing_plan_id":"cebpf4jnsgd1na2vs0mg"},{"bike_id":"c7362695-d6bc-430f-9248-7ca36392ce83","system_id":"levelo_inurba_marseille","lat":43.29632,"lon":5.40599,"is_reserved":false,"is_disabled":false,"rental_uris":{"android":"levelo://app?vid=c7362695-d6bc-430f-9248-7ca36392ce83","ios":"levelo://app?vid=c7362695-d6bc-430f-9248-7ca36392ce83"},"vehicle_type_id":"4","last_reported":1727194255,"current_range_meters":20800,"station_id":"ce4bh0h2rcd13ifvqd60","pricing_plan_id":"cebpf4jnsgd1na2vs0mg"},{"bike_id":"cc7c26ca-61b1-4cf1-80dc-0356391c2ca2","system_id":"levelo_inurba_marseille","lat":43.28937,"lon":5.39632,"is_reserved":false,"is_disabled":false,"rental_uris":{"android":"levelo://app?vid=cc7c26ca-61b1-4cf1-80dc-0356391c2ca2","ios":"levelo://app?vid=cc7c26ca-61b1-4cf1-80dc-0356391c2ca2"},"vehicle_type_id":"4","last_reported":1727194255,"current_range_meters":36400,"station_id":"ce4bh3h2rcd13ifvqdn0","pricing_plan_id":"cebpf4jnsgd1na2vs0mg"},{"bike_id":"ff60f312-6208-4d79-bc03-30a91d2fb470","system_id":"levelo_inurba_marseille","lat":43.27374,"lon":5.36257,"is_reserved":false,"is_disabled":false,"rental_uris":{"android":"levelo://app?vid=ff60f312-6208-4d79-bc03-30a91d2fb470","ios":"levelo://app?vid=ff60f312-6208-4d79-bc03-30a91d2fb470"},"vehicle_type_id":"4","last_reported":1727194255,"current_range_meters":24400,"station_id":"ce4bhbh2rcd13ifvqeo0","pricing_plan_id":"cebpf4jnsgd1na2vs0mg"},{"bike_id":"62b10a0a-1fae-4760-aa13-f00befe0fb3c","system_id":"levelo_inurba_marseille","lat":43.27182,"lon":5.40996,"is_reserved":false,"is_disabled":false,"rental_uris":{"android":"levelo://app?vid=62b10a0a-1fae-4760-aa13-f00befe0fb3c","ios":"levelo://app?vid=62b10a0a-1fae-4760-aa13-f00befe0fb3c"},"vehicle_type_id":"4","last_reported":1727194255,"current_range_meters":37600,"station_id":"ce4bhl12rcd13ifvqgf0","pricing_plan_id":"cebpf4jnsgd1na2vs0mg"},{"bike_id":"b97dee16-ba0d-4256-82a1-40d44d2a17cf","system_id":"levelo_inurba_marseille","lat":43.29416,"lon":5.38631,"is_reserved":false,"is_disabled":false,"rental_uris":{"android":"levelo://app?vid=b97dee16-ba0d-4256-82a1-40d44d2a17cf","ios":"levelo://app?vid=b97dee16-ba0d-4256-82a1-40d44d2a17cf"},"vehicle_type_id":"4","last_reported":1727194255,"current_range_meters":17200,"station_id":"ce4bh2h2rcd13ifvqdh0","pricing_plan_id":"cebpf4jnsgd1na2vs0mg"},{"bike_id":"8c62139a-8d03-44e8-8897-1a2a9f29bcb9","system_id":"levelo_inurba_marseille","lat":43.27553,"lon":5.38438,"is_reserved":false,"is_disabled":false,"rental_uris":{"android":"levelo://app?vid=8c62139a-8d03-44e8-8897-1a2a9f29bcb9","ios":"levelo://app?vid=8c62139a-8d03-44e8-8897-1a2a9f29bcb9"},"vehicle_type_id":"4","last_reported":1727194255,"current_range_meters":4400,"station_id":"ce4bhh92rcd13ifvqfi0","pricing_plan_id":"cebpf4jnsgd1na2vs0mg"},{"bike_id":"95f8ac12-05ad-433a-bab5-6c2ee3d4d27e","system_id":"levelo_inurba_marseille","lat":43.31993,"lon":5.38145,"is_reserved":false,"is_disabled":false,"rental_uris":{"android":"levelo://app?vid=95f8ac12-05ad-433a-bab5-6c2ee3d4d27e","ios":"levelo://app?vid=95f8ac12-05ad-433a-bab5-6c2ee3d4d27e"},"vehicle_type_id":"4","last_reported":1727194255,"current_range_meters":18800,"station_id":"ce4bhr12rcd13ifvqhpg","pricing_plan_id":"cebpf4jnsgd1na2vs0mg"},{"bike_id":"7fba3fb3-6c3c-45fc-96c7-ae3b6e08137d","system_id":"levelo_inurba_marseille","lat":43.29286,"lon":5.37499,"is_reserved":false,"is_disabled":false,"rental_uris":{"android":"levelo://app?vid=7fba3fb3-6c3c-45fc-96c7-ae3b6e08137d","ios":"levelo://app?vid=7fba3fb3-6c3c-45fc-96c7-ae3b6e08137d"},"vehicle_type_id":"4","last_reported":1727194255,"current_range_meters":27600,"station_id":"","pricing_plan_id":"cebpf4jnsgd1na2vs0mg"},{"bike_id":"424da7cf-25e8-444e-98f1-96d24b7b78b7","system_id":"levelo_inurba_marseille","lat":43.25577,"lon":5.38245,"is_reserved":false,"is_disabled":false,"rental_uris":{"android":"levelo://app?vid=424da7cf-25e8-444e-98f1-96d24b7b78b7","ios":"levelo://app?vid=424da7cf-25e8-444e-98f1-96d24b7b78b7"},"vehicle_type_id":"4","last_reported":1727194255,"current_range_meters":20400,"station_id":"ce4bhih2rcd13ifvqfs0","pricing_plan_id":"cebpf4jnsgd1na2vs0mg"},{"bike_id":"38dfe2da-3a33-45c0-9e1b-204e2e9ebec1","system_id":"levelo_inurba_marseille","lat":43.27788,"lon":5.42562,"is_reserved":false,"is_disabled":false,"rental_uris":{"android":"levelo://app?vid=38dfe2da-3a33-45c0-9e1b-204e2e9ebec1","ios":"levelo://app?vid=38dfe2da-3a33-45c0-9e1b-204e2e9ebec1"},"vehicle_type_id":"4","last_reported":1727194255,"current_range_meters":35200,"station_id":"","pricing_plan_id":"cebpf4jnsgd1na2vs0mg"},{"bike_id":"84c225a5-9c41-4c8f-888b-d7001441f1b8","system_id":"levelo_inurba_marseille","lat":43.270303,"lon":5.392943,"is_reserved":false,"is_disabled":false,"rental_uris":{"android":"levelo://app?vid=84c225a5-9c41-4c8f-888b-d7001441f1b8","ios":"levelo://app?vid=84c225a5-9c41-4c8f-888b-d7001441f1b8"},"vehicle_type_id":"4","last_reported":1727194255,"current_range_meters":22000,"station_id":"ce4bhh92rcd13ifvqfj0","pricing_plan_id":"cebpf4jnsgd1na2vs0mg"},{"bike_id":"7f2c714a-fe25-4063-9c90-7817aa8b4988","system_id":"levelo_inurba_marseille","lat":43.28273,"lon":5.35064,"is_reserved":false,"is_disabled":false,"rental_uris":{"android":"levelo://app?vid=7f2c714a-fe25-4063-9c90-7817aa8b4988","ios":"levelo://app?vid=7f2c714a-fe25-4063-9c90-7817aa8b4988"},"vehicle_type_id":"4","last_reported":1727194255,"current_range_meters":11200,"station_id":"ce4bhbp2rcd13ifvqerg","pricing_plan_id":"cebpf4jnsgd1na2vs0mg"},{"bike_id":"b8d52647-6f92-451a-a3f1-37f303cfb931","system_id":"levelo_inurba_marseille","lat":43.27811,"lon":5.40709,"is_reserved":false,"is_disabled":false,"rental_uris":{"android":"levelo://app?vid=b8d52647-6f92-451a-a3f1-37f303cfb931","ios":"levelo://app?vid=b8d52647-6f92-451a-a3f1-37f303cfb931"},"vehicle_type_id":"4","last_reported":1727194255,"current_range_meters":38800,"station_id":"ce4bhnh2rcd13ifvqgtg","pricing_plan_id":"cebpf4jnsgd1na2vs0mg"},{"bike_id":"4c9a06c0-9a00-4c0e-a061-598ad0a49dc3","system_id":"levelo_inurba_marseille","lat":43.25869,"lon":5.39892,"is_reserved":false,"is_disabled":false,"rental_uris":{"android":"levelo://app?vid=4c9a06c0-9a00-4c0e-a061-598ad0a49dc3","ios":"levelo://app?vid=4c9a06c0-9a00-4c0e-a061-598ad0a49dc3"},"vehicle_type_id":"4","last_reported":1727194255,"current_range_meters":6400,"station_id":"ce4bhl92rcd13ifvqghg","pricing_plan_id":"cebpf4jnsgd1na2vs0mg"},{"bike_id":"96c488ff-88d1-4859-8dab-60f7bde1ea03","system_id":"levelo_inurba_marseille","lat":43.30312,"lon":5.39209,"is_reserved":false,"is_disabled":false,"rental_uris":{"android":"levelo://app?vid=96c488ff-88d1-4859-8dab-60f7bde1ea03","ios":"levelo://app?vid=96c488ff-88d1-4859-8dab-60f7bde1ea03"},"vehicle_type_id":"4","last_reported":1727194255,"current_range_meters":22800,"station_id":"ce4bgkh2rcd13ifvqbk0","pricing_plan_id":"cebpf4jnsgd1na2vs0mg"},{"bike_id":"f808c29f-833c-4be9-94ba-f5bbf2d86de8","system_id":"levelo_inurba_marseille","lat":43.29551,"lon":5.42284,"is_reserved":false,"is_disabled":false,"rental_uris":{"android":"levelo://app?vid=f808c29f-833c-4be9-94ba-f5bbf2d86de8","ios":"levelo://app?vid=f808c29f-833c-4be9-94ba-f5bbf2d86de8"},"vehicle_type_id":"4","last_reported":1727194255,"current_range_meters":39200,"station_id":"ce4bhph2rcd13ifvqhdg","pricing_plan_id":"cebpf4jnsgd1na2vs0mg"},{"bike_id":"b6ed5244-0283-4ff6-97f1-a8c93a669788","system_id":"levelo_inurba_marseille","lat":43.31366,"lon":5.3849,"is_reserved":false,"is_disabled":false,"rental_uris":{"android":"levelo://app?vid=b6ed5244-0283-4ff6-97f1-a8c93a669788","ios":"levelo://app?vid=b6ed5244-0283-4ff6-97f1-a8c93a669788"},"vehicle_type_id":"4","last_reported":1727194255,"current_range_meters":27200,"station_id":"ce4bgt92rcd13ifvqcf0","pricing_plan_id":"cebpf4jnsgd1na2vs0mg"},{"bike_id":"5fce7e71-f0ac-4372-9705-f664980165b8","system_id":"levelo_inurba_marseille","lat":43.28273,"lon":5.35059,"is_reserved":false,"is_disabled":false,"rental_uris":{"android":"levelo://app?vid=5fce7e71-f0ac-4372-9705-f664980165b8","ios":"levelo://app?vid=5fce7e71-f0ac-4372-9705-f664980165b8"},"vehicle_type_id":"4","last_reported":1727194255,"current_range_meters":18000,"station_id":"ce4bhbp2rcd13ifvqerg","pricing_plan_id":"cebpf4jnsgd1na2vs0mg"},{"bike_id":"2e55ceda-ecd7-49d0-b0c7-75cb57be07d3","system_id":"levelo_inurba_marseille","lat":43.29203,"lon":5.39328,"is_reserved":false,"is_disabled":false,"rental_uris":{"android":"levelo://app?vid=2e55ceda-ecd7-49d0-b0c7-75cb57be07d3","ios":"levelo://app?vid=2e55ceda-ecd7-49d0-b0c7-75cb57be07d3"},"vehicle_type_id":"4","last_reported":1727194255,"current_range_meters":8800,"station_id":"ce4bh192rcd13ifvqdd0","pricing_plan_id":"cebpf4jnsgd1na2vs0mg"},{"bike_id":"e42186fb-4fb9-4e53-802f-6e7e0496cd0c","system_id":"levelo_inurba_marseille","lat":43.29016,"lon":5.35619,"is_reserved":false,"is_disabled":false,"rental_uris":{"android":"levelo://app?vid=e42186fb-4fb9-4e53-802f-6e7e0496cd0c","ios":"levelo://app?vid=e42186fb-4fb9-4e53-802f-6e7e0496cd0c"},"vehicle_type_id":"4","last_reported":1727194255,"current_range_meters":4800,"station_id":"ce4bhb92rcd13ifvqen0","pricing_plan_id":"cebpf4jnsgd1na2vs0mg"},{"bike_id":"b8b97219-f1cb-41e9-93a1-6062897ad601","system_id":"levelo_inurba_marseille","lat":43.24177,"lon":5.3973,"is_reserved":false,"is_disabled":false,"rental_uris":{"android":"levelo://app?vid=b8b97219-f1cb-41e9-93a1-6062897ad601","ios":"levelo://app?vid=b8b97219-f1cb-41e9-93a1-6062897ad601"},"vehicle_type_id":"4","last_reported":1727194255,"current_range_meters":12000,"station_id":"ce4bhn12rcd13ifvqgpg","pricing_plan_id":"cebpf4jnsgd1na2vs0mg"},{"bike_id":"b17e6b04-2807-4b89-95cf-eb966daec271","system_id":"levelo_inurba_marseille","lat":43.29879,"lon":5.3891,"is_reserved":false,"is_disabled":false,"rental_uris":{"android":"levelo://app?vid=b17e6b04-2807-4b89-95cf-eb966daec271","ios":"levelo://app?vid=b17e6b04-2807-4b89-95cf-eb966daec271"},"vehicle_type_id":"4","last_reported":1727194255,"current_range_meters":19600,"station_id":"ce4bh392rcd13ifvqdl0","pricing_plan_id":"cebpf4jnsgd1na2vs0mg"},{"bike_id":"2a01d5ab-952f-433a-8f91-0171a6729d79","system_id":"levelo_inurba_marseille","lat":43.31716,"lon":5.4371,"is_reserved":false,"is_disabled":false,"rental_uris":{"android":"levelo://app?vid=2a01d5ab-952f-433a-8f91-0171a6729d79","ios":"levelo://app?vid=2a01d5ab-952f-433a-8f91-0171a6729d79"},"vehicle_type_id":"4","last_reported":1727194255,"current_range_meters":30400,"station_id":"ce4bhp92rcd13ifvqhcg","pricing_plan_id":"cebpf4jnsgd1na2vs0mg"},{"bike_id":"a51b1a81-9b77-4308-a7fd-637b4ef43cc9","system_id":"levelo_inurba_marseille","lat":43.304565,"lon":5.367445,"is_reserved":false,"is_disabled":false,"rental_uris":{"android":"levelo://app?vid=a51b1a81-9b77-4308-a7fd-637b4ef43cc9","ios":"levelo://app?vid=a51b1a81-9b77-4308-a7fd-637b4ef43cc9"},"vehicle_type_id":"4","last_reported":1727194255,"current_range_meters":26800,"station_id":"ce4bgrp2rcd13ifvqc9g","pricing_plan_id":"cebpf4jnsgd1na2vs0mg"},{"bike_id":"7ecb6003-d5da-4b70-a48d-dac9ad53edaa","system_id":"levelo_inurba_marseille","lat":43.29559,"lon":5.42296,"is_reserved":false,"is_disabled":false,"rental_uris":{"android":"levelo://app?vid=7ecb6003-d5da-4b70-a48d-dac9ad53edaa","ios":"levelo://app?vid=7ecb6003-d5da-4b70-a48d-dac9ad53edaa"},"vehicle_type_id":"4","last_reported":1727194255,"current_range_meters":32000,"station_id":"ce4bhph2rcd13ifvqhdg","pricing_plan_id":"cebpf4jnsgd1na2vs0mg"},{"bike_id":"f63139f3-7864-43f0-b2c4-8ee79a8a20bd","system_id":"levelo_inurba_marseille","lat":43.32289,"lon":5.38268,"is_reserved":false,"is_disabled":false,"rental_uris":{"android":"levelo://app?vid=f63139f3-7864-43f0-b2c4-8ee79a8a20bd","ios":"levelo://app?vid=f63139f3-7864-43f0-b2c4-8ee79a8a20bd"},"vehicle_type_id":"4","last_reported":1727194255,"current_range_meters":35600,"station_id":"ce4bhr12rcd13ifvqhqg","pricing_plan_id":"cebpf4jnsgd1na2vs0mg"},{"bike_id":"b9f8c158-b5f3-41cf-b34e-5cd4ee9d78d9","system_id":"levelo_inurba_marseille","lat":43.26809,"lon":5.40263,"is_reserved":false,"is_disabled":false,"rental_uris":{"android":"levelo://app?vid=b9f8c158-b5f3-41cf-b34e-5cd4ee9d78d9","ios":"levelo://app?vid=b9f8c158-b5f3-41cf-b34e-5cd4ee9d78d9"},"vehicle_type_id":"4","last_reported":1727194255,"current_range_meters":8400,"station_id":"ce501612rcd8frsf0b60","pricing_plan_id":"cebpf4jnsgd1na2vs0mg"},{"bike_id":"3cf80b5c-240b-4d5d-b2ac-a164ab305fde","system_id":"levelo_inurba_marseille","lat":43.26217,"lon":5.3744,"is_reserved":false,"is_disabled":false,"rental_uris":{"android":"levelo://app?vid=3cf80b5c-240b-4d5d-b2ac-a164ab305fde","ios":"levelo://app?vid=3cf80b5c-240b-4d5d-b2ac-a164ab305fde"},"vehicle_type_id":"4","last_reported":1727194255,"current_range_meters":39200,"station_id":"ce4bhgp2rcd13ifvqfc0","pricing_plan_id":"cebpf4jnsgd1na2vs0mg"},{"bike_id":"7b55e37d-4f41-4c1a-b113-191c99b7dc74","system_id":"levelo_inurba_marseille","lat":43.275075,"lon":5.424274,"is_reserved":false,"is_disabled":false,"rental_uris":{"android":"levelo://app?vid=7b55e37d-4f41-4c1a-b113-191c99b7dc74","ios":"levelo://app?vid=7b55e37d-4f41-4c1a-b113-191c99b7dc74"},"vehicle_type_id":"4","last_reported":1727194255,"current_range_meters":12000,"station_id":"ce4bhn92rcd13ifvqgrg","pricing_plan_id":"cebpf4jnsgd1na2vs0mg"},{"bike_id":"bc029bae-9b22-4f50-b298-88d24fa620ca","system_id":"levelo_inurba_marseille","lat":43.29555,"lon":5.42279,"is_reserved":false,"is_disabled":false,"rental_uris":{"android":"levelo://app?vid=bc029bae-9b22-4f50-b298-88d24fa620ca","ios":"levelo://app?vid=bc029bae-9b22-4f50-b298-88d24fa620ca"},"vehicle_type_id":"4","last_reported":1727194255,"current_range_meters":38800,"station_id":"ce4bhph2rcd13ifvqhdg","pricing_plan_id":"cebpf4jnsgd1na2vs0mg"},{"bike_id":"7bc351dd-0506-4a03-b6d8-5f6af8f929b8","system_id":"levelo_inurba_marseille","lat":43.23186,"lon":5.3998,"is_reserved":false,"is_disabled":false,"rental_uris":{"android":"levelo://app?vid=7bc351dd-0506-4a03-b6d8-5f6af8f929b8","ios":"levelo://app?vid=7bc351dd-0506-4a03-b6d8-5f6af8f929b8"},"vehicle_type_id":"4","last_reported":1727194255,"current_range_meters":19600,"station_id":"ce4bhn12rcd13ifvqgqg","pricing_plan_id":"cebpf4jnsgd1na2vs0mg"},{"bike_id":"2fb56565-6708-44f9-aab3-cd4d038eca59","system_id":"levelo_inurba_marseille","lat":43.28273,"lon":5.35084,"is_reserved":false,"is_disabled":false,"rental_uris":{"android":"levelo://app?vid=2fb56565-6708-44f9-aab3-cd4d038eca59","ios":"levelo://app?vid=2fb56565-6708-44f9-aab3-cd4d038eca59"},"vehicle_type_id":"4","last_reported":1727194255,"current_range_meters":8400,"station_id":"ce4bhbp2rcd13ifvqerg","pricing_plan_id":"cebpf4jnsgd1na2vs0mg"},{"bike_id":"28e64d8f-faff-4ba9-ac34-1c815ad9b58e","system_id":"levelo_inurba_marseille","lat":43.29556,"lon":5.42291,"is_reserved":false,"is_disabled":false,"rental_uris":{"android":"levelo://app?vid=28e64d8f-faff-4ba9-ac34-1c815ad9b58e","ios":"levelo://app?vid=28e64d8f-faff-4ba9-ac34-1c815ad9b58e"},"vehicle_type_id":"4","last_reported":1727194255,"current_range_meters":10800,"station_id":"ce4bhph2rcd13ifvqhdg","pricing_plan_id":"cebpf4jnsgd1na2vs0mg"},{"bike_id":"6991866a-522f-4722-9d28-10173d38f0a5","system_id":"levelo_inurba_marseille","lat":43.29194,"lon":5.39326,"is_reserved":false,"is_disabled":false,"rental_uris":{"android":"levelo://app?vid=6991866a-522f-4722-9d28-10173d38f0a5","ios":"levelo://app?vid=6991866a-522f-4722-9d28-10173d38f0a5"},"vehicle_type_id":"4","last_reported":1727194255,"current_range_meters":37600,"station_id":"ce4bh192rcd13ifvqdd0","pricing_plan_id":"cebpf4jnsgd1na2vs0mg"},{"bike_id":"bd62d8c9-06bc-4a7e-97bd-dd5cd594acfc","system_id":"levelo_inurba_marseille","lat":43.23185,"lon":5.39982,"is_reserved":false,"is_disabled":false,"rental_uris":{"android":"levelo://app?vid=bd62d8c9-06bc-4a7e-97bd-dd5cd594acfc","ios":"levelo://app?vid=bd62d8c9-06bc-4a7e-97bd-dd5cd594acfc"},"vehicle_type_id":"4","last_reported":1727194255,"current_range_meters":39200,"station_id":"ce4bhn12rcd13ifvqgqg","pricing_plan_id":"cebpf4jnsgd1na2vs0mg"},{"bike_id":"e3d8882f-4011-45a7-87c7-4f5b01dd120d","system_id":"levelo_inurba_marseille","lat":43.27366,"lon":5.3626,"is_reserved":false,"is_disabled":false,"rental_uris":{"android":"levelo://app?vid=e3d8882f-4011-45a7-87c7-4f5b01dd120d","ios":"levelo://app?vid=e3d8882f-4011-45a7-87c7-4f5b01dd120d"},"vehicle_type_id":"4","last_reported":1727194255,"current_range_meters":9600,"station_id":"ce4bhbh2rcd13ifvqeo0","pricing_plan_id":"cebpf4jnsgd1na2vs0mg"},{"bike_id":"41f512fd-3fa7-4939-bb3f-f2fb7ab4f1c9","system_id":"levelo_inurba_marseille","lat":43.295186,"lon":5.390398,"is_reserved":false,"is_disabled":false,"rental_uris":{"android":"levelo://app?vid=41f512fd-3fa7-4939-bb3f-f2fb7ab4f1c9","ios":"levelo://app?vid=41f512fd-3fa7-4939-bb3f-f2fb7ab4f1c9"},"vehicle_type_id":"4","last_reported":1727194255,"current_range_meters":10800,"station_id":"ce4bh3p2rcd13ifvqdp0","pricing_plan_id":"cebpf4jnsgd1na2vs0mg"},{"bike_id":"63afda87-e565-40f0-b4ba-6407976d4e50","system_id":"levelo_inurba_marseille","lat":43.27994,"lon":5.40028,"is_reserved":false,"is_disabled":false,"rental_uris":{"android":"levelo://app?vid=63afda87-e565-40f0-b4ba-6407976d4e50","ios":"levelo://app?vid=63afda87-e565-40f0-b4ba-6407976d4e50"},"vehicle_type_id":"4","last_reported":1727194255,"current_range_meters":39200,"station_id":"ce4bho92rcd13ifvqh4g","pricing_plan_id":"cebpf4jnsgd1na2vs0mg"},{"bike_id":"eead70c3-caf7-41a7-8175-9208ed99f051","system_id":"levelo_inurba_marseille","lat":43.30352,"lon":5.41881,"is_reserved":false,"is_disabled":false,"rental_uris":{"android":"levelo://app?vid=eead70c3-caf7-41a7-8175-9208ed99f051","ios":"levelo://app?vid=eead70c3-caf7-41a7-8175-9208ed99f051"},"vehicle_type_id":"4","last_reported":1727194255,"current_range_meters":8800,"station_id":"ce4bhop2rcd13ifvqh7g","pricing_plan_id":"cebpf4jnsgd1na2vs0mg"},{"bike_id":"be2028c8-dff4-4fc4-9730-036220b1db33","system_id":"levelo_inurba_marseille","lat":43.31539,"lon":5.38037,"is_reserved":false,"is_disabled":false,"rental_uris":{"android":"levelo://app?vid=be2028c8-dff4-4fc4-9730-036220b1db33","ios":"levelo://app?vid=be2028c8-dff4-4fc4-9730-036220b1db33"},"vehicle_type_id":"4","last_reported":1727194255,"current_range_meters":36800,"station_id":"ce4bhsp2rcd13ifvqi50","pricing_plan_id":"cebpf4jnsgd1na2vs0mg"},{"bike_id":"75732b10-c2d4-4aea-80c9-56198a30db2d","system_id":"levelo_inurba_marseille","lat":43.29415,"lon":5.38629,"is_reserved":false,"is_disabled":false,"rental_uris":{"android":"levelo://app?vid=75732b10-c2d4-4aea-80c9-56198a30db2d","ios":"levelo://app?vid=75732b10-c2d4-4aea-80c9-56198a30db2d"},"vehicle_type_id":"4","last_reported":1727194255,"current_range_meters":9600,"station_id":"ce4bh2h2rcd13ifvqdh0","pricing_plan_id":"cebpf4jnsgd1na2vs0mg"},{"bike_id":"f1bf3f0b-5fc6-4307-b0ea-5f4b216e8f5a","system_id":"levelo_inurba_marseille","lat":43.232,"lon":5.35549,"is_reserved":false,"is_disabled":false,"rental_uris":{"android":"levelo://app?vid=f1bf3f0b-5fc6-4307-b0ea-5f4b216e8f5a","ios":"levelo://app?vid=f1bf3f0b-5fc6-4307-b0ea-5f4b216e8f5a"},"vehicle_type_id":"4","last_reported":1727194255,"current_range_meters":40000,"station_id":"ce4bhu92rcd13ifvqi70","pricing_plan_id":"cebpf4jnsgd1na2vs0mg"},{"bike_id":"ed9fb978-00ec-4d2b-9018-4d2bad1bbe44","system_id":"levelo_inurba_marseille","lat":43.32441,"lon":5.40309,"is_reserved":false,"is_disabled":false,"rental_uris":{"android":"levelo://app?vid=ed9fb978-00ec-4d2b-9018-4d2bad1bbe44","ios":"levelo://app?vid=ed9fb978-00ec-4d2b-9018-4d2bad1bbe44"},"vehicle_type_id":"4","last_reported":1727194255,"current_range_meters":30400,"station_id":"","pricing_plan_id":"cebpf4jnsgd1na2vs0mg"},{"bike_id":"e33a6e1b-7e74-4d17-bfce-7c9cd1228b45","system_id":"levelo_inurba_marseille","lat":43.28613,"lon":5.35107,"is_reserved":false,"is_disabled":false,"rental_uris":{"android":"levelo://app?vid=e33a6e1b-7e74-4d17-bfce-7c9cd1228b45","ios":"levelo://app?vid=e33a6e1b-7e74-4d17-bfce-7c9cd1228b45"},"vehicle_type_id":"4","last_reported":1727194255,"current_range_meters":29600,"station_id":"ce4bhch2rcd13ifvqeug","pricing_plan_id":"cebpf4jnsgd1na2vs0mg"},{"bike_id":"91bbe8fe-feda-4fe3-9e45-d6204bc41c55","system_id":"levelo_inurba_marseille","lat":43.25087,"lon":5.39529,"is_reserved":false,"is_disabled":false,"rental_uris":{"android":"levelo://app?vid=91bbe8fe-feda-4fe3-9e45-d6204bc41c55","ios":"levelo://app?vid=91bbe8fe-feda-4fe3-9e45-d6204bc41c55"},"vehicle_type_id":"4","last_reported":1727194255,"current_range_meters":10800,"station_id":"ce4bhm12rcd13ifvqgkg","pricing_plan_id":"cebpf4jnsgd1na2vs0mg"},{"bike_id":"a2788f44-919b-412d-bc91-dd253920415e","system_id":"levelo_inurba_marseille","lat":43.29552,"lon":5.42286,"is_reserved":false,"is_disabled":false,"rental_uris":{"android":"levelo://app?vid=a2788f44-919b-412d-bc91-dd253920415e","ios":"levelo://app?vid=a2788f44-919b-412d-bc91-dd253920415e"},"vehicle_type_id":"4","last_reported":1727194255,"current_range_meters":17200,"station_id":"ce4bhph2rcd13ifvqhdg","pricing_plan_id":"cebpf4jnsgd1na2vs0mg"},{"bike_id":"bfbd7ce3-57c8-4c62-aaa8-52c7c05e68d8","system_id":"levelo_inurba_marseille","lat":43.337444,"lon":5.374475,"is_reserved":false,"is_disabled":false,"rental_uris":{"android":"levelo://app?vid=bfbd7ce3-57c8-4c62-aaa8-52c7c05e68d8","ios":"levelo://app?vid=bfbd7ce3-57c8-4c62-aaa8-52c7c05e68d8"},"vehicle_type_id":"4","last_reported":1727194255,"current_range_meters":16800,"station_id":"","pricing_plan_id":"cebpf4jnsgd1na2vs0mg"},{"bike_id":"4ad40def-3510-4e3f-bed4-66036bf4512b","system_id":"levelo_inurba_marseille","lat":43.26939,"lon":5.4025,"is_reserved":false,"is_disabled":false,"rental_uris":{"android":"levelo://app?vid=4ad40def-3510-4e3f-bed4-66036bf4512b","ios":"levelo://app?vid=4ad40def-3510-4e3f-bed4-66036bf4512b"},"vehicle_type_id":"4","last_reported":1727194255,"current_range_meters":16400,"station_id":"cjm6bp8fraef2m0cb0m0","pricing_plan_id":"cebpf4jnsgd1na2vs0mg"},{"bike_id":"3a7eb840-3bbc-44ae-bc88-6d37c5430e11","system_id":"levelo_inurba_marseille","lat":43.33721,"lon":5.39189,"is_reserved":false,"is_disabled":false,"rental_uris":{"android":"levelo://app?vid=3a7eb840-3bbc-44ae-bc88-6d37c5430e11","ios":"levelo://app?vid=3a7eb840-3bbc-44ae-bc88-6d37c5430e11"},"vehicle_type_id":"4","last_reported":1727194255,"current_range_meters":15200,"station_id":"ce4bhr92rcd13ifvqhsg","pricing_plan_id":"cebpf4jnsgd1na2vs0mg"},{"bike_id":"9fa21819-7e2e-4c0f-b6f8-a5abf037e960","system_id":"levelo_inurba_marseille","lat":43.28265,"lon":5.35069,"is_reserved":false,"is_disabled":false,"rental_uris":{"android":"levelo://app?vid=9fa21819-7e2e-4c0f-b6f8-a5abf037e960","ios":"levelo://app?vid=9fa21819-7e2e-4c0f-b6f8-a5abf037e960"},"vehicle_type_id":"4","last_reported":1727194255,"current_range_meters":4400,"station_id":"ce4bhbp2rcd13ifvqerg","pricing_plan_id":"cebpf4jnsgd1na2vs0mg"},{"bike_id":"095fcd16-2ca6-45ff-9341-42e6fea5d89d","system_id":"levelo_inurba_marseille","lat":43.26935,"lon":5.40254,"is_reserved":false,"is_disabled":false,"rental_uris":{"android":"levelo://app?vid=095fcd16-2ca6-45ff-9341-42e6fea5d89d","ios":"levelo://app?vid=095fcd16-2ca6-45ff-9341-42e6fea5d89d"},"vehicle_type_id":"4","last_reported":1727194255,"current_range_meters":23200,"station_id":"cjm6bp8fraef2m0cb0m0","pricing_plan_id":"cebpf4jnsgd1na2vs0mg"},{"bike_id":"cd9e2f82-a2a3-49ad-827b-abfe3f46ef0e","system_id":"levelo_inurba_marseille","lat":43.278105,"lon":5.407135,"is_reserved":false,"is_disabled":false,"rental_uris":{"android":"levelo://app?vid=cd9e2f82-a2a3-49ad-827b-abfe3f46ef0e","ios":"levelo://app?vid=cd9e2f82-a2a3-49ad-827b-abfe3f46ef0e"},"vehicle_type_id":"4","last_reported":1727194255,"current_range_meters":20800,"station_id":"ce4bhnh2rcd13ifvqgtg","pricing_plan_id":"cebpf4jnsgd1na2vs0mg"},{"bike_id":"891301ed-5352-46df-bbf0-120d1f96149f","system_id":"levelo_inurba_marseille","lat":43.30025,"lon":5.37988,"is_reserved":false,"is_disabled":false,"rental_uris":{"android":"levelo://app?vid=891301ed-5352-46df-bbf0-120d1f96149f","ios":"levelo://app?vid=891301ed-5352-46df-bbf0-120d1f96149f"},"vehicle_type_id":"4","last_reported":1727194255,"current_range_meters":18000,"station_id":"","pricing_plan_id":"cebpf4jnsgd1na2vs0mg"},{"bike_id":"9bba24b3-7b5a-4359-bf7c-c62ea8a365ab","system_id":"levelo_inurba_marseille","lat":43.27991,"lon":5.40018,"is_reserved":false,"is_disabled":false,"rental_uris":{"android":"levelo://app?vid=9bba24b3-7b5a-4359-bf7c-c62ea8a365ab","ios":"levelo://app?vid=9bba24b3-7b5a-4359-bf7c-c62ea8a365ab"},"vehicle_type_id":"4","last_reported":1727194255,"current_range_meters":18800,"station_id":"ce4bho92rcd13ifvqh4g","pricing_plan_id":"cebpf4jnsgd1na2vs0mg"},{"bike_id":"6f0e8812-3d52-4bd9-be53-b9fcc8b21b63","system_id":"levelo_inurba_marseille","lat":43.30544,"lon":5.38426,"is_reserved":false,"is_disabled":false,"rental_uris":{"android":"levelo://app?vid=6f0e8812-3d52-4bd9-be53-b9fcc8b21b63","ios":"levelo://app?vid=6f0e8812-3d52-4bd9-be53-b9fcc8b21b63"},"vehicle_type_id":"4","last_reported":1727194255,"current_range_meters":30400,"station_id":"ce4bgg92rcd13ifvqb30","pricing_plan_id":"cebpf4jnsgd1na2vs0mg"},{"bike_id":"d2d6b265-3b76-4043-92c9-2c92fb1182db","system_id":"levelo_inurba_marseille","lat":43.27944,"lon":5.4105,"is_reserved":false,"is_disabled":false,"rental_uris":{"android":"levelo://app?vid=d2d6b265-3b76-4043-92c9-2c92fb1182db","ios":"levelo://app?vid=d2d6b265-3b76-4043-92c9-2c92fb1182db"},"vehicle_type_id":"4","last_reported":1727194255,"current_range_meters":12000,"station_id":"ce4bhnp2rcd13ifvqh0g","pricing_plan_id":"cebpf4jnsgd1na2vs0mg"},{"bike_id":"d45f82c9-0aff-4f45-9ffd-1033d10cbca2","system_id":"levelo_inurba_marseille","lat":43.28038,"lon":5.36956,"is_reserved":false,"is_disabled":false,"rental_uris":{"android":"levelo://app?vid=d45f82c9-0aff-4f45-9ffd-1033d10cbca2","ios":"levelo://app?vid=d45f82c9-0aff-4f45-9ffd-1033d10cbca2"},"vehicle_type_id":"4","last_reported":1727194255,"current_range_meters":19200,"station_id":"ce4bha12rcd13ifvqef0","pricing_plan_id":"cebpf4jnsgd1na2vs0mg"},{"bike_id":"2ba783ef-2e4b-4845-8bfa-2095fdeb77a0","system_id":"levelo_inurba_marseille","lat":43.27838,"lon":5.39219,"is_reserved":false,"is_disabled":false,"rental_uris":{"android":"levelo://app?vid=2ba783ef-2e4b-4845-8bfa-2095fdeb77a0","ios":"levelo://app?vid=2ba783ef-2e4b-4845-8bfa-2095fdeb77a0"},"vehicle_type_id":"4","last_reported":1727194255,"current_range_meters":32800,"station_id":"ce4bhjp2rcd13ifvqga0","pricing_plan_id":"cebpf4jnsgd1na2vs0mg"},{"bike_id":"d23b582f-a480-4e2f-9327-2e37869fcea5","system_id":"levelo_inurba_marseille","lat":43.27369,"lon":5.36266,"is_reserved":false,"is_disabled":false,"rental_uris":{"android":"levelo://app?vid=d23b582f-a480-4e2f-9327-2e37869fcea5","ios":"levelo://app?vid=d23b582f-a480-4e2f-9327-2e37869fcea5"},"vehicle_type_id":"4","last_reported":1727194255,"current_range_meters":3200,"station_id":"ce4bhbh2rcd13ifvqeo0","pricing_plan_id":"cebpf4jnsgd1na2vs0mg"},{"bike_id":"8d597c2c-8660-4b64-a7c1-8cf37ae96ec3","system_id":"levelo_inurba_marseille","lat":43.31759,"lon":5.39023,"is_reserved":false,"is_disabled":false,"rental_uris":{"android":"levelo://app?vid=8d597c2c-8660-4b64-a7c1-8cf37ae96ec3","ios":"levelo://app?vid=8d597c2c-8660-4b64-a7c1-8cf37ae96ec3"},"vehicle_type_id":"4","last_reported":1727194255,"current_range_meters":27200,"station_id":"ce4bhqp2rcd13ifvqhng","pricing_plan_id":"cebpf4jnsgd1na2vs0mg"},{"bike_id":"dc61f8d7-067b-4f50-b3b4-d056d606f5a2","system_id":"levelo_inurba_marseille","lat":43.29555,"lon":5.42286,"is_reserved":false,"is_disabled":false,"rental_uris":{"android":"levelo://app?vid=dc61f8d7-067b-4f50-b3b4-d056d606f5a2","ios":"levelo://app?vid=dc61f8d7-067b-4f50-b3b4-d056d606f5a2"},"vehicle_type_id":"4","last_reported":1727194255,"current_range_meters":36800,"station_id":"ce4bhph2rcd13ifvqhdg","pricing_plan_id":"cebpf4jnsgd1na2vs0mg"},{"bike_id":"91d15927-1532-48bc-bc93-ffd7bdf2384c","system_id":"levelo_inurba_marseille","lat":43.30807,"lon":5.43527,"is_reserved":false,"is_disabled":false,"rental_uris":{"android":"levelo://app?vid=91d15927-1532-48bc-bc93-ffd7bdf2384c","ios":"levelo://app?vid=91d15927-1532-48bc-bc93-ffd7bdf2384c"},"vehicle_type_id":"4","last_reported":1727194255,"current_range_meters":24800,"station_id":"ce4bhph2rcd13ifvqheg","pricing_plan_id":"cebpf4jnsgd1na2vs0mg"},{"bike_id":"93b9c8fe-9322-42bf-9df0-d83131eb8835","system_id":"levelo_inurba_marseille","lat":43.28077,"lon":5.39659,"is_reserved":false,"is_disabled":false,"rental_uris":{"android":"levelo://app?vid=93b9c8fe-9322-42bf-9df0-d83131eb8835","ios":"levelo://app?vid=93b9c8fe-9322-42bf-9df0-d83131eb8835"},"vehicle_type_id":"4","last_reported":1727194255,"current_range_meters":26000,"station_id":"ce4bho12rcd13ifvqh2g","pricing_plan_id":"cebpf4jnsgd1na2vs0mg"},{"bike_id":"9f685407-325a-488b-b7bf-f1625f05e008","system_id":"levelo_inurba_marseille","lat":43.29798,"lon":5.39301,"is_reserved":false,"is_disabled":false,"rental_uris":{"android":"levelo://app?vid=9f685407-325a-488b-b7bf-f1625f05e008","ios":"levelo://app?vid=9f685407-325a-488b-b7bf-f1625f05e008"},"vehicle_type_id":"4","last_reported":1727194255,"current_range_meters":12400,"station_id":"chh1huq6cuj3fo74tm60","pricing_plan_id":"cebpf4jnsgd1na2vs0mg"},{"bike_id":"3b626037-6d18-4450-a73f-61c34caa1f41","system_id":"levelo_inurba_marseille","lat":43.29897,"lon":5.43663,"is_reserved":false,"is_disabled":false,"rental_uris":{"android":"levelo://app?vid=3b626037-6d18-4450-a73f-61c34caa1f41","ios":"levelo://app?vid=3b626037-6d18-4450-a73f-61c34caa1f41"},"vehicle_type_id":"4","last_reported":1727194255,"current_range_meters":37600,"station_id":"ce4bhpp2rcd13ifvqhfg","pricing_plan_id":"cebpf4jnsgd1na2vs0mg"},{"bike_id":"6cf5b7f4-5099-4fb9-a3a5-c11e18e75a35","system_id":"levelo_inurba_marseille","lat":43.2862,"lon":5.35108,"is_reserved":false,"is_disabled":false,"rental_uris":{"android":"levelo://app?vid=6cf5b7f4-5099-4fb9-a3a5-c11e18e75a35","ios":"levelo://app?vid=6cf5b7f4-5099-4fb9-a3a5-c11e18e75a35"},"vehicle_type_id":"4","last_reported":1727194255,"current_range_meters":8800,"station_id":"ce4bhch2rcd13ifvqeug","pricing_plan_id":"cebpf4jnsgd1na2vs0mg"},{"bike_id":"13343853-b510-4eff-bb16-c7015a1d0f7a","system_id":"levelo_inurba_marseille","lat":43.31331,"lon":5.39701,"is_reserved":false,"is_disabled":false,"rental_uris":{"android":"levelo://app?vid=13343853-b510-4eff-bb16-c7015a1d0f7a","ios":"levelo://app?vid=13343853-b510-4eff-bb16-c7015a1d0f7a"},"vehicle_type_id":"4","last_reported":1727194255,"current_range_meters":8400,"station_id":"ce4bgvp2rcd13ifvqcu0","pricing_plan_id":"cebpf4jnsgd1na2vs0mg"},{"bike_id":"a10c6658-9fb5-47a2-bed3-d0913721a0f7","system_id":"levelo_inurba_marseille","lat":43.29898,"lon":5.43673,"is_reserved":false,"is_disabled":false,"rental_uris":{"android":"levelo://app?vid=a10c6658-9fb5-47a2-bed3-d0913721a0f7","ios":"levelo://app?vid=a10c6658-9fb5-47a2-bed3-d0913721a0f7"},"vehicle_type_id":"4","last_reported":1727194255,"current_range_meters":6800,"station_id":"ce4bhpp2rcd13ifvqhfg","pricing_plan_id":"cebpf4jnsgd1na2vs0mg"},