{"last_updated":1717614358,"ttl":30,"version":"2.2","data":{"bikes":[{"bike_id":"c3587059-dc2b-45f8-8f59-f99ca86d1b43","system_id":"levelo_inurba_marseille","lat":43.312239,"lon":5.368562,"is_reserved":false,"is_disabled":false,"rental_uris":{"android":"levelo://app?vid=c3587059-dc2b-45f8-8f59-f99ca86d1b43","ios":"levelo://app?vid=c3587059-dc2b-45f8-8f59-f99ca86d1b43"},"vehicle_type_id":"4","last_reported":1717614358,"current_range_meters":6000,"station_id":"ce4bgl92rcd13ifvqbq0","pricing_plan_id":"cebpf4jnsgd1na2vs0mg"},{"bike_id":"52712899-e649-41e6-b97e-b42930492253","system_id":"levelo_inurba_marseille","lat":43.312239,"lon":5.368562,"is_reserved":false,"is_disabled":false,"rental_uris":{"android":"levelo://app?vid=52712899-e649-41e6-b97e-b42930492253","ios":"levelo://app?vid=52712899-e649-41e6-b97e-b42930492253"},"vehicle_type_id":"4","last_reported":1717614358,"current_range_meters":6000,"station_id":"ce4bgl92rcd13ifvqbq0","pricing_plan_id":"cebpf4jnsgd1na2vs0mg"},{"bike_id":"73b5326f-3be5-4f3d-bc48-dc76783e1c81","system_id":"levelo_inurba_marseille","lat":43.314811,"lon":5.373103,"is_reserved":false,"is_disabled":false,"rental_uris":{"android":"levelo://app?vid=73b5326f-3be5-4f3d-bc48-dc76783e1c81","ios":"levelo://app?vid=73b5326f-3be5-4f3d-bc48-dc76783e1c81"},"vehicle_type_id":"4","last_reported":1717614358,"current_range_meters":0,"station_id":"ce4bgt12rcd13ifvqcd0","pricing_plan_id":"cebpf4jnsgd1na2vs0mg"},{"bike_id":"eb6d5b0e-9eb2-4282-b1d0-57fdefbcd832","system_id":"levelo_inurba_marseille","lat":43.309039,"lon":5.371797,"is_reserved":false,"is_disabled":false,"rental_uris":{"android":"levelo://app?vid=eb6d5b0e-9eb2-4282-b1d0-57fdefbcd832","ios":"levelo://app?vid=eb6d5b0e-9eb2-4282-b1d0-57fdefbcd832"},"vehicle_type_id":"4","last_reported":1717614358,"current_range_meters":0,"station_id":"ce4bguh2rcd13ifvqckg","pricing_plan_id":"cebpf4jnsgd1na2vs0mg"},{"bike_id":"bac96751-9319-4c74-8c45-333571f3f614","system_id":"levelo_inurba_marseille","lat":43.309034,"lon":5.371783,"is_reserved":false,"is_disabled":false,"rental_uris":{"android":"levelo://app?vid=bac96751-9319-4c74-8c45-333571f3f614","ios":"levelo://app?vid=bac96751-9319-4c74-8c45-333571f3f614"},"vehicle_type_id":"4","last_reported":1717614358,"current_range_meters":0,"station_id":"ce4bguh2rcd13ifvqckg","pricing_plan_id":"cebpf4jnsgd1na2vs0mg"},{"bike_id":"ff874a15-fac3-4941-9aa9-b124b843bf70","system_id":"levelo_inurba_marseille","lat":43.309039,"lon":5.371797,"is_reserved":false,"is_disabled":false,"rental_uris":{"android":"levelo://app?vid=ff874a15-fac3-4941-9aa9-b124b843bf70","ios":"levelo://app?vid=ff874a15-fac3-4941-9aa9-b124b843bf70"},"vehicle_type_id":"4","last_reported":1717614358,"current_range_meters":10400,"station_id":"ce4bguh2rcd13ifvqckg","pricing_plan_id":"cebpf4jnsgd1na2vs0mg"},{"bike_id":"1174479a-8341-4710-bafa-fd61541ad89a","system_id":"levelo_inurba_marseille","lat":43.305989,"lon":5.37225,"is_reserved":false,"is_disabled":false,"rental_uris":{"android":"levelo://app?vid=1174479a-8341-4710-bafa-fd61541ad89a","ios":"levelo://app?vid=1174479a-8341-4710-bafa-fd61541ad89a"},"vehicle_type_id":"4","last_reported":1717614358,"current_range_meters":3200,"station_id":"ce4bgqh2rcd13ifvqc4g","pricing_plan_id":"cebpf4jnsgd1na2vs0mg"},{"bike_id":"dfc15629-f0d9-4bed-9030-67bd3d4d7a2c","system_id":"levelo_inurba_marseille","lat":43.305714,"lon":5.365633,"is_reserved":false,"is_disabled":false,"rental_uris":{"android":"levelo://app?vid=dfc15629-f0d9-4bed-9030-67bd3d4d7a2c","ios":"levelo://app?vid=dfc15629-f0d9-4bed-9030-67bd3d4d7a2c"},"vehicle_type_id":"4","last_reported":1717614358,"current_range_meters":0,"station_id":"ce4bgs12rcd13ifvqcag","pricing_plan_id":"cebpf4jnsgd1na2vs0mg"},{"bike_id":"d28dcf35-4759-448d-9838-0655bebf1a7b","system_id":"levelo_inurba_marseille","lat":43.317075,"lon":5.377367,"is_reserved":false,"is_disabled":false,"rental_uris":{"android":"levelo://app?vid=d28dcf35-4759-448d-9838-0655bebf1a7b","ios":"levelo://app?vid=d28dcf35-4759-448d-9838-0655bebf1a7b"},"vehicle_type_id":"4","last_reported":1717614358,"current_range_meters":28000,"station_id":"ce4bgth2rcd13ifvqch0","pricing_plan_id":"cebpf4jnsgd1na2vs0mg"},{"bike_id":"c02f5caa-9e81-4331-9ebd-b85c921ca830","system_id":"levelo_inurba_marseille","lat":43.311125,"lon":5.377624,"is_reserved":false,"is_disabled":false,"rental_uris":{"android":"levelo://app?vid=c02f5caa-9e81-4331-9ebd-b85c921ca830","ios":"levelo://app?vid=c02f5caa-9e81-4331-9ebd-b85c921ca830"},"vehicle_type_id":"4","last_reported":1717614358,"current_range_meters":21600,"station_id":"ce4bgt92rcd13ifvqcg0","pricing_plan_id":"cebpf4jnsgd1na2vs0mg"},{"bike_id":"bec2f622-c9ee-4ed4-b2c5-b0686f1f41e0","system_id":"levelo_inurba_marseille","lat":43.307945,"lon":5.376487,"is_reserved":false,"is_disabled":false,"rental_uris":{"android":"levelo://app?vid=bec2f622-c9ee-4ed4-b2c5-b0686f1f41e0","ios":"levelo://app?vid=bec2f622-c9ee-4ed4-b2c5-b0686f1f41e0"},"vehicle_type_id":"4","last_reported":1717614358,"current_range_meters":10800,"station_id":"ce4bgv92rcd13ifvqcq0","pricing_plan_id":"cebpf4jnsgd1na2vs0mg"},{"bike_id":"611ee5c6-3f4e-4b78-a982-6d1f62e94c31","system_id":"levelo_inurba_marseille","lat":43.307945,"lon":5.376487,"is_reserved":false,"is_disabled":false,"rental_uris":{"android":"levelo://app?vid=611ee5c6-3f4e-4b78-a982-6d1f62e94c31","ios":"levelo://app?vid=611ee5c6-3f4e-4b78-a982-6d1f62e94c31"},"vehicle_type_id":"4","last_reported":1717614358,"current_range_meters":10800,"station_id":"ce4bgv92rcd13ifvqcq0","pricing_plan_id":"cebpf4jnsgd1na2vs0mg"},{"bike_id":"ca3ea081-93f4-4f9a-bc17-469caa14c85d","system_id":"levelo_inurba_marseille","lat":43.305325,"lon":5.37318,"is_reserved":false,"is_disabled":false,"rental_uris":{"android":"levelo://app?vid=ca3ea081-93f4-4f9a-bc17-469caa14c85d","ios":"levelo://app?vid=ca3ea081-93f4-4f9a-bc17-469caa14c85d"},"vehicle_type_id":"4","last_reported":1717614358,"current_range_meters":0,"station_id":"","pricing_plan_id":"cebpf4jnsgd1na2vs0mg"},{"bike_id":"dd07dc41-ea64-4ada-a091-7b510a887baf","system_id":"levelo_inurba_marseille","lat":43.31712,"lon":5.37746,"is_reserved":false,"is_disabled":false,"rental_uris":{"android":"levelo://app?vid=dd07dc41-ea64-4ada-a091-7b510a887baf","ios":"levelo://app?vid=dd07dc41-ea64-4ada-a091-7b510a887baf"},"vehicle_type_id":"4","last_reported":1717614358,"current_range_meters":0,"station_id":"ce4bgth2rcd13ifvqch0","pricing_plan_id":"cebpf4jnsgd1na2vs0mg"},{"bike_id":"65c1bd0c-26a8-4a23-ba12-eb4ad74ff735","system_id":"levelo_inurba_marseille","lat":43.317075,"lon":5.377367,"is_reserved":false,"is_disabled":false,"rental_uris":{"android":"levelo://app?vid=65c1bd0c-26a8-4a23-ba12-eb4ad74ff735","ios":"levelo://app?vid=65c1bd0c-26a8-4a23-ba12-eb4ad74ff735"},"vehicle_type_id":"4","last_reported":1717614358,"current_range_meters":5600,"station_id":"ce4bgth2rcd13ifvqch0","pricing_plan_id":"cebpf4jnsgd1na2vs0mg"},{"bike_id":"cecb8e89-869e-44fe-9e23-3aca3d7cd816","system_id":"levelo_inurba_marseille","lat":43.30317,"lon":5.36897,"is_reserved":false,"is_disabled":false,"rental_uris":{"android":"levelo://app?vid=cecb8e89-869e-44fe-9e23-3aca3d7cd816","ios":"levelo://app?vid=cecb8e89-869e-44fe-9e23-3aca3d7cd816"},"vehicle_type_id":"4","last_reported":1717614358,"current_range_meters":27200,"station_id":"ce4bgqh2rcd13ifvqc5g","pricing_plan_id":"cebpf4jnsgd1na2vs0mg"},{"bike_id":"7b8208bd-9398-4717-92a9-14771dd29b5a","system_id":"levelo_inurba_marseille","lat":43.303046,"lon":5.368981,"is_reserved":false,"is_disabled":false,"rental_uris":{"android":"levelo://app?vid=7b8208bd-9398-4717-92a9-14771dd29b5a","ios":"levelo://app?vid=7b8208bd-9398-4717-92a9-14771dd29b5a"},"vehicle_type_id":"4","last_reported":1717614358,"current_range_meters":19200,"station_id":"ce4bgqh2rcd13ifvqc5g","pricing_plan_id":"cebpf4jnsgd1na2vs0mg"},{"bike_id":"f8ab5b00-1934-4c8f-af20-6330260faa1a","system_id":"levelo_inurba_marseille","lat":43.30804,"lon":5.38136,"is_reserved":false,"is_disabled":false,"rental_uris":{"android":"levelo://app?vid=f8ab5b00-1934-4c8f-af20-6330260faa1a","ios":"levelo://app?vid=f8ab5b00-1934-4c8f-af20-6330260faa1a"},"vehicle_type_id":"4","last_reported":1717614358,"current_range_meters":3600,"station_id":"ce4bgt12rcd13ifvqce0","pricing_plan_id":"cebpf4jnsgd1na2vs0mg"},{"bike_id":"2ee7d019-54c6-49d3-9ddc-d21560268437","system_id":"levelo_inurba_marseille","lat":43.30808,"lon":5.38145,"is_reserved":false,"is_disabled":false,"rental_uris":{"android":"levelo://app?vid=2ee7d019-54c6-49d3-9ddc-d21560268437","ios":"levelo://app?vid=2ee7d019-54c6-49d3-9ddc-d21560268437"},"vehicle_type_id":"4","last_reported":1717614358,"current_range_meters":2800,"station_id":"ce4bgt12rcd13ifvqce0","pricing_plan_id":"cebpf4jnsgd1na2vs0mg"},{"bike_id":"bb7b9939-ad63-48c3-a3dc-672dd3963f84","system_id":"levelo_inurba_marseille","lat":43.304606,"lon":5.379026,"is_reserved":false,"is_disabled":false,"rental_uris":{"android":"levelo://app?vid=bb7b9939-ad63-48c3-a3dc-672dd3963f84","ios":"levelo://app?vid=bb7b9939-ad63-48c3-a3dc-672dd3963f84"},"vehicle_type_id":"4","last_reported":1717614358,"current_range_meters":23600,"station_id":"ce4bgup2rcd13ifvqcn0","pricing_plan_id":"cebpf4jnsgd1na2vs0mg"},{"bike_id":"6fa12418-bede-4a46-baec-955beb68d5b3","system_id":"levelo_inurba_marseille","lat":43.304606,"lon":5.379026,"is_reserved":false,"is_disabled":false,"rental_uris":{"android":"levelo://app?vid=6fa12418-bede-4a46-baec-955beb68d5b3","ios":"levelo://app?vid=6fa12418-bede-4a46-baec-955beb68d5b3"},"vehicle_type_id":"4","last_reported":1717614358,"current_range_meters":0,"station_id":"ce4bgup2rcd13ifvqcn0","pricing_plan_id":"cebpf4jnsgd1na2vs0mg"},{"bike_id":"03b7753a-df92-489d-aefe-2f8ba0a37b2e","system_id":"levelo_inurba_marseille","lat":43.324771,"lon":5.36557,"is_reserved":false,"is_disabled":false,"rental_uris":{"android":"levelo://app?vid=03b7753a-df92-489d-aefe-2f8ba0a37b2e","ios":"levelo://app?vid=03b7753a-df92-489d-aefe-2f8ba0a37b2e"},"vehicle_type_id":"4","last_reported":1717614358,"current_range_meters":4000,"station_id":"ce4bhs12rcd13ifvqhvg","pricing_plan_id":"cebpf4jnsgd1na2vs0mg"},{"bike_id":"308d634d-421f-4f83-801e-c1377d6fa926","system_id":"levelo_inurba_marseille","lat":43.324771,"lon":5.36557,"is_reserved":false,"is_disabled":false,"rental_uris":{"android":"levelo://app?vid=308d634d-421f-4f83-801e-c1377d6fa926","ios":"levelo://app?vid=308d634d-421f-4f83-801e-c1377d6fa926"},"vehicle_type_id":"4","last_reported":1717614358,"current_range_meters":27200,"station_id":"ce4bhs12rcd13ifvqhvg","pricing_plan_id":"cebpf4jnsgd1na2vs0mg"},{"bike_id":"569c08aa-f880-4b72-b1b6-ae22baaf0e5f","system_id":"levelo_inurba_marseille","lat":43.310804,"lon":5.38359,"is_reserved":false,"is_disabled":false,"rental_uris":{"android":"levelo://app?vid=569c08aa-f880-4b72-b1b6-ae22baaf0e5f","ios":"levelo://app?vid=569c08aa-f880-4b72-b1b6-ae22baaf0e5f"},"vehicle_type_id":"4","last_reported":1717614358,"current_range_meters":25600,"station_id":"ce4bgv92rcd13ifvqcr0","pricing_plan_id":"cebpf4jnsgd1na2vs0mg"},{"bike_id":"2b17ee5f-957f-412a-8df7-98c904592a7c","system_id":"levelo_inurba_marseille","lat":43.302824,"lon":5.376906,"is_reserved":false,"is_disabled":false,"rental_uris":{"android":"levelo://app?vid=2b17ee5f-957f-412a-8df7-98c904592a7c","ios":"levelo://app?vid=2b17ee5f-957f-412a-8df7-98c904592a7c"},"vehicle_type_id":"4","last_reported":1717614358,"current_range_meters":0,"station_id":"ce4bguh2rcd13ifvqcj0","pricing_plan_id":"cebpf4jnsgd1na2vs0mg"},{"bike_id":"aef36c06-5e89-47c2-ad59-14abac105e0c","system_id":"levelo_inurba_marseille","lat":43.310804,"lon":5.38359,"is_reserved":false,"is_disabled":false,"rental_uris":{"android":"levelo://app?vid=aef36c06-5e89-47c2-ad59-14abac105e0c","ios":"levelo://app?vid=aef36c06-5e89-47c2-ad59-14abac105e0c"},"vehicle_type_id":"4","last_reported":1717614358,"current_range_meters":12800,"station_id":"ce4bgv92rcd13ifvqcr0","pricing_plan_id":"cebpf4jnsgd1na2vs0mg"},{"bike_id":"e39e1fee-0045-4a3e-8b11-dafffd872077","system_id":"levelo_inurba_marseille","lat":43.31998,"lon":5.38161,"is_reserved":false,"is_disabled":false,"rental_uris":{"android":"levelo://app?vid=e39e1fee-0045-4a3e-8b11-dafffd872077","ios":"levelo://app?vid=e39e1fee-0045-4a3e-8b11-dafffd872077"},"vehicle_type_id":"4","last_reported":1717614358,"current_range_meters":5200,"station_id":"ce4bhr12rcd13ifvqhpg","pricing_plan_id":"cebpf4jnsgd1na2vs0mg"},{"bike_id":"f2e1becd-92d1-4450-8680-7b2f76a0a972","system_id":"levelo_inurba_marseille","lat":43.299724,"lon":5.371829,"is_reserved":false,"is_disabled":false,"rental_uris":{"android":"levelo://app?vid=f2e1becd-92d1-4450-8680-7b2f76a0a972","ios":"levelo://app?vid=f2e1becd-92d1-4450-8680-7b2f76a0a972"},"vehicle_type_id":"4","last_reported":1717614358,"current_range_meters":4400,"station_id":"ce4bgr92rcd13ifvqc7g","pricing_plan_id":"cebpf4jnsgd1na2vs0mg"},{"bike_id":"ec28aa12-6016-437b-af92-e9f0a3a8ca85","system_id":"levelo_inurba_marseille","lat":43.313571,"lon":5.384829,"is_reserved":false,"is_disabled":false,"rental_uris":{"android":"levelo://app?vid=ec28aa12-6016-437b-af92-e9f0a3a8ca85","ios":"levelo://app?vid=ec28aa12-6016-437b-af92-e9f0a3a8ca85"},"vehicle_type_id":"4","last_reported":1717614358,"current_range_meters":0,"station_id":"ce4bgt92rcd13ifvqcf0","pricing_plan_id":"cebpf4jnsgd1na2vs0mg"},{"bike_id":"64ac4ea6-d001-4cab-95a9-e0e2ec197eee","system_id":"levelo_inurba_marseille","lat":43.29854,"lon":5.36285,"is_reserved":false,"is_disabled":false,"rental_uris":{"android":"levelo://app?vid=64ac4ea6-d001-4cab-95a9-e0e2ec197eee","ios":"levelo://app?vid=64ac4ea6-d001-4cab-95a9-e0e2ec197eee"},"vehicle_type_id":"4","last_reported":1717614358,"current_range_meters":0,"station_id":"ce4bgpp2rcd13ifvqc3g","pricing_plan_id":"cebpf4jnsgd1na2vs0mg"},{"bike_id":"95a4c288-1841-45cd-8d6c-54a97e02b23a","system_id":"levelo_inurba_marseille","lat":43.305364,"lon":5.384119,"is_reserved":false,"is_disabled":false,"rental_uris":{"android":"levelo://app?vid=95a4c288-1841-45cd-8d6c-54a97e02b23a","ios":"levelo://app?vid=95a4c288-1841-45cd-8d6c-54a97e02b23a"},"vehicle_type_id":"4","last_reported":1717614358,"current_range_meters":3600,"station_id":"ce4bgg92rcd13ifvqb30","pricing_plan_id":"cebpf4jnsgd1na2vs0mg"},{"bike_id":"4d1581ad-777c-457e-871c-6e3ef80b0e6c","system_id":"levelo_inurba_marseille","lat":43.298433,"lon":5.362774,"is_reserved":false,"is_disabled":false,"rental_uris":{"android":"levelo://app?vid=4d1581ad-777c-457e-871c-6e3ef80b0e6c","ios":"levelo://app?vid=4d1581ad-777c-457e-871c-6e3ef80b0e6c"},"vehicle_type_id":"4","last_reported":1717614358,"current_range_meters":2800,"station_id":"ce4bgpp2rcd13ifvqc3g","pricing_plan_id":"cebpf4jnsgd1na2vs0mg"},{"bike_id":"94d868c3-398a-45a7-a442-09f897998739","system_id":"levelo_inurba_marseille","lat":43.299243,"lon":5.37481,"is_reserved":false,"is_disabled":false,"rental_uris":{"android":"levelo://app?vid=94d868c3-398a-45a7-a442-09f897998739","ios":"levelo://app?vid=94d868c3-398a-45a7-a442-09f897998739"},"vehicle_type_id":"4","last_reported":1717614358,"current_range_meters":19200,"station_id":"ce4bgjh2rcd13ifvqbg0","pricing_plan_id":"cebpf4jnsgd1na2vs0mg"},{"bike_id":"0dacfdf9-249f-44b5-87ed-d59d160b6698","system_id":"levelo_inurba_marseille","lat":43.31179,"lon":5.38712,"is_reserved":false,"is_disabled":false,"rental_uris":{"android":"levelo://app?vid=0dacfdf9-249f-44b5-87ed-d59d160b6698","ios":"levelo://app?vid=0dacfdf9-249f-44b5-87ed-d59d160b6698"},"vehicle_type_id":"4","last_reported":1717614358,"current_range_meters":0,"station_id":"ce4bgv12rcd13ifvqcp0","pricing_plan_id":"cebpf4jnsgd1na2vs0mg"},{"bike_id":"a9fddae9-f849-45ea-85f6-61d4b4494ce7","system_id":"levelo_inurba_marseille","lat":43.31176,"lon":5.387128,"is_reserved":false,"is_disabled":false,"rental_uris":{"android":"levelo://app?vid=a9fddae9-f849-45ea-85f6-61d4b4494ce7","ios":"levelo://app?vid=a9fddae9-f849-45ea-85f6-61d4b4494ce7"},"vehicle_type_id":"4","last_reported":1717614358,"current_range_meters":0,"station_id":"ce4bgv12rcd13ifvqcp0","pricing_plan_id":"cebpf4jnsgd1na2vs0mg"},{"bike_id":"bf5295e8-3151-4fa8-be19-6c31a9de7e97","system_id":"levelo_inurba_marseille","lat":43.297774,"lon":5.370875,"is_reserved":false,"is_disabled":false,"rental_uris":{"android":"levelo://app?vid=bf5295e8-3151-4fa8-be19-6c31a9de7e97","ios":"levelo://app?vid=bf5295e8-3151-4fa8-be19-6c31a9de7e97"},"vehicle_type_id":"4","last_reported":1717614358,"current_range_meters":23200,"station_id":"ce4bgop2rcd13ifvqc1g","pricing_plan_id":"cebpf4jnsgd1na2vs0mg"},{"bike_id":"edcc7d75-4749-4755-9684-6ad6130043c0","system_id":"levelo_inurba_marseille","lat":43.322872,"lon":5.382756,"is_reserved":false,"is_disabled":false,"rental_uris":{"android":"levelo://app?vid=edcc7d75-4749-4755-9684-6ad6130043c0","ios":"levelo://app?vid=edcc7d75-4749-4755-9684-6ad6130043c0"},"vehicle_type_id":"4","last_reported":1717614358,"current_range_meters":10000,"station_id":"ce4bhr12rcd13ifvqhqg","pricing_plan_id":"cebpf4jnsgd1na2vs0mg"},{"bike_id":"445b2ca4-ee76-4af7-bbd0-e6e4de6258a3","system_id":"levelo_inurba_marseille","lat":43.322872,"lon":5.382756,"is_reserved":false,"is_disabled":false,"rental_uris":{"android":"levelo://app?vid=445b2ca4-ee76-4af7-bbd0-e6e4de6258a3","ios":"levelo://app?vid=445b2ca4-ee76-4af7-bbd0-e6e4de6258a3"},"vehicle_type_id":"4","last_reported":1717614358,"current_range_meters":21600,"station_id":"ce4bhr12rcd13ifvqhqg","pricing_plan_id":"cebpf4jnsgd1na2vs0mg"},{"bike_id":"967731c2-b580-4644-a4ed-61c3382566c5","system_id":"levelo_inurba_marseille","lat":43.32299,"lon":5.38262,"is_reserved":false,"is_disabled":false,"rental_uris":{"android":"levelo://app?vid=967731c2-b580-4644-a4ed-61c3382566c5","ios":"levelo://app?vid=967731c2-b580-4644-a4ed-61c3382566c5"},"vehicle_type_id":"4","last_reported":1717614358,"current_range_meters":1600,"station_id":"ce4bhr12rcd13ifvqhqg","pricing_plan_id":"cebpf4jnsgd1na2vs0mg"},{"bike_id":"6561482d-d590-4a89-bc3b-2f547db2ad23","system_id":"levelo_inurba_marseille","lat":43.297163,"lon":5.365866,"is_reserved":false,"is_disabled":false,"rental_uris":{"android":"levelo://app?vid=6561482d-d590-4a89-bc3b-2f547db2ad23","ios":"levelo://app?vid=6561482d-d590-4a89-bc3b-2f547db2ad23"},"vehicle_type_id":"4","last_reported":1717614358,"current_range_meters":24400,"station_id":"ce4bgn12rcd13ifvqbt0","pricing_plan_id":"cebpf4jnsgd1na2vs0mg"},{"bike_id":"130e65f6-46f7-459a-817e-92610534b0db","system_id":"levelo_inurba_marseille","lat":43.32294,"lon":5.38285,"is_reserved":false,"is_disabled":false,"rental_uris":{"android":"levelo://app?vid=130e65f6-46f7-459a-817e-92610534b0db","ios":"levelo://app?vid=130e65f6-46f7-459a-817e-92610534b0db"},"vehicle_type_id":"4","last_reported":1717614358,"current_range_meters":12400,"station_id":"ce4bhr12rcd13ifvqhqg","pricing_plan_id":"cebpf4jnsgd1na2vs0mg"},{"bike_id":"77f6069b-3c42-40bf-bb77-e908208bbe78","system_id":"levelo_inurba_marseille","lat":43.29727,"lon":5.36494,"is_reserved":false,"is_disabled":false,"rental_uris":{"android":"levelo://app?vid=77f6069b-3c42-40bf-bb77-e908208bbe78","ios":"levelo://app?vid=77f6069b-3c42-40bf-bb77-e908208bbe78"},"vehicle_type_id":"4","last_reported":1717614358,"current_range_meters":4000,"station_id":"","pricing_plan_id":"cebpf4jnsgd1na2vs0mg"},{"bike_id":"abab8b9c-0ec7-4534-9c4c-3ab005b0aded","system_id":"levelo_inurba_marseille","lat":43.29759,"lon":5.36211,"is_reserved":false,"is_disabled":false,"rental_uris":{"android":"levelo://app?vid=abab8b9c-0ec7-4534-9c4c-3ab005b0aded","ios":"levelo://app?vid=abab8b9c-0ec7-4534-9c4c-3ab005b0aded"},"vehicle_type_id":"4","last_reported":1717614358,"current_range_meters":24000,"station_id":"","pricing_plan_id":"cebpf4jnsgd1na2vs0mg"},{"bike_id":"682ea710-a21f-4533-84c3-055b6246afc2","system_id":"levelo_inurba_marseille","lat":43.297163,"lon":5.365866,"is_reserved":false,"is_disabled":false,"rental_uris":{"android":"levelo://app?vid=682ea710-a21f-4533-84c3-055b6246afc2","ios":"levelo://app?vid=682ea710-a21f-4533-84c3-055b6246afc2"},"vehicle_type_id":"4","last_reported":1717614358,"current_range_meters":1200,"station_id":"ce4bgn12rcd13ifvqbt0","pricing_plan_id":"cebpf4jnsgd1na2vs0mg"},{"bike_id":"b872c82b-d408-4690-b2d0-9ee8a6f55c32","system_id":"levelo_inurba_marseille","lat":43.29707,"lon":5.36604,"is_reserved":false,"is_disabled":false,"rental_uris":{"android":"levelo://app?vid=b872c82b-d408-4690-b2d0-9ee8a6f55c32","ios":"levelo://app?vid=b872c82b-d408-4690-b2d0-9ee8a6f55c32"},"vehicle_type_id":"4","last_reported":1717614358,"current_range_meters":0,"station_id":"ce4bgn12rcd13ifvqbt0","pricing_plan_id":"cebpf4jnsgd1na2vs0mg"},{"bike_id":"08fdef95-ab9c-4271-a24f-f9041a7bf77e","system_id":"levelo_inurba_marseille","lat":43.30184,"lon":5.38341,"is_reserved":false,"is_disabled":false,"rental_uris":{"android":"levelo://app?vid=08fdef95-ab9c-4271-a24f-f9041a7bf77e","ios":"levelo://app?vid=08fdef95-ab9c-4271-a24f-f9041a7bf77e"},"vehicle_type_id":"4","last_reported":1717614358,"current_range_meters":16000,"station_id":"","pricing_plan_id":"cebpf4jnsgd1na2vs0mg"},{"bike_id":"f1e65d19-54c9-4177-9cc7-09e5be8e2b21","system_id":"levelo_inurba_marseille","lat":43.29573,"lon":5.367355,"is_reserved":false,"is_disabled":false,"rental_uris":{"android":"levelo://app?vid=f1e65d19-54c9-4177-9cc7-09e5be8e2b21","ios":"levelo://app?vid=f1e65d19-54c9-4177-9cc7-09e5be8e2b21"},"vehicle_type_id":"4","last_reported":1717614358,"current_range_meters":6400,"station_id":"ce4bgph2rcd13ifvqc2g","pricing_plan_id":"cebpf4jnsgd1na2vs0mg"},{"bike_id":"f5540f7a-3091-4d2e-b3f8-cebbcb516b18","system_id":"levelo_inurba_marseille","lat":43.29573,"lon":5.367355,"is_reserved":false,"is_disabled":false,"rental_uris":{"android":"levelo://app?vid=f5540f7a-3091-4d2e-b3f8-cebbcb516b18","ios":"levelo://app?vid=f5540f7a-3091-4d2e-b3f8-cebbcb516b18"},"vehicle_type_id":"4","last_reported":1717614358,"current_range_meters":16800,"station_id":"ce4bgph2rcd13ifvqc2g","pricing_plan_id":"cebpf4jnsgd1na2vs0mg"},{"bike_id":"83459f51-3b19-4ccf-8925-2c9b330ffb4f","system_id":"levelo_inurba_marseille","lat":43.29573,"lon":5.367355,"is_reserved":false,"is_disabled":false,"rental_uris":{"android":"levelo://app?vid=83459f51-3b19-4ccf-8925-2c9b330ffb4f","ios":"levelo://app?vid=83459f51-3b19-4ccf-8925-2c9b330ffb4f"},"vehicle_type_id":"4","last_reported":1717614358,"current_range_meters":0,"station_id":"ce4bgph2rcd13ifvqc2g","pricing_plan_id":"cebpf4jnsgd1na2vs0mg"},{"bike_id":"2a104ba3-995d-49ce-902a-5fdf89aa81b7","system_id":"levelo_inurba_marseille","lat":43.29573,"lon":5.367355,"is_reserved":false,"is_disabled":false,"rental_uris":{"android":"levelo://app?vid=2a104ba3-995d-49ce-902a-5fdf89aa81b7","ios":"levelo://app?vid=2a104ba3-995d-49ce-902a-5fdf89aa81b7"},"vehicle_type_id":"4","last_reported":1717614358,"current_range_meters":2400,"station_id":"ce4bgph2rcd13ifvqc2g","pricing_plan_id":"cebpf4jnsgd1na2vs0mg"},{"bike_id":"c21deef2-210e-431f-95df-4975e41b8e2f","system_id":"levelo_inurba_marseille","lat":43.29573,"lon":5.367355,"is_reserved":false,"is_disabled":false,"rental_uris":{"android":"levelo://app?vid=c21deef2-210e-431f-95df-4975e41b8e2f","ios":"levelo://app?vid=c21deef2-210e-431f-95df-4975e41b8e2f"},"vehicle_type_id":"4","last_reported":1717614358,"current_range_meters":14800,"station_id":"ce4bgph2rcd13ifvqc2g","pricing_plan_id":"cebpf4jnsgd1na2vs0mg"},{"bike_id":"8ba1d6e8-a2fe-4d27-b59c-721648b76b5c","system_id":"levelo_inurba_marseille","lat":43.29573,"lon":5.367355,"is_reserved":false,"is_disabled":false,"rental_uris":{"android":"levelo://app?vid=8ba1d6e8-a2fe-4d27-b59c-721648b76b5c","ios":"levelo://app?vid=8ba1d6e8-a2fe-4d27-b59c-721648b76b5c"},"vehicle_type_id":"4","last_reported":1717614358,"current_range_meters":0,"station_id":"ce4bgph2rcd13ifvqc2g","pricing_plan_id":"cebpf4jnsgd1na2vs0mg"},{"bike_id":"a978aeb5-e38c-4317-80c1-54ee9f75eed4","system_id":"levelo_inurba_marseille","lat":43.29601,"lon":5.37076,"is_reserved":false,"is_disabled":false,"rental_uris":{"android":"levelo://app?vid=a978aeb5-e38c-4317-80c1-54ee9f75eed4","ios":"levelo://app?vid=a978aeb5-e38c-4317-80c1-54ee9f75eed4"},"vehicle_type_id":"4","last_reported":1717614358,"current_range_meters":12800,"station_id":"","pricing_plan_id":"cebpf4jnsgd1na2vs0mg"},{"bike_id":"0630808b-b6d9-4138-8f3d-e0a6375eb3c1","system_id":"levelo_inurba_marseille","lat":43.321308,"lon":5.387368,"is_reserved":false,"is_disabled":false,"rental_uris":{"android":"levelo://app?vid=0630808b-b6d9-4138-8f3d-e0a6375eb3c1","ios":"levelo://app?vid=0630808b-b6d9-4138-8f3d-e0a6375eb3c1"},"vehicle_type_id":"4","last_reported":1717614358,"current_range_meters":6800,"station_id":"","pricing_plan_id":"cebpf4jnsgd1na2vs0mg"},{"bike_id":"ad430bd5-8df7-4677-8b19-2c920911580b","system_id":"levelo_inurba_marseille","lat":43.30941,"lon":5.39015,"is_reserved":false,"is_disabled":false,"rental_uris":{"android":"levelo://app?vid=ad430bd5-8df7-4677-8b19-2c920911580b","ios":"levelo://app?vid=ad430bd5-8df7-4677-8b19-2c920911580b"},"vehicle_type_id":"4","last_reported":1717614358,"current_range_meters":0,"station_id":"ce4bgup2rcd13ifvqco0","pricing_plan_id":"cebpf4jnsgd1na2vs0mg"},{"bike_id":"86c90a56-1521-4663-8ed6-9e4f60bbc21c","system_id":"levelo_inurba_marseille","lat":43.299028,"lon":5.381509,"is_reserved":false,"is_disabled":false,"rental_uris":{"android":"levelo://app?vid=86c90a56-1521-4663-8ed6-9e4f60bbc21c","ios":"levelo://app?vid=86c90a56-1521-4663-8ed6-9e4f60bbc21c"},"vehicle_type_id":"4","last_reported":1717614358,"current_range_meters":9600,"station_id":"ce4bgj12rcd13ifvqbc0","pricing_plan_id":"cebpf4jnsgd1na2vs0mg"},{"bike_id":"e2ad79a3-b325-45cc-8079-0193f09d4614","system_id":"levelo_inurba_marseille","lat":43.29708,"lon":5.37703,"is_reserved":false,"is_disabled":false,"rental_uris":{"android":"levelo://app?vid=e2ad79a3-b325-45cc-8079-0193f09d4614","ios":"levelo://app?vid=e2ad79a3-b325-45cc-8079-0193f09d4614"},"vehicle_type_id":"4","last_reported":1717614358,"current_range_meters":0,"station_id":"ce4bgkh2rcd13ifvqbl0","pricing_plan_id":"cebpf4jnsgd1na2vs0mg"},{"bike_id":"715c423d-e679-4e06-80f1-abe816db63d3","system_id":"levelo_inurba_marseille","lat":43.30957,"lon":5.39034,"is_reserved":false,"is_disabled":false,"rental_uris":{"android":"levelo://app?vid=715c423d-e679-4e06-80f1-abe816db63d3","ios":"levelo://app?vid=715c423d-e679-4e06-80f1-abe816db63d3"},"vehicle_type_id":"4","last_reported":1717614358,"current_range_meters":29200,"station_id":"ce4bgup2rcd13ifvqco0","pricing_plan_id":"cebpf4jnsgd1na2vs0mg"},{"bike_id":"6add45fd-5692-4af5-a7a8-f28d58db38aa","system_id":"levelo_inurba_marseille","lat":43.309589,"lon":5.390258,"is_reserved":false,"is_disabled":false,"rental_uris":{"android":"levelo://app?vid=6add45fd-5692-4af5-a7a8-f28d58db38aa","ios":"levelo://app?vid=6add45fd-5692-4af5-a7a8-f28d58db38aa"},"vehicle_type_id":"4","last_reported":1717614358,"current_range_meters":3600,"station_id":"ce4bgup2rcd13ifvqco0","pricing_plan_id":"cebpf4jnsgd1na2vs0mg"},{"bike_id":"a1ff19d2-c267-4ed6-9849-0ace0abac00c","system_id":"levelo_inurba_marseille","lat":43.309589,"lon":5.390258,"is_reserved":false,"is_disabled":false,"rental_uris":{"android":"levelo://app?vid=a1ff19d2-c267-4ed6-9849-0ace0abac00c","ios":"levelo://app?vid=a1ff19d2-c267-4ed6-9849-0ace0abac00c"},"vehicle_type_id":"4","last_reported":1717614358,"current_range_meters":5200,"station_id":"ce4bgup2rcd13ifvqco0","pricing_plan_id":"cebpf4jnsgd1na2vs0mg"},{"bike_id":"e7b76ab6-82fd-43fa-9785-33b97e65f0c2","system_id":"levelo_inurba_marseille","lat":43.309589,"lon":5.390258,"is_reserved":false,"is_disabled":false,"rental_uris":{"android":"levelo://app?vid=e7b76ab6-82fd-43fa-9785-33b97e65f0c2","ios":"levelo://app?vid=e7b76ab6-82fd-43fa-9785-33b97e65f0c2"},"vehicle_type_id":"4","last_reported":1717614358,"current_range_meters":19200,"station_id":"ce4bgup2rcd13ifvqco0","pricing_plan_id":"cebpf4jnsgd1na2vs0mg"},{"bike_id":"098b3811-9ec4-4c83-83c0-3ad971438282","system_id":"levelo_inurba_marseille","lat":43.298037,"lon":5.381066,"is_reserved":false,"is_disabled":false,"rental_uris":{"android":"levelo://app?vid=098b3811-9ec4-4c83-83c0-3ad971438282","ios":"levelo://app?vid=098b3811-9ec4-4c83-83c0-3ad971438282"},"vehicle_type_id":"4","last_reported":1717614358,"current_range_meters":2400,"station_id":"ce4bgip2rcd13ifvqbb0","pricing_plan_id":"cebpf4jnsgd1na2vs0mg"},{"bike_id":"91060d9d-ca77-4cfc-9526-220055723997","system_id":"levelo_inurba_marseille","lat":43.295748,"lon":5.37522,"is_reserved":false,"is_disabled":false,"rental_uris":{"android":"levelo://app?vid=91060d9d-ca77-4cfc-9526-220055723997","ios":"levelo://app?vid=91060d9d-ca77-4cfc-9526-220055723997"},"vehicle_type_id":"4","last_reported":1717614358,"current_range_meters":29200,"station_id":"ce4bgh92rcd13ifvqb50","pricing_plan_id":"cebpf4jnsgd1na2vs0mg"},{"bike_id":"200f6211-cad7-4d69-8f8f-30a3a0398efb","system_id":"levelo_inurba_marseille","lat":43.295748,"lon":5.37522,"is_reserved":false,"is_disabled":false,"rental_uris":{"android":"levelo://app?vid=200f6211-cad7-4d69-8f8f-30a3a0398efb","ios":"levelo://app?vid=200f6211-cad7-4d69-8f8f-30a3a0398efb"},"vehicle_type_id":"4","last_reported":1717614358,"current_range_meters":400,"station_id":"ce4bgh92rcd13ifvqb50","pricing_plan_id":"cebpf4jnsgd1na2vs0mg"},{"bike_id":"e01f4862-9735-429c-89f0-fa949dc55461","system_id":"levelo_inurba_marseille","lat":43.298037,"lon":5.381066,"is_reserved":false,"is_disabled":false,"rental_uris":{"android":"levelo://app?vid=e01f4862-9735-429c-89f0-fa949dc55461","ios":"levelo://app?vid=e01f4862-9735-429c-89f0-fa949dc55461"},"vehicle_type_id":"4","last_reported":1717614358,"current_range_meters":1600,"station_id":"ce4bgip2rcd13ifvqbb0","pricing_plan_id":"cebpf4jnsgd1na2vs0mg"},{"bike_id":"2c26e1c5-5a52-449b-aa31-08db36c4be6b","system_id":"levelo_inurba_marseille","lat":43.295748,"lon":5.37522,"is_reserved":false,"is_disabled":false,"rental_uris":{"android":"levelo://app?vid=2c26e1c5-5a52-449b-aa31-08db36c4be6b","ios":"levelo://app?vid=2c26e1c5-5a52-449b-aa31-08db36c4be6b"},"vehicle_type_id":"4","last_reported":1717614358,"current_range_meters":15200,"station_id":"ce4bgh92rcd13ifvqb50","pricing_plan_id":"cebpf4jnsgd1na2vs0mg"},{"bike_id":"26b35fd8-6b1d-4dd6-b60a-3485c7064047","system_id":"levelo_inurba_marseille","lat":43.295748,"lon":5.37522,"is_reserved":false,"is_disabled":false,"rental_uris":{"android":"levelo://app?vid=26b35fd8-6b1d-4dd6-b60a-3485c7064047","ios":"levelo://app?vid=26b35fd8-6b1d-4dd6-b60a-3485c7064047"},"vehicle_type_id":"4","last_reported":1717614358,"current_range_meters":26800,"station_id":"ce4bgh92rcd13ifvqb50","pricing_plan_id":"cebpf4jnsgd1na2vs0mg"},{"bike_id":"bc446fb2-ecd1-4c2b-a57e-6e8f1f1596bf","system_id":"levelo_inurba_marseille","lat":43.295279,"lon":5.375048,"is_reserved":false,"is_disabled":false,"rental_uris":{"android":"levelo://app?vid=bc446fb2-ecd1-4c2b-a57e-6e8f1f1596bf","ios":"levelo://app?vid=bc446fb2-ecd1-4c2b-a57e-6e8f1f1596bf"},"vehicle_type_id":"4","last_reported":1717614358,"current_range_meters":0,"station_id":"ce4bgkp2rcd13ifvqbmg","pricing_plan_id":"cebpf4jnsgd1na2vs0mg"},{"bike_id":"ca35668b-d9d7-4d6e-a629-6df175ce6952","system_id":"levelo_inurba_marseille","lat":43.295279,"lon":5.375048,"is_reserved":false,"is_disabled":false,"rental_uris":{"android":"levelo://app?vid=ca35668b-d9d7-4d6e-a629-6df175ce6952","ios":"levelo://app?vid=ca35668b-d9d7-4d6e-a629-6df175ce6952"},"vehicle_type_id":"4","last_reported":1717614358,"current_range_meters":8400,"station_id":"ce4bgkp2rcd13ifvqbmg","pricing_plan_id":"cebpf4jnsgd1na2vs0mg"},{"bike_id":"6bde5e88-f6c5-48da-a57d-f5fd0bc87358","system_id":"levelo_inurba_marseille","lat":43.299707,"lon":5.384859,"is_reserved":false,"is_disabled":false,"rental_uris":{"android":"levelo://app?vid=6bde5e88-f6c5-48da-a57d-f5fd0bc87358","ios":"levelo://app?vid=6bde5e88-f6c5-48da-a57d-f5fd0bc87358"},"vehicle_type_id":"4","last_reported":1717614358,"current_range_meters":30000,"station_id":"ce4bgj92rcd13ifvqbd0","pricing_plan_id":"cebpf4jnsgd1na2vs0mg"},{"bike_id":"25be0d5f-2675-4200-9b62-616eddad7edb","system_id":"levelo_inurba_marseille","lat":43.299707,"lon":5.384859,"is_reserved":false,"is_disabled":false,"rental_uris":{"android":"levelo://app?vid=25be0d5f-2675-4200-9b62-616eddad7edb","ios":"levelo://app?vid=25be0d5f-2675-4200-9b62-616eddad7edb"},"vehicle_type_id":"4","last_reported":1717614358,"current_range_meters":22000,"station_id":"ce4bgj92rcd13ifvqbd0","pricing_plan_id":"cebpf4jnsgd1na2vs0mg"},{"bike_id":"2169a5b2-5b99-484a-b45d-0338753d772f","system_id":"levelo_inurba_marseille","lat":43.295279,"lon":5.375048,"is_reserved":false,"is_disabled":false,"rental_uris":{"android":"levelo://app?vid=2169a5b2-5b99-484a-b45d-0338753d772f","ios":"levelo://app?vid=2169a5b2-5b99-484a-b45d-0338753d772f"},"vehicle_type_id":"4","last_reported":1717614358,"current_range_meters":15200,"station_id":"ce4bgkp2rcd13ifvqbmg","pricing_plan_id":"cebpf4jnsgd1na2vs0mg"},{"bike_id":"b1d4cc1e-2472-4dbd-a315-eea89030a345","system_id":"levelo_inurba_marseille","lat":43.299707,"lon":5.384859,"is_reserved":false,"is_disabled":false,"rental_uris":{"android":"levelo://app?vid=b1d4cc1e-2472-4dbd-a315-eea89030a345","ios":"levelo://app?vid=b1d4cc1e-2472-4dbd-a315-eea89030a345"},"vehicle_type_id":"4","last_reported":1717614358,"current_range_meters":4800,"station_id":"ce4bgj92rcd13ifvqbd0","pricing_plan_id":"cebpf4jnsgd1na2vs0mg"},{"bike_id":"3fbe1a0a-a5d8-4cf7-a874-23ea691fc932","system_id":"levelo_inurba_marseille","lat":43.299707,"lon":5.384859,"is_reserved":false,"is_disabled":false,"rental_uris":{"android":"levelo://app?vid=3fbe1a0a-a5d8-4cf7-a874-23ea691fc932","ios":"levelo://app?vid=3fbe1a0a-a5d8-4cf7-a874-23ea691fc932"},"vehicle_type_id":"4","last_reported":1717614358,"current_range_meters":0,"station_id":"ce4bgj92rcd13ifvqbd0","pricing_plan_id":"cebpf4jnsgd1na2vs0mg"},{"bike_id":"67a91b2d-3ec1-4cde-a772-ec986411f885","system_id":"levelo_inurba_marseille","lat":43.295279,"lon":5.375048,"is_reserved":false,"is_disabled":false,"rental_uris":{"android":"levelo://app?vid=67a91b2d-3ec1-4cde-a772-ec986411f885","ios":"levelo://app?vid=67a91b2d-3ec1-4cde-a772-ec986411f885"},"vehicle_type_id":"4","last_reported":1717614358,"current_range_meters":12400,"station_id":"ce4bgkp2rcd13ifvqbmg","pricing_plan_id":"cebpf4jnsgd1na2vs0mg"},{"bike_id":"9f212eb3-87a7-4d4e-9e56-55e862204414","system_id":"levelo_inurba_marseille","lat":43.29971,"lon":5.38488,"is_reserved":false,"is_disabled":false,"rental_uris":{"android":"levelo://app?vid=9f212eb3-87a7-4d4e-9e56-55e862204414","ios":"levelo://app?vid=9f212eb3-87a7-4d4e-9e56-55e862204414"},"vehicle_type_id":"4","last_reported":1717614358,"current_range_meters":0,"station_id":"ce4bgj92rcd13ifvqbd0","pricing_plan_id":"cebpf4jnsgd1na2vs0mg"},{"bike_id":"c3436055-acc4-4a26-8819-ad8073395655","system_id":"levelo_inurba_marseille","lat":43.29972,"lon":5.38493,"is_reserved":false,"is_disabled":false,"rental_uris":{"android":"levelo://app?vid=c3436055-acc4-4a26-8819-ad8073395655","ios":"levelo://app?vid=c3436055-acc4-4a26-8819-ad8073395655"},"vehicle_type_id":"4","last_reported":1717614358,"current_range_meters":0,"station_id":"ce4bgj92rcd13ifvqbd0","pricing_plan_id":"cebpf4jnsgd1na2vs0mg"},{"bike_id":"ee6cb1d9-86d6-4d6c-8763-77a898ca32f8","system_id":"levelo_inurba_marseille","lat":43.2997,"lon":5.38494,"is_reserved":false,"is_disabled":false,"rental_uris":{"android":"levelo://app?vid=ee6cb1d9-86d6-4d6c-8763-77a898ca32f8","ios":"levelo://app?vid=ee6cb1d9-86d6-4d6c-8763-77a898ca32f8"},"vehicle_type_id":"4","last_reported":1717614358,"current_range_meters":0,"station_id":"ce4bgj92rcd13ifvqbd0","pricing_plan_id":"cebpf4jnsgd1na2vs0mg"},{"bike_id":"6e0f16a4-4701-4407-9ed3-cf2df8ca6646","system_id":"levelo_inurba_marseille","lat":43.29971,"lon":5.38497,"is_reserved":false,"is_disabled":false,"rental_uris":{"android":"levelo://app?vid=6e0f16a4-4701-4407-9ed3-cf2df8ca6646","ios":"levelo://app?vid=6e0f16a4-4701-4407-9ed3-cf2df8ca6646"},"vehicle_type_id":"4","last_reported":1717614358,"current_range_meters":23200,"station_id":"ce4bgj92rcd13ifvqbd0","pricing_plan_id":"cebpf4jnsgd1na2vs0mg"},{"bike_id":"aca8f1b0-daa9-4a8d-8ef5-550bde3ba06f","system_id":"levelo_inurba_marseille","lat":43.2997,"lon":5.38498,"is_reserved":false,"is_disabled":false,"rental_uris":{"android":"levelo://app?vid=aca8f1b0-daa9-4a8d-8ef5-550bde3ba06f","ios":"levelo://app?vid=aca8f1b0-daa9-4a8d-8ef5-550bde3ba06f"},"vehicle_type_id":"4","last_reported":1717614358,"current_range_meters":4400,"station_id":"ce4bgj92rcd13ifvqbd0","pricing_plan_id":"cebpf4jnsgd1na2vs0mg"},{"bike_id":"f6c013b4-0d03-4039-8256-cd63eb02a99e","system_id":"levelo_inurba_marseille","lat":43.295279,"lon":5.375048,"is_reserved":false,"is_disabled":false,"rental_uris":{"android":"levelo://app?vid=f6c013b4-0d03-4039-8256-cd63eb02a99e","ios":"levelo://app?vid=f6c013b4-0d03-4039-8256-cd63eb02a99e"},"vehicle_type_id":"4","last_reported":1717614358,"current_range_meters":0,"station_id":"ce4bgkp2rcd13ifvqbmg","pricing_plan_id":"cebpf4jnsgd1na2vs0mg"},{"bike_id":"840dc559-6875-4f19-87f0-70eba265f56a","system_id":"levelo_inurba_marseille","lat":43.299724,"lon":5.384848,"is_reserved":false,"is_disabled":false,"rental_uris":{"android":"levelo://app?vid=840dc559-6875-4f19-87f0-70eba265f56a","ios":"levelo://app?vid=840dc559-6875-4f19-87f0-70eba265f56a"},"vehicle_type_id":"4","last_reported":1717614358,"current_range_meters":7600,"station_id":"ce4bgj92rcd13ifvqbd0","pricing_plan_id":"cebpf4jnsgd1na2vs0mg"},{"bike_id":"6df4cb6d-ff77-40ea-9301-0ee20c7d6e5c","system_id":"levelo_inurba_marseille","lat":43.29602,"lon":5.381084,"is_reserved":false,"is_disabled":false,"rental_uris":{"android":"levelo://app?vid=6df4cb6d-ff77-40ea-9301-0ee20c7d6e5c","ios":"levelo://app?vid=6df4cb6d-ff77-40ea-9301-0ee20c7d6e5c"},"vehicle_type_id":"4","last_reported":1717614358,"current_range_meters":23200,"station_id":"ce4bgl12rcd13ifvqbo0","pricing_plan_id":"cebpf4jnsgd1na2vs0mg"},{"bike_id":"8b2332cf-e3aa-439f-a353-c01116b3f783","system_id":"levelo_inurba_marseille","lat":43.323723,"lon":5.388753,"is_reserved":false,"is_disabled":false,"rental_uris":{"android":"levelo://app?vid=8b2332cf-e3aa-439f-a353-c01116b3f783","ios":"levelo://app?vid=8b2332cf-e3aa-439f-a353-c01116b3f783"},"vehicle_type_id":"4","last_reported":1717614358,"current_range_meters":0,"station_id":"ce4bhqp2rcd13ifvqhog","pricing_plan_id":"cebpf4jnsgd1na2vs0mg"},{"bike_id":"171a8a28-3d10-4636-8ae9-10adbfd08ce3","system_id":"levelo_inurba_marseille","lat":43.32367,"lon":5.388836,"is_reserved":false,"is_disabled":false,"rental_uris":{"android":"levelo://app?vid=171a8a28-3d10-4636-8ae9-10adbfd08ce3","ios":"levelo://app?vid=171a8a28-3d10-4636-8ae9-10adbfd08ce3"},"vehicle_type_id":"4","last_reported":1717614358,"current_range_meters":7200,"station_id":"ce4bhqp2rcd13ifvqhog","pricing_plan_id":"cebpf4jnsgd1na2vs0mg"},{"bike_id":"cd4f2c30-6a3e-445d-ad60-9c4115ab446a","system_id":"levelo_inurba_marseille","lat":43.32365,"lon":5.38886,"is_reserved":false,"is_disabled":false,"rental_uris":{"android":"levelo://app?vid=cd4f2c30-6a3e-445d-ad60-9c4115ab446a","ios":"levelo://app?vid=cd4f2c30-6a3e-445d-ad60-9c4115ab446a"},"vehicle_type_id":"4","last_reported":1717614358,"current_range_meters":0,"station_id":"ce4bhqp2rcd13ifvqhog","pricing_plan_id":"cebpf4jnsgd1na2vs0mg"},{"bike_id":"57929f86-2da1-4dfa-a4ff-8ed08ea7dea4","system_id":"levelo_inurba_marseille","lat":43.32367,"lon":5.388836,"is_reserved":false,"is_disabled":false,"rental_uris":{"android":"levelo://app?vid=57929f86-2da1-4dfa-a4ff-8ed08ea7dea4","ios":"levelo://app?vid=57929f86-2da1-4dfa-a4ff-8ed08ea7dea4"},"vehicle_type_id":"4","last_reported":1717614358,"current_range_meters":1600,"station_id":"ce4bhqp2rcd13ifvqhog","pricing_plan_id":"cebpf4jnsgd1na2vs0mg"},{"bike_id":"061f6b97-d1e7-4bb5-81c2-0124702f9ed0","system_id":"levelo_inurba_marseille","lat":43.293009,"lon":5.374584,"is_reserved":false,"is_disabled":false,"rental_uris":{"android":"levelo://app?vid=061f6b97-d1e7-4bb5-81c2-0124702f9ed0","ios":"levelo://app?vid=061f6b97-d1e7-4bb5-81c2-0124702f9ed0"},"vehicle_type_id":"4","last_reported":1717614358,"current_range_meters":0,"station_id":"ce4bgi12rcd13ifvqb70","pricing_plan_id":"cebpf4jnsgd1na2vs0mg"},{"bike_id":"dd63e371-eeb9-42b3-8867-dd7d6b8f2cd7","system_id":"levelo_inurba_marseille","lat":43.29602,"lon":5.381084,"is_reserved":false,"is_disabled":false,"rental_uris":{"android":"levelo://app?vid=dd63e371-eeb9-42b3-8867-dd7d6b8f2cd7","ios":"levelo://app?vid=dd63e371-eeb9-42b3-8867-dd7d6b8f2cd7"},"vehicle_type_id":"4","last_reported":1717614358,"current_range_meters":29600,"station_id":"ce4bgl12rcd13ifvqbo0","pricing_plan_id":"cebpf4jnsgd1na2vs0mg"},{"bike_id":"c177085d-9ca0-4ead-8bb2-079a204e5735","system_id":"levelo_inurba_marseille","lat":43.293259,"lon":5.371586,"is_reserved":false,"is_disabled":false,"rental_uris":{"android":"levelo://app?vid=c177085d-9ca0-4ead-8bb2-079a204e5735","ios":"levelo://app?vid=c177085d-9ca0-4ead-8bb2-079a204e5735"},"vehicle_type_id":"4","last_reported":1717614358,"current_range_meters":27200,"station_id":"ce4bgh92rcd13ifvqb40","pricing_plan_id":"cebpf4jnsgd1na2vs0mg"},{"bike_id":"ade68a43-b5be-4e1a-94e2-1f256a9e65b8","system_id":"levelo_inurba_marseille","lat":43.29601,"lon":5.381084,"is_reserved":false,"is_disabled":false,"rental_uris":{"android":"levelo://app?vid=ade68a43-b5be-4e1a-94e2-1f256a9e65b8","ios":"levelo://app?vid=ade68a43-b5be-4e1a-94e2-1f256a9e65b8"},"vehicle_type_id":"4","last_reported":1717614358,"current_range_meters":0,"station_id":"ce4bgl12rcd13ifvqbo0","pricing_plan_id":"cebpf4jnsgd1na2vs0mg"},{"bike_id":"b78ed805-2365-4a81-89ea-b88d586dd5b1","system_id":"levelo_inurba_marseille","lat":43.293259,"lon":5.371586,"is_reserved":false,"is_disabled":false,"rental_uris":{"android":"levelo://app?vid=b78ed805-2365-4a81-89ea-b88d586dd5b1","ios":"levelo://app?vid=b78ed805-2365-4a81-89ea-b88d586dd5b1"},"vehicle_type_id":"4","last_reported":1717614358,"current_range_meters":4800,"station_id":"ce4bgh92rcd13ifvqb40","pricing_plan_id":"cebpf4jnsgd1na2vs0mg"},{"bike_id":"857e3c06-4ceb-4676-9a31-c25ae765cccc","system_id":"levelo_inurba_marseille","lat":43.292749,"lon":5.368402,"is_reserved":false,"is_disabled":false,"rental_uris":{"android":"levelo://app?vid=857e3c06-4ceb-4676-9a31-c25ae765cccc","ios":"levelo://app?vid=857e3c06-4ceb-4676-9a31-c25ae765cccc"},"vehicle_type_id":"4","last_reported":1717614358,"current_range_meters":0,"station_id":"ce4bhbp2rcd13ifvqesg","pricing_plan_id":"cebpf4jnsgd1na2vs0mg"},{"bike_id":"d766cdad-ef4e-408c-8578-633d242ba390","system_id":"levelo_inurba_marseille","lat":43.293249,"lon":5.371578,"is_reserved":false,"is_disabled":false,"rental_uris":{"android":"levelo://app?vid=d766cdad-ef4e-408c-8578-633d242ba390","ios":"levelo://app?vid=d766cdad-ef4e-408c-8578-633d242ba390"},"vehicle_type_id":"4","last_reported":1717614358,"current_range_meters":0,"station_id":"ce4bgh92rcd13ifvqb40","pricing_plan_id":"cebpf4jnsgd1na2vs0mg"},{"bike_id":"ffe55f97-63dd-4200-a246-126e646d9fac","system_id":"levelo_inurba_marseille","lat":43.292792,"lon":5.368376,"is_reserved":false,"is_disabled":false,"rental_uris":{"android":"levelo://app?vid=ffe55f97-63dd-4200-a246-126e646d9fac","ios":"levelo://app?vid=ffe55f97-63dd-4200-a246-126e646d9fac"},"vehicle_type_id":"4","last_reported":1717614358,"current_range_meters":17600,"station_id":"ce4bhbp2rcd13ifvqesg","pricing_plan_id":"cebpf4jnsgd1na2vs0mg"},{"bike_id":"84fb3909-0210-4f59-bffd-a6be66ec21da","system_id":"levelo_inurba_marseille","lat":43.293259,"lon":5.371586,"is_reserved":false,"is_disabled":false,"rental_uris":{"android":"levelo://app?vid=84fb3909-0210-4f59-bffd-a6be66ec21da","ios":"levelo://app?vid=84fb3909-0210-4f59-bffd-a6be66ec21da"},"vehicle_type_id":"4","last_reported":1717614358,"current_range_meters":11200,"station_id":"ce4bgh92rcd13ifvqb40","pricing_plan_id":"cebpf4jnsgd1na2vs0mg"},{"bike_id":"0c3960b2-26a1-4f24-ad43-6960f1802382","system_id":"levelo_inurba_marseille","lat":43.30594,"lon":5.39348,"is_reserved":false,"is_disabled":false,"rental_uris":{"android":"levelo://app?vid=0c3960b2-26a1-4f24-ad43-6960f1802382","ios":"levelo://app?vid=0c3960b2-26a1-4f24-ad43-6960f1802382"},"vehicle_type_id":"4","last_reported":1717614358,"current_range_meters":0,"station_id":"ce4bh0p2rcd13ifvqd80","pricing_plan_id":"cebpf4jnsgd1na2vs0mg"},{"bike_id":"d8cdad33-e549-49d7-a481-18e4866b5f70","system_id":"levelo_inurba_marseille","lat":43.305994,"lon":5.393687,"is_reserved":false,"is_disabled":false,"rental_uris":{"android":"levelo://app?vid=d8cdad33-e549-49d7-a481-18e4866b5f70","ios":"levelo://app?vid=d8cdad33-e549-49d7-a481-18e4866b5f70"},"vehicle_type_id":"4","last_reported":1717614358,"current_range_meters":30400,"station_id":"ce4bh0p2rcd13ifvqd80","pricing_plan_id":"cebpf4jnsgd1na2vs0mg"},{"bike_id":"f6c06e07-5658-4de0-af0c-34c3b40bcddb","system_id":"levelo_inurba_marseille","lat":43.293009,"lon":5.374584,"is_reserved":false,"is_disabled":false,"rental_uris":{"android":"levelo://app?vid=f6c06e07-5658-4de0-af0c-34c3b40bcddb","ios":"levelo://app?vid=f6c06e07-5658-4de0-af0c-34c3b40bcddb"},"vehicle_type_id":"4","last_reported":1717614358,"current_range_meters":2800,"station_id":"ce4bgi12rcd13ifvqb70","pricing_plan_id":"cebpf4jnsgd1na2vs0mg"},{"bike_id":"b48264dc-454e-43eb-8910-d233a518fc92","system_id":"levelo_inurba_marseille","lat":43.305994,"lon":5.393687,"is_reserved":false,"is_disabled":false,"rental_uris":{"android":"levelo://app?vid=b48264dc-454e-43eb-8910-d233a518fc92","ios":"levelo://app?vid=b48264dc-454e-43eb-8910-d233a518fc92"},"vehicle_type_id":"4","last_reported":1717614358,"current_range_meters":26000,"station_id":"ce4bh0p2rcd13ifvqd80","pricing_plan_id":"cebpf4jnsgd1na2vs0mg"},{"bike_id":"c85797e3-0452-45b1-a2ac-d4b7abbcb1d6","system_id":"levelo_inurba_marseille","lat":43.302992,"lon":5.392136,"is_reserved":false,"is_disabled":false,"rental_uris":{"android":"levelo://app?vid=c85797e3-0452-45b1-a2ac-d4b7abbcb1d6","ios":"levelo://app?vid=c85797e3-0452-45b1-a2ac-d4b7abbcb1d6"},"vehicle_type_id":"4","last_reported":1717614358,"current_range_meters":28400,"station_id":"ce4bgkh2rcd13ifvqbk0","pricing_plan_id":"cebpf4jnsgd1na2vs0mg"},{"bike_id":"84489e72-85e8-47cd-8767-bfd3ce74f872","system_id":"levelo_inurba_marseille","lat":43.30337,"lon":5.39252,"is_reserved":false,"is_disabled":false,"rental_uris":{"android":"levelo://app?vid=84489e72-85e8-47cd-8767-bfd3ce74f872","ios":"levelo://app?vid=84489e72-85e8-47cd-8767-bfd3ce74f872"},"vehicle_type_id":"4","last_reported":1717614358,"current_range_meters":800,"station_id":"","pricing_plan_id":"cebpf4jnsgd1na2vs0mg"},{"bike_id":"2b5646ab-4bb7-40ac-acc8-b2606d7df6f1","system_id":"levelo_inurba_marseille","lat":43.30085,"lon":5.390856,"is_reserved":false,"is_disabled":false,"rental_uris":{"android":"levelo://app?vid=2b5646ab-4bb7-40ac-acc8-b2606d7df6f1","ios":"levelo://app?vid=2b5646ab-4bb7-40ac-acc8-b2606d7df6f1"},"vehicle_type_id":"4","last_reported":1717614358,"current_range_meters":31200,"station_id":"ce4bh192rcd13ifvqdb0","pricing_plan_id":"cebpf4jnsgd1na2vs0mg"},{"bike_id":"55cbef4b-2f63-4efc-8eec-a7c35ed8bb29","system_id":"levelo_inurba_marseille","lat":43.2923,"lon":5.36057,"is_reserved":false,"is_disabled":false,"rental_uris":{"android":"levelo://app?vid=55cbef4b-2f63-4efc-8eec-a7c35ed8bb29","ios":"levelo://app?vid=55cbef4b-2f63-4efc-8eec-a7c35ed8bb29"},"vehicle_type_id":"4","last_reported":1717614358,"current_range_meters":0,"station_id":"ce4bhbh2rcd13ifvqeqg","pricing_plan_id":"cebpf4jnsgd1na2vs0mg"},{"bike_id":"17f5130f-41f8-4586-af5d-45922bbff8f1","system_id":"levelo_inurba_marseille","lat":43.30085,"lon":5.390856,"is_reserved":false,"is_disabled":false,"rental_uris":{"android":"levelo://app?vid=17f5130f-41f8-4586-af5d-45922bbff8f1","ios":"levelo://app?vid=17f5130f-41f8-4586-af5d-45922bbff8f1"},"vehicle_type_id":"4","last_reported":1717614358,"current_range_meters":27600,"station_id":"ce4bh192rcd13ifvqdb0","pricing_plan_id":"cebpf4jnsgd1na2vs0mg"},{"bike_id":"317be1f0-8c50-43a9-a4bc-f1d00c04d972","system_id":"levelo_inurba_marseille","lat":43.298764,"lon":5.388973,"is_reserved":false,"is_disabled":false,"rental_uris":{"android":"levelo://app?vid=317be1f0-8c50-43a9-a4bc-f1d00c04d972","ios":"levelo://app?vid=317be1f0-8c50-43a9-a4bc-f1d00c04d972"},"vehicle_type_id":"4","last_reported":1717614358,"current_range_meters":19200,"station_id":"ce4bh392rcd13ifvqdl0","pricing_plan_id":"cebpf4jnsgd1na2vs0mg"},{"bike_id":"29bccfaf-5814-4383-8221-d0ba4ede9706","system_id":"levelo_inurba_marseille","lat":43.29271,"lon":5.37632,"is_reserved":false,"is_disabled":false,"rental_uris":{"android":"levelo://app?vid=29bccfaf-5814-4383-8221-d0ba4ede9706","ios":"levelo://app?vid=29bccfaf-5814-4383-8221-d0ba4ede9706"},"vehicle_type_id":"4","last_reported":1717614358,"current_range_meters":4800,"station_id":"","pricing_plan_id":"cebpf4jnsgd1na2vs0mg"},{"bike_id":"9edc09c4-c63a-421b-8eb5-a679f3542796","system_id":"levelo_inurba_marseille","lat":43.291671,"lon":5.371575,"is_reserved":false,"is_disabled":false,"rental_uris":{"android":"levelo://app?vid=9edc09c4-c63a-421b-8eb5-a679f3542796","ios":"levelo://app?vid=9edc09c4-c63a-421b-8eb5-a679f3542796"},"vehicle_type_id":"4","last_reported":1717614358,"current_range_meters":0,"station_id":"ce4bha92rcd13ifvqeh0","pricing_plan_id":"cebpf4jnsgd1na2vs0mg"},{"bike_id":"e912c3c3-1e03-466c-999d-b29eaa3723c8","system_id":"levelo_inurba_marseille","lat":43.291675,"lon":5.371583,"is_reserved":false,"is_disabled":false,"rental_uris":{"android":"levelo://app?vid=e912c3c3-1e03-466c-999d-b29eaa3723c8","ios":"levelo://app?vid=e912c3c3-1e03-466c-999d-b29eaa3723c8"},"vehicle_type_id":"4","last_reported":1717614358,"current_range_meters":0,"station_id":"ce4bha92rcd13ifvqeh0","pricing_plan_id":"cebpf4jnsgd1na2vs0mg"},{"bike_id":"b7a7cc30-f0db-4631-b49e-aca831b24076","system_id":"levelo_inurba_marseille","lat":43.298764,"lon":5.388973,"is_reserved":false,"is_disabled":false,"rental_uris":{"android":"levelo://app?vid=b7a7cc30-f0db-4631-b49e-aca831b24076","ios":"levelo://app?vid=b7a7cc30-f0db-4631-b49e-aca831b24076"},"vehicle_type_id":"4","last_reported":1717614358,"current_range_meters":9200,"station_id":"ce4bh392rcd13ifvqdl0","pricing_plan_id":"cebpf4jnsgd1na2vs0mg"},{"bike_id":"714bec18-0734-491c-8bb6-b83b441eba49","system_id":"levelo_inurba_marseille","lat":43.309047,"lon":5.396551,"is_reserved":false,"is_disabled":false,"rental_uris":{"android":"levelo://app?vid=714bec18-0734-491c-8bb6-b83b441eba49","ios":"levelo://app?vid=714bec18-0734-491c-8bb6-b83b441eba49"},"vehicle_type_id":"4","last_reported":1717614358,"current_range_meters":0,"station_id":"ce4bh012rcd13ifvqcv0","pricing_plan_id":"cebpf4jnsgd1na2vs0mg"},{"bike_id":"8519fce8-cb52-43ff-8bd6-f591f19909f3","system_id":"levelo_inurba_marseille","lat":43.309047,"lon":5.396551,"is_reserved":false,"is_disabled":false,"rental_uris":{"android":"levelo://app?vid=8519fce8-cb52-43ff-8bd6-f591f19909f3","ios":"levelo://app?vid=8519fce8-cb52-43ff-8bd6-f591f19909f3"},"vehicle_type_id":"4","last_reported":1717614358,"current_range_meters":400,"station_id":"ce4bh012rcd13ifvqcv0","pricing_plan_id":"cebpf4jnsgd1na2vs0mg"},{"bike_id":"832b065e-7a37-4b56-926d-12ece093a763","system_id":"levelo_inurba_marseille","lat":43.30882,"lon":5.39628,"is_reserved":false,"is_disabled":false,"rental_uris":{"android":"levelo://app?vid=832b065e-7a37-4b56-926d-12ece093a763","ios":"levelo://app?vid=832b065e-7a37-4b56-926d-12ece093a763"},"vehicle_type_id":"4","last_reported":1717614358,"current_range_meters":0,"station_id":"ce4bh012rcd13ifvqcv0","pricing_plan_id":"cebpf4jnsgd1na2vs0mg"},{"bike_id":"1e66a96a-e34b-4977-9586-91aac9b22b15","system_id":"levelo_inurba_marseille","lat":43.291994,"lon":5.357886,"is_reserved":false,"is_disabled":false,"rental_uris":{"android":"levelo://app?vid=1e66a96a-e34b-4977-9586-91aac9b22b15","ios":"levelo://app?vid=1e66a96a-e34b-4977-9586-91aac9b22b15"},"vehicle_type_id":"4","last_reported":1717614358,"current_range_meters":0,"station_id":"ce4bhb12rcd13ifvqel0","pricing_plan_id":"cebpf4jnsgd1na2vs0mg"},{"bike_id":"02687933-f36a-400b-94f0-e183789667d2","system_id":"levelo_inurba_marseille","lat":43.309038,"lon":5.396546,"is_reserved":false,"is_disabled":false,"rental_uris":{"android":"levelo://app?vid=02687933-f36a-400b-94f0-e183789667d2","ios":"levelo://app?vid=02687933-f36a-400b-94f0-e183789667d2"},"vehicle_type_id":"4","last_reported":1717614358,"current_range_meters":16000,"station_id":"ce4bh012rcd13ifvqcv0","pricing_plan_id":"cebpf4jnsgd1na2vs0mg"},{"bike_id":"c712651c-872d-4468-a180-fe94131b6c7b","system_id":"levelo_inurba_marseille","lat":43.309038,"lon":5.396546,"is_reserved":false,"is_disabled":false,"rental_uris":{"android":"levelo://app?vid=c712651c-872d-4468-a180-fe94131b6c7b","ios":"levelo://app?vid=c712651c-872d-4468-a180-fe94131b6c7b"},"vehicle_type_id":"4","last_reported":1717614358,"current_range_meters":13600,"station_id":"ce4bh012rcd13ifvqcv0","pricing_plan_id":"cebpf4jnsgd1na2vs0mg"},{"bike_id":"ba1db10e-d401-4e8c-be1d-ce4a2fb46e42","system_id":"levelo_inurba_marseille","lat":43.313291,"lon":5.396838,"is_reserved":false,"is_disabled":false,"rental_uris":{"android":"levelo://app?vid=ba1db10e-d401-4e8c-be1d-ce4a2fb46e42","ios":"levelo://app?vid=ba1db10e-d401-4e8c-be1d-ce4a2fb46e42"},"vehicle_type_id":"4","last_reported":1717614358,"current_range_meters":24400,"station_id":"ce4bgvp2rcd13ifvqcu0","pricing_plan_id":"cebpf4jnsgd1na2vs0mg"},{"bike_id":"29cbc531-a099-4a72-8bef-b99c1f6692a8","system_id":"levelo_inurba_marseille","lat":43.313291,"lon":5.396838,"is_reserved":false,"is_disabled":false,"rental_uris":{"android":"levelo://app?vid=29cbc531-a099-4a72-8bef-b99c1f6692a8","ios":"levelo://app?vid=29cbc531-a099-4a72-8bef-b99c1f6692a8"},"vehicle_type_id":"4","last_reported":1717614358,"current_range_meters":8000,"station_id":"ce4bgvp2rcd13ifvqcu0","pricing_plan_id":"cebpf4jnsgd1na2vs0mg"},{"bike_id":"6dab6527-7644-44e1-afdf-af29337a75fd","system_id":"levelo_inurba_marseille","lat":43.309038,"lon":5.396546,"is_reserved":false,"is_disabled":false,"rental_uris":{"android":"levelo://app?vid=6dab6527-7644-44e1-afdf-af29337a75fd","ios":"levelo://app?vid=6dab6527-7644-44e1-afdf-af29337a75fd"},"vehicle_type_id":"4","last_reported":1717614358,"current_range_meters":0,"station_id":"ce4bh012rcd13ifvqcv0","pricing_plan_id":"cebpf4jnsgd1na2vs0mg"},{"bike_id":"ae314c5a-4fa1-4e58-855c-a81da2fcbd5c","system_id":"levelo_inurba_marseille","lat":43.313291,"lon":5.396838,"is_reserved":false,"is_disabled":false,"rental_uris":{"android":"levelo://app?vid=ae314c5a-4fa1-4e58-855c-a81da2fcbd5c","ios":"levelo://app?vid=ae314c5a-4fa1-4e58-855c-a81da2fcbd5c"},"vehicle_type_id":"4","last_reported":1717614358,"current_range_meters":28400,"station_id":"ce4bgvp2rcd13ifvqcu0","pricing_plan_id":"cebpf4jnsgd1na2vs0mg"},{"bike_id":"bf6d67aa-5182-4915-9775-ccd9770c8535","system_id":"levelo_inurba_marseille","lat":43.313291,"lon":5.396838,"is_reserved":false,"is_disabled":false,"rental_uris":{"android":"levelo://app?vid=bf6d67aa-5182-4915-9775-ccd9770c8535","ios":"levelo://app?vid=bf6d67aa-5182-4915-9775-ccd9770c8535"},"vehicle_type_id":"4","last_reported":1717614358,"current_range_meters":2000,"station_id":"ce4bgvp2rcd13ifvqcu0","pricing_plan_id":"cebpf4jnsgd1na2vs0mg"},{"bike_id":"453040e3-c3f6-4b77-9121-158f6fa9d946","system_id":"levelo_inurba_marseille","lat":43.309038,"lon":5.396546,"is_reserved":false,"is_disabled":false,"rental_uris":{"android":"levelo://app?vid=453040e3-c3f6-4b77-9121-158f6fa9d946","ios":"levelo://app?vid=453040e3-c3f6-4b77-9121-158f6fa9d946"},"vehicle_type_id":"4","last_reported":1717614358,"current_range_meters":6400,"station_id":"ce4bh012rcd13ifvqcv0","pricing_plan_id":"cebpf4jnsgd1na2vs0mg"},{"bike_id":"84d0d800-c5e0-4a64-887a-1643c31a5254","system_id":"levelo_inurba_marseille","lat":43.313291,"lon":5.396838,"is_reserved":false,"is_disabled":false,"rental_uris":{"android":"levelo://app?vid=84d0d800-c5e0-4a64-887a-1643c31a5254","ios":"levelo://app?vid=84d0d800-c5e0-4a64-887a-1643c31a5254"},"vehicle_type_id":"4","last_reported":1717614358,"current_range_meters":9600,"station_id":"ce4bgvp2rcd13ifvqcu0","pricing_plan_id":"cebpf4jnsgd1na2vs0mg"},{"bike_id":"4d3c82a3-c6c6-4d5c-a61a-301f82f9bcdc","system_id":"levelo_inurba_marseille","lat":43.313291,"lon":5.396838,"is_reserved":false,"is_disabled":false,"rental_uris":{"android":"levelo://app?vid=4d3c82a3-c6c6-4d5c-a61a-301f82f9bcdc","ios":"levelo://app?vid=4d3c82a3-c6c6-4d5c-a61a-301f82f9bcdc"},"vehicle_type_id":"4","last_reported":1717614358,"current_range_meters":28000,"station_id":"ce4bgvp2rcd13ifvqcu0","pricing_plan_id":"cebpf4jnsgd1na2vs0mg"},{"bike_id":"0b504bf2-6dea-4f65-86a3-8a3eabb69ca0","system_id":"levelo_inurba_marseille","lat":43.31325,"lon":5.39698,"is_reserved":false,"is_disabled":false,"rental_uris":{"android":"levelo://app?vid=0b504bf2-6dea-4f65-86a3-8a3eabb69ca0","ios":"levelo://app?vid=0b504bf2-6dea-4f65-86a3-8a3eabb69ca0"},"vehicle_type_id":"4","last_reported":1717614358,"current_range_meters":0,"station_id":"ce4bgvp2rcd13ifvqcu0","pricing_plan_id":"cebpf4jnsgd1na2vs0mg"},{"bike_id":"f2ba76f0-906f-4c77-82be-98e65cfe1d68","system_id":"levelo_inurba_marseille","lat":43.309047,"lon":5.396551,"is_reserved":false,"is_disabled":false,"rental_uris":{"android":"levelo://app?vid=f2ba76f0-906f-4c77-82be-98e65cfe1d68","ios":"levelo://app?vid=f2ba76f0-906f-4c77-82be-98e65cfe1d68"},"vehicle_type_id":"4","last_reported":1717614358,"current_range_meters":9600,"station_id":"ce4bh012rcd13ifvqcv0","pricing_plan_id":"cebpf4jnsgd1na2vs0mg"},{"bike_id":"404b2b49-3e3c-4623-a20d-d6d316c72eec","system_id":"levelo_inurba_marseille","lat":43.309047,"lon":5.396551,"is_reserved":false,"is_disabled":false,"rental_uris":{"android":"levelo://app?vid=404b2b49-3e3c-4623-a20d-d6d316c72eec","ios":"levelo://app?vid=404b2b49-3e3c-4623-a20d-d6d316c72eec"},"vehicle_type_id":"4","last_reported":1717614358,"current_range_meters":0,"station_id":"ce4bh012rcd13ifvqcv0","pricing_plan_id":"cebpf4jnsgd1na2vs0mg"},{"bike_id":"4706ebd3-bf37-4464-827e-2fd2b4df7973","system_id":"levelo_inurba_marseille","lat":43.313291,"lon":5.396838,"is_reserved":false,"is_disabled":false,"rental_uris":{"android":"levelo://app?vid=4706ebd3-bf37-4464-827e-2fd2b4df7973","ios":"levelo://app?vid=4706ebd3-bf37-4464-827e-2fd2b4df7973"},"vehicle_type_id":"4","last_reported":1717614358,"current_range_meters":12800,"station_id":"ce4bgvp2rcd13ifvqcu0","pricing_plan_id":"cebpf4jnsgd1na2vs0mg"},{"bike_id":"07423fdf-1a8f-4d0f-b39c-bd35569fb56d","system_id":"levelo_inurba_marseille","lat":43.289184,"lon":5.366408,"is_reserved":false,"is_disabled":false,"rental_uris":{"android":"levelo://app?vid=07423fdf-1a8f-4d0f-b39c-bd35569fb56d","ios":"levelo://app?vid=07423fdf-1a8f-4d0f-b39c-bd35569fb56d"},"vehicle_type_id":"4","last_reported":1717614358,"current_range_meters":0,"station_id":"ce4bhap2rcd13ifvqek0","pricing_plan_id":"cebpf4jnsgd1na2vs0mg"},{"bike_id":"abb3b6f2-3ed1-443b-b81c-242e566b920a","system_id":"levelo_inurba_marseille","lat":43.29532,"lon":5.38535,"is_reserved":false,"is_disabled":false,"rental_uris":{"android":"levelo://app?vid=abb3b6f2-3ed1-443b-b81c-242e566b920a","ios":"levelo://app?vid=abb3b6f2-3ed1-443b-b81c-242e566b920a"},"vehicle_type_id":"4","last_reported":1717614358,"current_range_meters":11600,"station_id":"ce4bgih2rcd13ifvqba0","pricing_plan_id":"cebpf4jnsgd1na2vs0mg"},{"bike_id":"32f9aa4d-569d-4ab2-9f1c-eda0a61b45ce","system_id":"levelo_inurba_marseille","lat":43.29529,"lon":5.385581,"is_reserved":false,"is_disabled":false,"rental_uris":{"android":"levelo://app?vid=32f9aa4d-569d-4ab2-9f1c-eda0a61b45ce","ios":"levelo://app?vid=32f9aa4d-569d-4ab2-9f1c-eda0a61b45ce"},"vehicle_type_id":"4","last_reported":1717614358,"current_range_meters":18800,"station_id":"ce4bgih2rcd13ifvqba0","pricing_plan_id":"cebpf4jnsgd1na2vs0mg"},{"bike_id":"4e2830da-c5df-4620-ab48-f5f7596d3076","system_id":"levelo_inurba_marseille","lat":43.29529,"lon":5.385581,"is_reserved":false,"is_disabled":false,"rental_uris":{"android":"levelo://app?vid=4e2830da-c5df-4620-ab48-f5f7596d3076","ios":"levelo://app?vid=4e2830da-c5df-4620-ab48-f5f7596d3076"},"vehicle_type_id":"4","last_reported":1717614358,"current_range_meters":28000,"station_id":"ce4bgih2rcd13ifvqba0","pricing_plan_id":"cebpf4jnsgd1na2vs0mg"},{"bike_id":"5c6dd8dd-bbf7-456c-85da-372d7054f721","system_id":"levelo_inurba_marseille","lat":43.29529,"lon":5.38541,"is_reserved":false,"is_disabled":false,"rental_uris":{"android":"levelo://app?vid=5c6dd8dd-bbf7-456c-85da-372d7054f721","ios":"levelo://app?vid=5c6dd8dd-bbf7-456c-85da-372d7054f721"},"vehicle_type_id":"4","last_reported":1717614358,"current_range_meters":400,"station_id":"ce4bgih2rcd13ifvqba0","pricing_plan_id":"cebpf4jnsgd1na2vs0mg"},{"bike_id":"0714d04c-cc4d-4851-9fd5-adaab70ef509","system_id":"levelo_inurba_marseille","lat":43.29529,"lon":5.385581,"is_reserved":false,"is_disabled":false,"rental_uris":{"android":"levelo://app?vid=0714d04c-cc4d-4851-9fd5-adaab70ef509","ios":"levelo://app?vid=0714d04c-cc4d-4851-9fd5-adaab70ef509"},"vehicle_type_id":"4","last_reported":1717614358,"current_range_meters":22800,"station_id":"ce4bgih2rcd13ifvqba0","pricing_plan_id":"cebpf4jnsgd1na2vs0mg"},{"bike_id":"02d8997d-9947-4d2b-8b09-2e1f1a4077c0","system_id":"levelo_inurba_marseille","lat":43.309047,"lon":5.396551,"is_reserved":false,"is_disabled":false,"rental_uris":{"android":"levelo://app?vid=02d8997d-9947-4d2b-8b09-2e1f1a4077c0","ios":"levelo://app?vid=02d8997d-9947-4d2b-8b09-2e1f1a4077c0"},"vehicle_type_id":"4","last_reported":1717614358,"current_range_meters":0,"station_id":"ce4bh012rcd13ifvqcv0","pricing_plan_id":"cebpf4jnsgd1na2vs0mg"},{"bike_id":"f9a62f29-e4d6-4c89-879b-67ecae7fe4d0","system_id":"levelo_inurba_marseille","lat":43.290779,"lon":5.371482,"is_reserved":false,"is_disabled":false,"rental_uris":{"android":"levelo://app?vid=f9a62f29-e4d6-4c89-879b-67ecae7fe4d0","ios":"levelo://app?vid=f9a62f29-e4d6-4c89-879b-67ecae7fe4d0"},"vehicle_type_id":"4","last_reported":1717614358,"current_range_meters":3600,"station_id":"ce4bh5p2rcd13ifvqe4g","pricing_plan_id":"cebpf4jnsgd1na2vs0mg"},{"bike_id":"e16344de-74d8-4660-bda7-8e558ab9f2d4","system_id":"levelo_inurba_marseille","lat":43.290779,"lon":5.371482,"is_reserved":false,"is_disabled":false,"rental_uris":{"android":"levelo://app?vid=e16344de-74d8-4660-bda7-8e558ab9f2d4","ios":"levelo://app?vid=e16344de-74d8-4660-bda7-8e558ab9f2d4"},"vehicle_type_id":"4","last_reported":1717614358,"current_range_meters":21600,"station_id":"ce4bh5p2rcd13ifvqe4g","pricing_plan_id":"cebpf4jnsgd1na2vs0mg"},{"bike_id":"5ef9cb1e-017c-4051-88ac-e5497d49a848","system_id":"levelo_inurba_marseille","lat":43.290779,"lon":5.371482,"is_reserved":false,"is_disabled":false,"rental_uris":{"android":"levelo://app?vid=5ef9cb1e-017c-4051-88ac-e5497d49a848","ios":"levelo://app?vid=5ef9cb1e-017c-4051-88ac-e5497d49a848"},"vehicle_type_id":"4","last_reported":1717614358,"current_range_meters":12400,"station_id":"ce4bh5p2rcd13ifvqe4g","pricing_plan_id":"cebpf4jnsgd1na2vs0mg"},{"bike_id":"291ba3af-8735-476f-83e5-dd9ea5c6130b","system_id":"levelo_inurba_marseille","lat":43.302008,"lon":5.394694,"is_reserved":false,"is_disabled":false,"rental_uris":{"android":"levelo://app?vid=291ba3af-8735-476f-83e5-dd9ea5c6130b","ios":"levelo://app?vid=291ba3af-8735-476f-83e5-dd9ea5c6130b"},"vehicle_type_id":"4","last_reported":1717614358,"current_range_meters":14800,"station_id":"ce4bh0p2rcd13ifvqd70","pricing_plan_id":"cebpf4jnsgd1na2vs0mg"},{"bike_id":"8b96b07c-a24e-42a8-8bb6-3d01ba929598","system_id":"levelo_inurba_marseille","lat":43.275625,"lon":5.384392,"is_reserved":false,"is_disabled":false,"rental_uris":{"android":"levelo://app?vid=8b96b07c-a24e-42a8-8bb6-3d01ba929598","ios":"levelo://app?vid=8b96b07c-a24e-42a8-8bb6-3d01ba929598"},"vehicle_type_id":"4","last_reported":1717614358,"current_range_meters":0,"station_id":"ce4bhh92rcd13ifvqfi0","pricing_plan_id":"cebpf4jnsgd1na2vs0mg"},{"bike_id":"a9492aff-187d-4d8b-adb1-feb76ba54010","system_id":"levelo_inurba_marseille","lat":43.28983,"lon":5.36672,"is_reserved":false,"is_disabled":false,"rental_uris":{"android":"levelo://app?vid=a9492aff-187d-4d8b-adb1-feb76ba54010","ios":"levelo://app?vid=a9492aff-187d-4d8b-adb1-feb76ba54010"},"vehicle_type_id":"4","last_reported":1717614358,"current_range_meters":14000,"station_id":"","pricing_plan_id":"cebpf4jnsgd1na2vs0mg"},{"bike_id":"98319c10-3741-44ff-9947-7c37cb44c6e3","system_id":"levelo_inurba_marseille","lat":43.294268,"lon":5.385877,"is_reserved":false,"is_disabled":false,"rental_uris":{"android":"levelo://app?vid=98319c10-3741-44ff-9947-7c37cb44c6e3","ios":"levelo://app?vid=98319c10-3741-44ff-9947-7c37cb44c6e3"},"vehicle_type_id":"4","last_reported":1717614358,"current_range_meters":10000,"station_id":"ce4bh2h2rcd13ifvqdh0","pricing_plan_id":"cebpf4jnsgd1na2vs0mg"},{"bike_id":"4400ddf3-f473-4c16-9871-4ff44c813ae8","system_id":"levelo_inurba_marseille","lat":43.29425,"lon":5.38622,"is_reserved":false,"is_disabled":false,"rental_uris":{"android":"levelo://app?vid=4400ddf3-f473-4c16-9871-4ff44c813ae8","ios":"levelo://app?vid=4400ddf3-f473-4c16-9871-4ff44c813ae8"},"vehicle_type_id":"4","last_reported":1717614358,"current_range_meters":0,"station_id":"ce4bh2h2rcd13ifvqdh0","pricing_plan_id":"cebpf4jnsgd1na2vs0mg"},{"bike_id":"d8889190-5366-40f8-8ac6-1228b0b209a6","system_id":"levelo_inurba_marseille","lat":43.294162,"lon":5.386292,"is_reserved":false,"is_disabled":false,"rental_uris":{"android":"levelo://app?vid=d8889190-5366-40f8-8ac6-1228b0b209a6","ios":"levelo://app?vid=d8889190-5366-40f8-8ac6-1228b0b209a6"},"vehicle_type_id":"4","last_reported":1717614358,"current_range_meters":26800,"station_id":"ce4bh2h2rcd13ifvqdh0","pricing_plan_id":"cebpf4jnsgd1na2vs0mg"},{"bike_id":"50cc5275-04be-4783-97aa-d862f0a83f9c","system_id":"levelo_inurba_marseille","lat":43.294162,"lon":5.386292,"is_reserved":false,"is_disabled":false,"rental_uris":{"android":"levelo://app?vid=50cc5275-04be-4783-97aa-d862f0a83f9c","ios":"levelo://app?vid=50cc5275-04be-4783-97aa-d862f0a83f9c"},"vehicle_type_id":"4","last_reported":1717614358,"current_range_meters":6000,"station_id":"ce4bh2h2rcd13ifvqdh0","pricing_plan_id":"cebpf4jnsgd1na2vs0mg"},{"bike_id":"7472958c-cc7d-4f67-a736-967a7fed3ed3","system_id":"levelo_inurba_marseille","lat":43.294162,"lon":5.386292,"is_reserved":false,"is_disabled":false,"rental_uris":{"android":"levelo://app?vid=7472958c-cc7d-4f67-a736-967a7fed3ed3","ios":"levelo://app?vid=7472958c-cc7d-4f67-a736-967a7fed3ed3"},"vehicle_type_id":"4","last_reported":1717614358,"current_range_meters":0,"station_id":"ce4bh2h2rcd13ifvqdh0","pricing_plan_id":"cebpf4jnsgd1na2vs0mg"},{"bike_id":"26ee96f1-56be-4c95-a602-b4a7b51a8401","system_id":"levelo_inurba_marseille","lat":43.29419,"lon":5.38619,"is_reserved":false,"is_disabled":false,"rental_uris":{"android":"levelo://app?vid=26ee96f1-56be-4c95-a602-b4a7b51a8401","ios":"levelo://app?vid=26ee96f1-56be-4c95-a602-b4a7b51a8401"},"vehicle_type_id":"4","last_reported":1717614358,"current_range_meters":17200,"station_id":"","pricing_plan_id":"cebpf4jnsgd1na2vs0mg"},{"bike_id":"96eb2d45-f8d4-4df4-850c-69c372b8193b","system_id":"levelo_inurba_marseille","lat":43.294162,"lon":5.386292,"is_reserved":false,"is_disabled":false,"rental_uris":{"android":"levelo://app?vid=96eb2d45-f8d4-4df4-850c-69c372b8193b","ios":"levelo://app?vid=96eb2d45-f8d4-4df4-850c-69c372b8193b"},"vehicle_type_id":"4","last_reported":1717614358,"current_range_meters":3600,"station_id":"ce4bh2h2rcd13ifvqdh0","pricing_plan_id":"cebpf4jnsgd1na2vs0mg"},{"bike_id":"5dd57fa2-e407-4e0d-89cf-c58994014b48","system_id":"levelo_inurba_marseille","lat":43.289184,"lon":5.366408,"is_reserved":false,"is_disabled":false,"rental_uris":{"android":"levelo://app?vid=5dd57fa2-e407-4e0d-89cf-c58994014b48","ios":"levelo://app?vid=5dd57fa2-e407-4e0d-89cf-c58994014b48"},"vehicle_type_id":"4","last_reported":1717614358,"current_range_meters":31200,"station_id":"ce4bhap2rcd13ifvqek0","pricing_plan_id":"cebpf4jnsgd1na2vs0mg"},{"bike_id":"e2b96b90-8e3b-4dea-a03a-f4a97c135366","system_id":"levelo_inurba_marseille","lat":43.29417,"lon":5.38619,"is_reserved":false,"is_disabled":false,"rental_uris":{"android":"levelo://app?vid=e2b96b90-8e3b-4dea-a03a-f4a97c135366","ios":"levelo://app?vid=e2b96b90-8e3b-4dea-a03a-f4a97c135366"},"vehicle_type_id":"4","last_reported":1717614358,"current_range_meters":0,"station_id":"ce4bh2h2rcd13ifvqdh0","pricing_plan_id":"cebpf4jnsgd1na2vs0mg"},{"bike_id":"bf21ff65-24d7-4f65-a205-fc7a8a839e69","system_id":"levelo_inurba_marseille","lat":43.294162,"lon":5.386292,"is_reserved":false,"is_disabled":false,"rental_uris":{"android":"levelo://app?vid=bf21ff65-24d7-4f65-a205-fc7a8a839e69","ios":"levelo://app?vid=bf21ff65-24d7-4f65-a205-fc7a8a839e69"},"vehicle_type_id":"4","last_reported":1717614358,"current_range_meters":21200,"station_id":"ce4bh2h2rcd13ifvqdh0","pricing_plan_id":"cebpf4jnsgd1na2vs0mg"},{"bike_id":"02723fa7-e884-4f2f-8ef0-22f52aa8381b","system_id":"levelo_inurba_marseille","lat":43.294162,"lon":5.386292,"is_reserved":false,"is_disabled":false,"rental_uris":{"android":"levelo://app?vid=02723fa7-e884-4f2f-8ef0-22f52aa8381b","ios":"levelo://app?vid=02723fa7-e884-4f2f-8ef0-22f52aa8381b"},"vehicle_type_id":"4","last_reported":1717614358,"current_range_meters":26000,"station_id":"ce4bh2h2rcd13ifvqdh0","pricing_plan_id":"cebpf4jnsgd1na2vs0mg"},{"bike_id":"5ee82917-ae0e-41c5-8982-2ef4b559ba06","system_id":"levelo_inurba_marseille","lat":43.294162,"lon":5.386292,"is_reserved":false,"is_disabled":false,"rental_uris":{"android":"levelo://app?vid=5ee82917-ae0e-41c5-8982-2ef4b559ba06","ios":"levelo://app?vid=5ee82917-ae0e-41c5-8982-2ef4b559ba06"},"vehicle_type_id":"4","last_reported":1717614358,"current_range_meters":5200,"station_id":"ce4bh2h2rcd13ifvqdh0","pricing_plan_id":"cebpf4jnsgd1na2vs0mg"},{"bike_id":"39596863-f292-46cf-a3b2-a60172992cff","system_id":"levelo_inurba_marseille","lat":43.29418,"lon":5.38626,"is_reserved":false,"is_disabled":false,"rental_uris":{"android":"levelo://app?vid=39596863-f292-46cf-a3b2-a60172992cff","ios":"levelo://app?vid=39596863-f292-46cf-a3b2-a60172992cff"},"vehicle_type_id":"4","last_reported":1717614358,"current_range_meters":0,"station_id":"ce4bh2h2rcd13ifvqdh0","pricing_plan_id":"cebpf4jnsgd1na2vs0mg"},{"bike_id":"0ff07837-90df-487d-ae71-03943158a2af","system_id":"levelo_inurba_marseille","lat":43.290319,"lon":5.375732,"is_reserved":false,"is_disabled":false,"rental_uris":{"android":"levelo://app?vid=0ff07837-90df-487d-ae71-03943158a2af","ios":"levelo://app?vid=0ff07837-90df-487d-ae71-03943158a2af"},"vehicle_type_id":"4","last_reported":1717614358,"current_range_meters":28000,"station_id":"ce4bh692rcd13ifvqe90","pricing_plan_id":"cebpf4jnsgd1na2vs0mg"},{"bike_id":"61563ea0-8ffd-49ac-8c07-8080c7821559","system_id":"levelo_inurba_marseille","lat":43.290319,"lon":5.375732,"is_reserved":false,"is_disabled":false,"rental_uris":{"android":"levelo://app?vid=61563ea0-8ffd-49ac-8c07-8080c7821559","ios":"levelo://app?vid=61563ea0-8ffd-49ac-8c07-8080c7821559"},"vehicle_type_id":"4","last_reported":1717614358,"current_range_meters":13200,"station_id":"ce4bh692rcd13ifvqe90","pricing_plan_id":"cebpf4jnsgd1na2vs0mg"},{"bike_id":"866f8816-1ba5-4076-851b-6da3c198da61","system_id":"levelo_inurba_marseille","lat":43.28948,"lon":5.36424,"is_reserved":false,"is_disabled":false,"rental_uris":{"android":"levelo://app?vid=866f8816-1ba5-4076-851b-6da3c198da61","ios":"levelo://app?vid=866f8816-1ba5-4076-851b-6da3c198da61"},"vehicle_type_id":"4","last_reported":1717614358,"current_range_meters":6000,"station_id":"ce4bhc92rcd13ifvqetg","pricing_plan_id":"cebpf4jnsgd1na2vs0mg"},{"bike_id":"1a8f6341-469a-4ec7-b82b-8c8c4a093eb6","system_id":"levelo_inurba_marseille","lat":43.28935,"lon":5.36627,"is_reserved":false,"is_disabled":false,"rental_uris":{"android":"levelo://app?vid=1a8f6341-469a-4ec7-b82b-8c8c4a093eb6","ios":"levelo://app?vid=1a8f6341-469a-4ec7-b82b-8c8c4a093eb6"},"vehicle_type_id":"4","last_reported":1717614358,"current_range_meters":0,"station_id":"ce4bhap2rcd13ifvqek0","pricing_plan_id":"cebpf4jnsgd1na2vs0mg"},{"bike_id":"389f157c-f384-4386-a4fe-37adf9d57024","system_id":"levelo_inurba_marseille","lat":43.289468,"lon":5.363719,"is_reserved":false,"is_disabled":false,"rental_uris":{"android":"levelo://app?vid=389f157c-f384-4386-a4fe-37adf9d57024","ios":"levelo://app?vid=389f157c-f384-4386-a4fe-37adf9d57024"},"vehicle_type_id":"4","last_reported":1717614358,"current_range_meters":20000,"station_id":"ce4bhc92rcd13ifvqetg","pricing_plan_id":"cebpf4jnsgd1na2vs0mg"},{"bike_id":"d8e82a65-aff9-4ded-8e0f-39f2b6b04667","system_id":"levelo_inurba_marseille","lat":43.293646,"lon":5.385529,"is_reserved":false,"is_disabled":false,"rental_uris":{"android":"levelo://app?vid=d8e82a65-aff9-4ded-8e0f-39f2b6b04667","ios":"levelo://app?vid=d8e82a65-aff9-4ded-8e0f-39f2b6b04667"},"vehicle_type_id":"4","last_reported":1717614358,"current_range_meters":8400,"station_id":"ce4bh612rcd13ifvqe6g","pricing_plan_id":"cebpf4jnsgd1na2vs0mg"},{"bike_id":"8097273f-a5ff-4625-8478-f4e4f1d7cf04","system_id":"levelo_inurba_marseille","lat":43.28933,"lon":5.36635,"is_reserved":false,"is_disabled":false,"rental_uris":{"android":"levelo://app?vid=8097273f-a5ff-4625-8478-f4e4f1d7cf04","ios":"levelo://app?vid=8097273f-a5ff-4625-8478-f4e4f1d7cf04"},"vehicle_type_id":"4","last_reported":1717614358,"current_range_meters":0,"station_id":"ce4bhap2rcd13ifvqek0","pricing_plan_id":"cebpf4jnsgd1na2vs0mg"},{"bike_id":"23aee96c-0a65-48a0-982b-1724965a44d0","system_id":"levelo_inurba_marseille","lat":43.292755,"lon":5.383728,"is_reserved":false,"is_disabled":false,"rental_uris":{"android":"levelo://app?vid=23aee96c-0a65-48a0-982b-1724965a44d0","ios":"levelo://app?vid=23aee96c-0a65-48a0-982b-1724965a44d0"},"vehicle_type_id":"4","last_reported":1717614358,"current_range_meters":5200,"station_id":"ce4bh692rcd13ifvqea0","pricing_plan_id":"cebpf4jnsgd1na2vs0mg"},{"bike_id":"a768faee-e9ca-454a-a7a2-8f206d22e29b","system_id":"levelo_inurba_marseille","lat":43.289468,"lon":5.363719,"is_reserved":false,"is_disabled":false,"rental_uris":{"android":"levelo://app?vid=a768faee-e9ca-454a-a7a2-8f206d22e29b","ios":"levelo://app?vid=a768faee-e9ca-454a-a7a2-8f206d22e29b"},"vehicle_type_id":"4","last_reported":1717614358,"current_range_meters":21200,"station_id":"ce4bhc92rcd13ifvqetg","pricing_plan_id":"cebpf4jnsgd1na2vs0mg"},{"bike_id":"ba339408-5c53-4336-a0ec-b798afe62f19","system_id":"levelo_inurba_marseille","lat":43.29128,"lon":5.38061,"is_reserved":false,"is_disabled":false,"rental_uris":{"android":"levelo://app?vid=ba339408-5c53-4336-a0ec-b798afe62f19","ios":"levelo://app?vid=ba339408-5c53-4336-a0ec-b798afe62f19"},"vehicle_type_id":"4","last_reported":1717614358,"current_range_meters":0,"station_id":"","pricing_plan_id":"cebpf4jnsgd1na2vs0mg"},{"bike_id":"0714f56d-6a4d-4aa7-a954-7d4b875d4467","system_id":"levelo_inurba_marseille","lat":43.292709,"lon":5.384324,"is_reserved":false,"is_disabled":false,"rental_uris":{"android":"levelo://app?vid=0714f56d-6a4d-4aa7-a954-7d4b875d4467","ios":"levelo://app?vid=0714f56d-6a4d-4aa7-a954-7d4b875d4467"},"vehicle_type_id":"4","last_reported":1717614358,"current_range_meters":0,"station_id":"ce4bh692rcd13ifvqea0","pricing_plan_id":"cebpf4jnsgd1na2vs0mg"},{"bike_id":"52c0fa84-9789-4cf4-a602-ec2aea117c15","system_id":"levelo_inurba_marseille","lat":43.292704,"lon":5.384393,"is_reserved":false,"is_disabled":false,"rental_uris":{"android":"levelo://app?vid=52c0fa84-9789-4cf4-a602-ec2aea117c15","ios":"levelo://app?vid=52c0fa84-9789-4cf4-a602-ec2aea117c15"},"vehicle_type_id":"4","last_reported":1717614358,"current_range_meters":28800,"station_id":"ce4bh692rcd13ifvqea0","pricing_plan_id":"cebpf4jnsgd1na2vs0mg"},{"bike_id":"84bc73ef-0b05-4d43-bc02-db08946dd067","system_id":"levelo_inurba_marseille","lat":43.304296,"lon":5.397513,"is_reserved":false,"is_disabled":false,"rental_uris":{"android":"levelo://app?vid=84bc73ef-0b05-4d43-bc02-db08946dd067","ios":"levelo://app?vid=84bc73ef-0b05-4d43-bc02-db08946dd067"},"vehicle_type_id":"4","last_reported":1717614358,"current_range_meters":24000,"station_id":"ce4bh092rcd13ifvqd20","pricing_plan_id":"cebpf4jnsgd1na2vs0mg"},{"bike_id":"0778650d-35c3-4c3e-b67d-7eff7f77212f","system_id":"levelo_inurba_marseille","lat":43.292642,"lon":5.384254,"is_reserved":false,"is_disabled":false,"rental_uris":{"android":"levelo://app?vid=0778650d-35c3-4c3e-b67d-7eff7f77212f","ios":"levelo://app?vid=0778650d-35c3-4c3e-b67d-7eff7f77212f"},"vehicle_type_id":"4","last_reported":1717614358,"current_range_meters":8000,"station_id":"ce4bh692rcd13ifvqea0","pricing_plan_id":"cebpf4jnsgd1na2vs0mg"},{"bike_id":"c6291561-a7d6-496f-9a86-c9a5be2527cf","system_id":"levelo_inurba_marseille","lat":43.304274,"lon":5.397513,"is_reserved":false,"is_disabled":false,"rental_uris":{"android":"levelo://app?vid=c6291561-a7d6-496f-9a86-c9a5be2527cf","ios":"levelo://app?vid=c6291561-a7d6-496f-9a86-c9a5be2527cf"},"vehicle_type_id":"4","last_reported":1717614358,"current_range_meters":2800,"station_id":"ce4bh092rcd13ifvqd20","pricing_plan_id":"cebpf4jnsgd1na2vs0mg"},{"bike_id":"d39bc9ab-5d43-46d2-98ac-2eb23538da57","system_id":"levelo_inurba_marseille","lat":43.304296,"lon":5.397513,"is_reserved":false,"is_disabled":false,"rental_uris":{"android":"levelo://app?vid=d39bc9ab-5d43-46d2-98ac-2eb23538da57","ios":"levelo://app?vid=d39bc9ab-5d43-46d2-98ac-2eb23538da57"},"vehicle_type_id":"4","last_reported":1717614358,"current_range_meters":3200,"station_id":"ce4bh092rcd13ifvqd20","pricing_plan_id":"cebpf4jnsgd1na2vs0mg"},{"bike_id":"f4087919-33ce-4e19-b0ed-5eb730101e08","system_id":"levelo_inurba_marseille","lat":43.292639,"lon":5.384414,"is_reserved":false,"is_disabled":false,"rental_uris":{"android":"levelo://app?vid=f4087919-33ce-4e19-b0ed-5eb730101e08","ios":"levelo://app?vid=f4087919-33ce-4e19-b0ed-5eb730101e08"},"vehicle_type_id":"4","last_reported":1717614358,"current_range_meters":1600,"station_id":"ce4bh692rcd13ifvqea0","pricing_plan_id":"cebpf4jnsgd1na2vs0mg"},{"bike_id":"1b41085f-606c-4d76-8cb1-bf9337cc9099","system_id":"levelo_inurba_marseille","lat":43.292642,"lon":5.384254,"is_reserved":false,"is_disabled":false,"rental_uris":{"android":"levelo://app?vid=1b41085f-606c-4d76-8cb1-bf9337cc9099","ios":"levelo://app?vid=1b41085f-606c-4d76-8cb1-bf9337cc9099"},"vehicle_type_id":"4","last_reported":1717614358,"current_range_meters":24000,"station_id":"ce4bh692rcd13ifvqea0","pricing_plan_id":"cebpf4jnsgd1na2vs0mg"},{"bike_id":"61172268-05f2-4537-a009-4c4c6bfa9611","system_id":"levelo_inurba_marseille","lat":43.292644,"lon":5.384257,"is_reserved":false,"is_disabled":false,"rental_uris":{"android":"levelo://app?vid=61172268-05f2-4537-a009-4c4c6bfa9611","ios":"levelo://app?vid=61172268-05f2-4537-a009-4c4c6bfa9611"},"vehicle_type_id":"4","last_reported":1717614358,"current_range_meters":25600,"station_id":"ce4bh692rcd13ifvqea0","pricing_plan_id":"cebpf4jnsgd1na2vs0mg"},{"bike_id":"7ab2028a-3c06-4d89-9fcf-ff6e7eedaeba","system_id":"levelo_inurba_marseille","lat":43.292644,"lon":5.384257,"is_reserved":false,"is_disabled":false,"rental_uris":{"android":"levelo://app?vid=7ab2028a-3c06-4d89-9fcf-ff6e7eedaeba","ios":"levelo://app?vid=7ab2028a-3c06-4d89-9fcf-ff6e7eedaeba"},"vehicle_type_id":"4","last_reported":1717614358,"current_range_meters":18400,"station_id":"ce4bh692rcd13ifvqea0","pricing_plan_id":"cebpf4jnsgd1na2vs0mg"},{"bike_id":"c128da18-c02b-4707-bd0f-08af43fb1f27","system_id":"levelo_inurba_marseille","lat":43.29257,"lon":5.38438,"is_reserved":false,"is_disabled":false,"rental_uris":{"android":"levelo://app?vid=c128da18-c02b-4707-bd0f-08af43fb1f27","ios":"levelo://app?vid=c128da18-c02b-4707-bd0f-08af43fb1f27"},"vehicle_type_id":"4","last_reported":1717614358,"current_range_meters":22800,"station_id":"ce4bh692rcd13ifvqea0","pricing_plan_id":"cebpf4jnsgd1na2vs0mg"},{"bike_id":"db0851a6-de7b-4f08-ae36-bc18b0dd6dd7","system_id":"levelo_inurba_marseille","lat":43.29257,"lon":5.38446,"is_reserved":false,"is_disabled":false,"rental_uris":{"android":"levelo://app?vid=db0851a6-de7b-4f08-ae36-bc18b0dd6dd7","ios":"levelo://app?vid=db0851a6-de7b-4f08-ae36-bc18b0dd6dd7"},"vehicle_type_id":"4","last_reported":1717614358,"current_range_meters":0,"station_id":"ce4bh692rcd13ifvqea0","pricing_plan_id":"cebpf4jnsgd1na2vs0mg"},{"bike_id":"4642da30-17e8-4979-9272-e0d6372379c8","system_id":"levelo_inurba_marseille","lat":43.292644,"lon":5.384257,"is_reserved":false,"is_disabled":false,"rental_uris":{"android":"levelo://app?vid=4642da30-17e8-4979-9272-e0d6372379c8","ios":"levelo://app?vid=4642da30-17e8-4979-9272-e0d6372379c8"},"vehicle_type_id":"4","last_reported":1717614358,"current_range_meters":31200,"station_id":"ce4bh692rcd13ifvqea0","pricing_plan_id":"cebpf4jnsgd1na2vs0mg"},{"bike_id":"1cb50814-faff-4e76-9846-61cd5311f81e","system_id":"levelo_inurba_marseille","lat":43.292569,"lon":5.384514,"is_reserved":false,"is_disabled":false,"rental_uris":{"android":"levelo://app?vid=1cb50814-faff-4e76-9846-61cd5311f81e","ios":"levelo://app?vid=1cb50814-faff-4e76-9846-61cd5311f81e"},"vehicle_type_id":"4","last_reported":1717614358,"current_range_meters":30400,"station_id":"ce4bh692rcd13ifvqea0","pricing_plan_id":"cebpf4jnsgd1na2vs0mg"},{"bike_id":"c131eda0-bf16-413c-ba3e-dde618971a47","system_id":"levelo_inurba_marseille","lat":43.29257,"lon":5.384544,"is_reserved":false,"is_disabled":false,"rental_uris":{"android":"levelo://app?vid=c131eda0-bf16-413c-ba3e-dde618971a47","ios":"levelo://app?vid=c131eda0-bf16-413c-ba3e-dde618971a47"},"vehicle_type_id":"4","last_reported":1717614358,"current_range_meters":4000,"station_id":"ce4bh692rcd13ifvqea0","pricing_plan_id":"cebpf4jnsgd1na2vs0mg"},{"bike_id":"2f695a8d-df52-494b-9f28-7aae615b4034","system_id":"levelo_inurba_marseille","lat":43.292642,"lon":5.384254,"is_reserved":false,"is_disabled":false,"rental_uris":{"android":"levelo://app?vid=2f695a8d-df52-494b-9f28-7aae615b4034","ios":"levelo://app?vid=2f695a8d-df52-494b-9f28-7aae615b4034"},"vehicle_type_id":"4","last_reported":1717614358,"current_range_meters":3600,"station_id":"ce4bh692rcd13ifvqea0","pricing_plan_id":"cebpf4jnsgd1na2vs0mg"},{"bike_id":"4f44e03a-b720-4936-89b2-e8e00271d557","system_id":"levelo_inurba_marseille","lat":43.290104,"lon":5.356111,"is_reserved":false,"is_disabled":false,"rental_uris":{"android":"levelo://app?vid=4f44e03a-b720-4936-89b2-e8e00271d557","ios":"levelo://app?vid=4f44e03a-b720-4936-89b2-e8e00271d557"},"vehicle_type_id":"4","last_reported":1717614358,"current_range_meters":31200,"station_id":"ce4bhb92rcd13ifvqen0","pricing_plan_id":"cebpf4jnsgd1na2vs0mg"},{"bike_id":"6de77439-afc3-4ad7-9726-a89ef5d511b8","system_id":"levelo_inurba_marseille","lat":43.2901,"lon":5.35608,"is_reserved":false,"is_disabled":false,"rental_uris":{"android":"levelo://app?vid=6de77439-afc3-4ad7-9726-a89ef5d511b8","ios":"levelo://app?vid=6de77439-afc3-4ad7-9726-a89ef5d511b8"},"vehicle_type_id":"4","last_reported":1717614358,"current_range_meters":30400,"station_id":"ce4bhb92rcd13ifvqen0","pricing_plan_id":"cebpf4jnsgd1na2vs0mg"},{"bike_id":"49a0b464-f7bf-4d21-8fc6-1d310c732b14","system_id":"levelo_inurba_marseille","lat":43.29245,"lon":5.38448,"is_reserved":false,"is_disabled":false,"rental_uris":{"android":"levelo://app?vid=49a0b464-f7bf-4d21-8fc6-1d310c732b14","ios":"levelo://app?vid=49a0b464-f7bf-4d21-8fc6-1d310c732b14"},"vehicle_type_id":"4","last_reported":1717614358,"current_range_meters":0,"station_id":"ce4bh692rcd13ifvqea0","pricing_plan_id":"cebpf4jnsgd1na2vs0mg"},{"bike_id":"e8db9689-f2c9-421b-b8ce-006d70aca10b","system_id":"levelo_inurba_marseille","lat":43.29008,"lon":5.35613,"is_reserved":false,"is_disabled":false,"rental_uris":{"android":"levelo://app?vid=e8db9689-f2c9-421b-b8ce-006d70aca10b","ios":"levelo://app?vid=e8db9689-f2c9-421b-b8ce-006d70aca10b"},"vehicle_type_id":"4","last_reported":1717614358,"current_range_meters":19600,"station_id":"ce4bhb92rcd13ifvqen0","pricing_plan_id":"cebpf4jnsgd1na2vs0mg"},{"bike_id":"8d43028b-2ca5-45e6-8ffe-ad415b6ba739","system_id":"levelo_inurba_marseille","lat":43.290091,"lon":5.356063,"is_reserved":false,"is_disabled":false,"rental_uris":{"android":"levelo://app?vid=8d43028b-2ca5-45e6-8ffe-ad415b6ba739","ios":"levelo://app?vid=8d43028b-2ca5-45e6-8ffe-ad415b6ba739"},"vehicle_type_id":"4","last_reported":1717614358,"current_range_meters":17600,"station_id":"ce4bhb92rcd13ifvqen0","pricing_plan_id":"cebpf4jnsgd1na2vs0mg"},{"bike_id":"6d03e3e9-d55f-4304-bcf3-83c81781745a","system_id":"levelo_inurba_marseille","lat":43.290057,"lon":5.356162,"is_reserved":false,"is_disabled":false,"rental_uris":{"android":"levelo://app?vid=6d03e3e9-d55f-4304-bcf3-83c81781745a","ios":"levelo://app?vid=6d03e3e9-d55f-4304-bcf3-83c81781745a"},"vehicle_type_id":"4","last_reported":1717614358,"current_range_meters":18000,"station_id":"ce4bhb92rcd13ifvqen0","pricing_plan_id":"cebpf4jnsgd1na2vs0mg"},{"bike_id":"f20994fb-6e1e-4c71-9021-7ae385e5561e","system_id":"levelo_inurba_marseille","lat":43.29006,"lon":5.35615,"is_reserved":false,"is_disabled":false,"rental_uris":{"android":"levelo://app?vid=f20994fb-6e1e-4c71-9021-7ae385e5561e","ios":"levelo://app?vid=f20994fb-6e1e-4c71-9021-7ae385e5561e"},"vehicle_type_id":"4","last_reported":1717614358,"current_range_meters":26800,"station_id":"ce4bhb92rcd13ifvqen0","pricing_plan_id":"cebpf4jnsgd1na2vs0mg"},{"bike_id":"22788671-1fd6-4c5d-8629-5b1123d1d006","system_id":"levelo_inurba_marseille","lat":43.290104,"lon":5.356111,"is_reserved":false,"is_disabled":false,"rental_uris":{"android":"levelo://app?vid=22788671-1fd6-4c5d-8629-5b1123d1d006","ios":"levelo://app?vid=22788671-1fd6-4c5d-8629-5b1123d1d006"},"vehicle_type_id":"4","last_reported":1717614358,"current_range_meters":8800,"station_id":"ce4bhb92rcd13ifvqen0","pricing_plan_id":"cebpf4jnsgd1na2vs0mg"},{"bike_id":"d642dcab-03d7-40dd-97f4-ce0d5326e6ce","system_id":"levelo_inurba_marseille","lat":43.290995,"lon":5.381361,"is_reserved":false,"is_disabled":false,"rental_uris":{"android":"levelo://app?vid=d642dcab-03d7-40dd-97f4-ce0d5326e6ce","ios":"levelo://app?vid=d642dcab-03d7-40dd-97f4-ce0d5326e6ce"},"vehicle_type_id":"4","last_reported":1717614358,"current_range_meters":7600,"station_id":"ce4bh512rcd13ifvqe2g","pricing_plan_id":"cebpf4jnsgd1na2vs0mg"},{"bike_id":"cf9d8174-5d80-436f-b947-49f15405f2c4","system_id":"levelo_inurba_marseille","lat":43.291994,"lon":5.392907,"is_reserved":false,"is_disabled":false,"rental_uris":{"android":"levelo://app?vid=cf9d8174-5d80-436f-b947-49f15405f2c4","ios":"levelo://app?vid=cf9d8174-5d80-436f-b947-49f15405f2c4"},"vehicle_type_id":"4","last_reported":1717614358,"current_range_meters":3200,"station_id":"ce4bh192rcd13ifvqdd0","pricing_plan_id":"cebpf4jnsgd1na2vs0mg"},{"bike_id":"af436dfd-b9e8-433f-aaed-78d777f9e059","system_id":"levelo_inurba_marseille","lat":43.295169,"lon":5.390426,"is_reserved":false,"is_disabled":false,"rental_uris":{"android":"levelo://app?vid=af436dfd-b9e8-433f-aaed-78d777f9e059","ios":"levelo://app?vid=af436dfd-b9e8-433f-aaed-78d777f9e059"},"vehicle_type_id":"4","last_reported":1717614358,"current_range_meters":26000,"station_id":"ce4bh3p2rcd13ifvqdp0","pricing_plan_id":"cebpf4jnsgd1na2vs0mg"},{"bike_id":"df8beee0-398e-4e4e-9191-2ee1612dfc6b","system_id":"levelo_inurba_marseille","lat":43.29787,"lon":5.39335,"is_reserved":false,"is_disabled":false,"rental_uris":{"android":"levelo://app?vid=df8beee0-398e-4e4e-9191-2ee1612dfc6b","ios":"levelo://app?vid=df8beee0-398e-4e4e-9191-2ee1612dfc6b"},"vehicle_type_id":"4","last_reported":1717614358,"current_range_meters":0,"station_id":"chh1huq6cuj3fo74tm60","pricing_plan_id":"cebpf4jnsgd1na2vs0mg"},{"bike_id":"be30c6d8-f7e7-4c40-9903-21a90f0eb87e","system_id":"levelo_inurba_marseille","lat":43.290995,"lon":5.381361,"is_reserved":false,"is_disabled":false,"rental_uris":{"android":"levelo://app?vid=be30c6d8-f7e7-4c40-9903-21a90f0eb87e","ios":"levelo://app?vid=be30c6d8-f7e7-4c40-9903-21a90f0eb87e"},"vehicle_type_id":"4","last_reported":1717614358,"current_range_meters":0,"station_id":"ce4bh512rcd13ifvqe2g","pricing_plan_id":"cebpf4jnsgd1na2vs0mg"},{"bike_id":"ba7383c9-e1fd-41e3-b664-9c4270751464","system_id":"levelo_inurba_marseille","lat":43.289741,"lon":5.378306,"is_reserved":false,"is_disabled":false,"rental_uris":{"android":"levelo://app?vid=ba7383c9-e1fd-41e3-b664-9c4270751464","ios":"levelo://app?vid=ba7383c9-e1fd-41e3-b664-9c4270751464"},"vehicle_type_id":"4","last_reported":1717614358,"current_range_meters":2800,"station_id":"ce4bh9p2rcd13ifvqed0","pricing_plan_id":"cebpf4jnsgd1na2vs0mg"},{"bike_id":"4cd27647-95fd-4d97-97db-e27078cf49e9","system_id":"levelo_inurba_marseille","lat":43.304191,"lon":5.398261,"is_reserved":false,"is_disabled":false,"rental_uris":{"android":"levelo://app?vid=4cd27647-95fd-4d97-97db-e27078cf49e9","ios":"levelo://app?vid=4cd27647-95fd-4d97-97db-e27078cf49e9"},"vehicle_type_id":"4","last_reported":1717614358,"current_range_meters":12000,"station_id":"","pricing_plan_id":"cebpf4jnsgd1na2vs0mg"},{"bike_id":"993d35b4-16e5-4a16-b575-3917ddd20cb7","system_id":"levelo_inurba_marseille","lat":43.29275,"lon":5.38616,"is_reserved":false,"is_disabled":false,"rental_uris":{"android":"levelo://app?vid=993d35b4-16e5-4a16-b575-3917ddd20cb7","ios":"levelo://app?vid=993d35b4-16e5-4a16-b575-3917ddd20cb7"},"vehicle_type_id":"4","last_reported":1717614358,"current_range_meters":8000,"station_id":"","pricing_plan_id":"cebpf4jnsgd1na2vs0mg"},{"bike_id":"69f8763e-e2b0-4ec5-bda6-ceb5746dc7ad","system_id":"levelo_inurba_marseille","lat":43.295169,"lon":5.390426,"is_reserved":false,"is_disabled":false,"rental_uris":{"android":"levelo://app?vid=69f8763e-e2b0-4ec5-bda6-ceb5746dc7ad","ios":"levelo://app?vid=69f8763e-e2b0-4ec5-bda6-ceb5746dc7ad"},"vehicle_type_id":"4","last_reported":1717614358,"current_range_meters":19600,"station_id":"ce4bh3p2rcd13ifvqdp0","pricing_plan_id":"cebpf4jnsgd1na2vs0mg"},{"bike_id":"a0b2c13a-195d-4125-891f-2453a184e626","system_id":"levelo_inurba_marseille","lat":43.33026,"lon":5.39034,"is_reserved":false,"is_disabled":false,"rental_uris":{"android":"levelo://app?vid=a0b2c13a-195d-4125-891f-2453a184e626","ios":"levelo://app?vid=a0b2c13a-195d-4125-891f-2453a184e626"},"vehicle_type_id":"4","last_reported":1717614358,"current_range_meters":6400,"station_id":"ce4bhr92rcd13ifvqhrg","pricing_plan_id":"cebpf4jnsgd1na2vs0mg"},{"bike_id":"d08e5b78-eaa7-4c34-a861-77b016ff623e","system_id":"levelo_inurba_marseille","lat":43.28836,"lon":5.36465,"is_reserved":false,"is_disabled":false,"rental_uris":{"android":"levelo://app?vid=d08e5b78-eaa7-4c34-a861-77b016ff623e","ios":"levelo://app?vid=d08e5b78-eaa7-4c34-a861-77b016ff623e"},"vehicle_type_id":"4","last_reported":1717614358,"current_range_meters":24800,"station_id":"","pricing_plan_id":"cebpf4jnsgd1na2vs0mg"},{"bike_id":"84e03916-a392-4411-a465-074a3465a07d","system_id":"levelo_inurba_marseille","lat":43.295169,"lon":5.390426,"is_reserved":false,"is_disabled":false,"rental_uris":{"android":"levelo://app?vid=84e03916-a392-4411-a465-074a3465a07d","ios":"levelo://app?vid=84e03916-a392-4411-a465-074a3465a07d"},"vehicle_type_id":"4","last_reported":1717614358,"current_range_meters":3600,"station_id":"ce4bh3p2rcd13ifvqdp0","pricing_plan_id":"cebpf4jnsgd1na2vs0mg"},{"bike_id":"91fb86a1-f654-482a-a728-18fae27609df","system_id":"levelo_inurba_marseille","lat":43.330442,"lon":5.389148,"is_reserved":false,"is_disabled":false,"rental_uris":{"android":"levelo://app?vid=91fb86a1-f654-482a-a728-18fae27609df","ios":"levelo://app?vid=91fb86a1-f654-482a-a728-18fae27609df"},"vehicle_type_id":"4","last_reported":1717614358,"current_range_meters":2800,"station_id":"ce4bhr92rcd13ifvqhrg","pricing_plan_id":"cebpf4jnsgd1na2vs0mg"},{"bike_id":"38ed73d8-9003-4f96-b4ee-88649899b0bd","system_id":"levelo_inurba_marseille","lat":43.33025,"lon":5.39041,"is_reserved":false,"is_disabled":false,"rental_uris":{"android":"levelo://app?vid=38ed73d8-9003-4f96-b4ee-88649899b0bd","ios":"levelo://app?vid=38ed73d8-9003-4f96-b4ee-88649899b0bd"},"vehicle_type_id":"4","last_reported":1717614358,"current_range_meters":21200,"station_id":"ce4bhr92rcd13ifvqhrg","pricing_plan_id":"cebpf4jnsgd1na2vs0mg"},{"bike_id":"5d39a9a7-9b2b-46e5-bb25-ef44b04c8d22","system_id":"levelo_inurba_marseille","lat":43.295169,"lon":5.390426,"is_reserved":false,"is_disabled":false,"rental_uris":{"android":"levelo://app?vid=5d39a9a7-9b2b-46e5-bb25-ef44b04c8d22","ios":"levelo://app?vid=5d39a9a7-9b2b-46e5-bb25-ef44b04c8d22"},"vehicle_type_id":"4","last_reported":1717614358,"current_range_meters":0,"station_id":"ce4bh3p2rcd13ifvqdp0","pricing_plan_id":"cebpf4jnsgd1na2vs0mg"},{"bike_id":"26de0a35-f949-4d06-8789-b38d430f7fb0","system_id":"levelo_inurba_marseille","lat":43.330253,"lon":5.390471,"is_reserved":false,"is_disabled":false,"rental_uris":{"android":"levelo://app?vid=26de0a35-f949-4d06-8789-b38d430f7fb0","ios":"levelo://app?vid=26de0a35-f949-4d06-8789-b38d430f7fb0"},"vehicle_type_id":"4","last_reported":1717614358,"current_range_meters":1200,"station_id":"","pricing_plan_id":"cebpf4jnsgd1na2vs0mg"},{"bike_id":"46cd2ce3-d68b-49dd-aa13-ddb836999377","system_id":"levelo_inurba_marseille","lat":43.2978,"lon":5.39361,"is_reserved":false,"is_disabled":false,"rental_uris":{"android":"levelo://app?vid=46cd2ce3-d68b-49dd-aa13-ddb836999377","ios":"levelo://app?vid=46cd2ce3-d68b-49dd-aa13-ddb836999377"},"vehicle_type_id":"4","last_reported":1717614358,"current_range_meters":0,"station_id":"chh1huq6cuj3fo74tm60","pricing_plan_id":"cebpf4jnsgd1na2vs0mg"},{"bike_id":"cc89a354-f255-470b-9559-e6337e9389a5","system_id":"levelo_inurba_marseille","lat":43.33033,"lon":5.39039,"is_reserved":false,"is_disabled":false,"rental_uris":{"android":"levelo://app?vid=cc89a354-f255-470b-9559-e6337e9389a5","ios":"levelo://app?vid=cc89a354-f255-470b-9559-e6337e9389a5"},"vehicle_type_id":"4","last_reported":1717614358,"current_range_meters":11200,"station_id":"ce4bhr92rcd13ifvqhrg","pricing_plan_id":"cebpf4jnsgd1na2vs0mg"},{"bike_id":"c434f500-0184-4ab1-8b29-509be919df12","system_id":"levelo_inurba_marseille","lat":43.29606,"lon":5.39163,"is_reserved":false,"is_disabled":false,"rental_uris":{"android":"levelo://app?vid=c434f500-0184-4ab1-8b29-509be919df12","ios":"levelo://app?vid=c434f500-0184-4ab1-8b29-509be919df12"},"vehicle_type_id":"4","last_reported":1717614358,"current_range_meters":0,"station_id":"","pricing_plan_id":"cebpf4jnsgd1na2vs0mg"},{"bike_id":"721aa56c-c9c4-4ae6-a359-1bdfd8105cf3","system_id":"levelo_inurba_marseille","lat":43.290094,"lon":5.381264,"is_reserved":false,"is_disabled":false,"rental_uris":{"android":"levelo://app?vid=721aa56c-c9c4-4ae6-a359-1bdfd8105cf3","ios":"levelo://app?vid=721aa56c-c9c4-4ae6-a359-1bdfd8105cf3"},"vehicle_type_id":"4","last_reported":1717614358,"current_range_meters":0,"station_id":"ce4bh4p2rcd13ifvqe1g","pricing_plan_id":"cebpf4jnsgd1na2vs0mg"},{"bike_id":"51d3c1b7-f85e-4e9d-9e77-dbb1a5ba8ecd","system_id":"levelo_inurba_marseille","lat":43.2901,"lon":5.381269,"is_reserved":false,"is_disabled":false,"rental_uris":{"android":"levelo://app?vid=51d3c1b7-f85e-4e9d-9e77-dbb1a5ba8ecd","ios":"levelo://app?vid=51d3c1b7-f85e-4e9d-9e77-dbb1a5ba8ecd"},"vehicle_type_id":"4","last_reported":1717614358,"current_range_meters":25600,"station_id":"ce4bh4p2rcd13ifvqe1g","pricing_plan_id":"cebpf4jnsgd1na2vs0mg"},{"bike_id":"0a69e9be-360c-4f51-8ebd-0a17a00c7d84","system_id":"levelo_inurba_marseille","lat":43.290995,"lon":5.381361,"is_reserved":false,"is_disabled":false,"rental_uris":{"android":"levelo://app?vid=0a69e9be-360c-4f51-8ebd-0a17a00c7d84","ios":"levelo://app?vid=0a69e9be-360c-4f51-8ebd-0a17a00c7d84"},"vehicle_type_id":"4","last_reported":1717614358,"current_range_meters":12400,"station_id":"ce4bh512rcd13ifvqe2g","pricing_plan_id":"cebpf4jnsgd1na2vs0mg"},{"bike_id":"37bda298-9444-4e81-b9d5-bb197daa9441","system_id":"levelo_inurba_marseille","lat":43.28856,"lon":5.358371,"is_reserved":false,"is_disabled":false,"rental_uris":{"android":"levelo://app?vid=37bda298-9444-4e81-b9d5-bb197daa9441","ios":"levelo://app?vid=37bda298-9444-4e81-b9d5-bb197daa9441"},"vehicle_type_id":"4","last_reported":1717614358,"current_range_meters":28800,"station_id":"ce4bhb12rcd13ifvqem0","pricing_plan_id":"cebpf4jnsgd1na2vs0mg"},{"bike_id":"46eb3dd8-f72a-4598-beef-b0941b8a791b","system_id":"levelo_inurba_marseille","lat":43.2901,"lon":5.381269,"is_reserved":false,"is_disabled":false,"rental_uris":{"android":"levelo://app?vid=46eb3dd8-f72a-4598-beef-b0941b8a791b","ios":"levelo://app?vid=46eb3dd8-f72a-4598-beef-b0941b8a791b"},"vehicle_type_id":"4","last_reported":1717614358,"current_range_meters":1200,"station_id":"ce4bh4p2rcd13ifvqe1g","pricing_plan_id":"cebpf4jnsgd1na2vs0mg"},{"bike_id":"323cbd72-f200-4748-8fec-1fde79085ac7","system_id":"levelo_inurba_marseille","lat":43.301117,"lon":5.398795,"is_reserved":false,"is_disabled":false,"rental_uris":{"android":"levelo://app?vid=323cbd72-f200-4748-8fec-1fde79085ac7","ios":"levelo://app?vid=323cbd72-f200-4748-8fec-1fde79085ac7"},"vehicle_type_id":"4","last_reported":1717614358,"current_range_meters":0,"station_id":"ce4bh0h2rcd13ifvqd40","pricing_plan_id":"cebpf4jnsgd1na2vs0mg"},{"bike_id":"5e6fecb0-40ef-4774-a829-e807711b04c6","system_id":"levelo_inurba_marseille","lat":43.288507,"lon":5.358447,"is_reserved":false,"is_disabled":false,"rental_uris":{"android":"levelo://app?vid=5e6fecb0-40ef-4774-a829-e807711b04c6","ios":"levelo://app?vid=5e6fecb0-40ef-4774-a829-e807711b04c6"},"vehicle_type_id":"4","last_reported":1717614358,"current_range_meters":0,"station_id":"ce4bhb12rcd13ifvqem0","pricing_plan_id":"cebpf4jnsgd1na2vs0mg"},{"bike_id":"4737ceb4-e491-4898-afba-89da1fd8ec29","system_id":"levelo_inurba_marseille","lat":43.337338,"lon":5.374599,"is_reserved":false,"is_disabled":false,"rental_uris":{"android":"levelo://app?vid=4737ceb4-e491-4898-afba-89da1fd8ec29","ios":"levelo://app?vid=4737ceb4-e491-4898-afba-89da1fd8ec29"},"vehicle_type_id":"4","last_reported":1717614358,"current_range_meters":18800,"station_id":"","pricing_plan_id":"cebpf4jnsgd1na2vs0mg"},{"bike_id":"ed10c4e4-d3ba-48d3-9097-538e65a623f5","system_id":"levelo_inurba_marseille","lat":43.33731,"lon":5.37482,"is_reserved":false,"is_disabled":false,"rental_uris":{"android":"levelo://app?vid=ed10c4e4-d3ba-48d3-9097-538e65a623f5","ios":"levelo://app?vid=ed10c4e4-d3ba-48d3-9097-538e65a623f5"},"vehicle_type_id":"4","last_reported":1717614358,"current_range_meters":28400,"station_id":"","pricing_plan_id":"cebpf4jnsgd1na2vs0mg"},{"bike_id":"a8661a9f-6d10-42a3-8545-577747a07858","system_id":"levelo_inurba_marseille","lat":43.312609,"lon":5.401662,"is_reserved":false,"is_disabled":false,"rental_uris":{"android":"levelo://app?vid=a8661a9f-6d10-42a3-8545-577747a07858","ios":"levelo://app?vid=a8661a9f-6d10-42a3-8545-577747a07858"},"vehicle_type_id":"4","last_reported":1717614358,"current_range_meters":0,"station_id":"ce4bh092rcd13ifvqd30","pricing_plan_id":"cebpf4jnsgd1na2vs0mg"},{"bike_id":"46ff1ec5-9ac4-4e6a-9a4c-b85aeec7078a","system_id":"levelo_inurba_marseille","lat":43.312609,"lon":5.401662,"is_reserved":false,"is_disabled":false,"rental_uris":{"android":"levelo://app?vid=46ff1ec5-9ac4-4e6a-9a4c-b85aeec7078a","ios":"levelo://app?vid=46ff1ec5-9ac4-4e6a-9a4c-b85aeec7078a"},"vehicle_type_id":"4","last_reported":1717614358,"current_range_meters":800,"station_id":"ce4bh092rcd13ifvqd30","pricing_plan_id":"cebpf4jnsgd1na2vs0mg"},{"bike_id":"472bf191-d295-4388-8607-d6f8058bd035","system_id":"levelo_inurba_marseille","lat":43.33747,"lon":5.37438,"is_reserved":false,"is_disabled":false,"rental_uris":{"android":"levelo://app?vid=472bf191-d295-4388-8607-d6f8058bd035","ios":"levelo://app?vid=472bf191-d295-4388-8607-d6f8058bd035"},"vehicle_type_id":"4","last_reported":1717614358,"current_range_meters":29200,"station_id":"","pricing_plan_id":"cebpf4jnsgd1na2vs0mg"},