{"last_updated":1774783180,"ttl":60,"version":"2.2","data":{"bikes":[{"bike_id":"2febdeb9-0fee-4e6a-b6f8-0d1a667393bc","system_id":"levelo_inurba_marseille","lat":43.29518,"lon":5.38669,"is_reserved":false,"is_disabled":false,"rental_uris":{"android":"levelo://app?vid=2febdeb9-0fee-4e6a-b6f8-0d1a667393bc","ios":"levelo://app?vid=2febdeb9-0fee-4e6a-b6f8-0d1a667393bc"},"vehicle_type_id":"4","last_reported":1774783181,"current_range_meters":2800,"station_id":"","pricing_plan_id":"cebpf4jnsgd1na2vs0mg"},{"bike_id":"3cf860f7-193b-4ed1-a299-9112ceb0abc2","system_id":"levelo_inurba_marseille","lat":43.29004,"lon":5.35614,"is_reserved":false,"is_disabled":false,"rental_uris":{"android":"levelo://app?vid=3cf860f7-193b-4ed1-a299-9112ceb0abc2","ios":"levelo://app?vid=3cf860f7-193b-4ed1-a299-9112ceb0abc2"},"vehicle_type_id":"4","last_reported":1774783181,"current_range_meters":2800,"station_id":"ce4bhb92rcd13ifvqen0","pricing_plan_id":"cebpf4jnsgd1na2vs0mg"},{"bike_id":"5c6c5e19-1de9-4eac-9ab8-08e9926677c5","system_id":"levelo_inurba_marseille","lat":43.31254,"lon":5.40152,"is_reserved":false,"is_disabled":true,"rental_uris":{"android":"levelo://app?vid=5c6c5e19-1de9-4eac-9ab8-08e9926677c5","ios":"levelo://app?vid=5c6c5e19-1de9-4eac-9ab8-08e9926677c5"},"vehicle_type_id":"4","last_reported":1774783181,"current_range_meters":2800,"station_id":"ce4bh092rcd13ifvqd30","pricing_plan_id":"cebpf4jnsgd1na2vs0mg"},{"bike_id":"7ba2a578-2021-442d-9379-61af4200dd2b","system_id":"levelo_inurba_marseille","lat":43.26548,"lon":5.37287,"is_reserved":false,"is_disabled":false,"rental_uris":{"android":"levelo://app?vid=7ba2a578-2021-442d-9379-61af4200dd2b","ios":"levelo://app?vid=7ba2a578-2021-442d-9379-61af4200dd2b"},"vehicle_type_id":"4","last_reported":1774783181,"current_range_meters":2800,"station_id":"ce4bhg12rcd13ifvqf70","pricing_plan_id":"cebpf4jnsgd1na2vs0mg"},{"bike_id":"c82691aa-ba67-49e2-8ab8-9f87a1546b96","system_id":"levelo_inurba_marseille","lat":43.23203,"lon":5.35525,"is_reserved":false,"is_disabled":false,"rental_uris":{"android":"levelo://app?vid=c82691aa-ba67-49e2-8ab8-9f87a1546b96","ios":"levelo://app?vid=c82691aa-ba67-49e2-8ab8-9f87a1546b96"},"vehicle_type_id":"4","last_reported":1774783181,"current_range_meters":3200,"station_id":"ce4bhu92rcd13ifvqi70","pricing_plan_id":"cebpf4jnsgd1na2vs0mg"},{"bike_id":"253bfbd1-c3f6-4b72-a716-55890f3b4db7","system_id":"levelo_inurba_marseille","lat":43.28482,"lon":5.48383,"is_reserved":false,"is_disabled":false,"rental_uris":{"android":"levelo://app?vid=253bfbd1-c3f6-4b72-a716-55890f3b4db7","ios":"levelo://app?vid=253bfbd1-c3f6-4b72-a716-55890f3b4db7"},"vehicle_type_id":"4","last_reported":1774783181,"current_range_meters":3200,"station_id":"","pricing_plan_id":"cebpf4jnsgd1na2vs0mg"},{"bike_id":"9c0c7dc2-8e4c-4e55-891f-3e8c2c779959","system_id":"levelo_inurba_marseille","lat":43.25004,"lon":5.38931,"is_reserved":false,"is_disabled":false,"rental_uris":{"android":"levelo://app?vid=9c0c7dc2-8e4c-4e55-891f-3e8c2c779959","ios":"levelo://app?vid=9c0c7dc2-8e4c-4e55-891f-3e8c2c779959"},"vehicle_type_id":"4","last_reported":1774783181,"current_range_meters":3200,"station_id":"ce4bhgp2rcd13ifvqfd0","pricing_plan_id":"cebpf4jnsgd1na2vs0mg"},{"bike_id":"9838442e-79cd-4f6a-bff7-a0fb829a22f1","system_id":"levelo_inurba_marseille","lat":43.29144,"lon":5.36634,"is_reserved":false,"is_disabled":false,"rental_uris":{"android":"levelo://app?vid=9838442e-79cd-4f6a-bff7-a0fb829a22f1","ios":"levelo://app?vid=9838442e-79cd-4f6a-bff7-a0fb829a22f1"},"vehicle_type_id":"4","last_reported":1774783181,"current_range_meters":3200,"station_id":"","pricing_plan_id":"cebpf4jnsgd1na2vs0mg"},{"bike_id":"8feacee6-d4d7-43d4-8a88-10f63eeb5a85","system_id":"levelo_inurba_marseille","lat":43.29577,"lon":5.39959,"is_reserved":false,"is_disabled":false,"rental_uris":{"android":"levelo://app?vid=8feacee6-d4d7-43d4-8a88-10f63eeb5a85","ios":"levelo://app?vid=8feacee6-d4d7-43d4-8a88-10f63eeb5a85"},"vehicle_type_id":"4","last_reported":1774783181,"current_range_meters":3200,"station_id":"ce4bh312rcd13ifvqdj0","pricing_plan_id":"cebpf4jnsgd1na2vs0mg"},{"bike_id":"cb42d8dc-b761-4ac4-a26f-34b08cfe8436","system_id":"levelo_inurba_marseille","lat":43.24969,"lon":5.40489,"is_reserved":false,"is_disabled":false,"rental_uris":{"android":"levelo://app?vid=cb42d8dc-b761-4ac4-a26f-34b08cfe8436","ios":"levelo://app?vid=cb42d8dc-b761-4ac4-a26f-34b08cfe8436"},"vehicle_type_id":"4","last_reported":1774783181,"current_range_meters":3200,"station_id":"st_d2ngiaodas8pm72gd1h0","pricing_plan_id":"cebpf4jnsgd1na2vs0mg"},{"bike_id":"3137e3ea-7797-4cae-a237-2a996dd9ad4a","system_id":"levelo_inurba_marseille","lat":43.28473,"lon":5.48391,"is_reserved":false,"is_disabled":false,"rental_uris":{"android":"levelo://app?vid=3137e3ea-7797-4cae-a237-2a996dd9ad4a","ios":"levelo://app?vid=3137e3ea-7797-4cae-a237-2a996dd9ad4a"},"vehicle_type_id":"4","last_reported":1774783181,"current_range_meters":3600,"station_id":"","pricing_plan_id":"cebpf4jnsgd1na2vs0mg"},{"bike_id":"b6d75310-1f09-4d3a-82e5-bf0096756e96","system_id":"levelo_inurba_marseille","lat":43.28537,"lon":5.44087,"is_reserved":false,"is_disabled":false,"rental_uris":{"android":"levelo://app?vid=b6d75310-1f09-4d3a-82e5-bf0096756e96","ios":"levelo://app?vid=b6d75310-1f09-4d3a-82e5-bf0096756e96"},"vehicle_type_id":"4","last_reported":1774783181,"current_range_meters":3600,"station_id":"st_d3j3df2ikq2c7380ej80","pricing_plan_id":"cebpf4jnsgd1na2vs0mg"},{"bike_id":"1a7fb594-fd28-4248-9991-4acd93df2a8c","system_id":"levelo_inurba_marseille","lat":43.29974,"lon":5.38495,"is_reserved":false,"is_disabled":true,"rental_uris":{"android":"levelo://app?vid=1a7fb594-fd28-4248-9991-4acd93df2a8c","ios":"levelo://app?vid=1a7fb594-fd28-4248-9991-4acd93df2a8c"},"vehicle_type_id":"4","last_reported":1774783181,"current_range_meters":3600,"station_id":"ce4bgj92rcd13ifvqbd0","pricing_plan_id":"cebpf4jnsgd1na2vs0mg"},{"bike_id":"6f348649-3b5a-4143-911c-4cd4b0517f43","system_id":"levelo_inurba_marseille","lat":43.3047,"lon":5.37599,"is_reserved":false,"is_disabled":false,"rental_uris":{"android":"levelo://app?vid=6f348649-3b5a-4143-911c-4cd4b0517f43","ios":"levelo://app?vid=6f348649-3b5a-4143-911c-4cd4b0517f43"},"vehicle_type_id":"4","last_reported":1774783181,"current_range_meters":3600,"station_id":"","pricing_plan_id":"cebpf4jnsgd1na2vs0mg"},{"bike_id":"4f129c1b-6e45-46c4-910f-c0b5dcfec85b","system_id":"levelo_inurba_marseille","lat":43.29936,"lon":5.36543,"is_reserved":false,"is_disabled":true,"rental_uris":{"android":"levelo://app?vid=4f129c1b-6e45-46c4-910f-c0b5dcfec85b","ios":"levelo://app?vid=4f129c1b-6e45-46c4-910f-c0b5dcfec85b"},"vehicle_type_id":"4","last_reported":1774783181,"current_range_meters":3600,"station_id":"ce4bgm92rcd13ifvqbr0","pricing_plan_id":"cebpf4jnsgd1na2vs0mg"},{"bike_id":"c26ece64-6cbd-4eef-8650-174002bd185b","system_id":"levelo_inurba_marseille","lat":43.2256,"lon":5.4163,"is_reserved":false,"is_disabled":false,"rental_uris":{"android":"levelo://app?vid=c26ece64-6cbd-4eef-8650-174002bd185b","ios":"levelo://app?vid=c26ece64-6cbd-4eef-8650-174002bd185b"},"vehicle_type_id":"4","last_reported":1774783181,"current_range_meters":3600,"station_id":"st_d2o4gvlbi1j2169b742g","pricing_plan_id":"cebpf4jnsgd1na2vs0mg"},{"bike_id":"180b9546-8df3-4426-bf43-e319bb9975ee","system_id":"levelo_inurba_marseille","lat":43.29841,"lon":5.36268,"is_reserved":false,"is_disabled":false,"rental_uris":{"android":"levelo://app?vid=180b9546-8df3-4426-bf43-e319bb9975ee","ios":"levelo://app?vid=180b9546-8df3-4426-bf43-e319bb9975ee"},"vehicle_type_id":"4","last_reported":1774783181,"current_range_meters":3600,"station_id":"ce4bgpp2rcd13ifvqc3g","pricing_plan_id":"cebpf4jnsgd1na2vs0mg"},{"bike_id":"dd248d32-c868-4ae4-b5b3-29ece18e5679","system_id":"levelo_inurba_marseille","lat":43.27617,"lon":5.36108,"is_reserved":false,"is_disabled":false,"rental_uris":{"android":"levelo://app?vid=dd248d32-c868-4ae4-b5b3-29ece18e5679","ios":"levelo://app?vid=dd248d32-c868-4ae4-b5b3-29ece18e5679"},"vehicle_type_id":"4","last_reported":1774783181,"current_range_meters":3600,"station_id":"ce4bgj92rcd13ifvqbe0","pricing_plan_id":"cebpf4jnsgd1na2vs0mg"},{"bike_id":"8e737392-6daa-47ca-a025-000bf626617d","system_id":"levelo_inurba_marseille","lat":43.28385,"lon":5.38673,"is_reserved":false,"is_disabled":false,"rental_uris":{"android":"levelo://app?vid=8e737392-6daa-47ca-a025-000bf626617d","ios":"levelo://app?vid=8e737392-6daa-47ca-a025-000bf626617d"},"vehicle_type_id":"4","last_reported":1774783181,"current_range_meters":4000,"station_id":"ce4bh492rcd13ifvqdvg","pricing_plan_id":"cebpf4jnsgd1na2vs0mg"},{"bike_id":"42ac2f6b-68e9-415e-abf4-d533376356a8","system_id":"levelo_inurba_marseille","lat":43.29534,"lon":5.38654,"is_reserved":false,"is_disabled":false,"rental_uris":{"android":"levelo://app?vid=42ac2f6b-68e9-415e-abf4-d533376356a8","ios":"levelo://app?vid=42ac2f6b-68e9-415e-abf4-d533376356a8"},"vehicle_type_id":"4","last_reported":1774783181,"current_range_meters":4000,"station_id":"","pricing_plan_id":"cebpf4jnsgd1na2vs0mg"},{"bike_id":"51bce78c-bc3c-4784-8de9-77f753713ae5","system_id":"levelo_inurba_marseille","lat":43.31341,"lon":5.36715,"is_reserved":false,"is_disabled":false,"rental_uris":{"android":"levelo://app?vid=51bce78c-bc3c-4784-8de9-77f753713ae5","ios":"levelo://app?vid=51bce78c-bc3c-4784-8de9-77f753713ae5"},"vehicle_type_id":"4","last_reported":1774783181,"current_range_meters":4000,"station_id":"ce4bgr92rcd13ifvqc6g","pricing_plan_id":"cebpf4jnsgd1na2vs0mg"},{"bike_id":"76afd0f9-39c6-4d10-a3a3-3323a029e46a","system_id":"levelo_inurba_marseille","lat":43.23388,"lon":5.41236,"is_reserved":false,"is_disabled":false,"rental_uris":{"android":"levelo://app?vid=76afd0f9-39c6-4d10-a3a3-3323a029e46a","ios":"levelo://app?vid=76afd0f9-39c6-4d10-a3a3-3323a029e46a"},"vehicle_type_id":"4","last_reported":1774783181,"current_range_meters":4000,"station_id":"","pricing_plan_id":"cebpf4jnsgd1na2vs0mg"},{"bike_id":"451a5f24-c040-4b1d-af60-c45f4f404333","system_id":"levelo_inurba_marseille","lat":43.23873,"lon":5.37461,"is_reserved":false,"is_disabled":false,"rental_uris":{"android":"levelo://app?vid=451a5f24-c040-4b1d-af60-c45f4f404333","ios":"levelo://app?vid=451a5f24-c040-4b1d-af60-c45f4f404333"},"vehicle_type_id":"4","last_reported":1774783181,"current_range_meters":4000,"station_id":"st_d6sm7csbq4hs73f8fpjg","pricing_plan_id":"cebpf4jnsgd1na2vs0mg"},{"bike_id":"24579790-dbc0-48f5-9802-612c25e33241","system_id":"levelo_inurba_marseille","lat":43.2854,"lon":5.44108,"is_reserved":false,"is_disabled":false,"rental_uris":{"android":"levelo://app?vid=24579790-dbc0-48f5-9802-612c25e33241","ios":"levelo://app?vid=24579790-dbc0-48f5-9802-612c25e33241"},"vehicle_type_id":"4","last_reported":1774783181,"current_range_meters":4000,"station_id":"st_d3j3df2ikq2c7380ej80","pricing_plan_id":"cebpf4jnsgd1na2vs0mg"},{"bike_id":"037db2a8-476c-4e7e-9e7a-e93e170ee11d","system_id":"levelo_inurba_marseille","lat":43.23066,"lon":5.35504,"is_reserved":false,"is_disabled":false,"rental_uris":{"android":"levelo://app?vid=037db2a8-476c-4e7e-9e7a-e93e170ee11d","ios":"levelo://app?vid=037db2a8-476c-4e7e-9e7a-e93e170ee11d"},"vehicle_type_id":"4","last_reported":1774783181,"current_range_meters":4000,"station_id":"cpo3342slgdg3j2ifvpg","pricing_plan_id":"cebpf4jnsgd1na2vs0mg"},{"bike_id":"f057f137-0cac-4b50-91e6-948f8581886d","system_id":"levelo_inurba_marseille","lat":43.24709,"lon":5.38152,"is_reserved":false,"is_disabled":false,"rental_uris":{"android":"levelo://app?vid=f057f137-0cac-4b50-91e6-948f8581886d","ios":"levelo://app?vid=f057f137-0cac-4b50-91e6-948f8581886d"},"vehicle_type_id":"4","last_reported":1774783181,"current_range_meters":4000,"station_id":"","pricing_plan_id":"cebpf4jnsgd1na2vs0mg"},{"bike_id":"53831c41-fd69-4f74-a006-a454351e7cd7","system_id":"levelo_inurba_marseille","lat":43.25123,"lon":5.40307,"is_reserved":false,"is_disabled":false,"rental_uris":{"android":"levelo://app?vid=53831c41-fd69-4f74-a006-a454351e7cd7","ios":"levelo://app?vid=53831c41-fd69-4f74-a006-a454351e7cd7"},"vehicle_type_id":"4","last_reported":1774783181,"current_range_meters":4000,"station_id":"ce4bhlh2rcd13ifvqgig","pricing_plan_id":"cebpf4jnsgd1na2vs0mg"},{"bike_id":"f8d401ea-d032-4e17-b855-b6e19a8fece9","system_id":"levelo_inurba_marseille","lat":43.21748,"lon":5.34599,"is_reserved":false,"is_disabled":false,"rental_uris":{"android":"levelo://app?vid=f8d401ea-d032-4e17-b855-b6e19a8fece9","ios":"levelo://app?vid=f8d401ea-d032-4e17-b855-b6e19a8fece9"},"vehicle_type_id":"4","last_reported":1774783181,"current_range_meters":4000,"station_id":"st_cvj6r9ubvosntc0bgbag","pricing_plan_id":"cebpf4jnsgd1na2vs0mg"},{"bike_id":"9dc1f661-5b0f-4bdf-a322-43953d6e0446","system_id":"levelo_inurba_marseille","lat":43.30637,"lon":5.40105,"is_reserved":false,"is_disabled":false,"rental_uris":{"android":"levelo://app?vid=9dc1f661-5b0f-4bdf-a322-43953d6e0446","ios":"levelo://app?vid=9dc1f661-5b0f-4bdf-a322-43953d6e0446"},"vehicle_type_id":"4","last_reported":1774783181,"current_range_meters":4000,"station_id":"ce4bh112rcd13ifvqda0","pricing_plan_id":"cebpf4jnsgd1na2vs0mg"},{"bike_id":"98e0a438-206a-4b87-8125-2d77d96858e9","system_id":"levelo_inurba_marseille","lat":43.2862,"lon":5.35117,"is_reserved":false,"is_disabled":false,"rental_uris":{"android":"levelo://app?vid=98e0a438-206a-4b87-8125-2d77d96858e9","ios":"levelo://app?vid=98e0a438-206a-4b87-8125-2d77d96858e9"},"vehicle_type_id":"4","last_reported":1774783181,"current_range_meters":4400,"station_id":"ce4bhch2rcd13ifvqeug","pricing_plan_id":"cebpf4jnsgd1na2vs0mg"},{"bike_id":"a0e1fe6f-1b0c-4b69-b699-3f3295a2fce0","system_id":"levelo_inurba_marseille","lat":43.28418,"lon":5.3498,"is_reserved":false,"is_disabled":false,"rental_uris":{"android":"levelo://app?vid=a0e1fe6f-1b0c-4b69-b699-3f3295a2fce0","ios":"levelo://app?vid=a0e1fe6f-1b0c-4b69-b699-3f3295a2fce0"},"vehicle_type_id":"4","last_reported":1774783181,"current_range_meters":4400,"station_id":"ce4bhbh2rcd13ifvqepg","pricing_plan_id":"cebpf4jnsgd1na2vs0mg"},{"bike_id":"c8e3f134-bd1d-4bd8-925f-75061382b49c","system_id":"levelo_inurba_marseille","lat":43.2954,"lon":5.38652,"is_reserved":false,"is_disabled":false,"rental_uris":{"android":"levelo://app?vid=c8e3f134-bd1d-4bd8-925f-75061382b49c","ios":"levelo://app?vid=c8e3f134-bd1d-4bd8-925f-75061382b49c"},"vehicle_type_id":"4","last_reported":1774783181,"current_range_meters":4400,"station_id":"","pricing_plan_id":"cebpf4jnsgd1na2vs0mg"},{"bike_id":"899c9f36-9b83-4ce9-bd7d-0f95dd541b6a","system_id":"levelo_inurba_marseille","lat":43.32355,"lon":5.36741,"is_reserved":false,"is_disabled":false,"rental_uris":{"android":"levelo://app?vid=899c9f36-9b83-4ce9-bd7d-0f95dd541b6a","ios":"levelo://app?vid=899c9f36-9b83-4ce9-bd7d-0f95dd541b6a"},"vehicle_type_id":"4","last_reported":1774783181,"current_range_meters":4400,"station_id":"ce4bhsh2rcd13ifvqi2g","pricing_plan_id":"cebpf4jnsgd1na2vs0mg"},{"bike_id":"c420f719-a4cc-4702-b6da-68e6d0f37e6c","system_id":"levelo_inurba_marseille","lat":43.2853,"lon":5.44079,"is_reserved":false,"is_disabled":false,"rental_uris":{"android":"levelo://app?vid=c420f719-a4cc-4702-b6da-68e6d0f37e6c","ios":"levelo://app?vid=c420f719-a4cc-4702-b6da-68e6d0f37e6c"},"vehicle_type_id":"4","last_reported":1774783181,"current_range_meters":4400,"station_id":"st_d3j3df2ikq2c7380ej80","pricing_plan_id":"cebpf4jnsgd1na2vs0mg"},{"bike_id":"2039cc17-08a0-44f9-9c7e-4250520d9de4","system_id":"levelo_inurba_marseille","lat":43.26678,"lon":5.3826,"is_reserved":false,"is_disabled":false,"rental_uris":{"android":"levelo://app?vid=2039cc17-08a0-44f9-9c7e-4250520d9de4","ios":"levelo://app?vid=2039cc17-08a0-44f9-9c7e-4250520d9de4"},"vehicle_type_id":"4","last_reported":1774783181,"current_range_meters":4400,"station_id":"ce4bhg92rcd13ifvqf90","pricing_plan_id":"cebpf4jnsgd1na2vs0mg"},{"bike_id":"44e6ef2e-f582-4dae-8b58-95600b73b872","system_id":"levelo_inurba_marseille","lat":43.33541,"lon":5.37469,"is_reserved":false,"is_disabled":false,"rental_uris":{"android":"levelo://app?vid=44e6ef2e-f582-4dae-8b58-95600b73b872","ios":"levelo://app?vid=44e6ef2e-f582-4dae-8b58-95600b73b872"},"vehicle_type_id":"4","last_reported":1774783181,"current_range_meters":4400,"station_id":"st_d46tts09ee8s73dlu43g","pricing_plan_id":"cebpf4jnsgd1na2vs0mg"},{"bike_id":"c239bfdf-babd-4b13-b700-8b7b89ecf5f6","system_id":"levelo_inurba_marseille","lat":43.2733,"lon":5.39063,"is_reserved":false,"is_disabled":false,"rental_uris":{"android":"levelo://app?vid=c239bfdf-babd-4b13-b700-8b7b89ecf5f6","ios":"levelo://app?vid=c239bfdf-babd-4b13-b700-8b7b89ecf5f6"},"vehicle_type_id":"4","last_reported":1774783181,"current_range_meters":4400,"station_id":"ce4bhgp2rcd13ifvqfe0","pricing_plan_id":"cebpf4jnsgd1na2vs0mg"},{"bike_id":"2bf237c2-c4a5-409d-aaf2-b153a3e1ff10","system_id":"levelo_inurba_marseille","lat":43.21753,"lon":5.34595,"is_reserved":false,"is_disabled":false,"rental_uris":{"android":"levelo://app?vid=2bf237c2-c4a5-409d-aaf2-b153a3e1ff10","ios":"levelo://app?vid=2bf237c2-c4a5-409d-aaf2-b153a3e1ff10"},"vehicle_type_id":"4","last_reported":1774783181,"current_range_meters":4800,"station_id":"st_cvj6r9ubvosntc0bgbag","pricing_plan_id":"cebpf4jnsgd1na2vs0mg"},{"bike_id":"290afd09-0584-4963-a797-1ed96debbdfe","system_id":"levelo_inurba_marseille","lat":43.21192,"lon":5.35065,"is_reserved":false,"is_disabled":false,"rental_uris":{"android":"levelo://app?vid=290afd09-0584-4963-a797-1ed96debbdfe","ios":"levelo://app?vid=290afd09-0584-4963-a797-1ed96debbdfe"},"vehicle_type_id":"4","last_reported":1774783181,"current_range_meters":4800,"station_id":"st_cvj6sg6p6f1abm77japg","pricing_plan_id":"cebpf4jnsgd1na2vs0mg"},{"bike_id":"50bb6ba6-f4da-49a0-9fd2-7c39eb052557","system_id":"levelo_inurba_marseille","lat":43.28364,"lon":5.38609,"is_reserved":false,"is_disabled":false,"rental_uris":{"android":"levelo://app?vid=50bb6ba6-f4da-49a0-9fd2-7c39eb052557","ios":"levelo://app?vid=50bb6ba6-f4da-49a0-9fd2-7c39eb052557"},"vehicle_type_id":"4","last_reported":1774783181,"current_range_meters":4800,"station_id":"ce4bh492rcd13ifvqdvg","pricing_plan_id":"cebpf4jnsgd1na2vs0mg"},{"bike_id":"350829bd-8f82-4446-b854-d7c797e10f49","system_id":"levelo_inurba_marseille","lat":43.27831,"lon":5.39219,"is_reserved":false,"is_disabled":false,"rental_uris":{"android":"levelo://app?vid=350829bd-8f82-4446-b854-d7c797e10f49","ios":"levelo://app?vid=350829bd-8f82-4446-b854-d7c797e10f49"},"vehicle_type_id":"4","last_reported":1774783181,"current_range_meters":4800,"station_id":"ce4bhjp2rcd13ifvqga0","pricing_plan_id":"cebpf4jnsgd1na2vs0mg"},{"bike_id":"6627d87e-d8cc-4315-9870-c98a872f12b5","system_id":"levelo_inurba_marseille","lat":43.24678,"lon":5.38144,"is_reserved":false,"is_disabled":false,"rental_uris":{"android":"levelo://app?vid=6627d87e-d8cc-4315-9870-c98a872f12b5","ios":"levelo://app?vid=6627d87e-d8cc-4315-9870-c98a872f12b5"},"vehicle_type_id":"4","last_reported":1774783181,"current_range_meters":4800,"station_id":"ce4bhih2rcd13ifvqfr0","pricing_plan_id":"cebpf4jnsgd1na2vs0mg"},{"bike_id":"cd54dc5b-eef2-49ee-a6fa-402f58aeed05","system_id":"levelo_inurba_marseille","lat":43.33091,"lon":5.39001,"is_reserved":false,"is_disabled":false,"rental_uris":{"android":"levelo://app?vid=cd54dc5b-eef2-49ee-a6fa-402f58aeed05","ios":"levelo://app?vid=cd54dc5b-eef2-49ee-a6fa-402f58aeed05"},"vehicle_type_id":"4","last_reported":1774783181,"current_range_meters":4800,"station_id":"","pricing_plan_id":"cebpf4jnsgd1na2vs0mg"},{"bike_id":"30d9dd61-87d8-40e9-9cdd-8828df781293","system_id":"levelo_inurba_marseille","lat":43.22572,"lon":5.41606,"is_reserved":false,"is_disabled":false,"rental_uris":{"android":"levelo://app?vid=30d9dd61-87d8-40e9-9cdd-8828df781293","ios":"levelo://app?vid=30d9dd61-87d8-40e9-9cdd-8828df781293"},"vehicle_type_id":"4","last_reported":1774783181,"current_range_meters":4800,"station_id":"st_d2o4gvlbi1j2169b742g","pricing_plan_id":"cebpf4jnsgd1na2vs0mg"},{"bike_id":"3ff24676-23bf-45ec-b0f9-26c82beab495","system_id":"levelo_inurba_marseille","lat":43.24674,"lon":5.38158,"is_reserved":false,"is_disabled":false,"rental_uris":{"android":"levelo://app?vid=3ff24676-23bf-45ec-b0f9-26c82beab495","ios":"levelo://app?vid=3ff24676-23bf-45ec-b0f9-26c82beab495"},"vehicle_type_id":"4","last_reported":1774783181,"current_range_meters":4800,"station_id":"ce4bhih2rcd13ifvqfr0","pricing_plan_id":"cebpf4jnsgd1na2vs0mg"},{"bike_id":"c2981b41-70b3-4e70-8d06-dc1902aed07f","system_id":"levelo_inurba_marseille","lat":43.28614,"lon":5.35102,"is_reserved":false,"is_disabled":false,"rental_uris":{"android":"levelo://app?vid=c2981b41-70b3-4e70-8d06-dc1902aed07f","ios":"levelo://app?vid=c2981b41-70b3-4e70-8d06-dc1902aed07f"},"vehicle_type_id":"4","last_reported":1774783181,"current_range_meters":4800,"station_id":"ce4bhch2rcd13ifvqeug","pricing_plan_id":"cebpf4jnsgd1na2vs0mg"},{"bike_id":"ef935ed1-650a-4632-b4dd-10e5cb1ef5b4","system_id":"levelo_inurba_marseille","lat":43.28424,"lon":5.34978,"is_reserved":false,"is_disabled":false,"rental_uris":{"android":"levelo://app?vid=ef935ed1-650a-4632-b4dd-10e5cb1ef5b4","ios":"levelo://app?vid=ef935ed1-650a-4632-b4dd-10e5cb1ef5b4"},"vehicle_type_id":"4","last_reported":1774783181,"current_range_meters":4800,"station_id":"ce4bhbh2rcd13ifvqepg","pricing_plan_id":"cebpf4jnsgd1na2vs0mg"},{"bike_id":"e5e08ad1-e7e1-4437-a773-1e8c1fe104ed","system_id":"levelo_inurba_marseille","lat":43.27984,"lon":5.41658,"is_reserved":false,"is_disabled":false,"rental_uris":{"android":"levelo://app?vid=e5e08ad1-e7e1-4437-a773-1e8c1fe104ed","ios":"levelo://app?vid=e5e08ad1-e7e1-4437-a773-1e8c1fe104ed"},"vehicle_type_id":"4","last_reported":1774783181,"current_range_meters":4800,"station_id":"ce4bho12rcd13ifvqh1g","pricing_plan_id":"cebpf4jnsgd1na2vs0mg"},{"bike_id":"825bca4a-aff7-48e8-8885-db808d49f605","system_id":"levelo_inurba_marseille","lat":43.25541,"lon":5.37652,"is_reserved":false,"is_disabled":false,"rental_uris":{"android":"levelo://app?vid=825bca4a-aff7-48e8-8885-db808d49f605","ios":"levelo://app?vid=825bca4a-aff7-48e8-8885-db808d49f605"},"vehicle_type_id":"4","last_reported":1774783181,"current_range_meters":4800,"station_id":"ce4bhh12rcd13ifvqff0","pricing_plan_id":"cebpf4jnsgd1na2vs0mg"},{"bike_id":"5d490b95-0f21-4f16-b6a0-c5beac32f58f","system_id":"levelo_inurba_marseille","lat":43.30959,"lon":5.3903,"is_reserved":false,"is_disabled":true,"rental_uris":{"android":"levelo://app?vid=5d490b95-0f21-4f16-b6a0-c5beac32f58f","ios":"levelo://app?vid=5d490b95-0f21-4f16-b6a0-c5beac32f58f"},"vehicle_type_id":"4","last_reported":1774783181,"current_range_meters":5600,"station_id":"ce4bgup2rcd13ifvqco0","pricing_plan_id":"cebpf4jnsgd1na2vs0mg"},{"bike_id":"2b1dc3ec-0b8f-4279-8c2b-a1150cc30bda","system_id":"levelo_inurba_marseille","lat":43.29022,"lon":5.35591,"is_reserved":false,"is_disabled":false,"rental_uris":{"android":"levelo://app?vid=2b1dc3ec-0b8f-4279-8c2b-a1150cc30bda","ios":"levelo://app?vid=2b1dc3ec-0b8f-4279-8c2b-a1150cc30bda"},"vehicle_type_id":"4","last_reported":1774783181,"current_range_meters":5600,"station_id":"ce4bhb92rcd13ifvqen0","pricing_plan_id":"cebpf4jnsgd1na2vs0mg"},{"bike_id":"1bebdd87-eb20-43f1-8d96-9fdb37cf655b","system_id":"levelo_inurba_marseille","lat":43.2953,"lon":5.38667,"is_reserved":false,"is_disabled":false,"rental_uris":{"android":"levelo://app?vid=1bebdd87-eb20-43f1-8d96-9fdb37cf655b","ios":"levelo://app?vid=1bebdd87-eb20-43f1-8d96-9fdb37cf655b"},"vehicle_type_id":"4","last_reported":1774783181,"current_range_meters":5600,"station_id":"","pricing_plan_id":"cebpf4jnsgd1na2vs0mg"},{"bike_id":"c09263af-5f3c-4487-9b20-dca4afc4c1ed","system_id":"levelo_inurba_marseille","lat":43.28592,"lon":5.35128,"is_reserved":false,"is_disabled":false,"rental_uris":{"android":"levelo://app?vid=c09263af-5f3c-4487-9b20-dca4afc4c1ed","ios":"levelo://app?vid=c09263af-5f3c-4487-9b20-dca4afc4c1ed"},"vehicle_type_id":"4","last_reported":1774783181,"current_range_meters":5600,"station_id":"ce4bhch2rcd13ifvqeug","pricing_plan_id":"cebpf4jnsgd1na2vs0mg"},{"bike_id":"9c90e154-1ad6-4039-8066-16f77ee3b88c","system_id":"levelo_inurba_marseille","lat":43.29535,"lon":5.38654,"is_reserved":false,"is_disabled":false,"rental_uris":{"android":"levelo://app?vid=9c90e154-1ad6-4039-8066-16f77ee3b88c","ios":"levelo://app?vid=9c90e154-1ad6-4039-8066-16f77ee3b88c"},"vehicle_type_id":"4","last_reported":1774783181,"current_range_meters":5600,"station_id":"","pricing_plan_id":"cebpf4jnsgd1na2vs0mg"},{"bike_id":"67c1c6e6-4211-4250-be02-a52880e1c23a","system_id":"levelo_inurba_marseille","lat":43.2652,"lon":5.40707,"is_reserved":false,"is_disabled":false,"rental_uris":{"android":"levelo://app?vid=67c1c6e6-4211-4250-be02-a52880e1c23a","ios":"levelo://app?vid=67c1c6e6-4211-4250-be02-a52880e1c23a"},"vehicle_type_id":"4","last_reported":1774783181,"current_range_meters":5600,"station_id":"","pricing_plan_id":"cebpf4jnsgd1na2vs0mg"},{"bike_id":"b1e731c5-a019-40fb-b94c-b458e0eddb64","system_id":"levelo_inurba_marseille","lat":43.2376,"lon":5.3852,"is_reserved":false,"is_disabled":false,"rental_uris":{"android":"levelo://app?vid=b1e731c5-a019-40fb-b94c-b458e0eddb64","ios":"levelo://app?vid=b1e731c5-a019-40fb-b94c-b458e0eddb64"},"vehicle_type_id":"4","last_reported":1774783181,"current_range_meters":6000,"station_id":"","pricing_plan_id":"cebpf4jnsgd1na2vs0mg"},{"bike_id":"c91884b8-df1e-4332-87a1-2299f4f1ba34","system_id":"levelo_inurba_marseille","lat":43.2842,"lon":5.37496,"is_reserved":false,"is_disabled":false,"rental_uris":{"android":"levelo://app?vid=c91884b8-df1e-4332-87a1-2299f4f1ba34","ios":"levelo://app?vid=c91884b8-df1e-4332-87a1-2299f4f1ba34"},"vehicle_type_id":"4","last_reported":1774783181,"current_range_meters":6000,"station_id":"ce4bh412rcd13ifvqds0","pricing_plan_id":"cebpf4jnsgd1na2vs0mg"},{"bike_id":"d42918c2-5949-42d0-8ebe-a9ca1daba3bd","system_id":"levelo_inurba_marseille","lat":43.28468,"lon":5.35887,"is_reserved":false,"is_disabled":true,"rental_uris":{"android":"levelo://app?vid=d42918c2-5949-42d0-8ebe-a9ca1daba3bd","ios":"levelo://app?vid=d42918c2-5949-42d0-8ebe-a9ca1daba3bd"},"vehicle_type_id":"4","last_reported":1774783181,"current_range_meters":6000,"station_id":"ce4bhah2rcd13ifvqei0","pricing_plan_id":"cebpf4jnsgd1na2vs0mg"},{"bike_id":"f41a6846-d9aa-4fd5-8b6d-0bd213e73c21","system_id":"levelo_inurba_marseille","lat":43.21755,"lon":5.34593,"is_reserved":false,"is_disabled":false,"rental_uris":{"android":"levelo://app?vid=f41a6846-d9aa-4fd5-8b6d-0bd213e73c21","ios":"levelo://app?vid=f41a6846-d9aa-4fd5-8b6d-0bd213e73c21"},"vehicle_type_id":"4","last_reported":1774783181,"current_range_meters":6000,"station_id":"st_cvj6r9ubvosntc0bgbag","pricing_plan_id":"cebpf4jnsgd1na2vs0mg"},{"bike_id":"f31d687b-f39f-4799-a123-ec0aec4b625b","system_id":"levelo_inurba_marseille","lat":43.30563,"lon":5.37225,"is_reserved":false,"is_disabled":true,"rental_uris":{"android":"levelo://app?vid=f31d687b-f39f-4799-a123-ec0aec4b625b","ios":"levelo://app?vid=f31d687b-f39f-4799-a123-ec0aec4b625b"},"vehicle_type_id":"4","last_reported":1774783181,"current_range_meters":6000,"station_id":"ce4bgqh2rcd13ifvqc4g","pricing_plan_id":"cebpf4jnsgd1na2vs0mg"},{"bike_id":"2c46e4b0-a2ca-415e-8d0e-765460846233","system_id":"levelo_inurba_marseille","lat":43.23155,"lon":5.43711,"is_reserved":false,"is_disabled":false,"rental_uris":{"android":"levelo://app?vid=2c46e4b0-a2ca-415e-8d0e-765460846233","ios":"levelo://app?vid=2c46e4b0-a2ca-415e-8d0e-765460846233"},"vehicle_type_id":"4","last_reported":1774783181,"current_range_meters":6000,"station_id":"ce4bhmp2rcd13ifvqgog","pricing_plan_id":"cebpf4jnsgd1na2vs0mg"},{"bike_id":"9bc0b937-b0d9-43c5-9555-6ff47bb13b73","system_id":"levelo_inurba_marseille","lat":43.33141,"lon":5.37661,"is_reserved":false,"is_disabled":false,"rental_uris":{"android":"levelo://app?vid=9bc0b937-b0d9-43c5-9555-6ff47bb13b73","ios":"levelo://app?vid=9bc0b937-b0d9-43c5-9555-6ff47bb13b73"},"vehicle_type_id":"4","last_reported":1774783181,"current_range_meters":6000,"station_id":"st_d46cu089ee8s73dldbu0","pricing_plan_id":"cebpf4jnsgd1na2vs0mg"},{"bike_id":"49e39be8-eb24-4546-93e2-5de0c50881b6","system_id":"levelo_inurba_marseille","lat":43.28701,"lon":5.39986,"is_reserved":false,"is_disabled":false,"rental_uris":{"android":"levelo://app?vid=49e39be8-eb24-4546-93e2-5de0c50881b6","ios":"levelo://app?vid=49e39be8-eb24-4546-93e2-5de0c50881b6"},"vehicle_type_id":"4","last_reported":1774783181,"current_range_meters":6400,"station_id":"ce4bho92rcd13ifvqh3g","pricing_plan_id":"cebpf4jnsgd1na2vs0mg"},{"bike_id":"2c76498e-1409-4d1d-aa11-912dd68ff926","system_id":"levelo_inurba_marseille","lat":43.28498,"lon":5.44044,"is_reserved":false,"is_disabled":false,"rental_uris":{"android":"levelo://app?vid=2c76498e-1409-4d1d-aa11-912dd68ff926","ios":"levelo://app?vid=2c76498e-1409-4d1d-aa11-912dd68ff926"},"vehicle_type_id":"4","last_reported":1774783181,"current_range_meters":6400,"station_id":"","pricing_plan_id":"cebpf4jnsgd1na2vs0mg"},{"bike_id":"44b061ea-ac90-4ccb-8d43-7cab8ff1f0e0","system_id":"levelo_inurba_marseille","lat":43.2594,"lon":5.39533,"is_reserved":false,"is_disabled":false,"rental_uris":{"android":"levelo://app?vid=44b061ea-ac90-4ccb-8d43-7cab8ff1f0e0","ios":"levelo://app?vid=44b061ea-ac90-4ccb-8d43-7cab8ff1f0e0"},"vehicle_type_id":"4","last_reported":1774783181,"current_range_meters":6400,"station_id":"","pricing_plan_id":"cebpf4jnsgd1na2vs0mg"},{"bike_id":"92cb4986-12bc-44d4-ad49-496427bf2b45","system_id":"levelo_inurba_marseille","lat":43.28562,"lon":5.441,"is_reserved":false,"is_disabled":false,"rental_uris":{"android":"levelo://app?vid=92cb4986-12bc-44d4-ad49-496427bf2b45","ios":"levelo://app?vid=92cb4986-12bc-44d4-ad49-496427bf2b45"},"vehicle_type_id":"4","last_reported":1774783181,"current_range_meters":6400,"station_id":"st_d3j3df2ikq2c7380ej80","pricing_plan_id":"cebpf4jnsgd1na2vs0mg"},{"bike_id":"76201515-ae70-408c-82ba-b2d7c39b0327","system_id":"levelo_inurba_marseille","lat":43.25103,"lon":5.4032,"is_reserved":false,"is_disabled":false,"rental_uris":{"android":"levelo://app?vid=76201515-ae70-408c-82ba-b2d7c39b0327","ios":"levelo://app?vid=76201515-ae70-408c-82ba-b2d7c39b0327"},"vehicle_type_id":"4","last_reported":1774783181,"current_range_meters":6400,"station_id":"ce4bhlh2rcd13ifvqgig","pricing_plan_id":"cebpf4jnsgd1na2vs0mg"},{"bike_id":"c370bafd-5a78-4bd3-9ffa-0af419393b20","system_id":"levelo_inurba_marseille","lat":43.24174,"lon":5.39732,"is_reserved":false,"is_disabled":false,"rental_uris":{"android":"levelo://app?vid=c370bafd-5a78-4bd3-9ffa-0af419393b20","ios":"levelo://app?vid=c370bafd-5a78-4bd3-9ffa-0af419393b20"},"vehicle_type_id":"4","last_reported":1774783181,"current_range_meters":6400,"station_id":"ce4bhn12rcd13ifvqgpg","pricing_plan_id":"cebpf4jnsgd1na2vs0mg"},{"bike_id":"8c941434-7bbe-479c-a48b-5170f2bc45af","system_id":"levelo_inurba_marseille","lat":43.24579,"lon":5.39501,"is_reserved":false,"is_disabled":false,"rental_uris":{"android":"levelo://app?vid=8c941434-7bbe-479c-a48b-5170f2bc45af","ios":"levelo://app?vid=8c941434-7bbe-479c-a48b-5170f2bc45af"},"vehicle_type_id":"4","last_reported":1774783181,"current_range_meters":6400,"station_id":"ce4bhlp2rcd13ifvqgjg","pricing_plan_id":"cebpf4jnsgd1na2vs0mg"},{"bike_id":"26b425c3-8620-40c5-a06d-0c005a193c92","system_id":"levelo_inurba_marseille","lat":43.22558,"lon":5.41625,"is_reserved":false,"is_disabled":false,"rental_uris":{"android":"levelo://app?vid=26b425c3-8620-40c5-a06d-0c005a193c92","ios":"levelo://app?vid=26b425c3-8620-40c5-a06d-0c005a193c92"},"vehicle_type_id":"4","last_reported":1774783181,"current_range_meters":6400,"station_id":"st_d2o4gvlbi1j2169b742g","pricing_plan_id":"cebpf4jnsgd1na2vs0mg"},{"bike_id":"0f430097-8d5e-4a5a-9147-4fc5e40a362e","system_id":"levelo_inurba_marseille","lat":43.33539,"lon":5.37457,"is_reserved":false,"is_disabled":false,"rental_uris":{"android":"levelo://app?vid=0f430097-8d5e-4a5a-9147-4fc5e40a362e","ios":"levelo://app?vid=0f430097-8d5e-4a5a-9147-4fc5e40a362e"},"vehicle_type_id":"4","last_reported":1774783181,"current_range_meters":6800,"station_id":"st_d46tts09ee8s73dlu43g","pricing_plan_id":"cebpf4jnsgd1na2vs0mg"},{"bike_id":"ce4bb8b5-8a16-4588-8ca5-c266a05621c6","system_id":"levelo_inurba_marseille","lat":43.239,"lon":5.37437,"is_reserved":false,"is_disabled":false,"rental_uris":{"android":"levelo://app?vid=ce4bb8b5-8a16-4588-8ca5-c266a05621c6","ios":"levelo://app?vid=ce4bb8b5-8a16-4588-8ca5-c266a05621c6"},"vehicle_type_id":"4","last_reported":1774783181,"current_range_meters":6800,"station_id":"st_d6sm7csbq4hs73f8fpjg","pricing_plan_id":"cebpf4jnsgd1na2vs0mg"},{"bike_id":"acdbcbe4-986b-4720-aa9c-30dd4cc4a0d9","system_id":"levelo_inurba_marseille","lat":43.29974,"lon":5.38497,"is_reserved":false,"is_disabled":false,"rental_uris":{"android":"levelo://app?vid=acdbcbe4-986b-4720-aa9c-30dd4cc4a0d9","ios":"levelo://app?vid=acdbcbe4-986b-4720-aa9c-30dd4cc4a0d9"},"vehicle_type_id":"4","last_reported":1774783181,"current_range_meters":6800,"station_id":"ce4bgj92rcd13ifvqbd0","pricing_plan_id":"cebpf4jnsgd1na2vs0mg"},{"bike_id":"659ccfdf-569f-4f01-84dd-6c9bbfa33ac4","system_id":"levelo_inurba_marseille","lat":43.23782,"lon":5.36629,"is_reserved":false,"is_disabled":false,"rental_uris":{"android":"levelo://app?vid=659ccfdf-569f-4f01-84dd-6c9bbfa33ac4","ios":"levelo://app?vid=659ccfdf-569f-4f01-84dd-6c9bbfa33ac4"},"vehicle_type_id":"4","last_reported":1774783181,"current_range_meters":6800,"station_id":"st_d3nk18o9ro0c73en2l3g","pricing_plan_id":"cebpf4jnsgd1na2vs0mg"},{"bike_id":"2f2b1d2c-1be4-402e-a839-6d84d3bfb79f","system_id":"levelo_inurba_marseille","lat":43.28428,"lon":5.34994,"is_reserved":false,"is_disabled":false,"rental_uris":{"android":"levelo://app?vid=2f2b1d2c-1be4-402e-a839-6d84d3bfb79f","ios":"levelo://app?vid=2f2b1d2c-1be4-402e-a839-6d84d3bfb79f"},"vehicle_type_id":"4","last_reported":1774783181,"current_range_meters":6800,"station_id":"ce4bhbh2rcd13ifvqepg","pricing_plan_id":"cebpf4jnsgd1na2vs0mg"},{"bike_id":"a67fc460-c077-4ade-9390-37cad8d5479c","system_id":"levelo_inurba_marseille","lat":43.2175,"lon":5.34603,"is_reserved":false,"is_disabled":false,"rental_uris":{"android":"levelo://app?vid=a67fc460-c077-4ade-9390-37cad8d5479c","ios":"levelo://app?vid=a67fc460-c077-4ade-9390-37cad8d5479c"},"vehicle_type_id":"4","last_reported":1774783181,"current_range_meters":6800,"station_id":"st_cvj6r9ubvosntc0bgbag","pricing_plan_id":"cebpf4jnsgd1na2vs0mg"},{"bike_id":"f359c56e-5568-4f21-9bf4-1d2f49c6c6e8","system_id":"levelo_inurba_marseille","lat":43.2409,"lon":5.37763,"is_reserved":false,"is_disabled":false,"rental_uris":{"android":"levelo://app?vid=f359c56e-5568-4f21-9bf4-1d2f49c6c6e8","ios":"levelo://app?vid=f359c56e-5568-4f21-9bf4-1d2f49c6c6e8"},"vehicle_type_id":"4","last_reported":1774783181,"current_range_meters":7200,"station_id":"ce4bhnp2rcd13ifvqgvg","pricing_plan_id":"cebpf4jnsgd1na2vs0mg"},{"bike_id":"cbdae8f2-2059-4bf5-8897-d44458cee5f3","system_id":"levelo_inurba_marseille","lat":43.32332,"lon":5.38903,"is_reserved":false,"is_disabled":false,"rental_uris":{"android":"levelo://app?vid=cbdae8f2-2059-4bf5-8897-d44458cee5f3","ios":"levelo://app?vid=cbdae8f2-2059-4bf5-8897-d44458cee5f3"},"vehicle_type_id":"4","last_reported":1774783181,"current_range_meters":7200,"station_id":"ce4bhqp2rcd13ifvqhog","pricing_plan_id":"cebpf4jnsgd1na2vs0mg"},{"bike_id":"b4aaed43-4eb1-46fa-9294-f300d65dba34","system_id":"levelo_inurba_marseille","lat":43.30262,"lon":5.40042,"is_reserved":false,"is_disabled":false,"rental_uris":{"android":"levelo://app?vid=b4aaed43-4eb1-46fa-9294-f300d65dba34","ios":"levelo://app?vid=b4aaed43-4eb1-46fa-9294-f300d65dba34"},"vehicle_type_id":"4","last_reported":1774783181,"current_range_meters":7200,"station_id":"ce4bgvh2rcd13ifvqcs0","pricing_plan_id":"cebpf4jnsgd1na2vs0mg"},{"bike_id":"02f24484-d422-40d6-996e-505884b43ff9","system_id":"levelo_inurba_marseille","lat":43.24569,"lon":5.39516,"is_reserved":false,"is_disabled":false,"rental_uris":{"android":"levelo://app?vid=02f24484-d422-40d6-996e-505884b43ff9","ios":"levelo://app?vid=02f24484-d422-40d6-996e-505884b43ff9"},"vehicle_type_id":"4","last_reported":1774783181,"current_range_meters":7200,"station_id":"ce4bhlp2rcd13ifvqgjg","pricing_plan_id":"cebpf4jnsgd1na2vs0mg"},{"bike_id":"2d0fdc3d-338a-4727-826c-caea44a0cbfa","system_id":"levelo_inurba_marseille","lat":43.29805,"lon":5.4406,"is_reserved":false,"is_disabled":false,"rental_uris":{"android":"levelo://app?vid=2d0fdc3d-338a-4727-826c-caea44a0cbfa","ios":"levelo://app?vid=2d0fdc3d-338a-4727-826c-caea44a0cbfa"},"vehicle_type_id":"4","last_reported":1774783181,"current_range_meters":7200,"station_id":"st_d3jp68qikq2c7381ktn0","pricing_plan_id":"cebpf4jnsgd1na2vs0mg"},{"bike_id":"1b52061f-2407-41b6-9fde-eceac5ab1e54","system_id":"levelo_inurba_marseille","lat":43.21192,"lon":5.3506,"is_reserved":false,"is_disabled":false,"rental_uris":{"android":"levelo://app?vid=1b52061f-2407-41b6-9fde-eceac5ab1e54","ios":"levelo://app?vid=1b52061f-2407-41b6-9fde-eceac5ab1e54"},"vehicle_type_id":"4","last_reported":1774783181,"current_range_meters":7200,"station_id":"st_cvj6sg6p6f1abm77japg","pricing_plan_id":"cebpf4jnsgd1na2vs0mg"},{"bike_id":"baf7c004-e890-47af-ba3f-3dcb4a5e4db3","system_id":"levelo_inurba_marseille","lat":43.24649,"lon":5.3888,"is_reserved":false,"is_disabled":false,"rental_uris":{"android":"levelo://app?vid=baf7c004-e890-47af-ba3f-3dcb4a5e4db3","ios":"levelo://app?vid=baf7c004-e890-47af-ba3f-3dcb4a5e4db3"},"vehicle_type_id":"4","last_reported":1774783181,"current_range_meters":7200,"station_id":"ce4bhg12rcd13ifvqf60","pricing_plan_id":"cebpf4jnsgd1na2vs0mg"},{"bike_id":"5dc7a0c1-467a-4151-97ef-a8a655c4f7a5","system_id":"levelo_inurba_marseille","lat":43.28471,"lon":5.48404,"is_reserved":false,"is_disabled":false,"rental_uris":{"android":"levelo://app?vid=5dc7a0c1-467a-4151-97ef-a8a655c4f7a5","ios":"levelo://app?vid=5dc7a0c1-467a-4151-97ef-a8a655c4f7a5"},"vehicle_type_id":"4","last_reported":1774783181,"current_range_meters":7200,"station_id":"","pricing_plan_id":"cebpf4jnsgd1na2vs0mg"},{"bike_id":"4a218af2-f2d1-4390-94dd-d5a265584f25","system_id":"levelo_inurba_marseille","lat":43.30528,"lon":5.36528,"is_reserved":false,"is_disabled":false,"rental_uris":{"android":"levelo://app?vid=4a218af2-f2d1-4390-94dd-d5a265584f25","ios":"levelo://app?vid=4a218af2-f2d1-4390-94dd-d5a265584f25"},"vehicle_type_id":"4","last_reported":1774783181,"current_range_meters":7200,"station_id":"ce4bgs12rcd13ifvqcag","pricing_plan_id":"cebpf4jnsgd1na2vs0mg"},{"bike_id":"56603236-0b6d-44e6-924a-3489e7c8fead","system_id":"levelo_inurba_marseille","lat":43.25732,"lon":5.38711,"is_reserved":false,"is_disabled":false,"rental_uris":{"android":"levelo://app?vid=56603236-0b6d-44e6-924a-3489e7c8fead","ios":"levelo://app?vid=56603236-0b6d-44e6-924a-3489e7c8fead"},"vehicle_type_id":"4","last_reported":1774783181,"current_range_meters":7200,"station_id":"","pricing_plan_id":"cebpf4jnsgd1na2vs0mg"},{"bike_id":"56ed71d3-4f24-4bcb-9e63-f10b7aa4866e","system_id":"levelo_inurba_marseille","lat":43.28414,"lon":5.34984,"is_reserved":false,"is_disabled":false,"rental_uris":{"android":"levelo://app?vid=56ed71d3-4f24-4bcb-9e63-f10b7aa4866e","ios":"levelo://app?vid=56ed71d3-4f24-4bcb-9e63-f10b7aa4866e"},"vehicle_type_id":"4","last_reported":1774783181,"current_range_meters":7200,"station_id":"ce4bhbh2rcd13ifvqepg","pricing_plan_id":"cebpf4jnsgd1na2vs0mg"},{"bike_id":"fe46a177-f80a-4d69-b2ae-915d23543f7e","system_id":"levelo_inurba_marseille","lat":43.30354,"lon":5.41892,"is_reserved":false,"is_disabled":false,"rental_uris":{"android":"levelo://app?vid=fe46a177-f80a-4d69-b2ae-915d23543f7e","ios":"levelo://app?vid=fe46a177-f80a-4d69-b2ae-915d23543f7e"},"vehicle_type_id":"4","last_reported":1774783181,"current_range_meters":7200,"station_id":"ce4bhop2rcd13ifvqh7g","pricing_plan_id":"cebpf4jnsgd1na2vs0mg"},{"bike_id":"b5781b13-bba5-4ca9-93f9-76535dda9776","system_id":"levelo_inurba_marseille","lat":43.29846,"lon":5.36276,"is_reserved":false,"is_disabled":false,"rental_uris":{"android":"levelo://app?vid=b5781b13-bba5-4ca9-93f9-76535dda9776","ios":"levelo://app?vid=b5781b13-bba5-4ca9-93f9-76535dda9776"},"vehicle_type_id":"4","last_reported":1774783181,"current_range_meters":7200,"station_id":"ce4bgpp2rcd13ifvqc3g","pricing_plan_id":"cebpf4jnsgd1na2vs0mg"},{"bike_id":"76380f9f-68b9-4a7f-b979-03a7f2dfda33","system_id":"levelo_inurba_marseille","lat":43.29568,"lon":5.37519,"is_reserved":false,"is_disabled":false,"rental_uris":{"android":"levelo://app?vid=76380f9f-68b9-4a7f-b979-03a7f2dfda33","ios":"levelo://app?vid=76380f9f-68b9-4a7f-b979-03a7f2dfda33"},"vehicle_type_id":"4","last_reported":1774783181,"current_range_meters":7200,"station_id":"ce4bgh92rcd13ifvqb50","pricing_plan_id":"cebpf4jnsgd1na2vs0mg"},{"bike_id":"b8394b2d-a1de-4bd2-9f24-92a64dcc9e4c","system_id":"levelo_inurba_marseille","lat":43.29533,"lon":5.38548,"is_reserved":false,"is_disabled":false,"rental_uris":{"android":"levelo://app?vid=b8394b2d-a1de-4bd2-9f24-92a64dcc9e4c","ios":"levelo://app?vid=b8394b2d-a1de-4bd2-9f24-92a64dcc9e4c"},"vehicle_type_id":"4","last_reported":1774783181,"current_range_meters":7200,"station_id":"","pricing_plan_id":"cebpf4jnsgd1na2vs0mg"},{"bike_id":"860407bc-513f-4910-b3a0-87ea13c637b1","system_id":"levelo_inurba_marseille","lat":43.28536,"lon":5.44106,"is_reserved":false,"is_disabled":false,"rental_uris":{"android":"levelo://app?vid=860407bc-513f-4910-b3a0-87ea13c637b1","ios":"levelo://app?vid=860407bc-513f-4910-b3a0-87ea13c637b1"},"vehicle_type_id":"4","last_reported":1774783181,"current_range_meters":8000,"station_id":"st_d3j3df2ikq2c7380ej80","pricing_plan_id":"cebpf4jnsgd1na2vs0mg"},{"bike_id":"a67226ee-3237-4e8b-9f2f-b21b539af8b6","system_id":"levelo_inurba_marseille","lat":43.26363,"lon":5.41057,"is_reserved":false,"is_disabled":false,"rental_uris":{"android":"levelo://app?vid=a67226ee-3237-4e8b-9f2f-b21b539af8b6","ios":"levelo://app?vid=a67226ee-3237-4e8b-9f2f-b21b539af8b6"},"vehicle_type_id":"4","last_reported":1774783181,"current_range_meters":8000,"station_id":"st_d4e5ca6na9uc73bfl5fg","pricing_plan_id":"cebpf4jnsgd1na2vs0mg"},{"bike_id":"345872dc-6cdd-47db-a22e-41d392ca5071","system_id":"levelo_inurba_marseille","lat":43.29556,"lon":5.4228,"is_reserved":false,"is_disabled":false,"rental_uris":{"android":"levelo://app?vid=345872dc-6cdd-47db-a22e-41d392ca5071","ios":"levelo://app?vid=345872dc-6cdd-47db-a22e-41d392ca5071"},"vehicle_type_id":"4","last_reported":1774783181,"current_range_meters":8000,"station_id":"ce4bhph2rcd13ifvqhdg","pricing_plan_id":"cebpf4jnsgd1na2vs0mg"},{"bike_id":"2de38fd0-4d56-4129-8633-4ee1741a5e1b","system_id":"levelo_inurba_marseille","lat":43.21199,"lon":5.35076,"is_reserved":false,"is_disabled":false,"rental_uris":{"android":"levelo://app?vid=2de38fd0-4d56-4129-8633-4ee1741a5e1b","ios":"levelo://app?vid=2de38fd0-4d56-4129-8633-4ee1741a5e1b"},"vehicle_type_id":"4","last_reported":1774783181,"current_range_meters":8000,"station_id":"st_cvj6sg6p6f1abm77japg","pricing_plan_id":"cebpf4jnsgd1na2vs0mg"},{"bike_id":"3f200426-1eba-4d5e-acb1-a1a43666133b","system_id":"levelo_inurba_marseille","lat":43.21196,"lon":5.35048,"is_reserved":false,"is_disabled":false,"rental_uris":{"android":"levelo://app?vid=3f200426-1eba-4d5e-acb1-a1a43666133b","ios":"levelo://app?vid=3f200426-1eba-4d5e-acb1-a1a43666133b"},"vehicle_type_id":"4","last_reported":1774783181,"current_range_meters":8000,"station_id":"st_cvj6sg6p6f1abm77japg","pricing_plan_id":"cebpf4jnsgd1na2vs0mg"},{"bike_id":"c0770d51-a5b7-4365-82af-877ad2e93493","system_id":"levelo_inurba_marseille","lat":43.28612,"lon":5.35106,"is_reserved":false,"is_disabled":false,"rental_uris":{"android":"levelo://app?vid=c0770d51-a5b7-4365-82af-877ad2e93493","ios":"levelo://app?vid=c0770d51-a5b7-4365-82af-877ad2e93493"},"vehicle_type_id":"4","last_reported":1774783181,"current_range_meters":8000,"station_id":"ce4bhch2rcd13ifvqeug","pricing_plan_id":"cebpf4jnsgd1na2vs0mg"},{"bike_id":"90aaae4f-4bea-44a9-9991-726dd88eccf2","system_id":"levelo_inurba_marseille","lat":43.23375,"lon":5.41217,"is_reserved":false,"is_disabled":true,"rental_uris":{"android":"levelo://app?vid=90aaae4f-4bea-44a9-9991-726dd88eccf2","ios":"levelo://app?vid=90aaae4f-4bea-44a9-9991-726dd88eccf2"},"vehicle_type_id":"4","last_reported":1774783181,"current_range_meters":8000,"station_id":"","pricing_plan_id":"cebpf4jnsgd1na2vs0mg"},{"bike_id":"c609aa61-79d9-47bd-b7b7-62d640d7b9ef","system_id":"levelo_inurba_marseille","lat":43.26569,"lon":5.37278,"is_reserved":false,"is_disabled":true,"rental_uris":{"android":"levelo://app?vid=c609aa61-79d9-47bd-b7b7-62d640d7b9ef","ios":"levelo://app?vid=c609aa61-79d9-47bd-b7b7-62d640d7b9ef"},"vehicle_type_id":"4","last_reported":1774783181,"current_range_meters":8000,"station_id":"ce4bhg12rcd13ifvqf70","pricing_plan_id":"cebpf4jnsgd1na2vs0mg"},{"bike_id":"b8bf157e-659b-4230-b7a5-7abce9abcca2","system_id":"levelo_inurba_marseille","lat":43.2467,"lon":5.38168,"is_reserved":false,"is_disabled":false,"rental_uris":{"android":"levelo://app?vid=b8bf157e-659b-4230-b7a5-7abce9abcca2","ios":"levelo://app?vid=b8bf157e-659b-4230-b7a5-7abce9abcca2"},"vehicle_type_id":"4","last_reported":1774783181,"current_range_meters":8000,"station_id":"ce4bhih2rcd13ifvqfr0","pricing_plan_id":"cebpf4jnsgd1na2vs0mg"},{"bike_id":"8b1fb8c6-b47c-4f5d-a426-634c42e0dcfc","system_id":"levelo_inurba_marseille","lat":43.28541,"lon":5.44097,"is_reserved":false,"is_disabled":false,"rental_uris":{"android":"levelo://app?vid=8b1fb8c6-b47c-4f5d-a426-634c42e0dcfc","ios":"levelo://app?vid=8b1fb8c6-b47c-4f5d-a426-634c42e0dcfc"},"vehicle_type_id":"4","last_reported":1774783181,"current_range_meters":8000,"station_id":"st_d3j3df2ikq2c7380ej80","pricing_plan_id":"cebpf4jnsgd1na2vs0mg"},{"bike_id":"c81f22e8-21db-4c70-8596-d574dd26cced","system_id":"levelo_inurba_marseille","lat":43.24423,"lon":5.37402,"is_reserved":false,"is_disabled":false,"rental_uris":{"android":"levelo://app?vid=c81f22e8-21db-4c70-8596-d574dd26cced","ios":"levelo://app?vid=c81f22e8-21db-4c70-8596-d574dd26cced"},"vehicle_type_id":"4","last_reported":1774783181,"current_range_meters":8000,"station_id":"","pricing_plan_id":"cebpf4jnsgd1na2vs0mg"},{"bike_id":"ad6e85ce-4347-4dcc-b444-687c3ea5eab5","system_id":"levelo_inurba_marseille","lat":43.305531,"lon":5.36549,"is_reserved":false,"is_disabled":false,"rental_uris":{"android":"levelo://app?vid=ad6e85ce-4347-4dcc-b444-687c3ea5eab5","ios":"levelo://app?vid=ad6e85ce-4347-4dcc-b444-687c3ea5eab5"},"vehicle_type_id":"4","last_reported":1774783181,"current_range_meters":8000,"station_id":"ce4bgs12rcd13ifvqcag","pricing_plan_id":"cebpf4jnsgd1na2vs0mg"},{"bike_id":"86158243-0de7-41f0-b955-e75f48e85b06","system_id":"levelo_inurba_marseille","lat":43.302592,"lon":5.400803,"is_reserved":false,"is_disabled":false,"rental_uris":{"android":"levelo://app?vid=86158243-0de7-41f0-b955-e75f48e85b06","ios":"levelo://app?vid=86158243-0de7-41f0-b955-e75f48e85b06"},"vehicle_type_id":"4","last_reported":1774783181,"current_range_meters":8000,"station_id":"ce4bgt92rcd13ifvqcg0","pricing_plan_id":"cebpf4jnsgd1na2vs0mg"},{"bike_id":"dfc0a723-3d5e-464e-b9a1-a08d080635ce","system_id":"levelo_inurba_marseille","lat":43.23814,"lon":5.41425,"is_reserved":false,"is_disabled":false,"rental_uris":{"android":"levelo://app?vid=dfc0a723-3d5e-464e-b9a1-a08d080635ce","ios":"levelo://app?vid=dfc0a723-3d5e-464e-b9a1-a08d080635ce"},"vehicle_type_id":"4","last_reported":1774783181,"current_range_meters":8000,"station_id":"","pricing_plan_id":"cebpf4jnsgd1na2vs0mg"},{"bike_id":"0b625f23-54c1-4d3a-8218-f5973ae3b902","system_id":"levelo_inurba_marseille","lat":43.28619,"lon":5.35103,"is_reserved":false,"is_disabled":false,"rental_uris":{"android":"levelo://app?vid=0b625f23-54c1-4d3a-8218-f5973ae3b902","ios":"levelo://app?vid=0b625f23-54c1-4d3a-8218-f5973ae3b902"},"vehicle_type_id":"4","last_reported":1774783181,"current_range_meters":8000,"station_id":"ce4bhch2rcd13ifvqeug","pricing_plan_id":"cebpf4jnsgd1na2vs0mg"},{"bike_id":"4563e8d6-62ce-4e27-a283-6f0663dd501e","system_id":"levelo_inurba_marseille","lat":43.2256,"lon":5.41627,"is_reserved":false,"is_disabled":false,"rental_uris":{"android":"levelo://app?vid=4563e8d6-62ce-4e27-a283-6f0663dd501e","ios":"levelo://app?vid=4563e8d6-62ce-4e27-a283-6f0663dd501e"},"vehicle_type_id":"4","last_reported":1774783181,"current_range_meters":8000,"station_id":"st_d2o4gvlbi1j2169b742g","pricing_plan_id":"cebpf4jnsgd1na2vs0mg"},{"bike_id":"37577dc6-74f3-4396-9ab3-c9d183f9897e","system_id":"levelo_inurba_marseille","lat":43.28034,"lon":5.36945,"is_reserved":false,"is_disabled":false,"rental_uris":{"android":"levelo://app?vid=37577dc6-74f3-4396-9ab3-c9d183f9897e","ios":"levelo://app?vid=37577dc6-74f3-4396-9ab3-c9d183f9897e"},"vehicle_type_id":"4","last_reported":1774783181,"current_range_meters":8400,"station_id":"ce4bha12rcd13ifvqef0","pricing_plan_id":"cebpf4jnsgd1na2vs0mg"},{"bike_id":"c3ad9aae-2095-478f-b355-43899e698b74","system_id":"levelo_inurba_marseille","lat":43.29531,"lon":5.38666,"is_reserved":false,"is_disabled":false,"rental_uris":{"android":"levelo://app?vid=c3ad9aae-2095-478f-b355-43899e698b74","ios":"levelo://app?vid=c3ad9aae-2095-478f-b355-43899e698b74"},"vehicle_type_id":"4","last_reported":1774783181,"current_range_meters":8400,"station_id":"","pricing_plan_id":"cebpf4jnsgd1na2vs0mg"},{"bike_id":"2457fc1b-679d-4a71-90e9-ad408ab6ed9d","system_id":"levelo_inurba_marseille","lat":43.33269,"lon":5.37919,"is_reserved":false,"is_disabled":false,"rental_uris":{"android":"levelo://app?vid=2457fc1b-679d-4a71-90e9-ad408ab6ed9d","ios":"levelo://app?vid=2457fc1b-679d-4a71-90e9-ad408ab6ed9d"},"vehicle_type_id":"4","last_reported":1774783181,"current_range_meters":8400,"station_id":"","pricing_plan_id":"cebpf4jnsgd1na2vs0mg"},{"bike_id":"4c8edb77-6990-4523-8854-89105419295b","system_id":"levelo_inurba_marseille","lat":43.29743,"lon":5.37668,"is_reserved":false,"is_disabled":false,"rental_uris":{"android":"levelo://app?vid=4c8edb77-6990-4523-8854-89105419295b","ios":"levelo://app?vid=4c8edb77-6990-4523-8854-89105419295b"},"vehicle_type_id":"4","last_reported":1774783181,"current_range_meters":8400,"station_id":"ce4bgkh2rcd13ifvqbl0","pricing_plan_id":"cebpf4jnsgd1na2vs0mg"},{"bike_id":"251df61b-45c4-43d5-9822-304f775fe00b","system_id":"levelo_inurba_marseille","lat":43.31492,"lon":5.3729,"is_reserved":false,"is_disabled":false,"rental_uris":{"android":"levelo://app?vid=251df61b-45c4-43d5-9822-304f775fe00b","ios":"levelo://app?vid=251df61b-45c4-43d5-9822-304f775fe00b"},"vehicle_type_id":"4","last_reported":1774783181,"current_range_meters":8400,"station_id":"ce4bgt12rcd13ifvqcd0","pricing_plan_id":"cebpf4jnsgd1na2vs0mg"},{"bike_id":"4b8bd687-040a-43a0-9ca8-957b0e4f64cc","system_id":"levelo_inurba_marseille","lat":43.28409,"lon":5.37515,"is_reserved":false,"is_disabled":false,"rental_uris":{"android":"levelo://app?vid=4b8bd687-040a-43a0-9ca8-957b0e4f64cc","ios":"levelo://app?vid=4b8bd687-040a-43a0-9ca8-957b0e4f64cc"},"vehicle_type_id":"4","last_reported":1774783181,"current_range_meters":8400,"station_id":"ce4bh412rcd13ifvqds0","pricing_plan_id":"cebpf4jnsgd1na2vs0mg"},{"bike_id":"32a7a92c-b34f-4be3-bc6d-bf21d2e60027","system_id":"levelo_inurba_marseille","lat":43.32742,"lon":5.36656,"is_reserved":false,"is_disabled":true,"rental_uris":{"android":"levelo://app?vid=32a7a92c-b34f-4be3-bc6d-bf21d2e60027","ios":"levelo://app?vid=32a7a92c-b34f-4be3-bc6d-bf21d2e60027"},"vehicle_type_id":"4","last_reported":1774783181,"current_range_meters":8400,"station_id":"","pricing_plan_id":"cebpf4jnsgd1na2vs0mg"},{"bike_id":"8ebdddeb-65fa-4a6a-a7a1-243a6f4f1f0d","system_id":"levelo_inurba_marseille","lat":43.30409,"lon":5.3975,"is_reserved":false,"is_disabled":true,"rental_uris":{"android":"levelo://app?vid=8ebdddeb-65fa-4a6a-a7a1-243a6f4f1f0d","ios":"levelo://app?vid=8ebdddeb-65fa-4a6a-a7a1-243a6f4f1f0d"},"vehicle_type_id":"4","last_reported":1774783181,"current_range_meters":8400,"station_id":"ce4bh092rcd13ifvqd20","pricing_plan_id":"cebpf4jnsgd1na2vs0mg"},{"bike_id":"25a215c0-6185-4988-a946-459e463e94c2","system_id":"levelo_inurba_marseille","lat":43.28603,"lon":5.35119,"is_reserved":false,"is_disabled":false,"rental_uris":{"android":"levelo://app?vid=25a215c0-6185-4988-a946-459e463e94c2","ios":"levelo://app?vid=25a215c0-6185-4988-a946-459e463e94c2"},"vehicle_type_id":"4","last_reported":1774783181,"current_range_meters":8400,"station_id":"ce4bhch2rcd13ifvqeug","pricing_plan_id":"cebpf4jnsgd1na2vs0mg"},{"bike_id":"4632252b-ae52-448c-8098-4aac9bdc698d","system_id":"levelo_inurba_marseille","lat":43.32658,"lon":5.40993,"is_reserved":false,"is_disabled":false,"rental_uris":{"android":"levelo://app?vid=4632252b-ae52-448c-8098-4aac9bdc698d","ios":"levelo://app?vid=4632252b-ae52-448c-8098-4aac9bdc698d"},"vehicle_type_id":"4","last_reported":1774783181,"current_range_meters":8400,"station_id":"ce4bhpp2rcd13ifvqhgg","pricing_plan_id":"cebpf4jnsgd1na2vs0mg"},{"bike_id":"7bfa471e-b3ab-4a36-bde2-63f6dd1a53f4","system_id":"levelo_inurba_marseille","lat":43.28705,"lon":5.37406,"is_reserved":false,"is_disabled":false,"rental_uris":{"android":"levelo://app?vid=7bfa471e-b3ab-4a36-bde2-63f6dd1a53f4","ios":"levelo://app?vid=7bfa471e-b3ab-4a36-bde2-63f6dd1a53f4"},"vehicle_type_id":"4","last_reported":1774783181,"current_range_meters":8400,"station_id":"ce4bh3p2rcd13ifvqdq0","pricing_plan_id":"cebpf4jnsgd1na2vs0mg"},{"bike_id":"630e3311-70ce-4726-82ff-5b8a2c82a77d","system_id":"levelo_inurba_marseille","lat":43.2606,"lon":5.39391,"is_reserved":false,"is_disabled":false,"rental_uris":{"android":"levelo://app?vid=630e3311-70ce-4726-82ff-5b8a2c82a77d","ios":"levelo://app?vid=630e3311-70ce-4726-82ff-5b8a2c82a77d"},"vehicle_type_id":"4","last_reported":1774783181,"current_range_meters":8400,"station_id":"ce4bhh92rcd13ifvqfj0","pricing_plan_id":"cebpf4jnsgd1na2vs0mg"},{"bike_id":"4b78a906-a644-47b7-8f58-983ab6b8c664","system_id":"levelo_inurba_marseille","lat":43.28411,"lon":5.35001,"is_reserved":false,"is_disabled":false,"rental_uris":{"android":"levelo://app?vid=4b78a906-a644-47b7-8f58-983ab6b8c664","ios":"levelo://app?vid=4b78a906-a644-47b7-8f58-983ab6b8c664"},"vehicle_type_id":"4","last_reported":1774783181,"current_range_meters":8800,"station_id":"ce4bhbh2rcd13ifvqepg","pricing_plan_id":"cebpf4jnsgd1na2vs0mg"},{"bike_id":"4a1cd1f9-dee8-4a38-9996-334929ed333a","system_id":"levelo_inurba_marseille","lat":43.24126,"lon":5.39752,"is_reserved":false,"is_disabled":false,"rental_uris":{"android":"levelo://app?vid=4a1cd1f9-dee8-4a38-9996-334929ed333a","ios":"levelo://app?vid=4a1cd1f9-dee8-4a38-9996-334929ed333a"},"vehicle_type_id":"4","last_reported":1774783181,"current_range_meters":8800,"station_id":"","pricing_plan_id":"cebpf4jnsgd1na2vs0mg"},{"bike_id":"f1c74761-949e-4a3e-ad23-36d7c20a51bf","system_id":"levelo_inurba_marseille","lat":43.25008,"lon":5.38937,"is_reserved":false,"is_disabled":false,"rental_uris":{"android":"levelo://app?vid=f1c74761-949e-4a3e-ad23-36d7c20a51bf","ios":"levelo://app?vid=f1c74761-949e-4a3e-ad23-36d7c20a51bf"},"vehicle_type_id":"4","last_reported":1774783181,"current_range_meters":8800,"station_id":"ce4bhgp2rcd13ifvqfd0","pricing_plan_id":"cebpf4jnsgd1na2vs0mg"},{"bike_id":"b10cd98a-f58f-4214-a0f6-dddda0746278","system_id":"levelo_inurba_marseille","lat":43.31314,"lon":5.36746,"is_reserved":false,"is_disabled":false,"rental_uris":{"android":"levelo://app?vid=b10cd98a-f58f-4214-a0f6-dddda0746278","ios":"levelo://app?vid=b10cd98a-f58f-4214-a0f6-dddda0746278"},"vehicle_type_id":"4","last_reported":1774783181,"current_range_meters":8800,"station_id":"ce4bgr92rcd13ifvqc6g","pricing_plan_id":"cebpf4jnsgd1na2vs0mg"},{"bike_id":"091fbb56-7d3b-4ffb-8a03-f31144f96123","system_id":"levelo_inurba_marseille","lat":43.25126,"lon":5.40366,"is_reserved":false,"is_disabled":false,"rental_uris":{"android":"levelo://app?vid=091fbb56-7d3b-4ffb-8a03-f31144f96123","ios":"levelo://app?vid=091fbb56-7d3b-4ffb-8a03-f31144f96123"},"vehicle_type_id":"4","last_reported":1774783181,"current_range_meters":8800,"station_id":"ce4bhlh2rcd13ifvqgig","pricing_plan_id":"cebpf4jnsgd1na2vs0mg"},{"bike_id":"aeca9453-ce08-40c1-8c68-c50a96f12fa4","system_id":"levelo_inurba_marseille","lat":43.28616,"lon":5.35113,"is_reserved":false,"is_disabled":false,"rental_uris":{"android":"levelo://app?vid=aeca9453-ce08-40c1-8c68-c50a96f12fa4","ios":"levelo://app?vid=aeca9453-ce08-40c1-8c68-c50a96f12fa4"},"vehicle_type_id":"4","last_reported":1774783181,"current_range_meters":8800,"station_id":"ce4bhch2rcd13ifvqeug","pricing_plan_id":"cebpf4jnsgd1na2vs0mg"},{"bike_id":"e36372e8-db49-4a5b-8b29-241f8d5a7445","system_id":"levelo_inurba_marseille","lat":43.28401,"lon":5.37562,"is_reserved":false,"is_disabled":false,"rental_uris":{"android":"levelo://app?vid=e36372e8-db49-4a5b-8b29-241f8d5a7445","ios":"levelo://app?vid=e36372e8-db49-4a5b-8b29-241f8d5a7445"},"vehicle_type_id":"4","last_reported":1774783181,"current_range_meters":8800,"station_id":"ce4bh412rcd13ifvqds0","pricing_plan_id":"cebpf4jnsgd1na2vs0mg"},{"bike_id":"e78df1bf-ea66-40c9-b8dd-be73a39597aa","system_id":"levelo_inurba_marseille","lat":43.29524,"lon":5.39012,"is_reserved":false,"is_disabled":true,"rental_uris":{"android":"levelo://app?vid=e78df1bf-ea66-40c9-b8dd-be73a39597aa","ios":"levelo://app?vid=e78df1bf-ea66-40c9-b8dd-be73a39597aa"},"vehicle_type_id":"4","last_reported":1774783181,"current_range_meters":8800,"station_id":"ce4bh3p2rcd13ifvqdp0","pricing_plan_id":"cebpf4jnsgd1na2vs0mg"},{"bike_id":"a26521b6-ae36-49b3-8c17-71b965eb6e3c","system_id":"levelo_inurba_marseille","lat":43.26031,"lon":5.37544,"is_reserved":false,"is_disabled":false,"rental_uris":{"android":"levelo://app?vid=a26521b6-ae36-49b3-8c17-71b965eb6e3c","ios":"levelo://app?vid=a26521b6-ae36-49b3-8c17-71b965eb6e3c"},"vehicle_type_id":"4","last_reported":1774783181,"current_range_meters":8800,"station_id":"ce4bhgh2rcd13ifvqfa0","pricing_plan_id":"cebpf4jnsgd1na2vs0mg"},{"bike_id":"b4dd00eb-e494-45a6-9b0b-914f0da4cc47","system_id":"levelo_inurba_marseille","lat":43.31233,"lon":5.3688,"is_reserved":false,"is_disabled":false,"rental_uris":{"android":"levelo://app?vid=b4dd00eb-e494-45a6-9b0b-914f0da4cc47","ios":"levelo://app?vid=b4dd00eb-e494-45a6-9b0b-914f0da4cc47"},"vehicle_type_id":"4","last_reported":1774783181,"current_range_meters":8800,"station_id":"ce4bgl92rcd13ifvqbq0","pricing_plan_id":"cebpf4jnsgd1na2vs0mg"},{"bike_id":"855896c7-1d47-46c5-847f-925777f9ad5c","system_id":"levelo_inurba_marseille","lat":43.30007,"lon":5.38462,"is_reserved":false,"is_disabled":true,"rental_uris":{"android":"levelo://app?vid=855896c7-1d47-46c5-847f-925777f9ad5c","ios":"levelo://app?vid=855896c7-1d47-46c5-847f-925777f9ad5c"},"vehicle_type_id":"4","last_reported":1774783181,"current_range_meters":8800,"station_id":"ce4bgj92rcd13ifvqbd0","pricing_plan_id":"cebpf4jnsgd1na2vs0mg"},{"bike_id":"83c421a9-58a3-4017-9a24-08613107f879","system_id":"levelo_inurba_marseille","lat":43.30145,"lon":5.39892,"is_reserved":false,"is_disabled":true,"rental_uris":{"android":"levelo://app?vid=83c421a9-58a3-4017-9a24-08613107f879","ios":"levelo://app?vid=83c421a9-58a3-4017-9a24-08613107f879"},"vehicle_type_id":"4","last_reported":1774783181,"current_range_meters":8800,"station_id":"ce4bh0h2rcd13ifvqd40","pricing_plan_id":"cebpf4jnsgd1na2vs0mg"},{"bike_id":"b236f643-53ba-43fa-b29d-c90773116eb2","system_id":"levelo_inurba_marseille","lat":43.2447,"lon":5.42532,"is_reserved":false,"is_disabled":false,"rental_uris":{"android":"levelo://app?vid=b236f643-53ba-43fa-b29d-c90773116eb2","ios":"levelo://app?vid=b236f643-53ba-43fa-b29d-c90773116eb2"},"vehicle_type_id":"4","last_reported":1774783181,"current_range_meters":8800,"station_id":"st_d4a3vfp97mjs738cd8kg","pricing_plan_id":"cebpf4jnsgd1na2vs0mg"},{"bike_id":"c3b94241-2775-4cd4-b8ff-695de7c4631c","system_id":"levelo_inurba_marseille","lat":43.25406,"lon":5.41894,"is_reserved":false,"is_disabled":false,"rental_uris":{"android":"levelo://app?vid=c3b94241-2775-4cd4-b8ff-695de7c4631c","ios":"levelo://app?vid=c3b94241-2775-4cd4-b8ff-695de7c4631c"},"vehicle_type_id":"4","last_reported":1774783181,"current_range_meters":8800,"station_id":"","pricing_plan_id":"cebpf4jnsgd1na2vs0mg"},{"bike_id":"bfddc201-8f4a-483c-9f8e-b5162374e5bb","system_id":"levelo_inurba_marseille","lat":43.29077,"lon":5.43088,"is_reserved":false,"is_disabled":false,"rental_uris":{"android":"levelo://app?vid=bfddc201-8f4a-483c-9f8e-b5162374e5bb","ios":"levelo://app?vid=bfddc201-8f4a-483c-9f8e-b5162374e5bb"},"vehicle_type_id":"4","last_reported":1774783181,"current_range_meters":8800,"station_id":"","pricing_plan_id":"cebpf4jnsgd1na2vs0mg"},{"bike_id":"48c12b74-6f3a-40a8-94b3-e62be28f6fcf","system_id":"levelo_inurba_marseille","lat":43.32355,"lon":5.36732,"is_reserved":false,"is_disabled":false,"rental_uris":{"android":"levelo://app?vid=48c12b74-6f3a-40a8-94b3-e62be28f6fcf","ios":"levelo://app?vid=48c12b74-6f3a-40a8-94b3-e62be28f6fcf"},"vehicle_type_id":"4","last_reported":1774783181,"current_range_meters":8800,"station_id":"ce4bhsh2rcd13ifvqi2g","pricing_plan_id":"cebpf4jnsgd1na2vs0mg"},{"bike_id":"8efaf94a-553c-4be0-aacc-a876b10b3ac1","system_id":"levelo_inurba_marseille","lat":43.32371,"lon":5.36785,"is_reserved":false,"is_disabled":false,"rental_uris":{"android":"levelo://app?vid=8efaf94a-553c-4be0-aacc-a876b10b3ac1","ios":"levelo://app?vid=8efaf94a-553c-4be0-aacc-a876b10b3ac1"},"vehicle_type_id":"4","last_reported":1774783181,"current_range_meters":8800,"station_id":"ce4bhsh2rcd13ifvqi2g","pricing_plan_id":"cebpf4jnsgd1na2vs0mg"},{"bike_id":"f65f9ba1-6303-4d94-8334-3ce721a50aca","system_id":"levelo_inurba_marseille","lat":43.25828,"lon":5.39426,"is_reserved":false,"is_disabled":false,"rental_uris":{"android":"levelo://app?vid=f65f9ba1-6303-4d94-8334-3ce721a50aca","ios":"levelo://app?vid=f65f9ba1-6303-4d94-8334-3ce721a50aca"},"vehicle_type_id":"4","last_reported":1774783181,"current_range_meters":8800,"station_id":"ce4bhip2rcd13ifvqft0","pricing_plan_id":"cebpf4jnsgd1na2vs0mg"},{"bike_id":"5ec6839a-e9ef-4754-97d6-671cec15d478","system_id":"levelo_inurba_marseille","lat":43.29222,"lon":5.36045,"is_reserved":false,"is_disabled":false,"rental_uris":{"android":"levelo://app?vid=5ec6839a-e9ef-4754-97d6-671cec15d478","ios":"levelo://app?vid=5ec6839a-e9ef-4754-97d6-671cec15d478"},"vehicle_type_id":"4","last_reported":1774783181,"current_range_meters":8800,"station_id":"ce4bhbh2rcd13ifvqeqg","pricing_plan_id":"cebpf4jnsgd1na2vs0mg"},{"bike_id":"4ad79b3f-c864-4acc-aec3-5c86262e3720","system_id":"levelo_inurba_marseille","lat":43.29011,"lon":5.35599,"is_reserved":false,"is_disabled":false,"rental_uris":{"android":"levelo://app?vid=4ad79b3f-c864-4acc-aec3-5c86262e3720","ios":"levelo://app?vid=4ad79b3f-c864-4acc-aec3-5c86262e3720"},"vehicle_type_id":"4","last_reported":1774783181,"current_range_meters":9200,"station_id":"ce4bhb92rcd13ifvqen0","pricing_plan_id":"cebpf4jnsgd1na2vs0mg"},{"bike_id":"a504f9f4-ae09-4ccb-987c-09a82a156dae","system_id":"levelo_inurba_marseille","lat":43.29311,"lon":5.37462,"is_reserved":false,"is_disabled":false,"rental_uris":{"android":"levelo://app?vid=a504f9f4-ae09-4ccb-987c-09a82a156dae","ios":"levelo://app?vid=a504f9f4-ae09-4ccb-987c-09a82a156dae"},"vehicle_type_id":"4","last_reported":1774783181,"current_range_meters":9200,"station_id":"ce4bgi12rcd13ifvqb70","pricing_plan_id":"cebpf4jnsgd1na2vs0mg"},{"bike_id":"6203cc5b-78c8-4340-86f0-d1622ecdf35e","system_id":"levelo_inurba_marseille","lat":43.26378,"lon":5.4108,"is_reserved":false,"is_disabled":false,"rental_uris":{"android":"levelo://app?vid=6203cc5b-78c8-4340-86f0-d1622ecdf35e","ios":"levelo://app?vid=6203cc5b-78c8-4340-86f0-d1622ecdf35e"},"vehicle_type_id":"4","last_reported":1774783181,"current_range_meters":9200,"station_id":"st_d4e5ca6na9uc73bfl5fg","pricing_plan_id":"cebpf4jnsgd1na2vs0mg"},{"bike_id":"8b21ac48-466c-4ed6-92ae-f569a5a73ca9","system_id":"levelo_inurba_marseille","lat":43.28475,"lon":5.48394,"is_reserved":false,"is_disabled":false,"rental_uris":{"android":"levelo://app?vid=8b21ac48-466c-4ed6-92ae-f569a5a73ca9","ios":"levelo://app?vid=8b21ac48-466c-4ed6-92ae-f569a5a73ca9"},"vehicle_type_id":"4","last_reported":1774783181,"current_range_meters":9200,"station_id":"","pricing_plan_id":"cebpf4jnsgd1na2vs0mg"},{"bike_id":"360cc1bb-ea03-4ff2-ae19-1fc21079e50c","system_id":"levelo_inurba_marseille","lat":43.21178,"lon":5.35097,"is_reserved":false,"is_disabled":false,"rental_uris":{"android":"levelo://app?vid=360cc1bb-ea03-4ff2-ae19-1fc21079e50c","ios":"levelo://app?vid=360cc1bb-ea03-4ff2-ae19-1fc21079e50c"},"vehicle_type_id":"4","last_reported":1774783181,"current_range_meters":9200,"station_id":"st_cvj6sg6p6f1abm77japg","pricing_plan_id":"cebpf4jnsgd1na2vs0mg"},{"bike_id":"ffbbe2a9-7484-4d0d-b2fd-42cde22f05be","system_id":"levelo_inurba_marseille","lat":43.25531,"lon":5.37522,"is_reserved":false,"is_disabled":false,"rental_uris":{"android":"levelo://app?vid=ffbbe2a9-7484-4d0d-b2fd-42cde22f05be","ios":"levelo://app?vid=ffbbe2a9-7484-4d0d-b2fd-42cde22f05be"},"vehicle_type_id":"4","last_reported":1774783181,"current_range_meters":9200,"station_id":"ce4bhh12rcd13ifvqff0","pricing_plan_id":"cebpf4jnsgd1na2vs0mg"},{"bike_id":"436a14e6-8c4f-48b5-acc8-deed1975664e","system_id":"levelo_inurba_marseille","lat":43.28409,"lon":5.34966,"is_reserved":false,"is_disabled":false,"rental_uris":{"android":"levelo://app?vid=436a14e6-8c4f-48b5-acc8-deed1975664e","ios":"levelo://app?vid=436a14e6-8c4f-48b5-acc8-deed1975664e"},"vehicle_type_id":"4","last_reported":1774783181,"current_range_meters":9200,"station_id":"ce4bhbh2rcd13ifvqepg","pricing_plan_id":"cebpf4jnsgd1na2vs0mg"},{"bike_id":"96d392f8-7fff-4df3-ab95-29e797d95701","system_id":"levelo_inurba_marseille","lat":43.24546,"lon":5.3953,"is_reserved":false,"is_disabled":false,"rental_uris":{"android":"levelo://app?vid=96d392f8-7fff-4df3-ab95-29e797d95701","ios":"levelo://app?vid=96d392f8-7fff-4df3-ab95-29e797d95701"},"vehicle_type_id":"4","last_reported":1774783181,"current_range_meters":9200,"station_id":"ce4bhlp2rcd13ifvqgjg","pricing_plan_id":"cebpf4jnsgd1na2vs0mg"},{"bike_id":"4096f1c8-965c-46e3-8095-e2b3f08129e2","system_id":"levelo_inurba_marseille","lat":43.31301,"lon":5.36847,"is_reserved":false,"is_disabled":false,"rental_uris":{"android":"levelo://app?vid=4096f1c8-965c-46e3-8095-e2b3f08129e2","ios":"levelo://app?vid=4096f1c8-965c-46e3-8095-e2b3f08129e2"},"vehicle_type_id":"4","last_reported":1774783181,"current_range_meters":9200,"station_id":"","pricing_plan_id":"cebpf4jnsgd1na2vs0mg"},{"bike_id":"aea41b74-0875-4007-a8fe-66599b4e59e6","system_id":"levelo_inurba_marseille","lat":43.28892,"lon":5.45682,"is_reserved":false,"is_disabled":false,"rental_uris":{"android":"levelo://app?vid=aea41b74-0875-4007-a8fe-66599b4e59e6","ios":"levelo://app?vid=aea41b74-0875-4007-a8fe-66599b4e59e6"},"vehicle_type_id":"4","last_reported":1774783181,"current_range_meters":9200,"station_id":"","pricing_plan_id":"cebpf4jnsgd1na2vs0mg"},{"bike_id":"91d7065a-b180-466d-a8f5-3622fef2d1a7","system_id":"levelo_inurba_marseille","lat":43.28257,"lon":5.35053,"is_reserved":false,"is_disabled":false,"rental_uris":{"android":"levelo://app?vid=91d7065a-b180-466d-a8f5-3622fef2d1a7","ios":"levelo://app?vid=91d7065a-b180-466d-a8f5-3622fef2d1a7"},"vehicle_type_id":"4","last_reported":1774783181,"current_range_meters":9600,"station_id":"ce4bhbp2rcd13ifvqerg","pricing_plan_id":"cebpf4jnsgd1na2vs0mg"},{"bike_id":"9637d252-3d43-4ab6-bc19-8995e1f56706","system_id":"levelo_inurba_marseille","lat":43.26561,"lon":5.38998,"is_reserved":false,"is_disabled":false,"rental_uris":{"android":"levelo://app?vid=9637d252-3d43-4ab6-bc19-8995e1f56706","ios":"levelo://app?vid=9637d252-3d43-4ab6-bc19-8995e1f56706"},"vehicle_type_id":"4","last_reported":1774783181,"current_range_meters":9600,"station_id":"ce4bhe12rcd13ifvqf30","pricing_plan_id":"cebpf4jnsgd1na2vs0mg"},{"bike_id":"f09e609e-75e6-4f5e-80b5-321c56203fc0","system_id":"levelo_inurba_marseille","lat":43.29552,"lon":5.36519,"is_reserved":false,"is_disabled":false,"rental_uris":{"android":"levelo://app?vid=f09e609e-75e6-4f5e-80b5-321c56203fc0","ios":"levelo://app?vid=f09e609e-75e6-4f5e-80b5-321c56203fc0"},"vehicle_type_id":"4","last_reported":1774783181,"current_range_meters":9600,"station_id":"","pricing_plan_id":"cebpf4jnsgd1na2vs0mg"},{"bike_id":"f66113de-f3fb-4667-a759-f56810ed7f83","system_id":"levelo_inurba_marseille","lat":43.23893,"lon":5.37669,"is_reserved":false,"is_disabled":false,"rental_uris":{"android":"levelo://app?vid=f66113de-f3fb-4667-a759-f56810ed7f83","ios":"levelo://app?vid=f66113de-f3fb-4667-a759-f56810ed7f83"},"vehicle_type_id":"4","last_reported":1774783181,"current_range_meters":9600,"station_id":"","pricing_plan_id":"cebpf4jnsgd1na2vs0mg"},{"bike_id":"78ac4372-d8d6-448b-a0bb-a3ec321e1231","system_id":"levelo_inurba_marseille","lat":43.28617,"lon":5.35112,"is_reserved":false,"is_disabled":false,"rental_uris":{"android":"levelo://app?vid=78ac4372-d8d6-448b-a0bb-a3ec321e1231","ios":"levelo://app?vid=78ac4372-d8d6-448b-a0bb-a3ec321e1231"},"vehicle_type_id":"4","last_reported":1774783181,"current_range_meters":9600,"station_id":"ce4bhch2rcd13ifvqeug","pricing_plan_id":"cebpf4jnsgd1na2vs0mg"},{"bike_id":"8b26d475-adfb-43a5-b19c-caf4f104de28","system_id":"levelo_inurba_marseille","lat":43.23061,"lon":5.35487,"is_reserved":false,"is_disabled":false,"rental_uris":{"android":"levelo://app?vid=8b26d475-adfb-43a5-b19c-caf4f104de28","ios":"levelo://app?vid=8b26d475-adfb-43a5-b19c-caf4f104de28"},"vehicle_type_id":"4","last_reported":1774783181,"current_range_meters":9600,"station_id":"cpo3342slgdg3j2ifvpg","pricing_plan_id":"cebpf4jnsgd1na2vs0mg"},{"bike_id":"b1cbf460-56cf-47f4-9cfc-cba147627bd7","system_id":"levelo_inurba_marseille","lat":43.21211,"lon":5.35083,"is_reserved":false,"is_disabled":false,"rental_uris":{"android":"levelo://app?vid=b1cbf460-56cf-47f4-9cfc-cba147627bd7","ios":"levelo://app?vid=b1cbf460-56cf-47f4-9cfc-cba147627bd7"},"vehicle_type_id":"4","last_reported":1774783181,"current_range_meters":9600,"station_id":"st_cvj6sg6p6f1abm77japg","pricing_plan_id":"cebpf4jnsgd1na2vs0mg"},{"bike_id":"b88f0692-9fc2-4799-bedb-b0f13212b350","system_id":"levelo_inurba_marseille","lat":43.21224,"lon":5.35059,"is_reserved":false,"is_disabled":false,"rental_uris":{"android":"levelo://app?vid=b88f0692-9fc2-4799-bedb-b0f13212b350","ios":"levelo://app?vid=b88f0692-9fc2-4799-bedb-b0f13212b350"},"vehicle_type_id":"4","last_reported":1774783181,"current_range_meters":9600,"station_id":"","pricing_plan_id":"cebpf4jnsgd1na2vs0mg"},{"bike_id":"6d189367-b1da-46a7-b7d8-cc2f6c5c510a","system_id":"levelo_inurba_marseille","lat":43.24079,"lon":5.37756,"is_reserved":false,"is_disabled":false,"rental_uris":{"android":"levelo://app?vid=6d189367-b1da-46a7-b7d8-cc2f6c5c510a","ios":"levelo://app?vid=6d189367-b1da-46a7-b7d8-cc2f6c5c510a"},"vehicle_type_id":"4","last_reported":1774783181,"current_range_meters":9600,"station_id":"ce4bhnp2rcd13ifvqgvg","pricing_plan_id":"cebpf4jnsgd1na2vs0mg"},{"bike_id":"397278e0-440c-401a-b00e-94a337b5111d","system_id":"levelo_inurba_marseille","lat":43.28534,"lon":5.44093,"is_reserved":false,"is_disabled":false,"rental_uris":{"android":"levelo://app?vid=397278e0-440c-401a-b00e-94a337b5111d","ios":"levelo://app?vid=397278e0-440c-401a-b00e-94a337b5111d"},"vehicle_type_id":"4","last_reported":1774783181,"current_range_meters":9600,"station_id":"st_d3j3df2ikq2c7380ej80","pricing_plan_id":"cebpf4jnsgd1na2vs0mg"},{"bike_id":"cc1d2bfc-f1f7-4b58-b176-bea335e5c3bd","system_id":"levelo_inurba_marseille","lat":43.29319,"lon":5.37126,"is_reserved":false,"is_disabled":false,"rental_uris":{"android":"levelo://app?vid=cc1d2bfc-f1f7-4b58-b176-bea335e5c3bd","ios":"levelo://app?vid=cc1d2bfc-f1f7-4b58-b176-bea335e5c3bd"},"vehicle_type_id":"4","last_reported":1774783181,"current_range_meters":9600,"station_id":"ce4bgh92rcd13ifvqb40","pricing_plan_id":"cebpf4jnsgd1na2vs0mg"},{"bike_id":"0da9467e-4d5e-4aeb-acc7-0d2718c25c5c","system_id":"levelo_inurba_marseille","lat":43.28949,"lon":5.36636,"is_reserved":false,"is_disabled":false,"rental_uris":{"android":"levelo://app?vid=0da9467e-4d5e-4aeb-acc7-0d2718c25c5c","ios":"levelo://app?vid=0da9467e-4d5e-4aeb-acc7-0d2718c25c5c"},"vehicle_type_id":"4","last_reported":1774783181,"current_range_meters":9600,"station_id":"ce4bhap2rcd13ifvqek0","pricing_plan_id":"cebpf4jnsgd1na2vs0mg"},{"bike_id":"18b8b91d-1c03-4395-84e6-03fd13b2ef1e","system_id":"levelo_inurba_marseille","lat":43.2841,"lon":5.34959,"is_reserved":false,"is_disabled":false,"rental_uris":{"android":"levelo://app?vid=18b8b91d-1c03-4395-84e6-03fd13b2ef1e","ios":"levelo://app?vid=18b8b91d-1c03-4395-84e6-03fd13b2ef1e"},"vehicle_type_id":"4","last_reported":1774783181,"current_range_meters":9600,"station_id":"ce4bhbh2rcd13ifvqepg","pricing_plan_id":"cebpf4jnsgd1na2vs0mg"},{"bike_id":"ac474735-c61d-45e8-87ad-b3c1098691e0","system_id":"levelo_inurba_marseille","lat":43.23063,"lon":5.35488,"is_reserved":false,"is_disabled":false,"rental_uris":{"android":"levelo://app?vid=ac474735-c61d-45e8-87ad-b3c1098691e0","ios":"levelo://app?vid=ac474735-c61d-45e8-87ad-b3c1098691e0"},"vehicle_type_id":"4","last_reported":1774783181,"current_range_meters":9600,"station_id":"cpo3342slgdg3j2ifvpg","pricing_plan_id":"cebpf4jnsgd1na2vs0mg"},{"bike_id":"0494ab6b-fd15-4c32-b24d-6d69a8df40f0","system_id":"levelo_inurba_marseille","lat":43.29959,"lon":5.385,"is_reserved":false,"is_disabled":false,"rental_uris":{"android":"levelo://app?vid=0494ab6b-fd15-4c32-b24d-6d69a8df40f0","ios":"levelo://app?vid=0494ab6b-fd15-4c32-b24d-6d69a8df40f0"},"vehicle_type_id":"4","last_reported":1774783181,"current_range_meters":9600,"station_id":"ce4bgj92rcd13ifvqbd0","pricing_plan_id":"cebpf4jnsgd1na2vs0mg"},{"bike_id":"2cbc1068-deb8-4f8b-8b76-d186b40fac16","system_id":"levelo_inurba_marseille","lat":43.29527,"lon":5.39039,"is_reserved":false,"is_disabled":false,"rental_uris":{"android":"levelo://app?vid=2cbc1068-deb8-4f8b-8b76-d186b40fac16","ios":"levelo://app?vid=2cbc1068-deb8-4f8b-8b76-d186b40fac16"},"vehicle_type_id":"4","last_reported":1774783181,"current_range_meters":9600,"station_id":"ce4bh3p2rcd13ifvqdp0","pricing_plan_id":"cebpf4jnsgd1na2vs0mg"},{"bike_id":"77fb3337-f6bb-42a5-8c07-6f4807686a26","system_id":"levelo_inurba_marseille","lat":43.21757,"lon":5.34595,"is_reserved":false,"is_disabled":false,"rental_uris":{"android":"levelo://app?vid=77fb3337-f6bb-42a5-8c07-6f4807686a26","ios":"levelo://app?vid=77fb3337-f6bb-42a5-8c07-6f4807686a26"},"vehicle_type_id":"4","last_reported":1774783181,"current_range_meters":9600,"station_id":"st_cvj6r9ubvosntc0bgbag","pricing_plan_id":"cebpf4jnsgd1na2vs0mg"},{"bike_id":"06b53612-4274-4a2a-a30c-9f8601005844","system_id":"levelo_inurba_marseille","lat":43.28419,"lon":5.35001,"is_reserved":false,"is_disabled":false,"rental_uris":{"android":"levelo://app?vid=06b53612-4274-4a2a-a30c-9f8601005844","ios":"levelo://app?vid=06b53612-4274-4a2a-a30c-9f8601005844"},"vehicle_type_id":"4","last_reported":1774783181,"current_range_meters":9600,"station_id":"ce4bhbh2rcd13ifvqepg","pricing_plan_id":"cebpf4jnsgd1na2vs0mg"},{"bike_id":"f80b49c2-904e-47b6-8d38-d811b0e62949","system_id":"levelo_inurba_marseille","lat":43.26408,"lon":5.39884,"is_reserved":false,"is_disabled":false,"rental_uris":{"android":"levelo://app?vid=f80b49c2-904e-47b6-8d38-d811b0e62949","ios":"levelo://app?vid=f80b49c2-904e-47b6-8d38-d811b0e62949"},"vehicle_type_id":"4","last_reported":1774783181,"current_range_meters":9600,"station_id":"","pricing_plan_id":"cebpf4jnsgd1na2vs0mg"},{"bike_id":"532c5324-fb16-4a5e-b25b-a57e56be9441","system_id":"levelo_inurba_marseille","lat":43.28427,"lon":5.34983,"is_reserved":false,"is_disabled":false,"rental_uris":{"android":"levelo://app?vid=532c5324-fb16-4a5e-b25b-a57e56be9441","ios":"levelo://app?vid=532c5324-fb16-4a5e-b25b-a57e56be9441"},"vehicle_type_id":"4","last_reported":1774783181,"current_range_meters":9600,"station_id":"ce4bhbh2rcd13ifvqepg","pricing_plan_id":"cebpf4jnsgd1na2vs0mg"},{"bike_id":"05f9bb45-8809-4205-b9e3-1f1e967f85de","system_id":"levelo_inurba_marseille","lat":43.28627,"lon":5.3507,"is_reserved":false,"is_disabled":false,"rental_uris":{"android":"levelo://app?vid=05f9bb45-8809-4205-b9e3-1f1e967f85de","ios":"levelo://app?vid=05f9bb45-8809-4205-b9e3-1f1e967f85de"},"vehicle_type_id":"4","last_reported":1774783181,"current_range_meters":10000,"station_id":"ce4bhch2rcd13ifvqeug","pricing_plan_id":"cebpf4jnsgd1na2vs0mg"},{"bike_id":"e7748134-61a0-40ea-8c74-d4dd3b6d234d","system_id":"levelo_inurba_marseille","lat":43.23794,"lon":5.36622,"is_reserved":false,"is_disabled":false,"rental_uris":{"android":"levelo://app?vid=e7748134-61a0-40ea-8c74-d4dd3b6d234d","ios":"levelo://app?vid=e7748134-61a0-40ea-8c74-d4dd3b6d234d"},"vehicle_type_id":"4","last_reported":1774783181,"current_range_meters":10000,"station_id":"st_d3nk18o9ro0c73en2l3g","pricing_plan_id":"cebpf4jnsgd1na2vs0mg"},{"bike_id":"6221d696-eabc-48d0-9847-3a9825ddd566","system_id":"levelo_inurba_marseille","lat":43.337444,"lon":5.374475,"is_reserved":false,"is_disabled":false,"rental_uris":{"android":"levelo://app?vid=6221d696-eabc-48d0-9847-3a9825ddd566","ios":"levelo://app?vid=6221d696-eabc-48d0-9847-3a9825ddd566"},"vehicle_type_id":"4","last_reported":1774783181,"current_range_meters":10000,"station_id":"","pricing_plan_id":"cebpf4jnsgd1na2vs0mg"},{"bike_id":"10f001e3-1b5e-4722-bd6e-1cdc4b551001","system_id":"levelo_inurba_marseille","lat":43.28424,"lon":5.35,"is_reserved":false,"is_disabled":false,"rental_uris":{"android":"levelo://app?vid=10f001e3-1b5e-4722-bd6e-1cdc4b551001","ios":"levelo://app?vid=10f001e3-1b5e-4722-bd6e-1cdc4b551001"},"vehicle_type_id":"4","last_reported":1774783181,"current_range_meters":10000,"station_id":"ce4bhbh2rcd13ifvqepg","pricing_plan_id":"cebpf4jnsgd1na2vs0mg"},{"bike_id":"5c4058ac-b231-433f-9345-a2389dd03893","system_id":"levelo_inurba_marseille","lat":43.27376,"lon":5.36245,"is_reserved":false,"is_disabled":false,"rental_uris":{"android":"levelo://app?vid=5c4058ac-b231-433f-9345-a2389dd03893","ios":"levelo://app?vid=5c4058ac-b231-433f-9345-a2389dd03893"},"vehicle_type_id":"4","last_reported":1774783181,"current_range_meters":10000,"station_id":"ce4bhbh2rcd13ifvqeo0","pricing_plan_id":"cebpf4jnsgd1na2vs0mg"},{"bike_id":"1b42944a-8e9d-43e4-8c02-34640e302b7a","system_id":"levelo_inurba_marseille","lat":43.29868,"lon":5.38916,"is_reserved":false,"is_disabled":true,"rental_uris":{"android":"levelo://app?vid=1b42944a-8e9d-43e4-8c02-34640e302b7a","ios":"levelo://app?vid=1b42944a-8e9d-43e4-8c02-34640e302b7a"},"vehicle_type_id":"4","last_reported":1774783181,"current_range_meters":10000,"station_id":"ce4bh392rcd13ifvqdl0","pricing_plan_id":"cebpf4jnsgd1na2vs0mg"},{"bike_id":"3e14eafa-0254-4f03-9b87-b8a8c3b3ca65","system_id":"levelo_inurba_marseille","lat":43.28502,"lon":5.48382,"is_reserved":false,"is_disabled":false,"rental_uris":{"android":"levelo://app?vid=3e14eafa-0254-4f03-9b87-b8a8c3b3ca65","ios":"levelo://app?vid=3e14eafa-0254-4f03-9b87-b8a8c3b3ca65"},"vehicle_type_id":"4","last_reported":1774783181,"current_range_meters":10000,"station_id":"","pricing_plan_id":"cebpf4jnsgd1na2vs0mg"},{"bike_id":"aa096f04-9bc4-4c84-b180-63b983513b22","system_id":"levelo_inurba_marseille","lat":43.32505,"lon":5.38307,"is_reserved":false,"is_disabled":false,"rental_uris":{"android":"levelo://app?vid=aa096f04-9bc4-4c84-b180-63b983513b22","ios":"levelo://app?vid=aa096f04-9bc4-4c84-b180-63b983513b22"},"vehicle_type_id":"4","last_reported":1774783181,"current_range_meters":10000,"station_id":"st_d4asgbiv49dc73anf9m0","pricing_plan_id":"cebpf4jnsgd1na2vs0mg"},{"bike_id":"f7511be8-6fac-4cad-a9c5-27d25444e3d3","system_id":"levelo_inurba_marseille","lat":43.3132,"lon":5.36725,"is_reserved":false,"is_disabled":false,"rental_uris":{"android":"levelo://app?vid=f7511be8-6fac-4cad-a9c5-27d25444e3d3","ios":"levelo://app?vid=f7511be8-6fac-4cad-a9c5-27d25444e3d3"},"vehicle_type_id":"4","last_reported":1774783181,"current_range_meters":10000,"station_id":"ce4bgr92rcd13ifvqc6g","pricing_plan_id":"cebpf4jnsgd1na2vs0mg"},{"bike_id":"9e61549d-eea4-4019-910e-edc64cb8b2ba","system_id":"levelo_inurba_marseille","lat":43.23053,"lon":5.35493,"is_reserved":false,"is_disabled":false,"rental_uris":{"android":"levelo://app?vid=9e61549d-eea4-4019-910e-edc64cb8b2ba","ios":"levelo://app?vid=9e61549d-eea4-4019-910e-edc64cb8b2ba"},"vehicle_type_id":"4","last_reported":1774783181,"current_range_meters":10000,"station_id":"cpo3342slgdg3j2ifvpg","pricing_plan_id":"cebpf4jnsgd1na2vs0mg"},{"bike_id":"d9b67e1e-4fdb-42e9-9198-709c363190c9","system_id":"levelo_inurba_marseille","lat":43.29712,"lon":5.3662,"is_reserved":false,"is_disabled":false,"rental_uris":{"android":"levelo://app?vid=d9b67e1e-4fdb-42e9-9198-709c363190c9","ios":"levelo://app?vid=d9b67e1e-4fdb-42e9-9198-709c363190c9"},"vehicle_type_id":"4","last_reported":1774783181,"current_range_meters":10000,"station_id":"ce4bgn12rcd13ifvqbt0","pricing_plan_id":"cebpf4jnsgd1na2vs0mg"},{"bike_id":"5cd86f4e-c5d8-4ff1-ba09-621dac041865","system_id":"levelo_inurba_marseille","lat":43.24293,"lon":5.40778,"is_reserved":false,"is_disabled":false,"rental_uris":{"android":"levelo://app?vid=5cd86f4e-c5d8-4ff1-ba09-621dac041865","ios":"levelo://app?vid=5cd86f4e-c5d8-4ff1-ba09-621dac041865"},"vehicle_type_id":"4","last_reported":1774783181,"current_range_meters":10000,"station_id":"","pricing_plan_id":"cebpf4jnsgd1na2vs0mg"},{"bike_id":"1b1e357e-1856-43e3-bbbd-883b724a3147","system_id":"levelo_inurba_marseille","lat":43.21776,"lon":5.34589,"is_reserved":false,"is_disabled":false,"rental_uris":{"android":"levelo://app?vid=1b1e357e-1856-43e3-bbbd-883b724a3147","ios":"levelo://app?vid=1b1e357e-1856-43e3-bbbd-883b724a3147"},"vehicle_type_id":"4","last_reported":1774783181,"current_range_meters":10000,"station_id":"st_cvj6r9ubvosntc0bgbag","pricing_plan_id":"cebpf4jnsgd1na2vs0mg"},{"bike_id":"7a54b67e-ab3e-4b49-80a2-918aa7636965","system_id":"levelo_inurba_marseille","lat":43.2439,"lon":5.37059,"is_reserved":false,"is_disabled":false,"rental_uris":{"android":"levelo://app?vid=7a54b67e-ab3e-4b49-80a2-918aa7636965","ios":"levelo://app?vid=7a54b67e-ab3e-4b49-80a2-918aa7636965"},"vehicle_type_id":"4","last_reported":1774783181,"current_range_meters":10000,"station_id":"ce4bhhh2rcd13ifvqfk0","pricing_plan_id":"cebpf4jnsgd1na2vs0mg"},{"bike_id":"081396a9-4582-40d9-8629-4006a7a9aaee","system_id":"levelo_inurba_marseille","lat":43.28486,"lon":5.4837,"is_reserved":false,"is_disabled":false,"rental_uris":{"android":"levelo://app?vid=081396a9-4582-40d9-8629-4006a7a9aaee","ios":"levelo://app?vid=081396a9-4582-40d9-8629-4006a7a9aaee"},"vehicle_type_id":"4","last_reported":1774783181,"current_range_meters":10800,"station_id":"","pricing_plan_id":"cebpf4jnsgd1na2vs0mg"},{"bike_id":"60005e45-ad33-4e76-a3db-619cd42aec5f","system_id":"levelo_inurba_marseille","lat":43.28429,"lon":5.34987,"is_reserved":false,"is_disabled":false,"rental_uris":{"android":"levelo://app?vid=60005e45-ad33-4e76-a3db-619cd42aec5f","ios":"levelo://app?vid=60005e45-ad33-4e76-a3db-619cd42aec5f"},"vehicle_type_id":"4","last_reported":1774783181,"current_range_meters":10800,"station_id":"ce4bhbh2rcd13ifvqepg","pricing_plan_id":"cebpf4jnsgd1na2vs0mg"},{"bike_id":"ca2e7868-af0d-474f-a9d6-22436e4d7643","system_id":"levelo_inurba_marseille","lat":43.337444,"lon":5.374475,"is_reserved":false,"is_disabled":false,"rental_uris":{"android":"levelo://app?vid=ca2e7868-af0d-474f-a9d6-22436e4d7643","ios":"levelo://app?vid=ca2e7868-af0d-474f-a9d6-22436e4d7643"},"vehicle_type_id":"4","last_reported":1774783181,"current_range_meters":10800,"station_id":"","pricing_plan_id":"cebpf4jnsgd1na2vs0mg"},{"bike_id":"6cfdba25-b046-4c72-a8ed-0a53871061d1","system_id":"levelo_inurba_marseille","lat":43.28415,"lon":5.34984,"is_reserved":false,"is_disabled":false,"rental_uris":{"android":"levelo://app?vid=6cfdba25-b046-4c72-a8ed-0a53871061d1","ios":"levelo://app?vid=6cfdba25-b046-4c72-a8ed-0a53871061d1"},"vehicle_type_id":"4","last_reported":1774783181,"current_range_meters":10800,"station_id":"ce4bhbh2rcd13ifvqepg","pricing_plan_id":"cebpf4jnsgd1na2vs0mg"},{"bike_id":"fd33c646-9200-4ec6-98dc-c32506d931b7","system_id":"levelo_inurba_marseille","lat":43.28617,"lon":5.35101,"is_reserved":false,"is_disabled":false,"rental_uris":{"android":"levelo://app?vid=fd33c646-9200-4ec6-98dc-c32506d931b7","ios":"levelo://app?vid=fd33c646-9200-4ec6-98dc-c32506d931b7"},"vehicle_type_id":"4","last_reported":1774783181,"current_range_meters":10800,"station_id":"ce4bhch2rcd13ifvqeug","pricing_plan_id":"cebpf4jnsgd1na2vs0mg"},{"bike_id":"b159cfdc-4e3d-42c0-b5ef-43f4122d544b","system_id":"levelo_inurba_marseille","lat":43.31311,"lon":5.36753,"is_reserved":false,"is_disabled":false,"rental_uris":{"android":"levelo://app?vid=b159cfdc-4e3d-42c0-b5ef-43f4122d544b","ios":"levelo://app?vid=b159cfdc-4e3d-42c0-b5ef-43f4122d544b"},"vehicle_type_id":"4","last_reported":1774783181,"current_range_meters":10800,"station_id":"ce4bgr92rcd13ifvqc6g","pricing_plan_id":"cebpf4jnsgd1na2vs0mg"},{"bike_id":"0aaeb449-948c-496a-b713-c028b991b7ea","system_id":"levelo_inurba_marseille","lat":43.28472,"lon":5.48399,"is_reserved":false,"is_disabled":false,"rental_uris":{"android":"levelo://app?vid=0aaeb449-948c-496a-b713-c028b991b7ea","ios":"levelo://app?vid=0aaeb449-948c-496a-b713-c028b991b7ea"},"vehicle_type_id":"4","last_reported":1774783181,"current_range_meters":10800,"station_id":"st_d3svhcjqgbts73a3dn0g","pricing_plan_id":"cebpf4jnsgd1na2vs0mg"},{"bike_id":"8dfcaa98-e54a-46ed-893d-3bb636452709","system_id":"levelo_inurba_marseille","lat":43.26231,"lon":5.40446,"is_reserved":false,"is_disabled":false,"rental_uris":{"android":"levelo://app?vid=8dfcaa98-e54a-46ed-893d-3bb636452709","ios":"levelo://app?vid=8dfcaa98-e54a-46ed-893d-3bb636452709"},"vehicle_type_id":"4","last_reported":1774783181,"current_range_meters":10800,"station_id":"ce4bhmh2rcd13ifvqgmg","pricing_plan_id":"cebpf4jnsgd1na2vs0mg"},{"bike_id":"d1feea73-92fd-42db-9e4a-21f243332e21","system_id":"levelo_inurba_marseille","lat":43.23796,"lon":5.36631,"is_reserved":false,"is_disabled":false,"rental_uris":{"android":"levelo://app?vid=d1feea73-92fd-42db-9e4a-21f243332e21","ios":"levelo://app?vid=d1feea73-92fd-42db-9e4a-21f243332e21"},"vehicle_type_id":"4","last_reported":1774783181,"current_range_meters":10800,"station_id":"st_d3nk18o9ro0c73en2l3g","pricing_plan_id":"cebpf4jnsgd1na2vs0mg"},{"bike_id":"0af897bb-0c09-471d-a0b9-529cb79215d0","system_id":"levelo_inurba_marseille","lat":43.26059,"lon":5.39393,"is_reserved":false,"is_disabled":false,"rental_uris":{"android":"levelo://app?vid=0af897bb-0c09-471d-a0b9-529cb79215d0","ios":"levelo://app?vid=0af897bb-0c09-471d-a0b9-529cb79215d0"},"vehicle_type_id":"4","last_reported":1774783181,"current_range_meters":10800,"station_id":"ce4bhh92rcd13ifvqfj0","pricing_plan_id":"cebpf4jnsgd1na2vs0mg"},{"bike_id":"262224aa-5cb1-4c15-8791-83b647f81270","system_id":"levelo_inurba_marseille","lat":43.21192,"lon":5.35072,"is_reserved":false,"is_disabled":false,"rental_uris":{"android":"levelo://app?vid=262224aa-5cb1-4c15-8791-83b647f81270","ios":"levelo://app?vid=262224aa-5cb1-4c15-8791-83b647f81270"},"vehicle_type_id":"4","last_reported":1774783181,"current_range_meters":10800,"station_id":"","pricing_plan_id":"cebpf4jnsgd1na2vs0mg"},{"bike_id":"c448a442-30a4-4284-b827-ae08009e43b4","system_id":"levelo_inurba_marseille","lat":43.29575,"lon":5.38105,"is_reserved":false,"is_disabled":true,"rental_uris":{"android":"levelo://app?vid=c448a442-30a4-4284-b827-ae08009e43b4","ios":"levelo://app?vid=c448a442-30a4-4284-b827-ae08009e43b4"},"vehicle_type_id":"4","last_reported":1774783181,"current_range_meters":10800,"station_id":"ce4bgl12rcd13ifvqbo0","pricing_plan_id":"cebpf4jnsgd1na2vs0mg"},{"bike_id":"b09ec31b-0449-442b-b43a-493caf3ebd17","system_id":"levelo_inurba_marseille","lat":43.23193,"lon":5.35542,"is_reserved":false,"is_disabled":false,"rental_uris":{"android":"levelo://app?vid=b09ec31b-0449-442b-b43a-493caf3ebd17","ios":"levelo://app?vid=b09ec31b-0449-442b-b43a-493caf3ebd17"},"vehicle_type_id":"4","last_reported":1774783181,"current_range_meters":10800,"station_id":"ce4bhu92rcd13ifvqi70","pricing_plan_id":"cebpf4jnsgd1na2vs0mg"},{"bike_id":"746bcebc-bef7-48e9-9daf-98100e401ba5","system_id":"levelo_inurba_marseille","lat":43.305614,"lon":5.365583,"is_reserved":false,"is_disabled":false,"rental_uris":{"android":"levelo://app?vid=746bcebc-bef7-48e9-9daf-98100e401ba5","ios":"levelo://app?vid=746bcebc-bef7-48e9-9daf-98100e401ba5"},"vehicle_type_id":"4","last_reported":1774783181,"current_range_meters":10800,"station_id":"ce4bgs12rcd13ifvqcag","pricing_plan_id":"cebpf4jnsgd1na2vs0mg"},{"bike_id":"f314b826-796b-4abd-a684-690288965345","system_id":"levelo_inurba_marseille","lat":43.26237,"lon":5.37422,"is_reserved":false,"is_disabled":false,"rental_uris":{"android":"levelo://app?vid=f314b826-796b-4abd-a684-690288965345","ios":"levelo://app?vid=f314b826-796b-4abd-a684-690288965345"},"vehicle_type_id":"4","last_reported":1774783181,"current_range_meters":10800,"station_id":"","pricing_plan_id":"cebpf4jnsgd1na2vs0mg"},{"bike_id":"5f1a297c-01eb-46bd-af35-511921964f6c","system_id":"levelo_inurba_marseille","lat":43.28792,"lon":5.35994,"is_reserved":false,"is_disabled":false,"rental_uris":{"android":"levelo://app?vid=5f1a297c-01eb-46bd-af35-511921964f6c","ios":"levelo://app?vid=5f1a297c-01eb-46bd-af35-511921964f6c"},"vehicle_type_id":"4","last_reported":1774783181,"current_range_meters":10800,"station_id":"","pricing_plan_id":"cebpf4jnsgd1na2vs0mg"},{"bike_id":"64520afc-2104-4c0a-b4fd-b3f342d15b6b","system_id":"levelo_inurba_marseille","lat":43.28539,"lon":5.44095,"is_reserved":false,"is_disabled":false,"rental_uris":{"android":"levelo://app?vid=64520afc-2104-4c0a-b4fd-b3f342d15b6b","ios":"levelo://app?vid=64520afc-2104-4c0a-b4fd-b3f342d15b6b"},"vehicle_type_id":"4","last_reported":1774783181,"current_range_meters":10800,"station_id":"st_d3j3df2ikq2c7380ej80","pricing_plan_id":"cebpf4jnsgd1na2vs0mg"},{"bike_id":"624c0da2-f898-441e-b4f4-9b72e0ca55b3","system_id":"levelo_inurba_marseille","lat":43.23785,"lon":5.36652,"is_reserved":false,"is_disabled":false,"rental_uris":{"android":"levelo://app?vid=624c0da2-f898-441e-b4f4-9b72e0ca55b3","ios":"levelo://app?vid=624c0da2-f898-441e-b4f4-9b72e0ca55b3"},"vehicle_type_id":"4","last_reported":1774783181,"current_range_meters":10800,"station_id":"st_d3nk18o9ro0c73en2l3g","pricing_plan_id":"cebpf4jnsgd1na2vs0mg"},{"bike_id":"f103cc34-96c3-4868-ad5e-e0c28779d718","system_id":"levelo_inurba_marseille","lat":43.23059,"lon":5.35486,"is_reserved":false,"is_disabled":false,"rental_uris":{"android":"levelo://app?vid=f103cc34-96c3-4868-ad5e-e0c28779d718","ios":"levelo://app?vid=f103cc34-96c3-4868-ad5e-e0c28779d718"},"vehicle_type_id":"4","last_reported":1774783181,"current_range_meters":10800,"station_id":"cpo3342slgdg3j2ifvpg","pricing_plan_id":"cebpf4jnsgd1na2vs0mg"},{"bike_id":"4cf43f35-8451-4d33-a27e-48b8f0d8cc62","system_id":"levelo_inurba_marseille","lat":43.28475,"lon":5.48402,"is_reserved":false,"is_disabled":false,"rental_uris":{"android":"levelo://app?vid=4cf43f35-8451-4d33-a27e-48b8f0d8cc62","ios":"levelo://app?vid=4cf43f35-8451-4d33-a27e-48b8f0d8cc62"},"vehicle_type_id":"4","last_reported":1774783181,"current_range_meters":11200,"station_id":"st_d3svhcjqgbts73a3dn0g","pricing_plan_id":"cebpf4jnsgd1na2vs0mg"},{"bike_id":"9d805782-2350-4e56-b117-cef8a8ea3fef","system_id":"levelo_inurba_marseille","lat":43.24789,"lon":5.3741,"is_reserved":false,"is_disabled":false,"rental_uris":{"android":"levelo://app?vid=9d805782-2350-4e56-b117-cef8a8ea3fef","ios":"levelo://app?vid=9d805782-2350-4e56-b117-cef8a8ea3fef"},"vehicle_type_id":"4","last_reported":1774783181,"current_range_meters":11200,"station_id":"ce4bhgh2rcd13ifvqfb0","pricing_plan_id":"cebpf4jnsgd1na2vs0mg"},{"bike_id":"b1cbee6f-5252-47e1-abc8-2154ff88b339","system_id":"levelo_inurba_marseille","lat":43.32366,"lon":5.36771,"is_reserved":false,"is_disabled":false,"rental_uris":{"android":"levelo://app?vid=b1cbee6f-5252-47e1-abc8-2154ff88b339","ios":"levelo://app?vid=b1cbee6f-5252-47e1-abc8-2154ff88b339"},"vehicle_type_id":"4","last_reported":1774783181,"current_range_meters":11200,"station_id":"ce4bhsh2rcd13ifvqi2g","pricing_plan_id":"cebpf4jnsgd1na2vs0mg"},{"bike_id":"d8d18bea-b682-442e-8bd3-841eee487048","system_id":"levelo_inurba_marseille","lat":43.28183,"lon":5.39051,"is_reserved":false,"is_disabled":false,"rental_uris":{"android":"levelo://app?vid=d8d18bea-b682-442e-8bd3-841eee487048","ios":"levelo://app?vid=d8d18bea-b682-442e-8bd3-841eee487048"},"vehicle_type_id":"4","last_reported":1774783181,"current_range_meters":11200,"station_id":"","pricing_plan_id":"cebpf4jnsgd1na2vs0mg"},{"bike_id":"9c719e14-99db-448e-b6a8-249dbce4b79a","system_id":"levelo_inurba_marseille","lat":43.27378,"lon":5.36261,"is_reserved":false,"is_disabled":false,"rental_uris":{"android":"levelo://app?vid=9c719e14-99db-448e-b6a8-249dbce4b79a","ios":"levelo://app?vid=9c719e14-99db-448e-b6a8-249dbce4b79a"},"vehicle_type_id":"4","last_reported":1774783181,"current_range_meters":11200,"station_id":"ce4bhbh2rcd13ifvqeo0","pricing_plan_id":"cebpf4jnsgd1na2vs0mg"},{"bike_id":"f2be668f-3e4c-4b42-b51a-a916a69cd9f9","system_id":"levelo_inurba_marseille","lat":43.30557,"lon":5.36669,"is_reserved":false,"is_disabled":false,"rental_uris":{"android":"levelo://app?vid=f2be668f-3e4c-4b42-b51a-a916a69cd9f9","ios":"levelo://app?vid=f2be668f-3e4c-4b42-b51a-a916a69cd9f9"},"vehicle_type_id":"4","last_reported":1774783181,"current_range_meters":11200,"station_id":"","pricing_plan_id":"cebpf4jnsgd1na2vs0mg"},{"bike_id":"f46a1d5b-32fe-420b-b45a-18c8bcb88568","system_id":"levelo_inurba_marseille","lat":43.28429,"lon":5.34989,"is_reserved":false,"is_disabled":false,"rental_uris":{"android":"levelo://app?vid=f46a1d5b-32fe-420b-b45a-18c8bcb88568","ios":"levelo://app?vid=f46a1d5b-32fe-420b-b45a-18c8bcb88568"},"vehicle_type_id":"4","last_reported":1774783181,"current_range_meters":11200,"station_id":"ce4bhbh2rcd13ifvqepg","pricing_plan_id":"cebpf4jnsgd1na2vs0mg"},{"bike_id":"a7f22fb5-f885-4ab8-8561-a2d9fb290a4d","system_id":"levelo_inurba_marseille","lat":43.21204,"lon":5.35056,"is_reserved":false,"is_disabled":false,"rental_uris":{"android":"levelo://app?vid=a7f22fb5-f885-4ab8-8561-a2d9fb290a4d","ios":"levelo://app?vid=a7f22fb5-f885-4ab8-8561-a2d9fb290a4d"},"vehicle_type_id":"4","last_reported":1774783181,"current_range_meters":11200,"station_id":"st_cvj6sg6p6f1abm77japg","pricing_plan_id":"cebpf4jnsgd1na2vs0mg"},{"bike_id":"b44a4693-952f-4f72-9715-9477a81beee3","system_id":"levelo_inurba_marseille","lat":43.21746,"lon":5.34598,"is_reserved":false,"is_disabled":false,"rental_uris":{"android":"levelo://app?vid=b44a4693-952f-4f72-9715-9477a81beee3","ios":"levelo://app?vid=b44a4693-952f-4f72-9715-9477a81beee3"},"vehicle_type_id":"4","last_reported":1774783181,"current_range_meters":11200,"station_id":"st_cvj6r9ubvosntc0bgbag","pricing_plan_id":"cebpf4jnsgd1na2vs0mg"},{"bike_id":"a3410a43-779f-412b-aa84-39d5fc63fb20","system_id":"levelo_inurba_marseille","lat":43.24467,"lon":5.42531,"is_reserved":false,"is_disabled":false,"rental_uris":{"android":"levelo://app?vid=a3410a43-779f-412b-aa84-39d5fc63fb20","ios":"levelo://app?vid=a3410a43-779f-412b-aa84-39d5fc63fb20"},"vehicle_type_id":"4","last_reported":1774783181,"current_range_meters":11200,"station_id":"st_d4a3vfp97mjs738cd8kg","pricing_plan_id":"cebpf4jnsgd1na2vs0mg"},{"bike_id":"f6505d6b-7904-416c-9a9f-2ffee2cbd216","system_id":"levelo_inurba_marseille","lat":43.24175,"lon":5.36378,"is_reserved":false,"is_disabled":false,"rental_uris":{"android":"levelo://app?vid=f6505d6b-7904-416c-9a9f-2ffee2cbd216","ios":"levelo://app?vid=f6505d6b-7904-416c-9a9f-2ffee2cbd216"},"vehicle_type_id":"4","last_reported":1774783181,"current_range_meters":11200,"station_id":"cpo36qri1sfpv3e86is0","pricing_plan_id":"cebpf4jnsgd1na2vs0mg"},{"bike_id":"20a80d48-b582-4670-b024-d043424a6446","system_id":"levelo_inurba_marseille","lat":43.24508,"lon":5.39733,"is_reserved":false,"is_disabled":false,"rental_uris":{"android":"levelo://app?vid=20a80d48-b582-4670-b024-d043424a6446","ios":"levelo://app?vid=20a80d48-b582-4670-b024-d043424a6446"},"vehicle_type_id":"4","last_reported":1774783181,"current_range_meters":11200,"station_id":"","pricing_plan_id":"cebpf4jnsgd1na2vs0mg"},{"bike_id":"f6252eb4-15bd-413d-b193-1bda3889dc9d","system_id":"levelo_inurba_marseille","lat":43.28525,"lon":5.44096,"is_reserved":false,"is_disabled":false,"rental_uris":{"android":"levelo://app?vid=f6252eb4-15bd-413d-b193-1bda3889dc9d","ios":"levelo://app?vid=f6252eb4-15bd-413d-b193-1bda3889dc9d"},"vehicle_type_id":"4","last_reported":1774783181,"current_range_meters":11200,"station_id":"st_d3j3df2ikq2c7380ej80","pricing_plan_id":"cebpf4jnsgd1na2vs0mg"},{"bike_id":"22bcf79a-965d-4116-82ac-fa7ce8e1956b","system_id":"levelo_inurba_marseille","lat":43.24167,"lon":5.36393,"is_reserved":false,"is_disabled":false,"rental_uris":{"android":"levelo://app?vid=22bcf79a-965d-4116-82ac-fa7ce8e1956b","ios":"levelo://app?vid=22bcf79a-965d-4116-82ac-fa7ce8e1956b"},"vehicle_type_id":"4","last_reported":1774783181,"current_range_meters":11200,"station_id":"cpo36qri1sfpv3e86is0","pricing_plan_id":"cebpf4jnsgd1na2vs0mg"},{"bike_id":"a8dcaae3-6604-450c-bfc5-d46f06b67c85","system_id":"levelo_inurba_marseille","lat":43.28426,"lon":5.3499,"is_reserved":false,"is_disabled":false,"rental_uris":{"android":"levelo://app?vid=a8dcaae3-6604-450c-bfc5-d46f06b67c85","ios":"levelo://app?vid=a8dcaae3-6604-450c-bfc5-d46f06b67c85"},"vehicle_type_id":"4","last_reported":1774783181,"current_range_meters":11200,"station_id":"ce4bhbh2rcd13ifvqepg","pricing_plan_id":"cebpf4jnsgd1na2vs0mg"},{"bike_id":"a0999d65-1a64-4644-b073-a899770e589a","system_id":"levelo_inurba_marseille","lat":43.23753,"lon":5.36586,"is_reserved":false,"is_disabled":false,"rental_uris":{"android":"levelo://app?vid=a0999d65-1a64-4644-b073-a899770e589a","ios":"levelo://app?vid=a0999d65-1a64-4644-b073-a899770e589a"},"vehicle_type_id":"4","last_reported":1774783181,"current_range_meters":11200,"station_id":"st_d3nk18o9ro0c73en2l3g","pricing_plan_id":"cebpf4jnsgd1na2vs0mg"},{"bike_id":"cf895956-b469-43d4-816c-a7d211507799","system_id":"levelo_inurba_marseille","lat":43.29729,"lon":5.37031,"is_reserved":false,"is_disabled":false,"rental_uris":{"android":"levelo://app?vid=cf895956-b469-43d4-816c-a7d211507799","ios":"levelo://app?vid=cf895956-b469-43d4-816c-a7d211507799"},"vehicle_type_id":"4","last_reported":1774783181,"current_range_meters":11200,"station_id":"","pricing_plan_id":"cebpf4jnsgd1na2vs0mg"},{"bike_id":"7a8b55aa-2105-434f-97d6-2644484ea385","system_id":"levelo_inurba_marseille","lat":43.27117,"lon":5.39209,"is_reserved":false,"is_disabled":false,"rental_uris":{"android":"levelo://app?vid=7a8b55aa-2105-434f-97d6-2644484ea385","ios":"levelo://app?vid=7a8b55aa-2105-434f-97d6-2644484ea385"},"vehicle_type_id":"4","last_reported":1774783181,"current_range_meters":11200,"station_id":"","pricing_plan_id":"cebpf4jnsgd1na2vs0mg"},{"bike_id":"22cbdd8b-e922-4b8f-b923-f3de84987bd6","system_id":"levelo_inurba_marseille","lat":43.23808,"lon":5.36606,"is_reserved":false,"is_disabled":false,"rental_uris":{"android":"levelo://app?vid=22cbdd8b-e922-4b8f-b923-f3de84987bd6","ios":"levelo://app?vid=22cbdd8b-e922-4b8f-b923-f3de84987bd6"},"vehicle_type_id":"4","last_reported":1774783181,"current_range_meters":11600,"station_id":"st_d3nk18o9ro0c73en2l3g","pricing_plan_id":"cebpf4jnsgd1na2vs0mg"},{"bike_id":"1e96556a-4321-450a-8e2b-29adeee7d11e","system_id":"levelo_inurba_marseille","lat":43.30333,"lon":5.40433,"is_reserved":false,"is_disabled":false,"rental_uris":{"android":"levelo://app?vid=1e96556a-4321-450a-8e2b-29adeee7d11e","ios":"levelo://app?vid=1e96556a-4321-450a-8e2b-29adeee7d11e"},