{"last_updated":1733908204,"ttl":60,"version":"2.2","data":{"bikes":[{"bike_id":"dd976098-b6a9-4a35-b65a-40834007c3e8","system_id":"levelo_inurba_marseille","lat":43.24676,"lon":5.38172,"is_reserved":false,"is_disabled":false,"rental_uris":{"android":"levelo://app?vid=dd976098-b6a9-4a35-b65a-40834007c3e8","ios":"levelo://app?vid=dd976098-b6a9-4a35-b65a-40834007c3e8"},"vehicle_type_id":"4","last_reported":1733908205,"current_range_meters":13600,"station_id":"ce4bhih2rcd13ifvqfr0","pricing_plan_id":"cebpf4jnsgd1na2vs0mg"},{"bike_id":"7443f710-6fa6-4ee7-9f22-0e26bc4b4ca9","system_id":"levelo_inurba_marseille","lat":43.28262,"lon":5.35076,"is_reserved":false,"is_disabled":false,"rental_uris":{"android":"levelo://app?vid=7443f710-6fa6-4ee7-9f22-0e26bc4b4ca9","ios":"levelo://app?vid=7443f710-6fa6-4ee7-9f22-0e26bc4b4ca9"},"vehicle_type_id":"4","last_reported":1733908205,"current_range_meters":39200,"station_id":"ce4bhbp2rcd13ifvqerg","pricing_plan_id":"cebpf4jnsgd1na2vs0mg"},{"bike_id":"a43fa953-7b60-49b3-b2aa-af962ae319bb","system_id":"levelo_inurba_marseille","lat":43.337444,"lon":5.374475,"is_reserved":false,"is_disabled":false,"rental_uris":{"android":"levelo://app?vid=a43fa953-7b60-49b3-b2aa-af962ae319bb","ios":"levelo://app?vid=a43fa953-7b60-49b3-b2aa-af962ae319bb"},"vehicle_type_id":"4","last_reported":1733908205,"current_range_meters":16000,"station_id":"ce4bgj92rcd13ifvqbe0","pricing_plan_id":"cebpf4jnsgd1na2vs0mg"},{"bike_id":"8d9d61b8-171f-4d1b-b231-55ea6bf4eb3d","system_id":"levelo_inurba_marseille","lat":43.32483,"lon":5.3655,"is_reserved":false,"is_disabled":false,"rental_uris":{"android":"levelo://app?vid=8d9d61b8-171f-4d1b-b231-55ea6bf4eb3d","ios":"levelo://app?vid=8d9d61b8-171f-4d1b-b231-55ea6bf4eb3d"},"vehicle_type_id":"4","last_reported":1733908205,"current_range_meters":38400,"station_id":"ce4bhs12rcd13ifvqhvg","pricing_plan_id":"cebpf4jnsgd1na2vs0mg"},{"bike_id":"8e029eaf-e104-4c5d-858d-6cd39de73d09","system_id":"levelo_inurba_marseille","lat":43.24163,"lon":5.36403,"is_reserved":false,"is_disabled":false,"rental_uris":{"android":"levelo://app?vid=8e029eaf-e104-4c5d-858d-6cd39de73d09","ios":"levelo://app?vid=8e029eaf-e104-4c5d-858d-6cd39de73d09"},"vehicle_type_id":"4","last_reported":1733908205,"current_range_meters":10000,"station_id":"cpo36qri1sfpv3e86is0","pricing_plan_id":"cebpf4jnsgd1na2vs0mg"},{"bike_id":"57dce0ce-cd22-4e03-861f-f28132b067f6","system_id":"levelo_inurba_marseille","lat":43.26065,"lon":5.39389,"is_reserved":false,"is_disabled":false,"rental_uris":{"android":"levelo://app?vid=57dce0ce-cd22-4e03-861f-f28132b067f6","ios":"levelo://app?vid=57dce0ce-cd22-4e03-861f-f28132b067f6"},"vehicle_type_id":"4","last_reported":1733908205,"current_range_meters":30000,"station_id":"ce4bhh92rcd13ifvqfj0","pricing_plan_id":"cebpf4jnsgd1na2vs0mg"},{"bike_id":"8bcc6834-2eed-469c-8872-f32a5974c579","system_id":"levelo_inurba_marseille","lat":43.30356,"lon":5.4187,"is_reserved":false,"is_disabled":true,"rental_uris":{"android":"levelo://app?vid=8bcc6834-2eed-469c-8872-f32a5974c579","ios":"levelo://app?vid=8bcc6834-2eed-469c-8872-f32a5974c579"},"vehicle_type_id":"4","last_reported":1733908205,"current_range_meters":38000,"station_id":"ce4bhop2rcd13ifvqh7g","pricing_plan_id":"cebpf4jnsgd1na2vs0mg"},{"bike_id":"34660bf1-da78-48f2-a606-8f2f1c82caa7","system_id":"levelo_inurba_marseille","lat":43.25007,"lon":5.38935,"is_reserved":false,"is_disabled":false,"rental_uris":{"android":"levelo://app?vid=34660bf1-da78-48f2-a606-8f2f1c82caa7","ios":"levelo://app?vid=34660bf1-da78-48f2-a606-8f2f1c82caa7"},"vehicle_type_id":"4","last_reported":1733908205,"current_range_meters":38800,"station_id":"ce4bhgp2rcd13ifvqfd0","pricing_plan_id":"cebpf4jnsgd1na2vs0mg"},{"bike_id":"014914cf-eb98-4b5d-8cd3-12a67a219c23","system_id":"levelo_inurba_marseille","lat":43.33607,"lon":5.41028,"is_reserved":false,"is_disabled":false,"rental_uris":{"android":"levelo://app?vid=014914cf-eb98-4b5d-8cd3-12a67a219c23","ios":"levelo://app?vid=014914cf-eb98-4b5d-8cd3-12a67a219c23"},"vehicle_type_id":"4","last_reported":1733908205,"current_range_meters":34800,"station_id":"ce4bhqh2rcd13ifvqhmg","pricing_plan_id":"cebpf4jnsgd1na2vs0mg"},{"bike_id":"f4d45015-cae8-4b91-8472-ef79e4ebbfa8","system_id":"levelo_inurba_marseille","lat":43.29495,"lon":5.43857,"is_reserved":false,"is_disabled":false,"rental_uris":{"android":"levelo://app?vid=f4d45015-cae8-4b91-8472-ef79e4ebbfa8","ios":"levelo://app?vid=f4d45015-cae8-4b91-8472-ef79e4ebbfa8"},"vehicle_type_id":"4","last_reported":1733908205,"current_range_meters":22400,"station_id":"","pricing_plan_id":"cebpf4jnsgd1na2vs0mg"},{"bike_id":"39f36858-d264-4c8a-baa2-e94546132d51","system_id":"levelo_inurba_marseille","lat":43.30141,"lon":5.3743,"is_reserved":false,"is_disabled":false,"rental_uris":{"android":"levelo://app?vid=39f36858-d264-4c8a-baa2-e94546132d51","ios":"levelo://app?vid=39f36858-d264-4c8a-baa2-e94546132d51"},"vehicle_type_id":"4","last_reported":1733908205,"current_range_meters":24800,"station_id":"ce4bgs92rcd13ifvqcc0","pricing_plan_id":"cebpf4jnsgd1na2vs0mg"},{"bike_id":"0e768579-453d-47df-9796-b142b6efc272","system_id":"levelo_inurba_marseille","lat":43.30953,"lon":5.3905,"is_reserved":false,"is_disabled":false,"rental_uris":{"android":"levelo://app?vid=0e768579-453d-47df-9796-b142b6efc272","ios":"levelo://app?vid=0e768579-453d-47df-9796-b142b6efc272"},"vehicle_type_id":"4","last_reported":1733908205,"current_range_meters":38800,"station_id":"ce4bgup2rcd13ifvqco0","pricing_plan_id":"cebpf4jnsgd1na2vs0mg"},{"bike_id":"8bd642b2-0279-44c7-9ee2-fc3b57332c83","system_id":"levelo_inurba_marseille","lat":43.27455,"lon":5.40073,"is_reserved":false,"is_disabled":true,"rental_uris":{"android":"levelo://app?vid=8bd642b2-0279-44c7-9ee2-fc3b57332c83","ios":"levelo://app?vid=8bd642b2-0279-44c7-9ee2-fc3b57332c83"},"vehicle_type_id":"4","last_reported":1733908205,"current_range_meters":0,"station_id":"","pricing_plan_id":"cebpf4jnsgd1na2vs0mg"},{"bike_id":"59b0b34c-6f92-4349-9ebf-bf641fd76061","system_id":"levelo_inurba_marseille","lat":43.27066,"lon":5.42284,"is_reserved":false,"is_disabled":true,"rental_uris":{"android":"levelo://app?vid=59b0b34c-6f92-4349-9ebf-bf641fd76061","ios":"levelo://app?vid=59b0b34c-6f92-4349-9ebf-bf641fd76061"},"vehicle_type_id":"4","last_reported":1733908205,"current_range_meters":26800,"station_id":"ce4bhk92rcd13ifvqgb0","pricing_plan_id":"cebpf4jnsgd1na2vs0mg"},{"bike_id":"c3d14c8f-cd42-4a1c-822a-f58ea77e1fc4","system_id":"levelo_inurba_marseille","lat":43.24065,"lon":5.37762,"is_reserved":false,"is_disabled":false,"rental_uris":{"android":"levelo://app?vid=c3d14c8f-cd42-4a1c-822a-f58ea77e1fc4","ios":"levelo://app?vid=c3d14c8f-cd42-4a1c-822a-f58ea77e1fc4"},"vehicle_type_id":"4","last_reported":1733908205,"current_range_meters":17200,"station_id":"ce4bhnp2rcd13ifvqgvg","pricing_plan_id":"cebpf4jnsgd1na2vs0mg"},{"bike_id":"11e262d9-299e-44d3-8720-24ec77b2c0aa","system_id":"levelo_inurba_marseille","lat":43.26805,"lon":5.40259,"is_reserved":false,"is_disabled":false,"rental_uris":{"android":"levelo://app?vid=11e262d9-299e-44d3-8720-24ec77b2c0aa","ios":"levelo://app?vid=11e262d9-299e-44d3-8720-24ec77b2c0aa"},"vehicle_type_id":"4","last_reported":1733908205,"current_range_meters":30400,"station_id":"ce501612rcd8frsf0b60","pricing_plan_id":"cebpf4jnsgd1na2vs0mg"},{"bike_id":"4232301f-62cf-4f72-99fa-7b7e52509b87","system_id":"levelo_inurba_marseille","lat":43.337444,"lon":5.374475,"is_reserved":false,"is_disabled":true,"rental_uris":{"android":"levelo://app?vid=4232301f-62cf-4f72-99fa-7b7e52509b87","ios":"levelo://app?vid=4232301f-62cf-4f72-99fa-7b7e52509b87"},"vehicle_type_id":"4","last_reported":1733908205,"current_range_meters":30000,"station_id":"ce4bhoh2rcd13ifvqh5g","pricing_plan_id":"cebpf4jnsgd1na2vs0mg"},{"bike_id":"ead19836-b25b-4054-9afc-6db8e2f301e2","system_id":"levelo_inurba_marseille","lat":43.29544,"lon":5.39412,"is_reserved":false,"is_disabled":false,"rental_uris":{"android":"levelo://app?vid=ead19836-b25b-4054-9afc-6db8e2f301e2","ios":"levelo://app?vid=ead19836-b25b-4054-9afc-6db8e2f301e2"},"vehicle_type_id":"4","last_reported":1733908205,"current_range_meters":8400,"station_id":"ce4bh292rcd13ifvqdf0","pricing_plan_id":"cebpf4jnsgd1na2vs0mg"},{"bike_id":"a373576b-7180-405c-8679-ac754beda5b7","system_id":"levelo_inurba_marseille","lat":43.27807,"lon":5.40711,"is_reserved":false,"is_disabled":false,"rental_uris":{"android":"levelo://app?vid=a373576b-7180-405c-8679-ac754beda5b7","ios":"levelo://app?vid=a373576b-7180-405c-8679-ac754beda5b7"},"vehicle_type_id":"4","last_reported":1733908205,"current_range_meters":35200,"station_id":"ce4bhnh2rcd13ifvqgtg","pricing_plan_id":"cebpf4jnsgd1na2vs0mg"},{"bike_id":"7cbc1c51-5526-4c50-8263-fb72e272b5fd","system_id":"levelo_inurba_marseille","lat":43.28942,"lon":5.36397,"is_reserved":false,"is_disabled":true,"rental_uris":{"android":"levelo://app?vid=7cbc1c51-5526-4c50-8263-fb72e272b5fd","ios":"levelo://app?vid=7cbc1c51-5526-4c50-8263-fb72e272b5fd"},"vehicle_type_id":"4","last_reported":1733908205,"current_range_meters":1200,"station_id":"ce4bhc92rcd13ifvqetg","pricing_plan_id":"cebpf4jnsgd1na2vs0mg"},{"bike_id":"f23d1f82-42f8-47a2-babe-7fd4a2590098","system_id":"levelo_inurba_marseille","lat":43.26209,"lon":5.37443,"is_reserved":false,"is_disabled":false,"rental_uris":{"android":"levelo://app?vid=f23d1f82-42f8-47a2-babe-7fd4a2590098","ios":"levelo://app?vid=f23d1f82-42f8-47a2-babe-7fd4a2590098"},"vehicle_type_id":"4","last_reported":1733908205,"current_range_meters":17200,"station_id":"ce4bhgp2rcd13ifvqfc0","pricing_plan_id":"cebpf4jnsgd1na2vs0mg"},{"bike_id":"489d3aed-4189-4b67-b449-173c918b846f","system_id":"levelo_inurba_marseille","lat":43.27495,"lon":5.42449,"is_reserved":false,"is_disabled":false,"rental_uris":{"android":"levelo://app?vid=489d3aed-4189-4b67-b449-173c918b846f","ios":"levelo://app?vid=489d3aed-4189-4b67-b449-173c918b846f"},"vehicle_type_id":"4","last_reported":1733908205,"current_range_meters":34000,"station_id":"ce4bhn92rcd13ifvqgrg","pricing_plan_id":"cebpf4jnsgd1na2vs0mg"},{"bike_id":"9798a14a-cd61-47ed-aaf1-b8c85e3fdb91","system_id":"levelo_inurba_marseille","lat":43.28938,"lon":5.36625,"is_reserved":false,"is_disabled":true,"rental_uris":{"android":"levelo://app?vid=9798a14a-cd61-47ed-aaf1-b8c85e3fdb91","ios":"levelo://app?vid=9798a14a-cd61-47ed-aaf1-b8c85e3fdb91"},"vehicle_type_id":"4","last_reported":1733908205,"current_range_meters":400,"station_id":"ce4bhap2rcd13ifvqek0","pricing_plan_id":"cebpf4jnsgd1na2vs0mg"},{"bike_id":"9a8f7d6e-f0b3-4496-add2-e9124652bb7b","system_id":"levelo_inurba_marseille","lat":43.29549,"lon":5.4229,"is_reserved":false,"is_disabled":false,"rental_uris":{"android":"levelo://app?vid=9a8f7d6e-f0b3-4496-add2-e9124652bb7b","ios":"levelo://app?vid=9a8f7d6e-f0b3-4496-add2-e9124652bb7b"},"vehicle_type_id":"4","last_reported":1733908205,"current_range_meters":22400,"station_id":"ce4bhph2rcd13ifvqhdg","pricing_plan_id":"cebpf4jnsgd1na2vs0mg"},{"bike_id":"2a57085e-383c-4804-a2e2-6bb3403eb6ab","system_id":"levelo_inurba_marseille","lat":43.31371,"lon":5.36705,"is_reserved":false,"is_disabled":false,"rental_uris":{"android":"levelo://app?vid=2a57085e-383c-4804-a2e2-6bb3403eb6ab","ios":"levelo://app?vid=2a57085e-383c-4804-a2e2-6bb3403eb6ab"},"vehicle_type_id":"4","last_reported":1733908205,"current_range_meters":37600,"station_id":"ce4bgr92rcd13ifvqc6g","pricing_plan_id":"cebpf4jnsgd1na2vs0mg"},{"bike_id":"78fb1fea-a982-4671-a4af-5f54c39befe6","system_id":"levelo_inurba_marseille","lat":43.24179,"lon":5.39741,"is_reserved":false,"is_disabled":true,"rental_uris":{"android":"levelo://app?vid=78fb1fea-a982-4671-a4af-5f54c39befe6","ios":"levelo://app?vid=78fb1fea-a982-4671-a4af-5f54c39befe6"},"vehicle_type_id":"4","last_reported":1733908205,"current_range_meters":1200,"station_id":"ce4bhn12rcd13ifvqgpg","pricing_plan_id":"cebpf4jnsgd1na2vs0mg"},{"bike_id":"05b1e573-2460-4737-9948-a11dc3deb634","system_id":"levelo_inurba_marseille","lat":43.2695,"lon":5.3863,"is_reserved":false,"is_disabled":false,"rental_uris":{"android":"levelo://app?vid=05b1e573-2460-4737-9948-a11dc3deb634","ios":"levelo://app?vid=05b1e573-2460-4737-9948-a11dc3deb634"},"vehicle_type_id":"4","last_reported":1733908205,"current_range_meters":11200,"station_id":"ce4bhh92rcd13ifvqfh0","pricing_plan_id":"cebpf4jnsgd1na2vs0mg"},{"bike_id":"d9dba09b-5e64-4efe-b758-d5d9fd3e8b71","system_id":"levelo_inurba_marseille","lat":43.24072,"lon":5.3776,"is_reserved":false,"is_disabled":false,"rental_uris":{"android":"levelo://app?vid=d9dba09b-5e64-4efe-b758-d5d9fd3e8b71","ios":"levelo://app?vid=d9dba09b-5e64-4efe-b758-d5d9fd3e8b71"},"vehicle_type_id":"4","last_reported":1733908205,"current_range_meters":25600,"station_id":"ce4bhnp2rcd13ifvqgvg","pricing_plan_id":"cebpf4jnsgd1na2vs0mg"},{"bike_id":"bfcd7169-1867-4a11-953d-8636814047c8","system_id":"levelo_inurba_marseille","lat":43.2593,"lon":5.40894,"is_reserved":false,"is_disabled":false,"rental_uris":{"android":"levelo://app?vid=bfcd7169-1867-4a11-953d-8636814047c8","ios":"levelo://app?vid=bfcd7169-1867-4a11-953d-8636814047c8"},"vehicle_type_id":"4","last_reported":1733908205,"current_range_meters":29600,"station_id":"ce4bhm92rcd13ifvqglg","pricing_plan_id":"cebpf4jnsgd1na2vs0mg"},{"bike_id":"d7a879f6-0e25-4ad7-a843-848b313ff6c1","system_id":"levelo_inurba_marseille","lat":43.29444,"lon":5.397715,"is_reserved":false,"is_disabled":true,"rental_uris":{"android":"levelo://app?vid=d7a879f6-0e25-4ad7-a843-848b313ff6c1","ios":"levelo://app?vid=d7a879f6-0e25-4ad7-a843-848b313ff6c1"},"vehicle_type_id":"4","last_reported":1733908205,"current_range_meters":36400,"station_id":"ce4bh3h2rcd13ifvqdo0","pricing_plan_id":"cebpf4jnsgd1na2vs0mg"},{"bike_id":"3382ae16-d77d-40d4-ade6-aa3116784e40","system_id":"levelo_inurba_marseille","lat":43.29555,"lon":5.42291,"is_reserved":false,"is_disabled":false,"rental_uris":{"android":"levelo://app?vid=3382ae16-d77d-40d4-ade6-aa3116784e40","ios":"levelo://app?vid=3382ae16-d77d-40d4-ade6-aa3116784e40"},"vehicle_type_id":"4","last_reported":1733908205,"current_range_meters":38800,"station_id":"ce4bhph2rcd13ifvqhdg","pricing_plan_id":"cebpf4jnsgd1na2vs0mg"},{"bike_id":"48404fd2-95c7-4692-9f70-30e78c5752c2","system_id":"levelo_inurba_marseille","lat":43.31541,"lon":5.36509,"is_reserved":false,"is_disabled":false,"rental_uris":{"android":"levelo://app?vid=48404fd2-95c7-4692-9f70-30e78c5752c2","ios":"levelo://app?vid=48404fd2-95c7-4692-9f70-30e78c5752c2"},"vehicle_type_id":"4","last_reported":1733908205,"current_range_meters":28000,"station_id":"ce4bgj92rcd13ifvqbe0","pricing_plan_id":"cebpf4jnsgd1na2vs0mg"},{"bike_id":"2f3968e7-9336-4ee4-ba78-8e92c0a818cc","system_id":"levelo_inurba_marseille","lat":43.31322,"lon":5.36647,"is_reserved":false,"is_disabled":true,"rental_uris":{"android":"levelo://app?vid=2f3968e7-9336-4ee4-ba78-8e92c0a818cc","ios":"levelo://app?vid=2f3968e7-9336-4ee4-ba78-8e92c0a818cc"},"vehicle_type_id":"4","last_reported":1733908205,"current_range_meters":0,"station_id":"","pricing_plan_id":"cebpf4jnsgd1na2vs0mg"},{"bike_id":"074b05b1-8e90-4994-97ad-c0b91cacfff3","system_id":"levelo_inurba_marseille","lat":43.32544,"lon":5.41439,"is_reserved":false,"is_disabled":false,"rental_uris":{"android":"levelo://app?vid=074b05b1-8e90-4994-97ad-c0b91cacfff3","ios":"levelo://app?vid=074b05b1-8e90-4994-97ad-c0b91cacfff3"},"vehicle_type_id":"4","last_reported":1733908205,"current_range_meters":35200,"station_id":"ce4bhq12rcd13ifvqhhg","pricing_plan_id":"cebpf4jnsgd1na2vs0mg"},{"bike_id":"d9197b43-6831-42a7-b58a-8d8fd08fb084","system_id":"levelo_inurba_marseille","lat":43.30931,"lon":5.36888,"is_reserved":false,"is_disabled":false,"rental_uris":{"android":"levelo://app?vid=d9197b43-6831-42a7-b58a-8d8fd08fb084","ios":"levelo://app?vid=d9197b43-6831-42a7-b58a-8d8fd08fb084"},"vehicle_type_id":"4","last_reported":1733908205,"current_range_meters":20800,"station_id":"ce4bgn92rcd13ifvqbvg","pricing_plan_id":"cebpf4jnsgd1na2vs0mg"},{"bike_id":"135aa0d9-861d-4853-916a-77c3285bacb8","system_id":"levelo_inurba_marseille","lat":43.26937,"lon":5.40251,"is_reserved":false,"is_disabled":false,"rental_uris":{"android":"levelo://app?vid=135aa0d9-861d-4853-916a-77c3285bacb8","ios":"levelo://app?vid=135aa0d9-861d-4853-916a-77c3285bacb8"},"vehicle_type_id":"4","last_reported":1733908205,"current_range_meters":20800,"station_id":"cjm6bp8fraef2m0cb0m0","pricing_plan_id":"cebpf4jnsgd1na2vs0mg"},{"bike_id":"215c1549-0db8-4dd1-89f9-3e1b19b2c58d","system_id":"levelo_inurba_marseille","lat":43.27993,"lon":5.40012,"is_reserved":false,"is_disabled":true,"rental_uris":{"android":"levelo://app?vid=215c1549-0db8-4dd1-89f9-3e1b19b2c58d","ios":"levelo://app?vid=215c1549-0db8-4dd1-89f9-3e1b19b2c58d"},"vehicle_type_id":"4","last_reported":1733908205,"current_range_meters":37600,"station_id":"ce4bho92rcd13ifvqh4g","pricing_plan_id":"cebpf4jnsgd1na2vs0mg"},{"bike_id":"1fafee08-ac38-4bf8-89de-e237cdcec5b8","system_id":"levelo_inurba_marseille","lat":43.30549,"lon":5.36697,"is_reserved":false,"is_disabled":false,"rental_uris":{"android":"levelo://app?vid=1fafee08-ac38-4bf8-89de-e237cdcec5b8","ios":"levelo://app?vid=1fafee08-ac38-4bf8-89de-e237cdcec5b8"},"vehicle_type_id":"4","last_reported":1733908205,"current_range_meters":18800,"station_id":"ce4bgrp2rcd13ifvqc9g","pricing_plan_id":"cebpf4jnsgd1na2vs0mg"},{"bike_id":"acb8589e-f9dd-41d6-8fb2-657c3b4ae0e2","system_id":"levelo_inurba_marseille","lat":43.25457,"lon":5.38206,"is_reserved":false,"is_disabled":false,"rental_uris":{"android":"levelo://app?vid=acb8589e-f9dd-41d6-8fb2-657c3b4ae0e2","ios":"levelo://app?vid=acb8589e-f9dd-41d6-8fb2-657c3b4ae0e2"},"vehicle_type_id":"4","last_reported":1733908205,"current_range_meters":38400,"station_id":"","pricing_plan_id":"cebpf4jnsgd1na2vs0mg"},{"bike_id":"56818c25-3de1-429f-ac0c-aaeb3a02fbe8","system_id":"levelo_inurba_marseille","lat":43.29299,"lon":5.37459,"is_reserved":false,"is_disabled":false,"rental_uris":{"android":"levelo://app?vid=56818c25-3de1-429f-ac0c-aaeb3a02fbe8","ios":"levelo://app?vid=56818c25-3de1-429f-ac0c-aaeb3a02fbe8"},"vehicle_type_id":"4","last_reported":1733908205,"current_range_meters":39200,"station_id":"ce4bgi12rcd13ifvqb70","pricing_plan_id":"cebpf4jnsgd1na2vs0mg"},{"bike_id":"2420431f-6818-466e-a326-989163d82e71","system_id":"levelo_inurba_marseille","lat":43.30955,"lon":5.39035,"is_reserved":false,"is_disabled":false,"rental_uris":{"android":"levelo://app?vid=2420431f-6818-466e-a326-989163d82e71","ios":"levelo://app?vid=2420431f-6818-466e-a326-989163d82e71"},"vehicle_type_id":"4","last_reported":1733908205,"current_range_meters":36400,"station_id":"ce4bgup2rcd13ifvqco0","pricing_plan_id":"cebpf4jnsgd1na2vs0mg"},{"bike_id":"9874fe8e-4bd6-4db8-87e2-446af8fac33c","system_id":"levelo_inurba_marseille","lat":43.30465,"lon":5.37904,"is_reserved":false,"is_disabled":false,"rental_uris":{"android":"levelo://app?vid=9874fe8e-4bd6-4db8-87e2-446af8fac33c","ios":"levelo://app?vid=9874fe8e-4bd6-4db8-87e2-446af8fac33c"},"vehicle_type_id":"4","last_reported":1733908205,"current_range_meters":30400,"station_id":"ce4bgup2rcd13ifvqcn0","pricing_plan_id":"cebpf4jnsgd1na2vs0mg"},{"bike_id":"27930010-c3f8-4b91-bb0a-9715d49e4a36","system_id":"levelo_inurba_marseille","lat":43.28684,"lon":5.38665,"is_reserved":false,"is_disabled":false,"rental_uris":{"android":"levelo://app?vid=27930010-c3f8-4b91-bb0a-9715d49e4a36","ios":"levelo://app?vid=27930010-c3f8-4b91-bb0a-9715d49e4a36"},"vehicle_type_id":"4","last_reported":1733908205,"current_range_meters":27600,"station_id":"ce4bh492rcd13ifvqdug","pricing_plan_id":"cebpf4jnsgd1na2vs0mg"},{"bike_id":"12add500-ea1f-403d-bb3c-de83ce61c6f3","system_id":"levelo_inurba_marseille","lat":43.28933,"lon":5.36621,"is_reserved":false,"is_disabled":true,"rental_uris":{"android":"levelo://app?vid=12add500-ea1f-403d-bb3c-de83ce61c6f3","ios":"levelo://app?vid=12add500-ea1f-403d-bb3c-de83ce61c6f3"},"vehicle_type_id":"4","last_reported":1733908205,"current_range_meters":31200,"station_id":"ce4bhap2rcd13ifvqek0","pricing_plan_id":"cebpf4jnsgd1na2vs0mg"},{"bike_id":"a4a5fbf5-043b-4b1f-9c66-73a42ca4859a","system_id":"levelo_inurba_marseille","lat":43.27501,"lon":5.42429,"is_reserved":false,"is_disabled":true,"rental_uris":{"android":"levelo://app?vid=a4a5fbf5-043b-4b1f-9c66-73a42ca4859a","ios":"levelo://app?vid=a4a5fbf5-043b-4b1f-9c66-73a42ca4859a"},"vehicle_type_id":"4","last_reported":1733908205,"current_range_meters":36000,"station_id":"ce4bhn92rcd13ifvqgrg","pricing_plan_id":"cebpf4jnsgd1na2vs0mg"},{"bike_id":"b48084ed-8c3a-49c3-a6fb-279c26af1bed","system_id":"levelo_inurba_marseille","lat":43.30546,"lon":5.36719,"is_reserved":false,"is_disabled":false,"rental_uris":{"android":"levelo://app?vid=b48084ed-8c3a-49c3-a6fb-279c26af1bed","ios":"levelo://app?vid=b48084ed-8c3a-49c3-a6fb-279c26af1bed"},"vehicle_type_id":"4","last_reported":1733908205,"current_range_meters":38800,"station_id":"ce4bgrp2rcd13ifvqc9g","pricing_plan_id":"cebpf4jnsgd1na2vs0mg"},{"bike_id":"60087b8b-0974-4021-83aa-819e9b1a85fd","system_id":"levelo_inurba_marseille","lat":43.30947,"lon":5.39031,"is_reserved":false,"is_disabled":false,"rental_uris":{"android":"levelo://app?vid=60087b8b-0974-4021-83aa-819e9b1a85fd","ios":"levelo://app?vid=60087b8b-0974-4021-83aa-819e9b1a85fd"},"vehicle_type_id":"4","last_reported":1733908205,"current_range_meters":26800,"station_id":"ce4bgup2rcd13ifvqco0","pricing_plan_id":"cebpf4jnsgd1na2vs0mg"},{"bike_id":"ce93eba4-a260-4242-bfd1-eb4a1083d4a6","system_id":"levelo_inurba_marseille","lat":43.27369,"lon":5.36255,"is_reserved":false,"is_disabled":false,"rental_uris":{"android":"levelo://app?vid=ce93eba4-a260-4242-bfd1-eb4a1083d4a6","ios":"levelo://app?vid=ce93eba4-a260-4242-bfd1-eb4a1083d4a6"},"vehicle_type_id":"4","last_reported":1733908205,"current_range_meters":38800,"station_id":"ce4bhbh2rcd13ifvqeo0","pricing_plan_id":"cebpf4jnsgd1na2vs0mg"},{"bike_id":"7772d601-3886-4ddf-bc2a-d375776fe6ae","system_id":"levelo_inurba_marseille","lat":43.336,"lon":5.40955,"is_reserved":false,"is_disabled":false,"rental_uris":{"android":"levelo://app?vid=7772d601-3886-4ddf-bc2a-d375776fe6ae","ios":"levelo://app?vid=7772d601-3886-4ddf-bc2a-d375776fe6ae"},"vehicle_type_id":"4","last_reported":1733908205,"current_range_meters":31200,"station_id":"ce4bhqh2rcd13ifvqhmg","pricing_plan_id":"cebpf4jnsgd1na2vs0mg"},{"bike_id":"12866231-981c-4da2-9d88-6286f2eb7d17","system_id":"levelo_inurba_marseille","lat":43.25583,"lon":5.3822,"is_reserved":false,"is_disabled":false,"rental_uris":{"android":"levelo://app?vid=12866231-981c-4da2-9d88-6286f2eb7d17","ios":"levelo://app?vid=12866231-981c-4da2-9d88-6286f2eb7d17"},"vehicle_type_id":"4","last_reported":1733908205,"current_range_meters":20800,"station_id":"ce4bhih2rcd13ifvqfs0","pricing_plan_id":"cebpf4jnsgd1na2vs0mg"},{"bike_id":"c1af07c0-ed11-49c8-aa2e-1104638a28b7","system_id":"levelo_inurba_marseille","lat":43.23066,"lon":5.35468,"is_reserved":false,"is_disabled":false,"rental_uris":{"android":"levelo://app?vid=c1af07c0-ed11-49c8-aa2e-1104638a28b7","ios":"levelo://app?vid=c1af07c0-ed11-49c8-aa2e-1104638a28b7"},"vehicle_type_id":"4","last_reported":1733908205,"current_range_meters":14800,"station_id":"cpo3342slgdg3j2ifvpg","pricing_plan_id":"cebpf4jnsgd1na2vs0mg"},{"bike_id":"0e0c4d88-20f7-4c98-a4ac-1d53a7a1733e","system_id":"levelo_inurba_marseille","lat":43.302475,"lon":5.401314,"is_reserved":false,"is_disabled":false,"rental_uris":{"android":"levelo://app?vid=0e0c4d88-20f7-4c98-a4ac-1d53a7a1733e","ios":"levelo://app?vid=0e0c4d88-20f7-4c98-a4ac-1d53a7a1733e"},"vehicle_type_id":"4","last_reported":1733908205,"current_range_meters":28800,"station_id":"ce4bgvh2rcd13ifvqcs0","pricing_plan_id":"cebpf4jnsgd1na2vs0mg"},{"bike_id":"614aec7f-ed19-41ae-8500-52b216d59f70","system_id":"levelo_inurba_marseille","lat":43.31495,"lon":5.3731,"is_reserved":false,"is_disabled":false,"rental_uris":{"android":"levelo://app?vid=614aec7f-ed19-41ae-8500-52b216d59f70","ios":"levelo://app?vid=614aec7f-ed19-41ae-8500-52b216d59f70"},"vehicle_type_id":"4","last_reported":1733908205,"current_range_meters":32400,"station_id":"ce4bgt12rcd13ifvqcd0","pricing_plan_id":"cebpf4jnsgd1na2vs0mg"},{"bike_id":"2b93304e-cc4a-4dc5-b935-d574bfaec6e1","system_id":"levelo_inurba_marseille","lat":43.30958,"lon":5.39035,"is_reserved":false,"is_disabled":false,"rental_uris":{"android":"levelo://app?vid=2b93304e-cc4a-4dc5-b935-d574bfaec6e1","ios":"levelo://app?vid=2b93304e-cc4a-4dc5-b935-d574bfaec6e1"},"vehicle_type_id":"4","last_reported":1733908205,"current_range_meters":18800,"station_id":"ce4bgup2rcd13ifvqco0","pricing_plan_id":"cebpf4jnsgd1na2vs0mg"},{"bike_id":"ad5df211-2e95-47b3-b12f-7a484d1d0783","system_id":"levelo_inurba_marseille","lat":43.26214,"lon":5.37916,"is_reserved":false,"is_disabled":false,"rental_uris":{"android":"levelo://app?vid=ad5df211-2e95-47b3-b12f-7a484d1d0783","ios":"levelo://app?vid=ad5df211-2e95-47b3-b12f-7a484d1d0783"},"vehicle_type_id":"4","last_reported":1733908205,"current_range_meters":9600,"station_id":"ce4bhjp2rcd13ifvqg90","pricing_plan_id":"cebpf4jnsgd1na2vs0mg"},{"bike_id":"606aa91c-1754-4379-afa1-23d40df76f80","system_id":"levelo_inurba_marseille","lat":43.30182,"lon":5.38091,"is_reserved":false,"is_disabled":false,"rental_uris":{"android":"levelo://app?vid=606aa91c-1754-4379-afa1-23d40df76f80","ios":"levelo://app?vid=606aa91c-1754-4379-afa1-23d40df76f80"},"vehicle_type_id":"4","last_reported":1733908205,"current_range_meters":36000,"station_id":"ce4bgjp2rcd13ifvqbh0","pricing_plan_id":"cebpf4jnsgd1na2vs0mg"},{"bike_id":"192c7215-c928-4138-9a2c-6c048775082a","system_id":"levelo_inurba_marseille","lat":43.25118,"lon":5.40319,"is_reserved":false,"is_disabled":true,"rental_uris":{"android":"levelo://app?vid=192c7215-c928-4138-9a2c-6c048775082a","ios":"levelo://app?vid=192c7215-c928-4138-9a2c-6c048775082a"},"vehicle_type_id":"4","last_reported":1733908205,"current_range_meters":17200,"station_id":"ce4bhlh2rcd13ifvqgig","pricing_plan_id":"cebpf4jnsgd1na2vs0mg"},{"bike_id":"74ddbdc3-b082-4f44-a075-38dfc2e6b2cd","system_id":"levelo_inurba_marseille","lat":43.24168,"lon":5.36394,"is_reserved":false,"is_disabled":false,"rental_uris":{"android":"levelo://app?vid=74ddbdc3-b082-4f44-a075-38dfc2e6b2cd","ios":"levelo://app?vid=74ddbdc3-b082-4f44-a075-38dfc2e6b2cd"},"vehicle_type_id":"4","last_reported":1733908205,"current_range_meters":17600,"station_id":"cpo36qri1sfpv3e86is0","pricing_plan_id":"cebpf4jnsgd1na2vs0mg"},{"bike_id":"ee424296-6b1f-4146-8552-13bedd0869ba","system_id":"levelo_inurba_marseille","lat":43.31222,"lon":5.36857,"is_reserved":false,"is_disabled":false,"rental_uris":{"android":"levelo://app?vid=ee424296-6b1f-4146-8552-13bedd0869ba","ios":"levelo://app?vid=ee424296-6b1f-4146-8552-13bedd0869ba"},"vehicle_type_id":"4","last_reported":1733908205,"current_range_meters":27200,"station_id":"ce4bgl92rcd13ifvqbq0","pricing_plan_id":"cebpf4jnsgd1na2vs0mg"},{"bike_id":"627751bc-d2b6-495a-97de-471267d080a6","system_id":"levelo_inurba_marseille","lat":43.30318,"lon":5.40441,"is_reserved":false,"is_disabled":true,"rental_uris":{"android":"levelo://app?vid=627751bc-d2b6-495a-97de-471267d080a6","ios":"levelo://app?vid=627751bc-d2b6-495a-97de-471267d080a6"},"vehicle_type_id":"4","last_reported":1733908205,"current_range_meters":35200,"station_id":"ce4bh012rcd13ifvqd10","pricing_plan_id":"cebpf4jnsgd1na2vs0mg"},{"bike_id":"29b0faf8-26ea-4e45-aa82-954ac6966368","system_id":"levelo_inurba_marseille","lat":43.320423,"lon":5.415683,"is_reserved":false,"is_disabled":true,"rental_uris":{"android":"levelo://app?vid=29b0faf8-26ea-4e45-aa82-954ac6966368","ios":"levelo://app?vid=29b0faf8-26ea-4e45-aa82-954ac6966368"},"vehicle_type_id":"4","last_reported":1733908205,"current_range_meters":0,"station_id":"","pricing_plan_id":"cebpf4jnsgd1na2vs0mg"},{"bike_id":"13f377ca-99b2-48ff-93be-6b0ac3120bbb","system_id":"levelo_inurba_marseille","lat":43.28433,"lon":5.3916,"is_reserved":false,"is_disabled":true,"rental_uris":{"android":"levelo://app?vid=13f377ca-99b2-48ff-93be-6b0ac3120bbb","ios":"levelo://app?vid=13f377ca-99b2-48ff-93be-6b0ac3120bbb"},"vehicle_type_id":"4","last_reported":1733908205,"current_range_meters":36400,"station_id":"ce4bhoh2rcd13ifvqh5g","pricing_plan_id":"cebpf4jnsgd1na2vs0mg"},{"bike_id":"d4cf4dc8-25ec-4bf6-92cf-917fbe800064","system_id":"levelo_inurba_marseille","lat":43.26996,"lon":5.38763,"is_reserved":false,"is_disabled":false,"rental_uris":{"android":"levelo://app?vid=d4cf4dc8-25ec-4bf6-92cf-917fbe800064","ios":"levelo://app?vid=d4cf4dc8-25ec-4bf6-92cf-917fbe800064"},"vehicle_type_id":"4","last_reported":1733908205,"current_range_meters":6800,"station_id":"","pricing_plan_id":"cebpf4jnsgd1na2vs0mg"},{"bike_id":"fd164b21-2dab-4351-954f-ff56dadaa227","system_id":"levelo_inurba_marseille","lat":43.250921,"lon":5.395247,"is_reserved":false,"is_disabled":true,"rental_uris":{"android":"levelo://app?vid=fd164b21-2dab-4351-954f-ff56dadaa227","ios":"levelo://app?vid=fd164b21-2dab-4351-954f-ff56dadaa227"},"vehicle_type_id":"4","last_reported":1733908205,"current_range_meters":12400,"station_id":"","pricing_plan_id":"cebpf4jnsgd1na2vs0mg"},{"bike_id":"0a827f52-eaff-4805-9707-70bfbe3922fa","system_id":"levelo_inurba_marseille","lat":43.25013,"lon":5.38914,"is_reserved":false,"is_disabled":false,"rental_uris":{"android":"levelo://app?vid=0a827f52-eaff-4805-9707-70bfbe3922fa","ios":"levelo://app?vid=0a827f52-eaff-4805-9707-70bfbe3922fa"},"vehicle_type_id":"4","last_reported":1733908205,"current_range_meters":38800,"station_id":"ce4bhgp2rcd13ifvqfd0","pricing_plan_id":"cebpf4jnsgd1na2vs0mg"},{"bike_id":"76256d6a-3650-4fe0-80d8-888afa0e85b6","system_id":"levelo_inurba_marseille","lat":43.30794,"lon":5.38186,"is_reserved":false,"is_disabled":true,"rental_uris":{"android":"levelo://app?vid=76256d6a-3650-4fe0-80d8-888afa0e85b6","ios":"levelo://app?vid=76256d6a-3650-4fe0-80d8-888afa0e85b6"},"vehicle_type_id":"4","last_reported":1733908205,"current_range_meters":38800,"station_id":"ce4bgt12rcd13ifvqce0","pricing_plan_id":"cebpf4jnsgd1na2vs0mg"},{"bike_id":"13bd4e67-ba42-4fca-91dc-3429a977ea9b","system_id":"levelo_inurba_marseille","lat":43.27494,"lon":5.42462,"is_reserved":false,"is_disabled":false,"rental_uris":{"android":"levelo://app?vid=13bd4e67-ba42-4fca-91dc-3429a977ea9b","ios":"levelo://app?vid=13bd4e67-ba42-4fca-91dc-3429a977ea9b"},"vehicle_type_id":"4","last_reported":1733908205,"current_range_meters":32000,"station_id":"ce4bhn92rcd13ifvqgrg","pricing_plan_id":"cebpf4jnsgd1na2vs0mg"},{"bike_id":"11e86528-eb6b-4391-86a5-9b1822d069a4","system_id":"levelo_inurba_marseille","lat":43.278805,"lon":5.388003,"is_reserved":false,"is_disabled":true,"rental_uris":{"android":"levelo://app?vid=11e86528-eb6b-4391-86a5-9b1822d069a4","ios":"levelo://app?vid=11e86528-eb6b-4391-86a5-9b1822d069a4"},"vehicle_type_id":"4","last_reported":1733908205,"current_range_meters":0,"station_id":"","pricing_plan_id":"cebpf4jnsgd1na2vs0mg"},{"bike_id":"6cc6805f-c0ca-4585-bdf1-b5a0339762b0","system_id":"levelo_inurba_marseille","lat":43.29027,"lon":5.42744,"is_reserved":false,"is_disabled":true,"rental_uris":{"android":"levelo://app?vid=6cc6805f-c0ca-4585-bdf1-b5a0339762b0","ios":"levelo://app?vid=6cc6805f-c0ca-4585-bdf1-b5a0339762b0"},"vehicle_type_id":"4","last_reported":1733908205,"current_range_meters":0,"station_id":"","pricing_plan_id":"cebpf4jnsgd1na2vs0mg"},{"bike_id":"080c9623-7190-4a88-b14f-4d131f18aefc","system_id":"levelo_inurba_marseille","lat":43.29447,"lon":5.39761,"is_reserved":false,"is_disabled":true,"rental_uris":{"android":"levelo://app?vid=080c9623-7190-4a88-b14f-4d131f18aefc","ios":"levelo://app?vid=080c9623-7190-4a88-b14f-4d131f18aefc"},"vehicle_type_id":"4","last_reported":1733908205,"current_range_meters":2000,"station_id":"ce4bh3h2rcd13ifvqdo0","pricing_plan_id":"cebpf4jnsgd1na2vs0mg"},{"bike_id":"7cba1542-9ee3-41ac-a373-708542cdad88","system_id":"levelo_inurba_marseille","lat":43.30462,"lon":5.40175,"is_reserved":false,"is_disabled":false,"rental_uris":{"android":"levelo://app?vid=7cba1542-9ee3-41ac-a373-708542cdad88","ios":"levelo://app?vid=7cba1542-9ee3-41ac-a373-708542cdad88"},"vehicle_type_id":"4","last_reported":1733908205,"current_range_meters":22800,"station_id":"","pricing_plan_id":"cebpf4jnsgd1na2vs0mg"},{"bike_id":"41f80135-c715-487c-9782-fc43b7150d3f","system_id":"levelo_inurba_marseille","lat":43.24804,"lon":5.37455,"is_reserved":false,"is_disabled":false,"rental_uris":{"android":"levelo://app?vid=41f80135-c715-487c-9782-fc43b7150d3f","ios":"levelo://app?vid=41f80135-c715-487c-9782-fc43b7150d3f"},"vehicle_type_id":"4","last_reported":1733908205,"current_range_meters":38800,"station_id":"ce4bhgh2rcd13ifvqfb0","pricing_plan_id":"cebpf4jnsgd1na2vs0mg"},{"bike_id":"d0e9b0d9-b932-4d84-83c8-f81795e05f31","system_id":"levelo_inurba_marseille","lat":43.28489,"lon":5.38428,"is_reserved":false,"is_disabled":true,"rental_uris":{"android":"levelo://app?vid=d0e9b0d9-b932-4d84-83c8-f81795e05f31","ios":"levelo://app?vid=d0e9b0d9-b932-4d84-83c8-f81795e05f31"},"vehicle_type_id":"4","last_reported":1733908205,"current_range_meters":0,"station_id":"ce4bh512rcd13ifvqe3g","pricing_plan_id":"cebpf4jnsgd1na2vs0mg"},{"bike_id":"28449c76-e3ca-4b7e-a5a0-4a32e5cadede","system_id":"levelo_inurba_marseille","lat":43.305156,"lon":5.365435,"is_reserved":false,"is_disabled":true,"rental_uris":{"android":"levelo://app?vid=28449c76-e3ca-4b7e-a5a0-4a32e5cadede","ios":"levelo://app?vid=28449c76-e3ca-4b7e-a5a0-4a32e5cadede"},"vehicle_type_id":"4","last_reported":1733908205,"current_range_meters":0,"station_id":"","pricing_plan_id":"cebpf4jnsgd1na2vs0mg"},{"bike_id":"9711eb10-b1bd-482b-bdbc-c7f689efbcae","system_id":"levelo_inurba_marseille","lat":43.30464,"lon":5.37916,"is_reserved":false,"is_disabled":false,"rental_uris":{"android":"levelo://app?vid=9711eb10-b1bd-482b-bdbc-c7f689efbcae","ios":"levelo://app?vid=9711eb10-b1bd-482b-bdbc-c7f689efbcae"},"vehicle_type_id":"4","last_reported":1733908205,"current_range_meters":32400,"station_id":"ce4bgup2rcd13ifvqcn0","pricing_plan_id":"cebpf4jnsgd1na2vs0mg"},{"bike_id":"e34dfc9a-fb58-4332-af2f-560477ec775f","system_id":"levelo_inurba_marseille","lat":43.24388,"lon":5.3706,"is_reserved":false,"is_disabled":false,"rental_uris":{"android":"levelo://app?vid=e34dfc9a-fb58-4332-af2f-560477ec775f","ios":"levelo://app?vid=e34dfc9a-fb58-4332-af2f-560477ec775f"},"vehicle_type_id":"4","last_reported":1733908205,"current_range_meters":30400,"station_id":"ce4bhhh2rcd13ifvqfk0","pricing_plan_id":"cebpf4jnsgd1na2vs0mg"},{"bike_id":"dced6415-3f72-4987-9f23-cb7bd7cc812c","system_id":"levelo_inurba_marseille","lat":43.30538,"lon":5.36541,"is_reserved":false,"is_disabled":false,"rental_uris":{"android":"levelo://app?vid=dced6415-3f72-4987-9f23-cb7bd7cc812c","ios":"levelo://app?vid=dced6415-3f72-4987-9f23-cb7bd7cc812c"},"vehicle_type_id":"4","last_reported":1733908205,"current_range_meters":38800,"station_id":"ce4bgs12rcd13ifvqcag","pricing_plan_id":"cebpf4jnsgd1na2vs0mg"},{"bike_id":"dc905201-010b-46f3-846a-897b70a94255","system_id":"levelo_inurba_marseille","lat":43.27492,"lon":5.42451,"is_reserved":false,"is_disabled":false,"rental_uris":{"android":"levelo://app?vid=dc905201-010b-46f3-846a-897b70a94255","ios":"levelo://app?vid=dc905201-010b-46f3-846a-897b70a94255"},"vehicle_type_id":"4","last_reported":1733908205,"current_range_meters":17600,"station_id":"ce4bhn92rcd13ifvqgrg","pricing_plan_id":"cebpf4jnsgd1na2vs0mg"},{"bike_id":"6ea860bd-ab39-432c-9a85-9db1cca7765f","system_id":"levelo_inurba_marseille","lat":43.29581,"lon":5.37494,"is_reserved":false,"is_disabled":false,"rental_uris":{"android":"levelo://app?vid=6ea860bd-ab39-432c-9a85-9db1cca7765f","ios":"levelo://app?vid=6ea860bd-ab39-432c-9a85-9db1cca7765f"},"vehicle_type_id":"4","last_reported":1733908205,"current_range_meters":36800,"station_id":"ce4bgh92rcd13ifvqb50","pricing_plan_id":"cebpf4jnsgd1na2vs0mg"},{"bike_id":"a35d4fb9-0e21-4c09-94e2-54c06f1086ec","system_id":"levelo_inurba_marseille","lat":43.23156,"lon":5.43721,"is_reserved":false,"is_disabled":false,"rental_uris":{"android":"levelo://app?vid=a35d4fb9-0e21-4c09-94e2-54c06f1086ec","ios":"levelo://app?vid=a35d4fb9-0e21-4c09-94e2-54c06f1086ec"},"vehicle_type_id":"4","last_reported":1733908205,"current_range_meters":38000,"station_id":"ce4bhmp2rcd13ifvqgog","pricing_plan_id":"cebpf4jnsgd1na2vs0mg"},{"bike_id":"b1cc6802-4e88-4489-94fa-e8d88d9342ee","system_id":"levelo_inurba_marseille","lat":43.29728,"lon":5.37684,"is_reserved":false,"is_disabled":false,"rental_uris":{"android":"levelo://app?vid=b1cc6802-4e88-4489-94fa-e8d88d9342ee","ios":"levelo://app?vid=b1cc6802-4e88-4489-94fa-e8d88d9342ee"},"vehicle_type_id":"4","last_reported":1733908205,"current_range_meters":28800,"station_id":"ce4bgkh2rcd13ifvqbl0","pricing_plan_id":"cebpf4jnsgd1na2vs0mg"},{"bike_id":"1acf4526-f5fb-4a4e-90fc-6c6225b3d08b","system_id":"levelo_inurba_marseille","lat":43.30477,"lon":5.379,"is_reserved":false,"is_disabled":false,"rental_uris":{"android":"levelo://app?vid=1acf4526-f5fb-4a4e-90fc-6c6225b3d08b","ios":"levelo://app?vid=1acf4526-f5fb-4a4e-90fc-6c6225b3d08b"},"vehicle_type_id":"4","last_reported":1733908205,"current_range_meters":39200,"station_id":"ce4bgup2rcd13ifvqcn0","pricing_plan_id":"cebpf4jnsgd1na2vs0mg"},{"bike_id":"39040f92-0a83-4f49-970b-f53910b1933c","system_id":"levelo_inurba_marseille","lat":43.30485,"lon":5.379,"is_reserved":false,"is_disabled":false,"rental_uris":{"android":"levelo://app?vid=39040f92-0a83-4f49-970b-f53910b1933c","ios":"levelo://app?vid=39040f92-0a83-4f49-970b-f53910b1933c"},"vehicle_type_id":"4","last_reported":1733908205,"current_range_meters":33600,"station_id":"ce4bgup2rcd13ifvqcn0","pricing_plan_id":"cebpf4jnsgd1na2vs0mg"},{"bike_id":"de665d27-4f2c-4449-a982-1b6a26695aad","system_id":"levelo_inurba_marseille","lat":43.30535,"lon":5.36536,"is_reserved":false,"is_disabled":false,"rental_uris":{"android":"levelo://app?vid=de665d27-4f2c-4449-a982-1b6a26695aad","ios":"levelo://app?vid=de665d27-4f2c-4449-a982-1b6a26695aad"},"vehicle_type_id":"4","last_reported":1733908205,"current_range_meters":38800,"station_id":"ce4bgs12rcd13ifvqcag","pricing_plan_id":"cebpf4jnsgd1na2vs0mg"},{"bike_id":"24f4f9aa-1bf8-493c-a155-b82014176d33","system_id":"levelo_inurba_marseille","lat":43.29583,"lon":5.37496,"is_reserved":false,"is_disabled":true,"rental_uris":{"android":"levelo://app?vid=24f4f9aa-1bf8-493c-a155-b82014176d33","ios":"levelo://app?vid=24f4f9aa-1bf8-493c-a155-b82014176d33"},"vehicle_type_id":"4","last_reported":1733908205,"current_range_meters":33600,"station_id":"ce4bgh92rcd13ifvqb50","pricing_plan_id":"cebpf4jnsgd1na2vs0mg"},{"bike_id":"9c02f481-06de-4ed3-9a90-60ccecd56fff","system_id":"levelo_inurba_marseille","lat":43.3027,"lon":5.37694,"is_reserved":false,"is_disabled":false,"rental_uris":{"android":"levelo://app?vid=9c02f481-06de-4ed3-9a90-60ccecd56fff","ios":"levelo://app?vid=9c02f481-06de-4ed3-9a90-60ccecd56fff"},"vehicle_type_id":"4","last_reported":1733908205,"current_range_meters":36800,"station_id":"ce4bguh2rcd13ifvqcj0","pricing_plan_id":"cebpf4jnsgd1na2vs0mg"},{"bike_id":"0b21ad55-1454-4183-88a4-d26083180d50","system_id":"levelo_inurba_marseille","lat":43.24644,"lon":5.38887,"is_reserved":false,"is_disabled":false,"rental_uris":{"android":"levelo://app?vid=0b21ad55-1454-4183-88a4-d26083180d50","ios":"levelo://app?vid=0b21ad55-1454-4183-88a4-d26083180d50"},"vehicle_type_id":"4","last_reported":1733908205,"current_range_meters":29600,"station_id":"ce4bhg12rcd13ifvqf60","pricing_plan_id":"cebpf4jnsgd1na2vs0mg"},{"bike_id":"b0a46ba0-c8bc-4621-808f-2274c3b3257e","system_id":"levelo_inurba_marseille","lat":43.32277,"lon":5.38264,"is_reserved":false,"is_disabled":false,"rental_uris":{"android":"levelo://app?vid=b0a46ba0-c8bc-4621-808f-2274c3b3257e","ios":"levelo://app?vid=b0a46ba0-c8bc-4621-808f-2274c3b3257e"},"vehicle_type_id":"4","last_reported":1733908205,"current_range_meters":38800,"station_id":"ce4bhr12rcd13ifvqhqg","pricing_plan_id":"cebpf4jnsgd1na2vs0mg"},{"bike_id":"df388378-c945-452d-8797-c8ddfaa20373","system_id":"levelo_inurba_marseille","lat":43.3254,"lon":5.41442,"is_reserved":false,"is_disabled":false,"rental_uris":{"android":"levelo://app?vid=df388378-c945-452d-8797-c8ddfaa20373","ios":"levelo://app?vid=df388378-c945-452d-8797-c8ddfaa20373"},"vehicle_type_id":"4","last_reported":1733908205,"current_range_meters":38800,"station_id":"ce4bhq12rcd13ifvqhhg","pricing_plan_id":"cebpf4jnsgd1na2vs0mg"},{"bike_id":"d5df09c4-4c3e-4788-aba5-32fc763b722c","system_id":"levelo_inurba_marseille","lat":43.30474,"lon":5.37907,"is_reserved":false,"is_disabled":false,"rental_uris":{"android":"levelo://app?vid=d5df09c4-4c3e-4788-aba5-32fc763b722c","ios":"levelo://app?vid=d5df09c4-4c3e-4788-aba5-32fc763b722c"},"vehicle_type_id":"4","last_reported":1733908205,"current_range_meters":26000,"station_id":"ce4bgup2rcd13ifvqcn0","pricing_plan_id":"cebpf4jnsgd1na2vs0mg"},{"bike_id":"d5c9151d-09aa-4515-bc74-3ade64452dd4","system_id":"levelo_inurba_marseille","lat":43.27502,"lon":5.42447,"is_reserved":false,"is_disabled":false,"rental_uris":{"android":"levelo://app?vid=d5c9151d-09aa-4515-bc74-3ade64452dd4","ios":"levelo://app?vid=d5c9151d-09aa-4515-bc74-3ade64452dd4"},"vehicle_type_id":"4","last_reported":1733908205,"current_range_meters":36000,"station_id":"ce4bhn92rcd13ifvqgrg","pricing_plan_id":"cebpf4jnsgd1na2vs0mg"},{"bike_id":"ebf2fbf7-5a83-4139-9c7f-13b3390e80ef","system_id":"levelo_inurba_marseille","lat":43.27216,"lon":5.39193,"is_reserved":false,"is_disabled":false,"rental_uris":{"android":"levelo://app?vid=ebf2fbf7-5a83-4139-9c7f-13b3390e80ef","ios":"levelo://app?vid=ebf2fbf7-5a83-4139-9c7f-13b3390e80ef"},"vehicle_type_id":"4","last_reported":1733908205,"current_range_meters":6000,"station_id":"ce4bhhp2rcd13ifvqfm0","pricing_plan_id":"cebpf4jnsgd1na2vs0mg"},{"bike_id":"af12b319-3c3e-484c-b565-291fa4e59051","system_id":"levelo_inurba_marseille","lat":43.29295,"lon":5.36848,"is_reserved":false,"is_disabled":false,"rental_uris":{"android":"levelo://app?vid=af12b319-3c3e-484c-b565-291fa4e59051","ios":"levelo://app?vid=af12b319-3c3e-484c-b565-291fa4e59051"},"vehicle_type_id":"4","last_reported":1733908205,"current_range_meters":37600,"station_id":"ce4bhbp2rcd13ifvqesg","pricing_plan_id":"cebpf4jnsgd1na2vs0mg"},{"bike_id":"2867e062-6d0b-4a00-aaf1-25b401c512d8","system_id":"levelo_inurba_marseille","lat":43.26202,"lon":5.37932,"is_reserved":false,"is_disabled":false,"rental_uris":{"android":"levelo://app?vid=2867e062-6d0b-4a00-aaf1-25b401c512d8","ios":"levelo://app?vid=2867e062-6d0b-4a00-aaf1-25b401c512d8"},"vehicle_type_id":"4","last_reported":1733908205,"current_range_meters":36400,"station_id":"ce4bhjp2rcd13ifvqg90","pricing_plan_id":"cebpf4jnsgd1na2vs0mg"},{"bike_id":"896d4ccf-3d83-4122-b2f2-1a77a517b0e7","system_id":"levelo_inurba_marseille","lat":43.23965,"lon":5.36635,"is_reserved":false,"is_disabled":false,"rental_uris":{"android":"levelo://app?vid=896d4ccf-3d83-4122-b2f2-1a77a517b0e7","ios":"levelo://app?vid=896d4ccf-3d83-4122-b2f2-1a77a517b0e7"},"vehicle_type_id":"4","last_reported":1733908205,"current_range_meters":38800,"station_id":"ce4bhi12rcd13ifvqfp0","pricing_plan_id":"cebpf4jnsgd1na2vs0mg"},{"bike_id":"5af4cbfe-ebf7-47cf-b667-21ffe2cc2cfb","system_id":"levelo_inurba_marseille","lat":43.31349,"lon":5.36714,"is_reserved":false,"is_disabled":false,"rental_uris":{"android":"levelo://app?vid=5af4cbfe-ebf7-47cf-b667-21ffe2cc2cfb","ios":"levelo://app?vid=5af4cbfe-ebf7-47cf-b667-21ffe2cc2cfb"},"vehicle_type_id":"4","last_reported":1733908205,"current_range_meters":39200,"station_id":"ce4bgr92rcd13ifvqc6g","pricing_plan_id":"cebpf4jnsgd1na2vs0mg"},{"bike_id":"400d74d0-790b-4333-81d2-629b59f271e4","system_id":"levelo_inurba_marseille","lat":43.30283,"lon":5.37739,"is_reserved":false,"is_disabled":false,"rental_uris":{"android":"levelo://app?vid=400d74d0-790b-4333-81d2-629b59f271e4","ios":"levelo://app?vid=400d74d0-790b-4333-81d2-629b59f271e4"},"vehicle_type_id":"4","last_reported":1733908205,"current_range_meters":20800,"station_id":"ce4bguh2rcd13ifvqcj0","pricing_plan_id":"cebpf4jnsgd1na2vs0mg"},{"bike_id":"b3c5591b-5ccb-49b1-8351-3506fdb656c0","system_id":"levelo_inurba_marseille","lat":43.32276,"lon":5.38267,"is_reserved":false,"is_disabled":false,"rental_uris":{"android":"levelo://app?vid=b3c5591b-5ccb-49b1-8351-3506fdb656c0","ios":"levelo://app?vid=b3c5591b-5ccb-49b1-8351-3506fdb656c0"},"vehicle_type_id":"4","last_reported":1733908205,"current_range_meters":38800,"station_id":"ce4bhr12rcd13ifvqhqg","pricing_plan_id":"cebpf4jnsgd1na2vs0mg"},{"bike_id":"ebef9822-abf2-4c56-b343-3ca4bdb252f0","system_id":"levelo_inurba_marseille","lat":43.26027,"lon":5.37553,"is_reserved":false,"is_disabled":false,"rental_uris":{"android":"levelo://app?vid=ebef9822-abf2-4c56-b343-3ca4bdb252f0","ios":"levelo://app?vid=ebef9822-abf2-4c56-b343-3ca4bdb252f0"},"vehicle_type_id":"4","last_reported":1733908205,"current_range_meters":38800,"station_id":"ce4bhgh2rcd13ifvqfa0","pricing_plan_id":"cebpf4jnsgd1na2vs0mg"},{"bike_id":"33e48884-4b3d-4e17-8bfe-d8ab60a0c6ef","system_id":"levelo_inurba_marseille","lat":43.26062,"lon":5.39395,"is_reserved":false,"is_disabled":true,"rental_uris":{"android":"levelo://app?vid=33e48884-4b3d-4e17-8bfe-d8ab60a0c6ef","ios":"levelo://app?vid=33e48884-4b3d-4e17-8bfe-d8ab60a0c6ef"},"vehicle_type_id":"4","last_reported":1733908205,"current_range_meters":36000,"station_id":"ce4bhh92rcd13ifvqfj0","pricing_plan_id":"cebpf4jnsgd1na2vs0mg"},{"bike_id":"8a541c78-58b4-45d9-94a7-3d8383bc9bce","system_id":"levelo_inurba_marseille","lat":43.29417,"lon":5.38611,"is_reserved":false,"is_disabled":true,"rental_uris":{"android":"levelo://app?vid=8a541c78-58b4-45d9-94a7-3d8383bc9bce","ios":"levelo://app?vid=8a541c78-58b4-45d9-94a7-3d8383bc9bce"},"vehicle_type_id":"4","last_reported":1733908205,"current_range_meters":11600,"station_id":"ce4bh2h2rcd13ifvqdh0","pricing_plan_id":"cebpf4jnsgd1na2vs0mg"},{"bike_id":"ba5877a6-7f21-44d6-af18-2a88041d5d5d","system_id":"levelo_inurba_marseille","lat":43.24067,"lon":5.37754,"is_reserved":false,"is_disabled":false,"rental_uris":{"android":"levelo://app?vid=ba5877a6-7f21-44d6-af18-2a88041d5d5d","ios":"levelo://app?vid=ba5877a6-7f21-44d6-af18-2a88041d5d5d"},"vehicle_type_id":"4","last_reported":1733908205,"current_range_meters":32800,"station_id":"ce4bhnp2rcd13ifvqgvg","pricing_plan_id":"cebpf4jnsgd1na2vs0mg"},{"bike_id":"86ba1477-d66b-45ae-970d-b9ca4cc82061","system_id":"levelo_inurba_marseille","lat":43.3047,"lon":5.37921,"is_reserved":false,"is_disabled":false,"rental_uris":{"android":"levelo://app?vid=86ba1477-d66b-45ae-970d-b9ca4cc82061","ios":"levelo://app?vid=86ba1477-d66b-45ae-970d-b9ca4cc82061"},"vehicle_type_id":"4","last_reported":1733908205,"current_range_meters":38400,"station_id":"ce4bgup2rcd13ifvqcn0","pricing_plan_id":"cebpf4jnsgd1na2vs0mg"},{"bike_id":"d6bea2d9-ac68-43ed-9ed7-9f806ede1c34","system_id":"levelo_inurba_marseille","lat":43.30147,"lon":5.37421,"is_reserved":false,"is_disabled":false,"rental_uris":{"android":"levelo://app?vid=d6bea2d9-ac68-43ed-9ed7-9f806ede1c34","ios":"levelo://app?vid=d6bea2d9-ac68-43ed-9ed7-9f806ede1c34"},"vehicle_type_id":"4","last_reported":1733908205,"current_range_meters":30400,"station_id":"ce4bgs92rcd13ifvqcc0","pricing_plan_id":"cebpf4jnsgd1na2vs0mg"},{"bike_id":"b02c24ef-aac5-4dc7-94c4-ee928b33d372","system_id":"levelo_inurba_marseille","lat":43.26027,"lon":5.37549,"is_reserved":false,"is_disabled":false,"rental_uris":{"android":"levelo://app?vid=b02c24ef-aac5-4dc7-94c4-ee928b33d372","ios":"levelo://app?vid=b02c24ef-aac5-4dc7-94c4-ee928b33d372"},"vehicle_type_id":"4","last_reported":1733908205,"current_range_meters":27200,"station_id":"ce4bhgh2rcd13ifvqfa0","pricing_plan_id":"cebpf4jnsgd1na2vs0mg"},{"bike_id":"08be7672-3462-4e69-88d8-3cd4d9f0d677","system_id":"levelo_inurba_marseille","lat":43.30945,"lon":5.39046,"is_reserved":false,"is_disabled":false,"rental_uris":{"android":"levelo://app?vid=08be7672-3462-4e69-88d8-3cd4d9f0d677","ios":"levelo://app?vid=08be7672-3462-4e69-88d8-3cd4d9f0d677"},"vehicle_type_id":"4","last_reported":1733908205,"current_range_meters":38000,"station_id":"ce4bgup2rcd13ifvqco0","pricing_plan_id":"cebpf4jnsgd1na2vs0mg"},{"bike_id":"f1e1b83c-6b4c-4d52-9b3f-becfd8274a79","system_id":"levelo_inurba_marseille","lat":43.24994,"lon":5.38931,"is_reserved":false,"is_disabled":false,"rental_uris":{"android":"levelo://app?vid=f1e1b83c-6b4c-4d52-9b3f-becfd8274a79","ios":"levelo://app?vid=f1e1b83c-6b4c-4d52-9b3f-becfd8274a79"},"vehicle_type_id":"4","last_reported":1733908205,"current_range_meters":36000,"station_id":"ce4bhgp2rcd13ifvqfd0","pricing_plan_id":"cebpf4jnsgd1na2vs0mg"},{"bike_id":"562b8c9f-0f3e-4cbe-8b3d-2c81bc182430","system_id":"levelo_inurba_marseille","lat":43.30314,"lon":5.36891,"is_reserved":false,"is_disabled":false,"rental_uris":{"android":"levelo://app?vid=562b8c9f-0f3e-4cbe-8b3d-2c81bc182430","ios":"levelo://app?vid=562b8c9f-0f3e-4cbe-8b3d-2c81bc182430"},"vehicle_type_id":"4","last_reported":1733908205,"current_range_meters":38800,"station_id":"ce4bgqh2rcd13ifvqc5g","pricing_plan_id":"cebpf4jnsgd1na2vs0mg"},{"bike_id":"ca214968-82f0-48cf-868f-e590426e68cb","system_id":"levelo_inurba_marseille","lat":43.26208,"lon":5.37927,"is_reserved":false,"is_disabled":false,"rental_uris":{"android":"levelo://app?vid=ca214968-82f0-48cf-868f-e590426e68cb","ios":"levelo://app?vid=ca214968-82f0-48cf-868f-e590426e68cb"},"vehicle_type_id":"4","last_reported":1733908205,"current_range_meters":30000,"station_id":"ce4bhjp2rcd13ifvqg90","pricing_plan_id":"cebpf4jnsgd1na2vs0mg"},{"bike_id":"372b9f49-2964-4fce-8390-834990e5f7e8","system_id":"levelo_inurba_marseille","lat":43.24054,"lon":5.37728,"is_reserved":false,"is_disabled":false,"rental_uris":{"android":"levelo://app?vid=372b9f49-2964-4fce-8390-834990e5f7e8","ios":"levelo://app?vid=372b9f49-2964-4fce-8390-834990e5f7e8"},"vehicle_type_id":"4","last_reported":1733908205,"current_range_meters":35200,"station_id":"ce4bhnp2rcd13ifvqgvg","pricing_plan_id":"cebpf4jnsgd1na2vs0mg"},{"bike_id":"db92035c-5e59-4238-b7d2-e8825d0eb742","system_id":"levelo_inurba_marseille","lat":43.2871,"lon":5.37935,"is_reserved":false,"is_disabled":true,"rental_uris":{"android":"levelo://app?vid=db92035c-5e59-4238-b7d2-e8825d0eb742","ios":"levelo://app?vid=db92035c-5e59-4238-b7d2-e8825d0eb742"},"vehicle_type_id":"4","last_reported":1733908205,"current_range_meters":1600,"station_id":"ce4bh9p2rcd13ifvqec0","pricing_plan_id":"cebpf4jnsgd1na2vs0mg"},{"bike_id":"e776819f-d0c2-4e90-8b6a-72fc3d50c85e","system_id":"levelo_inurba_marseille","lat":43.27068,"lon":5.4228,"is_reserved":false,"is_disabled":false,"rental_uris":{"android":"levelo://app?vid=e776819f-d0c2-4e90-8b6a-72fc3d50c85e","ios":"levelo://app?vid=e776819f-d0c2-4e90-8b6a-72fc3d50c85e"},"vehicle_type_id":"4","last_reported":1733908205,"current_range_meters":38000,"station_id":"ce4bhk92rcd13ifvqgb0","pricing_plan_id":"cebpf4jnsgd1na2vs0mg"},{"bike_id":"ea4c674f-76ac-4d37-b835-ae1d4b5365d3","system_id":"levelo_inurba_marseille","lat":43.27678,"lon":5.38875,"is_reserved":false,"is_disabled":false,"rental_uris":{"android":"levelo://app?vid=ea4c674f-76ac-4d37-b835-ae1d4b5365d3","ios":"levelo://app?vid=ea4c674f-76ac-4d37-b835-ae1d4b5365d3"},"vehicle_type_id":"4","last_reported":1733908205,"current_range_meters":38800,"station_id":"ce4bhi12rcd13ifvqfo0","pricing_plan_id":"cebpf4jnsgd1na2vs0mg"},{"bike_id":"53cc5d10-1d07-4327-ae11-ac502aed014e","system_id":"levelo_inurba_marseille","lat":43.30954,"lon":5.39053,"is_reserved":false,"is_disabled":false,"rental_uris":{"android":"levelo://app?vid=53cc5d10-1d07-4327-ae11-ac502aed014e","ios":"levelo://app?vid=53cc5d10-1d07-4327-ae11-ac502aed014e"},"vehicle_type_id":"4","last_reported":1733908205,"current_range_meters":8800,"station_id":"ce4bgup2rcd13ifvqco0","pricing_plan_id":"cebpf4jnsgd1na2vs0mg"},{"bike_id":"9704b2c7-d31e-42ed-ba52-6d87cd4417ef","system_id":"levelo_inurba_marseille","lat":43.30153,"lon":5.37423,"is_reserved":false,"is_disabled":false,"rental_uris":{"android":"levelo://app?vid=9704b2c7-d31e-42ed-ba52-6d87cd4417ef","ios":"levelo://app?vid=9704b2c7-d31e-42ed-ba52-6d87cd4417ef"},"vehicle_type_id":"4","last_reported":1733908205,"current_range_meters":36400,"station_id":"ce4bgs92rcd13ifvqcc0","pricing_plan_id":"cebpf4jnsgd1na2vs0mg"},{"bike_id":"8183d8e7-3c4b-4ed6-83fa-10d192b7d8bd","system_id":"levelo_inurba_marseille","lat":43.27548,"lon":5.40913,"is_reserved":false,"is_disabled":true,"rental_uris":{"android":"levelo://app?vid=8183d8e7-3c4b-4ed6-83fa-10d192b7d8bd","ios":"levelo://app?vid=8183d8e7-3c4b-4ed6-83fa-10d192b7d8bd"},"vehicle_type_id":"4","last_reported":1733908205,"current_range_meters":2000,"station_id":"","pricing_plan_id":"cebpf4jnsgd1na2vs0mg"},{"bike_id":"7ee8148f-20ca-4e47-80c4-097409f54d87","system_id":"levelo_inurba_marseille","lat":43.29296,"lon":5.37458,"is_reserved":false,"is_disabled":false,"rental_uris":{"android":"levelo://app?vid=7ee8148f-20ca-4e47-80c4-097409f54d87","ios":"levelo://app?vid=7ee8148f-20ca-4e47-80c4-097409f54d87"},"vehicle_type_id":"4","last_reported":1733908205,"current_range_meters":13600,"station_id":"ce4bgi12rcd13ifvqb70","pricing_plan_id":"cebpf4jnsgd1na2vs0mg"},{"bike_id":"b109b764-1731-4f0d-9e2b-2daf2dce5684","system_id":"levelo_inurba_marseille","lat":43.2679,"lon":5.394,"is_reserved":false,"is_disabled":false,"rental_uris":{"android":"levelo://app?vid=b109b764-1731-4f0d-9e2b-2daf2dce5684","ios":"levelo://app?vid=b109b764-1731-4f0d-9e2b-2daf2dce5684"},"vehicle_type_id":"4","last_reported":1733908205,"current_range_meters":24400,"station_id":"ce4bhh12rcd13ifvqfg0","pricing_plan_id":"cebpf4jnsgd1na2vs0mg"},{"bike_id":"24038e93-6c8d-4dcb-8949-05294cdd45c2","system_id":"levelo_inurba_marseille","lat":43.26031,"lon":5.37548,"is_reserved":false,"is_disabled":false,"rental_uris":{"android":"levelo://app?vid=24038e93-6c8d-4dcb-8949-05294cdd45c2","ios":"levelo://app?vid=24038e93-6c8d-4dcb-8949-05294cdd45c2"},"vehicle_type_id":"4","last_reported":1733908205,"current_range_meters":36800,"station_id":"ce4bhgh2rcd13ifvqfa0","pricing_plan_id":"cebpf4jnsgd1na2vs0mg"},{"bike_id":"10daf826-394e-4321-94b9-ba02a2b531aa","system_id":"levelo_inurba_marseille","lat":43.23207,"lon":5.35549,"is_reserved":false,"is_disabled":false,"rental_uris":{"android":"levelo://app?vid=10daf826-394e-4321-94b9-ba02a2b531aa","ios":"levelo://app?vid=10daf826-394e-4321-94b9-ba02a2b531aa"},"vehicle_type_id":"4","last_reported":1733908205,"current_range_meters":38800,"station_id":"ce4bhu92rcd13ifvqi70","pricing_plan_id":"cebpf4jnsgd1na2vs0mg"},{"bike_id":"e7ed5aef-ae31-4d54-ac41-93e7dc9710c5","system_id":"levelo_inurba_marseille","lat":43.24073,"lon":5.37755,"is_reserved":false,"is_disabled":false,"rental_uris":{"android":"levelo://app?vid=e7ed5aef-ae31-4d54-ac41-93e7dc9710c5","ios":"levelo://app?vid=e7ed5aef-ae31-4d54-ac41-93e7dc9710c5"},"vehicle_type_id":"4","last_reported":1733908205,"current_range_meters":32000,"station_id":"ce4bhnp2rcd13ifvqgvg","pricing_plan_id":"cebpf4jnsgd1na2vs0mg"},{"bike_id":"56bc3f48-4be0-4455-903a-4452e2bb77c2","system_id":"levelo_inurba_marseille","lat":43.24638,"lon":5.38892,"is_reserved":false,"is_disabled":false,"rental_uris":{"android":"levelo://app?vid=56bc3f48-4be0-4455-903a-4452e2bb77c2","ios":"levelo://app?vid=56bc3f48-4be0-4455-903a-4452e2bb77c2"},"vehicle_type_id":"4","last_reported":1733908205,"current_range_meters":4000,"station_id":"ce4bhg12rcd13ifvqf60","pricing_plan_id":"cebpf4jnsgd1na2vs0mg"},{"bike_id":"d73ade9e-6a49-4016-a17e-ab2ea853afff","system_id":"levelo_inurba_marseille","lat":43.31416,"lon":5.36718,"is_reserved":false,"is_disabled":false,"rental_uris":{"android":"levelo://app?vid=d73ade9e-6a49-4016-a17e-ab2ea853afff","ios":"levelo://app?vid=d73ade9e-6a49-4016-a17e-ab2ea853afff"},"vehicle_type_id":"4","last_reported":1733908205,"current_range_meters":39200,"station_id":"ce4bgr92rcd13ifvqc6g","pricing_plan_id":"cebpf4jnsgd1na2vs0mg"},{"bike_id":"50290e6a-0f78-4fdd-a8c0-3fdecfe0ca84","system_id":"levelo_inurba_marseille","lat":43.29555,"lon":5.42286,"is_reserved":false,"is_disabled":true,"rental_uris":{"android":"levelo://app?vid=50290e6a-0f78-4fdd-a8c0-3fdecfe0ca84","ios":"levelo://app?vid=50290e6a-0f78-4fdd-a8c0-3fdecfe0ca84"},"vehicle_type_id":"4","last_reported":1733908205,"current_range_meters":38800,"station_id":"ce4bhph2rcd13ifvqhdg","pricing_plan_id":"cebpf4jnsgd1na2vs0mg"},{"bike_id":"d820ea33-49ad-451c-bcc8-b111a7146341","system_id":"levelo_inurba_marseille","lat":43.30465,"lon":5.37908,"is_reserved":false,"is_disabled":false,"rental_uris":{"android":"levelo://app?vid=d820ea33-49ad-451c-bcc8-b111a7146341","ios":"levelo://app?vid=d820ea33-49ad-451c-bcc8-b111a7146341"},"vehicle_type_id":"4","last_reported":1733908205,"current_range_meters":3200,"station_id":"ce4bgup2rcd13ifvqcn0","pricing_plan_id":"cebpf4jnsgd1na2vs0mg"},{"bike_id":"5ed39f85-aebd-4c0b-8cf3-42805abde67a","system_id":"levelo_inurba_marseille","lat":43.29362,"lon":5.37829,"is_reserved":false,"is_disabled":false,"rental_uris":{"android":"levelo://app?vid=5ed39f85-aebd-4c0b-8cf3-42805abde67a","ios":"levelo://app?vid=5ed39f85-aebd-4c0b-8cf3-42805abde67a"},"vehicle_type_id":"4","last_reported":1733908205,"current_range_meters":22000,"station_id":"ce4bgjh2rcd13ifvqbf0","pricing_plan_id":"cebpf4jnsgd1na2vs0mg"},{"bike_id":"81e9d6ce-cb6e-43e4-ba52-16a2b1d613b5","system_id":"levelo_inurba_marseille","lat":43.30539,"lon":5.36555,"is_reserved":false,"is_disabled":false,"rental_uris":{"android":"levelo://app?vid=81e9d6ce-cb6e-43e4-ba52-16a2b1d613b5","ios":"levelo://app?vid=81e9d6ce-cb6e-43e4-ba52-16a2b1d613b5"},"vehicle_type_id":"4","last_reported":1733908205,"current_range_meters":36400,"station_id":"ce4bgs12rcd13ifvqcag","pricing_plan_id":"cebpf4jnsgd1na2vs0mg"},{"bike_id":"68469145-5869-4949-94f0-3ccc825184a3","system_id":"levelo_inurba_marseille","lat":43.28341,"lon":5.38102,"is_reserved":false,"is_disabled":true,"rental_uris":{"android":"levelo://app?vid=68469145-5869-4949-94f0-3ccc825184a3","ios":"levelo://app?vid=68469145-5869-4949-94f0-3ccc825184a3"},"vehicle_type_id":"4","last_reported":1733908205,"current_range_meters":26800,"station_id":"ce4bh412rcd13ifvqdr0","pricing_plan_id":"cebpf4jnsgd1na2vs0mg"},{"bike_id":"4c2306c5-1f30-4c9e-ac02-9f5c74eb62b0","system_id":"levelo_inurba_marseille","lat":43.29884,"lon":5.39736,"is_reserved":false,"is_disabled":true,"rental_uris":{"android":"levelo://app?vid=4c2306c5-1f30-4c9e-ac02-9f5c74eb62b0","ios":"levelo://app?vid=4c2306c5-1f30-4c9e-ac02-9f5c74eb62b0"},"vehicle_type_id":"4","last_reported":1733908205,"current_range_meters":38800,"station_id":"ce4bh0h2rcd13ifvqd50","pricing_plan_id":"cebpf4jnsgd1na2vs0mg"},{"bike_id":"e2e5fff8-dab3-4021-a87d-3c7c833d47d1","system_id":"levelo_inurba_marseille","lat":43.26219,"lon":5.37452,"is_reserved":false,"is_disabled":false,"rental_uris":{"android":"levelo://app?vid=e2e5fff8-dab3-4021-a87d-3c7c833d47d1","ios":"levelo://app?vid=e2e5fff8-dab3-4021-a87d-3c7c833d47d1"},"vehicle_type_id":"4","last_reported":1733908205,"current_range_meters":9600,"station_id":"ce4bhgp2rcd13ifvqfc0","pricing_plan_id":"cebpf4jnsgd1na2vs0mg"},{"bike_id":"9ca661d8-971d-4daf-9c00-fe2900a5049e","system_id":"levelo_inurba_marseille","lat":43.28657,"lon":5.36354,"is_reserved":false,"is_disabled":true,"rental_uris":{"android":"levelo://app?vid=9ca661d8-971d-4daf-9c00-fe2900a5049e","ios":"levelo://app?vid=9ca661d8-971d-4daf-9c00-fe2900a5049e"},"vehicle_type_id":"4","last_reported":1733908205,"current_range_meters":38000,"station_id":"ce4bhah2rcd13ifvqej0","pricing_plan_id":"cebpf4jnsgd1na2vs0mg"},{"bike_id":"082817e5-33f4-4467-b1ae-bdd5494bc12c","system_id":"levelo_inurba_marseille","lat":43.26218,"lon":5.37447,"is_reserved":false,"is_disabled":false,"rental_uris":{"android":"levelo://app?vid=082817e5-33f4-4467-b1ae-bdd5494bc12c","ios":"levelo://app?vid=082817e5-33f4-4467-b1ae-bdd5494bc12c"},"vehicle_type_id":"4","last_reported":1733908205,"current_range_meters":38000,"station_id":"ce4bhgp2rcd13ifvqfc0","pricing_plan_id":"cebpf4jnsgd1na2vs0mg"},{"bike_id":"75ae6d39-6dc2-49bc-ad9b-72136961811e","system_id":"levelo_inurba_marseille","lat":43.33022,"lon":5.39031,"is_reserved":false,"is_disabled":false,"rental_uris":{"android":"levelo://app?vid=75ae6d39-6dc2-49bc-ad9b-72136961811e","ios":"levelo://app?vid=75ae6d39-6dc2-49bc-ad9b-72136961811e"},"vehicle_type_id":"4","last_reported":1733908205,"current_range_meters":14800,"station_id":"ce4bhr92rcd13ifvqhrg","pricing_plan_id":"cebpf4jnsgd1na2vs0mg"},{"bike_id":"99d3d703-b9fb-4a21-b396-830c55a101e1","system_id":"levelo_inurba_marseille","lat":43.27431,"lon":5.42433,"is_reserved":false,"is_disabled":true,"rental_uris":{"android":"levelo://app?vid=99d3d703-b9fb-4a21-b396-830c55a101e1","ios":"levelo://app?vid=99d3d703-b9fb-4a21-b396-830c55a101e1"},"vehicle_type_id":"4","last_reported":1733908205,"current_range_meters":20000,"station_id":"ce4bhn92rcd13ifvqgrg","pricing_plan_id":"cebpf4jnsgd1na2vs0mg"},{"bike_id":"121e3072-7fd1-4644-8e8b-b6a3b742b44c","system_id":"levelo_inurba_marseille","lat":43.29296,"lon":5.37449,"is_reserved":false,"is_disabled":false,"rental_uris":{"android":"levelo://app?vid=121e3072-7fd1-4644-8e8b-b6a3b742b44c","ios":"levelo://app?vid=121e3072-7fd1-4644-8e8b-b6a3b742b44c"},"vehicle_type_id":"4","last_reported":1733908205,"current_range_meters":36000,"station_id":"ce4bgi12rcd13ifvqb70","pricing_plan_id":"cebpf4jnsgd1na2vs0mg"},{"bike_id":"96fe1907-15b1-48aa-afb0-4678998cf869","system_id":"levelo_inurba_marseille","lat":43.30541,"lon":5.38421,"is_reserved":false,"is_disabled":false,"rental_uris":{"android":"levelo://app?vid=96fe1907-15b1-48aa-afb0-4678998cf869","ios":"levelo://app?vid=96fe1907-15b1-48aa-afb0-4678998cf869"},"vehicle_type_id":"4","last_reported":1733908205,"current_range_meters":24000,"station_id":"ce4bgg92rcd13ifvqb30","pricing_plan_id":"cebpf4jnsgd1na2vs0mg"},{"bike_id":"2eadeb3c-8732-4991-a6b3-9a8c12bbe6b1","system_id":"levelo_inurba_marseille","lat":43.30914,"lon":5.3685,"is_reserved":false,"is_disabled":false,"rental_uris":{"android":"levelo://app?vid=2eadeb3c-8732-4991-a6b3-9a8c12bbe6b1","ios":"levelo://app?vid=2eadeb3c-8732-4991-a6b3-9a8c12bbe6b1"},"vehicle_type_id":"4","last_reported":1733908205,"current_range_meters":20400,"station_id":"ce4bgn92rcd13ifvqbvg","pricing_plan_id":"cebpf4jnsgd1na2vs0mg"},{"bike_id":"5832ecb7-05b0-4681-8b60-7f2f6b8f55ea","system_id":"levelo_inurba_marseille","lat":43.29258,"lon":5.36845,"is_reserved":false,"is_disabled":false,"rental_uris":{"android":"levelo://app?vid=5832ecb7-05b0-4681-8b60-7f2f6b8f55ea","ios":"levelo://app?vid=5832ecb7-05b0-4681-8b60-7f2f6b8f55ea"},"vehicle_type_id":"4","last_reported":1733908205,"current_range_meters":30800,"station_id":"ce4bhbp2rcd13ifvqesg","pricing_plan_id":"cebpf4jnsgd1na2vs0mg"},{"bike_id":"242ec6f6-efc0-4b40-a9f7-00f887382be3","system_id":"levelo_inurba_marseille","lat":43.31243,"lon":5.36853,"is_reserved":false,"is_disabled":false,"rental_uris":{"android":"levelo://app?vid=242ec6f6-efc0-4b40-a9f7-00f887382be3","ios":"levelo://app?vid=242ec6f6-efc0-4b40-a9f7-00f887382be3"},"vehicle_type_id":"4","last_reported":1733908205,"current_range_meters":28000,"station_id":"ce4bgl92rcd13ifvqbq0","pricing_plan_id":"cebpf4jnsgd1na2vs0mg"},{"bike_id":"b746767b-be0b-4c9b-9a6b-b7eab591009e","system_id":"levelo_inurba_marseille","lat":43.3042,"lon":5.41278,"is_reserved":false,"is_disabled":false,"rental_uris":{"android":"levelo://app?vid=b746767b-be0b-4c9b-9a6b-b7eab591009e","ios":"levelo://app?vid=b746767b-be0b-4c9b-9a6b-b7eab591009e"},"vehicle_type_id":"4","last_reported":1733908205,"current_range_meters":27600,"station_id":"ce4bhop2rcd13ifvqh8g","pricing_plan_id":"cebpf4jnsgd1na2vs0mg"},{"bike_id":"1798b009-d070-4a48-981c-7e69a8a0d034","system_id":"levelo_inurba_marseille","lat":43.32368,"lon":5.38877,"is_reserved":false,"is_disabled":false,"rental_uris":{"android":"levelo://app?vid=1798b009-d070-4a48-981c-7e69a8a0d034","ios":"levelo://app?vid=1798b009-d070-4a48-981c-7e69a8a0d034"},"vehicle_type_id":"4","last_reported":1733908205,"current_range_meters":38000,"station_id":"ce4bhqp2rcd13ifvqhog","pricing_plan_id":"cebpf4jnsgd1na2vs0mg"},{"bike_id":"eb4e32cd-a02d-4e92-a013-1fdc0dd71ccb","system_id":"levelo_inurba_marseille","lat":43.324799,"lon":5.365716,"is_reserved":false,"is_disabled":true,"rental_uris":{"android":"levelo://app?vid=eb4e32cd-a02d-4e92-a013-1fdc0dd71ccb","ios":"levelo://app?vid=eb4e32cd-a02d-4e92-a013-1fdc0dd71ccb"},"vehicle_type_id":"4","last_reported":1733908205,"current_range_meters":0,"station_id":"","pricing_plan_id":"cebpf4jnsgd1na2vs0mg"},{"bike_id":"eeb73e10-17ba-45b1-b4dd-05f22e4e996b","system_id":"levelo_inurba_marseille","lat":43.24169,"lon":5.36394,"is_reserved":false,"is_disabled":false,"rental_uris":{"android":"levelo://app?vid=eeb73e10-17ba-45b1-b4dd-05f22e4e996b","ios":"levelo://app?vid=eeb73e10-17ba-45b1-b4dd-05f22e4e996b"},"vehicle_type_id":"4","last_reported":1733908205,"current_range_meters":26800,"station_id":"cpo36qri1sfpv3e86is0","pricing_plan_id":"cebpf4jnsgd1na2vs0mg"},{"bike_id":"ecf38ee2-3be1-4a9a-9d20-e19da66b5354","system_id":"levelo_inurba_marseille","lat":43.30949,"lon":5.39032,"is_reserved":false,"is_disabled":false,"rental_uris":{"android":"levelo://app?vid=ecf38ee2-3be1-4a9a-9d20-e19da66b5354","ios":"levelo://app?vid=ecf38ee2-3be1-4a9a-9d20-e19da66b5354"},"vehicle_type_id":"4","last_reported":1733908205,"current_range_meters":13600,"station_id":"ce4bgup2rcd13ifvqco0","pricing_plan_id":"cebpf4jnsgd1na2vs0mg"},{"bike_id":"c79a44c3-57a2-4768-b6b8-e298d2460a22","system_id":"levelo_inurba_marseille","lat":43.24162,"lon":5.36398,"is_reserved":false,"is_disabled":false,"rental_uris":{"android":"levelo://app?vid=c79a44c3-57a2-4768-b6b8-e298d2460a22","ios":"levelo://app?vid=c79a44c3-57a2-4768-b6b8-e298d2460a22"},"vehicle_type_id":"4","last_reported":1733908205,"current_range_meters":34000,"station_id":"cpo36qri1sfpv3e86is0","pricing_plan_id":"cebpf4jnsgd1na2vs0mg"},{"bike_id":"9d80a548-f609-424a-b271-462289cef155","system_id":"levelo_inurba_marseille","lat":43.23961,"lon":5.36642,"is_reserved":false,"is_disabled":false,"rental_uris":{"android":"levelo://app?vid=9d80a548-f609-424a-b271-462289cef155","ios":"levelo://app?vid=9d80a548-f609-424a-b271-462289cef155"},"vehicle_type_id":"4","last_reported":1733908205,"current_range_meters":22800,"station_id":"ce4bhi12rcd13ifvqfp0","pricing_plan_id":"cebpf4jnsgd1na2vs0mg"},{"bike_id":"339b2de9-ccc9-4171-b758-5f3756f082ab","system_id":"levelo_inurba_marseille","lat":43.30958,"lon":5.39032,"is_reserved":false,"is_disabled":false,"rental_uris":{"android":"levelo://app?vid=339b2de9-ccc9-4171-b758-5f3756f082ab","ios":"levelo://app?vid=339b2de9-ccc9-4171-b758-5f3756f082ab"},"vehicle_type_id":"4","last_reported":1733908205,"current_range_meters":38000,"station_id":"ce4bgup2rcd13ifvqco0","pricing_plan_id":"cebpf4jnsgd1na2vs0mg"},{"bike_id":"759de434-1b3a-4736-aa32-6310d0d98de0","system_id":"levelo_inurba_marseille","lat":43.24651,"lon":5.38889,"is_reserved":false,"is_disabled":false,"rental_uris":{"android":"levelo://app?vid=759de434-1b3a-4736-aa32-6310d0d98de0","ios":"levelo://app?vid=759de434-1b3a-4736-aa32-6310d0d98de0"},"vehicle_type_id":"4","last_reported":1733908205,"current_range_meters":20800,"station_id":"ce4bhg12rcd13ifvqf60","pricing_plan_id":"cebpf4jnsgd1na2vs0mg"},{"bike_id":"c9032b80-329f-4f7d-a230-eca510936573","system_id":"levelo_inurba_marseille","lat":43.24063,"lon":5.37761,"is_reserved":false,"is_disabled":false,"rental_uris":{"android":"levelo://app?vid=c9032b80-329f-4f7d-a230-eca510936573","ios":"levelo://app?vid=c9032b80-329f-4f7d-a230-eca510936573"},"vehicle_type_id":"4","last_reported":1733908205,"current_range_meters":14400,"station_id":"ce4bhnp2rcd13ifvqgvg","pricing_plan_id":"cebpf4jnsgd1na2vs0mg"},{"bike_id":"7bdec345-eeec-47c0-a1aa-d0b0f44ab6d1","system_id":"levelo_inurba_marseille","lat":43.3266,"lon":5.40986,"is_reserved":false,"is_disabled":false,"rental_uris":{"android":"levelo://app?vid=7bdec345-eeec-47c0-a1aa-d0b0f44ab6d1","ios":"levelo://app?vid=7bdec345-eeec-47c0-a1aa-d0b0f44ab6d1"},"vehicle_type_id":"4","last_reported":1733908205,"current_range_meters":38400,"station_id":"ce4bhpp2rcd13ifvqhgg","pricing_plan_id":"cebpf4jnsgd1na2vs0mg"},{"bike_id":"7dbf3a95-329e-4a62-aac0-7e4dfae6ad11","system_id":"levelo_inurba_marseille","lat":43.24175,"lon":5.39733,"is_reserved":false,"is_disabled":true,"rental_uris":{"android":"levelo://app?vid=7dbf3a95-329e-4a62-aac0-7e4dfae6ad11","ios":"levelo://app?vid=7dbf3a95-329e-4a62-aac0-7e4dfae6ad11"},"vehicle_type_id":"4","last_reported":1733908205,"current_range_meters":36400,"station_id":"ce4bhn12rcd13ifvqgpg","pricing_plan_id":"cebpf4jnsgd1na2vs0mg"},{"bike_id":"f9adc27d-c116-423a-87b2-8394b1f09956","system_id":"levelo_inurba_marseille","lat":43.26952,"lon":5.38633,"is_reserved":false,"is_disabled":false,"rental_uris":{"android":"levelo://app?vid=f9adc27d-c116-423a-87b2-8394b1f09956","ios":"levelo://app?vid=f9adc27d-c116-423a-87b2-8394b1f09956"},"vehicle_type_id":"4","last_reported":1733908205,"current_range_meters":34000,"station_id":"ce4bhh92rcd13ifvqfh0","pricing_plan_id":"cebpf4jnsgd1na2vs0mg"},{"bike_id":"653cf9b4-2cbd-42f6-8c12-d4a639176c8f","system_id":"levelo_inurba_marseille","lat":43.26951,"lon":5.3865,"is_reserved":false,"is_disabled":false,"rental_uris":{"android":"levelo://app?vid=653cf9b4-2cbd-42f6-8c12-d4a639176c8f","ios":"levelo://app?vid=653cf9b4-2cbd-42f6-8c12-d4a639176c8f"},"vehicle_type_id":"4","last_reported":1733908205,"current_range_meters":38400,"station_id":"ce4bhh92rcd13ifvqfh0","pricing_plan_id":"cebpf4jnsgd1na2vs0mg"},{"bike_id":"4b9f2e0c-e6c8-41ae-a354-ab0c34618599","system_id":"levelo_inurba_marseille","lat":43.239594,"lon":5.366356,"is_reserved":false,"is_disabled":false,"rental_uris":{"android":"levelo://app?vid=4b9f2e0c-e6c8-41ae-a354-ab0c34618599","ios":"levelo://app?vid=4b9f2e0c-e6c8-41ae-a354-ab0c34618599"},"vehicle_type_id":"4","last_reported":1733908205,"current_range_meters":38800,"station_id":"ce4bhi12rcd13ifvqfp0","pricing_plan_id":"cebpf4jnsgd1na2vs0mg"},{"bike_id":"77f7a8c6-f2a3-4bd6-b300-b69bd1717813","system_id":"levelo_inurba_marseille","lat":43.30184,"lon":5.3661,"is_reserved":false,"is_disabled":false,"rental_uris":{"android":"levelo://app?vid=77f7a8c6-f2a3-4bd6-b300-b69bd1717813","ios":"levelo://app?vid=77f7a8c6-f2a3-4bd6-b300-b69bd1717813"},"vehicle_type_id":"4","last_reported":1733908205,"current_range_meters":38000,"station_id":"ce4bgrh2rcd13ifvqc8g","pricing_plan_id":"cebpf4jnsgd1na2vs0mg"},{"bike_id":"d11a0371-f83d-48c9-b17b-0742cf3d2f5d","system_id":"levelo_inurba_marseille","lat":43.30533,"lon":5.36717,"is_reserved":false,"is_disabled":false,"rental_uris":{"android":"levelo://app?vid=d11a0371-f83d-48c9-b17b-0742cf3d2f5d","ios":"levelo://app?vid=d11a0371-f83d-48c9-b17b-0742cf3d2f5d"},"vehicle_type_id":"4","last_reported":1733908205,"current_range_meters":17200,"station_id":"ce4bgrp2rcd13ifvqc9g","pricing_plan_id":"cebpf4jnsgd1na2vs0mg"},{"bike_id":"fc01c5e4-7dea-4de7-af6d-448142058e7d","system_id":"levelo_inurba_marseille","lat":43.30522,"lon":5.36545,"is_reserved":false,"is_disabled":false,"rental_uris":{"android":"levelo://app?vid=fc01c5e4-7dea-4de7-af6d-448142058e7d","ios":"levelo://app?vid=fc01c5e4-7dea-4de7-af6d-448142058e7d"},"vehicle_type_id":"4","last_reported":1733908205,"current_range_meters":39200,"station_id":"ce4bgs12rcd13ifvqcag","pricing_plan_id":"cebpf4jnsgd1na2vs0mg"},{"bike_id":"1233924c-e988-4aa4-b50f-1879040cbf13","system_id":"levelo_inurba_marseille","lat":43.28464,"lon":5.35899,"is_reserved":false,"is_disabled":false,"rental_uris":{"android":"levelo://app?vid=1233924c-e988-4aa4-b50f-1879040cbf13","ios":"levelo://app?vid=1233924c-e988-4aa4-b50f-1879040cbf13"},"vehicle_type_id":"4","last_reported":1733908205,"current_range_meters":22400,"station_id":"ce4bhah2rcd13ifvqei0","pricing_plan_id":"cebpf4jnsgd1na2vs0mg"},{"bike_id":"95d8628d-10b1-47e7-9a42-9b126ec315c6","system_id":"levelo_inurba_marseille","lat":43.23195,"lon":5.35561,"is_reserved":false,"is_disabled":false,"rental_uris":{"android":"levelo://app?vid=95d8628d-10b1-47e7-9a42-9b126ec315c6","ios":"levelo://app?vid=95d8628d-10b1-47e7-9a42-9b126ec315c6"},"vehicle_type_id":"4","last_reported":1733908205,"current_range_meters":20800,"station_id":"ce4bhu92rcd13ifvqi70","pricing_plan_id":"cebpf4jnsgd1na2vs0mg"},{"bike_id":"b37e9607-939b-4f40-9263-6ca78e982d65","system_id":"levelo_inurba_marseille","lat":43.27205,"lon":5.3918,"is_reserved":false,"is_disabled":true,"rental_uris":{"android":"levelo://app?vid=b37e9607-939b-4f40-9263-6ca78e982d65","ios":"levelo://app?vid=b37e9607-939b-4f40-9263-6ca78e982d65"},"vehicle_type_id":"4","last_reported":1733908205,"current_range_meters":0,"station_id":"ce4bhhp2rcd13ifvqfm0","pricing_plan_id":"cebpf4jnsgd1na2vs0mg"},{"bike_id":"a80f7341-33ca-4c7d-b80d-a9b79958f13d","system_id":"levelo_inurba_marseille","lat":43.30905,"lon":5.36843,"is_reserved":false,"is_disabled":false,"rental_uris":{"android":"levelo://app?vid=a80f7341-33ca-4c7d-b80d-a9b79958f13d","ios":"levelo://app?vid=a80f7341-33ca-4c7d-b80d-a9b79958f13d"},"vehicle_type_id":"4","last_reported":1733908205,"current_range_meters":32000,"station_id":"ce4bgn92rcd13ifvqbvg","pricing_plan_id":"cebpf4jnsgd1na2vs0mg"},{"bike_id":"48f71dda-53cd-49a4-9886-b843158f09d1","system_id":"levelo_inurba_marseille","lat":43.27212,"lon":5.39177,"is_reserved":false,"is_disabled":false,"rental_uris":{"android":"levelo://app?vid=48f71dda-53cd-49a4-9886-b843158f09d1","ios":"levelo://app?vid=48f71dda-53cd-49a4-9886-b843158f09d1"},"vehicle_type_id":"4","last_reported":1733908205,"current_range_meters":37600,"station_id":"ce4bhhp2rcd13ifvqfm0","pricing_plan_id":"cebpf4jnsgd1na2vs0mg"},{"bike_id":"11137b34-b327-433b-b86f-b491dfbc2652","system_id":"levelo_inurba_marseille","lat":43.29715,"lon":5.37695,"is_reserved":false,"is_disabled":false,"rental_uris":{"android":"levelo://app?vid=11137b34-b327-433b-b86f-b491dfbc2652","ios":"levelo://app?vid=11137b34-b327-433b-b86f-b491dfbc2652"},"vehicle_type_id":"4","last_reported":1733908205,"current_range_meters":30400,"station_id":"ce4bgkh2rcd13ifvqbl0","pricing_plan_id":"cebpf4jnsgd1na2vs0mg"},{"bike_id":"570bad79-da0a-4f0e-bd71-fcfb4fde31b3","system_id":"levelo_inurba_marseille","lat":43.23957,"lon":5.36625,"is_reserved":false,"is_disabled":true,"rental_uris":{"android":"levelo://app?vid=570bad79-da0a-4f0e-bd71-fcfb4fde31b3","ios":"levelo://app?vid=570bad79-da0a-4f0e-bd71-fcfb4fde31b3"},"vehicle_type_id":"4","last_reported":1733908205,"current_range_meters":28400,"station_id":"ce4bhi12rcd13ifvqfp0","pricing_plan_id":"cebpf4jnsgd1na2vs0mg"},{"bike_id":"0f20b602-7b45-4989-92b6-4d1c64ab5468","system_id":"levelo_inurba_marseille","lat":43.26557,"lon":5.37282,"is_reserved":false,"is_disabled":false,"rental_uris":{"android":"levelo://app?vid=0f20b602-7b45-4989-92b6-4d1c64ab5468","ios":"levelo://app?vid=0f20b602-7b45-4989-92b6-4d1c64ab5468"},"vehicle_type_id":"4","last_reported":1733908205,"current_range_meters":28800,"station_id":"ce4bhg12rcd13ifvqf70","pricing_plan_id":"cebpf4jnsgd1na2vs0mg"},{"bike_id":"a01e22aa-e15d-459b-b713-2b2e4a0fb5eb","system_id":"levelo_inurba_marseille","lat":43.24077,"lon":5.37758,"is_reserved":false,"is_disabled":false,"rental_uris":{"android":"levelo://app?vid=a01e22aa-e15d-459b-b713-2b2e4a0fb5eb","ios":"levelo://app?vid=a01e22aa-e15d-459b-b713-2b2e4a0fb5eb"},"vehicle_type_id":"4","last_reported":1733908205,"current_range_meters":6400,"station_id":"ce4bhnp2rcd13ifvqgvg","pricing_plan_id":"cebpf4jnsgd1na2vs0mg"},{"bike_id":"e7864067-1489-4fd3-808a-56b2e376b2a6","system_id":"levelo_inurba_marseille","lat":43.28014,"lon":5.44198,"is_reserved":false,"is_disabled":false,"rental_uris":{"android":"levelo://app?vid=e7864067-1489-4fd3-808a-56b2e376b2a6","ios":"levelo://app?vid=e7864067-1489-4fd3-808a-56b2e376b2a6"},"vehicle_type_id":"4","last_reported":1733908205,"current_range_meters":26800,"station_id":"","pricing_plan_id":"cebpf4jnsgd1na2vs0mg"},{"bike_id":"c3192da2-804a-4c90-84c0-949c97fc4fbd","system_id":"levelo_inurba_marseille","lat":43.32332,"lon":5.40621,"is_reserved":false,"is_disabled":false,"rental_uris":{"android":"levelo://app?vid=c3192da2-804a-4c90-84c0-949c97fc4fbd","ios":"levelo://app?vid=c3192da2-804a-4c90-84c0-949c97fc4fbd"},"vehicle_type_id":"4","last_reported":1733908205,"current_range_meters":6400,"station_id":"ce4bhq92rcd13ifvqhjg","pricing_plan_id":"cebpf4jnsgd1na2vs0mg"},{"bike_id":"335d82eb-5117-406f-aed8-c90c509069f9","system_id":"levelo_inurba_marseille","lat":43.25932,"lon":5.40925,"is_reserved":false,"is_disabled":false,"rental_uris":{"android":"levelo://app?vid=335d82eb-5117-406f-aed8-c90c509069f9","ios":"levelo://app?vid=335d82eb-5117-406f-aed8-c90c509069f9"},"vehicle_type_id":"4","last_reported":1733908205,"current_range_meters":27200,"station_id":"ce4bhm92rcd13ifvqglg","pricing_plan_id":"cebpf4jnsgd1na2vs0mg"},{"bike_id":"b8e7f883-5b9b-422d-81e9-d00c2442da3b","system_id":"levelo_inurba_marseille","lat":43.23055,"lon":5.35489,"is_reserved":false,"is_disabled":false,"rental_uris":{"android":"levelo://app?vid=b8e7f883-5b9b-422d-81e9-d00c2442da3b","ios":"levelo://app?vid=b8e7f883-5b9b-422d-81e9-d00c2442da3b"},"vehicle_type_id":"4","last_reported":1733908205,"current_range_meters":31200,"station_id":"cpo3342slgdg3j2ifvpg","pricing_plan_id":"cebpf4jnsgd1na2vs0mg"},{"bike_id":"1373884d-a991-4b03-b11b-ac5d83daf2ef","system_id":"levelo_inurba_marseille","lat":43.29367,"lon":5.37834,"is_reserved":false,"is_disabled":false,"rental_uris":{"android":"levelo://app?vid=1373884d-a991-4b03-b11b-ac5d83daf2ef","ios":"levelo://app?vid=1373884d-a991-4b03-b11b-ac5d83daf2ef"},"vehicle_type_id":"4","last_reported":1733908205,"current_range_meters":20400,"station_id":"ce4bgjh2rcd13ifvqbf0","pricing_plan_id":"cebpf4jnsgd1na2vs0mg"},{"bike_id":"a35e36b3-9bc1-4bfe-9b61-1b75de7ea521","system_id":"levelo_inurba_marseille","lat":43.2593,"lon":5.40906,"is_reserved":false,"is_disabled":false,"rental_uris":{"android":"levelo://app?vid=a35e36b3-9bc1-4bfe-9b61-1b75de7ea521","ios":"levelo://app?vid=a35e36b3-9bc1-4bfe-9b61-1b75de7ea521"},"vehicle_type_id":"4","last_reported":1733908205,"current_range_meters":25600,"station_id":"ce4bhm92rcd13ifvqglg","pricing_plan_id":"cebpf4jnsgd1na2vs0mg"},{"bike_id":"f78f4e7d-a540-4cbd-99d7-83208916456d","system_id":"levelo_inurba_marseille","lat":43.262,"lon":5.37416,"is_reserved":false,"is_disabled":false,"rental_uris":{"android":"levelo://app?vid=f78f4e7d-a540-4cbd-99d7-83208916456d","ios":"levelo://app?vid=f78f4e7d-a540-4cbd-99d7-83208916456d"},"vehicle_type_id":"4","last_reported":1733908205,"current_range_meters":38000,"station_id":"ce4bhgp2rcd13ifvqfc0","pricing_plan_id":"cebpf4jnsgd1na2vs0mg"},{"bike_id":"aac345db-d41e-475c-a96f-986bffa1163f","system_id":"levelo_inurba_marseille","lat":43.29613,"lon":5.37706,"is_reserved":false,"is_disabled":true,"rental_uris":{"android":"levelo://app?vid=aac345db-d41e-475c-a96f-986bffa1163f","ios":"levelo://app?vid=aac345db-d41e-475c-a96f-986bffa1163f"},"vehicle_type_id":"4","last_reported":1733908205,"current_range_meters":24800,"station_id":"ce4bgi92rcd13ifvqb90","pricing_plan_id":"cebpf4jnsgd1na2vs0mg"},{"bike_id":"d23a8705-e529-47a4-8077-bf556f13b60b","system_id":"levelo_inurba_marseille","lat":43.31476,"lon":5.37282,"is_reserved":false,"is_disabled":false,"rental_uris":{"android":"levelo://app?vid=d23a8705-e529-47a4-8077-bf556f13b60b","ios":"levelo://app?vid=d23a8705-e529-47a4-8077-bf556f13b60b"},"vehicle_type_id":"4","last_reported":1733908205,"current_range_meters":37600,"station_id":"ce4bgt12rcd13ifvqcd0","pricing_plan_id":"cebpf4jnsgd1na2vs0mg"},{"bike_id":"e93b2209-f6db-4278-bedd-aecf0f990e7f","system_id":"levelo_inurba_marseille","lat":43.30958,"lon":5.39034,"is_reserved":false,"is_disabled":false,"rental_uris":{"android":"levelo://app?vid=e93b2209-f6db-4278-bedd-aecf0f990e7f","ios":"levelo://app?vid=e93b2209-f6db-4278-bedd-aecf0f990e7f"},"vehicle_type_id":"4","last_reported":1733908205,"current_range_meters":39200,"station_id":"ce4bgup2rcd13ifvqco0","pricing_plan_id":"cebpf4jnsgd1na2vs0mg"},{"bike_id":"a0b44e86-9121-4df3-b62a-0fc9a0d1110c","system_id":"levelo_inurba_marseille","lat":43.23061,"lon":5.3549,"is_reserved":false,"is_disabled":false,"rental_uris":{"android":"levelo://app?vid=a0b44e86-9121-4df3-b62a-0fc9a0d1110c","ios":"levelo://app?vid=a0b44e86-9121-4df3-b62a-0fc9a0d1110c"},"vehicle_type_id":"4","last_reported":1733908205,"current_range_meters":32000,"station_id":"cpo3342slgdg3j2ifvpg","pricing_plan_id":"cebpf4jnsgd1na2vs0mg"},{"bike_id":"cb564b16-5599-4c39-8076-33e40cad76ad","system_id":"levelo_inurba_marseille","lat":43.31258,"lon":5.36973,"is_reserved":false,"is_disabled":false,"rental_uris":{"android":"levelo://app?vid=cb564b16-5599-4c39-8076-33e40cad76ad","ios":"levelo://app?vid=cb564b16-5599-4c39-8076-33e40cad76ad"},"vehicle_type_id":"4","last_reported":1733908205,"current_range_meters":25600,"station_id":"ce4bgl92rcd13ifvqbq0","pricing_plan_id":"cebpf4jnsgd1na2vs0mg"},{"bike_id":"a5b86601-3b76-4a9a-9fb5-0a4c53370aee","system_id":"levelo_inurba_marseille","lat":43.30521,"lon":5.38138,"is_reserved":false,"is_disabled":false,"rental_uris":{"android":"levelo://app?vid=a5b86601-3b76-4a9a-9fb5-0a4c53370aee","ios":"levelo://app?vid=a5b86601-3b76-4a9a-9fb5-0a4c53370aee"},"vehicle_type_id":"4","last_reported":1733908205,"current_range_meters":25200,"station_id":"ce4bgup2rcd13ifvqcn0","pricing_plan_id":"cebpf4jnsgd1na2vs0mg"},{"bike_id":"eab7c24e-3533-4637-b397-5e46bc48ccfd","system_id":"levelo_inurba_marseille","lat":43.23156,"lon":5.43696,"is_reserved":false,"is_disabled":true,"rental_uris":{"android":"levelo://app?vid=eab7c24e-3533-4637-b397-5e46bc48ccfd","ios":"levelo://app?vid=eab7c24e-3533-4637-b397-5e46bc48ccfd"},"vehicle_type_id":"4","last_reported":1733908205,"current_range_meters":400,"station_id":"ce4bhmp2rcd13ifvqgog","pricing_plan_id":"cebpf4jnsgd1na2vs0mg"},{"bike_id":"f1dcf297-2eab-4a11-839c-995798ce6efb","system_id":"levelo_inurba_marseille","lat":43.30525,"lon":5.36545,"is_reserved":false,"is_disabled":false,"rental_uris":{"android":"levelo://app?vid=f1dcf297-2eab-4a11-839c-995798ce6efb","ios":"levelo://app?vid=f1dcf297-2eab-4a11-839c-995798ce6efb"},"vehicle_type_id":"4","last_reported":1733908205,"current_range_meters":39200,"station_id":"ce4bgs12rcd13ifvqcag","pricing_plan_id":"cebpf4jnsgd1na2vs0mg"},{"bike_id":"580e0c5d-e607-4ffc-8bee-6a50bd48cc14","system_id":"levelo_inurba_marseille","lat":43.30135,"lon":5.37422,"is_reserved":false,"is_disabled":false,"rental_uris":{"android":"levelo://app?vid=580e0c5d-e607-4ffc-8bee-6a50bd48cc14","ios":"levelo://app?vid=580e0c5d-e607-4ffc-8bee-6a50bd48cc14"},"vehicle_type_id":"4","last_reported":1733908205,"current_range_meters":28000,"station_id":"ce4bgs92rcd13ifvqcc0","pricing_plan_id":"cebpf4jnsgd1na2vs0mg"},{"bike_id":"97d58032-523c-44eb-90bb-b2be72ae18e4","system_id":"levelo_inurba_marseille","lat":43.28569,"lon":5.39493,"is_reserved":false,"is_disabled":true,"rental_uris":{"android":"levelo://app?vid=97d58032-523c-44eb-90bb-b2be72ae18e4","ios":"levelo://app?vid=97d58032-523c-44eb-90bb-b2be72ae18e4"},"vehicle_type_id":"4","last_reported":1733908205,"current_range_meters":0,"station_id":"ce4bh292rcd13ifvqdg0","pricing_plan_id":"cebpf4jnsgd1na2vs0mg"},{"bike_id":"3939c1df-3101-4616-bf03-8bffa6d021fd","system_id":"levelo_inurba_marseille","lat":43.30333,"lon":5.40433,"is_reserved":false,"is_disabled":false,"rental_uris":{"android":"levelo://app?vid=3939c1df-3101-4616-bf03-8bffa6d021fd","ios":"levelo://app?vid=3939c1df-3101-4616-bf03-8bffa6d021fd"},"vehicle_type_id":"4","last_reported":1733908205,"current_range_meters":20800,"station_id":"ce4bh012rcd13ifvqd10","pricing_plan_id":"cebpf4jnsgd1na2vs0mg"},{"bike_id":"028ea767-3e4a-43a1-955e-bae1adf48b29","system_id":"levelo_inurba_marseille","lat":43.29575,"lon":5.39976,"is_reserved":false,"is_disabled":true,"rental_uris":{"android":"levelo://app?vid=028ea767-3e4a-43a1-955e-bae1adf48b29","ios":"levelo://app?vid=028ea767-3e4a-43a1-955e-bae1adf48b29"},"vehicle_type_id":"4","last_reported":1733908205,"current_range_meters":0,"station_id":"ce4bh312rcd13ifvqdj0","pricing_plan_id":"cebpf4jnsgd1na2vs0mg"},{"bike_id":"451bb3fe-0d7c-495d-86b3-9795664d1e3c","system_id":"levelo_inurba_marseille","lat":43.29684,"lon":5.37291,"is_reserved":false,"is_disabled":false,"rental_uris":{"android":"levelo://app?vid=451bb3fe-0d7c-495d-86b3-9795664d1e3c","ios":"levelo://app?vid=451bb3fe-0d7c-495d-86b3-9795664d1e3c"},"vehicle_type_id":"4","last_reported":1733908205,"current_range_meters":30000,"station_id":"ce4bgk12rcd13ifvqbj0","pricing_plan_id":"cebpf4jnsgd1na2vs0mg"},{"bike_id":"962a96b4-3298-40d0-92e0-1b449f02c0fe","system_id":"levelo_inurba_marseille","lat":43.25493,"lon":5.3765,"is_reserved":false,"is_disabled":false,"rental_uris":{"android":"levelo://app?vid=962a96b4-3298-40d0-92e0-1b449f02c0fe","ios":"levelo://app?vid=962a96b4-3298-40d0-92e0-1b449f02c0fe"},"vehicle_type_id":"4","last_reported":1733908205,"current_range_meters":32400,"station_id":"ce4bhh12rcd13ifvqff0","pricing_plan_id":"cebpf4jnsgd1na2vs0mg"},{"bike_id":"6f3113c2-ce11-4869-92f3-7ca38119c9ed","system_id":"levelo_inurba_marseille","lat":43.274897,"lon":5.42473,"is_reserved":false,"is_disabled":false,"rental_uris":{"android":"levelo://app?vid=6f3113c2-ce11-4869-92f3-7ca38119c9ed","ios":"levelo://app?vid=6f3113c2-ce11-4869-92f3-7ca38119c9ed"},"vehicle_type_id":"4","last_reported":1733908205,"current_range_meters":2800,"station_id":"ce4bhn92rcd13ifvqgrg","pricing_plan_id":"cebpf4jnsgd1na2vs0mg"},{"bike_id":"1cddb37e-2d97-416e-98ad-437aa9a20b17","system_id":"levelo_inurba_marseille","lat":43.29539,"lon":5.37477,"is_reserved":false,"is_disabled":true,"rental_uris":{"android":"levelo://app?vid=1cddb37e-2d97-416e-98ad-437aa9a20b17","ios":"levelo://app?vid=1cddb37e-2d97-416e-98ad-437aa9a20b17"},"vehicle_type_id":"4","last_reported":1733908205,"current_range_meters":22800,"station_id":"ce4bgkp2rcd13ifvqbmg","pricing_plan_id":"cebpf4jnsgd1na2vs0mg"},{"bike_id":"ba5e4c54-9e0f-419d-acd3-894b4507a88b","system_id":"levelo_inurba_marseille","lat":43.23059,"lon":5.35478,"is_reserved":false,"is_disabled":false,"rental_uris":{"android":"levelo://app?vid=ba5e4c54-9e0f-419d-acd3-894b4507a88b","ios":"levelo://app?vid=ba5e4c54-9e0f-419d-acd3-894b4507a88b"},"vehicle_type_id":"4","last_reported":1733908205,"current_range_meters":22000,"station_id":"cpo3342slgdg3j2ifvpg","pricing_plan_id":"cebpf4jnsgd1na2vs0mg"},{"bike_id":"0fc6091a-78b7-4e6b-ab49-3086aa32da9d","system_id":"levelo_inurba_marseille","lat":43.2927,"lon":5.40113,"is_reserved":false,"is_disabled":true,"rental_uris":{"android":"levelo://app?vid=0fc6091a-78b7-4e6b-ab49-3086aa32da9d","ios":"levelo://app?vid=0fc6091a-78b7-4e6b-ab49-3086aa32da9d"},"vehicle_type_id":"4","last_reported":1733908205,"current_range_meters":0,"station_id":"ce4bh312rcd13ifvqdk0","pricing_plan_id":"cebpf4jnsgd1na2vs0mg"},{"bike_id":"386f1122-3fbf-4166-ae01-85ee40363016","system_id":"levelo_inurba_marseille","lat":43.27494,"lon":5.42451,"is_reserved":false,"is_disabled":false,"rental_uris":{"android":"levelo://app?vid=386f1122-3fbf-4166-ae01-85ee40363016","ios":"levelo://app?vid=386f1122-3fbf-4166-ae01-85ee40363016"},"vehicle_type_id":"4","last_reported":1733908205,"current_range_meters":24800,"station_id":"ce4bhn92rcd13ifvqgrg","pricing_plan_id":"cebpf4jnsgd1na2vs0mg"},{"bike_id":"fffa14be-58a4-4d6c-9582-c535b5f77ae9","system_id":"levelo_inurba_marseille","lat":43.27369,"lon":5.36259,"is_reserved":false,"is_disabled":false,"rental_uris":{"android":"levelo://app?vid=fffa14be-58a4-4d6c-9582-c535b5f77ae9","ios":"levelo://app?vid=fffa14be-58a4-4d6c-9582-c535b5f77ae9"},"vehicle_type_id":"4","last_reported":1733908205,"current_range_meters":36000,"station_id":"ce4bhbh2rcd13ifvqeo0","pricing_plan_id":"cebpf4jnsgd1na2vs0mg"},{"bike_id":"d30308b7-4a6a-44f0-9519-c6d784181b84","system_id":"levelo_inurba_marseille","lat":43.27949,"lon":5.41048,"is_reserved":false,"is_disabled":false,"rental_uris":{"android":"levelo://app?vid=d30308b7-4a6a-44f0-9519-c6d784181b84","ios":"levelo://app?vid=d30308b7-4a6a-44f0-9519-c6d784181b84"},"vehicle_type_id":"4","last_reported":1733908205,"current_range_meters":28000,"station_id":"ce4bhnp2rcd13ifvqh0g","pricing_plan_id":"cebpf4jnsgd1na2vs0mg"},{"bike_id":"3933b701-ca82-4b18-a882-72a61c67a1e4","system_id":"levelo_inurba_marseille","lat":43.24391,"lon":5.37064,"is_reserved":false,"is_disabled":true,"rental_uris":{"android":"levelo://app?vid=3933b701-ca82-4b18-a882-72a61c67a1e4","ios":"levelo://app?vid=3933b701-ca82-4b18-a882-72a61c67a1e4"},"vehicle_type_id":"4","last_reported":1733908205,"current_range_meters":33200,"station_id":"ce4bhhh2rcd13ifvqfk0","pricing_plan_id":"cebpf4jnsgd1na2vs0mg"},{"bike_id":"0dce9afe-e0bb-4f6f-bcbd-95a34d395d69","system_id":"levelo_inurba_marseille","lat":43.24071,"lon":5.37759,"is_reserved":false,"is_disabled":false,"rental_uris":{"android":"levelo://app?vid=0dce9afe-e0bb-4f6f-bcbd-95a34d395d69","ios":"levelo://app?vid=0dce9afe-e0bb-4f6f-bcbd-95a34d395d69"},"vehicle_type_id":"4","last_reported":1733908205,"current_range_meters":22000,"station_id":"ce4bhnp2rcd13ifvqgvg","pricing_plan_id":"cebpf4jnsgd1na2vs0mg"},{"bike_id":"7de847b5-999b-4ee8-b873-79a7cb7ea90c","system_id":"levelo_inurba_marseille","lat":43.26253,"lon":5.39131,"is_reserved":false,"is_disabled":true,"rental_uris":{"android":"levelo://app?vid=7de847b5-999b-4ee8-b873-79a7cb7ea90c","ios":"levelo://app?vid=7de847b5-999b-4ee8-b873-79a7cb7ea90c"},"vehicle_type_id":"4","last_reported":1733908205,"current_range_meters":0,"station_id":"","pricing_plan_id":"cebpf4jnsgd1na2vs0mg"},{"bike_id":"3ee53c11-64f9-4193-a979-ade9ac0aac42","system_id":"levelo_inurba_marseille","lat":43.24072,"lon":5.37723,"is_reserved":false,"is_disabled":false,"rental_uris":{"android":"levelo://app?vid=3ee53c11-64f9-4193-a979-ade9ac0aac42","ios":"levelo://app?vid=3ee53c11-64f9-4193-a979-ade9ac0aac42"},"vehicle_type_id":"4","last_reported":1733908205,"current_range_meters":36000,"station_id":"ce4bhnp2rcd13ifvqgvg","pricing_plan_id":"cebpf4jnsgd1na2vs0mg"},{"bike_id":"ea2ab3c6-edcd-41ab-b379-919efeaa92f3","system_id":"levelo_inurba_marseille","lat":43.27323,"lon":5.38539,"is_reserved":false,"is_disabled":false,"rental_uris":{"android":"levelo://app?vid=ea2ab3c6-edcd-41ab-b379-919efeaa92f3","ios":"levelo://app?vid=ea2ab3c6-edcd-41ab-b379-919efeaa92f3"},"vehicle_type_id":"4","last_reported":1733908205,"current_range_meters":33600,"station_id":"","pricing_plan_id":"cebpf4jnsgd1na2vs0mg"},{"bike_id":"862d10f1-cbd7-4706-8e79-a636ce7d055f","system_id":"levelo_inurba_marseille","lat":43.30275,"lon":5.37703,"is_reserved":false,"is_disabled":false,"rental_uris":{"android":"levelo://app?vid=862d10f1-cbd7-4706-8e79-a636ce7d055f","ios":"levelo://app?vid=862d10f1-cbd7-4706-8e79-a636ce7d055f"},"vehicle_type_id":"4","last_reported":1733908205,"current_range_meters":27600,"station_id":"ce4bguh2rcd13ifvqcj0","pricing_plan_id":"cebpf4jnsgd1na2vs0mg"},{"bike_id":"3fe8b58e-4826-417d-b8a2-75557c984136","system_id":"levelo_inurba_marseille","lat":43.29248,"lon":5.36853,"is_reserved":false,"is_disabled":false,"rental_uris":{"android":"levelo://app?vid=3fe8b58e-4826-417d-b8a2-75557c984136","ios":"levelo://app?vid=3fe8b58e-4826-417d-b8a2-75557c984136"},"vehicle_type_id":"4","last_reported":1733908205,"current_range_meters":9200,"station_id":"ce4bhbp2rcd13ifvqesg","pricing_plan_id":"cebpf4jnsgd1na2vs0mg"},{"bike_id":"606a00e8-f144-4c12-aad4-93bb8f608b63","system_id":"levelo_inurba_marseille","lat":43.25821,"lon":5.39431,"is_reserved":false,"is_disabled":false,"rental_uris":{"android":"levelo://app?vid=606a00e8-f144-4c12-aad4-93bb8f608b63","ios":"levelo://app?vid=606a00e8-f144-4c12-aad4-93bb8f608b63"},"vehicle_type_id":"4","last_reported":1733908205,"current_range_meters":35200,"station_id":"ce4bhip2rcd13ifvqft0","pricing_plan_id":"cebpf4jnsgd1na2vs0mg"},{"bike_id":"0746aab4-0aa3-41a2-9c13-38989b98cf94","system_id":"levelo_inurba_marseille","lat":43.3108,"lon":5.42433,"is_reserved":false,"is_disabled":false,"rental_uris":{"android":"levelo://app?vid=0746aab4-0aa3-41a2-9c13-38989b98cf94","ios":"levelo://app?vid=0746aab4-0aa3-41a2-9c13-38989b98cf94"},"vehicle_type_id":"4","last_reported":1733908205,"current_range_meters":6400,"station_id":"ce4bhp92rcd13ifvqhag","pricing_plan_id":"cebpf4jnsgd1na2vs0mg"},{"bike_id":"6a42e58e-c645-441f-b17e-8a85de1518fb","system_id":"levelo_inurba_marseille","lat":43.3015,"lon":5.38084,"is_reserved":false,"is_disabled":false,"rental_uris":{"android":"levelo://app?vid=6a42e58e-c645-441f-b17e-8a85de1518fb","ios":"levelo://app?vid=6a42e58e-c645-441f-b17e-8a85de1518fb"},"vehicle_type_id":"4","last_reported":1733908205,"current_range_meters":36800,"station_id":"ce4bgjp2rcd13ifvqbh0","pricing_plan_id":"cebpf4jnsgd1na2vs0mg"},{"bike_id":"6149d10a-ee53-4413-9592-38357ced78cb","system_id":"levelo_inurba_marseille","lat":43.2619,"lon":5.37448,"is_reserved":false,"is_disabled":false,"rental_uris":{"android":"levelo://app?vid=6149d10a-ee53-4413-9592-38357ced78cb","ios":"levelo://app?vid=6149d10a-ee53-4413-9592-38357ced78cb"},"vehicle_type_id":"4","last_reported":1733908205,"current_range_meters":30800,"station_id":"ce4bhgp2rcd13ifvqfc0","pricing_plan_id":"cebpf4jnsgd1na2vs0mg"},{"bike_id":"8878a0c5-9c2f-49ce-a531-ddeb8bc732e0","system_id":"levelo_inurba_marseille","lat":43.32552,"lon":5.41445,"is_reserved":false,"is_disabled":false,"rental_uris":{"android":"levelo://app?vid=8878a0c5-9c2f-49ce-a531-ddeb8bc732e0","ios":"levelo://app?vid=8878a0c5-9c2f-49ce-a531-ddeb8bc732e0"},"vehicle_type_id":"4","last_reported":1733908205,"current_range_meters":22000,"station_id":"ce4bhq12rcd13ifvqhhg","pricing_plan_id":"cebpf4jnsgd1na2vs0mg"},{"bike_id":"20e9db8d-d68b-4418-94af-d9d63f8c2b96","system_id":"levelo_inurba_marseille","lat":43.337444,"lon":5.374475,"is_reserved":false,"is_disabled":true,"rental_uris":{"android":"levelo://app?vid=20e9db8d-d68b-4418-94af-d9d63f8c2b96","ios":"levelo://app?vid=20e9db8d-d68b-4418-94af-d9d63f8c2b96"},"vehicle_type_id":"4","last_reported":1733908205,"current_range_meters":0,"station_id":"","pricing_plan_id":"cebpf4jnsgd1na2vs0mg"},{"bike_id":"212dcb36-0cc4-46ef-aed8-6689bffe1c76","system_id":"levelo_inurba_marseille","lat":43.26949,"lon":5.38637,"is_reserved":false,"is_disabled":false,"rental_uris":{"android":"levelo://app?vid=212dcb36-0cc4-46ef-aed8-6689bffe1c76","ios":"levelo://app?vid=212dcb36-0cc4-46ef-aed8-6689bffe1c76"},"vehicle_type_id":"4","last_reported":1733908205,"current_range_meters":8800,"station_id":"ce4bhh92rcd13ifvqfh0","pricing_plan_id":"cebpf4jnsgd1na2vs0mg"},{"bike_id":"4d055c1b-6ac5-4a67-aa66-b906b1a2739c","system_id":"levelo_inurba_marseille","lat":43.29841,"lon":5.36269,"is_reserved":false,"is_disabled":false,"rental_uris":{"android":"levelo://app?vid=4d055c1b-6ac5-4a67-aa66-b906b1a2739c","ios":"levelo://app?vid=4d055c1b-6ac5-4a67-aa66-b906b1a2739c"},"vehicle_type_id":"4","last_reported":1733908205,"current_range_meters":38400,"station_id":"ce4bgpp2rcd13ifvqc3g","pricing_plan_id":"cebpf4jnsgd1na2vs0mg"},{"bike_id":"4f44df31-e75a-41e1-824e-08f05e25a0ae","system_id":"levelo_inurba_marseille","lat":43.31355,"lon":5.36714,"is_reserved":false,"is_disabled":false,"rental_uris":{"android":"levelo://app?vid=4f44df31-e75a-41e1-824e-08f05e25a0ae","ios":"levelo://app?vid=4f44df31-e75a-41e1-824e-08f05e25a0ae"},"vehicle_type_id":"4","last_reported":1733908205,"current_range_meters":18800,"station_id":"ce4bgr92rcd13ifvqc6g","pricing_plan_id":"cebpf4jnsgd1na2vs0mg"},{"bike_id":"fe9e1dfc-8527-4c2c-bfb0-b998679347d8","system_id":"levelo_inurba_marseille","lat":43.32253,"lon":5.38255,"is_reserved":false,"is_disabled":true,"rental_uris":{"android":"levelo://app?vid=fe9e1dfc-8527-4c2c-bfb0-b998679347d8","ios":"levelo://app?vid=fe9e1dfc-8527-4c2c-bfb0-b998679347d8"},"vehicle_type_id":"4","last_reported":1733908205,"current_range_meters":16000,"station_id":"ce4bhr12rcd13ifvqhqg","pricing_plan_id":"cebpf4jnsgd1na2vs0mg"},{"bike_id":"4fd19827-6af9-49b8-ad49-c1c8e7f160fe","system_id":"levelo_inurba_marseille","lat":43.30223,"lon":5.39481,"is_reserved":false,"is_disabled":true,"rental_uris":{"android":"levelo://app?vid=4fd19827-6af9-49b8-ad49-c1c8e7f160fe","ios":"levelo://app?vid=4fd19827-6af9-49b8-ad49-c1c8e7f160fe"},"vehicle_type_id":"4","last_reported":1733908205,"current_range_meters":1600,"station_id":"ce4bh0p2rcd13ifvqd70","pricing_plan_id":"cebpf4jnsgd1na2vs0mg"},{"bike_id":"58b9b2b7-b602-4f0f-8eec-c5ec58ea33ed","system_id":"levelo_inurba_marseille","lat":43.24076,"lon":5.37747,"is_reserved":false,"is_disabled":false,"rental_uris":{"android":"levelo://app?vid=58b9b2b7-b602-4f0f-8eec-c5ec58ea33ed","ios":"levelo://app?vid=58b9b2b7-b602-4f0f-8eec-c5ec58ea33ed"},"vehicle_type_id":"4","last_reported":1733908205,"current_range_meters":38000,"station_id":"ce4bhnp2rcd13ifvqgvg","pricing_plan_id":"cebpf4jnsgd1na2vs0mg"},{"bike_id":"fa47d8fd-d5ed-4d4d-a6ea-7ce4071baa05","system_id":"levelo_inurba_marseille","lat":43.26683,"lon":5.38267,"is_reserved":false,"is_disabled":false,"rental_uris":{"android":"levelo://app?vid=fa47d8fd-d5ed-4d4d-a6ea-7ce4071baa05","ios":"levelo://app?vid=fa47d8fd-d5ed-4d4d-a6ea-7ce4071baa05"},"vehicle_type_id":"4","last_reported":1733908205,"current_range_meters":36000,"station_id":"ce4bhg92rcd13ifvqf90","pricing_plan_id":"cebpf4jnsgd1na2vs0mg"},{"bike_id":"fbc810ed-e2b1-4f98-9e35-80ecee439620","system_id":"levelo_inurba_marseille","lat":43.24387,"lon":5.37056,"is_reserved":false,"is_disabled":false,"rental_uris":{"android":"levelo://app?vid=fbc810ed-e2b1-4f98-9e35-80ecee439620","ios":"levelo://app?vid=fbc810ed-e2b1-4f98-9e35-80ecee439620"},"vehicle_type_id":"4","last_reported":1733908205,"current_range_meters":39200,"station_id":"ce4bhhh2rcd13ifvqfk0","pricing_plan_id":"cebpf4jnsgd1na2vs0mg"},{"bike_id":"010d14a3-6845-4266-b6b3-c64f4f4acacf","system_id":"levelo_inurba_marseille","lat":43.28416,"lon":5.34982,"is_reserved":false,"is_disabled":false,"rental_uris":{"android":"levelo://app?vid=010d14a3-6845-4266-b6b3-c64f4f4acacf","ios":"levelo://app?vid=010d14a3-6845-4266-b6b3-c64f4f4acacf"},"vehicle_type_id":"4","last_reported":1733908205,"current_range_meters":27600,"station_id":"ce4bhbh2rcd13ifvqepg","pricing_plan_id":"cebpf4jnsgd1na2vs0mg"},{"bike_id":"004f20dc-bdd5-43f2-94a1-62fad2a945b8","system_id":"levelo_inurba_marseille","lat":43.24647,"lon":5.38894,"is_reserved":false,"is_disabled":false,"rental_uris":{"android":"levelo://app?vid=004f20dc-bdd5-43f2-94a1-62fad2a945b8","ios":"levelo://app?vid=004f20dc-bdd5-43f2-94a1-62fad2a945b8"},"vehicle_type_id":"4","last_reported":1733908205,"current_range_meters":24400,"station_id":"ce4bhg12rcd13ifvqf60","pricing_plan_id":"cebpf4jnsgd1na2vs0mg"},{"bike_id":"b3ce4693-daaa-4d3a-91ea-865b08573a90","system_id":"levelo_inurba_marseille","lat":43.30626,"lon":5.39377,"is_reserved":false,"is_disabled":true,"rental_uris":{"android":"levelo://app?vid=b3ce4693-daaa-4d3a-91ea-865b08573a90","ios":"levelo://app?vid=b3ce4693-daaa-4d3a-91ea-865b08573a90"},"vehicle_type_id":"4","last_reported":1733908205,"current_range_meters":1600,"station_id":"ce4bh0p2rcd13ifvqd80","pricing_plan_id":"cebpf4jnsgd1na2vs0mg"},{"bike_id":"3bf20312-5c8e-4f7e-9e43-5d30fe3a8cd5","system_id":"levelo_inurba_marseille","lat":43.27787,"lon":5.3832,"is_reserved":false,"is_disabled":false,"rental_uris":{"android":"levelo://app?vid=3bf20312-5c8e-4f7e-9e43-5d30fe3a8cd5","ios":"levelo://app?vid=3bf20312-5c8e-4f7e-9e43-5d30fe3a8cd5"},"vehicle_type_id":"4","last_reported":1733908205,"current_range_meters":15200,"station_id":"ce4bhu92rcd13ifvqi70","pricing_plan_id":"cebpf4jnsgd1na2vs0mg"},{"bike_id":"a4ef4439-f1c4-4324-a53f-ef5a63be18be","system_id":"levelo_inurba_marseille","lat":43.29624,"lon":5.37707,"is_reserved":false,"is_disabled":true,"rental_uris":{"android":"levelo://app?vid=a4ef4439-f1c4-4324-a53f-ef5a63be18be","ios":"levelo://app?vid=a4ef4439-f1c4-4324-a53f-ef5a63be18be"},