{"last_updated":1737033349,"ttl":60,"version":"2.2","data":{"bikes":[{"bike_id":"909d5553-ae7c-42ee-9da7-81fe2065447e","system_id":"levelo_inurba_marseille","lat":43.25871,"lon":5.39916,"is_reserved":false,"is_disabled":false,"rental_uris":{"android":"levelo://app?vid=909d5553-ae7c-42ee-9da7-81fe2065447e","ios":"levelo://app?vid=909d5553-ae7c-42ee-9da7-81fe2065447e"},"vehicle_type_id":"4","last_reported":1737033350,"current_range_meters":25600,"station_id":"ce4bhl92rcd13ifvqghg","pricing_plan_id":"cebpf4jnsgd1na2vs0mg"},{"bike_id":"6a5f0a48-cfc4-4ab1-80c3-752135f0f562","system_id":"levelo_inurba_marseille","lat":43.292999,"lon":5.401458,"is_reserved":false,"is_disabled":false,"rental_uris":{"android":"levelo://app?vid=6a5f0a48-cfc4-4ab1-80c3-752135f0f562","ios":"levelo://app?vid=6a5f0a48-cfc4-4ab1-80c3-752135f0f562"},"vehicle_type_id":"4","last_reported":1737033350,"current_range_meters":24000,"station_id":"ce4bh312rcd13ifvqdk0","pricing_plan_id":"cebpf4jnsgd1na2vs0mg"},{"bike_id":"452c98f5-e0c1-4fd8-9ef5-eb1656e0e828","system_id":"levelo_inurba_marseille","lat":43.32546,"lon":5.4145,"is_reserved":false,"is_disabled":false,"rental_uris":{"android":"levelo://app?vid=452c98f5-e0c1-4fd8-9ef5-eb1656e0e828","ios":"levelo://app?vid=452c98f5-e0c1-4fd8-9ef5-eb1656e0e828"},"vehicle_type_id":"4","last_reported":1737033350,"current_range_meters":30800,"station_id":"ce4bhq12rcd13ifvqhhg","pricing_plan_id":"cebpf4jnsgd1na2vs0mg"},{"bike_id":"b98e36f1-f35d-4022-9b1d-d389403343e4","system_id":"levelo_inurba_marseille","lat":43.30297,"lon":5.3921,"is_reserved":false,"is_disabled":false,"rental_uris":{"android":"levelo://app?vid=b98e36f1-f35d-4022-9b1d-d389403343e4","ios":"levelo://app?vid=b98e36f1-f35d-4022-9b1d-d389403343e4"},"vehicle_type_id":"4","last_reported":1737033350,"current_range_meters":36000,"station_id":"ce4bgkh2rcd13ifvqbk0","pricing_plan_id":"cebpf4jnsgd1na2vs0mg"},{"bike_id":"9ca88241-0983-48ee-a4d3-0cfeb60b7975","system_id":"levelo_inurba_marseille","lat":43.27924,"lon":5.39587,"is_reserved":false,"is_disabled":false,"rental_uris":{"android":"levelo://app?vid=9ca88241-0983-48ee-a4d3-0cfeb60b7975","ios":"levelo://app?vid=9ca88241-0983-48ee-a4d3-0cfeb60b7975"},"vehicle_type_id":"4","last_reported":1737033350,"current_range_meters":28000,"station_id":"ce4bhf92rcd13ifvqf40","pricing_plan_id":"cebpf4jnsgd1na2vs0mg"},{"bike_id":"a9302831-a977-42c7-a552-458f0d4a525a","system_id":"levelo_inurba_marseille","lat":43.29137,"lon":5.38079,"is_reserved":false,"is_disabled":false,"rental_uris":{"android":"levelo://app?vid=a9302831-a977-42c7-a552-458f0d4a525a","ios":"levelo://app?vid=a9302831-a977-42c7-a552-458f0d4a525a"},"vehicle_type_id":"4","last_reported":1737033350,"current_range_meters":32400,"station_id":"","pricing_plan_id":"cebpf4jnsgd1na2vs0mg"},{"bike_id":"231531ce-159c-430d-a73a-34d518b1b8d8","system_id":"levelo_inurba_marseille","lat":43.25932,"lon":5.40898,"is_reserved":false,"is_disabled":false,"rental_uris":{"android":"levelo://app?vid=231531ce-159c-430d-a73a-34d518b1b8d8","ios":"levelo://app?vid=231531ce-159c-430d-a73a-34d518b1b8d8"},"vehicle_type_id":"4","last_reported":1737033350,"current_range_meters":37600,"station_id":"ce4bhm92rcd13ifvqglg","pricing_plan_id":"cebpf4jnsgd1na2vs0mg"},{"bike_id":"f1ea285b-5bdb-4390-9bdc-694e01a66436","system_id":"levelo_inurba_marseille","lat":43.28963,"lon":5.36626,"is_reserved":false,"is_disabled":false,"rental_uris":{"android":"levelo://app?vid=f1ea285b-5bdb-4390-9bdc-694e01a66436","ios":"levelo://app?vid=f1ea285b-5bdb-4390-9bdc-694e01a66436"},"vehicle_type_id":"4","last_reported":1737033350,"current_range_meters":25200,"station_id":"ce4bhap2rcd13ifvqek0","pricing_plan_id":"cebpf4jnsgd1na2vs0mg"},{"bike_id":"6d540c0f-98a4-4311-9d97-d8f4a0c4b88a","system_id":"levelo_inurba_marseille","lat":43.23194,"lon":5.40004,"is_reserved":false,"is_disabled":false,"rental_uris":{"android":"levelo://app?vid=6d540c0f-98a4-4311-9d97-d8f4a0c4b88a","ios":"levelo://app?vid=6d540c0f-98a4-4311-9d97-d8f4a0c4b88a"},"vehicle_type_id":"4","last_reported":1737033350,"current_range_meters":18000,"station_id":"ce4bhn12rcd13ifvqgqg","pricing_plan_id":"cebpf4jnsgd1na2vs0mg"},{"bike_id":"eb20f8b8-18bf-4428-8850-894ddc0b8423","system_id":"levelo_inurba_marseille","lat":43.29284,"lon":5.37442,"is_reserved":false,"is_disabled":false,"rental_uris":{"android":"levelo://app?vid=eb20f8b8-18bf-4428-8850-894ddc0b8423","ios":"levelo://app?vid=eb20f8b8-18bf-4428-8850-894ddc0b8423"},"vehicle_type_id":"4","last_reported":1737033350,"current_range_meters":16800,"station_id":"ce4bgi12rcd13ifvqb70","pricing_plan_id":"cebpf4jnsgd1na2vs0mg"},{"bike_id":"03519357-cc71-4610-a101-c7e9590195a2","system_id":"levelo_inurba_marseille","lat":43.23159,"lon":5.4372,"is_reserved":false,"is_disabled":false,"rental_uris":{"android":"levelo://app?vid=03519357-cc71-4610-a101-c7e9590195a2","ios":"levelo://app?vid=03519357-cc71-4610-a101-c7e9590195a2"},"vehicle_type_id":"4","last_reported":1737033350,"current_range_meters":38400,"station_id":"ce4bhmp2rcd13ifvqgog","pricing_plan_id":"cebpf4jnsgd1na2vs0mg"},{"bike_id":"d10c5460-c50b-4eb6-a1a9-336cf2e4209d","system_id":"levelo_inurba_marseille","lat":43.26801,"lon":5.40272,"is_reserved":false,"is_disabled":false,"rental_uris":{"android":"levelo://app?vid=d10c5460-c50b-4eb6-a1a9-336cf2e4209d","ios":"levelo://app?vid=d10c5460-c50b-4eb6-a1a9-336cf2e4209d"},"vehicle_type_id":"4","last_reported":1737033350,"current_range_meters":38000,"station_id":"ce501612rcd8frsf0b60","pricing_plan_id":"cebpf4jnsgd1na2vs0mg"},{"bike_id":"4fa358ca-b741-467a-a03f-b8033021b471","system_id":"levelo_inurba_marseille","lat":43.33763,"lon":5.37442,"is_reserved":false,"is_disabled":false,"rental_uris":{"android":"levelo://app?vid=4fa358ca-b741-467a-a03f-b8033021b471","ios":"levelo://app?vid=4fa358ca-b741-467a-a03f-b8033021b471"},"vehicle_type_id":"4","last_reported":1737033350,"current_range_meters":38400,"station_id":"","pricing_plan_id":"cebpf4jnsgd1na2vs0mg"},{"bike_id":"2fbd336c-8269-4c67-a2b9-7f57339437db","system_id":"levelo_inurba_marseille","lat":43.29551,"lon":5.37495,"is_reserved":false,"is_disabled":false,"rental_uris":{"android":"levelo://app?vid=2fbd336c-8269-4c67-a2b9-7f57339437db","ios":"levelo://app?vid=2fbd336c-8269-4c67-a2b9-7f57339437db"},"vehicle_type_id":"4","last_reported":1737033350,"current_range_meters":36400,"station_id":"ce4bgkp2rcd13ifvqbmg","pricing_plan_id":"cebpf4jnsgd1na2vs0mg"},{"bike_id":"2b2cb29b-656b-412b-b107-6e49fdf15518","system_id":"levelo_inurba_marseille","lat":43.27504,"lon":5.42438,"is_reserved":false,"is_disabled":true,"rental_uris":{"android":"levelo://app?vid=2b2cb29b-656b-412b-b107-6e49fdf15518","ios":"levelo://app?vid=2b2cb29b-656b-412b-b107-6e49fdf15518"},"vehicle_type_id":"4","last_reported":1737033350,"current_range_meters":0,"station_id":"ce4bhn92rcd13ifvqgrg","pricing_plan_id":"cebpf4jnsgd1na2vs0mg"},{"bike_id":"6383fb74-1ee1-40a6-bd29-dc827f3599e3","system_id":"levelo_inurba_marseille","lat":43.26312,"lon":5.39301,"is_reserved":false,"is_disabled":false,"rental_uris":{"android":"levelo://app?vid=6383fb74-1ee1-40a6-bd29-dc827f3599e3","ios":"levelo://app?vid=6383fb74-1ee1-40a6-bd29-dc827f3599e3"},"vehicle_type_id":"4","last_reported":1737033350,"current_range_meters":26800,"station_id":"ce4bh9p2rcd13ifvqed0","pricing_plan_id":"cebpf4jnsgd1na2vs0mg"},{"bike_id":"c8cfc202-d733-4989-9330-14558b81f152","system_id":"levelo_inurba_marseille","lat":43.30953,"lon":5.39046,"is_reserved":false,"is_disabled":false,"rental_uris":{"android":"levelo://app?vid=c8cfc202-d733-4989-9330-14558b81f152","ios":"levelo://app?vid=c8cfc202-d733-4989-9330-14558b81f152"},"vehicle_type_id":"4","last_reported":1737033350,"current_range_meters":24000,"station_id":"ce4bgup2rcd13ifvqco0","pricing_plan_id":"cebpf4jnsgd1na2vs0mg"},{"bike_id":"b9d506f3-d5fd-4d37-904a-7c52215a265a","system_id":"levelo_inurba_marseille","lat":43.24188,"lon":5.39736,"is_reserved":false,"is_disabled":false,"rental_uris":{"android":"levelo://app?vid=b9d506f3-d5fd-4d37-904a-7c52215a265a","ios":"levelo://app?vid=b9d506f3-d5fd-4d37-904a-7c52215a265a"},"vehicle_type_id":"4","last_reported":1737033350,"current_range_meters":29600,"station_id":"ce4bhn12rcd13ifvqgpg","pricing_plan_id":"cebpf4jnsgd1na2vs0mg"},{"bike_id":"a7ff9e2b-11c7-4a13-b462-dafb5d1f5750","system_id":"levelo_inurba_marseille","lat":43.30517,"lon":5.36538,"is_reserved":false,"is_disabled":false,"rental_uris":{"android":"levelo://app?vid=a7ff9e2b-11c7-4a13-b462-dafb5d1f5750","ios":"levelo://app?vid=a7ff9e2b-11c7-4a13-b462-dafb5d1f5750"},"vehicle_type_id":"4","last_reported":1737033350,"current_range_meters":11200,"station_id":"ce4bgs12rcd13ifvqcag","pricing_plan_id":"cebpf4jnsgd1na2vs0mg"},{"bike_id":"67c6acf5-226f-49f4-bff9-0f3bc8866ab4","system_id":"levelo_inurba_marseille","lat":43.24084,"lon":5.37757,"is_reserved":false,"is_disabled":false,"rental_uris":{"android":"levelo://app?vid=67c6acf5-226f-49f4-bff9-0f3bc8866ab4","ios":"levelo://app?vid=67c6acf5-226f-49f4-bff9-0f3bc8866ab4"},"vehicle_type_id":"4","last_reported":1737033350,"current_range_meters":38400,"station_id":"ce4bhnp2rcd13ifvqgvg","pricing_plan_id":"cebpf4jnsgd1na2vs0mg"},{"bike_id":"6b0f640d-8733-463e-9163-ced3fa26014a","system_id":"levelo_inurba_marseille","lat":43.28353,"lon":5.38108,"is_reserved":false,"is_disabled":false,"rental_uris":{"android":"levelo://app?vid=6b0f640d-8733-463e-9163-ced3fa26014a","ios":"levelo://app?vid=6b0f640d-8733-463e-9163-ced3fa26014a"},"vehicle_type_id":"4","last_reported":1737033350,"current_range_meters":21600,"station_id":"ce4bh412rcd13ifvqdr0","pricing_plan_id":"cebpf4jnsgd1na2vs0mg"},{"bike_id":"c4fc9679-1008-473b-9e9b-26f1ed62312e","system_id":"levelo_inurba_marseille","lat":43.22932,"lon":5.3539,"is_reserved":false,"is_disabled":false,"rental_uris":{"android":"levelo://app?vid=c4fc9679-1008-473b-9e9b-26f1ed62312e","ios":"levelo://app?vid=c4fc9679-1008-473b-9e9b-26f1ed62312e"},"vehicle_type_id":"4","last_reported":1737033350,"current_range_meters":23200,"station_id":"cpo3532slgdg3j2ikp40","pricing_plan_id":"cebpf4jnsgd1na2vs0mg"},{"bike_id":"f6742487-4757-45ee-8309-3be4b94fa885","system_id":"levelo_inurba_marseille","lat":43.28031,"lon":5.36945,"is_reserved":false,"is_disabled":false,"rental_uris":{"android":"levelo://app?vid=f6742487-4757-45ee-8309-3be4b94fa885","ios":"levelo://app?vid=f6742487-4757-45ee-8309-3be4b94fa885"},"vehicle_type_id":"4","last_reported":1737033350,"current_range_meters":25200,"station_id":"ce4bha12rcd13ifvqef0","pricing_plan_id":"cebpf4jnsgd1na2vs0mg"},{"bike_id":"0e842b39-329d-48e2-b781-7e3babc96cf4","system_id":"levelo_inurba_marseille","lat":43.22943,"lon":5.35379,"is_reserved":false,"is_disabled":false,"rental_uris":{"android":"levelo://app?vid=0e842b39-329d-48e2-b781-7e3babc96cf4","ios":"levelo://app?vid=0e842b39-329d-48e2-b781-7e3babc96cf4"},"vehicle_type_id":"4","last_reported":1737033350,"current_range_meters":16000,"station_id":"cpo3532slgdg3j2ikp40","pricing_plan_id":"cebpf4jnsgd1na2vs0mg"},{"bike_id":"b9980f6a-7ebb-4eff-907d-de66a80779c5","system_id":"levelo_inurba_marseille","lat":43.26559,"lon":5.39022,"is_reserved":false,"is_disabled":false,"rental_uris":{"android":"levelo://app?vid=b9980f6a-7ebb-4eff-907d-de66a80779c5","ios":"levelo://app?vid=b9980f6a-7ebb-4eff-907d-de66a80779c5"},"vehicle_type_id":"4","last_reported":1737033350,"current_range_meters":32800,"station_id":"ce4bhe12rcd13ifvqf30","pricing_plan_id":"cebpf4jnsgd1na2vs0mg"},{"bike_id":"2e7c58f0-f87f-443e-8de0-f219f58aa275","system_id":"levelo_inurba_marseille","lat":43.29615,"lon":5.3628,"is_reserved":false,"is_disabled":false,"rental_uris":{"android":"levelo://app?vid=2e7c58f0-f87f-443e-8de0-f219f58aa275","ios":"levelo://app?vid=2e7c58f0-f87f-443e-8de0-f219f58aa275"},"vehicle_type_id":"4","last_reported":1737033350,"current_range_meters":12400,"station_id":"","pricing_plan_id":"cebpf4jnsgd1na2vs0mg"},{"bike_id":"5787b23a-7610-4eb1-bb49-6e1fb1c62818","system_id":"levelo_inurba_marseille","lat":43.28849,"lon":5.39315,"is_reserved":false,"is_disabled":false,"rental_uris":{"android":"levelo://app?vid=5787b23a-7610-4eb1-bb49-6e1fb1c62818","ios":"levelo://app?vid=5787b23a-7610-4eb1-bb49-6e1fb1c62818"},"vehicle_type_id":"4","last_reported":1737033350,"current_range_meters":9200,"station_id":"ce4bh2p2rcd13ifvqdi0","pricing_plan_id":"cebpf4jnsgd1na2vs0mg"},{"bike_id":"25565997-1a27-443c-bfbb-437d3148274f","system_id":"levelo_inurba_marseille","lat":43.26936,"lon":5.38921,"is_reserved":false,"is_disabled":false,"rental_uris":{"android":"levelo://app?vid=25565997-1a27-443c-bfbb-437d3148274f","ios":"levelo://app?vid=25565997-1a27-443c-bfbb-437d3148274f"},"vehicle_type_id":"4","last_reported":1737033350,"current_range_meters":9200,"station_id":"ce4bhhh2rcd13ifvqfl0","pricing_plan_id":"cebpf4jnsgd1na2vs0mg"},{"bike_id":"c8012773-7d99-408d-a9a4-24a301001d61","system_id":"levelo_inurba_marseille","lat":43.24544,"lon":5.39526,"is_reserved":false,"is_disabled":false,"rental_uris":{"android":"levelo://app?vid=c8012773-7d99-408d-a9a4-24a301001d61","ios":"levelo://app?vid=c8012773-7d99-408d-a9a4-24a301001d61"},"vehicle_type_id":"4","last_reported":1737033350,"current_range_meters":20000,"station_id":"ce4bhlp2rcd13ifvqgjg","pricing_plan_id":"cebpf4jnsgd1na2vs0mg"},{"bike_id":"51396d58-a8ac-43b1-98b4-63a4ad94b5ff","system_id":"levelo_inurba_marseille","lat":43.25936,"lon":5.40901,"is_reserved":false,"is_disabled":false,"rental_uris":{"android":"levelo://app?vid=51396d58-a8ac-43b1-98b4-63a4ad94b5ff","ios":"levelo://app?vid=51396d58-a8ac-43b1-98b4-63a4ad94b5ff"},"vehicle_type_id":"4","last_reported":1737033350,"current_range_meters":20400,"station_id":"ce4bhm92rcd13ifvqglg","pricing_plan_id":"cebpf4jnsgd1na2vs0mg"},{"bike_id":"dcf4452f-723f-4756-a65c-7eb79326beda","system_id":"levelo_inurba_marseille","lat":43.29444,"lon":5.39761,"is_reserved":false,"is_disabled":false,"rental_uris":{"android":"levelo://app?vid=dcf4452f-723f-4756-a65c-7eb79326beda","ios":"levelo://app?vid=dcf4452f-723f-4756-a65c-7eb79326beda"},"vehicle_type_id":"4","last_reported":1737033350,"current_range_meters":37600,"station_id":"ce4bh3h2rcd13ifvqdo0","pricing_plan_id":"cebpf4jnsgd1na2vs0mg"},{"bike_id":"965cd806-8487-465f-9d5a-c9fb74ff2df1","system_id":"levelo_inurba_marseille","lat":43.27181,"lon":5.40994,"is_reserved":false,"is_disabled":false,"rental_uris":{"android":"levelo://app?vid=965cd806-8487-465f-9d5a-c9fb74ff2df1","ios":"levelo://app?vid=965cd806-8487-465f-9d5a-c9fb74ff2df1"},"vehicle_type_id":"4","last_reported":1737033350,"current_range_meters":9600,"station_id":"ce4bhl12rcd13ifvqgf0","pricing_plan_id":"cebpf4jnsgd1na2vs0mg"},{"bike_id":"21991245-c0ed-460a-96c0-efd1586188d9","system_id":"levelo_inurba_marseille","lat":43.26035,"lon":5.37562,"is_reserved":false,"is_disabled":false,"rental_uris":{"android":"levelo://app?vid=21991245-c0ed-460a-96c0-efd1586188d9","ios":"levelo://app?vid=21991245-c0ed-460a-96c0-efd1586188d9"},"vehicle_type_id":"4","last_reported":1737033350,"current_range_meters":39200,"station_id":"ce4bhgh2rcd13ifvqfa0","pricing_plan_id":"cebpf4jnsgd1na2vs0mg"},{"bike_id":"c5b4e51b-edb6-48e9-b5c1-ba07ffe7287b","system_id":"levelo_inurba_marseille","lat":43.29846,"lon":5.36274,"is_reserved":false,"is_disabled":false,"rental_uris":{"android":"levelo://app?vid=c5b4e51b-edb6-48e9-b5c1-ba07ffe7287b","ios":"levelo://app?vid=c5b4e51b-edb6-48e9-b5c1-ba07ffe7287b"},"vehicle_type_id":"4","last_reported":1737033350,"current_range_meters":32800,"station_id":"ce4bgpp2rcd13ifvqc3g","pricing_plan_id":"cebpf4jnsgd1na2vs0mg"},{"bike_id":"931976c9-1faf-4027-816f-640d2dba3acb","system_id":"levelo_inurba_marseille","lat":43.29251,"lon":5.40905,"is_reserved":false,"is_disabled":true,"rental_uris":{"android":"levelo://app?vid=931976c9-1faf-4027-816f-640d2dba3acb","ios":"levelo://app?vid=931976c9-1faf-4027-816f-640d2dba3acb"},"vehicle_type_id":"4","last_reported":1737033350,"current_range_meters":400,"station_id":"ce4bh192rcd13ifvqdc0","pricing_plan_id":"cebpf4jnsgd1na2vs0mg"},{"bike_id":"507b71db-8a55-4001-af6d-3d01df0f9a97","system_id":"levelo_inurba_marseille","lat":43.27313,"lon":5.39128,"is_reserved":false,"is_disabled":false,"rental_uris":{"android":"levelo://app?vid=507b71db-8a55-4001-af6d-3d01df0f9a97","ios":"levelo://app?vid=507b71db-8a55-4001-af6d-3d01df0f9a97"},"vehicle_type_id":"4","last_reported":1737033350,"current_range_meters":29600,"station_id":"ce4bhgp2rcd13ifvqfe0","pricing_plan_id":"cebpf4jnsgd1na2vs0mg"},{"bike_id":"5eb31e7a-4576-4f9a-ad1c-ec7f38ae2f91","system_id":"levelo_inurba_marseille","lat":43.28987,"lon":5.37836,"is_reserved":false,"is_disabled":false,"rental_uris":{"android":"levelo://app?vid=5eb31e7a-4576-4f9a-ad1c-ec7f38ae2f91","ios":"levelo://app?vid=5eb31e7a-4576-4f9a-ad1c-ec7f38ae2f91"},"vehicle_type_id":"4","last_reported":1737033350,"current_range_meters":27200,"station_id":"ce4bh9p2rcd13ifvqed0","pricing_plan_id":"cebpf4jnsgd1na2vs0mg"},{"bike_id":"be58c4b8-2e49-4f2f-be91-b2c23f30012b","system_id":"levelo_inurba_marseille","lat":43.23964,"lon":5.3664,"is_reserved":false,"is_disabled":false,"rental_uris":{"android":"levelo://app?vid=be58c4b8-2e49-4f2f-be91-b2c23f30012b","ios":"levelo://app?vid=be58c4b8-2e49-4f2f-be91-b2c23f30012b"},"vehicle_type_id":"4","last_reported":1737033350,"current_range_meters":26800,"station_id":"ce4bhi12rcd13ifvqfp0","pricing_plan_id":"cebpf4jnsgd1na2vs0mg"},{"bike_id":"06153968-cf86-4246-9afd-923bebd95ee1","system_id":"levelo_inurba_marseille","lat":43.29626,"lon":5.37155,"is_reserved":false,"is_disabled":true,"rental_uris":{"android":"levelo://app?vid=06153968-cf86-4246-9afd-923bebd95ee1","ios":"levelo://app?vid=06153968-cf86-4246-9afd-923bebd95ee1"},"vehicle_type_id":"4","last_reported":1737033350,"current_range_meters":3600,"station_id":"ce4bgnh2rcd13ifvqc0g","pricing_plan_id":"cebpf4jnsgd1na2vs0mg"},{"bike_id":"3935cf59-9f18-458e-a167-ecd898e5ac70","system_id":"levelo_inurba_marseille","lat":43.26945,"lon":5.38625,"is_reserved":false,"is_disabled":false,"rental_uris":{"android":"levelo://app?vid=3935cf59-9f18-458e-a167-ecd898e5ac70","ios":"levelo://app?vid=3935cf59-9f18-458e-a167-ecd898e5ac70"},"vehicle_type_id":"4","last_reported":1737033350,"current_range_meters":18800,"station_id":"ce4bhh92rcd13ifvqfh0","pricing_plan_id":"cebpf4jnsgd1na2vs0mg"},{"bike_id":"a611beb1-3942-4142-94dd-d9f173233265","system_id":"levelo_inurba_marseille","lat":43.29181,"lon":5.37162,"is_reserved":false,"is_disabled":false,"rental_uris":{"android":"levelo://app?vid=a611beb1-3942-4142-94dd-d9f173233265","ios":"levelo://app?vid=a611beb1-3942-4142-94dd-d9f173233265"},"vehicle_type_id":"4","last_reported":1737033350,"current_range_meters":8800,"station_id":"ce4bha92rcd13ifvqeh0","pricing_plan_id":"cebpf4jnsgd1na2vs0mg"},{"bike_id":"210040e1-cb71-4534-abb5-6c7ef224a67c","system_id":"levelo_inurba_marseille","lat":43.29757,"lon":5.37704,"is_reserved":false,"is_disabled":false,"rental_uris":{"android":"levelo://app?vid=210040e1-cb71-4534-abb5-6c7ef224a67c","ios":"levelo://app?vid=210040e1-cb71-4534-abb5-6c7ef224a67c"},"vehicle_type_id":"4","last_reported":1737033350,"current_range_meters":17600,"station_id":"","pricing_plan_id":"cebpf4jnsgd1na2vs0mg"},{"bike_id":"431d5609-0b95-4f6c-bb62-9dad367a8c06","system_id":"levelo_inurba_marseille","lat":43.27216,"lon":5.39192,"is_reserved":false,"is_disabled":false,"rental_uris":{"android":"levelo://app?vid=431d5609-0b95-4f6c-bb62-9dad367a8c06","ios":"levelo://app?vid=431d5609-0b95-4f6c-bb62-9dad367a8c06"},"vehicle_type_id":"4","last_reported":1737033350,"current_range_meters":18800,"station_id":"ce4bhhp2rcd13ifvqfm0","pricing_plan_id":"cebpf4jnsgd1na2vs0mg"},{"bike_id":"1a7a05e0-1a93-4e44-ba37-52741ba5ff07","system_id":"levelo_inurba_marseille","lat":43.31498,"lon":5.37315,"is_reserved":false,"is_disabled":false,"rental_uris":{"android":"levelo://app?vid=1a7a05e0-1a93-4e44-ba37-52741ba5ff07","ios":"levelo://app?vid=1a7a05e0-1a93-4e44-ba37-52741ba5ff07"},"vehicle_type_id":"4","last_reported":1737033350,"current_range_meters":13600,"station_id":"ce4bgt12rcd13ifvqcd0","pricing_plan_id":"cebpf4jnsgd1na2vs0mg"},{"bike_id":"20a1526a-6b93-4b78-8a18-19c12791dc6f","system_id":"levelo_inurba_marseille","lat":43.30263,"lon":5.37726,"is_reserved":false,"is_disabled":false,"rental_uris":{"android":"levelo://app?vid=20a1526a-6b93-4b78-8a18-19c12791dc6f","ios":"levelo://app?vid=20a1526a-6b93-4b78-8a18-19c12791dc6f"},"vehicle_type_id":"4","last_reported":1737033350,"current_range_meters":25600,"station_id":"ce4bguh2rcd13ifvqcj0","pricing_plan_id":"cebpf4jnsgd1na2vs0mg"},{"bike_id":"bef5c741-75bd-4f8f-a849-078d09ab7470","system_id":"levelo_inurba_marseille","lat":43.2989,"lon":5.43664,"is_reserved":false,"is_disabled":false,"rental_uris":{"android":"levelo://app?vid=bef5c741-75bd-4f8f-a849-078d09ab7470","ios":"levelo://app?vid=bef5c741-75bd-4f8f-a849-078d09ab7470"},"vehicle_type_id":"4","last_reported":1737033350,"current_range_meters":38800,"station_id":"ce4bhpp2rcd13ifvqhfg","pricing_plan_id":"cebpf4jnsgd1na2vs0mg"},{"bike_id":"507d7b19-702d-4bfb-8bc8-0fc6d8c1a3a4","system_id":"levelo_inurba_marseille","lat":43.29863,"lon":5.39747,"is_reserved":false,"is_disabled":false,"rental_uris":{"android":"levelo://app?vid=507d7b19-702d-4bfb-8bc8-0fc6d8c1a3a4","ios":"levelo://app?vid=507d7b19-702d-4bfb-8bc8-0fc6d8c1a3a4"},"vehicle_type_id":"4","last_reported":1737033350,"current_range_meters":39200,"station_id":"ce4bh0h2rcd13ifvqd50","pricing_plan_id":"cebpf4jnsgd1na2vs0mg"},{"bike_id":"1f4e6e8d-6c70-4dd6-ba83-165a530688d7","system_id":"levelo_inurba_marseille","lat":43.22947,"lon":5.3538,"is_reserved":false,"is_disabled":false,"rental_uris":{"android":"levelo://app?vid=1f4e6e8d-6c70-4dd6-ba83-165a530688d7","ios":"levelo://app?vid=1f4e6e8d-6c70-4dd6-ba83-165a530688d7"},"vehicle_type_id":"4","last_reported":1737033350,"current_range_meters":24400,"station_id":"cpo3532slgdg3j2ikp40","pricing_plan_id":"cebpf4jnsgd1na2vs0mg"},{"bike_id":"5dc5ff4a-6f97-4551-b16e-6accac849217","system_id":"levelo_inurba_marseille","lat":43.30549,"lon":5.3672,"is_reserved":false,"is_disabled":false,"rental_uris":{"android":"levelo://app?vid=5dc5ff4a-6f97-4551-b16e-6accac849217","ios":"levelo://app?vid=5dc5ff4a-6f97-4551-b16e-6accac849217"},"vehicle_type_id":"4","last_reported":1737033350,"current_range_meters":38000,"station_id":"ce4bgrp2rcd13ifvqc9g","pricing_plan_id":"cebpf4jnsgd1na2vs0mg"},{"bike_id":"ecf3b524-c49c-4c3a-8f18-d3338ee1d436","system_id":"levelo_inurba_marseille","lat":43.3026,"lon":5.40077,"is_reserved":false,"is_disabled":false,"rental_uris":{"android":"levelo://app?vid=ecf3b524-c49c-4c3a-8f18-d3338ee1d436","ios":"levelo://app?vid=ecf3b524-c49c-4c3a-8f18-d3338ee1d436"},"vehicle_type_id":"4","last_reported":1737033350,"current_range_meters":4000,"station_id":"ce4bgvh2rcd13ifvqcs0","pricing_plan_id":"cebpf4jnsgd1na2vs0mg"},{"bike_id":"ae6ec69a-9b0e-43e0-a28d-173f309613ee","system_id":"levelo_inurba_marseille","lat":43.29904,"lon":5.37409,"is_reserved":false,"is_disabled":false,"rental_uris":{"android":"levelo://app?vid=ae6ec69a-9b0e-43e0-a28d-173f309613ee","ios":"levelo://app?vid=ae6ec69a-9b0e-43e0-a28d-173f309613ee"},"vehicle_type_id":"4","last_reported":1737033350,"current_range_meters":24000,"station_id":"","pricing_plan_id":"cebpf4jnsgd1na2vs0mg"},{"bike_id":"273275e8-abb5-42b5-9006-2c30cd91a336","system_id":"levelo_inurba_marseille","lat":43.29604,"lon":5.37749,"is_reserved":false,"is_disabled":false,"rental_uris":{"android":"levelo://app?vid=273275e8-abb5-42b5-9006-2c30cd91a336","ios":"levelo://app?vid=273275e8-abb5-42b5-9006-2c30cd91a336"},"vehicle_type_id":"4","last_reported":1737033350,"current_range_meters":38000,"station_id":"ce4bgi92rcd13ifvqb90","pricing_plan_id":"cebpf4jnsgd1na2vs0mg"},{"bike_id":"fa53afd0-c3c0-46c2-be7e-d056eb14f6b8","system_id":"levelo_inurba_marseille","lat":43.26067,"lon":5.39389,"is_reserved":false,"is_disabled":false,"rental_uris":{"android":"levelo://app?vid=fa53afd0-c3c0-46c2-be7e-d056eb14f6b8","ios":"levelo://app?vid=fa53afd0-c3c0-46c2-be7e-d056eb14f6b8"},"vehicle_type_id":"4","last_reported":1737033350,"current_range_meters":38800,"station_id":"ce4bhh92rcd13ifvqfj0","pricing_plan_id":"cebpf4jnsgd1na2vs0mg"},{"bike_id":"bf570212-0e3b-4bce-85fa-29c1011cfa2d","system_id":"levelo_inurba_marseille","lat":43.32478,"lon":5.36566,"is_reserved":false,"is_disabled":false,"rental_uris":{"android":"levelo://app?vid=bf570212-0e3b-4bce-85fa-29c1011cfa2d","ios":"levelo://app?vid=bf570212-0e3b-4bce-85fa-29c1011cfa2d"},"vehicle_type_id":"4","last_reported":1737033350,"current_range_meters":32800,"station_id":"ce4bhs12rcd13ifvqhvg","pricing_plan_id":"cebpf4jnsgd1na2vs0mg"},{"bike_id":"a78ea674-5088-4f77-b7c2-4fef42cc5598","system_id":"levelo_inurba_marseille","lat":43.2953,"lon":5.375,"is_reserved":false,"is_disabled":false,"rental_uris":{"android":"levelo://app?vid=a78ea674-5088-4f77-b7c2-4fef42cc5598","ios":"levelo://app?vid=a78ea674-5088-4f77-b7c2-4fef42cc5598"},"vehicle_type_id":"4","last_reported":1737033350,"current_range_meters":24000,"station_id":"ce4bgkp2rcd13ifvqbmg","pricing_plan_id":"cebpf4jnsgd1na2vs0mg"},{"bike_id":"155dbf4b-d6fe-46aa-9097-9994452a5158","system_id":"levelo_inurba_marseille","lat":43.230689,"lon":5.354965,"is_reserved":false,"is_disabled":false,"rental_uris":{"android":"levelo://app?vid=155dbf4b-d6fe-46aa-9097-9994452a5158","ios":"levelo://app?vid=155dbf4b-d6fe-46aa-9097-9994452a5158"},"vehicle_type_id":"4","last_reported":1737033350,"current_range_meters":9200,"station_id":"cpo3342slgdg3j2ifvpg","pricing_plan_id":"cebpf4jnsgd1na2vs0mg"},{"bike_id":"d28eb562-9401-4c73-a785-28169d8131d7","system_id":"levelo_inurba_marseille","lat":43.31099,"lon":5.37629,"is_reserved":false,"is_disabled":false,"rental_uris":{"android":"levelo://app?vid=d28eb562-9401-4c73-a785-28169d8131d7","ios":"levelo://app?vid=d28eb562-9401-4c73-a785-28169d8131d7"},"vehicle_type_id":"4","last_reported":1737033350,"current_range_meters":27600,"station_id":"","pricing_plan_id":"cebpf4jnsgd1na2vs0mg"},{"bike_id":"80bc6287-ce2b-4ae4-b9d5-67d3150daa6d","system_id":"levelo_inurba_marseille","lat":43.27178,"lon":5.40983,"is_reserved":false,"is_disabled":false,"rental_uris":{"android":"levelo://app?vid=80bc6287-ce2b-4ae4-b9d5-67d3150daa6d","ios":"levelo://app?vid=80bc6287-ce2b-4ae4-b9d5-67d3150daa6d"},"vehicle_type_id":"4","last_reported":1737033350,"current_range_meters":28800,"station_id":"ce4bhl12rcd13ifvqgf0","pricing_plan_id":"cebpf4jnsgd1na2vs0mg"},{"bike_id":"fedfa1a7-997d-435d-b7b7-1cdfb17634c4","system_id":"levelo_inurba_marseille","lat":43.30774,"lon":5.3678,"is_reserved":false,"is_disabled":false,"rental_uris":{"android":"levelo://app?vid=fedfa1a7-997d-435d-b7b7-1cdfb17634c4","ios":"levelo://app?vid=fedfa1a7-997d-435d-b7b7-1cdfb17634c4"},"vehicle_type_id":"4","last_reported":1737033350,"current_range_meters":25200,"station_id":"","pricing_plan_id":"cebpf4jnsgd1na2vs0mg"},{"bike_id":"98342f93-7bf2-4304-817a-494cc685e2f4","system_id":"levelo_inurba_marseille","lat":43.3373,"lon":5.39193,"is_reserved":false,"is_disabled":false,"rental_uris":{"android":"levelo://app?vid=98342f93-7bf2-4304-817a-494cc685e2f4","ios":"levelo://app?vid=98342f93-7bf2-4304-817a-494cc685e2f4"},"vehicle_type_id":"4","last_reported":1737033350,"current_range_meters":38800,"station_id":"ce4bhr92rcd13ifvqhsg","pricing_plan_id":"cebpf4jnsgd1na2vs0mg"},{"bike_id":"0e148415-5fb7-4b85-bd8d-2efc964f268e","system_id":"levelo_inurba_marseille","lat":43.3373,"lon":5.39188,"is_reserved":false,"is_disabled":false,"rental_uris":{"android":"levelo://app?vid=0e148415-5fb7-4b85-bd8d-2efc964f268e","ios":"levelo://app?vid=0e148415-5fb7-4b85-bd8d-2efc964f268e"},"vehicle_type_id":"4","last_reported":1737033350,"current_range_meters":38000,"station_id":"ce4bhr92rcd13ifvqhsg","pricing_plan_id":"cebpf4jnsgd1na2vs0mg"},{"bike_id":"0de1c0c3-224c-470c-9c40-92abbb1e542e","system_id":"levelo_inurba_marseille","lat":43.27461,"lon":5.39416,"is_reserved":false,"is_disabled":false,"rental_uris":{"android":"levelo://app?vid=0de1c0c3-224c-470c-9c40-92abbb1e542e","ios":"levelo://app?vid=0de1c0c3-224c-470c-9c40-92abbb1e542e"},"vehicle_type_id":"4","last_reported":1737033350,"current_range_meters":24800,"station_id":"","pricing_plan_id":"cebpf4jnsgd1na2vs0mg"},{"bike_id":"c3b64c74-d6c1-4b9b-a255-83d958bf8721","system_id":"levelo_inurba_marseille","lat":43.29193,"lon":5.35799,"is_reserved":false,"is_disabled":false,"rental_uris":{"android":"levelo://app?vid=c3b64c74-d6c1-4b9b-a255-83d958bf8721","ios":"levelo://app?vid=c3b64c74-d6c1-4b9b-a255-83d958bf8721"},"vehicle_type_id":"4","last_reported":1737033350,"current_range_meters":37600,"station_id":"ce4bhb12rcd13ifvqel0","pricing_plan_id":"cebpf4jnsgd1na2vs0mg"},{"bike_id":"1f149e26-9d4e-4970-96ec-1b76430b914b","system_id":"levelo_inurba_marseille","lat":43.24404,"lon":5.37057,"is_reserved":false,"is_disabled":false,"rental_uris":{"android":"levelo://app?vid=1f149e26-9d4e-4970-96ec-1b76430b914b","ios":"levelo://app?vid=1f149e26-9d4e-4970-96ec-1b76430b914b"},"vehicle_type_id":"4","last_reported":1737033350,"current_range_meters":38800,"station_id":"ce4bhhh2rcd13ifvqfk0","pricing_plan_id":"cebpf4jnsgd1na2vs0mg"},{"bike_id":"baf753fc-dc54-426d-a32c-0f27b8c91385","system_id":"levelo_inurba_marseille","lat":43.26781,"lon":5.39419,"is_reserved":false,"is_disabled":false,"rental_uris":{"android":"levelo://app?vid=baf753fc-dc54-426d-a32c-0f27b8c91385","ios":"levelo://app?vid=baf753fc-dc54-426d-a32c-0f27b8c91385"},"vehicle_type_id":"4","last_reported":1737033350,"current_range_meters":7200,"station_id":"ce4bhh12rcd13ifvqfg0","pricing_plan_id":"cebpf4jnsgd1na2vs0mg"},{"bike_id":"76b11e59-8729-43b1-bbd0-394b62bc4f6d","system_id":"levelo_inurba_marseille","lat":43.3414,"lon":5.40908,"is_reserved":false,"is_disabled":false,"rental_uris":{"android":"levelo://app?vid=76b11e59-8729-43b1-bbd0-394b62bc4f6d","ios":"levelo://app?vid=76b11e59-8729-43b1-bbd0-394b62bc4f6d"},"vehicle_type_id":"4","last_reported":1737033350,"current_range_meters":27200,"station_id":"ce4bhqh2rcd13ifvqhlg","pricing_plan_id":"cebpf4jnsgd1na2vs0mg"},{"bike_id":"4d67d339-e8e1-4f5a-8086-1d6e90a5223c","system_id":"levelo_inurba_marseille","lat":43.31444,"lon":5.37598,"is_reserved":false,"is_disabled":false,"rental_uris":{"android":"levelo://app?vid=4d67d339-e8e1-4f5a-8086-1d6e90a5223c","ios":"levelo://app?vid=4d67d339-e8e1-4f5a-8086-1d6e90a5223c"},"vehicle_type_id":"4","last_reported":1737033350,"current_range_meters":38800,"station_id":"","pricing_plan_id":"cebpf4jnsgd1na2vs0mg"},{"bike_id":"cbad5e61-c774-428b-9526-3ba0d1ad8d90","system_id":"levelo_inurba_marseille","lat":43.30948,"lon":5.39038,"is_reserved":false,"is_disabled":false,"rental_uris":{"android":"levelo://app?vid=cbad5e61-c774-428b-9526-3ba0d1ad8d90","ios":"levelo://app?vid=cbad5e61-c774-428b-9526-3ba0d1ad8d90"},"vehicle_type_id":"4","last_reported":1737033350,"current_range_meters":30800,"station_id":"ce4bgup2rcd13ifvqco0","pricing_plan_id":"cebpf4jnsgd1na2vs0mg"},{"bike_id":"5edeb20e-e82e-4c9c-b6d8-dfa6cde5408f","system_id":"levelo_inurba_marseille","lat":43.29254,"lon":5.40905,"is_reserved":false,"is_disabled":true,"rental_uris":{"android":"levelo://app?vid=5edeb20e-e82e-4c9c-b6d8-dfa6cde5408f","ios":"levelo://app?vid=5edeb20e-e82e-4c9c-b6d8-dfa6cde5408f"},"vehicle_type_id":"4","last_reported":1737033350,"current_range_meters":20800,"station_id":"ce4bh192rcd13ifvqdc0","pricing_plan_id":"cebpf4jnsgd1na2vs0mg"},{"bike_id":"53a8a18b-78c1-4c77-8e65-adb5b2c0f6db","system_id":"levelo_inurba_marseille","lat":43.32338,"lon":5.40612,"is_reserved":false,"is_disabled":false,"rental_uris":{"android":"levelo://app?vid=53a8a18b-78c1-4c77-8e65-adb5b2c0f6db","ios":"levelo://app?vid=53a8a18b-78c1-4c77-8e65-adb5b2c0f6db"},"vehicle_type_id":"4","last_reported":1737033350,"current_range_meters":10800,"station_id":"ce4bhq92rcd13ifvqhjg","pricing_plan_id":"cebpf4jnsgd1na2vs0mg"},{"bike_id":"2c839bfc-228b-4afd-9c45-0e54b8f36672","system_id":"levelo_inurba_marseille","lat":43.24648,"lon":5.38904,"is_reserved":false,"is_disabled":false,"rental_uris":{"android":"levelo://app?vid=2c839bfc-228b-4afd-9c45-0e54b8f36672","ios":"levelo://app?vid=2c839bfc-228b-4afd-9c45-0e54b8f36672"},"vehicle_type_id":"4","last_reported":1737033350,"current_range_meters":38800,"station_id":"ce4bhg12rcd13ifvqf60","pricing_plan_id":"cebpf4jnsgd1na2vs0mg"},{"bike_id":"707ed4b6-32ec-456f-af9b-99b730072abe","system_id":"levelo_inurba_marseille","lat":43.29568,"lon":5.375,"is_reserved":false,"is_disabled":false,"rental_uris":{"android":"levelo://app?vid=707ed4b6-32ec-456f-af9b-99b730072abe","ios":"levelo://app?vid=707ed4b6-32ec-456f-af9b-99b730072abe"},"vehicle_type_id":"4","last_reported":1737033350,"current_range_meters":22800,"station_id":"ce4bgh92rcd13ifvqb50","pricing_plan_id":"cebpf4jnsgd1na2vs0mg"},{"bike_id":"15e41896-9686-461f-add3-091f60afd267","system_id":"levelo_inurba_marseille","lat":43.28268,"lon":5.35076,"is_reserved":false,"is_disabled":false,"rental_uris":{"android":"levelo://app?vid=15e41896-9686-461f-add3-091f60afd267","ios":"levelo://app?vid=15e41896-9686-461f-add3-091f60afd267"},"vehicle_type_id":"4","last_reported":1737033350,"current_range_meters":39200,"station_id":"ce4bhbp2rcd13ifvqerg","pricing_plan_id":"cebpf4jnsgd1na2vs0mg"},{"bike_id":"2766686f-7696-4a1d-bceb-e3abea7dd924","system_id":"levelo_inurba_marseille","lat":43.312222,"lon":5.368565,"is_reserved":false,"is_disabled":false,"rental_uris":{"android":"levelo://app?vid=2766686f-7696-4a1d-bceb-e3abea7dd924","ios":"levelo://app?vid=2766686f-7696-4a1d-bceb-e3abea7dd924"},"vehicle_type_id":"4","last_reported":1737033350,"current_range_meters":33200,"station_id":"ce4bgl92rcd13ifvqbq0","pricing_plan_id":"cebpf4jnsgd1na2vs0mg"},{"bike_id":"a15980ac-c225-4e68-8982-6cc8c4cbfd79","system_id":"levelo_inurba_marseille","lat":43.23194,"lon":5.35572,"is_reserved":false,"is_disabled":false,"rental_uris":{"android":"levelo://app?vid=a15980ac-c225-4e68-8982-6cc8c4cbfd79","ios":"levelo://app?vid=a15980ac-c225-4e68-8982-6cc8c4cbfd79"},"vehicle_type_id":"4","last_reported":1737033350,"current_range_meters":38800,"station_id":"ce4bhu92rcd13ifvqi70","pricing_plan_id":"cebpf4jnsgd1na2vs0mg"},{"bike_id":"390ab92d-b8c8-4fa3-a463-67c40cf8a73a","system_id":"levelo_inurba_marseille","lat":43.271739,"lon":5.409984,"is_reserved":false,"is_disabled":false,"rental_uris":{"android":"levelo://app?vid=390ab92d-b8c8-4fa3-a463-67c40cf8a73a","ios":"levelo://app?vid=390ab92d-b8c8-4fa3-a463-67c40cf8a73a"},"vehicle_type_id":"4","last_reported":1737033350,"current_range_meters":38800,"station_id":"ce4bhl12rcd13ifvqgf0","pricing_plan_id":"cebpf4jnsgd1na2vs0mg"},{"bike_id":"344bd4d4-3a8a-47e1-aaad-a2c9867ce43b","system_id":"levelo_inurba_marseille","lat":43.27372,"lon":5.36255,"is_reserved":false,"is_disabled":false,"rental_uris":{"android":"levelo://app?vid=344bd4d4-3a8a-47e1-aaad-a2c9867ce43b","ios":"levelo://app?vid=344bd4d4-3a8a-47e1-aaad-a2c9867ce43b"},"vehicle_type_id":"4","last_reported":1737033350,"current_range_meters":38800,"station_id":"ce4bhbh2rcd13ifvqeo0","pricing_plan_id":"cebpf4jnsgd1na2vs0mg"},{"bike_id":"eec3b22a-35cc-4fb8-beef-220041e31880","system_id":"levelo_inurba_marseille","lat":43.30224,"lon":5.39475,"is_reserved":false,"is_disabled":false,"rental_uris":{"android":"levelo://app?vid=eec3b22a-35cc-4fb8-beef-220041e31880","ios":"levelo://app?vid=eec3b22a-35cc-4fb8-beef-220041e31880"},"vehicle_type_id":"4","last_reported":1737033350,"current_range_meters":38800,"station_id":"ce4bh0p2rcd13ifvqd70","pricing_plan_id":"cebpf4jnsgd1na2vs0mg"},{"bike_id":"0fa75195-ca6f-4470-9a59-3f578924b033","system_id":"levelo_inurba_marseille","lat":43.27428,"lon":5.39417,"is_reserved":false,"is_disabled":false,"rental_uris":{"android":"levelo://app?vid=0fa75195-ca6f-4470-9a59-3f578924b033","ios":"levelo://app?vid=0fa75195-ca6f-4470-9a59-3f578924b033"},"vehicle_type_id":"4","last_reported":1737033350,"current_range_meters":38000,"station_id":"ce4bhdp2rcd13ifvqf20","pricing_plan_id":"cebpf4jnsgd1na2vs0mg"},{"bike_id":"484ac33d-9183-4d0b-8cfa-9292e832bfd6","system_id":"levelo_inurba_marseille","lat":43.28614,"lon":5.35108,"is_reserved":false,"is_disabled":false,"rental_uris":{"android":"levelo://app?vid=484ac33d-9183-4d0b-8cfa-9292e832bfd6","ios":"levelo://app?vid=484ac33d-9183-4d0b-8cfa-9292e832bfd6"},"vehicle_type_id":"4","last_reported":1737033350,"current_range_meters":22400,"station_id":"ce4bhch2rcd13ifvqeug","pricing_plan_id":"cebpf4jnsgd1na2vs0mg"},{"bike_id":"cbf10109-5b21-4345-a3aa-d36f8ea618d1","system_id":"levelo_inurba_marseille","lat":43.302818,"lon":5.377098,"is_reserved":false,"is_disabled":false,"rental_uris":{"android":"levelo://app?vid=cbf10109-5b21-4345-a3aa-d36f8ea618d1","ios":"levelo://app?vid=cbf10109-5b21-4345-a3aa-d36f8ea618d1"},"vehicle_type_id":"4","last_reported":1737033350,"current_range_meters":24400,"station_id":"ce4bguh2rcd13ifvqcj0","pricing_plan_id":"cebpf4jnsgd1na2vs0mg"},{"bike_id":"57f9c8ab-8d16-4858-bf10-ec696b5dbfaf","system_id":"levelo_inurba_marseille","lat":43.25495,"lon":5.3765,"is_reserved":false,"is_disabled":false,"rental_uris":{"android":"levelo://app?vid=57f9c8ab-8d16-4858-bf10-ec696b5dbfaf","ios":"levelo://app?vid=57f9c8ab-8d16-4858-bf10-ec696b5dbfaf"},"vehicle_type_id":"4","last_reported":1737033350,"current_range_meters":9200,"station_id":"ce4bhh12rcd13ifvqff0","pricing_plan_id":"cebpf4jnsgd1na2vs0mg"},{"bike_id":"f5ef05ba-890f-454f-a397-aaba5155158e","system_id":"levelo_inurba_marseille","lat":43.30547,"lon":5.36539,"is_reserved":false,"is_disabled":false,"rental_uris":{"android":"levelo://app?vid=f5ef05ba-890f-454f-a397-aaba5155158e","ios":"levelo://app?vid=f5ef05ba-890f-454f-a397-aaba5155158e"},"vehicle_type_id":"4","last_reported":1737033350,"current_range_meters":37600,"station_id":"ce4bgs12rcd13ifvqcag","pricing_plan_id":"cebpf4jnsgd1na2vs0mg"},{"bike_id":"51bb6953-dea8-4e82-96bf-52696267905f","system_id":"levelo_inurba_marseille","lat":43.23032,"lon":5.35555,"is_reserved":false,"is_disabled":false,"rental_uris":{"android":"levelo://app?vid=51bb6953-dea8-4e82-96bf-52696267905f","ios":"levelo://app?vid=51bb6953-dea8-4e82-96bf-52696267905f"},"vehicle_type_id":"4","last_reported":1737033350,"current_range_meters":37600,"station_id":"","pricing_plan_id":"cebpf4jnsgd1na2vs0mg"},{"bike_id":"0322fcdf-b020-4ce6-beb4-beae2d2038c9","system_id":"levelo_inurba_marseille","lat":43.34145,"lon":5.40906,"is_reserved":false,"is_disabled":false,"rental_uris":{"android":"levelo://app?vid=0322fcdf-b020-4ce6-beb4-beae2d2038c9","ios":"levelo://app?vid=0322fcdf-b020-4ce6-beb4-beae2d2038c9"},"vehicle_type_id":"4","last_reported":1737033350,"current_range_meters":39200,"station_id":"ce4bhqh2rcd13ifvqhlg","pricing_plan_id":"cebpf4jnsgd1na2vs0mg"},{"bike_id":"4ef64c3b-6c57-4691-8703-9ded86d50a31","system_id":"levelo_inurba_marseille","lat":43.24076,"lon":5.37758,"is_reserved":false,"is_disabled":false,"rental_uris":{"android":"levelo://app?vid=4ef64c3b-6c57-4691-8703-9ded86d50a31","ios":"levelo://app?vid=4ef64c3b-6c57-4691-8703-9ded86d50a31"},"vehicle_type_id":"4","last_reported":1737033350,"current_range_meters":38000,"station_id":"ce4bhnp2rcd13ifvqgvg","pricing_plan_id":"cebpf4jnsgd1na2vs0mg"},{"bike_id":"3bea599d-9d1d-4ce1-a78c-b94821d3e8a3","system_id":"levelo_inurba_marseille","lat":43.25017,"lon":5.3894,"is_reserved":false,"is_disabled":false,"rental_uris":{"android":"levelo://app?vid=3bea599d-9d1d-4ce1-a78c-b94821d3e8a3","ios":"levelo://app?vid=3bea599d-9d1d-4ce1-a78c-b94821d3e8a3"},"vehicle_type_id":"4","last_reported":1737033350,"current_range_meters":36800,"station_id":"ce4bhgp2rcd13ifvqfd0","pricing_plan_id":"cebpf4jnsgd1na2vs0mg"},{"bike_id":"8e2010c2-e7e3-425c-9b1d-139fd4978763","system_id":"levelo_inurba_marseille","lat":43.31337,"lon":5.36739,"is_reserved":false,"is_disabled":false,"rental_uris":{"android":"levelo://app?vid=8e2010c2-e7e3-425c-9b1d-139fd4978763","ios":"levelo://app?vid=8e2010c2-e7e3-425c-9b1d-139fd4978763"},"vehicle_type_id":"4","last_reported":1737033350,"current_range_meters":27600,"station_id":"ce4bgr92rcd13ifvqc6g","pricing_plan_id":"cebpf4jnsgd1na2vs0mg"},{"bike_id":"c72f0241-b8c1-44da-8744-7ccc8e668d26","system_id":"levelo_inurba_marseille","lat":43.24808,"lon":5.37462,"is_reserved":false,"is_disabled":false,"rental_uris":{"android":"levelo://app?vid=c72f0241-b8c1-44da-8744-7ccc8e668d26","ios":"levelo://app?vid=c72f0241-b8c1-44da-8744-7ccc8e668d26"},"vehicle_type_id":"4","last_reported":1737033350,"current_range_meters":35200,"station_id":"ce4bhgh2rcd13ifvqfb0","pricing_plan_id":"cebpf4jnsgd1na2vs0mg"},{"bike_id":"1b826428-7b9b-4476-aff5-2d78b28b890c","system_id":"levelo_inurba_marseille","lat":43.27377,"lon":5.36245,"is_reserved":false,"is_disabled":false,"rental_uris":{"android":"levelo://app?vid=1b826428-7b9b-4476-aff5-2d78b28b890c","ios":"levelo://app?vid=1b826428-7b9b-4476-aff5-2d78b28b890c"},"vehicle_type_id":"4","last_reported":1737033350,"current_range_meters":38800,"station_id":"ce4bhbh2rcd13ifvqeo0","pricing_plan_id":"cebpf4jnsgd1na2vs0mg"},{"bike_id":"18a4e803-9fed-490d-8b8f-cfa50d31713a","system_id":"levelo_inurba_marseille","lat":43.2606,"lon":5.39399,"is_reserved":false,"is_disabled":false,"rental_uris":{"android":"levelo://app?vid=18a4e803-9fed-490d-8b8f-cfa50d31713a","ios":"levelo://app?vid=18a4e803-9fed-490d-8b8f-cfa50d31713a"},"vehicle_type_id":"4","last_reported":1737033350,"current_range_meters":16000,"station_id":"ce4bhh92rcd13ifvqfj0","pricing_plan_id":"cebpf4jnsgd1na2vs0mg"},{"bike_id":"2b9ec76b-d41b-40c2-957a-cdb91e08f05a","system_id":"levelo_inurba_marseille","lat":43.28987,"lon":5.3783,"is_reserved":false,"is_disabled":false,"rental_uris":{"android":"levelo://app?vid=2b9ec76b-d41b-40c2-957a-cdb91e08f05a","ios":"levelo://app?vid=2b9ec76b-d41b-40c2-957a-cdb91e08f05a"},"vehicle_type_id":"4","last_reported":1737033350,"current_range_meters":9200,"station_id":"ce4bh9p2rcd13ifvqed0","pricing_plan_id":"cebpf4jnsgd1na2vs0mg"},{"bike_id":"1041f8d6-ab16-4876-a064-fbbf23dd8531","system_id":"levelo_inurba_marseille","lat":43.26922,"lon":5.3893,"is_reserved":false,"is_disabled":false,"rental_uris":{"android":"levelo://app?vid=1041f8d6-ab16-4876-a064-fbbf23dd8531","ios":"levelo://app?vid=1041f8d6-ab16-4876-a064-fbbf23dd8531"},"vehicle_type_id":"4","last_reported":1737033350,"current_range_meters":9200,"station_id":"ce4bhhh2rcd13ifvqfl0","pricing_plan_id":"cebpf4jnsgd1na2vs0mg"},{"bike_id":"4b2a9951-e9c3-48e0-8b22-f77f1838dfc7","system_id":"levelo_inurba_marseille","lat":43.29617,"lon":5.37589,"is_reserved":false,"is_disabled":false,"rental_uris":{"android":"levelo://app?vid=4b2a9951-e9c3-48e0-8b22-f77f1838dfc7","ios":"levelo://app?vid=4b2a9951-e9c3-48e0-8b22-f77f1838dfc7"},"vehicle_type_id":"4","last_reported":1737033350,"current_range_meters":16800,"station_id":"","pricing_plan_id":"cebpf4jnsgd1na2vs0mg"},{"bike_id":"227e2104-9342-467a-bb13-dc81a29065f7","system_id":"levelo_inurba_marseille","lat":43.284803,"lon":5.389576,"is_reserved":false,"is_disabled":false,"rental_uris":{"android":"levelo://app?vid=227e2104-9342-467a-bb13-dc81a29065f7","ios":"levelo://app?vid=227e2104-9342-467a-bb13-dc81a29065f7"},"vehicle_type_id":"4","last_reported":1737033350,"current_range_meters":30400,"station_id":"","pricing_plan_id":"cebpf4jnsgd1na2vs0mg"},{"bike_id":"dc1212d5-855a-48a4-9b5e-347fa6650a07","system_id":"levelo_inurba_marseille","lat":43.29571,"lon":5.37504,"is_reserved":false,"is_disabled":false,"rental_uris":{"android":"levelo://app?vid=dc1212d5-855a-48a4-9b5e-347fa6650a07","ios":"levelo://app?vid=dc1212d5-855a-48a4-9b5e-347fa6650a07"},"vehicle_type_id":"4","last_reported":1737033350,"current_range_meters":38800,"station_id":"ce4bgh92rcd13ifvqb50","pricing_plan_id":"cebpf4jnsgd1na2vs0mg"},{"bike_id":"e5b9252e-eebf-4c90-b028-b53cc4934330","system_id":"levelo_inurba_marseille","lat":43.30355,"lon":5.41905,"is_reserved":false,"is_disabled":true,"rental_uris":{"android":"levelo://app?vid=e5b9252e-eebf-4c90-b028-b53cc4934330","ios":"levelo://app?vid=e5b9252e-eebf-4c90-b028-b53cc4934330"},"vehicle_type_id":"4","last_reported":1737033350,"current_range_meters":14000,"station_id":"ce4bhop2rcd13ifvqh7g","pricing_plan_id":"cebpf4jnsgd1na2vs0mg"},{"bike_id":"5685b1ca-51df-4b0c-81b2-5fc50125a990","system_id":"levelo_inurba_marseille","lat":43.29544,"lon":5.375,"is_reserved":false,"is_disabled":false,"rental_uris":{"android":"levelo://app?vid=5685b1ca-51df-4b0c-81b2-5fc50125a990","ios":"levelo://app?vid=5685b1ca-51df-4b0c-81b2-5fc50125a990"},"vehicle_type_id":"4","last_reported":1737033350,"current_range_meters":29600,"station_id":"ce4bgkp2rcd13ifvqbmg","pricing_plan_id":"cebpf4jnsgd1na2vs0mg"},{"bike_id":"93af35ad-738e-40e4-afcb-6d3589d7e732","system_id":"levelo_inurba_marseille","lat":43.231496,"lon":5.436983,"is_reserved":false,"is_disabled":false,"rental_uris":{"android":"levelo://app?vid=93af35ad-738e-40e4-afcb-6d3589d7e732","ios":"levelo://app?vid=93af35ad-738e-40e4-afcb-6d3589d7e732"},"vehicle_type_id":"4","last_reported":1737033350,"current_range_meters":23200,"station_id":"ce4bhmp2rcd13ifvqgog","pricing_plan_id":"cebpf4jnsgd1na2vs0mg"},{"bike_id":"7933f2f0-2e0f-422d-873c-ec932075e5a3","system_id":"levelo_inurba_marseille","lat":43.26188,"lon":5.3748,"is_reserved":false,"is_disabled":false,"rental_uris":{"android":"levelo://app?vid=7933f2f0-2e0f-422d-873c-ec932075e5a3","ios":"levelo://app?vid=7933f2f0-2e0f-422d-873c-ec932075e5a3"},"vehicle_type_id":"4","last_reported":1737033350,"current_range_meters":6400,"station_id":"ce4bhgp2rcd13ifvqfc0","pricing_plan_id":"cebpf4jnsgd1na2vs0mg"},{"bike_id":"d1b53a96-266e-4b04-a3ed-285008bed597","system_id":"levelo_inurba_marseille","lat":43.2593,"lon":5.40895,"is_reserved":false,"is_disabled":false,"rental_uris":{"android":"levelo://app?vid=d1b53a96-266e-4b04-a3ed-285008bed597","ios":"levelo://app?vid=d1b53a96-266e-4b04-a3ed-285008bed597"},"vehicle_type_id":"4","last_reported":1737033350,"current_range_meters":31200,"station_id":"ce4bhm92rcd13ifvqglg","pricing_plan_id":"cebpf4jnsgd1na2vs0mg"},{"bike_id":"cd61c03b-d4f0-48f7-b777-75cd85668d7f","system_id":"levelo_inurba_marseille","lat":43.31355,"lon":5.36747,"is_reserved":false,"is_disabled":false,"rental_uris":{"android":"levelo://app?vid=cd61c03b-d4f0-48f7-b777-75cd85668d7f","ios":"levelo://app?vid=cd61c03b-d4f0-48f7-b777-75cd85668d7f"},"vehicle_type_id":"4","last_reported":1737033350,"current_range_meters":14800,"station_id":"ce4bgr92rcd13ifvqc6g","pricing_plan_id":"cebpf4jnsgd1na2vs0mg"},{"bike_id":"af21ee5b-f7eb-47bd-9d98-3e2b3e6fd530","system_id":"levelo_inurba_marseille","lat":43.31999,"lon":5.38157,"is_reserved":false,"is_disabled":false,"rental_uris":{"android":"levelo://app?vid=af21ee5b-f7eb-47bd-9d98-3e2b3e6fd530","ios":"levelo://app?vid=af21ee5b-f7eb-47bd-9d98-3e2b3e6fd530"},"vehicle_type_id":"4","last_reported":1737033350,"current_range_meters":39200,"station_id":"ce4bhr12rcd13ifvqhpg","pricing_plan_id":"cebpf4jnsgd1na2vs0mg"},{"bike_id":"5a5ca612-41bb-484c-b071-d874fac0a43a","system_id":"levelo_inurba_marseille","lat":43.30291,"lon":5.39216,"is_reserved":false,"is_disabled":false,"rental_uris":{"android":"levelo://app?vid=5a5ca612-41bb-484c-b071-d874fac0a43a","ios":"levelo://app?vid=5a5ca612-41bb-484c-b071-d874fac0a43a"},"vehicle_type_id":"4","last_reported":1737033350,"current_range_meters":25200,"station_id":"ce4bgkh2rcd13ifvqbk0","pricing_plan_id":"cebpf4jnsgd1na2vs0mg"},{"bike_id":"88601246-06df-4be5-a673-7eb26d5a62f0","system_id":"levelo_inurba_marseille","lat":43.30132,"lon":5.37414,"is_reserved":false,"is_disabled":false,"rental_uris":{"android":"levelo://app?vid=88601246-06df-4be5-a673-7eb26d5a62f0","ios":"levelo://app?vid=88601246-06df-4be5-a673-7eb26d5a62f0"},"vehicle_type_id":"4","last_reported":1737033350,"current_range_meters":25200,"station_id":"ce4bgs92rcd13ifvqcc0","pricing_plan_id":"cebpf4jnsgd1na2vs0mg"},{"bike_id":"1c5dee46-9296-4ff0-86e0-56f1d3de6cd3","system_id":"levelo_inurba_marseille","lat":43.2984,"lon":5.36254,"is_reserved":false,"is_disabled":false,"rental_uris":{"android":"levelo://app?vid=1c5dee46-9296-4ff0-86e0-56f1d3de6cd3","ios":"levelo://app?vid=1c5dee46-9296-4ff0-86e0-56f1d3de6cd3"},"vehicle_type_id":"4","last_reported":1737033350,"current_range_meters":12800,"station_id":"ce4bgpp2rcd13ifvqc3g","pricing_plan_id":"cebpf4jnsgd1na2vs0mg"},{"bike_id":"a09a941d-cd7f-4a74-ae80-30df2fc74a04","system_id":"levelo_inurba_marseille","lat":43.27176,"lon":5.40989,"is_reserved":false,"is_disabled":false,"rental_uris":{"android":"levelo://app?vid=a09a941d-cd7f-4a74-ae80-30df2fc74a04","ios":"levelo://app?vid=a09a941d-cd7f-4a74-ae80-30df2fc74a04"},"vehicle_type_id":"4","last_reported":1737033350,"current_range_meters":38800,"station_id":"ce4bhl12rcd13ifvqgf0","pricing_plan_id":"cebpf4jnsgd1na2vs0mg"},{"bike_id":"4121f9d5-b138-4a51-9809-f2a903161b1a","system_id":"levelo_inurba_marseille","lat":43.29534,"lon":5.37505,"is_reserved":false,"is_disabled":false,"rental_uris":{"android":"levelo://app?vid=4121f9d5-b138-4a51-9809-f2a903161b1a","ios":"levelo://app?vid=4121f9d5-b138-4a51-9809-f2a903161b1a"},"vehicle_type_id":"4","last_reported":1737033350,"current_range_meters":38800,"station_id":"ce4bgkp2rcd13ifvqbmg","pricing_plan_id":"cebpf4jnsgd1na2vs0mg"},{"bike_id":"d06ace98-5af5-41f7-b0ec-08ef323f2c58","system_id":"levelo_inurba_marseille","lat":43.29226,"lon":5.36063,"is_reserved":false,"is_disabled":true,"rental_uris":{"android":"levelo://app?vid=d06ace98-5af5-41f7-b0ec-08ef323f2c58","ios":"levelo://app?vid=d06ace98-5af5-41f7-b0ec-08ef323f2c58"},"vehicle_type_id":"4","last_reported":1737033350,"current_range_meters":0,"station_id":"ce4bhbh2rcd13ifvqeqg","pricing_plan_id":"cebpf4jnsgd1na2vs0mg"},{"bike_id":"f361550d-42e6-452f-acd5-38d92402df94","system_id":"levelo_inurba_marseille","lat":43.30083,"lon":5.39087,"is_reserved":false,"is_disabled":false,"rental_uris":{"android":"levelo://app?vid=f361550d-42e6-452f-acd5-38d92402df94","ios":"levelo://app?vid=f361550d-42e6-452f-acd5-38d92402df94"},"vehicle_type_id":"4","last_reported":1737033350,"current_range_meters":30000,"station_id":"ce4bh192rcd13ifvqdb0","pricing_plan_id":"cebpf4jnsgd1na2vs0mg"},{"bike_id":"a9c19008-79da-4e2a-a315-e1e1a10cdba2","system_id":"levelo_inurba_marseille","lat":43.3093,"lon":5.4015,"is_reserved":false,"is_disabled":true,"rental_uris":{"android":"levelo://app?vid=a9c19008-79da-4e2a-a315-e1e1a10cdba2","ios":"levelo://app?vid=a9c19008-79da-4e2a-a315-e1e1a10cdba2"},"vehicle_type_id":"4","last_reported":1737033350,"current_range_meters":400,"station_id":"ce4bgvp2rcd13ifvqct0","pricing_plan_id":"cebpf4jnsgd1na2vs0mg"},{"bike_id":"e383498e-5e62-42f0-96da-ca16a1a397ba","system_id":"levelo_inurba_marseille","lat":43.28934,"lon":5.36617,"is_reserved":false,"is_disabled":false,"rental_uris":{"android":"levelo://app?vid=e383498e-5e62-42f0-96da-ca16a1a397ba","ios":"levelo://app?vid=e383498e-5e62-42f0-96da-ca16a1a397ba"},"vehicle_type_id":"4","last_reported":1737033350,"current_range_meters":8400,"station_id":"ce4bhap2rcd13ifvqek0","pricing_plan_id":"cebpf4jnsgd1na2vs0mg"},{"bike_id":"cc1aa1c6-582b-4f1c-9ede-677c82c95ac5","system_id":"levelo_inurba_marseille","lat":43.298,"lon":5.37094,"is_reserved":false,"is_disabled":false,"rental_uris":{"android":"levelo://app?vid=cc1aa1c6-582b-4f1c-9ede-677c82c95ac5","ios":"levelo://app?vid=cc1aa1c6-582b-4f1c-9ede-677c82c95ac5"},"vehicle_type_id":"4","last_reported":1737033350,"current_range_meters":38800,"station_id":"ce4bgop2rcd13ifvqc1g","pricing_plan_id":"cebpf4jnsgd1na2vs0mg"},{"bike_id":"1a17a578-cbbc-4dd9-8ec3-8d2b87bc098c","system_id":"levelo_inurba_marseille","lat":43.29027,"lon":5.39996,"is_reserved":false,"is_disabled":false,"rental_uris":{"android":"levelo://app?vid=1a17a578-cbbc-4dd9-8ec3-8d2b87bc098c","ios":"levelo://app?vid=1a17a578-cbbc-4dd9-8ec3-8d2b87bc098c"},"vehicle_type_id":"4","last_reported":1737033350,"current_range_meters":38800,"station_id":"ce4bh392rcd13ifvqdm0","pricing_plan_id":"cebpf4jnsgd1na2vs0mg"},{"bike_id":"fb02b012-cf2b-4292-b08f-702d3861108d","system_id":"levelo_inurba_marseille","lat":43.29969,"lon":5.37179,"is_reserved":false,"is_disabled":false,"rental_uris":{"android":"levelo://app?vid=fb02b012-cf2b-4292-b08f-702d3861108d","ios":"levelo://app?vid=fb02b012-cf2b-4292-b08f-702d3861108d"},"vehicle_type_id":"4","last_reported":1737033350,"current_range_meters":38800,"station_id":"ce4bgr92rcd13ifvqc7g","pricing_plan_id":"cebpf4jnsgd1na2vs0mg"},{"bike_id":"7a26b63c-652f-4d2d-8353-1a9dfb4e945a","system_id":"levelo_inurba_marseille","lat":43.33751,"lon":5.39178,"is_reserved":false,"is_disabled":false,"rental_uris":{"android":"levelo://app?vid=7a26b63c-652f-4d2d-8353-1a9dfb4e945a","ios":"levelo://app?vid=7a26b63c-652f-4d2d-8353-1a9dfb4e945a"},"vehicle_type_id":"4","last_reported":1737033350,"current_range_meters":38800,"station_id":"ce4bhr92rcd13ifvqhsg","pricing_plan_id":"cebpf4jnsgd1na2vs0mg"},{"bike_id":"6816f2cb-ba75-43f5-8f74-1ecf534e9e80","system_id":"levelo_inurba_marseille","lat":43.30552,"lon":5.36525,"is_reserved":false,"is_disabled":false,"rental_uris":{"android":"levelo://app?vid=6816f2cb-ba75-43f5-8f74-1ecf534e9e80","ios":"levelo://app?vid=6816f2cb-ba75-43f5-8f74-1ecf534e9e80"},"vehicle_type_id":"4","last_reported":1737033350,"current_range_meters":34800,"station_id":"ce4bgs12rcd13ifvqcag","pricing_plan_id":"cebpf4jnsgd1na2vs0mg"},{"bike_id":"56b8e9bc-f750-4815-bc98-9098414d16db","system_id":"levelo_inurba_marseille","lat":43.23196,"lon":5.35565,"is_reserved":false,"is_disabled":true,"rental_uris":{"android":"levelo://app?vid=56b8e9bc-f750-4815-bc98-9098414d16db","ios":"levelo://app?vid=56b8e9bc-f750-4815-bc98-9098414d16db"},"vehicle_type_id":"4","last_reported":1737033350,"current_range_meters":0,"station_id":"ce4bhu92rcd13ifvqi70","pricing_plan_id":"cebpf4jnsgd1na2vs0mg"},{"bike_id":"0eaad5c6-5f51-47c1-91f3-09d8f49d51ff","system_id":"levelo_inurba_marseille","lat":43.30603,"lon":5.39367,"is_reserved":false,"is_disabled":false,"rental_uris":{"android":"levelo://app?vid=0eaad5c6-5f51-47c1-91f3-09d8f49d51ff","ios":"levelo://app?vid=0eaad5c6-5f51-47c1-91f3-09d8f49d51ff"},"vehicle_type_id":"4","last_reported":1737033350,"current_range_meters":36800,"station_id":"ce4bh0p2rcd13ifvqd80","pricing_plan_id":"cebpf4jnsgd1na2vs0mg"},{"bike_id":"a001a3c3-f01c-46e3-9c96-9ed219edfc48","system_id":"levelo_inurba_marseille","lat":43.29594,"lon":5.38101,"is_reserved":false,"is_disabled":false,"rental_uris":{"android":"levelo://app?vid=a001a3c3-f01c-46e3-9c96-9ed219edfc48","ios":"levelo://app?vid=a001a3c3-f01c-46e3-9c96-9ed219edfc48"},"vehicle_type_id":"4","last_reported":1737033350,"current_range_meters":25600,"station_id":"ce4bgl12rcd13ifvqbo0","pricing_plan_id":"cebpf4jnsgd1na2vs0mg"},{"bike_id":"11914884-14e4-4437-b51d-adf8e7cb4eb2","system_id":"levelo_inurba_marseille","lat":43.24389,"lon":5.37063,"is_reserved":false,"is_disabled":false,"rental_uris":{"android":"levelo://app?vid=11914884-14e4-4437-b51d-adf8e7cb4eb2","ios":"levelo://app?vid=11914884-14e4-4437-b51d-adf8e7cb4eb2"},"vehicle_type_id":"4","last_reported":1737033350,"current_range_meters":39200,"station_id":"ce4bhhh2rcd13ifvqfk0","pricing_plan_id":"cebpf4jnsgd1na2vs0mg"},{"bike_id":"5b5b9902-6477-4816-81ea-170089f5c9a8","system_id":"levelo_inurba_marseille","lat":43.29257,"lon":5.40908,"is_reserved":false,"is_disabled":false,"rental_uris":{"android":"levelo://app?vid=5b5b9902-6477-4816-81ea-170089f5c9a8","ios":"levelo://app?vid=5b5b9902-6477-4816-81ea-170089f5c9a8"},"vehicle_type_id":"4","last_reported":1737033350,"current_range_meters":30800,"station_id":"ce4bh192rcd13ifvqdc0","pricing_plan_id":"cebpf4jnsgd1na2vs0mg"},{"bike_id":"0670b4f0-1f45-4258-9a91-28f01f5ea4c3","system_id":"levelo_inurba_marseille","lat":43.28156,"lon":5.42647,"is_reserved":false,"is_disabled":false,"rental_uris":{"android":"levelo://app?vid=0670b4f0-1f45-4258-9a91-28f01f5ea4c3","ios":"levelo://app?vid=0670b4f0-1f45-4258-9a91-28f01f5ea4c3"},"vehicle_type_id":"4","last_reported":1737033350,"current_range_meters":12800,"station_id":"ce4bhnh2rcd13ifvqgug","pricing_plan_id":"cebpf4jnsgd1na2vs0mg"},{"bike_id":"1c0d8f9b-899d-4d74-b0db-ecdfd7073347","system_id":"levelo_inurba_marseille","lat":43.25115,"lon":5.4032,"is_reserved":false,"is_disabled":false,"rental_uris":{"android":"levelo://app?vid=1c0d8f9b-899d-4d74-b0db-ecdfd7073347","ios":"levelo://app?vid=1c0d8f9b-899d-4d74-b0db-ecdfd7073347"},"vehicle_type_id":"4","last_reported":1737033350,"current_range_meters":38800,"station_id":"ce4bhlh2rcd13ifvqgig","pricing_plan_id":"cebpf4jnsgd1na2vs0mg"},{"bike_id":"c9ca64e8-08fe-42cb-9fa6-fd8db87605c0","system_id":"levelo_inurba_marseille","lat":43.32482,"lon":5.36558,"is_reserved":false,"is_disabled":false,"rental_uris":{"android":"levelo://app?vid=c9ca64e8-08fe-42cb-9fa6-fd8db87605c0","ios":"levelo://app?vid=c9ca64e8-08fe-42cb-9fa6-fd8db87605c0"},"vehicle_type_id":"4","last_reported":1737033350,"current_range_meters":3600,"station_id":"ce4bhs12rcd13ifvqhvg","pricing_plan_id":"cebpf4jnsgd1na2vs0mg"},{"bike_id":"dfa396b0-8a1d-4a44-967e-8995f4e9ffa6","system_id":"levelo_inurba_marseille","lat":43.30464,"lon":5.37905,"is_reserved":false,"is_disabled":false,"rental_uris":{"android":"levelo://app?vid=dfa396b0-8a1d-4a44-967e-8995f4e9ffa6","ios":"levelo://app?vid=dfa396b0-8a1d-4a44-967e-8995f4e9ffa6"},"vehicle_type_id":"4","last_reported":1737033350,"current_range_meters":24800,"station_id":"ce4bgup2rcd13ifvqcn0","pricing_plan_id":"cebpf4jnsgd1na2vs0mg"},{"bike_id":"93a573d7-73e9-40d7-afe3-996243582f4e","system_id":"levelo_inurba_marseille","lat":43.31362,"lon":5.38488,"is_reserved":false,"is_disabled":false,"rental_uris":{"android":"levelo://app?vid=93a573d7-73e9-40d7-afe3-996243582f4e","ios":"levelo://app?vid=93a573d7-73e9-40d7-afe3-996243582f4e"},"vehicle_type_id":"4","last_reported":1737033350,"current_range_meters":37600,"station_id":"ce4bgt92rcd13ifvqcf0","pricing_plan_id":"cebpf4jnsgd1na2vs0mg"},{"bike_id":"995c884a-0499-46b1-9a44-bb0a781664c5","system_id":"levelo_inurba_marseille","lat":43.25918,"lon":5.40912,"is_reserved":false,"is_disabled":false,"rental_uris":{"android":"levelo://app?vid=995c884a-0499-46b1-9a44-bb0a781664c5","ios":"levelo://app?vid=995c884a-0499-46b1-9a44-bb0a781664c5"},"vehicle_type_id":"4","last_reported":1737033350,"current_range_meters":38800,"station_id":"ce4bhm92rcd13ifvqglg","pricing_plan_id":"cebpf4jnsgd1na2vs0mg"},{"bike_id":"22465212-93af-4e0b-b803-6ee82bba56d5","system_id":"levelo_inurba_marseille","lat":43.3376,"lon":5.3748,"is_reserved":false,"is_disabled":false,"rental_uris":{"android":"levelo://app?vid=22465212-93af-4e0b-b803-6ee82bba56d5","ios":"levelo://app?vid=22465212-93af-4e0b-b803-6ee82bba56d5"},"vehicle_type_id":"4","last_reported":1737033350,"current_range_meters":32800,"station_id":"","pricing_plan_id":"cebpf4jnsgd1na2vs0mg"},{"bike_id":"a8ac4343-dfec-4a1b-aa7c-6454a5136527","system_id":"levelo_inurba_marseille","lat":43.28944,"lon":5.36395,"is_reserved":false,"is_disabled":false,"rental_uris":{"android":"levelo://app?vid=a8ac4343-dfec-4a1b-aa7c-6454a5136527","ios":"levelo://app?vid=a8ac4343-dfec-4a1b-aa7c-6454a5136527"},"vehicle_type_id":"4","last_reported":1737033350,"current_range_meters":36400,"station_id":"ce4bhc92rcd13ifvqetg","pricing_plan_id":"cebpf4jnsgd1na2vs0mg"},{"bike_id":"fc705563-96e6-45d0-adb3-8588f3962dd4","system_id":"levelo_inurba_marseille","lat":43.32364,"lon":5.38887,"is_reserved":false,"is_disabled":false,"rental_uris":{"android":"levelo://app?vid=fc705563-96e6-45d0-adb3-8588f3962dd4","ios":"levelo://app?vid=fc705563-96e6-45d0-adb3-8588f3962dd4"},"vehicle_type_id":"4","last_reported":1737033350,"current_range_meters":33200,"station_id":"ce4bhqp2rcd13ifvqhog","pricing_plan_id":"cebpf4jnsgd1na2vs0mg"},{"bike_id":"8ea1e7e9-0f2a-4dd7-89ec-43af818b1ec4","system_id":"levelo_inurba_marseille","lat":43.31902,"lon":5.40732,"is_reserved":false,"is_disabled":false,"rental_uris":{"android":"levelo://app?vid=8ea1e7e9-0f2a-4dd7-89ec-43af818b1ec4","ios":"levelo://app?vid=8ea1e7e9-0f2a-4dd7-89ec-43af818b1ec4"},"vehicle_type_id":"4","last_reported":1737033350,"current_range_meters":10000,"station_id":"ce4bhq12rcd13ifvqhig","pricing_plan_id":"cebpf4jnsgd1na2vs0mg"},{"bike_id":"0c74b65d-6a6b-4f50-a23b-6454b7a923c5","system_id":"levelo_inurba_marseille","lat":43.30547,"lon":5.36731,"is_reserved":false,"is_disabled":false,"rental_uris":{"android":"levelo://app?vid=0c74b65d-6a6b-4f50-a23b-6454b7a923c5","ios":"levelo://app?vid=0c74b65d-6a6b-4f50-a23b-6454b7a923c5"},"vehicle_type_id":"4","last_reported":1737033350,"current_range_meters":27600,"station_id":"ce4bgrp2rcd13ifvqc9g","pricing_plan_id":"cebpf4jnsgd1na2vs0mg"},{"bike_id":"53435887-fb48-410a-ba4f-7759a72ef607","system_id":"levelo_inurba_marseille","lat":43.30952,"lon":5.39036,"is_reserved":false,"is_disabled":false,"rental_uris":{"android":"levelo://app?vid=53435887-fb48-410a-ba4f-7759a72ef607","ios":"levelo://app?vid=53435887-fb48-410a-ba4f-7759a72ef607"},"vehicle_type_id":"4","last_reported":1737033350,"current_range_meters":29600,"station_id":"ce4bgup2rcd13ifvqco0","pricing_plan_id":"cebpf4jnsgd1na2vs0mg"},{"bike_id":"1a782c08-5207-4924-8c78-48762ef4e2b3","system_id":"levelo_inurba_marseille","lat":43.29073,"lon":5.37179,"is_reserved":false,"is_disabled":false,"rental_uris":{"android":"levelo://app?vid=1a782c08-5207-4924-8c78-48762ef4e2b3","ios":"levelo://app?vid=1a782c08-5207-4924-8c78-48762ef4e2b3"},"vehicle_type_id":"4","last_reported":1737033350,"current_range_meters":10800,"station_id":"ce4bh5p2rcd13ifvqe4g","pricing_plan_id":"cebpf4jnsgd1na2vs0mg"},{"bike_id":"917148ce-4c9d-450a-97ee-d2deee4d50c3","system_id":"levelo_inurba_marseille","lat":43.32475,"lon":5.36572,"is_reserved":false,"is_disabled":false,"rental_uris":{"android":"levelo://app?vid=917148ce-4c9d-450a-97ee-d2deee4d50c3","ios":"levelo://app?vid=917148ce-4c9d-450a-97ee-d2deee4d50c3"},"vehicle_type_id":"4","last_reported":1737033350,"current_range_meters":10800,"station_id":"ce4bhs12rcd13ifvqhvg","pricing_plan_id":"cebpf4jnsgd1na2vs0mg"},{"bike_id":"27dfa0f3-35fc-4a05-be71-3a7191c8c793","system_id":"levelo_inurba_marseille","lat":43.29803,"lon":5.38128,"is_reserved":false,"is_disabled":false,"rental_uris":{"android":"levelo://app?vid=27dfa0f3-35fc-4a05-be71-3a7191c8c793","ios":"levelo://app?vid=27dfa0f3-35fc-4a05-be71-3a7191c8c793"},"vehicle_type_id":"4","last_reported":1737033350,"current_range_meters":34000,"station_id":"ce4bgip2rcd13ifvqbb0","pricing_plan_id":"cebpf4jnsgd1na2vs0mg"},{"bike_id":"5f73b1c5-bb2a-4fac-9eb7-14c830fab3ce","system_id":"levelo_inurba_marseille","lat":43.29838,"lon":5.36249,"is_reserved":false,"is_disabled":false,"rental_uris":{"android":"levelo://app?vid=5f73b1c5-bb2a-4fac-9eb7-14c830fab3ce","ios":"levelo://app?vid=5f73b1c5-bb2a-4fac-9eb7-14c830fab3ce"},"vehicle_type_id":"4","last_reported":1737033350,"current_range_meters":27600,"station_id":"ce4bgpp2rcd13ifvqc3g","pricing_plan_id":"cebpf4jnsgd1na2vs0mg"},{"bike_id":"682d97cf-1eff-43a1-8fde-21607297becd","system_id":"levelo_inurba_marseille","lat":43.267883,"lon":5.395333,"is_reserved":false,"is_disabled":false,"rental_uris":{"android":"levelo://app?vid=682d97cf-1eff-43a1-8fde-21607297becd","ios":"levelo://app?vid=682d97cf-1eff-43a1-8fde-21607297becd"},"vehicle_type_id":"4","last_reported":1737033350,"current_range_meters":36800,"station_id":"ce4bhh12rcd13ifvqfg0","pricing_plan_id":"cebpf4jnsgd1na2vs0mg"},{"bike_id":"f172504a-fa6d-4816-bca2-5e7fbca619f4","system_id":"levelo_inurba_marseille","lat":43.30207,"lon":5.39467,"is_reserved":false,"is_disabled":false,"rental_uris":{"android":"levelo://app?vid=f172504a-fa6d-4816-bca2-5e7fbca619f4","ios":"levelo://app?vid=f172504a-fa6d-4816-bca2-5e7fbca619f4"},"vehicle_type_id":"4","last_reported":1737033350,"current_range_meters":24400,"station_id":"ce4bh0p2rcd13ifvqd70","pricing_plan_id":"cebpf4jnsgd1na2vs0mg"},{"bike_id":"6a7366d7-ed8c-4629-bf0c-70c2abcda36d","system_id":"levelo_inurba_marseille","lat":43.23187,"lon":5.35563,"is_reserved":false,"is_disabled":false,"rental_uris":{"android":"levelo://app?vid=6a7366d7-ed8c-4629-bf0c-70c2abcda36d","ios":"levelo://app?vid=6a7366d7-ed8c-4629-bf0c-70c2abcda36d"},"vehicle_type_id":"4","last_reported":1737033350,"current_range_meters":11200,"station_id":"ce4bhu92rcd13ifvqi70","pricing_plan_id":"cebpf4jnsgd1na2vs0mg"},{"bike_id":"1e53d647-df95-46d5-9a1e-85641c128b40","system_id":"levelo_inurba_marseille","lat":43.24805,"lon":5.37466,"is_reserved":false,"is_disabled":true,"rental_uris":{"android":"levelo://app?vid=1e53d647-df95-46d5-9a1e-85641c128b40","ios":"levelo://app?vid=1e53d647-df95-46d5-9a1e-85641c128b40"},"vehicle_type_id":"4","last_reported":1737033350,"current_range_meters":0,"station_id":"ce4bhgh2rcd13ifvqfb0","pricing_plan_id":"cebpf4jnsgd1na2vs0mg"},{"bike_id":"2d7f3353-743b-41e1-85f2-e32181d4ae48","system_id":"levelo_inurba_marseille","lat":43.319994,"lon":5.381579,"is_reserved":false,"is_disabled":false,"rental_uris":{"android":"levelo://app?vid=2d7f3353-743b-41e1-85f2-e32181d4ae48","ios":"levelo://app?vid=2d7f3353-743b-41e1-85f2-e32181d4ae48"},"vehicle_type_id":"4","last_reported":1737033350,"current_range_meters":33200,"station_id":"ce4bhr12rcd13ifvqhpg","pricing_plan_id":"cebpf4jnsgd1na2vs0mg"},{"bike_id":"1f7ef2c4-2f01-4208-89fc-71df78d95396","system_id":"levelo_inurba_marseille","lat":43.27498,"lon":5.42454,"is_reserved":false,"is_disabled":false,"rental_uris":{"android":"levelo://app?vid=1f7ef2c4-2f01-4208-89fc-71df78d95396","ios":"levelo://app?vid=1f7ef2c4-2f01-4208-89fc-71df78d95396"},"vehicle_type_id":"4","last_reported":1737033350,"current_range_meters":7200,"station_id":"ce4bhn92rcd13ifvqgrg","pricing_plan_id":"cebpf4jnsgd1na2vs0mg"},{"bike_id":"d6248787-bad6-4726-aab8-dd8572187026","system_id":"levelo_inurba_marseille","lat":43.30314,"lon":5.37707,"is_reserved":false,"is_disabled":false,"rental_uris":{"android":"levelo://app?vid=d6248787-bad6-4726-aab8-dd8572187026","ios":"levelo://app?vid=d6248787-bad6-4726-aab8-dd8572187026"},"vehicle_type_id":"4","last_reported":1737033350,"current_range_meters":33600,"station_id":"ce4bguh2rcd13ifvqcj0","pricing_plan_id":"cebpf4jnsgd1na2vs0mg"},{"bike_id":"28b1e29a-2b5d-4248-b803-1d9a35599bd9","system_id":"levelo_inurba_marseille","lat":43.34149,"lon":5.40901,"is_reserved":false,"is_disabled":false,"rental_uris":{"android":"levelo://app?vid=28b1e29a-2b5d-4248-b803-1d9a35599bd9","ios":"levelo://app?vid=28b1e29a-2b5d-4248-b803-1d9a35599bd9"},"vehicle_type_id":"4","last_reported":1737033350,"current_range_meters":33200,"station_id":"ce4bhqh2rcd13ifvqhlg","pricing_plan_id":"cebpf4jnsgd1na2vs0mg"},{"bike_id":"855a2268-02f8-4307-894d-f57dfd10b4c1","system_id":"levelo_inurba_marseille","lat":43.33007,"lon":5.39052,"is_reserved":false,"is_disabled":false,"rental_uris":{"android":"levelo://app?vid=855a2268-02f8-4307-894d-f57dfd10b4c1","ios":"levelo://app?vid=855a2268-02f8-4307-894d-f57dfd10b4c1"},"vehicle_type_id":"4","last_reported":1737033350,"current_range_meters":39200,"station_id":"ce4bhr92rcd13ifvqhrg","pricing_plan_id":"cebpf4jnsgd1na2vs0mg"},{"bike_id":"80d0dc12-38c8-45ef-836c-c94cde9765d6","system_id":"levelo_inurba_marseille","lat":43.28266,"lon":5.35082,"is_reserved":false,"is_disabled":false,"rental_uris":{"android":"levelo://app?vid=80d0dc12-38c8-45ef-836c-c94cde9765d6","ios":"levelo://app?vid=80d0dc12-38c8-45ef-836c-c94cde9765d6"},"vehicle_type_id":"4","last_reported":1737033350,"current_range_meters":38800,"station_id":"ce4bhbp2rcd13ifvqerg","pricing_plan_id":"cebpf4jnsgd1na2vs0mg"},{"bike_id":"d7fd1c9f-75b2-4e9c-adfe-6b1226379d73","system_id":"levelo_inurba_marseille","lat":43.29851,"lon":5.3627,"is_reserved":false,"is_disabled":false,"rental_uris":{"android":"levelo://app?vid=d7fd1c9f-75b2-4e9c-adfe-6b1226379d73","ios":"levelo://app?vid=d7fd1c9f-75b2-4e9c-adfe-6b1226379d73"},"vehicle_type_id":"4","last_reported":1737033350,"current_range_meters":35600,"station_id":"ce4bgpp2rcd13ifvqc3g","pricing_plan_id":"cebpf4jnsgd1na2vs0mg"},{"bike_id":"b583689d-4b3b-4fec-a4c3-0358dd755494","system_id":"levelo_inurba_marseille","lat":43.26688,"lon":5.38265,"is_reserved":false,"is_disabled":false,"rental_uris":{"android":"levelo://app?vid=b583689d-4b3b-4fec-a4c3-0358dd755494","ios":"levelo://app?vid=b583689d-4b3b-4fec-a4c3-0358dd755494"},"vehicle_type_id":"4","last_reported":1737033350,"current_range_meters":37600,"station_id":"ce4bhg92rcd13ifvqf90","pricing_plan_id":"cebpf4jnsgd1na2vs0mg"},{"bike_id":"6a2a3d0d-bfa4-4d6a-8e19-ce012e477071","system_id":"levelo_inurba_marseille","lat":43.29043,"lon":5.37561,"is_reserved":false,"is_disabled":true,"rental_uris":{"android":"levelo://app?vid=6a2a3d0d-bfa4-4d6a-8e19-ce012e477071","ios":"levelo://app?vid=6a2a3d0d-bfa4-4d6a-8e19-ce012e477071"},"vehicle_type_id":"4","last_reported":1737033350,"current_range_meters":400,"station_id":"ce4bh692rcd13ifvqe90","pricing_plan_id":"cebpf4jnsgd1na2vs0mg"},{"bike_id":"438f588d-887b-4833-9d0c-b148dae69cd6","system_id":"levelo_inurba_marseille","lat":43.29792,"lon":5.38102,"is_reserved":false,"is_disabled":false,"rental_uris":{"android":"levelo://app?vid=438f588d-887b-4833-9d0c-b148dae69cd6","ios":"levelo://app?vid=438f588d-887b-4833-9d0c-b148dae69cd6"},"vehicle_type_id":"4","last_reported":1737033350,"current_range_meters":3600,"station_id":"ce4bgip2rcd13ifvqbb0","pricing_plan_id":"cebpf4jnsgd1na2vs0mg"},{"bike_id":"03c89c13-0ec7-4a1c-a716-72ad83f27566","system_id":"levelo_inurba_marseille","lat":43.28271,"lon":5.35065,"is_reserved":false,"is_disabled":false,"rental_uris":{"android":"levelo://app?vid=03c89c13-0ec7-4a1c-a716-72ad83f27566","ios":"levelo://app?vid=03c89c13-0ec7-4a1c-a716-72ad83f27566"},"vehicle_type_id":"4","last_reported":1737033350,"current_range_meters":27200,"station_id":"ce4bhbp2rcd13ifvqerg","pricing_plan_id":"cebpf4jnsgd1na2vs0mg"},{"bike_id":"5d42a98e-bef8-43af-946e-751274f82d4c","system_id":"levelo_inurba_marseille","lat":43.2366,"lon":5.43585,"is_reserved":false,"is_disabled":true,"rental_uris":{"android":"levelo://app?vid=5d42a98e-bef8-43af-946e-751274f82d4c","ios":"levelo://app?vid=5d42a98e-bef8-43af-946e-751274f82d4c"},"vehicle_type_id":"4","last_reported":1737033350,"current_range_meters":32000,"station_id":"","pricing_plan_id":"cebpf4jnsgd1na2vs0mg"},{"bike_id":"6bb0c2df-6198-4645-b80a-340391eb447c","system_id":"levelo_inurba_marseille","lat":43.2816,"lon":5.4264,"is_reserved":false,"is_disabled":false,"rental_uris":{"android":"levelo://app?vid=6bb0c2df-6198-4645-b80a-340391eb447c","ios":"levelo://app?vid=6bb0c2df-6198-4645-b80a-340391eb447c"},"vehicle_type_id":"4","last_reported":1737033350,"current_range_meters":30000,"station_id":"ce4bhnh2rcd13ifvqgug","pricing_plan_id":"cebpf4jnsgd1na2vs0mg"},{"bike_id":"6c02ae22-4e33-4b73-a0d5-7fa499611cc2","system_id":"levelo_inurba_marseille","lat":43.23159,"lon":5.437,"is_reserved":false,"is_disabled":false,"rental_uris":{"android":"levelo://app?vid=6c02ae22-4e33-4b73-a0d5-7fa499611cc2","ios":"levelo://app?vid=6c02ae22-4e33-4b73-a0d5-7fa499611cc2"},"vehicle_type_id":"4","last_reported":1737033350,"current_range_meters":34800,"station_id":"ce4bhmp2rcd13ifvqgog","pricing_plan_id":"cebpf4jnsgd1na2vs0mg"},{"bike_id":"f3000f12-d78d-46d5-99ca-8a4e13f94f9e","system_id":"levelo_inurba_marseille","lat":43.25505,"lon":5.37652,"is_reserved":false,"is_disabled":false,"rental_uris":{"android":"levelo://app?vid=f3000f12-d78d-46d5-99ca-8a4e13f94f9e","ios":"levelo://app?vid=f3000f12-d78d-46d5-99ca-8a4e13f94f9e"},"vehicle_type_id":"4","last_reported":1737033350,"current_range_meters":39200,"station_id":"ce4bhh12rcd13ifvqff0","pricing_plan_id":"cebpf4jnsgd1na2vs0mg"},{"bike_id":"6df388d1-acb4-4a60-9041-5ac07b54f585","system_id":"levelo_inurba_marseille","lat":43.28143,"lon":5.42633,"is_reserved":false,"is_disabled":false,"rental_uris":{"android":"levelo://app?vid=6df388d1-acb4-4a60-9041-5ac07b54f585","ios":"levelo://app?vid=6df388d1-acb4-4a60-9041-5ac07b54f585"},"vehicle_type_id":"4","last_reported":1737033350,"current_range_meters":29600,"station_id":"ce4bhnh2rcd13ifvqgug","pricing_plan_id":"cebpf4jnsgd1na2vs0mg"},{"bike_id":"6003524c-18e4-4d25-8fc7-903f93c12173","system_id":"levelo_inurba_marseille","lat":43.30133,"lon":5.38783,"is_reserved":false,"is_disabled":true,"rental_uris":{"android":"levelo://app?vid=6003524c-18e4-4d25-8fc7-903f93c12173","ios":"levelo://app?vid=6003524c-18e4-4d25-8fc7-903f93c12173"},"vehicle_type_id":"4","last_reported":1737033350,"current_range_meters":38400,"station_id":"ce4bghh2rcd13ifvqb60","pricing_plan_id":"cebpf4jnsgd1na2vs0mg"},{"bike_id":"3c829ba9-82ee-418e-a1c3-587bd580bd51","system_id":"levelo_inurba_marseille","lat":43.30947,"lon":5.39038,"is_reserved":false,"is_disabled":false,"rental_uris":{"android":"levelo://app?vid=3c829ba9-82ee-418e-a1c3-587bd580bd51","ios":"levelo://app?vid=3c829ba9-82ee-418e-a1c3-587bd580bd51"},"vehicle_type_id":"4","last_reported":1737033350,"current_range_meters":26000,"station_id":"ce4bgup2rcd13ifvqco0","pricing_plan_id":"cebpf4jnsgd1na2vs0mg"},{"bike_id":"632c9af1-3635-46ec-b2bb-88770d84f2d5","system_id":"levelo_inurba_marseille","lat":43.2953,"lon":5.37498,"is_reserved":false,"is_disabled":false,"rental_uris":{"android":"levelo://app?vid=632c9af1-3635-46ec-b2bb-88770d84f2d5","ios":"levelo://app?vid=632c9af1-3635-46ec-b2bb-88770d84f2d5"},"vehicle_type_id":"4","last_reported":1737033350,"current_range_meters":20000,"station_id":"ce4bgkp2rcd13ifvqbmg","pricing_plan_id":"cebpf4jnsgd1na2vs0mg"},{"bike_id":"e21a33db-4ff7-44b2-a73f-b5c05a38c476","system_id":"levelo_inurba_marseille","lat":43.2548,"lon":5.37643,"is_reserved":false,"is_disabled":false,"rental_uris":{"android":"levelo://app?vid=e21a33db-4ff7-44b2-a73f-b5c05a38c476","ios":"levelo://app?vid=e21a33db-4ff7-44b2-a73f-b5c05a38c476"},"vehicle_type_id":"4","last_reported":1737033350,"current_range_meters":38400,"station_id":"ce4bhh12rcd13ifvqff0","pricing_plan_id":"cebpf4jnsgd1na2vs0mg"},{"bike_id":"b6cc3290-8d97-4a09-b52c-61d9cb4c3b4e","system_id":"levelo_inurba_marseille","lat":43.305443,"lon":5.366942,"is_reserved":false,"is_disabled":false,"rental_uris":{"android":"levelo://app?vid=b6cc3290-8d97-4a09-b52c-61d9cb4c3b4e","ios":"levelo://app?vid=b6cc3290-8d97-4a09-b52c-61d9cb4c3b4e"},"vehicle_type_id":"4","last_reported":1737033350,"current_range_meters":32400,"station_id":"ce4bgrp2rcd13ifvqc9g","pricing_plan_id":"cebpf4jnsgd1na2vs0mg"},{"bike_id":"d2ab3ac4-7fc0-4a78-bd78-741e641132f0","system_id":"levelo_inurba_marseille","lat":43.30347,"lon":5.39095,"is_reserved":false,"is_disabled":true,"rental_uris":{"android":"levelo://app?vid=d2ab3ac4-7fc0-4a78-bd78-741e641132f0","ios":"levelo://app?vid=d2ab3ac4-7fc0-4a78-bd78-741e641132f0"},"vehicle_type_id":"4","last_reported":1737033350,"current_range_meters":3200,"station_id":"ce4bgkh2rcd13ifvqbk0","pricing_plan_id":"cebpf4jnsgd1na2vs0mg"},{"bike_id":"a2377af6-4171-4b2d-9e96-4a024809e70b","system_id":"levelo_inurba_marseille","lat":43.30146,"lon":5.3879,"is_reserved":false,"is_disabled":false,"rental_uris":{"android":"levelo://app?vid=a2377af6-4171-4b2d-9e96-4a024809e70b","ios":"levelo://app?vid=a2377af6-4171-4b2d-9e96-4a024809e70b"},"vehicle_type_id":"4","last_reported":1737033350,"current_range_meters":20000,"station_id":"ce4bghh2rcd13ifvqb60","pricing_plan_id":"cebpf4jnsgd1na2vs0mg"},{"bike_id":"1fce4c09-0e85-4861-9a2d-847a57b9f183","system_id":"levelo_inurba_marseille","lat":43.29864,"lon":5.39739,"is_reserved":false,"is_disabled":false,"rental_uris":{"android":"levelo://app?vid=1fce4c09-0e85-4861-9a2d-847a57b9f183","ios":"levelo://app?vid=1fce4c09-0e85-4861-9a2d-847a57b9f183"},"vehicle_type_id":"4","last_reported":1737033350,"current_range_meters":22800,"station_id":"ce4bh0h2rcd13ifvqd50","pricing_plan_id":"cebpf4jnsgd1na2vs0mg"},{"bike_id":"156a9fdf-8149-4eeb-9781-4cbd14e78d4b","system_id":"levelo_inurba_marseille","lat":43.29904,"lon":5.38146,"is_reserved":false,"is_disabled":false,"rental_uris":{"android":"levelo://app?vid=156a9fdf-8149-4eeb-9781-4cbd14e78d4b","ios":"levelo://app?vid=156a9fdf-8149-4eeb-9781-4cbd14e78d4b"},"vehicle_type_id":"4","last_reported":1737033350,"current_range_meters":30400,"station_id":"ce4bgj12rcd13ifvqbc0","pricing_plan_id":"cebpf4jnsgd1na2vs0mg"},{"bike_id":"b66c8a7c-98ac-480c-a383-f54813a2d5aa","system_id":"levelo_inurba_marseille","lat":43.25821,"lon":5.39429,"is_reserved":false,"is_disabled":false,"rental_uris":{"android":"levelo://app?vid=b66c8a7c-98ac-480c-a383-f54813a2d5aa","ios":"levelo://app?vid=b66c8a7c-98ac-480c-a383-f54813a2d5aa"},"vehicle_type_id":"4","last_reported":1737033350,"current_range_meters":38800,"station_id":"ce4bhip2rcd13ifvqft0","pricing_plan_id":"cebpf4jnsgd1na2vs0mg"},{"bike_id":"e17b6980-3f7c-4d79-b8d3-f4bf7717c3e6","system_id":"levelo_inurba_marseille","lat":43.24686,"lon":5.38167,"is_reserved":false,"is_disabled":false,"rental_uris":{"android":"levelo://app?vid=e17b6980-3f7c-4d79-b8d3-f4bf7717c3e6","ios":"levelo://app?vid=e17b6980-3f7c-4d79-b8d3-f4bf7717c3e6"},"vehicle_type_id":"4","last_reported":1737033350,"current_range_meters":22800,"station_id":"ce4bhih2rcd13ifvqfr0","pricing_plan_id":"cebpf4jnsgd1na2vs0mg"},{"bike_id":"ccfe53f0-8dfd-4f5f-b4c7-b77b106d12b3","system_id":"levelo_inurba_marseille","lat":43.24681,"lon":5.38155,"is_reserved":false,"is_disabled":false,"rental_uris":{"android":"levelo://app?vid=ccfe53f0-8dfd-4f5f-b4c7-b77b106d12b3","ios":"levelo://app?vid=ccfe53f0-8dfd-4f5f-b4c7-b77b106d12b3"},"vehicle_type_id":"4","last_reported":1737033350,"current_range_meters":38800,"station_id":"ce4bhih2rcd13ifvqfr0","pricing_plan_id":"cebpf4jnsgd1na2vs0mg"},{"bike_id":"402bdbf7-d2b0-469e-b237-60398de2332a","system_id":"levelo_inurba_marseille","lat":43.265577,"lon":5.389967,"is_reserved":false,"is_disabled":false,"rental_uris":{"android":"levelo://app?vid=402bdbf7-d2b0-469e-b237-60398de2332a","ios":"levelo://app?vid=402bdbf7-d2b0-469e-b237-60398de2332a"},"vehicle_type_id":"4","last_reported":1737033350,"current_range_meters":24000,"station_id":"ce4bhe12rcd13ifvqf30","pricing_plan_id":"cebpf4jnsgd1na2vs0mg"},{"bike_id":"98c7f46d-51b5-4520-b1da-5976f39fe891","system_id":"levelo_inurba_marseille","lat":43.22932,"lon":5.35384,"is_reserved":false,"is_disabled":false,"rental_uris":{"android":"levelo://app?vid=98c7f46d-51b5-4520-b1da-5976f39fe891","ios":"levelo://app?vid=98c7f46d-51b5-4520-b1da-5976f39fe891"},"vehicle_type_id":"4","last_reported":1737033350,"current_range_meters":22000,"station_id":"cpo3532slgdg3j2ikp40","pricing_plan_id":"cebpf4jnsgd1na2vs0mg"},{"bike_id":"44721705-52d0-4eba-b0b2-b41ea9586411","system_id":"levelo_inurba_marseille","lat":43.23205,"lon":5.35558,"is_reserved":false,"is_disabled":false,"rental_uris":{"android":"levelo://app?vid=44721705-52d0-4eba-b0b2-b41ea9586411","ios":"levelo://app?vid=44721705-52d0-4eba-b0b2-b41ea9586411"},"vehicle_type_id":"4","last_reported":1737033350,"current_range_meters":34000,"station_id":"ce4bhu92rcd13ifvqi70","pricing_plan_id":"cebpf4jnsgd1na2vs0mg"},{"bike_id":"24170ccc-3bf5-420f-8934-aaa38745f2ac","system_id":"levelo_inurba_marseille","lat":43.27497,"lon":5.42448,"is_reserved":false,"is_disabled":true,"rental_uris":{"android":"levelo://app?vid=24170ccc-3bf5-420f-8934-aaa38745f2ac","ios":"levelo://app?vid=24170ccc-3bf5-420f-8934-aaa38745f2ac"},"vehicle_type_id":"4","last_reported":1737033350,"current_range_meters":0,"station_id":"ce4bhn92rcd13ifvqgrg","pricing_plan_id":"cebpf4jnsgd1na2vs0mg"},{"bike_id":"52323900-e2c9-407e-bca3-3def80be9ad8","system_id":"levelo_inurba_marseille","lat":43.29919,"lon":5.37491,"is_reserved":false,"is_disabled":false,"rental_uris":{"android":"levelo://app?vid=52323900-e2c9-407e-bca3-3def80be9ad8","ios":"levelo://app?vid=52323900-e2c9-407e-bca3-3def80be9ad8"},"vehicle_type_id":"4","last_reported":1737033350,"current_range_meters":38400,"station_id":"ce4bgjh2rcd13ifvqbg0","pricing_plan_id":"cebpf4jnsgd1na2vs0mg"},{"bike_id":"f7bd4922-7c42-42bd-8a32-7c0f4c6b8a89","system_id":"levelo_inurba_marseille","lat":43.29424,"lon":5.39771,"is_reserved":false,"is_disabled":false,"rental_uris":{"android":"levelo://app?vid=f7bd4922-7c42-42bd-8a32-7c0f4c6b8a89","ios":"levelo://app?vid=f7bd4922-7c42-42bd-8a32-7c0f4c6b8a89"},"vehicle_type_id":"4","last_reported":1737033350,"current_range_meters":15200,"station_id":"ce4bh3h2rcd13ifvqdo0","pricing_plan_id":"cebpf4jnsgd1na2vs0mg"},{"bike_id":"3986197e-b069-496c-885c-6257250cbbbd","system_id":"levelo_inurba_marseille","lat":43.29966,"lon":5.37173,"is_reserved":false,"is_disabled":false,"rental_uris":{"android":"levelo://app?vid=3986197e-b069-496c-885c-6257250cbbbd","ios":"levelo://app?vid=3986197e-b069-496c-885c-6257250cbbbd"},"vehicle_type_id":"4","last_reported":1737033350,"current_range_meters":39200,"station_id":"ce4bgr92rcd13ifvqc7g","pricing_plan_id":"cebpf4jnsgd1na2vs0mg"},{"bike_id":"5565ba63-8c08-4156-ad24-a446e77f076d","system_id":"levelo_inurba_marseille","lat":43.25515,"lon":5.37675,"is_reserved":false,"is_disabled":false,"rental_uris":{"android":"levelo://app?vid=5565ba63-8c08-4156-ad24-a446e77f076d","ios":"levelo://app?vid=5565ba63-8c08-4156-ad24-a446e77f076d"},"vehicle_type_id":"4","last_reported":1737033350,"current_range_meters":35200,"station_id":"ce4bhh12rcd13ifvqff0","pricing_plan_id":"cebpf4jnsgd1na2vs0mg"},{"bike_id":"27371fc3-88d5-40e0-8fcb-13c0dd889d55","system_id":"levelo_inurba_marseille","lat":43.25821,"lon":5.39433,"is_reserved":false,"is_disabled":false,"rental_uris":{"android":"levelo://app?vid=27371fc3-88d5-40e0-8fcb-13c0dd889d55","ios":"levelo://app?vid=27371fc3-88d5-40e0-8fcb-13c0dd889d55"},"vehicle_type_id":"4","last_reported":1737033350,"current_range_meters":25200,"station_id":"ce4bhip2rcd13ifvqft0","pricing_plan_id":"cebpf4jnsgd1na2vs0mg"},{"bike_id":"e1f9a0b5-1419-4e67-ab24-a72ee45dfd85","system_id":"levelo_inurba_marseille","lat":43.241714,"lon":5.364006,"is_reserved":false,"is_disabled":false,"rental_uris":{"android":"levelo://app?vid=e1f9a0b5-1419-4e67-ab24-a72ee45dfd85","ios":"levelo://app?vid=e1f9a0b5-1419-4e67-ab24-a72ee45dfd85"},"vehicle_type_id":"4","last_reported":1737033350,"current_range_meters":21600,"station_id":"cpo36qri1sfpv3e86is0","pricing_plan_id":"cebpf4jnsgd1na2vs0mg"},{"bike_id":"431d951d-cbca-4f00-a5ab-f322d98c990f","system_id":"levelo_inurba_marseille","lat":43.28148,"lon":5.42641,"is_reserved":false,"is_disabled":false,"rental_uris":{"android":"levelo://app?vid=431d951d-cbca-4f00-a5ab-f322d98c990f","ios":"levelo://app?vid=431d951d-cbca-4f00-a5ab-f322d98c990f"},"vehicle_type_id":"4","last_reported":1737033350,"current_range_meters":16800,"station_id":"ce4bhnh2rcd13ifvqgug","pricing_plan_id":"cebpf4jnsgd1na2vs0mg"},{"bike_id":"93bc7e9d-3047-482e-a396-1037e95fe874","system_id":"levelo_inurba_marseille","lat":43.32292,"lon":5.38309,"is_reserved":false,"is_disabled":false,"rental_uris":{"android":"levelo://app?vid=93bc7e9d-3047-482e-a396-1037e95fe874","ios":"levelo://app?vid=93bc7e9d-3047-482e-a396-1037e95fe874"},"vehicle_type_id":"4","last_reported":1737033350,"current_range_meters":17600,"station_id":"ce4bhr12rcd13ifvqhqg","pricing_plan_id":"cebpf4jnsgd1na2vs0mg"},{"bike_id":"dffd8210-d54c-47c5-a74e-f04210f7d2e4","system_id":"levelo_inurba_marseille","lat":43.30807,"lon":5.38142,"is_reserved":false,"is_disabled":false,"rental_uris":{"android":"levelo://app?vid=dffd8210-d54c-47c5-a74e-f04210f7d2e4","ios":"levelo://app?vid=dffd8210-d54c-47c5-a74e-f04210f7d2e4"},"vehicle_type_id":"4","last_reported":1737033350,"current_range_meters":23200,"station_id":"ce4bgt12rcd13ifvqce0","pricing_plan_id":"cebpf4jnsgd1na2vs0mg"},{"bike_id":"f7a93299-4b31-44c2-976e-82f7878bc418","system_id":"levelo_inurba_marseille","lat":43.255,"lon":5.37653,"is_reserved":false,"is_disabled":false,"rental_uris":{"android":"levelo://app?vid=f7a93299-4b31-44c2-976e-82f7878bc418","ios":"levelo://app?vid=f7a93299-4b31-44c2-976e-82f7878bc418"},"vehicle_type_id":"4","last_reported":1737033350,"current_range_meters":39200,"station_id":"ce4bhh12rcd13ifvqff0","pricing_plan_id":"cebpf4jnsgd1na2vs0mg"},{"bike_id":"12dfef43-cc85-4f60-9f7c-981b9eb2266d","system_id":"levelo_inurba_marseille","lat":43.29857,"lon":5.36287,"is_reserved":false,"is_disabled":false,"rental_uris":{"android":"levelo://app?vid=12dfef43-cc85-4f60-9f7c-981b9eb2266d","ios":"levelo://app?vid=12dfef43-cc85-4f60-9f7c-981b9eb2266d"},"vehicle_type_id":"4","last_reported":1737033350,"current_range_meters":24000,"station_id":"ce4bgpp2rcd13ifvqc3g","pricing_plan_id":"cebpf4jnsgd1na2vs0mg"},{"bike_id":"31f00ed0-b0ca-427a-9039-ac29c940ea2c","system_id":"levelo_inurba_marseille","lat":43.231943,"lon":5.355507,"is_reserved":false,"is_disabled":false,"rental_uris":{"android":"levelo://app?vid=31f00ed0-b0ca-427a-9039-ac29c940ea2c","ios":"levelo://app?vid=31f00ed0-b0ca-427a-9039-ac29c940ea2c"},"vehicle_type_id":"4","last_reported":1737033350,"current_range_meters":19200,"station_id":"ce4bhu92rcd13ifvqi70","pricing_plan_id":"cebpf4jnsgd1na2vs0mg"},{"bike_id":"b9e9bf62-a018-4837-8f66-b1a6dd28308f","system_id":"levelo_inurba_marseille","lat":43.29188,"lon":5.39325,"is_reserved":false,"is_disabled":false,"rental_uris":{"android":"levelo://app?vid=b9e9bf62-a018-4837-8f66-b1a6dd28308f","ios":"levelo://app?vid=b9e9bf62-a018-4837-8f66-b1a6dd28308f"},"vehicle_type_id":"4","last_reported":1737033350,"current_range_meters":27200,"station_id":"ce4bh192rcd13ifvqdd0","pricing_plan_id":"cebpf4jnsgd1na2vs0mg"},{"bike_id":"8ccdb8e3-5350-4cab-8a81-1bd6181a6c06","system_id":"levelo_inurba_marseille","lat":43.23215,"lon":5.35577,"is_reserved":false,"is_disabled":false,"rental_uris":{"android":"levelo://app?vid=8ccdb8e3-5350-4cab-8a81-1bd6181a6c06","ios":"levelo://app?vid=8ccdb8e3-5350-4cab-8a81-1bd6181a6c06"},"vehicle_type_id":"4","last_reported":1737033350,"current_range_meters":30000,"station_id":"ce4bhu92rcd13ifvqi70","pricing_plan_id":"cebpf4jnsgd1na2vs0mg"},{"bike_id":"481dc877-f116-42ef-854c-605d03cb6d5f","system_id":"levelo_inurba_marseille","lat":43.2586,"lon":5.39925,"is_reserved":false,"is_disabled":false,"rental_uris":{"android":"levelo://app?vid=481dc877-f116-42ef-854c-605d03cb6d5f","ios":"levelo://app?vid=481dc877-f116-42ef-854c-605d03cb6d5f"},"vehicle_type_id":"4","last_reported":1737033350,"current_range_meters":22000,"station_id":"ce4bhl92rcd13ifvqghg","pricing_plan_id":"cebpf4jnsgd1na2vs0mg"},{"bike_id":"debf1d68-8b1d-4b6b-9d17-2e6033da6eb8","system_id":"levelo_inurba_marseille","lat":43.33773,"lon":5.37431,"is_reserved":false,"is_disabled":false,"rental_uris":{"android":"levelo://app?vid=debf1d68-8b1d-4b6b-9d17-2e6033da6eb8","ios":"levelo://app?vid=debf1d68-8b1d-4b6b-9d17-2e6033da6eb8"},"vehicle_type_id":"4","last_reported":1737033350,"current_range_meters":38400,"station_id":"","pricing_plan_id":"cebpf4jnsgd1na2vs0mg"},{"bike_id":"500b8658-baf5-4bce-b6fe-d831d0682564","system_id":"levelo_inurba_marseille","lat":43.29631,"lon":5.37177,"is_reserved":false,"is_disabled":false,"rental_uris":{"android":"levelo://app?vid=500b8658-baf5-4bce-b6fe-d831d0682564","ios":"levelo://app?vid=500b8658-baf5-4bce-b6fe-d831d0682564"},"vehicle_type_id":"4","last_reported":1737033350,"current_range_meters":39200,"station_id":"ce4bgnh2rcd13ifvqc0g","pricing_plan_id":"cebpf4jnsgd1na2vs0mg"},{"bike_id":"cf87d7bf-f54c-4b0a-8e3c-2d939f30d535","system_id":"levelo_inurba_marseille","lat":43.34146,"lon":5.40903,"is_reserved":false,"is_disabled":false,"rental_uris":{"android":"levelo://app?vid=cf87d7bf-f54c-4b0a-8e3c-2d939f30d535","ios":"levelo://app?vid=cf87d7bf-f54c-4b0a-8e3c-2d939f30d535"},"vehicle_type_id":"4","last_reported":1737033350,"current_range_meters":35200,"station_id":"ce4bhqh2rcd13ifvqhlg","pricing_plan_id":"cebpf4jnsgd1na2vs0mg"},{"bike_id":"f5863b18-13a1-4c6e-92de-5668ea912ad3","system_id":"levelo_inurba_marseille","lat":43.26218,"lon":5.40444,"is_reserved":false,"is_disabled":false,"rental_uris":{"android":"levelo://app?vid=f5863b18-13a1-4c6e-92de-5668ea912ad3","ios":"levelo://app?vid=f5863b18-13a1-4c6e-92de-5668ea912ad3"},"vehicle_type_id":"4","last_reported":1737033350,"current_range_meters":2800,"station_id":"","pricing_plan_id":"cebpf4jnsgd1na2vs0mg"},{"bike_id":"abe4203e-96a8-4930-b1a0-40826fcb66cc","system_id":"levelo_inurba_marseille","lat":43.3013,"lon":5.39875,"is_reserved":false,"is_disabled":false,"rental_uris":{"android":"levelo://app?vid=abe4203e-96a8-4930-b1a0-40826fcb66cc","ios":"levelo://app?vid=abe4203e-96a8-4930-b1a0-40826fcb66cc"},"vehicle_type_id":"4","last_reported":1737033350,"current_range_meters":38000,"station_id":"ce4bh0h2rcd13ifvqd40","pricing_plan_id":"cebpf4jnsgd1na2vs0mg"},{"bike_id":"a8fad254-19bb-48fe-801d-9e93d4767cef","system_id":"levelo_inurba_marseille","lat":43.31448,"lon":5.37396,"is_reserved":false,"is_disabled":false,"rental_uris":{"android":"levelo://app?vid=a8fad254-19bb-48fe-801d-9e93d4767cef","ios":"levelo://app?vid=a8fad254-19bb-48fe-801d-9e93d4767cef"},"vehicle_type_id":"4","last_reported":1737033350,"current_range_meters":3200,"station_id":"","pricing_plan_id":"cebpf4jnsgd1na2vs0mg"},{"bike_id":"95a70787-da43-4a90-8971-d090331fb546","system_id":"levelo_inurba_marseille","lat":43.25118,"lon":5.40317,"is_reserved":false,"is_disabled":false,"rental_uris":{"android":"levelo://app?vid=95a70787-da43-4a90-8971-d090331fb546","ios":"levelo://app?vid=95a70787-da43-4a90-8971-d090331fb546"},"vehicle_type_id":"4","last_reported":1737033350,"current_range_meters":28000,"station_id":"ce4bhlh2rcd13ifvqgig","pricing_plan_id":"cebpf4jnsgd1na2vs0mg"},{"bike_id":"1e8963bf-a6ac-4652-9f38-178a774a00d3","system_id":"levelo_inurba_marseille","lat":43.30949,"lon":5.39037,"is_reserved":false,"is_disabled":false,"rental_uris":{"android":"levelo://app?vid=1e8963bf-a6ac-4652-9f38-178a774a00d3","ios":"levelo://app?vid=1e8963bf-a6ac-4652-9f38-178a774a00d3"},"vehicle_type_id":"4","last_reported":1737033350,"current_range_meters":17200,"station_id":"ce4bgup2rcd13ifvqco0","pricing_plan_id":"cebpf4jnsgd1na2vs0mg"},{"bike_id":"6d7035bc-03fb-481d-bb1e-5df61a4e2711","system_id":"levelo_inurba_marseille","lat":43.25505,"lon":5.37651,"is_reserved":false,"is_disabled":false,"rental_uris":{"android":"levelo://app?vid=6d7035bc-03fb-481d-bb1e-5df61a4e2711","ios":"levelo://app?vid=6d7035bc-03fb-481d-bb1e-5df61a4e2711"},"vehicle_type_id":"4","last_reported":1737033350,"current_range_meters":38800,"station_id":"ce4bhh12rcd13ifvqff0","pricing_plan_id":"cebpf4jnsgd1na2vs0mg"},{"bike_id":"f3d52f82-c3f1-4ed6-8af9-cacd9761d357","system_id":"levelo_inurba_marseille","lat":43.28705,"lon":5.37932,"is_reserved":false,"is_disabled":false,"rental_uris":{"android":"levelo://app?vid=f3d52f82-c3f1-4ed6-8af9-cacd9761d357","ios":"levelo://app?vid=f3d52f82-c3f1-4ed6-8af9-cacd9761d357"},"vehicle_type_id":"4","last_reported":1737033350,"current_range_meters":33600,"station_id":"ce4bh9p2rcd13ifvqec0","pricing_plan_id":"cebpf4jnsgd1na2vs0mg"},{"bike_id":"80bf514c-322f-4475-8056-7acb68ad1b7e","system_id":"levelo_inurba_marseille","lat":43.337444,"lon":5.374475,"is_reserved":false,"is_disabled":false,"rental_uris":{"android":"levelo://app?vid=80bf514c-322f-4475-8056-7acb68ad1b7e","ios":"levelo://app?vid=80bf514c-322f-4475-8056-7acb68ad1b7e"},"vehicle_type_id":"4","last_reported":1737033350,"current_range_meters":24000,"station_id":"ce4bh192rcd13ifvqdb0","pricing_plan_id":"cebpf4jnsgd1na2vs0mg"},{"bike_id":"3ffc89e6-d6b1-4188-ad9d-7d61643c4df8","system_id":"levelo_inurba_marseille","lat":43.27177,"lon":5.39172,"is_reserved":false,"is_disabled":false,"rental_uris":{"android":"levelo://app?vid=3ffc89e6-d6b1-4188-ad9d-7d61643c4df8","ios":"levelo://app?vid=3ffc89e6-d6b1-4188-ad9d-7d61643c4df8"},"vehicle_type_id":"4","last_reported":1737033350,"current_range_meters":33600,"station_id":"ce4bhhp2rcd13ifvqfm0","pricing_plan_id":"cebpf4jnsgd1na2vs0mg"},{"bike_id":"664fd4be-eccb-4fde-90f1-7a06089bc07b","system_id":"levelo_inurba_marseille","lat":43.24073,"lon":5.37761,"is_reserved":false,"is_disabled":false,"rental_uris":{"android":"levelo://app?vid=664fd4be-eccb-4fde-90f1-7a06089bc07b","ios":"levelo://app?vid=664fd4be-eccb-4fde-90f1-7a06089bc07b"},"vehicle_type_id":"4","last_reported":1737033350,"current_range_meters":13600,"station_id":"ce4bhnp2rcd13ifvqgvg","pricing_plan_id":"cebpf4jnsgd1na2vs0mg"},{"bike_id":"d4b19251-a9f8-4ac6-a09a-3cfae34a181f","system_id":"levelo_inurba_marseille","lat":43.30433,"lon":5.39761,"is_reserved":false,"is_disabled":false,"rental_uris":{"android":"levelo://app?vid=d4b19251-a9f8-4ac6-a09a-3cfae34a181f","ios":"levelo://app?vid=d4b19251-a9f8-4ac6-a09a-3cfae34a181f"},"vehicle_type_id":"4","last_reported":1737033350,"current_range_meters":38400,"station_id":"ce4bh092rcd13ifvqd20","pricing_plan_id":"cebpf4jnsgd1na2vs0mg"},{"bike_id":"c02f3110-d68d-4d2f-8bc9-cc86e7b1be21","system_id":"levelo_inurba_marseille","lat":43.29626,"lon":5.37151,"is_reserved":false,"is_disabled":true,"rental_uris":{"android":"levelo://app?vid=c02f3110-d68d-4d2f-8bc9-cc86e7b1be21","ios":"levelo://app?vid=c02f3110-d68d-4d2f-8bc9-cc86e7b1be21"},"vehicle_type_id":"4","last_reported":1737033350,"current_range_meters":38800,"station_id":"ce4bgnh2rcd13ifvqc0g","pricing_plan_id":"cebpf4jnsgd1na2vs0mg"},{"bike_id":"bd44338e-669f-4fc2-8a7b-73cfd1a6f604","system_id":"levelo_inurba_marseille","lat":43.29011,"lon":5.35615,"is_reserved":false,"is_disabled":false,"rental_uris":{"android":"levelo://app?vid=bd44338e-669f-4fc2-8a7b-73cfd1a6f604","ios":"levelo://app?vid=bd44338e-669f-4fc2-8a7b-73cfd1a6f604"},"vehicle_type_id":"4","last_reported":1737033350,"current_range_meters":38400,"station_id":"ce4bhb92rcd13ifvqen0","pricing_plan_id":"cebpf4jnsgd1na2vs0mg"},{"bike_id":"496855c3-3eb8-477d-9b8f-de7c3bb29859","system_id":"levelo_inurba_marseille","lat":43.27313,"lon":5.39083,"is_reserved":false,"is_disabled":false,"rental_uris":{"android":"levelo://app?vid=496855c3-3eb8-477d-9b8f-de7c3bb29859","ios":"levelo://app?vid=496855c3-3eb8-477d-9b8f-de7c3bb29859"},"vehicle_type_id":"4","last_reported":1737033350,"current_range_meters":37600,"station_id":"ce4bhgp2rcd13ifvqfe0","pricing_plan_id":"cebpf4jnsgd1na2vs0mg"},{"bike_id":"9ef13a90-02fa-48dd-a2f3-c213b64b1322","system_id":"levelo_inurba_marseille","lat":43.24062,"lon":5.37764,"is_reserved":false,"is_disabled":true,"rental_uris":{"android":"levelo://app?vid=9ef13a90-02fa-48dd-a2f3-c213b64b1322","ios":"levelo://app?vid=9ef13a90-02fa-48dd-a2f3-c213b64b1322"},"vehicle_type_id":"4","last_reported":1737033350,"current_range_meters":2000,"station_id":"ce4bhnp2rcd13ifvqgvg","pricing_plan_id":"cebpf4jnsgd1na2vs0mg"},{"bike_id":"74a6e790-fcc4-40d3-8e18-079250b24035","system_id":"levelo_inurba_marseille","lat":43.30587,"lon":5.39355,"is_reserved":false,"is_disabled":false,"rental_uris":{"android":"levelo://app?vid=74a6e790-fcc4-40d3-8e18-079250b24035","ios":"levelo://app?vid=74a6e790-fcc4-40d3-8e18-079250b24035"},"vehicle_type_id":"4","last_reported":1737033350,"current_range_meters":29600,"station_id":"ce4bh0p2rcd13ifvqd80","pricing_plan_id":"cebpf4jnsgd1na2vs0mg"},{"bike_id":"b43b6075-66ce-471b-867b-6be5340c6bb8","system_id":"levelo_inurba_marseille","lat":43.2964,"lon":5.40619,"is_reserved":false,"is_disabled":false,"rental_uris":{"android":"levelo://app?vid=b43b6075-66ce-471b-867b-6be5340c6bb8","ios":"levelo://app?vid=b43b6075-66ce-471b-867b-6be5340c6bb8"},"vehicle_type_id":"4","last_reported":1737033350,"current_range_meters":14400,"station_id":"ce4bh0h2rcd13ifvqd60","pricing_plan_id":"cebpf4jnsgd1na2vs0mg"},{"bike_id":"2d72bbd9-ad22-4193-9e3e-1826cb532c67","system_id":"levelo_inurba_marseille","lat":43.33729,"lon":5.39203,"is_reserved":false,"is_disabled":false,"rental_uris":{"android":"levelo://app?vid=2d72bbd9-ad22-4193-9e3e-1826cb532c67","ios":"levelo://app?vid=2d72bbd9-ad22-4193-9e3e-1826cb532c67"},"vehicle_type_id":"4","last_reported":1737033350,"current_range_meters":38800,"station_id":"ce4bhr92rcd13ifvqhsg","pricing_plan_id":"cebpf4jnsgd1na2vs0mg"},{"bike_id":"31a2f2b4-75b5-4b88-9256-df87dadf8654","system_id":"levelo_inurba_marseille","lat":43.29532,"lon":5.37491,"is_reserved":false,"is_disabled":false,"rental_uris":{"android":"levelo://app?vid=31a2f2b4-75b5-4b88-9256-df87dadf8654","ios":"levelo://app?vid=31a2f2b4-75b5-4b88-9256-df87dadf8654"},"vehicle_type_id":"4","last_reported":1737033350,"current_range_meters":36800,"station_id":"ce4bgkp2rcd13ifvqbmg","pricing_plan_id":"cebpf4jnsgd1na2vs0mg"},{"bike_id":"1b436798-0faa-4c56-9af2-31ededf700e8","system_id":"levelo_inurba_marseille","lat":43.29966,"lon":5.38758,"is_reserved":false,"is_disabled":false,"rental_uris":{"android":"levelo://app?vid=1b436798-0faa-4c56-9af2-31ededf700e8","ios":"levelo://app?vid=1b436798-0faa-4c56-9af2-31ededf700e8"},"vehicle_type_id":"4","last_reported":1737033350,"current_range_meters":3600,"station_id":"","pricing_plan_id":"cebpf4jnsgd1na2vs0mg"},{"bike_id":"7aaf2a77-790e-45b8-b2c4-ee771812a148","system_id":"levelo_inurba_marseille","lat":43.27216,"lon":5.39159,"is_reserved":false,"is_disabled":false,"rental_uris":{"android":"levelo://app?vid=7aaf2a77-790e-45b8-b2c4-ee771812a148","ios":"levelo://app?vid=7aaf2a77-790e-45b8-b2c4-ee771812a148"},"vehicle_type_id":"4","last_reported":1737033350,"current_range_meters":38800,"station_id":"ce4bhhp2rcd13ifvqfm0","pricing_plan_id":"cebpf4jnsgd1na2vs0mg"},{"bike_id":"b9ccc5d7-22bc-4f6c-a8ae-9d5886a0a1b7","system_id":"levelo_inurba_marseille","lat":43.25932,"lon":5.40905,"is_reserved":false,"is_disabled":false,"rental_uris":{"android":"levelo://app?vid=b9ccc5d7-22bc-4f6c-a8ae-9d5886a0a1b7","ios":"levelo://app?vid=b9ccc5d7-22bc-4f6c-a8ae-9d5886a0a1b7"},"vehicle_type_id":"4","last_reported":1737033350,"current_range_meters":16400,"station_id":"ce4bhm92rcd13ifvqglg","pricing_plan_id":"cebpf4jnsgd1na2vs0mg"},{"bike_id":"0fc6d91e-7999-48ab-a5ae-fe1c1d962765","system_id":"levelo_inurba_marseille","lat":43.27612,"lon":5.36119,"is_reserved":false,"is_disabled":false,"rental_uris":{"android":"levelo://app?vid=0fc6d91e-7999-48ab-a5ae-fe1c1d962765","ios":"levelo://app?vid=0fc6d91e-7999-48ab-a5ae-fe1c1d962765"},"vehicle_type_id":"4","last_reported":1737033350,"current_range_meters":38800,"station_id":"ce4bgj92rcd13ifvqbe0","pricing_plan_id":"cebpf4jnsgd1na2vs0mg"},{"bike_id":"8e32d0c6-df7c-4036-b142-1871a4674bba","system_id":"levelo_inurba_marseille","lat":43.32366,"lon":5.38893,"is_reserved":false,"is_disabled":false,"rental_uris":{"android":"levelo://app?vid=8e32d0c6-df7c-4036-b142-1871a4674bba","ios":"levelo://app?vid=8e32d0c6-df7c-4036-b142-1871a4674bba"},"vehicle_type_id":"4","last_reported":1737033350,"current_range_meters":19600,"station_id":"ce4bhqp2rcd13ifvqhog","pricing_plan_id":"cebpf4jnsgd1na2vs0mg"},{"bike_id":"de7a3373-349a-4ac5-8838-ec8fa2f36ccf","system_id":"levelo_inurba_marseille","lat":43.309553,"lon":5.39038,"is_reserved":false,"is_disabled":false,"rental_uris":{"android":"levelo://app?vid=de7a3373-349a-4ac5-8838-ec8fa2f36ccf","ios":"levelo://app?vid=de7a3373-349a-4ac5-8838-ec8fa2f36ccf"},"vehicle_type_id":"4","last_reported":1737033350,"current_range_meters":16400,"station_id":"ce4bgup2rcd13ifvqco0","pricing_plan_id":"cebpf4jnsgd1na2vs0mg"},{"bike_id":"7318ae33-a019-4980-969e-aafd6c1cf710","system_id":"levelo_inurba_marseille","lat":43.2988,"lon":5.38915,"is_reserved":false,"is_disabled":false,"rental_uris":{"android":"levelo://app?vid=7318ae33-a019-4980-969e-aafd6c1cf710","ios":"levelo://app?vid=7318ae33-a019-4980-969e-aafd6c1cf710"},"vehicle_type_id":"4","last_reported":1737033350,"current_range_meters":34000,"station_id":"ce4bh392rcd13ifvqdl0","pricing_plan_id":"cebpf4jnsgd1na2vs0mg"},{"bike_id":"2abf12b0-06cd-4e03-bbda-b8872a0c0a21","system_id":"levelo_inurba_marseille","lat":43.26944,"lon":5.3862,"is_reserved":false,"is_disabled":false,"rental_uris":{"android":"levelo://app?vid=2abf12b0-06cd-4e03-bbda-b8872a0c0a21","ios":"levelo://app?vid=2abf12b0-06cd-4e03-bbda-b8872a0c0a21"},"vehicle_type_id":"4","last_reported":1737033350,"current_range_meters":39200,"station_id":"ce4bhh92rcd13ifvqfh0","pricing_plan_id":"cebpf4jnsgd1na2vs0mg"},