{"last_updated":1742591326,"ttl":60,"version":"2.2","data":{"bikes":[{"bike_id":"5fa43231-e63c-4e20-9b69-e53f24eed317","system_id":"levelo_inurba_marseille","lat":43.24649,"lon":5.38899,"is_reserved":false,"is_disabled":true,"rental_uris":{"android":"levelo://app?vid=5fa43231-e63c-4e20-9b69-e53f24eed317","ios":"levelo://app?vid=5fa43231-e63c-4e20-9b69-e53f24eed317"},"vehicle_type_id":"4","last_reported":1742591326,"current_range_meters":2800,"station_id":"ce4bhg12rcd13ifvqf60","pricing_plan_id":"cebpf4jnsgd1na2vs0mg"},{"bike_id":"5d28bce7-ab1a-4e8b-ae70-12e427a81793","system_id":"levelo_inurba_marseille","lat":43.24158,"lon":5.36402,"is_reserved":false,"is_disabled":true,"rental_uris":{"android":"levelo://app?vid=5d28bce7-ab1a-4e8b-ae70-12e427a81793","ios":"levelo://app?vid=5d28bce7-ab1a-4e8b-ae70-12e427a81793"},"vehicle_type_id":"4","last_reported":1742591326,"current_range_meters":2800,"station_id":"cpo36qri1sfpv3e86is0","pricing_plan_id":"cebpf4jnsgd1na2vs0mg"},{"bike_id":"916a0248-4ca6-4546-95d4-a5ed97a83eb5","system_id":"levelo_inurba_marseille","lat":43.29053,"lon":5.37018,"is_reserved":false,"is_disabled":false,"rental_uris":{"android":"levelo://app?vid=916a0248-4ca6-4546-95d4-a5ed97a83eb5","ios":"levelo://app?vid=916a0248-4ca6-4546-95d4-a5ed97a83eb5"},"vehicle_type_id":"4","last_reported":1742591326,"current_range_meters":3200,"station_id":"","pricing_plan_id":"cebpf4jnsgd1na2vs0mg"},{"bike_id":"85e51a2a-070c-44ac-80eb-b460bf792e27","system_id":"levelo_inurba_marseille","lat":43.3089,"lon":5.39641,"is_reserved":false,"is_disabled":false,"rental_uris":{"android":"levelo://app?vid=85e51a2a-070c-44ac-80eb-b460bf792e27","ios":"levelo://app?vid=85e51a2a-070c-44ac-80eb-b460bf792e27"},"vehicle_type_id":"4","last_reported":1742591326,"current_range_meters":3200,"station_id":"ce4bh012rcd13ifvqcv0","pricing_plan_id":"cebpf4jnsgd1na2vs0mg"},{"bike_id":"1ee00db3-a2de-405b-b75a-708fda0b556a","system_id":"levelo_inurba_marseille","lat":43.30932,"lon":5.40136,"is_reserved":false,"is_disabled":false,"rental_uris":{"android":"levelo://app?vid=1ee00db3-a2de-405b-b75a-708fda0b556a","ios":"levelo://app?vid=1ee00db3-a2de-405b-b75a-708fda0b556a"},"vehicle_type_id":"4","last_reported":1742591326,"current_range_meters":3200,"station_id":"ce4bgvp2rcd13ifvqct0","pricing_plan_id":"cebpf4jnsgd1na2vs0mg"},{"bike_id":"dff3b81e-8d16-4bfe-abe5-a5b793783284","system_id":"levelo_inurba_marseille","lat":43.31341,"lon":5.39676,"is_reserved":false,"is_disabled":false,"rental_uris":{"android":"levelo://app?vid=dff3b81e-8d16-4bfe-abe5-a5b793783284","ios":"levelo://app?vid=dff3b81e-8d16-4bfe-abe5-a5b793783284"},"vehicle_type_id":"4","last_reported":1742591326,"current_range_meters":3200,"station_id":"ce4bgvp2rcd13ifvqcu0","pricing_plan_id":"cebpf4jnsgd1na2vs0mg"},{"bike_id":"38fa863a-91a2-44eb-b718-19af02253b65","system_id":"levelo_inurba_marseille","lat":43.26941,"lon":5.40265,"is_reserved":false,"is_disabled":true,"rental_uris":{"android":"levelo://app?vid=38fa863a-91a2-44eb-b718-19af02253b65","ios":"levelo://app?vid=38fa863a-91a2-44eb-b718-19af02253b65"},"vehicle_type_id":"4","last_reported":1742591326,"current_range_meters":3200,"station_id":"cjm6bp8fraef2m0cb0m0","pricing_plan_id":"cebpf4jnsgd1na2vs0mg"},{"bike_id":"19937469-d5a6-4563-9f23-a0bfff2754e8","system_id":"levelo_inurba_marseille","lat":43.30947,"lon":5.3903,"is_reserved":false,"is_disabled":false,"rental_uris":{"android":"levelo://app?vid=19937469-d5a6-4563-9f23-a0bfff2754e8","ios":"levelo://app?vid=19937469-d5a6-4563-9f23-a0bfff2754e8"},"vehicle_type_id":"4","last_reported":1742591326,"current_range_meters":3200,"station_id":"ce4bgup2rcd13ifvqco0","pricing_plan_id":"cebpf4jnsgd1na2vs0mg"},{"bike_id":"628fefc0-c71d-4844-8f82-26651c57ef18","system_id":"levelo_inurba_marseille","lat":43.30892,"lon":5.39636,"is_reserved":false,"is_disabled":false,"rental_uris":{"android":"levelo://app?vid=628fefc0-c71d-4844-8f82-26651c57ef18","ios":"levelo://app?vid=628fefc0-c71d-4844-8f82-26651c57ef18"},"vehicle_type_id":"4","last_reported":1742591326,"current_range_meters":4400,"station_id":"ce4bh012rcd13ifvqcv0","pricing_plan_id":"cebpf4jnsgd1na2vs0mg"},{"bike_id":"91161f6e-9a29-4e40-bdf3-1d905f1c5eaf","system_id":"levelo_inurba_marseille","lat":43.32673,"lon":5.40975,"is_reserved":false,"is_disabled":false,"rental_uris":{"android":"levelo://app?vid=91161f6e-9a29-4e40-bdf3-1d905f1c5eaf","ios":"levelo://app?vid=91161f6e-9a29-4e40-bdf3-1d905f1c5eaf"},"vehicle_type_id":"4","last_reported":1742591326,"current_range_meters":4800,"station_id":"ce4bhpp2rcd13ifvqhgg","pricing_plan_id":"cebpf4jnsgd1na2vs0mg"},{"bike_id":"b266faba-4e26-4c50-b078-a54d17773ddd","system_id":"levelo_inurba_marseille","lat":43.24541,"lon":5.39525,"is_reserved":false,"is_disabled":false,"rental_uris":{"android":"levelo://app?vid=b266faba-4e26-4c50-b078-a54d17773ddd","ios":"levelo://app?vid=b266faba-4e26-4c50-b078-a54d17773ddd"},"vehicle_type_id":"4","last_reported":1742591326,"current_range_meters":5600,"station_id":"ce4bhlp2rcd13ifvqgjg","pricing_plan_id":"cebpf4jnsgd1na2vs0mg"},{"bike_id":"17cf9dff-5308-49d4-8479-c0b2be020768","system_id":"levelo_inurba_marseille","lat":43.27818,"lon":5.40697,"is_reserved":false,"is_disabled":false,"rental_uris":{"android":"levelo://app?vid=17cf9dff-5308-49d4-8479-c0b2be020768","ios":"levelo://app?vid=17cf9dff-5308-49d4-8479-c0b2be020768"},"vehicle_type_id":"4","last_reported":1742591326,"current_range_meters":5600,"station_id":"ce4bhnh2rcd13ifvqgtg","pricing_plan_id":"cebpf4jnsgd1na2vs0mg"},{"bike_id":"b9e4bdd0-024c-4547-9a94-39d0c7923642","system_id":"levelo_inurba_marseille","lat":43.2417,"lon":5.36397,"is_reserved":false,"is_disabled":false,"rental_uris":{"android":"levelo://app?vid=b9e4bdd0-024c-4547-9a94-39d0c7923642","ios":"levelo://app?vid=b9e4bdd0-024c-4547-9a94-39d0c7923642"},"vehicle_type_id":"4","last_reported":1742591326,"current_range_meters":5600,"station_id":"cpo36qri1sfpv3e86is0","pricing_plan_id":"cebpf4jnsgd1na2vs0mg"},{"bike_id":"7cf77dac-5ea3-4338-8755-0f32e12bd56b","system_id":"levelo_inurba_marseille","lat":43.2898,"lon":5.37847,"is_reserved":false,"is_disabled":false,"rental_uris":{"android":"levelo://app?vid=7cf77dac-5ea3-4338-8755-0f32e12bd56b","ios":"levelo://app?vid=7cf77dac-5ea3-4338-8755-0f32e12bd56b"},"vehicle_type_id":"4","last_reported":1742591326,"current_range_meters":6000,"station_id":"ce4bh9p2rcd13ifvqed0","pricing_plan_id":"cebpf4jnsgd1na2vs0mg"},{"bike_id":"67b812a4-0945-4bb2-be9f-9732e9615d08","system_id":"levelo_inurba_marseille","lat":43.32364,"lon":5.38887,"is_reserved":false,"is_disabled":false,"rental_uris":{"android":"levelo://app?vid=67b812a4-0945-4bb2-be9f-9732e9615d08","ios":"levelo://app?vid=67b812a4-0945-4bb2-be9f-9732e9615d08"},"vehicle_type_id":"4","last_reported":1742591326,"current_range_meters":6000,"station_id":"ce4bhqp2rcd13ifvqhog","pricing_plan_id":"cebpf4jnsgd1na2vs0mg"},{"bike_id":"3347b3b5-5021-4048-a5c7-44173ddb1a3b","system_id":"levelo_inurba_marseille","lat":43.3092,"lon":5.39615,"is_reserved":false,"is_disabled":false,"rental_uris":{"android":"levelo://app?vid=3347b3b5-5021-4048-a5c7-44173ddb1a3b","ios":"levelo://app?vid=3347b3b5-5021-4048-a5c7-44173ddb1a3b"},"vehicle_type_id":"4","last_reported":1742591326,"current_range_meters":6000,"station_id":"ce4bh012rcd13ifvqcv0","pricing_plan_id":"cebpf4jnsgd1na2vs0mg"},{"bike_id":"1464a903-a11a-448a-9a87-e10526b28969","system_id":"levelo_inurba_marseille","lat":43.30559,"lon":5.36549,"is_reserved":false,"is_disabled":false,"rental_uris":{"android":"levelo://app?vid=1464a903-a11a-448a-9a87-e10526b28969","ios":"levelo://app?vid=1464a903-a11a-448a-9a87-e10526b28969"},"vehicle_type_id":"4","last_reported":1742591326,"current_range_meters":6000,"station_id":"ce4bgs12rcd13ifvqcag","pricing_plan_id":"cebpf4jnsgd1na2vs0mg"},{"bike_id":"1bb93a8f-b158-4722-a0a5-d7d909368045","system_id":"levelo_inurba_marseille","lat":43.23966,"lon":5.36617,"is_reserved":false,"is_disabled":false,"rental_uris":{"android":"levelo://app?vid=1bb93a8f-b158-4722-a0a5-d7d909368045","ios":"levelo://app?vid=1bb93a8f-b158-4722-a0a5-d7d909368045"},"vehicle_type_id":"4","last_reported":1742591326,"current_range_meters":6000,"station_id":"ce4bhi12rcd13ifvqfp0","pricing_plan_id":"cebpf4jnsgd1na2vs0mg"},{"bike_id":"c5bb5dca-1dc9-450e-9a3d-9fa737cf345d","system_id":"levelo_inurba_marseille","lat":43.24649,"lon":5.38878,"is_reserved":false,"is_disabled":false,"rental_uris":{"android":"levelo://app?vid=c5bb5dca-1dc9-450e-9a3d-9fa737cf345d","ios":"levelo://app?vid=c5bb5dca-1dc9-450e-9a3d-9fa737cf345d"},"vehicle_type_id":"4","last_reported":1742591326,"current_range_meters":6000,"station_id":"ce4bhg12rcd13ifvqf60","pricing_plan_id":"cebpf4jnsgd1na2vs0mg"},{"bike_id":"89118a19-3b0e-435d-8cb3-6ec0853a9b66","system_id":"levelo_inurba_marseille","lat":43.28609,"lon":5.3511,"is_reserved":false,"is_disabled":false,"rental_uris":{"android":"levelo://app?vid=89118a19-3b0e-435d-8cb3-6ec0853a9b66","ios":"levelo://app?vid=89118a19-3b0e-435d-8cb3-6ec0853a9b66"},"vehicle_type_id":"4","last_reported":1742591326,"current_range_meters":6400,"station_id":"ce4bhch2rcd13ifvqeug","pricing_plan_id":"cebpf4jnsgd1na2vs0mg"},{"bike_id":"eab7a7c9-6866-4b70-a5d5-9630fb0729c1","system_id":"levelo_inurba_marseille","lat":43.28002,"lon":5.41651,"is_reserved":false,"is_disabled":false,"rental_uris":{"android":"levelo://app?vid=eab7a7c9-6866-4b70-a5d5-9630fb0729c1","ios":"levelo://app?vid=eab7a7c9-6866-4b70-a5d5-9630fb0729c1"},"vehicle_type_id":"4","last_reported":1742591326,"current_range_meters":6400,"station_id":"ce4bho12rcd13ifvqh1g","pricing_plan_id":"cebpf4jnsgd1na2vs0mg"},{"bike_id":"fd87eab3-6dd6-4660-91cd-04d2e7effdd0","system_id":"levelo_inurba_marseille","lat":43.2795,"lon":5.4104,"is_reserved":false,"is_disabled":false,"rental_uris":{"android":"levelo://app?vid=fd87eab3-6dd6-4660-91cd-04d2e7effdd0","ios":"levelo://app?vid=fd87eab3-6dd6-4660-91cd-04d2e7effdd0"},"vehicle_type_id":"4","last_reported":1742591326,"current_range_meters":6400,"station_id":"ce4bhnp2rcd13ifvqh0g","pricing_plan_id":"cebpf4jnsgd1na2vs0mg"},{"bike_id":"c2b69246-ab46-4e64-b18d-3cf9672163dd","system_id":"levelo_inurba_marseille","lat":43.25828,"lon":5.39428,"is_reserved":false,"is_disabled":false,"rental_uris":{"android":"levelo://app?vid=c2b69246-ab46-4e64-b18d-3cf9672163dd","ios":"levelo://app?vid=c2b69246-ab46-4e64-b18d-3cf9672163dd"},"vehicle_type_id":"4","last_reported":1742591326,"current_range_meters":6400,"station_id":"ce4bhip2rcd13ifvqft0","pricing_plan_id":"cebpf4jnsgd1na2vs0mg"},{"bike_id":"fc770a78-36d5-4d10-b464-bdca57edc7e7","system_id":"levelo_inurba_marseille","lat":43.31219,"lon":5.36885,"is_reserved":false,"is_disabled":false,"rental_uris":{"android":"levelo://app?vid=fc770a78-36d5-4d10-b464-bdca57edc7e7","ios":"levelo://app?vid=fc770a78-36d5-4d10-b464-bdca57edc7e7"},"vehicle_type_id":"4","last_reported":1742591326,"current_range_meters":6400,"station_id":"ce4bgl92rcd13ifvqbq0","pricing_plan_id":"cebpf4jnsgd1na2vs0mg"},{"bike_id":"1d8daad7-9bb4-40dd-adfc-e589f483368c","system_id":"levelo_inurba_marseille","lat":43.25818,"lon":5.39437,"is_reserved":false,"is_disabled":false,"rental_uris":{"android":"levelo://app?vid=1d8daad7-9bb4-40dd-adfc-e589f483368c","ios":"levelo://app?vid=1d8daad7-9bb4-40dd-adfc-e589f483368c"},"vehicle_type_id":"4","last_reported":1742591326,"current_range_meters":6800,"station_id":"ce4bhip2rcd13ifvqft0","pricing_plan_id":"cebpf4jnsgd1na2vs0mg"},{"bike_id":"4cbc815f-81cb-4b3f-a536-29e8befb1fe3","system_id":"levelo_inurba_marseille","lat":43.24998,"lon":5.3893,"is_reserved":false,"is_disabled":false,"rental_uris":{"android":"levelo://app?vid=4cbc815f-81cb-4b3f-a536-29e8befb1fe3","ios":"levelo://app?vid=4cbc815f-81cb-4b3f-a536-29e8befb1fe3"},"vehicle_type_id":"4","last_reported":1742591326,"current_range_meters":6800,"station_id":"ce4bhgp2rcd13ifvqfd0","pricing_plan_id":"cebpf4jnsgd1na2vs0mg"},{"bike_id":"af0dd9ac-7466-4151-a052-abde29cf9b49","system_id":"levelo_inurba_marseille","lat":43.23185,"lon":5.35563,"is_reserved":false,"is_disabled":false,"rental_uris":{"android":"levelo://app?vid=af0dd9ac-7466-4151-a052-abde29cf9b49","ios":"levelo://app?vid=af0dd9ac-7466-4151-a052-abde29cf9b49"},"vehicle_type_id":"4","last_reported":1742591326,"current_range_meters":6800,"station_id":"ce4bhu92rcd13ifvqi70","pricing_plan_id":"cebpf4jnsgd1na2vs0mg"},{"bike_id":"eb7d88b0-98fc-4cff-9d54-8b75e5bfb5c8","system_id":"levelo_inurba_marseille","lat":43.2943,"lon":5.38603,"is_reserved":false,"is_disabled":false,"rental_uris":{"android":"levelo://app?vid=eb7d88b0-98fc-4cff-9d54-8b75e5bfb5c8","ios":"levelo://app?vid=eb7d88b0-98fc-4cff-9d54-8b75e5bfb5c8"},"vehicle_type_id":"4","last_reported":1742591326,"current_range_meters":6800,"station_id":"ce4bh2h2rcd13ifvqdh0","pricing_plan_id":"cebpf4jnsgd1na2vs0mg"},{"bike_id":"46e325e1-4b70-4630-bfdc-9758fa69893c","system_id":"levelo_inurba_marseille","lat":43.2816,"lon":5.42645,"is_reserved":false,"is_disabled":false,"rental_uris":{"android":"levelo://app?vid=46e325e1-4b70-4630-bfdc-9758fa69893c","ios":"levelo://app?vid=46e325e1-4b70-4630-bfdc-9758fa69893c"},"vehicle_type_id":"4","last_reported":1742591326,"current_range_meters":6800,"station_id":"ce4bhnh2rcd13ifvqgug","pricing_plan_id":"cebpf4jnsgd1na2vs0mg"},{"bike_id":"0cc44c87-17fe-499c-977d-487d85dc253c","system_id":"levelo_inurba_marseille","lat":43.30887,"lon":5.39641,"is_reserved":false,"is_disabled":false,"rental_uris":{"android":"levelo://app?vid=0cc44c87-17fe-499c-977d-487d85dc253c","ios":"levelo://app?vid=0cc44c87-17fe-499c-977d-487d85dc253c"},"vehicle_type_id":"4","last_reported":1742591326,"current_range_meters":6800,"station_id":"ce4bh012rcd13ifvqcv0","pricing_plan_id":"cebpf4jnsgd1na2vs0mg"},{"bike_id":"6e70d4bb-208b-4417-8e25-d6981998048a","system_id":"levelo_inurba_marseille","lat":43.27999,"lon":5.4001,"is_reserved":false,"is_disabled":false,"rental_uris":{"android":"levelo://app?vid=6e70d4bb-208b-4417-8e25-d6981998048a","ios":"levelo://app?vid=6e70d4bb-208b-4417-8e25-d6981998048a"},"vehicle_type_id":"4","last_reported":1742591326,"current_range_meters":6800,"station_id":"ce4bho92rcd13ifvqh4g","pricing_plan_id":"cebpf4jnsgd1na2vs0mg"},{"bike_id":"2d86cf0c-8220-4a0c-a77e-5b4210ae7f59","system_id":"levelo_inurba_marseille","lat":43.30465,"lon":5.3716,"is_reserved":false,"is_disabled":false,"rental_uris":{"android":"levelo://app?vid=2d86cf0c-8220-4a0c-a77e-5b4210ae7f59","ios":"levelo://app?vid=2d86cf0c-8220-4a0c-a77e-5b4210ae7f59"},"vehicle_type_id":"4","last_reported":1742591326,"current_range_meters":6800,"station_id":"","pricing_plan_id":"cebpf4jnsgd1na2vs0mg"},{"bike_id":"1c4034bf-01f3-461c-886c-378fcd960c34","system_id":"levelo_inurba_marseille","lat":43.29942,"lon":5.36508,"is_reserved":false,"is_disabled":false,"rental_uris":{"android":"levelo://app?vid=1c4034bf-01f3-461c-886c-378fcd960c34","ios":"levelo://app?vid=1c4034bf-01f3-461c-886c-378fcd960c34"},"vehicle_type_id":"4","last_reported":1742591326,"current_range_meters":7200,"station_id":"ce4bgm92rcd13ifvqbr0","pricing_plan_id":"cebpf4jnsgd1na2vs0mg"},{"bike_id":"490f24fb-19fa-45d1-aeb1-cf2283f14534","system_id":"levelo_inurba_marseille","lat":43.30571,"lon":5.3721,"is_reserved":false,"is_disabled":false,"rental_uris":{"android":"levelo://app?vid=490f24fb-19fa-45d1-aeb1-cf2283f14534","ios":"levelo://app?vid=490f24fb-19fa-45d1-aeb1-cf2283f14534"},"vehicle_type_id":"4","last_reported":1742591326,"current_range_meters":7200,"station_id":"ce4bgqh2rcd13ifvqc4g","pricing_plan_id":"cebpf4jnsgd1na2vs0mg"},{"bike_id":"62bf2f5c-9819-4816-afad-4a268d7a76b8","system_id":"levelo_inurba_marseille","lat":43.24169,"lon":5.364,"is_reserved":false,"is_disabled":false,"rental_uris":{"android":"levelo://app?vid=62bf2f5c-9819-4816-afad-4a268d7a76b8","ios":"levelo://app?vid=62bf2f5c-9819-4816-afad-4a268d7a76b8"},"vehicle_type_id":"4","last_reported":1742591326,"current_range_meters":7200,"station_id":"cpo36qri1sfpv3e86is0","pricing_plan_id":"cebpf4jnsgd1na2vs0mg"},{"bike_id":"10f964bb-ba61-4112-84e2-b2243c167188","system_id":"levelo_inurba_marseille","lat":43.27319,"lon":5.39069,"is_reserved":false,"is_disabled":false,"rental_uris":{"android":"levelo://app?vid=10f964bb-ba61-4112-84e2-b2243c167188","ios":"levelo://app?vid=10f964bb-ba61-4112-84e2-b2243c167188"},"vehicle_type_id":"4","last_reported":1742591326,"current_range_meters":7200,"station_id":"ce4bhgp2rcd13ifvqfe0","pricing_plan_id":"cebpf4jnsgd1na2vs0mg"},{"bike_id":"2678929a-312d-4089-b116-1e816de7db90","system_id":"levelo_inurba_marseille","lat":43.32128,"lon":5.36767,"is_reserved":false,"is_disabled":false,"rental_uris":{"android":"levelo://app?vid=2678929a-312d-4089-b116-1e816de7db90","ios":"levelo://app?vid=2678929a-312d-4089-b116-1e816de7db90"},"vehicle_type_id":"4","last_reported":1742591326,"current_range_meters":7200,"station_id":"ce4bhrh2rcd13ifvqhug","pricing_plan_id":"cebpf4jnsgd1na2vs0mg"},{"bike_id":"99d4f2a7-22a3-4802-bbca-4667960daf47","system_id":"levelo_inurba_marseille","lat":43.24676,"lon":5.38147,"is_reserved":false,"is_disabled":false,"rental_uris":{"android":"levelo://app?vid=99d4f2a7-22a3-4802-bbca-4667960daf47","ios":"levelo://app?vid=99d4f2a7-22a3-4802-bbca-4667960daf47"},"vehicle_type_id":"4","last_reported":1742591326,"current_range_meters":7200,"station_id":"ce4bhih2rcd13ifvqfr0","pricing_plan_id":"cebpf4jnsgd1na2vs0mg"},{"bike_id":"922b096d-666d-4ce7-a176-6f001bc6c56e","system_id":"levelo_inurba_marseille","lat":43.32075,"lon":5.41521,"is_reserved":false,"is_disabled":false,"rental_uris":{"android":"levelo://app?vid=922b096d-666d-4ce7-a176-6f001bc6c56e","ios":"levelo://app?vid=922b096d-666d-4ce7-a176-6f001bc6c56e"},"vehicle_type_id":"4","last_reported":1742591326,"current_range_meters":7200,"station_id":"ce4bhq92rcd13ifvqhkg","pricing_plan_id":"cebpf4jnsgd1na2vs0mg"},{"bike_id":"a58c2fbb-7215-4bf2-9820-9ff01d3306c9","system_id":"levelo_inurba_marseille","lat":43.29572,"lon":5.37526,"is_reserved":false,"is_disabled":false,"rental_uris":{"android":"levelo://app?vid=a58c2fbb-7215-4bf2-9820-9ff01d3306c9","ios":"levelo://app?vid=a58c2fbb-7215-4bf2-9820-9ff01d3306c9"},"vehicle_type_id":"4","last_reported":1742591326,"current_range_meters":7200,"station_id":"ce4bgh92rcd13ifvqb50","pricing_plan_id":"cebpf4jnsgd1na2vs0mg"},{"bike_id":"46a6916f-e4f0-4b64-b772-88f06138a936","system_id":"levelo_inurba_marseille","lat":43.29416,"lon":5.38627,"is_reserved":false,"is_disabled":false,"rental_uris":{"android":"levelo://app?vid=46a6916f-e4f0-4b64-b772-88f06138a936","ios":"levelo://app?vid=46a6916f-e4f0-4b64-b772-88f06138a936"},"vehicle_type_id":"4","last_reported":1742591326,"current_range_meters":7200,"station_id":"ce4bh2h2rcd13ifvqdh0","pricing_plan_id":"cebpf4jnsgd1na2vs0mg"},{"bike_id":"801a4cea-70de-4c6d-b3fc-f3760232a8f2","system_id":"levelo_inurba_marseille","lat":43.29541,"lon":5.38538,"is_reserved":false,"is_disabled":false,"rental_uris":{"android":"levelo://app?vid=801a4cea-70de-4c6d-b3fc-f3760232a8f2","ios":"levelo://app?vid=801a4cea-70de-4c6d-b3fc-f3760232a8f2"},"vehicle_type_id":"4","last_reported":1742591326,"current_range_meters":7200,"station_id":"ce4bgih2rcd13ifvqba0","pricing_plan_id":"cebpf4jnsgd1na2vs0mg"},{"bike_id":"cb936b04-8701-44bf-b5c7-71b236ac384b","system_id":"levelo_inurba_marseille","lat":43.298962,"lon":5.388903,"is_reserved":false,"is_disabled":false,"rental_uris":{"android":"levelo://app?vid=cb936b04-8701-44bf-b5c7-71b236ac384b","ios":"levelo://app?vid=cb936b04-8701-44bf-b5c7-71b236ac384b"},"vehicle_type_id":"4","last_reported":1742591326,"current_range_meters":7200,"station_id":"ce4bh392rcd13ifvqdl0","pricing_plan_id":"cebpf4jnsgd1na2vs0mg"},{"bike_id":"9fa01f43-b8d2-4d94-82dc-9c39c2ca8d4e","system_id":"levelo_inurba_marseille","lat":43.29274,"lon":5.40123,"is_reserved":false,"is_disabled":false,"rental_uris":{"android":"levelo://app?vid=9fa01f43-b8d2-4d94-82dc-9c39c2ca8d4e","ios":"levelo://app?vid=9fa01f43-b8d2-4d94-82dc-9c39c2ca8d4e"},"vehicle_type_id":"4","last_reported":1742591326,"current_range_meters":7200,"station_id":"ce4bh312rcd13ifvqdk0","pricing_plan_id":"cebpf4jnsgd1na2vs0mg"},{"bike_id":"1c3b5361-695c-4ccc-94f9-aca7f37b6d45","system_id":"levelo_inurba_marseille","lat":43.23187,"lon":5.35557,"is_reserved":false,"is_disabled":false,"rental_uris":{"android":"levelo://app?vid=1c3b5361-695c-4ccc-94f9-aca7f37b6d45","ios":"levelo://app?vid=1c3b5361-695c-4ccc-94f9-aca7f37b6d45"},"vehicle_type_id":"4","last_reported":1742591326,"current_range_meters":8000,"station_id":"ce4bhu92rcd13ifvqi70","pricing_plan_id":"cebpf4jnsgd1na2vs0mg"},{"bike_id":"8c9fa4ba-3022-472d-a524-2b34aef0abf8","system_id":"levelo_inurba_marseille","lat":43.30008,"lon":5.37193,"is_reserved":false,"is_disabled":true,"rental_uris":{"android":"levelo://app?vid=8c9fa4ba-3022-472d-a524-2b34aef0abf8","ios":"levelo://app?vid=8c9fa4ba-3022-472d-a524-2b34aef0abf8"},"vehicle_type_id":"4","last_reported":1742591326,"current_range_meters":8000,"station_id":"ce4bgr92rcd13ifvqc7g","pricing_plan_id":"cebpf4jnsgd1na2vs0mg"},{"bike_id":"b62add21-7e65-4515-8ade-47eae307b639","system_id":"levelo_inurba_marseille","lat":43.30887,"lon":5.37194,"is_reserved":false,"is_disabled":false,"rental_uris":{"android":"levelo://app?vid=b62add21-7e65-4515-8ade-47eae307b639","ios":"levelo://app?vid=b62add21-7e65-4515-8ade-47eae307b639"},"vehicle_type_id":"4","last_reported":1742591326,"current_range_meters":8000,"station_id":"ce4bguh2rcd13ifvqckg","pricing_plan_id":"cebpf4jnsgd1na2vs0mg"},{"bike_id":"cc17e95f-f87b-4221-a760-7c60902a7308","system_id":"levelo_inurba_marseille","lat":43.29527,"lon":5.38532,"is_reserved":false,"is_disabled":false,"rental_uris":{"android":"levelo://app?vid=cc17e95f-f87b-4221-a760-7c60902a7308","ios":"levelo://app?vid=cc17e95f-f87b-4221-a760-7c60902a7308"},"vehicle_type_id":"4","last_reported":1742591326,"current_range_meters":8000,"station_id":"ce4bgih2rcd13ifvqba0","pricing_plan_id":"cebpf4jnsgd1na2vs0mg"},{"bike_id":"e2a96eda-5d48-4ff7-bf55-15388c78a2fc","system_id":"levelo_inurba_marseille","lat":43.29593,"lon":5.38102,"is_reserved":false,"is_disabled":false,"rental_uris":{"android":"levelo://app?vid=e2a96eda-5d48-4ff7-bf55-15388c78a2fc","ios":"levelo://app?vid=e2a96eda-5d48-4ff7-bf55-15388c78a2fc"},"vehicle_type_id":"4","last_reported":1742591326,"current_range_meters":8000,"station_id":"ce4bgl12rcd13ifvqbo0","pricing_plan_id":"cebpf4jnsgd1na2vs0mg"},{"bike_id":"07b88f4f-1312-4f37-adb2-413142aa5a7c","system_id":"levelo_inurba_marseille","lat":43.24391,"lon":5.37054,"is_reserved":false,"is_disabled":false,"rental_uris":{"android":"levelo://app?vid=07b88f4f-1312-4f37-adb2-413142aa5a7c","ios":"levelo://app?vid=07b88f4f-1312-4f37-adb2-413142aa5a7c"},"vehicle_type_id":"4","last_reported":1742591326,"current_range_meters":8000,"station_id":"ce4bhhh2rcd13ifvqfk0","pricing_plan_id":"cebpf4jnsgd1na2vs0mg"},{"bike_id":"04237039-a7bb-42be-8d10-12705ee8100f","system_id":"levelo_inurba_marseille","lat":43.29589,"lon":5.38107,"is_reserved":false,"is_disabled":false,"rental_uris":{"android":"levelo://app?vid=04237039-a7bb-42be-8d10-12705ee8100f","ios":"levelo://app?vid=04237039-a7bb-42be-8d10-12705ee8100f"},"vehicle_type_id":"4","last_reported":1742591326,"current_range_meters":8000,"station_id":"ce4bgl12rcd13ifvqbo0","pricing_plan_id":"cebpf4jnsgd1na2vs0mg"},{"bike_id":"9fcb3f14-f368-4f79-aa70-01b27150c36b","system_id":"levelo_inurba_marseille","lat":43.30617,"lon":5.37226,"is_reserved":false,"is_disabled":false,"rental_uris":{"android":"levelo://app?vid=9fcb3f14-f368-4f79-aa70-01b27150c36b","ios":"levelo://app?vid=9fcb3f14-f368-4f79-aa70-01b27150c36b"},"vehicle_type_id":"4","last_reported":1742591326,"current_range_meters":8400,"station_id":"ce4bgqh2rcd13ifvqc4g","pricing_plan_id":"cebpf4jnsgd1na2vs0mg"},{"bike_id":"21586356-4657-4d38-a5a0-e9ea73c07dfa","system_id":"levelo_inurba_marseille","lat":43.27951,"lon":5.41045,"is_reserved":false,"is_disabled":false,"rental_uris":{"android":"levelo://app?vid=21586356-4657-4d38-a5a0-e9ea73c07dfa","ios":"levelo://app?vid=21586356-4657-4d38-a5a0-e9ea73c07dfa"},"vehicle_type_id":"4","last_reported":1742591326,"current_range_meters":8400,"station_id":"ce4bhnp2rcd13ifvqh0g","pricing_plan_id":"cebpf4jnsgd1na2vs0mg"},{"bike_id":"a67c54b6-5ce9-4632-8070-5ca7d5b7fc9e","system_id":"levelo_inurba_marseille","lat":43.2307,"lon":5.35494,"is_reserved":false,"is_disabled":false,"rental_uris":{"android":"levelo://app?vid=a67c54b6-5ce9-4632-8070-5ca7d5b7fc9e","ios":"levelo://app?vid=a67c54b6-5ce9-4632-8070-5ca7d5b7fc9e"},"vehicle_type_id":"4","last_reported":1742591326,"current_range_meters":8400,"station_id":"cpo3342slgdg3j2ifvpg","pricing_plan_id":"cebpf4jnsgd1na2vs0mg"},{"bike_id":"6f64429e-3436-4cb8-b188-d09c549fc0cd","system_id":"levelo_inurba_marseille","lat":43.27457,"lon":5.39389,"is_reserved":false,"is_disabled":false,"rental_uris":{"android":"levelo://app?vid=6f64429e-3436-4cb8-b188-d09c549fc0cd","ios":"levelo://app?vid=6f64429e-3436-4cb8-b188-d09c549fc0cd"},"vehicle_type_id":"4","last_reported":1742591326,"current_range_meters":8400,"station_id":"ce4bhdp2rcd13ifvqf20","pricing_plan_id":"cebpf4jnsgd1na2vs0mg"},{"bike_id":"f589539d-d63d-45fb-bd41-4fe66d427517","system_id":"levelo_inurba_marseille","lat":43.31072,"lon":5.38353,"is_reserved":false,"is_disabled":false,"rental_uris":{"android":"levelo://app?vid=f589539d-d63d-45fb-bd41-4fe66d427517","ios":"levelo://app?vid=f589539d-d63d-45fb-bd41-4fe66d427517"},"vehicle_type_id":"4","last_reported":1742591326,"current_range_meters":8400,"station_id":"ce4bgv92rcd13ifvqcr0","pricing_plan_id":"cebpf4jnsgd1na2vs0mg"},{"bike_id":"bedfd306-e73f-4e99-b2c8-2f79366e2603","system_id":"levelo_inurba_marseille","lat":43.29426,"lon":5.38622,"is_reserved":false,"is_disabled":false,"rental_uris":{"android":"levelo://app?vid=bedfd306-e73f-4e99-b2c8-2f79366e2603","ios":"levelo://app?vid=bedfd306-e73f-4e99-b2c8-2f79366e2603"},"vehicle_type_id":"4","last_reported":1742591326,"current_range_meters":8400,"station_id":"ce4bh2h2rcd13ifvqdh0","pricing_plan_id":"cebpf4jnsgd1na2vs0mg"},{"bike_id":"e72eb479-3d5b-4953-b4d9-d5f01306cba7","system_id":"levelo_inurba_marseille","lat":43.26809,"lon":5.40262,"is_reserved":false,"is_disabled":false,"rental_uris":{"android":"levelo://app?vid=e72eb479-3d5b-4953-b4d9-d5f01306cba7","ios":"levelo://app?vid=e72eb479-3d5b-4953-b4d9-d5f01306cba7"},"vehicle_type_id":"4","last_reported":1742591326,"current_range_meters":8400,"station_id":"ce501612rcd8frsf0b60","pricing_plan_id":"cebpf4jnsgd1na2vs0mg"},{"bike_id":"1ac43662-596f-4368-8af3-af24f5c6030d","system_id":"levelo_inurba_marseille","lat":43.33017,"lon":5.39033,"is_reserved":false,"is_disabled":false,"rental_uris":{"android":"levelo://app?vid=1ac43662-596f-4368-8af3-af24f5c6030d","ios":"levelo://app?vid=1ac43662-596f-4368-8af3-af24f5c6030d"},"vehicle_type_id":"4","last_reported":1742591326,"current_range_meters":8400,"station_id":"ce4bhr92rcd13ifvqhrg","pricing_plan_id":"cebpf4jnsgd1na2vs0mg"},{"bike_id":"fe58fa03-c570-4ccf-8a63-233ffa0075a4","system_id":"levelo_inurba_marseille","lat":43.32109,"lon":5.36766,"is_reserved":false,"is_disabled":false,"rental_uris":{"android":"levelo://app?vid=fe58fa03-c570-4ccf-8a63-233ffa0075a4","ios":"levelo://app?vid=fe58fa03-c570-4ccf-8a63-233ffa0075a4"},"vehicle_type_id":"4","last_reported":1742591326,"current_range_meters":8400,"station_id":"ce4bhrh2rcd13ifvqhug","pricing_plan_id":"cebpf4jnsgd1na2vs0mg"},{"bike_id":"9c14fb4f-316f-47fe-813a-8bc435dea8f9","system_id":"levelo_inurba_marseille","lat":43.30272,"lon":5.40051,"is_reserved":false,"is_disabled":false,"rental_uris":{"android":"levelo://app?vid=9c14fb4f-316f-47fe-813a-8bc435dea8f9","ios":"levelo://app?vid=9c14fb4f-316f-47fe-813a-8bc435dea8f9"},"vehicle_type_id":"4","last_reported":1742591326,"current_range_meters":8400,"station_id":"ce4bgvh2rcd13ifvqcs0","pricing_plan_id":"cebpf4jnsgd1na2vs0mg"},{"bike_id":"4ac2db6e-1ed6-4b62-ab60-c27dcb7b15e8","system_id":"levelo_inurba_marseille","lat":43.29028,"lon":5.38648,"is_reserved":false,"is_disabled":false,"rental_uris":{"android":"levelo://app?vid=4ac2db6e-1ed6-4b62-ab60-c27dcb7b15e8","ios":"levelo://app?vid=4ac2db6e-1ed6-4b62-ab60-c27dcb7b15e8"},"vehicle_type_id":"4","last_reported":1742591326,"current_range_meters":8800,"station_id":"ce4bh4p2rcd13ifvqe0g","pricing_plan_id":"cebpf4jnsgd1na2vs0mg"},{"bike_id":"6b9f258c-1031-4975-9128-1ece84625cf6","system_id":"levelo_inurba_marseille","lat":43.31069,"lon":5.38353,"is_reserved":false,"is_disabled":false,"rental_uris":{"android":"levelo://app?vid=6b9f258c-1031-4975-9128-1ece84625cf6","ios":"levelo://app?vid=6b9f258c-1031-4975-9128-1ece84625cf6"},"vehicle_type_id":"4","last_reported":1742591326,"current_range_meters":8800,"station_id":"ce4bgv92rcd13ifvqcr0","pricing_plan_id":"cebpf4jnsgd1na2vs0mg"},{"bike_id":"bf5d7bdb-65a8-4310-b955-6a76e2cbd7fe","system_id":"levelo_inurba_marseille","lat":43.33769,"lon":5.39178,"is_reserved":false,"is_disabled":false,"rental_uris":{"android":"levelo://app?vid=bf5d7bdb-65a8-4310-b955-6a76e2cbd7fe","ios":"levelo://app?vid=bf5d7bdb-65a8-4310-b955-6a76e2cbd7fe"},"vehicle_type_id":"4","last_reported":1742591326,"current_range_meters":8800,"station_id":"","pricing_plan_id":"cebpf4jnsgd1na2vs0mg"},{"bike_id":"8451845f-f5b6-4fe7-ba98-abf100b83efd","system_id":"levelo_inurba_marseille","lat":43.29737,"lon":5.37659,"is_reserved":false,"is_disabled":true,"rental_uris":{"android":"levelo://app?vid=8451845f-f5b6-4fe7-ba98-abf100b83efd","ios":"levelo://app?vid=8451845f-f5b6-4fe7-ba98-abf100b83efd"},"vehicle_type_id":"4","last_reported":1742591326,"current_range_meters":8800,"station_id":"ce4bgkh2rcd13ifvqbl0","pricing_plan_id":"cebpf4jnsgd1na2vs0mg"},{"bike_id":"b7600437-1519-43e2-ba90-183da53c1710","system_id":"levelo_inurba_marseille","lat":43.298798,"lon":5.401568,"is_reserved":false,"is_disabled":false,"rental_uris":{"android":"levelo://app?vid=b7600437-1519-43e2-ba90-183da53c1710","ios":"levelo://app?vid=b7600437-1519-43e2-ba90-183da53c1710"},"vehicle_type_id":"4","last_reported":1742591326,"current_range_meters":8800,"station_id":"ce4bh112rcd13ifvqda0","pricing_plan_id":"cebpf4jnsgd1na2vs0mg"},{"bike_id":"d6aff1ed-229c-4ff0-b6d9-674bc21c7e9b","system_id":"levelo_inurba_marseille","lat":43.30878,"lon":5.39647,"is_reserved":false,"is_disabled":false,"rental_uris":{"android":"levelo://app?vid=d6aff1ed-229c-4ff0-b6d9-674bc21c7e9b","ios":"levelo://app?vid=d6aff1ed-229c-4ff0-b6d9-674bc21c7e9b"},"vehicle_type_id":"4","last_reported":1742591326,"current_range_meters":8800,"station_id":"ce4bh012rcd13ifvqcv0","pricing_plan_id":"cebpf4jnsgd1na2vs0mg"},{"bike_id":"c247e2d9-bc0a-43fc-96f6-63366ce4549c","system_id":"levelo_inurba_marseille","lat":43.28441,"lon":5.39196,"is_reserved":false,"is_disabled":false,"rental_uris":{"android":"levelo://app?vid=c247e2d9-bc0a-43fc-96f6-63366ce4549c","ios":"levelo://app?vid=c247e2d9-bc0a-43fc-96f6-63366ce4549c"},"vehicle_type_id":"4","last_reported":1742591326,"current_range_meters":8800,"station_id":"ce4bhoh2rcd13ifvqh5g","pricing_plan_id":"cebpf4jnsgd1na2vs0mg"},{"bike_id":"28c070b6-831a-4ca4-96f5-53fd9f42bfa5","system_id":"levelo_inurba_marseille","lat":43.31067,"lon":5.3836,"is_reserved":false,"is_disabled":false,"rental_uris":{"android":"levelo://app?vid=28c070b6-831a-4ca4-96f5-53fd9f42bfa5","ios":"levelo://app?vid=28c070b6-831a-4ca4-96f5-53fd9f42bfa5"},"vehicle_type_id":"4","last_reported":1742591326,"current_range_meters":8800,"station_id":"ce4bgv92rcd13ifvqcr0","pricing_plan_id":"cebpf4jnsgd1na2vs0mg"},{"bike_id":"899ab87e-4ea4-40e5-9304-e09f83aad3d0","system_id":"levelo_inurba_marseille","lat":43.23963,"lon":5.36654,"is_reserved":false,"is_disabled":false,"rental_uris":{"android":"levelo://app?vid=899ab87e-4ea4-40e5-9304-e09f83aad3d0","ios":"levelo://app?vid=899ab87e-4ea4-40e5-9304-e09f83aad3d0"},"vehicle_type_id":"4","last_reported":1742591326,"current_range_meters":9200,"station_id":"ce4bhi12rcd13ifvqfp0","pricing_plan_id":"cebpf4jnsgd1na2vs0mg"},{"bike_id":"b10d06b6-8334-47a8-a4a2-7517863f6bc0","system_id":"levelo_inurba_marseille","lat":43.27838,"lon":5.40695,"is_reserved":false,"is_disabled":false,"rental_uris":{"android":"levelo://app?vid=b10d06b6-8334-47a8-a4a2-7517863f6bc0","ios":"levelo://app?vid=b10d06b6-8334-47a8-a4a2-7517863f6bc0"},"vehicle_type_id":"4","last_reported":1742591326,"current_range_meters":9200,"station_id":"ce4bhnh2rcd13ifvqgtg","pricing_plan_id":"cebpf4jnsgd1na2vs0mg"},{"bike_id":"cf055f0d-64ca-4d3b-af73-bef858b3ca22","system_id":"levelo_inurba_marseille","lat":43.29596,"lon":5.38122,"is_reserved":false,"is_disabled":false,"rental_uris":{"android":"levelo://app?vid=cf055f0d-64ca-4d3b-af73-bef858b3ca22","ios":"levelo://app?vid=cf055f0d-64ca-4d3b-af73-bef858b3ca22"},"vehicle_type_id":"4","last_reported":1742591326,"current_range_meters":9200,"station_id":"ce4bgl12rcd13ifvqbo0","pricing_plan_id":"cebpf4jnsgd1na2vs0mg"},{"bike_id":"1323d2cd-c4e0-4783-b4f1-4daaeb41faef","system_id":"levelo_inurba_marseille","lat":43.2396,"lon":5.36636,"is_reserved":false,"is_disabled":false,"rental_uris":{"android":"levelo://app?vid=1323d2cd-c4e0-4783-b4f1-4daaeb41faef","ios":"levelo://app?vid=1323d2cd-c4e0-4783-b4f1-4daaeb41faef"},"vehicle_type_id":"4","last_reported":1742591326,"current_range_meters":9200,"station_id":"ce4bhi12rcd13ifvqfp0","pricing_plan_id":"cebpf4jnsgd1na2vs0mg"},{"bike_id":"20e2be53-78ac-4b24-8dad-96b43d72add2","system_id":"levelo_inurba_marseille","lat":43.31073,"lon":5.38352,"is_reserved":false,"is_disabled":false,"rental_uris":{"android":"levelo://app?vid=20e2be53-78ac-4b24-8dad-96b43d72add2","ios":"levelo://app?vid=20e2be53-78ac-4b24-8dad-96b43d72add2"},"vehicle_type_id":"4","last_reported":1742591326,"current_range_meters":9200,"station_id":"ce4bgv92rcd13ifvqcr0","pricing_plan_id":"cebpf4jnsgd1na2vs0mg"},{"bike_id":"cff5c5d7-b2c2-4661-bcba-b7a09aa5def1","system_id":"levelo_inurba_marseille","lat":43.30337,"lon":5.36897,"is_reserved":false,"is_disabled":false,"rental_uris":{"android":"levelo://app?vid=cff5c5d7-b2c2-4661-bcba-b7a09aa5def1","ios":"levelo://app?vid=cff5c5d7-b2c2-4661-bcba-b7a09aa5def1"},"vehicle_type_id":"4","last_reported":1742591326,"current_range_meters":9200,"station_id":"ce4bgqh2rcd13ifvqc5g","pricing_plan_id":"cebpf4jnsgd1na2vs0mg"},{"bike_id":"36122bc8-3d81-471a-ae65-d15e3475afd5","system_id":"levelo_inurba_marseille","lat":43.23957,"lon":5.36643,"is_reserved":false,"is_disabled":false,"rental_uris":{"android":"levelo://app?vid=36122bc8-3d81-471a-ae65-d15e3475afd5","ios":"levelo://app?vid=36122bc8-3d81-471a-ae65-d15e3475afd5"},"vehicle_type_id":"4","last_reported":1742591326,"current_range_meters":9200,"station_id":"ce4bhi12rcd13ifvqfp0","pricing_plan_id":"cebpf4jnsgd1na2vs0mg"},{"bike_id":"9b80c4db-51e1-4e4e-8ecd-a558d3a24fd7","system_id":"levelo_inurba_marseille","lat":43.33139,"lon":5.38211,"is_reserved":false,"is_disabled":false,"rental_uris":{"android":"levelo://app?vid=9b80c4db-51e1-4e4e-8ecd-a558d3a24fd7","ios":"levelo://app?vid=9b80c4db-51e1-4e4e-8ecd-a558d3a24fd7"},"vehicle_type_id":"4","last_reported":1742591326,"current_range_meters":9200,"station_id":"","pricing_plan_id":"cebpf4jnsgd1na2vs0mg"},{"bike_id":"1f4b5356-d265-454a-aa48-2f7dec9d4d2a","system_id":"levelo_inurba_marseille","lat":43.337357,"lon":5.391937,"is_reserved":false,"is_disabled":false,"rental_uris":{"android":"levelo://app?vid=1f4b5356-d265-454a-aa48-2f7dec9d4d2a","ios":"levelo://app?vid=1f4b5356-d265-454a-aa48-2f7dec9d4d2a"},"vehicle_type_id":"4","last_reported":1742591326,"current_range_meters":9200,"station_id":"ce4bhr92rcd13ifvqhsg","pricing_plan_id":"cebpf4jnsgd1na2vs0mg"},{"bike_id":"2b55a656-241b-4bcc-b273-1b3d1767f0e8","system_id":"levelo_inurba_marseille","lat":43.31075,"lon":5.38345,"is_reserved":false,"is_disabled":false,"rental_uris":{"android":"levelo://app?vid=2b55a656-241b-4bcc-b273-1b3d1767f0e8","ios":"levelo://app?vid=2b55a656-241b-4bcc-b273-1b3d1767f0e8"},"vehicle_type_id":"4","last_reported":1742591326,"current_range_meters":9200,"station_id":"ce4bgv92rcd13ifvqcr0","pricing_plan_id":"cebpf4jnsgd1na2vs0mg"},{"bike_id":"a06df953-ee24-4eee-acd9-cfb685fc1c62","system_id":"levelo_inurba_marseille","lat":43.3141,"lon":5.37446,"is_reserved":false,"is_disabled":false,"rental_uris":{"android":"levelo://app?vid=a06df953-ee24-4eee-acd9-cfb685fc1c62","ios":"levelo://app?vid=a06df953-ee24-4eee-acd9-cfb685fc1c62"},"vehicle_type_id":"4","last_reported":1742591326,"current_range_meters":9600,"station_id":"","pricing_plan_id":"cebpf4jnsgd1na2vs0mg"},{"bike_id":"77f7ac27-2328-4a55-97fc-2b151ed38d27","system_id":"levelo_inurba_marseille","lat":43.2902,"lon":5.3864,"is_reserved":false,"is_disabled":false,"rental_uris":{"android":"levelo://app?vid=77f7ac27-2328-4a55-97fc-2b151ed38d27","ios":"levelo://app?vid=77f7ac27-2328-4a55-97fc-2b151ed38d27"},"vehicle_type_id":"4","last_reported":1742591326,"current_range_meters":9600,"station_id":"ce4bh4p2rcd13ifvqe0g","pricing_plan_id":"cebpf4jnsgd1na2vs0mg"},{"bike_id":"52c16ac5-3447-4053-956c-78fc8bf0dc7c","system_id":"levelo_inurba_marseille","lat":43.32365,"lon":5.36762,"is_reserved":false,"is_disabled":false,"rental_uris":{"android":"levelo://app?vid=52c16ac5-3447-4053-956c-78fc8bf0dc7c","ios":"levelo://app?vid=52c16ac5-3447-4053-956c-78fc8bf0dc7c"},"vehicle_type_id":"4","last_reported":1742591326,"current_range_meters":9600,"station_id":"ce4bhsh2rcd13ifvqi2g","pricing_plan_id":"cebpf4jnsgd1na2vs0mg"},{"bike_id":"9f1c3e5c-869d-4869-b7c6-0c926f2da6bf","system_id":"levelo_inurba_marseille","lat":43.28348,"lon":5.39793,"is_reserved":false,"is_disabled":false,"rental_uris":{"android":"levelo://app?vid=9f1c3e5c-869d-4869-b7c6-0c926f2da6bf","ios":"levelo://app?vid=9f1c3e5c-869d-4869-b7c6-0c926f2da6bf"},"vehicle_type_id":"4","last_reported":1742591326,"current_range_meters":9600,"station_id":"","pricing_plan_id":"cebpf4jnsgd1na2vs0mg"},{"bike_id":"d000c8ac-0c96-4fc1-ac84-5f67409cab71","system_id":"levelo_inurba_marseille","lat":43.32461,"lon":5.36569,"is_reserved":false,"is_disabled":false,"rental_uris":{"android":"levelo://app?vid=d000c8ac-0c96-4fc1-ac84-5f67409cab71","ios":"levelo://app?vid=d000c8ac-0c96-4fc1-ac84-5f67409cab71"},"vehicle_type_id":"4","last_reported":1742591326,"current_range_meters":9600,"station_id":"ce4bhs12rcd13ifvqhvg","pricing_plan_id":"cebpf4jnsgd1na2vs0mg"},{"bike_id":"7c92fa4a-9bc1-44b2-9208-97d3580ce3ec","system_id":"levelo_inurba_marseille","lat":43.24992,"lon":5.38944,"is_reserved":false,"is_disabled":false,"rental_uris":{"android":"levelo://app?vid=7c92fa4a-9bc1-44b2-9208-97d3580ce3ec","ios":"levelo://app?vid=7c92fa4a-9bc1-44b2-9208-97d3580ce3ec"},"vehicle_type_id":"4","last_reported":1742591326,"current_range_meters":9600,"station_id":"ce4bhgp2rcd13ifvqfd0","pricing_plan_id":"cebpf4jnsgd1na2vs0mg"},{"bike_id":"a52dfbd3-560f-4dad-8ae6-494d05ea4c89","system_id":"levelo_inurba_marseille","lat":43.32286,"lon":5.3829,"is_reserved":false,"is_disabled":false,"rental_uris":{"android":"levelo://app?vid=a52dfbd3-560f-4dad-8ae6-494d05ea4c89","ios":"levelo://app?vid=a52dfbd3-560f-4dad-8ae6-494d05ea4c89"},"vehicle_type_id":"4","last_reported":1742591326,"current_range_meters":9600,"station_id":"ce4bhr12rcd13ifvqhqg","pricing_plan_id":"cebpf4jnsgd1na2vs0mg"},{"bike_id":"4d2c7c19-30a8-4ecd-9a4d-9a6bd3bacdcf","system_id":"levelo_inurba_marseille","lat":43.29259,"lon":5.38446,"is_reserved":false,"is_disabled":false,"rental_uris":{"android":"levelo://app?vid=4d2c7c19-30a8-4ecd-9a4d-9a6bd3bacdcf","ios":"levelo://app?vid=4d2c7c19-30a8-4ecd-9a4d-9a6bd3bacdcf"},"vehicle_type_id":"4","last_reported":1742591326,"current_range_meters":9600,"station_id":"ce4bh692rcd13ifvqea0","pricing_plan_id":"cebpf4jnsgd1na2vs0mg"},{"bike_id":"93fff6e4-609c-4a77-877c-9f41f1057427","system_id":"levelo_inurba_marseille","lat":43.28618,"lon":5.35102,"is_reserved":false,"is_disabled":false,"rental_uris":{"android":"levelo://app?vid=93fff6e4-609c-4a77-877c-9f41f1057427","ios":"levelo://app?vid=93fff6e4-609c-4a77-877c-9f41f1057427"},"vehicle_type_id":"4","last_reported":1742591326,"current_range_meters":9600,"station_id":"ce4bhch2rcd13ifvqeug","pricing_plan_id":"cebpf4jnsgd1na2vs0mg"},{"bike_id":"f26047fe-e325-4cda-a7da-2e6f1320cab5","system_id":"levelo_inurba_marseille","lat":43.2655,"lon":5.39542,"is_reserved":false,"is_disabled":false,"rental_uris":{"android":"levelo://app?vid=f26047fe-e325-4cda-a7da-2e6f1320cab5","ios":"levelo://app?vid=f26047fe-e325-4cda-a7da-2e6f1320cab5"},"vehicle_type_id":"4","last_reported":1742591326,"current_range_meters":9600,"station_id":"","pricing_plan_id":"cebpf4jnsgd1na2vs0mg"},{"bike_id":"18dbbf3f-e7fe-4ce0-8368-6c4dced60cd7","system_id":"levelo_inurba_marseille","lat":43.299157,"lon":5.381437,"is_reserved":false,"is_disabled":false,"rental_uris":{"android":"levelo://app?vid=18dbbf3f-e7fe-4ce0-8368-6c4dced60cd7","ios":"levelo://app?vid=18dbbf3f-e7fe-4ce0-8368-6c4dced60cd7"},"vehicle_type_id":"4","last_reported":1742591326,"current_range_meters":9600,"station_id":"ce4bgj12rcd13ifvqbc0","pricing_plan_id":"cebpf4jnsgd1na2vs0mg"},{"bike_id":"3ee69224-7c6a-448e-b5bc-935bb2df6bdf","system_id":"levelo_inurba_marseille","lat":43.28076,"lon":5.39665,"is_reserved":false,"is_disabled":false,"rental_uris":{"android":"levelo://app?vid=3ee69224-7c6a-448e-b5bc-935bb2df6bdf","ios":"levelo://app?vid=3ee69224-7c6a-448e-b5bc-935bb2df6bdf"},"vehicle_type_id":"4","last_reported":1742591326,"current_range_meters":9600,"station_id":"ce4bho12rcd13ifvqh2g","pricing_plan_id":"cebpf4jnsgd1na2vs0mg"},{"bike_id":"f1c1254d-d9d6-4485-8910-4ae2a7c84bc0","system_id":"levelo_inurba_marseille","lat":43.23187,"lon":5.39982,"is_reserved":false,"is_disabled":false,"rental_uris":{"android":"levelo://app?vid=f1c1254d-d9d6-4485-8910-4ae2a7c84bc0","ios":"levelo://app?vid=f1c1254d-d9d6-4485-8910-4ae2a7c84bc0"},"vehicle_type_id":"4","last_reported":1742591326,"current_range_meters":9600,"station_id":"ce4bhn12rcd13ifvqgqg","pricing_plan_id":"cebpf4jnsgd1na2vs0mg"},{"bike_id":"0457f642-4a01-4c98-a514-f4ddd3553243","system_id":"levelo_inurba_marseille","lat":43.29537,"lon":5.3854,"is_reserved":false,"is_disabled":false,"rental_uris":{"android":"levelo://app?vid=0457f642-4a01-4c98-a514-f4ddd3553243","ios":"levelo://app?vid=0457f642-4a01-4c98-a514-f4ddd3553243"},"vehicle_type_id":"4","last_reported":1742591326,"current_range_meters":9600,"station_id":"ce4bgih2rcd13ifvqba0","pricing_plan_id":"cebpf4jnsgd1na2vs0mg"},{"bike_id":"900e44dd-1317-4e6e-ac50-7e0c8fe7d455","system_id":"levelo_inurba_marseille","lat":43.23962,"lon":5.36637,"is_reserved":false,"is_disabled":false,"rental_uris":{"android":"levelo://app?vid=900e44dd-1317-4e6e-ac50-7e0c8fe7d455","ios":"levelo://app?vid=900e44dd-1317-4e6e-ac50-7e0c8fe7d455"},"vehicle_type_id":"4","last_reported":1742591326,"current_range_meters":10000,"station_id":"ce4bhi12rcd13ifvqfp0","pricing_plan_id":"cebpf4jnsgd1na2vs0mg"},{"bike_id":"3c11c2fa-7f3f-4a36-80da-1286795ef2be","system_id":"levelo_inurba_marseille","lat":43.29039,"lon":5.40002,"is_reserved":false,"is_disabled":false,"rental_uris":{"android":"levelo://app?vid=3c11c2fa-7f3f-4a36-80da-1286795ef2be","ios":"levelo://app?vid=3c11c2fa-7f3f-4a36-80da-1286795ef2be"},"vehicle_type_id":"4","last_reported":1742591326,"current_range_meters":10000,"station_id":"ce4bh392rcd13ifvqdm0","pricing_plan_id":"cebpf4jnsgd1na2vs0mg"},{"bike_id":"7a7c73e7-a501-4b78-9258-d3fd6f0e0ef8","system_id":"levelo_inurba_marseille","lat":43.28742,"lon":5.36455,"is_reserved":false,"is_disabled":false,"rental_uris":{"android":"levelo://app?vid=7a7c73e7-a501-4b78-9258-d3fd6f0e0ef8","ios":"levelo://app?vid=7a7c73e7-a501-4b78-9258-d3fd6f0e0ef8"},"vehicle_type_id":"4","last_reported":1742591326,"current_range_meters":10000,"station_id":"","pricing_plan_id":"cebpf4jnsgd1na2vs0mg"},{"bike_id":"fbbb3028-b15b-4750-98dc-ac90972ecc9b","system_id":"levelo_inurba_marseille","lat":43.32112,"lon":5.36767,"is_reserved":false,"is_disabled":false,"rental_uris":{"android":"levelo://app?vid=fbbb3028-b15b-4750-98dc-ac90972ecc9b","ios":"levelo://app?vid=fbbb3028-b15b-4750-98dc-ac90972ecc9b"},"vehicle_type_id":"4","last_reported":1742591326,"current_range_meters":10000,"station_id":"ce4bhrh2rcd13ifvqhug","pricing_plan_id":"cebpf4jnsgd1na2vs0mg"},{"bike_id":"276613ec-3310-44d6-ae3f-44328dd4fd15","system_id":"levelo_inurba_marseille","lat":43.25822,"lon":5.39428,"is_reserved":false,"is_disabled":false,"rental_uris":{"android":"levelo://app?vid=276613ec-3310-44d6-ae3f-44328dd4fd15","ios":"levelo://app?vid=276613ec-3310-44d6-ae3f-44328dd4fd15"},"vehicle_type_id":"4","last_reported":1742591326,"current_range_meters":10000,"station_id":"ce4bhip2rcd13ifvqft0","pricing_plan_id":"cebpf4jnsgd1na2vs0mg"},{"bike_id":"d877909e-6202-4d01-8117-f1d905e6268c","system_id":"levelo_inurba_marseille","lat":43.30133,"lon":5.37415,"is_reserved":false,"is_disabled":false,"rental_uris":{"android":"levelo://app?vid=d877909e-6202-4d01-8117-f1d905e6268c","ios":"levelo://app?vid=d877909e-6202-4d01-8117-f1d905e6268c"},"vehicle_type_id":"4","last_reported":1742591326,"current_range_meters":10000,"station_id":"ce4bgs92rcd13ifvqcc0","pricing_plan_id":"cebpf4jnsgd1na2vs0mg"},{"bike_id":"2c69b466-5688-4e6a-aa37-bf74dd1c8e76","system_id":"levelo_inurba_marseille","lat":43.26804,"lon":5.40268,"is_reserved":false,"is_disabled":false,"rental_uris":{"android":"levelo://app?vid=2c69b466-5688-4e6a-aa37-bf74dd1c8e76","ios":"levelo://app?vid=2c69b466-5688-4e6a-aa37-bf74dd1c8e76"},"vehicle_type_id":"4","last_reported":1742591326,"current_range_meters":10000,"station_id":"ce501612rcd8frsf0b60","pricing_plan_id":"cebpf4jnsgd1na2vs0mg"},{"bike_id":"27de0c76-7a26-4063-9191-61c6657b98eb","system_id":"levelo_inurba_marseille","lat":43.29438,"lon":5.3862,"is_reserved":false,"is_disabled":false,"rental_uris":{"android":"levelo://app?vid=27de0c76-7a26-4063-9191-61c6657b98eb","ios":"levelo://app?vid=27de0c76-7a26-4063-9191-61c6657b98eb"},"vehicle_type_id":"4","last_reported":1742591326,"current_range_meters":10000,"station_id":"ce4bh2h2rcd13ifvqdh0","pricing_plan_id":"cebpf4jnsgd1na2vs0mg"},{"bike_id":"257266cf-683b-4c8a-a350-70a5c3f41572","system_id":"levelo_inurba_marseille","lat":43.3117,"lon":5.38726,"is_reserved":false,"is_disabled":false,"rental_uris":{"android":"levelo://app?vid=257266cf-683b-4c8a-a350-70a5c3f41572","ios":"levelo://app?vid=257266cf-683b-4c8a-a350-70a5c3f41572"},"vehicle_type_id":"4","last_reported":1742591326,"current_range_meters":10800,"station_id":"ce4bgv12rcd13ifvqcp0","pricing_plan_id":"cebpf4jnsgd1na2vs0mg"},{"bike_id":"33063778-d13b-488d-a098-00d76ac265e1","system_id":"levelo_inurba_marseille","lat":43.31072,"lon":5.38353,"is_reserved":false,"is_disabled":false,"rental_uris":{"android":"levelo://app?vid=33063778-d13b-488d-a098-00d76ac265e1","ios":"levelo://app?vid=33063778-d13b-488d-a098-00d76ac265e1"},"vehicle_type_id":"4","last_reported":1742591326,"current_range_meters":10800,"station_id":"ce4bgv92rcd13ifvqcr0","pricing_plan_id":"cebpf4jnsgd1na2vs0mg"},{"bike_id":"1be185f4-0713-4882-b27a-82f20bf5f7f2","system_id":"levelo_inurba_marseille","lat":43.26205,"lon":5.37437,"is_reserved":false,"is_disabled":false,"rental_uris":{"android":"levelo://app?vid=1be185f4-0713-4882-b27a-82f20bf5f7f2","ios":"levelo://app?vid=1be185f4-0713-4882-b27a-82f20bf5f7f2"},"vehicle_type_id":"4","last_reported":1742591326,"current_range_meters":10800,"station_id":"ce4bhgp2rcd13ifvqfc0","pricing_plan_id":"cebpf4jnsgd1na2vs0mg"},{"bike_id":"dc537980-6042-493d-8080-0667efb1d6ad","system_id":"levelo_inurba_marseille","lat":43.24551,"lon":5.39523,"is_reserved":false,"is_disabled":false,"rental_uris":{"android":"levelo://app?vid=dc537980-6042-493d-8080-0667efb1d6ad","ios":"levelo://app?vid=dc537980-6042-493d-8080-0667efb1d6ad"},"vehicle_type_id":"4","last_reported":1742591326,"current_range_meters":10800,"station_id":"ce4bhlp2rcd13ifvqgjg","pricing_plan_id":"cebpf4jnsgd1na2vs0mg"},{"bike_id":"f7b19721-c68b-4280-b653-43eff6dbb1fd","system_id":"levelo_inurba_marseille","lat":43.32141,"lon":5.36765,"is_reserved":false,"is_disabled":false,"rental_uris":{"android":"levelo://app?vid=f7b19721-c68b-4280-b653-43eff6dbb1fd","ios":"levelo://app?vid=f7b19721-c68b-4280-b653-43eff6dbb1fd"},"vehicle_type_id":"4","last_reported":1742591326,"current_range_meters":10800,"station_id":"ce4bhrh2rcd13ifvqhug","pricing_plan_id":"cebpf4jnsgd1na2vs0mg"},{"bike_id":"aad8559b-e137-4459-b1c9-e668b0a1b60c","system_id":"levelo_inurba_marseille","lat":43.30129,"lon":5.39886,"is_reserved":false,"is_disabled":false,"rental_uris":{"android":"levelo://app?vid=aad8559b-e137-4459-b1c9-e668b0a1b60c","ios":"levelo://app?vid=aad8559b-e137-4459-b1c9-e668b0a1b60c"},"vehicle_type_id":"4","last_reported":1742591326,"current_range_meters":10800,"station_id":"ce4bh0h2rcd13ifvqd40","pricing_plan_id":"cebpf4jnsgd1na2vs0mg"},{"bike_id":"86d16316-b7a2-402d-912e-6a498b3897a4","system_id":"levelo_inurba_marseille","lat":43.28932,"lon":5.3664,"is_reserved":false,"is_disabled":false,"rental_uris":{"android":"levelo://app?vid=86d16316-b7a2-402d-912e-6a498b3897a4","ios":"levelo://app?vid=86d16316-b7a2-402d-912e-6a498b3897a4"},"vehicle_type_id":"4","last_reported":1742591326,"current_range_meters":10800,"station_id":"ce4bhap2rcd13ifvqek0","pricing_plan_id":"cebpf4jnsgd1na2vs0mg"},{"bike_id":"48f2a215-7a63-4ee4-b8ca-a2ac971f9a74","system_id":"levelo_inurba_marseille","lat":43.30375,"lon":5.41855,"is_reserved":false,"is_disabled":false,"rental_uris":{"android":"levelo://app?vid=48f2a215-7a63-4ee4-b8ca-a2ac971f9a74","ios":"levelo://app?vid=48f2a215-7a63-4ee4-b8ca-a2ac971f9a74"},"vehicle_type_id":"4","last_reported":1742591326,"current_range_meters":10800,"station_id":"ce4bhop2rcd13ifvqh7g","pricing_plan_id":"cebpf4jnsgd1na2vs0mg"},{"bike_id":"1b569080-3c04-4442-831c-1e8dd00b7dfe","system_id":"levelo_inurba_marseille","lat":43.29966,"lon":5.38499,"is_reserved":false,"is_disabled":false,"rental_uris":{"android":"levelo://app?vid=1b569080-3c04-4442-831c-1e8dd00b7dfe","ios":"levelo://app?vid=1b569080-3c04-4442-831c-1e8dd00b7dfe"},"vehicle_type_id":"4","last_reported":1742591326,"current_range_meters":11200,"station_id":"ce4bgj92rcd13ifvqbd0","pricing_plan_id":"cebpf4jnsgd1na2vs0mg"},{"bike_id":"29c299a3-8deb-46e4-8cd6-c7a928ea34d7","system_id":"levelo_inurba_marseille","lat":43.26561,"lon":5.37286,"is_reserved":false,"is_disabled":false,"rental_uris":{"android":"levelo://app?vid=29c299a3-8deb-46e4-8cd6-c7a928ea34d7","ios":"levelo://app?vid=29c299a3-8deb-46e4-8cd6-c7a928ea34d7"},"vehicle_type_id":"4","last_reported":1742591326,"current_range_meters":11200,"station_id":"ce4bhg12rcd13ifvqf70","pricing_plan_id":"cebpf4jnsgd1na2vs0mg"},{"bike_id":"225f7fc2-2214-417a-94d8-573a71efde8e","system_id":"levelo_inurba_marseille","lat":43.29415,"lon":5.38626,"is_reserved":false,"is_disabled":false,"rental_uris":{"android":"levelo://app?vid=225f7fc2-2214-417a-94d8-573a71efde8e","ios":"levelo://app?vid=225f7fc2-2214-417a-94d8-573a71efde8e"},"vehicle_type_id":"4","last_reported":1742591326,"current_range_meters":11200,"station_id":"ce4bh2h2rcd13ifvqdh0","pricing_plan_id":"cebpf4jnsgd1na2vs0mg"},{"bike_id":"4f7ac6cf-ebe1-498a-824b-1c0b60d0f428","system_id":"levelo_inurba_marseille","lat":43.23962,"lon":5.36619,"is_reserved":false,"is_disabled":false,"rental_uris":{"android":"levelo://app?vid=4f7ac6cf-ebe1-498a-824b-1c0b60d0f428","ios":"levelo://app?vid=4f7ac6cf-ebe1-498a-824b-1c0b60d0f428"},"vehicle_type_id":"4","last_reported":1742591326,"current_range_meters":11200,"station_id":"ce4bhi12rcd13ifvqfp0","pricing_plan_id":"cebpf4jnsgd1na2vs0mg"},{"bike_id":"b760ed47-7403-4613-aea1-f8196dfd19d8","system_id":"levelo_inurba_marseille","lat":43.29282,"lon":5.40116,"is_reserved":false,"is_disabled":false,"rental_uris":{"android":"levelo://app?vid=b760ed47-7403-4613-aea1-f8196dfd19d8","ios":"levelo://app?vid=b760ed47-7403-4613-aea1-f8196dfd19d8"},"vehicle_type_id":"4","last_reported":1742591326,"current_range_meters":11200,"station_id":"ce4bh312rcd13ifvqdk0","pricing_plan_id":"cebpf4jnsgd1na2vs0mg"},{"bike_id":"a9bfdc5f-7bba-4077-92d3-1695b43dbeb1","system_id":"levelo_inurba_marseille","lat":43.30127,"lon":5.39887,"is_reserved":false,"is_disabled":false,"rental_uris":{"android":"levelo://app?vid=a9bfdc5f-7bba-4077-92d3-1695b43dbeb1","ios":"levelo://app?vid=a9bfdc5f-7bba-4077-92d3-1695b43dbeb1"},"vehicle_type_id":"4","last_reported":1742591326,"current_range_meters":11200,"station_id":"ce4bh0h2rcd13ifvqd40","pricing_plan_id":"cebpf4jnsgd1na2vs0mg"},{"bike_id":"c7690d8f-d650-495b-82f0-2abd9a4308b7","system_id":"levelo_inurba_marseille","lat":43.25584,"lon":5.3826,"is_reserved":false,"is_disabled":false,"rental_uris":{"android":"levelo://app?vid=c7690d8f-d650-495b-82f0-2abd9a4308b7","ios":"levelo://app?vid=c7690d8f-d650-495b-82f0-2abd9a4308b7"},"vehicle_type_id":"4","last_reported":1742591326,"current_range_meters":11600,"station_id":"ce4bhih2rcd13ifvqfs0","pricing_plan_id":"cebpf4jnsgd1na2vs0mg"},{"bike_id":"4729b83d-5620-4a5f-a0dd-6ed0584e1d3b","system_id":"levelo_inurba_marseille","lat":43.28269,"lon":5.35067,"is_reserved":false,"is_disabled":false,"rental_uris":{"android":"levelo://app?vid=4729b83d-5620-4a5f-a0dd-6ed0584e1d3b","ios":"levelo://app?vid=4729b83d-5620-4a5f-a0dd-6ed0584e1d3b"},"vehicle_type_id":"4","last_reported":1742591326,"current_range_meters":11600,"station_id":"ce4bhbp2rcd13ifvqerg","pricing_plan_id":"cebpf4jnsgd1na2vs0mg"},{"bike_id":"6f3844ff-2aa2-4473-952c-bd329dc94e95","system_id":"levelo_inurba_marseille","lat":43.2583,"lon":5.3943,"is_reserved":false,"is_disabled":false,"rental_uris":{"android":"levelo://app?vid=6f3844ff-2aa2-4473-952c-bd329dc94e95","ios":"levelo://app?vid=6f3844ff-2aa2-4473-952c-bd329dc94e95"},"vehicle_type_id":"4","last_reported":1742591326,"current_range_meters":11600,"station_id":"ce4bhip2rcd13ifvqft0","pricing_plan_id":"cebpf4jnsgd1na2vs0mg"},{"bike_id":"295b2b96-8a22-4b6f-a45b-df5a7ed58969","system_id":"levelo_inurba_marseille","lat":43.33757,"lon":5.39171,"is_reserved":false,"is_disabled":false,"rental_uris":{"android":"levelo://app?vid=295b2b96-8a22-4b6f-a45b-df5a7ed58969","ios":"levelo://app?vid=295b2b96-8a22-4b6f-a45b-df5a7ed58969"},"vehicle_type_id":"4","last_reported":1742591326,"current_range_meters":12000,"station_id":"ce4bhr92rcd13ifvqhsg","pricing_plan_id":"cebpf4jnsgd1na2vs0mg"},{"bike_id":"b672f335-47a8-4062-a575-6187d8508057","system_id":"levelo_inurba_marseille","lat":43.26052,"lon":5.39397,"is_reserved":false,"is_disabled":false,"rental_uris":{"android":"levelo://app?vid=b672f335-47a8-4062-a575-6187d8508057","ios":"levelo://app?vid=b672f335-47a8-4062-a575-6187d8508057"},"vehicle_type_id":"4","last_reported":1742591326,"current_range_meters":12000,"station_id":"ce4bhh92rcd13ifvqfj0","pricing_plan_id":"cebpf4jnsgd1na2vs0mg"},{"bike_id":"e1e493b8-6ddd-477f-a5c7-ce583728c84a","system_id":"levelo_inurba_marseille","lat":43.290297,"lon":5.381326,"is_reserved":false,"is_disabled":false,"rental_uris":{"android":"levelo://app?vid=e1e493b8-6ddd-477f-a5c7-ce583728c84a","ios":"levelo://app?vid=e1e493b8-6ddd-477f-a5c7-ce583728c84a"},"vehicle_type_id":"4","last_reported":1742591326,"current_range_meters":12000,"station_id":"ce4bh4p2rcd13ifvqe1g","pricing_plan_id":"cebpf4jnsgd1na2vs0mg"},{"bike_id":"ecad84e0-1ed2-4743-af7c-4f8a6c8ad19b","system_id":"levelo_inurba_marseille","lat":43.29569,"lon":5.37515,"is_reserved":false,"is_disabled":false,"rental_uris":{"android":"levelo://app?vid=ecad84e0-1ed2-4743-af7c-4f8a6c8ad19b","ios":"levelo://app?vid=ecad84e0-1ed2-4743-af7c-4f8a6c8ad19b"},"vehicle_type_id":"4","last_reported":1742591326,"current_range_meters":12000,"station_id":"ce4bgh92rcd13ifvqb50","pricing_plan_id":"cebpf4jnsgd1na2vs0mg"},{"bike_id":"9b750c47-e07e-4fa3-9c3d-e8ce8d93bc42","system_id":"levelo_inurba_marseille","lat":43.2903,"lon":5.38647,"is_reserved":false,"is_disabled":false,"rental_uris":{"android":"levelo://app?vid=9b750c47-e07e-4fa3-9c3d-e8ce8d93bc42","ios":"levelo://app?vid=9b750c47-e07e-4fa3-9c3d-e8ce8d93bc42"},"vehicle_type_id":"4","last_reported":1742591326,"current_range_meters":12000,"station_id":"ce4bh4p2rcd13ifvqe0g","pricing_plan_id":"cebpf4jnsgd1na2vs0mg"},{"bike_id":"b5fcb98a-c8d5-4f1a-a9b4-b3362af2a9c7","system_id":"levelo_inurba_marseille","lat":43.23056,"lon":5.355,"is_reserved":false,"is_disabled":false,"rental_uris":{"android":"levelo://app?vid=b5fcb98a-c8d5-4f1a-a9b4-b3362af2a9c7","ios":"levelo://app?vid=b5fcb98a-c8d5-4f1a-a9b4-b3362af2a9c7"},"vehicle_type_id":"4","last_reported":1742591326,"current_range_meters":12000,"station_id":"cpo3342slgdg3j2ifvpg","pricing_plan_id":"cebpf4jnsgd1na2vs0mg"},{"bike_id":"3edb904b-ad5d-447e-ba08-4ac1801adea2","system_id":"levelo_inurba_marseille","lat":43.28076,"lon":5.39648,"is_reserved":false,"is_disabled":false,"rental_uris":{"android":"levelo://app?vid=3edb904b-ad5d-447e-ba08-4ac1801adea2","ios":"levelo://app?vid=3edb904b-ad5d-447e-ba08-4ac1801adea2"},"vehicle_type_id":"4","last_reported":1742591326,"current_range_meters":12000,"station_id":"ce4bho12rcd13ifvqh2g","pricing_plan_id":"cebpf4jnsgd1na2vs0mg"},{"bike_id":"56867255-0b40-4a6c-95b6-afdc2e4f8cec","system_id":"levelo_inurba_marseille","lat":43.29532,"lon":5.38543,"is_reserved":false,"is_disabled":false,"rental_uris":{"android":"levelo://app?vid=56867255-0b40-4a6c-95b6-afdc2e4f8cec","ios":"levelo://app?vid=56867255-0b40-4a6c-95b6-afdc2e4f8cec"},"vehicle_type_id":"4","last_reported":1742591326,"current_range_meters":12400,"station_id":"ce4bgih2rcd13ifvqba0","pricing_plan_id":"cebpf4jnsgd1na2vs0mg"},{"bike_id":"8ff6a3b5-d1d9-417b-86f0-6d0ace3538d0","system_id":"levelo_inurba_marseille","lat":43.25822,"lon":5.39435,"is_reserved":false,"is_disabled":false,"rental_uris":{"android":"levelo://app?vid=8ff6a3b5-d1d9-417b-86f0-6d0ace3538d0","ios":"levelo://app?vid=8ff6a3b5-d1d9-417b-86f0-6d0ace3538d0"},"vehicle_type_id":"4","last_reported":1742591326,"current_range_meters":12400,"station_id":"ce4bhip2rcd13ifvqft0","pricing_plan_id":"cebpf4jnsgd1na2vs0mg"},{"bike_id":"3ddc33bd-e1d4-464e-94f5-7bf7dc1512b3","system_id":"levelo_inurba_marseille","lat":43.322881,"lon":5.382854,"is_reserved":false,"is_disabled":false,"rental_uris":{"android":"levelo://app?vid=3ddc33bd-e1d4-464e-94f5-7bf7dc1512b3","ios":"levelo://app?vid=3ddc33bd-e1d4-464e-94f5-7bf7dc1512b3"},"vehicle_type_id":"4","last_reported":1742591326,"current_range_meters":12800,"station_id":"ce4bhr12rcd13ifvqhqg","pricing_plan_id":"cebpf4jnsgd1na2vs0mg"},{"bike_id":"dea95f65-6c29-46fb-a35a-27fb89ec4543","system_id":"levelo_inurba_marseille","lat":43.29256,"lon":5.38439,"is_reserved":false,"is_disabled":false,"rental_uris":{"android":"levelo://app?vid=dea95f65-6c29-46fb-a35a-27fb89ec4543","ios":"levelo://app?vid=dea95f65-6c29-46fb-a35a-27fb89ec4543"},"vehicle_type_id":"4","last_reported":1742591326,"current_range_meters":12400,"station_id":"ce4bh692rcd13ifvqea0","pricing_plan_id":"cebpf4jnsgd1na2vs0mg"},{"bike_id":"5b0fce43-3e12-4757-9de7-875968833c20","system_id":"levelo_inurba_marseille","lat":43.28859,"lon":5.35834,"is_reserved":false,"is_disabled":false,"rental_uris":{"android":"levelo://app?vid=5b0fce43-3e12-4757-9de7-875968833c20","ios":"levelo://app?vid=5b0fce43-3e12-4757-9de7-875968833c20"},"vehicle_type_id":"4","last_reported":1742591326,"current_range_meters":12400,"station_id":"ce4bhb12rcd13ifvqem0","pricing_plan_id":"cebpf4jnsgd1na2vs0mg"},{"bike_id":"51ab1140-522a-4d72-a127-ca5ac52092e2","system_id":"levelo_inurba_marseille","lat":43.2998,"lon":5.3849,"is_reserved":false,"is_disabled":false,"rental_uris":{"android":"levelo://app?vid=51ab1140-522a-4d72-a127-ca5ac52092e2","ios":"levelo://app?vid=51ab1140-522a-4d72-a127-ca5ac52092e2"},"vehicle_type_id":"4","last_reported":1742591326,"current_range_meters":12400,"station_id":"ce4bgj92rcd13ifvqbd0","pricing_plan_id":"cebpf4jnsgd1na2vs0mg"},{"bike_id":"352c9dba-54d6-48d3-b7db-3eaacb68251a","system_id":"levelo_inurba_marseille","lat":43.33602,"lon":5.41022,"is_reserved":false,"is_disabled":false,"rental_uris":{"android":"levelo://app?vid=352c9dba-54d6-48d3-b7db-3eaacb68251a","ios":"levelo://app?vid=352c9dba-54d6-48d3-b7db-3eaacb68251a"},"vehicle_type_id":"4","last_reported":1742591326,"current_range_meters":12400,"station_id":"ce4bhqh2rcd13ifvqhmg","pricing_plan_id":"cebpf4jnsgd1na2vs0mg"},{"bike_id":"d8022960-82a8-4614-b362-2d7248aebeb3","system_id":"levelo_inurba_marseille","lat":43.30424,"lon":5.3975,"is_reserved":false,"is_disabled":false,"rental_uris":{"android":"levelo://app?vid=d8022960-82a8-4614-b362-2d7248aebeb3","ios":"levelo://app?vid=d8022960-82a8-4614-b362-2d7248aebeb3"},"vehicle_type_id":"4","last_reported":1742591326,"current_range_meters":12400,"station_id":"ce4bh092rcd13ifvqd20","pricing_plan_id":"cebpf4jnsgd1na2vs0mg"},{"bike_id":"5ea22f0a-b529-4ee2-bb40-7894a9096e74","system_id":"levelo_inurba_marseille","lat":43.28688,"lon":5.39981,"is_reserved":false,"is_disabled":false,"rental_uris":{"android":"levelo://app?vid=5ea22f0a-b529-4ee2-bb40-7894a9096e74","ios":"levelo://app?vid=5ea22f0a-b529-4ee2-bb40-7894a9096e74"},"vehicle_type_id":"4","last_reported":1742591326,"current_range_meters":10000,"station_id":"ce4bho92rcd13ifvqh3g","pricing_plan_id":"cebpf4jnsgd1na2vs0mg"},{"bike_id":"a59d9fa3-dd5d-4d82-bd81-d577cd1919dd","system_id":"levelo_inurba_marseille","lat":43.29421,"lon":5.38634,"is_reserved":false,"is_disabled":false,"rental_uris":{"android":"levelo://app?vid=a59d9fa3-dd5d-4d82-bd81-d577cd1919dd","ios":"levelo://app?vid=a59d9fa3-dd5d-4d82-bd81-d577cd1919dd"},"vehicle_type_id":"4","last_reported":1742591326,"current_range_meters":12400,"station_id":"ce4bh2h2rcd13ifvqdh0","pricing_plan_id":"cebpf4jnsgd1na2vs0mg"},{"bike_id":"38044645-ece5-4bcd-8d4d-db0d7b3b13cd","system_id":"levelo_inurba_marseille","lat":43.24547,"lon":5.39526,"is_reserved":false,"is_disabled":false,"rental_uris":{"android":"levelo://app?vid=38044645-ece5-4bcd-8d4d-db0d7b3b13cd","ios":"levelo://app?vid=38044645-ece5-4bcd-8d4d-db0d7b3b13cd"},"vehicle_type_id":"4","last_reported":1742591326,"current_range_meters":12400,"station_id":"ce4bhlp2rcd13ifvqgjg","pricing_plan_id":"cebpf4jnsgd1na2vs0mg"},{"bike_id":"fe239f3d-5c83-42bd-8b99-e0b3f3784fb5","system_id":"levelo_inurba_marseille","lat":43.24608,"lon":5.38398,"is_reserved":false,"is_disabled":false,"rental_uris":{"android":"levelo://app?vid=fe239f3d-5c83-42bd-8b99-e0b3f3784fb5","ios":"levelo://app?vid=fe239f3d-5c83-42bd-8b99-e0b3f3784fb5"},"vehicle_type_id":"4","last_reported":1742591326,"current_range_meters":12400,"station_id":"","pricing_plan_id":"cebpf4jnsgd1na2vs0mg"},{"bike_id":"2b75be19-d94e-4b6c-be88-04f2452ee0ca","system_id":"levelo_inurba_marseille","lat":43.29466,"lon":5.38596,"is_reserved":false,"is_disabled":false,"rental_uris":{"android":"levelo://app?vid=2b75be19-d94e-4b6c-be88-04f2452ee0ca","ios":"levelo://app?vid=2b75be19-d94e-4b6c-be88-04f2452ee0ca"},"vehicle_type_id":"4","last_reported":1742591326,"current_range_meters":13600,"station_id":"","pricing_plan_id":"cebpf4jnsgd1na2vs0mg"},{"bike_id":"9c747ab1-84e4-463f-87ba-f786aa5852f4","system_id":"levelo_inurba_marseille","lat":43.27821,"lon":5.40712,"is_reserved":false,"is_disabled":false,"rental_uris":{"android":"levelo://app?vid=9c747ab1-84e4-463f-87ba-f786aa5852f4","ios":"levelo://app?vid=9c747ab1-84e4-463f-87ba-f786aa5852f4"},"vehicle_type_id":"4","last_reported":1742591326,"current_range_meters":13600,"station_id":"ce4bhnh2rcd13ifvqgtg","pricing_plan_id":"cebpf4jnsgd1na2vs0mg"},{"bike_id":"f25de604-6fb9-4119-99b5-219a1f0fd928","system_id":"levelo_inurba_marseille","lat":43.29275,"lon":5.40118,"is_reserved":false,"is_disabled":false,"rental_uris":{"android":"levelo://app?vid=f25de604-6fb9-4119-99b5-219a1f0fd928","ios":"levelo://app?vid=f25de604-6fb9-4119-99b5-219a1f0fd928"},"vehicle_type_id":"4","last_reported":1742591326,"current_range_meters":13600,"station_id":"ce4bh312rcd13ifvqdk0","pricing_plan_id":"cebpf4jnsgd1na2vs0mg"},{"bike_id":"1941e1fe-aa74-4007-afde-fda9d78d046e","system_id":"levelo_inurba_marseille","lat":43.29266,"lon":5.37591,"is_reserved":false,"is_disabled":false,"rental_uris":{"android":"levelo://app?vid=1941e1fe-aa74-4007-afde-fda9d78d046e","ios":"levelo://app?vid=1941e1fe-aa74-4007-afde-fda9d78d046e"},"vehicle_type_id":"4","last_reported":1742591326,"current_range_meters":14000,"station_id":"ce4bgi12rcd13ifvqb80","pricing_plan_id":"cebpf4jnsgd1na2vs0mg"},{"bike_id":"ea50c471-353f-4ae0-9c50-a385b463fc43","system_id":"levelo_inurba_marseille","lat":43.30322,"lon":5.40445,"is_reserved":false,"is_disabled":false,"rental_uris":{"android":"levelo://app?vid=ea50c471-353f-4ae0-9c50-a385b463fc43","ios":"levelo://app?vid=ea50c471-353f-4ae0-9c50-a385b463fc43"},"vehicle_type_id":"4","last_reported":1742591326,"current_range_meters":14000,"station_id":"ce4bh012rcd13ifvqd10","pricing_plan_id":"cebpf4jnsgd1na2vs0mg"},{"bike_id":"e65fdea6-45d3-423a-85b4-6347f360306a","system_id":"levelo_inurba_marseille","lat":43.33027,"lon":5.38995,"is_reserved":false,"is_disabled":false,"rental_uris":{"android":"levelo://app?vid=e65fdea6-45d3-423a-85b4-6347f360306a","ios":"levelo://app?vid=e65fdea6-45d3-423a-85b4-6347f360306a"},"vehicle_type_id":"4","last_reported":1742591326,"current_range_meters":14000,"station_id":"ce4bhr92rcd13ifvqhrg","pricing_plan_id":"cebpf4jnsgd1na2vs0mg"},{"bike_id":"6cb89b29-72c5-4304-81c2-4f1729f4222d","system_id":"levelo_inurba_marseille","lat":43.2798,"lon":5.38744,"is_reserved":false,"is_disabled":false,"rental_uris":{"android":"levelo://app?vid=6cb89b29-72c5-4304-81c2-4f1729f4222d","ios":"levelo://app?vid=6cb89b29-72c5-4304-81c2-4f1729f4222d"},"vehicle_type_id":"4","last_reported":1742591326,"current_range_meters":14000,"station_id":"ce4bhg12rcd13ifvqf80","pricing_plan_id":"cebpf4jnsgd1na2vs0mg"},{"bike_id":"9683555e-fe04-4de7-b706-7a9b0019a6a7","system_id":"levelo_inurba_marseille","lat":43.33753,"lon":5.37495,"is_reserved":false,"is_disabled":true,"rental_uris":{"android":"levelo://app?vid=9683555e-fe04-4de7-b706-7a9b0019a6a7","ios":"levelo://app?vid=9683555e-fe04-4de7-b706-7a9b0019a6a7"},"vehicle_type_id":"4","last_reported":1742591326,"current_range_meters":14000,"station_id":"ce4bh2h2rcd13ifvqdh0","pricing_plan_id":"cebpf4jnsgd1na2vs0mg"},{"bike_id":"e214e47e-4857-41bd-bec8-2b0cdb3e6503","system_id":"levelo_inurba_marseille","lat":43.30167,"lon":5.39892,"is_reserved":false,"is_disabled":false,"rental_uris":{"android":"levelo://app?vid=e214e47e-4857-41bd-bec8-2b0cdb3e6503","ios":"levelo://app?vid=e214e47e-4857-41bd-bec8-2b0cdb3e6503"},"vehicle_type_id":"4","last_reported":1742591326,"current_range_meters":14000,"station_id":"ce4bh0h2rcd13ifvqd40","pricing_plan_id":"cebpf4jnsgd1na2vs0mg"},{"bike_id":"0b49bdf5-e1e6-4881-ad0b-23dfc5b30bed","system_id":"levelo_inurba_marseille","lat":43.30777,"lon":5.37655,"is_reserved":false,"is_disabled":false,"rental_uris":{"android":"levelo://app?vid=0b49bdf5-e1e6-4881-ad0b-23dfc5b30bed","ios":"levelo://app?vid=0b49bdf5-e1e6-4881-ad0b-23dfc5b30bed"},"vehicle_type_id":"4","last_reported":1742591326,"current_range_meters":14000,"station_id":"ce4bgv92rcd13ifvqcq0","pricing_plan_id":"cebpf4jnsgd1na2vs0mg"},{"bike_id":"18e4405d-2604-43bc-90ca-13f900d8c858","system_id":"levelo_inurba_marseille","lat":43.29413,"lon":5.38647,"is_reserved":false,"is_disabled":false,"rental_uris":{"android":"levelo://app?vid=18e4405d-2604-43bc-90ca-13f900d8c858","ios":"levelo://app?vid=18e4405d-2604-43bc-90ca-13f900d8c858"},"vehicle_type_id":"4","last_reported":1742591326,"current_range_meters":14000,"station_id":"ce4bh2h2rcd13ifvqdh0","pricing_plan_id":"cebpf4jnsgd1na2vs0mg"},{"bike_id":"1df2e6f6-63d4-4f34-92e1-d1b0e12ddb5a","system_id":"levelo_inurba_marseille","lat":43.23182,"lon":5.3999,"is_reserved":false,"is_disabled":false,"rental_uris":{"android":"levelo://app?vid=1df2e6f6-63d4-4f34-92e1-d1b0e12ddb5a","ios":"levelo://app?vid=1df2e6f6-63d4-4f34-92e1-d1b0e12ddb5a"},"vehicle_type_id":"4","last_reported":1742591326,"current_range_meters":14000,"station_id":"ce4bhn12rcd13ifvqgqg","pricing_plan_id":"cebpf4jnsgd1na2vs0mg"},{"bike_id":"2bee8d7f-6d04-4d85-a7f8-fd578e0846f1","system_id":"levelo_inurba_marseille","lat":43.279907,"lon":5.37862,"is_reserved":false,"is_disabled":false,"rental_uris":{"android":"levelo://app?vid=2bee8d7f-6d04-4d85-a7f8-fd578e0846f1","ios":"levelo://app?vid=2bee8d7f-6d04-4d85-a7f8-fd578e0846f1"},"vehicle_type_id":"4","last_reported":1742591326,"current_range_meters":14000,"station_id":"ce4bha12rcd13ifvqee0","pricing_plan_id":"cebpf4jnsgd1na2vs0mg"},{"bike_id":"fb45ad3c-928a-4b4f-8727-c717b800f1e2","system_id":"levelo_inurba_marseille","lat":43.2959,"lon":5.38108,"is_reserved":false,"is_disabled":false,"rental_uris":{"android":"levelo://app?vid=fb45ad3c-928a-4b4f-8727-c717b800f1e2","ios":"levelo://app?vid=fb45ad3c-928a-4b4f-8727-c717b800f1e2"},"vehicle_type_id":"4","last_reported":1742591326,"current_range_meters":14000,"station_id":"ce4bgl12rcd13ifvqbo0","pricing_plan_id":"cebpf4jnsgd1na2vs0mg"},{"bike_id":"783ea8a6-724e-4dc6-9e98-38098d4c1741","system_id":"levelo_inurba_marseille","lat":43.29269,"lon":5.36842,"is_reserved":false,"is_disabled":false,"rental_uris":{"android":"levelo://app?vid=783ea8a6-724e-4dc6-9e98-38098d4c1741","ios":"levelo://app?vid=783ea8a6-724e-4dc6-9e98-38098d4c1741"},"vehicle_type_id":"4","last_reported":1742591326,"current_range_meters":14800,"station_id":"ce4bhbp2rcd13ifvqesg","pricing_plan_id":"cebpf4jnsgd1na2vs0mg"},{"bike_id":"302bc0ae-8754-4be9-a133-02b14fa4c2a9","system_id":"levelo_inurba_marseille","lat":43.31077,"lon":5.37741,"is_reserved":false,"is_disabled":false,"rental_uris":{"android":"levelo://app?vid=302bc0ae-8754-4be9-a133-02b14fa4c2a9","ios":"levelo://app?vid=302bc0ae-8754-4be9-a133-02b14fa4c2a9"},"vehicle_type_id":"4","last_reported":1742591326,"current_range_meters":14800,"station_id":"ce4bgt92rcd13ifvqcg0","pricing_plan_id":"cebpf4jnsgd1na2vs0mg"},{"bike_id":"b8947409-508b-461c-b433-a1d5d02b6078","system_id":"levelo_inurba_marseille","lat":43.26557,"lon":5.37278,"is_reserved":false,"is_disabled":false,"rental_uris":{"android":"levelo://app?vid=b8947409-508b-461c-b433-a1d5d02b6078","ios":"levelo://app?vid=b8947409-508b-461c-b433-a1d5d02b6078"},"vehicle_type_id":"4","last_reported":1742591326,"current_range_meters":14800,"station_id":"ce4bhg12rcd13ifvqf70","pricing_plan_id":"cebpf4jnsgd1na2vs0mg"},{"bike_id":"779365de-9e7e-435f-9959-7e486fb3ab2d","system_id":"levelo_inurba_marseille","lat":43.29278,"lon":5.37616,"is_reserved":false,"is_disabled":false,"rental_uris":{"android":"levelo://app?vid=779365de-9e7e-435f-9959-7e486fb3ab2d","ios":"levelo://app?vid=779365de-9e7e-435f-9959-7e486fb3ab2d"},"vehicle_type_id":"4","last_reported":1742591326,"current_range_meters":14800,"station_id":"ce4bgi12rcd13ifvqb80","pricing_plan_id":"cebpf4jnsgd1na2vs0mg"},{"bike_id":"72503a27-a949-4a46-b139-c44d4f416a58","system_id":"levelo_inurba_marseille","lat":43.23198,"lon":5.35538,"is_reserved":false,"is_disabled":false,"rental_uris":{"android":"levelo://app?vid=72503a27-a949-4a46-b139-c44d4f416a58","ios":"levelo://app?vid=72503a27-a949-4a46-b139-c44d4f416a58"},"vehicle_type_id":"4","last_reported":1742591326,"current_range_meters":15200,"station_id":"ce4bhu92rcd13ifvqi70","pricing_plan_id":"cebpf4jnsgd1na2vs0mg"},{"bike_id":"049af6ba-b215-43da-aea8-951e47555d26","system_id":"levelo_inurba_marseille","lat":43.3008,"lon":5.39092,"is_reserved":false,"is_disabled":false,"rental_uris":{"android":"levelo://app?vid=049af6ba-b215-43da-aea8-951e47555d26","ios":"levelo://app?vid=049af6ba-b215-43da-aea8-951e47555d26"},"vehicle_type_id":"4","last_reported":1742591326,"current_range_meters":15200,"station_id":"ce4bh192rcd13ifvqdb0","pricing_plan_id":"cebpf4jnsgd1na2vs0mg"},{"bike_id":"9e5fb07a-40f5-48a7-8576-b3add1049650","system_id":"levelo_inurba_marseille","lat":43.27612,"lon":5.36112,"is_reserved":false,"is_disabled":false,"rental_uris":{"android":"levelo://app?vid=9e5fb07a-40f5-48a7-8576-b3add1049650","ios":"levelo://app?vid=9e5fb07a-40f5-48a7-8576-b3add1049650"},"vehicle_type_id":"4","last_reported":1742591326,"current_range_meters":15200,"station_id":"ce4bgj92rcd13ifvqbe0","pricing_plan_id":"cebpf4jnsgd1na2vs0mg"},{"bike_id":"47476f7a-6089-40f4-82cd-55d2acb8987b","system_id":"levelo_inurba_marseille","lat":43.2396,"lon":5.36635,"is_reserved":false,"is_disabled":false,"rental_uris":{"android":"levelo://app?vid=47476f7a-6089-40f4-82cd-55d2acb8987b","ios":"levelo://app?vid=47476f7a-6089-40f4-82cd-55d2acb8987b"},"vehicle_type_id":"4","last_reported":1742591326,"current_range_meters":15200,"station_id":"ce4bhi12rcd13ifvqfp0","pricing_plan_id":"cebpf4jnsgd1na2vs0mg"},{"bike_id":"d1dcf511-d8e9-43ef-bc85-50de65aae4a3","system_id":"levelo_inurba_marseille","lat":43.2893,"lon":5.38732,"is_reserved":false,"is_disabled":false,"rental_uris":{"android":"levelo://app?vid=d1dcf511-d8e9-43ef-bc85-50de65aae4a3","ios":"levelo://app?vid=d1dcf511-d8e9-43ef-bc85-50de65aae4a3"},"vehicle_type_id":"4","last_reported":1742591326,"current_range_meters":15200,"station_id":"","pricing_plan_id":"cebpf4jnsgd1na2vs0mg"},{"bike_id":"fbb498fe-0420-4fc0-a001-6f20ac1d59dd","system_id":"levelo_inurba_marseille","lat":43.33627,"lon":5.4103,"is_reserved":false,"is_disabled":true,"rental_uris":{"android":"levelo://app?vid=fbb498fe-0420-4fc0-a001-6f20ac1d59dd","ios":"levelo://app?vid=fbb498fe-0420-4fc0-a001-6f20ac1d59dd"},"vehicle_type_id":"4","last_reported":1742591326,"current_range_meters":16000,"station_id":"ce4bhqh2rcd13ifvqhmg","pricing_plan_id":"cebpf4jnsgd1na2vs0mg"},{"bike_id":"fabef5ba-78bd-444f-8775-d6c21179e6f7","system_id":"levelo_inurba_marseille","lat":43.29415,"lon":5.38595,"is_reserved":false,"is_disabled":true,"rental_uris":{"android":"levelo://app?vid=fabef5ba-78bd-444f-8775-d6c21179e6f7","ios":"levelo://app?vid=fabef5ba-78bd-444f-8775-d6c21179e6f7"},"vehicle_type_id":"4","last_reported":1742591326,"current_range_meters":16000,"station_id":"ce4bh2h2rcd13ifvqdh0","pricing_plan_id":"cebpf4jnsgd1na2vs0mg"},{"bike_id":"f39eebaf-f4e1-4cce-8237-2c3fcbf1a21f","system_id":"levelo_inurba_marseille","lat":43.29043,"lon":5.35911,"is_reserved":false,"is_disabled":false,"rental_uris":{"android":"levelo://app?vid=f39eebaf-f4e1-4cce-8237-2c3fcbf1a21f","ios":"levelo://app?vid=f39eebaf-f4e1-4cce-8237-2c3fcbf1a21f"},"vehicle_type_id":"4","last_reported":1742591326,"current_range_meters":16000,"station_id":"ce4bha92rcd13ifvqeg0","pricing_plan_id":"cebpf4jnsgd1na2vs0mg"},{"bike_id":"8682048b-22d3-4d81-b8c1-fb4c78459528","system_id":"levelo_inurba_marseille","lat":43.32649,"lon":5.40987,"is_reserved":false,"is_disabled":false,"rental_uris":{"android":"levelo://app?vid=8682048b-22d3-4d81-b8c1-fb4c78459528","ios":"levelo://app?vid=8682048b-22d3-4d81-b8c1-fb4c78459528"},"vehicle_type_id":"4","last_reported":1742591326,"current_range_meters":15200,"station_id":"ce4bhpp2rcd13ifvqhgg","pricing_plan_id":"cebpf4jnsgd1na2vs0mg"},{"bike_id":"e25963ed-e672-4a92-a417-d585a3bc1692","system_id":"levelo_inurba_marseille","lat":43.27847,"lon":5.39734,"is_reserved":false,"is_disabled":true,"rental_uris":{"android":"levelo://app?vid=e25963ed-e672-4a92-a417-d585a3bc1692","ios":"levelo://app?vid=e25963ed-e672-4a92-a417-d585a3bc1692"},"vehicle_type_id":"4","last_reported":1742591326,"current_range_meters":16000,"station_id":"","pricing_plan_id":"cebpf4jnsgd1na2vs0mg"},{"bike_id":"5b11d453-6f94-47a5-bb26-1ad375790f66","system_id":"levelo_inurba_marseille","lat":43.30319,"lon":5.40437,"is_reserved":false,"is_disabled":false,"rental_uris":{"android":"levelo://app?vid=5b11d453-6f94-47a5-bb26-1ad375790f66","ios":"levelo://app?vid=5b11d453-6f94-47a5-bb26-1ad375790f66"},"vehicle_type_id":"4","last_reported":1742591326,"current_range_meters":16000,"station_id":"ce4bh012rcd13ifvqd10","pricing_plan_id":"cebpf4jnsgd1na2vs0mg"},{"bike_id":"7d9bf2d2-5153-499c-a1fb-dcb365a9e566","system_id":"levelo_inurba_marseille","lat":43.24168,"lon":5.39728,"is_reserved":false,"is_disabled":false,"rental_uris":{"android":"levelo://app?vid=7d9bf2d2-5153-499c-a1fb-dcb365a9e566","ios":"levelo://app?vid=7d9bf2d2-5153-499c-a1fb-dcb365a9e566"},"vehicle_type_id":"4","last_reported":1742591326,"current_range_meters":16000,"station_id":"ce4bhn12rcd13ifvqgpg","pricing_plan_id":"cebpf4jnsgd1na2vs0mg"},{"bike_id":"7e74b698-9062-469b-b8c2-03653df17d53","system_id":"levelo_inurba_marseille","lat":43.30893,"lon":5.39636,"is_reserved":false,"is_disabled":false,"rental_uris":{"android":"levelo://app?vid=7e74b698-9062-469b-b8c2-03653df17d53","ios":"levelo://app?vid=7e74b698-9062-469b-b8c2-03653df17d53"},"vehicle_type_id":"4","last_reported":1742591326,"current_range_meters":16000,"station_id":"ce4bh012rcd13ifvqcv0","pricing_plan_id":"cebpf4jnsgd1na2vs0mg"},{"bike_id":"902f19d5-7a47-45ad-bf2e-fde5758192b9","system_id":"levelo_inurba_marseille","lat":43.24662,"lon":5.38167,"is_reserved":false,"is_disabled":false,"rental_uris":{"android":"levelo://app?vid=902f19d5-7a47-45ad-bf2e-fde5758192b9","ios":"levelo://app?vid=902f19d5-7a47-45ad-bf2e-fde5758192b9"},"vehicle_type_id":"4","last_reported":1742591326,"current_range_meters":16000,"station_id":"ce4bhih2rcd13ifvqfr0","pricing_plan_id":"cebpf4jnsgd1na2vs0mg"},{"bike_id":"3f3f99da-6673-441e-a5b3-6857219a400e","system_id":"levelo_inurba_marseille","lat":43.24999,"lon":5.38929,"is_reserved":false,"is_disabled":false,"rental_uris":{"android":"levelo://app?vid=3f3f99da-6673-441e-a5b3-6857219a400e","ios":"levelo://app?vid=3f3f99da-6673-441e-a5b3-6857219a400e"},"vehicle_type_id":"4","last_reported":1742591326,"current_range_meters":16000,"station_id":"ce4bhgp2rcd13ifvqfd0","pricing_plan_id":"cebpf4jnsgd1na2vs0mg"},{"bike_id":"6056531a-3e1a-4c36-a541-6a34140512b7","system_id":"levelo_inurba_marseille","lat":43.31473,"lon":5.37293,"is_reserved":false,"is_disabled":false,"rental_uris":{"android":"levelo://app?vid=6056531a-3e1a-4c36-a541-6a34140512b7","ios":"levelo://app?vid=6056531a-3e1a-4c36-a541-6a34140512b7"},"vehicle_type_id":"4","last_reported":1742591326,"current_range_meters":16000,"station_id":"ce4bgt12rcd13ifvqcd0","pricing_plan_id":"cebpf4jnsgd1na2vs0mg"},{"bike_id":"d3ebde68-98d7-4a24-a835-e6ce3b34fc4b","system_id":"levelo_inurba_marseille","lat":43.26555,"lon":5.37298,"is_reserved":false,"is_disabled":false,"rental_uris":{"android":"levelo://app?vid=d3ebde68-98d7-4a24-a835-e6ce3b34fc4b","ios":"levelo://app?vid=d3ebde68-98d7-4a24-a835-e6ce3b34fc4b"},"vehicle_type_id":"4","last_reported":1742591326,"current_range_meters":16000,"station_id":"ce4bhg12rcd13ifvqf70","pricing_plan_id":"cebpf4jnsgd1na2vs0mg"},{"bike_id":"7038600d-2ea3-458a-a378-9b8b0acc1942","system_id":"levelo_inurba_marseille","lat":43.29609,"lon":5.38101,"is_reserved":false,"is_disabled":false,"rental_uris":{"android":"levelo://app?vid=7038600d-2ea3-458a-a378-9b8b0acc1942","ios":"levelo://app?vid=7038600d-2ea3-458a-a378-9b8b0acc1942"},"vehicle_type_id":"4","last_reported":1742591326,"current_range_meters":16400,"station_id":"ce4bgl12rcd13ifvqbo0","pricing_plan_id":"cebpf4jnsgd1na2vs0mg"},{"bike_id":"33179e82-ff91-4c5a-8fda-ffcadcd41c7d","system_id":"levelo_inurba_marseille","lat":43.29911,"lon":5.38141,"is_reserved":false,"is_disabled":false,"rental_uris":{"android":"levelo://app?vid=33179e82-ff91-4c5a-8fda-ffcadcd41c7d","ios":"levelo://app?vid=33179e82-ff91-4c5a-8fda-ffcadcd41c7d"},"vehicle_type_id":"4","last_reported":1742591326,"current_range_meters":16400,"station_id":"ce4bgj12rcd13ifvqbc0","pricing_plan_id":"cebpf4jnsgd1na2vs0mg"},{"bike_id":"ff0b86f7-1349-4aed-8f97-17f96801d957","system_id":"levelo_inurba_marseille","lat":43.28427,"lon":5.39197,"is_reserved":false,"is_disabled":false,"rental_uris":{"android":"levelo://app?vid=ff0b86f7-1349-4aed-8f97-17f96801d957","ios":"levelo://app?vid=ff0b86f7-1349-4aed-8f97-17f96801d957"},"vehicle_type_id":"4","last_reported":1742591326,"current_range_meters":16400,"station_id":"ce4bhoh2rcd13ifvqh5g","pricing_plan_id":"cebpf4jnsgd1na2vs0mg"},{"bike_id":"7059270c-00f4-4527-b71b-bacef5af942f","system_id":"levelo_inurba_marseille","lat":43.30126,"lon":5.39867,"is_reserved":false,"is_disabled":false,"rental_uris":{"android":"levelo://app?vid=7059270c-00f4-4527-b71b-bacef5af942f","ios":"levelo://app?vid=7059270c-00f4-4527-b71b-bacef5af942f"},"vehicle_type_id":"4","last_reported":1742591326,"current_range_meters":16400,"station_id":"ce4bh0h2rcd13ifvqd40","pricing_plan_id":"cebpf4jnsgd1na2vs0mg"},{"bike_id":"d16d5ae2-a108-44f8-a226-14fecf4f3137","system_id":"levelo_inurba_marseille","lat":43.27985,"lon":5.40024,"is_reserved":false,"is_disabled":false,"rental_uris":{"android":"levelo://app?vid=d16d5ae2-a108-44f8-a226-14fecf4f3137","ios":"levelo://app?vid=d16d5ae2-a108-44f8-a226-14fecf4f3137"},"vehicle_type_id":"4","last_reported":1742591326,"current_range_meters":16400,"station_id":"ce4bho92rcd13ifvqh4g","pricing_plan_id":"cebpf4jnsgd1na2vs0mg"},{"bike_id":"2032e81a-8d24-4036-9cc6-bf67698b8322","system_id":"levelo_inurba_marseille","lat":43.24177,"lon":5.39733,"is_reserved":false,"is_disabled":false,"rental_uris":{"android":"levelo://app?vid=2032e81a-8d24-4036-9cc6-bf67698b8322","ios":"levelo://app?vid=2032e81a-8d24-4036-9cc6-bf67698b8322"},"vehicle_type_id":"4","last_reported":1742591326,"current_range_meters":16400,"station_id":"ce4bhn12rcd13ifvqgpg","pricing_plan_id":"cebpf4jnsgd1na2vs0mg"},{"bike_id":"b6069b84-a07b-445d-a58c-8caad1641412","system_id":"levelo_inurba_marseille","lat":43.29322,"lon":5.37152,"is_reserved":false,"is_disabled":false,"rental_uris":{"android":"levelo://app?vid=b6069b84-a07b-445d-a58c-8caad1641412","ios":"levelo://app?vid=b6069b84-a07b-445d-a58c-8caad1641412"},"vehicle_type_id":"4","last_reported":1742591326,"current_range_meters":16400,"station_id":"ce4bgh92rcd13ifvqb40","pricing_plan_id":"cebpf4jnsgd1na2vs0mg"},{"bike_id":"eed41007-570d-4d7f-871a-7ed78fc319fd","system_id":"levelo_inurba_marseille","lat":43.29934,"lon":5.36526,"is_reserved":false,"is_disabled":false,"rental_uris":{"android":"levelo://app?vid=eed41007-570d-4d7f-871a-7ed78fc319fd","ios":"levelo://app?vid=eed41007-570d-4d7f-871a-7ed78fc319fd"},"vehicle_type_id":"4","last_reported":1742591326,"current_range_meters":16400,"station_id":"ce4bgm92rcd13ifvqbr0","pricing_plan_id":"cebpf4jnsgd1na2vs0mg"},{"bike_id":"d954b141-3cee-4de0-9c29-d5babd11cd82","system_id":"levelo_inurba_marseille","lat":43.25089,"lon":5.3954,"is_reserved":false,"is_disabled":false,"rental_uris":{"android":"levelo://app?vid=d954b141-3cee-4de0-9c29-d5babd11cd82","ios":"levelo://app?vid=d954b141-3cee-4de0-9c29-d5babd11cd82"},"vehicle_type_id":"4","last_reported":1742591326,"current_range_meters":16400,"station_id":"ce4bhm12rcd13ifvqgkg","pricing_plan_id":"cebpf4jnsgd1na2vs0mg"},{"bike_id":"d115cd95-7ca9-41b0-8689-a1da733dfb56","system_id":"levelo_inurba_marseille","lat":43.29382,"lon":5.37836,"is_reserved":false,"is_disabled":false,"rental_uris":{"android":"levelo://app?vid=d115cd95-7ca9-41b0-8689-a1da733dfb56","ios":"levelo://app?vid=d115cd95-7ca9-41b0-8689-a1da733dfb56"},"vehicle_type_id":"4","last_reported":1742591326,"current_range_meters":16800,"station_id":"ce4bgjh2rcd13ifvqbf0","pricing_plan_id":"cebpf4jnsgd1na2vs0mg"},{"bike_id":"5e3e35b3-6759-4954-a22e-0acf9fa523e5","system_id":"levelo_inurba_marseille","lat":43.31341,"lon":5.36718,"is_reserved":false,"is_disabled":false,"rental_uris":{"android":"levelo://app?vid=5e3e35b3-6759-4954-a22e-0acf9fa523e5","ios":"levelo://app?vid=5e3e35b3-6759-4954-a22e-0acf9fa523e5"},"vehicle_type_id":"4","last_reported":1742591326,"current_range_meters":16800,"station_id":"ce4bgr92rcd13ifvqc6g","pricing_plan_id":"cebpf4jnsgd1na2vs0mg"},{"bike_id":"280a7095-4eb2-43f9-a0c4-f90b539d0a09","system_id":"levelo_inurba_marseille","lat":43.30923,"lon":5.40131,"is_reserved":false,"is_disabled":false,"rental_uris":{"android":"levelo://app?vid=280a7095-4eb2-43f9-a0c4-f90b539d0a09","ios":"levelo://app?vid=280a7095-4eb2-43f9-a0c4-f90b539d0a09"},"vehicle_type_id":"4","last_reported":1742591326,"current_range_meters":16800,"station_id":"ce4bgvp2rcd13ifvqct0","pricing_plan_id":"cebpf4jnsgd1na2vs0mg"},{"bike_id":"e725f6d2-eeea-4eb5-9126-12039f6b438a","system_id":"levelo_inurba_marseille","lat":43.2861,"lon":5.37065,"is_reserved":false,"is_disabled":false,"rental_uris":{"android":"levelo://app?vid=e725f6d2-eeea-4eb5-9126-12039f6b438a","ios":"levelo://app?vid=e725f6d2-eeea-4eb5-9126-12039f6b438a"},"vehicle_type_id":"4","last_reported":1742591326,"current_range_meters":16800,"station_id":"ce4bht12rcd13ifvqi60","pricing_plan_id":"cebpf4jnsgd1na2vs0mg"},{"bike_id":"a1abd43d-b831-4aef-806b-2c87564102d5","system_id":"levelo_inurba_marseille","lat":43.3089,"lon":5.37207,"is_reserved":false,"is_disabled":false,"rental_uris":{"android":"levelo://app?vid=a1abd43d-b831-4aef-806b-2c87564102d5","ios":"levelo://app?vid=a1abd43d-b831-4aef-806b-2c87564102d5"},"vehicle_type_id":"4","last_reported":1742591326,"current_range_meters":16800,"station_id":"ce4bguh2rcd13ifvqckg","pricing_plan_id":"cebpf4jnsgd1na2vs0mg"},{"bike_id":"20319b38-0bb2-4cba-8151-8eb47e1235c3","system_id":"levelo_inurba_marseille","lat":43.26882,"lon":5.3939,"is_reserved":false,"is_disabled":false,"rental_uris":{"android":"levelo://app?vid=20319b38-0bb2-4cba-8151-8eb47e1235c3","ios":"levelo://app?vid=20319b38-0bb2-4cba-8151-8eb47e1235c3"},"vehicle_type_id":"4","last_reported":1742591326,"current_range_meters":16800,"station_id":"","pricing_plan_id":"cebpf4jnsgd1na2vs0mg"},{"bike_id":"c8f0e1bd-4833-4cf1-a03d-f1d31db08273","system_id":"levelo_inurba_marseille","lat":43.284523,"lon":5.358936,"is_reserved":false,"is_disabled":false,"rental_uris":{"android":"levelo://app?vid=c8f0e1bd-4833-4cf1-a03d-f1d31db08273","ios":"levelo://app?vid=c8f0e1bd-4833-4cf1-a03d-f1d31db08273"},"vehicle_type_id":"4","last_reported":1742591326,"current_range_meters":16800,"station_id":"ce4bhah2rcd13ifvqei0","pricing_plan_id":"cebpf4jnsgd1na2vs0mg"},{"bike_id":"362c0793-680f-43b7-a1aa-d84cd3219497","system_id":"levelo_inurba_marseille","lat":43.31068,"lon":5.38347,"is_reserved":false,"is_disabled":false,"rental_uris":{"android":"levelo://app?vid=362c0793-680f-43b7-a1aa-d84cd3219497","ios":"levelo://app?vid=362c0793-680f-43b7-a1aa-d84cd3219497"},"vehicle_type_id":"4","last_reported":1742591326,"current_range_meters":16800,"station_id":"ce4bgv92rcd13ifvqcr0","pricing_plan_id":"cebpf4jnsgd1na2vs0mg"},{"bike_id":"302da745-dc3e-489e-b2c8-445dcb3c38b1","system_id":"levelo_inurba_marseille","lat":43.23129,"lon":5.35419,"is_reserved":false,"is_disabled":false,"rental_uris":{"android":"levelo://app?vid=302da745-dc3e-489e-b2c8-445dcb3c38b1","ios":"levelo://app?vid=302da745-dc3e-489e-b2c8-445dcb3c38b1"},"vehicle_type_id":"4","last_reported":1742591326,"current_range_meters":16800,"station_id":"cpo3342slgdg3j2ifvpg","pricing_plan_id":"cebpf4jnsgd1na2vs0mg"},{"bike_id":"d742c3ff-c1c9-4e36-b458-939313d82a16","system_id":"levelo_inurba_marseille","lat":43.31184,"lon":5.38726,"is_reserved":false,"is_disabled":false,"rental_uris":{"android":"levelo://app?vid=d742c3ff-c1c9-4e36-b458-939313d82a16","ios":"levelo://app?vid=d742c3ff-c1c9-4e36-b458-939313d82a16"},"vehicle_type_id":"4","last_reported":1742591326,"current_range_meters":17200,"station_id":"ce4bgv12rcd13ifvqcp0","pricing_plan_id":"cebpf4jnsgd1na2vs0mg"},{"bike_id":"cfce02fe-376e-4215-ac6c-87189e03c557","system_id":"levelo_inurba_marseille","lat":43.29591,"lon":5.38648,"is_reserved":false,"is_disabled":false,"rental_uris":{"android":"levelo://app?vid=cfce02fe-376e-4215-ac6c-87189e03c557","ios":"levelo://app?vid=cfce02fe-376e-4215-ac6c-87189e03c557"},"vehicle_type_id":"4","last_reported":1742591326,"current_range_meters":17200,"station_id":"","pricing_plan_id":"cebpf4jnsgd1na2vs0mg"},{"bike_id":"d1859073-85d4-4919-93cf-f89115e402b1","system_id":"levelo_inurba_marseille","lat":43.29531,"lon":5.38537,"is_reserved":false,"is_disabled":false,"rental_uris":{"android":"levelo://app?vid=d1859073-85d4-4919-93cf-f89115e402b1","ios":"levelo://app?vid=d1859073-85d4-4919-93cf-f89115e402b1"},"vehicle_type_id":"4","last_reported":1742591326,"current_range_meters":17200,"station_id":"ce4bgih2rcd13ifvqba0","pricing_plan_id":"cebpf4jnsgd1na2vs0mg"},{"bike_id":"041746e8-f612-4f02-ba2c-e784ef31f6c4","system_id":"levelo_inurba_marseille","lat":43.2315,"lon":5.43711,"is_reserved":false,"is_disabled":false,"rental_uris":{"android":"levelo://app?vid=041746e8-f612-4f02-ba2c-e784ef31f6c4","ios":"levelo://app?vid=041746e8-f612-4f02-ba2c-e784ef31f6c4"},"vehicle_type_id":"4","last_reported":1742591326,"current_range_meters":17200,"station_id":"ce4bhmp2rcd13ifvqgog","pricing_plan_id":"cebpf4jnsgd1na2vs0mg"},{"bike_id":"4fcd5aa8-47a6-47e0-acf8-4669a5d049c7","system_id":"levelo_inurba_marseille","lat":43.32354,"lon":5.38889,"is_reserved":false,"is_disabled":false,"rental_uris":{"android":"levelo://app?vid=4fcd5aa8-47a6-47e0-acf8-4669a5d049c7","ios":"levelo://app?vid=4fcd5aa8-47a6-47e0-acf8-4669a5d049c7"},"vehicle_type_id":"4","last_reported":1742591326,"current_range_meters":17200,"station_id":"ce4bhqp2rcd13ifvqhog","pricing_plan_id":"cebpf4jnsgd1na2vs0mg"},{"bike_id":"079797f2-251b-4382-9c2f-1a436face898","system_id":"levelo_inurba_marseille","lat":43.31183,"lon":5.38709,"is_reserved":false,"is_disabled":false,"rental_uris":{"android":"levelo://app?vid=079797f2-251b-4382-9c2f-1a436face898","ios":"levelo://app?vid=079797f2-251b-4382-9c2f-1a436face898"},"vehicle_type_id":"4","last_reported":1742591326,"current_range_meters":17200,"station_id":"ce4bgv12rcd13ifvqcp0","pricing_plan_id":"cebpf4jnsgd1na2vs0mg"},{"bike_id":"62500cbd-644e-47b5-bf5a-b7acede97409","system_id":"levelo_inurba_marseille","lat":43.30459,"lon":5.3973,"is_reserved":false,"is_disabled":false,"rental_uris":{"android":"levelo://app?vid=62500cbd-644e-47b5-bf5a-b7acede97409","ios":"levelo://app?vid=62500cbd-644e-47b5-bf5a-b7acede97409"},"vehicle_type_id":"4","last_reported":1742591326,"current_range_meters":17200,"station_id":"ce4bh092rcd13ifvqd20","pricing_plan_id":"cebpf4jnsgd1na2vs0mg"},{"bike_id":"0107fb56-bdbb-44ce-b451-bb48458bd3dd","system_id":"levelo_inurba_marseille","lat":43.26072,"lon":5.39392,"is_reserved":false,"is_disabled":false,"rental_uris":{"android":"levelo://app?vid=0107fb56-bdbb-44ce-b451-bb48458bd3dd","ios":"levelo://app?vid=0107fb56-bdbb-44ce-b451-bb48458bd3dd"},"vehicle_type_id":"4","last_reported":1742591326,"current_range_meters":17200,"station_id":"ce4bhh92rcd13ifvqfj0","pricing_plan_id":"cebpf4jnsgd1na2vs0mg"},{"bike_id":"d9d90e28-0cde-498e-9e49-e2278f18bc23","system_id":"levelo_inurba_marseille","lat":43.32366,"lon":5.38888,"is_reserved":false,"is_disabled":false,"rental_uris":{"android":"levelo://app?vid=d9d90e28-0cde-498e-9e49-e2278f18bc23","ios":"levelo://app?vid=d9d90e28-0cde-498e-9e49-e2278f18bc23"},"vehicle_type_id":"4","last_reported":1742591326,"current_range_meters":17200,"station_id":"ce4bhqp2rcd13ifvqhog","pricing_plan_id":"cebpf4jnsgd1na2vs0mg"},{"bike_id":"acd9ce7b-e08a-4222-a322-17f186f8fa7c","system_id":"levelo_inurba_marseille","lat":43.30423,"lon":5.41276,"is_reserved":false,"is_disabled":false,"rental_uris":{"android":"levelo://app?vid=acd9ce7b-e08a-4222-a322-17f186f8fa7c","ios":"levelo://app?vid=acd9ce7b-e08a-4222-a322-17f186f8fa7c"},"vehicle_type_id":"4","last_reported":1742591326,"current_range_meters":17600,"station_id":"ce4bhop2rcd13ifvqh8g","pricing_plan_id":"cebpf4jnsgd1na2vs0mg"},{"bike_id":"766b35c7-9d5b-404e-b6d3-0bfc79fe861c","system_id":"levelo_inurba_marseille","lat":43.29528,"lon":5.38535,"is_reserved":false,"is_disabled":false,"rental_uris":{"android":"levelo://app?vid=766b35c7-9d5b-404e-b6d3-0bfc79fe861c","ios":"levelo://app?vid=766b35c7-9d5b-404e-b6d3-0bfc79fe861c"},"vehicle_type_id":"4","last_reported":1742591326,"current_range_meters":17600,"station_id":"ce4bgih2rcd13ifvqba0","pricing_plan_id":"cebpf4jnsgd1na2vs0mg"},{"bike_id":"3b7554be-f892-4f24-bedc-1fcf15a063f3","system_id":"levelo_inurba_marseille","lat":43.23194,"lon":5.35545,"is_reserved":false,"is_disabled":false,"rental_uris":{"android":"levelo://app?vid=3b7554be-f892-4f24-bedc-1fcf15a063f3","ios":"levelo://app?vid=3b7554be-f892-4f24-bedc-1fcf15a063f3"},"vehicle_type_id":"4","last_reported":1742591326,"current_range_meters":17600,"station_id":"ce4bhu92rcd13ifvqi70","pricing_plan_id":"cebpf4jnsgd1na2vs0mg"},{"bike_id":"7e193830-7cd7-4a83-a859-7c75c439c8b8","system_id":"levelo_inurba_marseille","lat":43.29615,"lon":5.37725,"is_reserved":false,"is_disabled":false,"rental_uris":{"android":"levelo://app?vid=7e193830-7cd7-4a83-a859-7c75c439c8b8","ios":"levelo://app?vid=7e193830-7cd7-4a83-a859-7c75c439c8b8"},"vehicle_type_id":"4","last_reported":1742591326,"current_range_meters":17600,"station_id":"ce4bgi92rcd13ifvqb90","pricing_plan_id":"cebpf4jnsgd1na2vs0mg"},{"bike_id":"40b49dd9-0a91-4dc0-a166-a21d1603b315","system_id":"levelo_inurba_marseille","lat":43.29024,"lon":5.38646,"is_reserved":false,"is_disabled":false,"rental_uris":{"android":"levelo://app?vid=40b49dd9-0a91-4dc0-a166-a21d1603b315","ios":"levelo://app?vid=40b49dd9-0a91-4dc0-a166-a21d1603b315"},"vehicle_type_id":"4","last_reported":1742591326,"current_range_meters":17600,"station_id":"ce4bh4p2rcd13ifvqe0g","pricing_plan_id":"cebpf4jnsgd1na2vs0mg"},{"bike_id":"cb0d462f-af8f-4ec4-8127-ba1c9fc2a6af","system_id":"levelo_inurba_marseille","lat":43.31338,"lon":5.36712,"is_reserved":false,"is_disabled":false,"rental_uris":{"android":"levelo://app?vid=cb0d462f-af8f-4ec4-8127-ba1c9fc2a6af","ios":"levelo://app?vid=cb0d462f-af8f-4ec4-8127-ba1c9fc2a6af"},"vehicle_type_id":"4","last_reported":1742591326,"current_range_meters":17600,"station_id":"ce4bgr92rcd13ifvqc6g","pricing_plan_id":"cebpf4jnsgd1na2vs0mg"},{"bike_id":"dca82548-0c51-418d-85fe-8c5f27164951","system_id":"levelo_inurba_marseille","lat":43.30556,"lon":5.36708,"is_reserved":false,"is_disabled":false,"rental_uris":{"android":"levelo://app?vid=dca82548-0c51-418d-85fe-8c5f27164951","ios":"levelo://app?vid=dca82548-0c51-418d-85fe-8c5f27164951"},"vehicle_type_id":"4","last_reported":1742591326,"current_range_meters":18000,"station_id":"ce4bgrp2rcd13ifvqc9g","pricing_plan_id":"cebpf4jnsgd1na2vs0mg"},{"bike_id":"b9bf1cba-ae9c-4042-bf69-0b4e8e1cecdc","system_id":"levelo_inurba_marseille","lat":43.25588,"lon":5.38233,"is_reserved":false,"is_disabled":false,"rental_uris":{"android":"levelo://app?vid=b9bf1cba-ae9c-4042-bf69-0b4e8e1cecdc","ios":"levelo://app?vid=b9bf1cba-ae9c-4042-bf69-0b4e8e1cecdc"},"vehicle_type_id":"4","last_reported":1742591326,"current_range_meters":18000,"station_id":"ce4bhih2rcd13ifvqfs0","pricing_plan_id":"cebpf4jnsgd1na2vs0mg"},{"bike_id":"77f73f15-96be-49c2-931d-139d4a14dbbf","system_id":"levelo_inurba_marseille","lat":43.3211,"lon":5.36789,"is_reserved":false,"is_disabled":false,"rental_uris":{"android":"levelo://app?vid=77f73f15-96be-49c2-931d-139d4a14dbbf","ios":"levelo://app?vid=77f73f15-96be-49c2-931d-139d4a14dbbf"},"vehicle_type_id":"4","last_reported":1742591326,"current_range_meters":18000,"station_id":"ce4bhrh2rcd13ifvqhug","pricing_plan_id":"cebpf4jnsgd1na2vs0mg"},{"bike_id":"def295ac-a294-49d0-8e6c-790e5033ef96","system_id":"levelo_inurba_marseille","lat":43.32157,"lon":5.36712,"is_reserved":false,"is_disabled":false,"rental_uris":{"android":"levelo://app?vid=def295ac-a294-49d0-8e6c-790e5033ef96","ios":"levelo://app?vid=def295ac-a294-49d0-8e6c-790e5033ef96"},"vehicle_type_id":"4","last_reported":1742591326,"current_range_meters":18000,"station_id":"ce4bhrh2rcd13ifvqhug","pricing_plan_id":"cebpf4jnsgd1na2vs0mg"},{"bike_id":"d8878601-3ef9-4b69-ae9e-1dde88f059ac","system_id":"levelo_inurba_marseille","lat":43.24163,"lon":5.36393,"is_reserved":false,"is_disabled":false,"rental_uris":{"android":"levelo://app?vid=d8878601-3ef9-4b69-ae9e-1dde88f059ac","ios":"levelo://app?vid=d8878601-3ef9-4b69-ae9e-1dde88f059ac"},"vehicle_type_id":"4","last_reported":1742591326,"current_range_meters":18000,"station_id":"cpo36qri1sfpv3e86is0","pricing_plan_id":"cebpf4jnsgd1na2vs0mg"},{"bike_id":"5341faf7-4f2e-487c-9686-ada13742d428","system_id":"levelo_inurba_marseille","lat":43.32999,"lon":5.39005,"is_reserved":false,"is_disabled":false,"rental_uris":{"android":"levelo://app?vid=5341faf7-4f2e-487c-9686-ada13742d428","ios":"levelo://app?vid=5341faf7-4f2e-487c-9686-ada13742d428"},"vehicle_type_id":"4","last_reported":1742591326,"current_range_meters":18000,"station_id":"ce4bhr92rcd13ifvqhrg","pricing_plan_id":"cebpf4jnsgd1na2vs0mg"},{"bike_id":"05196e82-2b3b-46d7-ab3e-37cd98e7884a","system_id":"levelo_inurba_marseille","lat":43.32658,"lon":5.40975,"is_reserved":false,"is_disabled":false,"rental_uris":{"android":"levelo://app?vid=05196e82-2b3b-46d7-ab3e-37cd98e7884a","ios":"levelo://app?vid=05196e82-2b3b-46d7-ab3e-37cd98e7884a"},"vehicle_type_id":"4","last_reported":1742591326,"current_range_meters":18800,"station_id":"ce4bhpp2rcd13ifvqhgg","pricing_plan_id":"cebpf4jnsgd1na2vs0mg"},{"bike_id":"5f057e05-88ef-43f2-a315-beafe07070d0","system_id":"levelo_inurba_marseille","lat":43.23207,"lon":5.3996,"is_reserved":false,"is_disabled":false,"rental_uris":{"android":"levelo://app?vid=5f057e05-88ef-43f2-a315-beafe07070d0","ios":"levelo://app?vid=5f057e05-88ef-43f2-a315-beafe07070d0"},"vehicle_type_id":"4","last_reported":1742591326,"current_range_meters":18800,"station_id":"ce4bhn12rcd13ifvqgqg","pricing_plan_id":"cebpf4jnsgd1na2vs0mg"},{"bike_id":"6ea7bb28-b578-4a71-9fed-868b3e2e6527","system_id":"levelo_inurba_marseille","lat":43.295742,"lon":5.375245,"is_reserved":false,"is_disabled":false,"rental_uris":{"android":"levelo://app?vid=6ea7bb28-b578-4a71-9fed-868b3e2e6527","ios":"levelo://app?vid=6ea7bb28-b578-4a71-9fed-868b3e2e6527"},"vehicle_type_id":"4","last_reported":1742591326,"current_range_meters":18800,"station_id":"ce4bgh92rcd13ifvqb50","pricing_plan_id":"cebpf4jnsgd1na2vs0mg"},{"bike_id":"07541760-82c4-4d38-b58c-85ffff07e965","system_id":"levelo_inurba_marseille","lat":43.23957,"lon":5.36643,"is_reserved":false,"is_disabled":false,"rental_uris":{"android":"levelo://app?vid=07541760-82c4-4d38-b58c-85ffff07e965","ios":"levelo://app?vid=07541760-82c4-4d38-b58c-85ffff07e965"},"vehicle_type_id":"4","last_reported":1742591326,"current_range_meters":18800,"station_id":"ce4bhi12rcd13ifvqfp0","pricing_plan_id":"cebpf4jnsgd1na2vs0mg"},{"bike_id":"3c09e4d7-7270-409a-85c9-9f040663ba57","system_id":"levelo_inurba_marseille","lat":43.29803,"lon":5.40394,"is_reserved":false,"is_disabled":false,"rental_uris":{"android":"levelo://app?vid=3c09e4d7-7270-409a-85c9-9f040663ba57","ios":"levelo://app?vid=3c09e4d7-7270-409a-85c9-9f040663ba57"},"vehicle_type_id":"4","last_reported":1742591326,"current_range_meters":18800,"station_id":"ce4bh112rcd13ifvqd90","pricing_plan_id":"cebpf4jnsgd1na2vs0mg"},{"bike_id":"a7c269ac-750b-4e61-a0a4-f774b818338f","system_id":"levelo_inurba_marseille","lat":43.28083,"lon":5.39659,"is_reserved":false,"is_disabled":false,"rental_uris":{"android":"levelo://app?vid=a7c269ac-750b-4e61-a0a4-f774b818338f","ios":"levelo://app?vid=a7c269ac-750b-4e61-a0a4-f774b818338f"},"vehicle_type_id":"4","last_reported":1742591326,"current_range_meters":18800,"station_id":"ce4bho12rcd13ifvqh2g","pricing_plan_id":"cebpf4jnsgd1na2vs0mg"},{"bike_id":"9da8d655-6e03-4568-82b8-9d84c99c1233","system_id":"levelo_inurba_marseille","lat":43.31172,"lon":5.38732,"is_reserved":false,"is_disabled":false,"rental_uris":{"android":"levelo://app?vid=9da8d655-6e03-4568-82b8-9d84c99c1233","ios":"levelo://app?vid=9da8d655-6e03-4568-82b8-9d84c99c1233"},"vehicle_type_id":"4","last_reported":1742591326,"current_range_meters":18800,"station_id":"ce4bgv12rcd13ifvqcp0","pricing_plan_id":"cebpf4jnsgd1na2vs0mg"},{"bike_id":"350d7781-e226-43ea-835e-a85f895c6ad6","system_id":"levelo_inurba_marseille","lat":43.28052,"lon":5.36953,"is_reserved":false,"is_disabled":false,"rental_uris":{"android":"levelo://app?vid=350d7781-e226-43ea-835e-a85f895c6ad6","ios":"levelo://app?vid=350d7781-e226-43ea-835e-a85f895c6ad6"},"vehicle_type_id":"4","last_reported":1742591326,"current_range_meters":18800,"station_id":"ce4bha12rcd13ifvqef0","pricing_plan_id":"cebpf4jnsgd1na2vs0mg"},