{"last_updated":1731247637,"ttl":60,"version":"2.2","data":{"bikes":[{"bike_id":"dcd8b508-2c18-4839-ab68-7b52cc2d3fb7","system_id":"levelo_inurba_marseille","lat":43.27065,"lon":5.42284,"is_reserved":false,"is_disabled":false,"rental_uris":{"android":"levelo://app?vid=dcd8b508-2c18-4839-ab68-7b52cc2d3fb7","ios":"levelo://app?vid=dcd8b508-2c18-4839-ab68-7b52cc2d3fb7"},"vehicle_type_id":"4","last_reported":1731247637,"current_range_meters":30000,"station_id":"ce4bhk92rcd13ifvqgb0","pricing_plan_id":"cebpf4jnsgd1na2vs0mg"},{"bike_id":"417b1b24-9d8f-4872-a930-ff009e47f1ed","system_id":"levelo_inurba_marseille","lat":43.33738,"lon":5.39185,"is_reserved":false,"is_disabled":false,"rental_uris":{"android":"levelo://app?vid=417b1b24-9d8f-4872-a930-ff009e47f1ed","ios":"levelo://app?vid=417b1b24-9d8f-4872-a930-ff009e47f1ed"},"vehicle_type_id":"4","last_reported":1731247637,"current_range_meters":22800,"station_id":"ce4bhr92rcd13ifvqhsg","pricing_plan_id":"cebpf4jnsgd1na2vs0mg"},{"bike_id":"80776379-889e-40d3-a90b-7af00c82205b","system_id":"levelo_inurba_marseille","lat":43.29535,"lon":5.42311,"is_reserved":false,"is_disabled":false,"rental_uris":{"android":"levelo://app?vid=80776379-889e-40d3-a90b-7af00c82205b","ios":"levelo://app?vid=80776379-889e-40d3-a90b-7af00c82205b"},"vehicle_type_id":"4","last_reported":1731247637,"current_range_meters":2000,"station_id":"ce4bhph2rcd13ifvqhdg","pricing_plan_id":"cebpf4jnsgd1na2vs0mg"},{"bike_id":"3f98d5bc-8cba-45da-9b18-d2bbd2d31032","system_id":"levelo_inurba_marseille","lat":43.29009,"lon":5.35624,"is_reserved":false,"is_disabled":false,"rental_uris":{"android":"levelo://app?vid=3f98d5bc-8cba-45da-9b18-d2bbd2d31032","ios":"levelo://app?vid=3f98d5bc-8cba-45da-9b18-d2bbd2d31032"},"vehicle_type_id":"4","last_reported":1731247637,"current_range_meters":12800,"station_id":"ce4bhb92rcd13ifvqen0","pricing_plan_id":"cebpf4jnsgd1na2vs0mg"},{"bike_id":"c4381704-790c-494a-bf1c-6efec8b97c7f","system_id":"levelo_inurba_marseille","lat":43.3087,"lon":5.37085,"is_reserved":false,"is_disabled":false,"rental_uris":{"android":"levelo://app?vid=c4381704-790c-494a-bf1c-6efec8b97c7f","ios":"levelo://app?vid=c4381704-790c-494a-bf1c-6efec8b97c7f"},"vehicle_type_id":"4","last_reported":1731247637,"current_range_meters":35200,"station_id":"","pricing_plan_id":"cebpf4jnsgd1na2vs0mg"},{"bike_id":"2d16f9fa-1679-452f-b5be-2285b1481350","system_id":"levelo_inurba_marseille","lat":43.27373,"lon":5.36264,"is_reserved":false,"is_disabled":false,"rental_uris":{"android":"levelo://app?vid=2d16f9fa-1679-452f-b5be-2285b1481350","ios":"levelo://app?vid=2d16f9fa-1679-452f-b5be-2285b1481350"},"vehicle_type_id":"4","last_reported":1731247637,"current_range_meters":39200,"station_id":"ce4bhbh2rcd13ifvqeo0","pricing_plan_id":"cebpf4jnsgd1na2vs0mg"},{"bike_id":"f903ea29-30fe-46ae-8eeb-7a1975d030a7","system_id":"levelo_inurba_marseille","lat":43.31722,"lon":5.3773,"is_reserved":false,"is_disabled":false,"rental_uris":{"android":"levelo://app?vid=f903ea29-30fe-46ae-8eeb-7a1975d030a7","ios":"levelo://app?vid=f903ea29-30fe-46ae-8eeb-7a1975d030a7"},"vehicle_type_id":"4","last_reported":1731247637,"current_range_meters":24400,"station_id":"ce4bgth2rcd13ifvqch0","pricing_plan_id":"cebpf4jnsgd1na2vs0mg"},{"bike_id":"5daf7e81-adca-4c69-ac49-7439dac41928","system_id":"levelo_inurba_marseille","lat":43.29553,"lon":5.42278,"is_reserved":false,"is_disabled":false,"rental_uris":{"android":"levelo://app?vid=5daf7e81-adca-4c69-ac49-7439dac41928","ios":"levelo://app?vid=5daf7e81-adca-4c69-ac49-7439dac41928"},"vehicle_type_id":"4","last_reported":1731247637,"current_range_meters":40000,"station_id":"ce4bhph2rcd13ifvqhdg","pricing_plan_id":"cebpf4jnsgd1na2vs0mg"},{"bike_id":"2356bbbe-b195-4de4-bf5f-3698a97f1fb1","system_id":"levelo_inurba_marseille","lat":43.22926,"lon":5.35374,"is_reserved":false,"is_disabled":false,"rental_uris":{"android":"levelo://app?vid=2356bbbe-b195-4de4-bf5f-3698a97f1fb1","ios":"levelo://app?vid=2356bbbe-b195-4de4-bf5f-3698a97f1fb1"},"vehicle_type_id":"4","last_reported":1731247637,"current_range_meters":9200,"station_id":"cpo3532slgdg3j2ikp40","pricing_plan_id":"cebpf4jnsgd1na2vs0mg"},{"bike_id":"bab7e8bf-3dd9-4ba8-ae9e-1d78dcf614a2","system_id":"levelo_inurba_marseille","lat":43.25097,"lon":5.39515,"is_reserved":false,"is_disabled":false,"rental_uris":{"android":"levelo://app?vid=bab7e8bf-3dd9-4ba8-ae9e-1d78dcf614a2","ios":"levelo://app?vid=bab7e8bf-3dd9-4ba8-ae9e-1d78dcf614a2"},"vehicle_type_id":"4","last_reported":1731247637,"current_range_meters":35200,"station_id":"ce4bhm12rcd13ifvqgkg","pricing_plan_id":"cebpf4jnsgd1na2vs0mg"},{"bike_id":"39d45009-c847-43d6-b7cb-7399cdf413c3","system_id":"levelo_inurba_marseille","lat":43.23192,"lon":5.39989,"is_reserved":false,"is_disabled":false,"rental_uris":{"android":"levelo://app?vid=39d45009-c847-43d6-b7cb-7399cdf413c3","ios":"levelo://app?vid=39d45009-c847-43d6-b7cb-7399cdf413c3"},"vehicle_type_id":"4","last_reported":1731247637,"current_range_meters":10800,"station_id":"ce4bhn12rcd13ifvqgqg","pricing_plan_id":"cebpf4jnsgd1na2vs0mg"},{"bike_id":"28fee574-5897-4c28-9cda-8bf087b0e3a5","system_id":"levelo_inurba_marseille","lat":43.22878,"lon":5.36503,"is_reserved":false,"is_disabled":false,"rental_uris":{"android":"levelo://app?vid=28fee574-5897-4c28-9cda-8bf087b0e3a5","ios":"levelo://app?vid=28fee574-5897-4c28-9cda-8bf087b0e3a5"},"vehicle_type_id":"4","last_reported":1731247637,"current_range_meters":9200,"station_id":"","pricing_plan_id":"cebpf4jnsgd1na2vs0mg"},{"bike_id":"7189f3bb-2a8f-406a-9a1f-badea22c40a7","system_id":"levelo_inurba_marseille","lat":43.28423,"lon":5.34992,"is_reserved":false,"is_disabled":false,"rental_uris":{"android":"levelo://app?vid=7189f3bb-2a8f-406a-9a1f-badea22c40a7","ios":"levelo://app?vid=7189f3bb-2a8f-406a-9a1f-badea22c40a7"},"vehicle_type_id":"4","last_reported":1731247637,"current_range_meters":27200,"station_id":"ce4bhbh2rcd13ifvqepg","pricing_plan_id":"cebpf4jnsgd1na2vs0mg"},{"bike_id":"605308ae-e328-49e6-83af-5dad5f553481","system_id":"levelo_inurba_marseille","lat":43.23968,"lon":5.36628,"is_reserved":false,"is_disabled":false,"rental_uris":{"android":"levelo://app?vid=605308ae-e328-49e6-83af-5dad5f553481","ios":"levelo://app?vid=605308ae-e328-49e6-83af-5dad5f553481"},"vehicle_type_id":"4","last_reported":1731247637,"current_range_meters":29600,"station_id":"ce4bhi12rcd13ifvqfp0","pricing_plan_id":"cebpf4jnsgd1na2vs0mg"},{"bike_id":"afd63dc6-4eb4-4b15-a67f-a460b250b8ef","system_id":"levelo_inurba_marseille","lat":43.298732,"lon":5.397318,"is_reserved":false,"is_disabled":false,"rental_uris":{"android":"levelo://app?vid=afd63dc6-4eb4-4b15-a67f-a460b250b8ef","ios":"levelo://app?vid=afd63dc6-4eb4-4b15-a67f-a460b250b8ef"},"vehicle_type_id":"4","last_reported":1731247637,"current_range_meters":14000,"station_id":"ce4bh0h2rcd13ifvqd50","pricing_plan_id":"cebpf4jnsgd1na2vs0mg"},{"bike_id":"30037827-8659-4cce-803b-88835fb3f6b5","system_id":"levelo_inurba_marseille","lat":43.255,"lon":5.37651,"is_reserved":false,"is_disabled":false,"rental_uris":{"android":"levelo://app?vid=30037827-8659-4cce-803b-88835fb3f6b5","ios":"levelo://app?vid=30037827-8659-4cce-803b-88835fb3f6b5"},"vehicle_type_id":"4","last_reported":1731247637,"current_range_meters":38800,"station_id":"ce4bhh12rcd13ifvqff0","pricing_plan_id":"cebpf4jnsgd1na2vs0mg"},{"bike_id":"5812d5f1-a60f-473b-aee7-979906885a65","system_id":"levelo_inurba_marseille","lat":43.23061,"lon":5.35488,"is_reserved":false,"is_disabled":false,"rental_uris":{"android":"levelo://app?vid=5812d5f1-a60f-473b-aee7-979906885a65","ios":"levelo://app?vid=5812d5f1-a60f-473b-aee7-979906885a65"},"vehicle_type_id":"4","last_reported":1731247637,"current_range_meters":16400,"station_id":"cpo3342slgdg3j2ifvpg","pricing_plan_id":"cebpf4jnsgd1na2vs0mg"},{"bike_id":"eb280453-261a-4450-a2fd-1da204e75092","system_id":"levelo_inurba_marseille","lat":43.2315,"lon":5.43731,"is_reserved":false,"is_disabled":false,"rental_uris":{"android":"levelo://app?vid=eb280453-261a-4450-a2fd-1da204e75092","ios":"levelo://app?vid=eb280453-261a-4450-a2fd-1da204e75092"},"vehicle_type_id":"4","last_reported":1731247637,"current_range_meters":25200,"station_id":"ce4bhmp2rcd13ifvqgog","pricing_plan_id":"cebpf4jnsgd1na2vs0mg"},{"bike_id":"872e3e36-0776-436d-8769-b64ec6f87645","system_id":"levelo_inurba_marseille","lat":43.2816,"lon":5.42644,"is_reserved":false,"is_disabled":false,"rental_uris":{"android":"levelo://app?vid=872e3e36-0776-436d-8769-b64ec6f87645","ios":"levelo://app?vid=872e3e36-0776-436d-8769-b64ec6f87645"},"vehicle_type_id":"4","last_reported":1731247637,"current_range_meters":8800,"station_id":"ce4bhnh2rcd13ifvqgug","pricing_plan_id":"cebpf4jnsgd1na2vs0mg"},{"bike_id":"336c91c8-b504-402a-ba88-25473e7c3c8a","system_id":"levelo_inurba_marseille","lat":43.24392,"lon":5.37063,"is_reserved":false,"is_disabled":false,"rental_uris":{"android":"levelo://app?vid=336c91c8-b504-402a-ba88-25473e7c3c8a","ios":"levelo://app?vid=336c91c8-b504-402a-ba88-25473e7c3c8a"},"vehicle_type_id":"4","last_reported":1731247637,"current_range_meters":37600,"station_id":"ce4bhhh2rcd13ifvqfk0","pricing_plan_id":"cebpf4jnsgd1na2vs0mg"},{"bike_id":"b9059161-bc2a-4853-8231-de961bd5f1e7","system_id":"levelo_inurba_marseille","lat":43.33713,"lon":5.39185,"is_reserved":false,"is_disabled":false,"rental_uris":{"android":"levelo://app?vid=b9059161-bc2a-4853-8231-de961bd5f1e7","ios":"levelo://app?vid=b9059161-bc2a-4853-8231-de961bd5f1e7"},"vehicle_type_id":"4","last_reported":1731247637,"current_range_meters":17200,"station_id":"ce4bhr92rcd13ifvqhsg","pricing_plan_id":"cebpf4jnsgd1na2vs0mg"},{"bike_id":"9e00ae8d-b3a9-4d4b-a691-62debbf0e14c","system_id":"levelo_inurba_marseille","lat":43.23189,"lon":5.39989,"is_reserved":false,"is_disabled":false,"rental_uris":{"android":"levelo://app?vid=9e00ae8d-b3a9-4d4b-a691-62debbf0e14c","ios":"levelo://app?vid=9e00ae8d-b3a9-4d4b-a691-62debbf0e14c"},"vehicle_type_id":"4","last_reported":1731247637,"current_range_meters":36800,"station_id":"ce4bhn12rcd13ifvqgqg","pricing_plan_id":"cebpf4jnsgd1na2vs0mg"},{"bike_id":"662b60df-1c79-4b9e-be92-361dcc77ed86","system_id":"levelo_inurba_marseille","lat":43.24388,"lon":5.37061,"is_reserved":false,"is_disabled":false,"rental_uris":{"android":"levelo://app?vid=662b60df-1c79-4b9e-be92-361dcc77ed86","ios":"levelo://app?vid=662b60df-1c79-4b9e-be92-361dcc77ed86"},"vehicle_type_id":"4","last_reported":1731247637,"current_range_meters":3600,"station_id":"ce4bhhh2rcd13ifvqfk0","pricing_plan_id":"cebpf4jnsgd1na2vs0mg"},{"bike_id":"c7c7882f-f4d1-462f-9860-e573d1886a14","system_id":"levelo_inurba_marseille","lat":43.24388,"lon":5.37069,"is_reserved":false,"is_disabled":false,"rental_uris":{"android":"levelo://app?vid=c7c7882f-f4d1-462f-9860-e573d1886a14","ios":"levelo://app?vid=c7c7882f-f4d1-462f-9860-e573d1886a14"},"vehicle_type_id":"4","last_reported":1731247637,"current_range_meters":20400,"station_id":"ce4bhhh2rcd13ifvqfk0","pricing_plan_id":"cebpf4jnsgd1na2vs0mg"},{"bike_id":"0f7ef8f2-c091-420e-be1a-8c1e2421ea9d","system_id":"levelo_inurba_marseille","lat":43.23057,"lon":5.35498,"is_reserved":false,"is_disabled":false,"rental_uris":{"android":"levelo://app?vid=0f7ef8f2-c091-420e-be1a-8c1e2421ea9d","ios":"levelo://app?vid=0f7ef8f2-c091-420e-be1a-8c1e2421ea9d"},"vehicle_type_id":"4","last_reported":1731247637,"current_range_meters":10000,"station_id":"cpo3342slgdg3j2ifvpg","pricing_plan_id":"cebpf4jnsgd1na2vs0mg"},{"bike_id":"4d8a39f0-cf9b-4574-b4b3-d359660c3302","system_id":"levelo_inurba_marseille","lat":43.2439,"lon":5.37065,"is_reserved":false,"is_disabled":false,"rental_uris":{"android":"levelo://app?vid=4d8a39f0-cf9b-4574-b4b3-d359660c3302","ios":"levelo://app?vid=4d8a39f0-cf9b-4574-b4b3-d359660c3302"},"vehicle_type_id":"4","last_reported":1731247637,"current_range_meters":38400,"station_id":"ce4bhhh2rcd13ifvqfk0","pricing_plan_id":"cebpf4jnsgd1na2vs0mg"},{"bike_id":"26e55983-f261-40b1-b1a0-30eef97145b0","system_id":"levelo_inurba_marseille","lat":43.25505,"lon":5.3765,"is_reserved":false,"is_disabled":false,"rental_uris":{"android":"levelo://app?vid=26e55983-f261-40b1-b1a0-30eef97145b0","ios":"levelo://app?vid=26e55983-f261-40b1-b1a0-30eef97145b0"},"vehicle_type_id":"4","last_reported":1731247637,"current_range_meters":38800,"station_id":"ce4bhh12rcd13ifvqff0","pricing_plan_id":"cebpf4jnsgd1na2vs0mg"},{"bike_id":"0af8b407-a194-4b1f-b983-5c2f2cb4da95","system_id":"levelo_inurba_marseille","lat":43.24806,"lon":5.37458,"is_reserved":false,"is_disabled":false,"rental_uris":{"android":"levelo://app?vid=0af8b407-a194-4b1f-b983-5c2f2cb4da95","ios":"levelo://app?vid=0af8b407-a194-4b1f-b983-5c2f2cb4da95"},"vehicle_type_id":"4","last_reported":1731247637,"current_range_meters":27200,"station_id":"ce4bhgh2rcd13ifvqfb0","pricing_plan_id":"cebpf4jnsgd1na2vs0mg"},{"bike_id":"32c29b50-e3b2-494a-8417-18400536c1ea","system_id":"levelo_inurba_marseille","lat":43.2306,"lon":5.35501,"is_reserved":false,"is_disabled":false,"rental_uris":{"android":"levelo://app?vid=32c29b50-e3b2-494a-8417-18400536c1ea","ios":"levelo://app?vid=32c29b50-e3b2-494a-8417-18400536c1ea"},"vehicle_type_id":"4","last_reported":1731247637,"current_range_meters":38800,"station_id":"cpo3342slgdg3j2ifvpg","pricing_plan_id":"cebpf4jnsgd1na2vs0mg"},{"bike_id":"018cdcf7-93ec-4e24-8e3e-3f9d0d08d718","system_id":"levelo_inurba_marseille","lat":43.23969,"lon":5.36628,"is_reserved":false,"is_disabled":false,"rental_uris":{"android":"levelo://app?vid=018cdcf7-93ec-4e24-8e3e-3f9d0d08d718","ios":"levelo://app?vid=018cdcf7-93ec-4e24-8e3e-3f9d0d08d718"},"vehicle_type_id":"4","last_reported":1731247637,"current_range_meters":40000,"station_id":"ce4bhi12rcd13ifvqfp0","pricing_plan_id":"cebpf4jnsgd1na2vs0mg"},{"bike_id":"5474522c-ab23-48ff-8d4f-608ca8b7c65a","system_id":"levelo_inurba_marseille","lat":43.2827,"lon":5.35075,"is_reserved":false,"is_disabled":false,"rental_uris":{"android":"levelo://app?vid=5474522c-ab23-48ff-8d4f-608ca8b7c65a","ios":"levelo://app?vid=5474522c-ab23-48ff-8d4f-608ca8b7c65a"},"vehicle_type_id":"4","last_reported":1731247637,"current_range_meters":35600,"station_id":"ce4bhbp2rcd13ifvqerg","pricing_plan_id":"cebpf4jnsgd1na2vs0mg"},{"bike_id":"2d0a890a-414c-4ce8-9fcd-5ae2fa3ca79c","system_id":"levelo_inurba_marseille","lat":43.22934,"lon":5.35378,"is_reserved":false,"is_disabled":false,"rental_uris":{"android":"levelo://app?vid=2d0a890a-414c-4ce8-9fcd-5ae2fa3ca79c","ios":"levelo://app?vid=2d0a890a-414c-4ce8-9fcd-5ae2fa3ca79c"},"vehicle_type_id":"4","last_reported":1731247637,"current_range_meters":38800,"station_id":"cpo3532slgdg3j2ikp40","pricing_plan_id":"cebpf4jnsgd1na2vs0mg"},{"bike_id":"a4d59385-0eeb-4a17-9de6-ea9bb6693948","system_id":"levelo_inurba_marseille","lat":43.31482,"lon":5.37304,"is_reserved":false,"is_disabled":false,"rental_uris":{"android":"levelo://app?vid=a4d59385-0eeb-4a17-9de6-ea9bb6693948","ios":"levelo://app?vid=a4d59385-0eeb-4a17-9de6-ea9bb6693948"},"vehicle_type_id":"4","last_reported":1731247637,"current_range_meters":38800,"station_id":"ce4bgt12rcd13ifvqcd0","pricing_plan_id":"cebpf4jnsgd1na2vs0mg"},{"bike_id":"4bb9a85a-0d0c-4d55-8773-a9f717071e71","system_id":"levelo_inurba_marseille","lat":43.31698,"lon":5.37717,"is_reserved":false,"is_disabled":false,"rental_uris":{"android":"levelo://app?vid=4bb9a85a-0d0c-4d55-8773-a9f717071e71","ios":"levelo://app?vid=4bb9a85a-0d0c-4d55-8773-a9f717071e71"},"vehicle_type_id":"4","last_reported":1731247637,"current_range_meters":38800,"station_id":"ce4bgth2rcd13ifvqch0","pricing_plan_id":"cebpf4jnsgd1na2vs0mg"},{"bike_id":"efbfd49e-590d-4cd9-af99-72a85309b119","system_id":"levelo_inurba_marseille","lat":43.27905,"lon":5.38007,"is_reserved":false,"is_disabled":false,"rental_uris":{"android":"levelo://app?vid=efbfd49e-590d-4cd9-af99-72a85309b119","ios":"levelo://app?vid=efbfd49e-590d-4cd9-af99-72a85309b119"},"vehicle_type_id":"4","last_reported":1731247637,"current_range_meters":8800,"station_id":"ce4bhf92rcd13ifvqf50","pricing_plan_id":"cebpf4jnsgd1na2vs0mg"},{"bike_id":"256b5c1a-60fe-4cd5-aeb4-fcc1c52aad09","system_id":"levelo_inurba_marseille","lat":43.278381,"lon":5.392134,"is_reserved":false,"is_disabled":false,"rental_uris":{"android":"levelo://app?vid=256b5c1a-60fe-4cd5-aeb4-fcc1c52aad09","ios":"levelo://app?vid=256b5c1a-60fe-4cd5-aeb4-fcc1c52aad09"},"vehicle_type_id":"4","last_reported":1731247637,"current_range_meters":7200,"station_id":"ce4bhjp2rcd13ifvqga0","pricing_plan_id":"cebpf4jnsgd1na2vs0mg"},{"bike_id":"c221efe7-efcb-49b8-a1b0-1dd8d171a453","system_id":"levelo_inurba_marseille","lat":43.3372,"lon":5.39181,"is_reserved":false,"is_disabled":false,"rental_uris":{"android":"levelo://app?vid=c221efe7-efcb-49b8-a1b0-1dd8d171a453","ios":"levelo://app?vid=c221efe7-efcb-49b8-a1b0-1dd8d171a453"},"vehicle_type_id":"4","last_reported":1731247637,"current_range_meters":40000,"station_id":"ce4bhr92rcd13ifvqhsg","pricing_plan_id":"cebpf4jnsgd1na2vs0mg"},{"bike_id":"b8fdd341-0697-41ca-82c9-e4253415f4e6","system_id":"levelo_inurba_marseille","lat":43.23055,"lon":5.3549,"is_reserved":false,"is_disabled":false,"rental_uris":{"android":"levelo://app?vid=b8fdd341-0697-41ca-82c9-e4253415f4e6","ios":"levelo://app?vid=b8fdd341-0697-41ca-82c9-e4253415f4e6"},"vehicle_type_id":"4","last_reported":1731247637,"current_range_meters":27600,"station_id":"cpo3342slgdg3j2ifvpg","pricing_plan_id":"cebpf4jnsgd1na2vs0mg"},{"bike_id":"cf9daf46-3bd1-47e7-80ac-0de06577c598","system_id":"levelo_inurba_marseille","lat":43.24389,"lon":5.37049,"is_reserved":false,"is_disabled":false,"rental_uris":{"android":"levelo://app?vid=cf9daf46-3bd1-47e7-80ac-0de06577c598","ios":"levelo://app?vid=cf9daf46-3bd1-47e7-80ac-0de06577c598"},"vehicle_type_id":"4","last_reported":1731247637,"current_range_meters":40000,"station_id":"ce4bhhh2rcd13ifvqfk0","pricing_plan_id":"cebpf4jnsgd1na2vs0mg"},{"bike_id":"99b67b51-e8c2-49d8-b88a-b0934f2a23ae","system_id":"levelo_inurba_marseille","lat":43.24181,"lon":5.39735,"is_reserved":false,"is_disabled":false,"rental_uris":{"android":"levelo://app?vid=99b67b51-e8c2-49d8-b88a-b0934f2a23ae","ios":"levelo://app?vid=99b67b51-e8c2-49d8-b88a-b0934f2a23ae"},"vehicle_type_id":"4","last_reported":1731247637,"current_range_meters":39200,"station_id":"ce4bhn12rcd13ifvqgpg","pricing_plan_id":"cebpf4jnsgd1na2vs0mg"},{"bike_id":"0e680f47-7efb-47a4-8232-c0c12bb73ba8","system_id":"levelo_inurba_marseille","lat":43.280945,"lon":5.37839,"is_reserved":false,"is_disabled":false,"rental_uris":{"android":"levelo://app?vid=0e680f47-7efb-47a4-8232-c0c12bb73ba8","ios":"levelo://app?vid=0e680f47-7efb-47a4-8232-c0c12bb73ba8"},"vehicle_type_id":"4","last_reported":1731247637,"current_range_meters":9600,"station_id":"ce4bha12rcd13ifvqee0","pricing_plan_id":"cebpf4jnsgd1na2vs0mg"},{"bike_id":"82207dd1-87d2-4b27-b296-c2989d01e15b","system_id":"levelo_inurba_marseille","lat":43.26206,"lon":5.37931,"is_reserved":false,"is_disabled":false,"rental_uris":{"android":"levelo://app?vid=82207dd1-87d2-4b27-b296-c2989d01e15b","ios":"levelo://app?vid=82207dd1-87d2-4b27-b296-c2989d01e15b"},"vehicle_type_id":"4","last_reported":1731247637,"current_range_meters":38400,"station_id":"ce4bhjp2rcd13ifvqg90","pricing_plan_id":"cebpf4jnsgd1na2vs0mg"},{"bike_id":"4e72c028-8eb6-45c9-948f-592264d3d6d7","system_id":"levelo_inurba_marseille","lat":43.23059,"lon":5.35495,"is_reserved":false,"is_disabled":false,"rental_uris":{"android":"levelo://app?vid=4e72c028-8eb6-45c9-948f-592264d3d6d7","ios":"levelo://app?vid=4e72c028-8eb6-45c9-948f-592264d3d6d7"},"vehicle_type_id":"4","last_reported":1731247637,"current_range_meters":35600,"station_id":"cpo3342slgdg3j2ifvpg","pricing_plan_id":"cebpf4jnsgd1na2vs0mg"},{"bike_id":"45da62df-7f80-44a3-ba8e-1acd781a5f69","system_id":"levelo_inurba_marseille","lat":43.29554,"lon":5.42291,"is_reserved":false,"is_disabled":false,"rental_uris":{"android":"levelo://app?vid=45da62df-7f80-44a3-ba8e-1acd781a5f69","ios":"levelo://app?vid=45da62df-7f80-44a3-ba8e-1acd781a5f69"},"vehicle_type_id":"4","last_reported":1731247637,"current_range_meters":25200,"station_id":"ce4bhph2rcd13ifvqhdg","pricing_plan_id":"cebpf4jnsgd1na2vs0mg"},{"bike_id":"a2c94e1a-3858-41e6-aa7e-97346fb4829e","system_id":"levelo_inurba_marseille","lat":43.2306,"lon":5.35488,"is_reserved":false,"is_disabled":false,"rental_uris":{"android":"levelo://app?vid=a2c94e1a-3858-41e6-aa7e-97346fb4829e","ios":"levelo://app?vid=a2c94e1a-3858-41e6-aa7e-97346fb4829e"},"vehicle_type_id":"4","last_reported":1731247637,"current_range_meters":18800,"station_id":"cpo3342slgdg3j2ifvpg","pricing_plan_id":"cebpf4jnsgd1na2vs0mg"},{"bike_id":"2972f759-c98e-4fe7-9758-85d215895273","system_id":"levelo_inurba_marseille","lat":43.23966,"lon":5.36624,"is_reserved":false,"is_disabled":false,"rental_uris":{"android":"levelo://app?vid=2972f759-c98e-4fe7-9758-85d215895273","ios":"levelo://app?vid=2972f759-c98e-4fe7-9758-85d215895273"},"vehicle_type_id":"4","last_reported":1731247637,"current_range_meters":36400,"station_id":"ce4bhi12rcd13ifvqfp0","pricing_plan_id":"cebpf4jnsgd1na2vs0mg"},{"bike_id":"010d3bc6-1da9-4e2e-9558-6436a5780c21","system_id":"levelo_inurba_marseille","lat":43.23196,"lon":5.35548,"is_reserved":false,"is_disabled":false,"rental_uris":{"android":"levelo://app?vid=010d3bc6-1da9-4e2e-9558-6436a5780c21","ios":"levelo://app?vid=010d3bc6-1da9-4e2e-9558-6436a5780c21"},"vehicle_type_id":"4","last_reported":1731247637,"current_range_meters":40000,"station_id":"ce4bhu92rcd13ifvqi70","pricing_plan_id":"cebpf4jnsgd1na2vs0mg"},{"bike_id":"37ca8915-c325-49ef-bc96-521954b406f3","system_id":"levelo_inurba_marseille","lat":43.24809,"lon":5.37457,"is_reserved":false,"is_disabled":false,"rental_uris":{"android":"levelo://app?vid=37ca8915-c325-49ef-bc96-521954b406f3","ios":"levelo://app?vid=37ca8915-c325-49ef-bc96-521954b406f3"},"vehicle_type_id":"4","last_reported":1731247637,"current_range_meters":4400,"station_id":"ce4bhgh2rcd13ifvqfb0","pricing_plan_id":"cebpf4jnsgd1na2vs0mg"},{"bike_id":"662385fc-63f9-4a4f-87db-2e58a1f015e0","system_id":"levelo_inurba_marseille","lat":43.23963,"lon":5.36638,"is_reserved":false,"is_disabled":false,"rental_uris":{"android":"levelo://app?vid=662385fc-63f9-4a4f-87db-2e58a1f015e0","ios":"levelo://app?vid=662385fc-63f9-4a4f-87db-2e58a1f015e0"},"vehicle_type_id":"4","last_reported":1731247637,"current_range_meters":32800,"station_id":"ce4bhi12rcd13ifvqfp0","pricing_plan_id":"cebpf4jnsgd1na2vs0mg"},{"bike_id":"1a366d13-87fa-4c79-be4c-283f2bc932cd","system_id":"levelo_inurba_marseille","lat":43.2827,"lon":5.3508,"is_reserved":false,"is_disabled":false,"rental_uris":{"android":"levelo://app?vid=1a366d13-87fa-4c79-be4c-283f2bc932cd","ios":"levelo://app?vid=1a366d13-87fa-4c79-be4c-283f2bc932cd"},"vehicle_type_id":"4","last_reported":1731247637,"current_range_meters":17200,"station_id":"ce4bhbp2rcd13ifvqerg","pricing_plan_id":"cebpf4jnsgd1na2vs0mg"},{"bike_id":"76846083-6ad3-48a3-b8c5-ea84f4d68895","system_id":"levelo_inurba_marseille","lat":43.25497,"lon":5.37651,"is_reserved":false,"is_disabled":false,"rental_uris":{"android":"levelo://app?vid=76846083-6ad3-48a3-b8c5-ea84f4d68895","ios":"levelo://app?vid=76846083-6ad3-48a3-b8c5-ea84f4d68895"},"vehicle_type_id":"4","last_reported":1731247637,"current_range_meters":9600,"station_id":"ce4bhh12rcd13ifvqff0","pricing_plan_id":"cebpf4jnsgd1na2vs0mg"},{"bike_id":"0a30e290-7a10-4bac-ac7c-b2a9cdefc814","system_id":"levelo_inurba_marseille","lat":43.27949,"lon":5.41048,"is_reserved":false,"is_disabled":false,"rental_uris":{"android":"levelo://app?vid=0a30e290-7a10-4bac-ac7c-b2a9cdefc814","ios":"levelo://app?vid=0a30e290-7a10-4bac-ac7c-b2a9cdefc814"},"vehicle_type_id":"4","last_reported":1731247637,"current_range_meters":24800,"station_id":"ce4bhnp2rcd13ifvqh0g","pricing_plan_id":"cebpf4jnsgd1na2vs0mg"},{"bike_id":"bbf5bf2b-bd1a-43e1-8493-73447a434d04","system_id":"levelo_inurba_marseille","lat":43.2407,"lon":5.37762,"is_reserved":false,"is_disabled":false,"rental_uris":{"android":"levelo://app?vid=bbf5bf2b-bd1a-43e1-8493-73447a434d04","ios":"levelo://app?vid=bbf5bf2b-bd1a-43e1-8493-73447a434d04"},"vehicle_type_id":"4","last_reported":1731247637,"current_range_meters":33200,"station_id":"ce4bhnp2rcd13ifvqgvg","pricing_plan_id":"cebpf4jnsgd1na2vs0mg"},{"bike_id":"9e6bba68-1259-4758-bda9-b277154f0e6b","system_id":"levelo_inurba_marseille","lat":43.28618,"lon":5.35112,"is_reserved":false,"is_disabled":false,"rental_uris":{"android":"levelo://app?vid=9e6bba68-1259-4758-bda9-b277154f0e6b","ios":"levelo://app?vid=9e6bba68-1259-4758-bda9-b277154f0e6b"},"vehicle_type_id":"4","last_reported":1731247637,"current_range_meters":38800,"station_id":"ce4bhch2rcd13ifvqeug","pricing_plan_id":"cebpf4jnsgd1na2vs0mg"},{"bike_id":"b9478b1d-79e3-44c9-ae60-496dd5151f62","system_id":"levelo_inurba_marseille","lat":43.2916,"lon":5.37164,"is_reserved":false,"is_disabled":false,"rental_uris":{"android":"levelo://app?vid=b9478b1d-79e3-44c9-ae60-496dd5151f62","ios":"levelo://app?vid=b9478b1d-79e3-44c9-ae60-496dd5151f62"},"vehicle_type_id":"4","last_reported":1731247637,"current_range_meters":31200,"station_id":"ce4bha92rcd13ifvqeh0","pricing_plan_id":"cebpf4jnsgd1na2vs0mg"},{"bike_id":"a6662f96-7914-4568-9644-1c4ba1cb159a","system_id":"levelo_inurba_marseille","lat":43.28417,"lon":5.34996,"is_reserved":false,"is_disabled":false,"rental_uris":{"android":"levelo://app?vid=a6662f96-7914-4568-9644-1c4ba1cb159a","ios":"levelo://app?vid=a6662f96-7914-4568-9644-1c4ba1cb159a"},"vehicle_type_id":"4","last_reported":1731247637,"current_range_meters":36400,"station_id":"ce4bhbh2rcd13ifvqepg","pricing_plan_id":"cebpf4jnsgd1na2vs0mg"},{"bike_id":"4204c697-9142-4d6f-a64b-20f319f8c9a7","system_id":"levelo_inurba_marseille","lat":43.2708,"lon":5.42283,"is_reserved":false,"is_disabled":false,"rental_uris":{"android":"levelo://app?vid=4204c697-9142-4d6f-a64b-20f319f8c9a7","ios":"levelo://app?vid=4204c697-9142-4d6f-a64b-20f319f8c9a7"},"vehicle_type_id":"4","last_reported":1731247637,"current_range_meters":39200,"station_id":"ce4bhk92rcd13ifvqgb0","pricing_plan_id":"cebpf4jnsgd1na2vs0mg"},{"bike_id":"be24835d-0225-40fd-a74f-9d14a911f0fc","system_id":"levelo_inurba_marseille","lat":43.2293,"lon":5.35372,"is_reserved":false,"is_disabled":false,"rental_uris":{"android":"levelo://app?vid=be24835d-0225-40fd-a74f-9d14a911f0fc","ios":"levelo://app?vid=be24835d-0225-40fd-a74f-9d14a911f0fc"},"vehicle_type_id":"4","last_reported":1731247637,"current_range_meters":20000,"station_id":"cpo3532slgdg3j2ikp40","pricing_plan_id":"cebpf4jnsgd1na2vs0mg"},{"bike_id":"1d36261c-1ab1-4695-9d7e-4361c2cfd78d","system_id":"levelo_inurba_marseille","lat":43.25118,"lon":5.40312,"is_reserved":false,"is_disabled":false,"rental_uris":{"android":"levelo://app?vid=1d36261c-1ab1-4695-9d7e-4361c2cfd78d","ios":"levelo://app?vid=1d36261c-1ab1-4695-9d7e-4361c2cfd78d"},"vehicle_type_id":"4","last_reported":1731247637,"current_range_meters":8800,"station_id":"ce4bhlh2rcd13ifvqgig","pricing_plan_id":"cebpf4jnsgd1na2vs0mg"},{"bike_id":"cacd5ad9-26dd-4e1a-b45b-f21f661facca","system_id":"levelo_inurba_marseille","lat":43.29908,"lon":5.38148,"is_reserved":false,"is_disabled":false,"rental_uris":{"android":"levelo://app?vid=cacd5ad9-26dd-4e1a-b45b-f21f661facca","ios":"levelo://app?vid=cacd5ad9-26dd-4e1a-b45b-f21f661facca"},"vehicle_type_id":"4","last_reported":1731247637,"current_range_meters":39200,"station_id":"ce4bgj12rcd13ifvqbc0","pricing_plan_id":"cebpf4jnsgd1na2vs0mg"},{"bike_id":"5b1ecbe0-a0fe-45b3-b0ea-f76e5b19652b","system_id":"levelo_inurba_marseille","lat":43.23197,"lon":5.35543,"is_reserved":false,"is_disabled":false,"rental_uris":{"android":"levelo://app?vid=5b1ecbe0-a0fe-45b3-b0ea-f76e5b19652b","ios":"levelo://app?vid=5b1ecbe0-a0fe-45b3-b0ea-f76e5b19652b"},"vehicle_type_id":"4","last_reported":1731247637,"current_range_meters":8000,"station_id":"ce4bhu92rcd13ifvqi70","pricing_plan_id":"cebpf4jnsgd1na2vs0mg"},{"bike_id":"e6dc57cf-44da-4102-9d69-7c7b35161e11","system_id":"levelo_inurba_marseille","lat":43.24174,"lon":5.3641,"is_reserved":false,"is_disabled":false,"rental_uris":{"android":"levelo://app?vid=e6dc57cf-44da-4102-9d69-7c7b35161e11","ios":"levelo://app?vid=e6dc57cf-44da-4102-9d69-7c7b35161e11"},"vehicle_type_id":"4","last_reported":1731247637,"current_range_meters":36000,"station_id":"cpo36qri1sfpv3e86is0","pricing_plan_id":"cebpf4jnsgd1na2vs0mg"},{"bike_id":"eea89b14-e5f3-4242-9fbf-52d861894071","system_id":"levelo_inurba_marseille","lat":43.23185,"lon":5.35557,"is_reserved":false,"is_disabled":false,"rental_uris":{"android":"levelo://app?vid=eea89b14-e5f3-4242-9fbf-52d861894071","ios":"levelo://app?vid=eea89b14-e5f3-4242-9fbf-52d861894071"},"vehicle_type_id":"4","last_reported":1731247637,"current_range_meters":28000,"station_id":"ce4bhu92rcd13ifvqi70","pricing_plan_id":"cebpf4jnsgd1na2vs0mg"},{"bike_id":"42d6f295-5350-44da-8761-a50375c709f2","system_id":"levelo_inurba_marseille","lat":43.24391,"lon":5.37066,"is_reserved":false,"is_disabled":false,"rental_uris":{"android":"levelo://app?vid=42d6f295-5350-44da-8761-a50375c709f2","ios":"levelo://app?vid=42d6f295-5350-44da-8761-a50375c709f2"},"vehicle_type_id":"4","last_reported":1731247637,"current_range_meters":18800,"station_id":"ce4bhhh2rcd13ifvqfk0","pricing_plan_id":"cebpf4jnsgd1na2vs0mg"},{"bike_id":"16ab12d0-dfab-4fba-be6e-625cce113bc6","system_id":"levelo_inurba_marseille","lat":43.29367,"lon":5.37849,"is_reserved":false,"is_disabled":false,"rental_uris":{"android":"levelo://app?vid=16ab12d0-dfab-4fba-be6e-625cce113bc6","ios":"levelo://app?vid=16ab12d0-dfab-4fba-be6e-625cce113bc6"},"vehicle_type_id":"4","last_reported":1731247637,"current_range_meters":34800,"station_id":"ce4bgjh2rcd13ifvqbf0","pricing_plan_id":"cebpf4jnsgd1na2vs0mg"},{"bike_id":"19008cd2-6d2b-4b7d-ac46-e89cb37ab51a","system_id":"levelo_inurba_marseille","lat":43.23154,"lon":5.43716,"is_reserved":false,"is_disabled":false,"rental_uris":{"android":"levelo://app?vid=19008cd2-6d2b-4b7d-ac46-e89cb37ab51a","ios":"levelo://app?vid=19008cd2-6d2b-4b7d-ac46-e89cb37ab51a"},"vehicle_type_id":"4","last_reported":1731247637,"current_range_meters":8000,"station_id":"ce4bhmp2rcd13ifvqgog","pricing_plan_id":"cebpf4jnsgd1na2vs0mg"},{"bike_id":"79c4c7ed-edb4-4187-9601-02610951ee28","system_id":"levelo_inurba_marseille","lat":43.23051,"lon":5.35502,"is_reserved":false,"is_disabled":false,"rental_uris":{"android":"levelo://app?vid=79c4c7ed-edb4-4187-9601-02610951ee28","ios":"levelo://app?vid=79c4c7ed-edb4-4187-9601-02610951ee28"},"vehicle_type_id":"4","last_reported":1731247637,"current_range_meters":27600,"station_id":"cpo3342slgdg3j2ifvpg","pricing_plan_id":"cebpf4jnsgd1na2vs0mg"},{"bike_id":"0952d1df-9052-4a24-80af-235bf818db8c","system_id":"levelo_inurba_marseille","lat":43.286163,"lon":5.35103,"is_reserved":false,"is_disabled":false,"rental_uris":{"android":"levelo://app?vid=0952d1df-9052-4a24-80af-235bf818db8c","ios":"levelo://app?vid=0952d1df-9052-4a24-80af-235bf818db8c"},"vehicle_type_id":"4","last_reported":1731247637,"current_range_meters":32000,"station_id":"ce4bhch2rcd13ifvqeug","pricing_plan_id":"cebpf4jnsgd1na2vs0mg"},{"bike_id":"05819f3e-9845-420d-81a3-a92604f3c8ca","system_id":"levelo_inurba_marseille","lat":43.24165,"lon":5.36389,"is_reserved":false,"is_disabled":false,"rental_uris":{"android":"levelo://app?vid=05819f3e-9845-420d-81a3-a92604f3c8ca","ios":"levelo://app?vid=05819f3e-9845-420d-81a3-a92604f3c8ca"},"vehicle_type_id":"4","last_reported":1731247637,"current_range_meters":36400,"station_id":"cpo36qri1sfpv3e86is0","pricing_plan_id":"cebpf4jnsgd1na2vs0mg"},{"bike_id":"3f2ff792-9abe-42f4-9f61-4e2532fef3bc","system_id":"levelo_inurba_marseille","lat":43.28457,"lon":5.35889,"is_reserved":false,"is_disabled":false,"rental_uris":{"android":"levelo://app?vid=3f2ff792-9abe-42f4-9f61-4e2532fef3bc","ios":"levelo://app?vid=3f2ff792-9abe-42f4-9f61-4e2532fef3bc"},"vehicle_type_id":"4","last_reported":1731247637,"current_range_meters":39200,"station_id":"ce4bhah2rcd13ifvqei0","pricing_plan_id":"cebpf4jnsgd1na2vs0mg"},{"bike_id":"d2a974a2-88bc-4638-8d41-7f094635c91a","system_id":"levelo_inurba_marseille","lat":43.27098,"lon":5.38199,"is_reserved":false,"is_disabled":false,"rental_uris":{"android":"levelo://app?vid=d2a974a2-88bc-4638-8d41-7f094635c91a","ios":"levelo://app?vid=d2a974a2-88bc-4638-8d41-7f094635c91a"},"vehicle_type_id":"4","last_reported":1731247637,"current_range_meters":6000,"station_id":"","pricing_plan_id":"cebpf4jnsgd1na2vs0mg"},{"bike_id":"f0730e13-11c4-4020-956a-ca204d2dd6c0","system_id":"levelo_inurba_marseille","lat":43.29563,"lon":5.4229,"is_reserved":false,"is_disabled":false,"rental_uris":{"android":"levelo://app?vid=f0730e13-11c4-4020-956a-ca204d2dd6c0","ios":"levelo://app?vid=f0730e13-11c4-4020-956a-ca204d2dd6c0"},"vehicle_type_id":"4","last_reported":1731247637,"current_range_meters":38800,"station_id":"ce4bhph2rcd13ifvqhdg","pricing_plan_id":"cebpf4jnsgd1na2vs0mg"},{"bike_id":"71832a18-fe68-4443-9e8a-01f60b4f649a","system_id":"levelo_inurba_marseille","lat":43.27497,"lon":5.42452,"is_reserved":false,"is_disabled":false,"rental_uris":{"android":"levelo://app?vid=71832a18-fe68-4443-9e8a-01f60b4f649a","ios":"levelo://app?vid=71832a18-fe68-4443-9e8a-01f60b4f649a"},"vehicle_type_id":"4","last_reported":1731247637,"current_range_meters":5600,"station_id":"ce4bhn92rcd13ifvqgrg","pricing_plan_id":"cebpf4jnsgd1na2vs0mg"},{"bike_id":"d8b069df-29e1-4273-99b0-c9104446d9c3","system_id":"levelo_inurba_marseille","lat":43.2319,"lon":5.35559,"is_reserved":false,"is_disabled":false,"rental_uris":{"android":"levelo://app?vid=d8b069df-29e1-4273-99b0-c9104446d9c3","ios":"levelo://app?vid=d8b069df-29e1-4273-99b0-c9104446d9c3"},"vehicle_type_id":"4","last_reported":1731247637,"current_range_meters":38800,"station_id":"ce4bhu92rcd13ifvqi70","pricing_plan_id":"cebpf4jnsgd1na2vs0mg"},{"bike_id":"72b729eb-4dd5-4e2a-80b7-df9b960741b3","system_id":"levelo_inurba_marseille","lat":43.25939,"lon":5.40906,"is_reserved":false,"is_disabled":false,"rental_uris":{"android":"levelo://app?vid=72b729eb-4dd5-4e2a-80b7-df9b960741b3","ios":"levelo://app?vid=72b729eb-4dd5-4e2a-80b7-df9b960741b3"},"vehicle_type_id":"4","last_reported":1731247637,"current_range_meters":24400,"station_id":"ce4bhm92rcd13ifvqglg","pricing_plan_id":"cebpf4jnsgd1na2vs0mg"},{"bike_id":"0df0aee9-60eb-40de-987d-051cd1a103c4","system_id":"levelo_inurba_marseille","lat":43.2549,"lon":5.37652,"is_reserved":false,"is_disabled":false,"rental_uris":{"android":"levelo://app?vid=0df0aee9-60eb-40de-987d-051cd1a103c4","ios":"levelo://app?vid=0df0aee9-60eb-40de-987d-051cd1a103c4"},"vehicle_type_id":"4","last_reported":1731247637,"current_range_meters":7200,"station_id":"ce4bhh12rcd13ifvqff0","pricing_plan_id":"cebpf4jnsgd1na2vs0mg"},{"bike_id":"4b72668e-c38b-4a2f-a70f-fdd3fa1c2b2b","system_id":"levelo_inurba_marseille","lat":43.29168,"lon":5.37159,"is_reserved":false,"is_disabled":false,"rental_uris":{"android":"levelo://app?vid=4b72668e-c38b-4a2f-a70f-fdd3fa1c2b2b","ios":"levelo://app?vid=4b72668e-c38b-4a2f-a70f-fdd3fa1c2b2b"},"vehicle_type_id":"4","last_reported":1731247637,"current_range_meters":38400,"station_id":"ce4bha92rcd13ifvqeh0","pricing_plan_id":"cebpf4jnsgd1na2vs0mg"},{"bike_id":"f9aeacdd-bf01-432f-bf4e-03e65cef4bbd","system_id":"levelo_inurba_marseille","lat":43.29554,"lon":5.42289,"is_reserved":false,"is_disabled":false,"rental_uris":{"android":"levelo://app?vid=f9aeacdd-bf01-432f-bf4e-03e65cef4bbd","ios":"levelo://app?vid=f9aeacdd-bf01-432f-bf4e-03e65cef4bbd"},"vehicle_type_id":"4","last_reported":1731247637,"current_range_meters":40000,"station_id":"ce4bhph2rcd13ifvqhdg","pricing_plan_id":"cebpf4jnsgd1na2vs0mg"},{"bike_id":"21b698aa-c273-467d-8ee8-9ca0763fcd67","system_id":"levelo_inurba_marseille","lat":43.30803,"lon":5.43525,"is_reserved":false,"is_disabled":false,"rental_uris":{"android":"levelo://app?vid=21b698aa-c273-467d-8ee8-9ca0763fcd67","ios":"levelo://app?vid=21b698aa-c273-467d-8ee8-9ca0763fcd67"},"vehicle_type_id":"4","last_reported":1731247637,"current_range_meters":34000,"station_id":"ce4bhph2rcd13ifvqheg","pricing_plan_id":"cebpf4jnsgd1na2vs0mg"},{"bike_id":"4623c054-08f4-4ea8-9117-5ba93b48ea8f","system_id":"levelo_inurba_marseille","lat":43.24077,"lon":5.37754,"is_reserved":false,"is_disabled":false,"rental_uris":{"android":"levelo://app?vid=4623c054-08f4-4ea8-9117-5ba93b48ea8f","ios":"levelo://app?vid=4623c054-08f4-4ea8-9117-5ba93b48ea8f"},"vehicle_type_id":"4","last_reported":1731247637,"current_range_meters":28800,"station_id":"ce4bhnp2rcd13ifvqgvg","pricing_plan_id":"cebpf4jnsgd1na2vs0mg"},{"bike_id":"c1af2a30-c162-4bc8-a802-8690ba56344d","system_id":"levelo_inurba_marseille","lat":43.31116,"lon":5.37765,"is_reserved":false,"is_disabled":false,"rental_uris":{"android":"levelo://app?vid=c1af2a30-c162-4bc8-a802-8690ba56344d","ios":"levelo://app?vid=c1af2a30-c162-4bc8-a802-8690ba56344d"},"vehicle_type_id":"4","last_reported":1731247637,"current_range_meters":16400,"station_id":"ce4bgt92rcd13ifvqcg0","pricing_plan_id":"cebpf4jnsgd1na2vs0mg"},{"bike_id":"91159c09-9195-4483-a6be-99230f9de272","system_id":"levelo_inurba_marseille","lat":43.34151,"lon":5.40906,"is_reserved":false,"is_disabled":false,"rental_uris":{"android":"levelo://app?vid=91159c09-9195-4483-a6be-99230f9de272","ios":"levelo://app?vid=91159c09-9195-4483-a6be-99230f9de272"},"vehicle_type_id":"4","last_reported":1731247637,"current_range_meters":38400,"station_id":"ce4bhqh2rcd13ifvqhlg","pricing_plan_id":"cebpf4jnsgd1na2vs0mg"},{"bike_id":"6b0d607d-0185-4002-a754-0afbf84879cd","system_id":"levelo_inurba_marseille","lat":43.28271,"lon":5.35075,"is_reserved":false,"is_disabled":false,"rental_uris":{"android":"levelo://app?vid=6b0d607d-0185-4002-a754-0afbf84879cd","ios":"levelo://app?vid=6b0d607d-0185-4002-a754-0afbf84879cd"},"vehicle_type_id":"4","last_reported":1731247637,"current_range_meters":31200,"station_id":"ce4bhbp2rcd13ifvqerg","pricing_plan_id":"cebpf4jnsgd1na2vs0mg"},{"bike_id":"206c8147-9bd3-4092-a8da-c8de6036cbd8","system_id":"levelo_inurba_marseille","lat":43.28272,"lon":5.35089,"is_reserved":false,"is_disabled":false,"rental_uris":{"android":"levelo://app?vid=206c8147-9bd3-4092-a8da-c8de6036cbd8","ios":"levelo://app?vid=206c8147-9bd3-4092-a8da-c8de6036cbd8"},"vehicle_type_id":"4","last_reported":1731247637,"current_range_meters":27600,"station_id":"ce4bhbp2rcd13ifvqerg","pricing_plan_id":"cebpf4jnsgd1na2vs0mg"},{"bike_id":"6c68e9db-4784-439f-b33c-45a552b97ff7","system_id":"levelo_inurba_marseille","lat":43.24078,"lon":5.37746,"is_reserved":false,"is_disabled":false,"rental_uris":{"android":"levelo://app?vid=6c68e9db-4784-439f-b33c-45a552b97ff7","ios":"levelo://app?vid=6c68e9db-4784-439f-b33c-45a552b97ff7"},"vehicle_type_id":"4","last_reported":1731247637,"current_range_meters":6000,"station_id":"ce4bhnp2rcd13ifvqgvg","pricing_plan_id":"cebpf4jnsgd1na2vs0mg"},{"bike_id":"55700614-4820-43a5-871e-d1005d570930","system_id":"levelo_inurba_marseille","lat":43.24072,"lon":5.37759,"is_reserved":false,"is_disabled":false,"rental_uris":{"android":"levelo://app?vid=55700614-4820-43a5-871e-d1005d570930","ios":"levelo://app?vid=55700614-4820-43a5-871e-d1005d570930"},"vehicle_type_id":"4","last_reported":1731247637,"current_range_meters":38800,"station_id":"ce4bhnp2rcd13ifvqgvg","pricing_plan_id":"cebpf4jnsgd1na2vs0mg"},{"bike_id":"497d24e9-e702-4709-b532-ee5e40ce76ad","system_id":"levelo_inurba_marseille","lat":43.24392,"lon":5.37072,"is_reserved":false,"is_disabled":false,"rental_uris":{"android":"levelo://app?vid=497d24e9-e702-4709-b532-ee5e40ce76ad","ios":"levelo://app?vid=497d24e9-e702-4709-b532-ee5e40ce76ad"},"vehicle_type_id":"4","last_reported":1731247637,"current_range_meters":7200,"station_id":"ce4bhhh2rcd13ifvqfk0","pricing_plan_id":"cebpf4jnsgd1na2vs0mg"},{"bike_id":"5b2e1757-142d-4b8e-83de-1ffd730c42be","system_id":"levelo_inurba_marseille","lat":43.28264,"lon":5.35069,"is_reserved":false,"is_disabled":false,"rental_uris":{"android":"levelo://app?vid=5b2e1757-142d-4b8e-83de-1ffd730c42be","ios":"levelo://app?vid=5b2e1757-142d-4b8e-83de-1ffd730c42be"},"vehicle_type_id":"4","last_reported":1731247637,"current_range_meters":28400,"station_id":"ce4bhbp2rcd13ifvqerg","pricing_plan_id":"cebpf4jnsgd1na2vs0mg"},{"bike_id":"0a64ed50-8cfc-463a-acb6-61f6f9203091","system_id":"levelo_inurba_marseille","lat":43.29897,"lon":5.43666,"is_reserved":false,"is_disabled":false,"rental_uris":{"android":"levelo://app?vid=0a64ed50-8cfc-463a-acb6-61f6f9203091","ios":"levelo://app?vid=0a64ed50-8cfc-463a-acb6-61f6f9203091"},"vehicle_type_id":"4","last_reported":1731247637,"current_range_meters":38800,"station_id":"ce4bhpp2rcd13ifvqhfg","pricing_plan_id":"cebpf4jnsgd1na2vs0mg"},{"bike_id":"96aef8c1-f007-442e-b872-036e6f6c58ad","system_id":"levelo_inurba_marseille","lat":43.31757,"lon":5.3902,"is_reserved":false,"is_disabled":false,"rental_uris":{"android":"levelo://app?vid=96aef8c1-f007-442e-b872-036e6f6c58ad","ios":"levelo://app?vid=96aef8c1-f007-442e-b872-036e6f6c58ad"},"vehicle_type_id":"4","last_reported":1731247637,"current_range_meters":39200,"station_id":"ce4bhqp2rcd13ifvqhng","pricing_plan_id":"cebpf4jnsgd1na2vs0mg"},{"bike_id":"134ce1ce-579d-4d82-bde6-b146c0c11c11","system_id":"levelo_inurba_marseille","lat":43.29895,"lon":5.43677,"is_reserved":false,"is_disabled":false,"rental_uris":{"android":"levelo://app?vid=134ce1ce-579d-4d82-bde6-b146c0c11c11","ios":"levelo://app?vid=134ce1ce-579d-4d82-bde6-b146c0c11c11"},"vehicle_type_id":"4","last_reported":1731247637,"current_range_meters":36800,"station_id":"ce4bhpp2rcd13ifvqhfg","pricing_plan_id":"cebpf4jnsgd1na2vs0mg"},{"bike_id":"906c8c14-efc9-453d-bfb5-3e3c60317e9c","system_id":"levelo_inurba_marseille","lat":43.26059,"lon":5.394,"is_reserved":false,"is_disabled":false,"rental_uris":{"android":"levelo://app?vid=906c8c14-efc9-453d-bfb5-3e3c60317e9c","ios":"levelo://app?vid=906c8c14-efc9-453d-bfb5-3e3c60317e9c"},"vehicle_type_id":"4","last_reported":1731247637,"current_range_meters":37600,"station_id":"ce4bhh92rcd13ifvqfj0","pricing_plan_id":"cebpf4jnsgd1na2vs0mg"},{"bike_id":"0444f770-7f84-4775-9456-a14814dfed99","system_id":"levelo_inurba_marseille","lat":43.299666,"lon":5.384971,"is_reserved":false,"is_disabled":false,"rental_uris":{"android":"levelo://app?vid=0444f770-7f84-4775-9456-a14814dfed99","ios":"levelo://app?vid=0444f770-7f84-4775-9456-a14814dfed99"},"vehicle_type_id":"4","last_reported":1731247637,"current_range_meters":34000,"station_id":"ce4bgn12rcd13ifvqbt0","pricing_plan_id":"cebpf4jnsgd1na2vs0mg"},{"bike_id":"181fa628-fd06-4339-88f4-5d411c857699","system_id":"levelo_inurba_marseille","lat":43.27074,"lon":5.42282,"is_reserved":false,"is_disabled":false,"rental_uris":{"android":"levelo://app?vid=181fa628-fd06-4339-88f4-5d411c857699","ios":"levelo://app?vid=181fa628-fd06-4339-88f4-5d411c857699"},"vehicle_type_id":"4","last_reported":1731247637,"current_range_meters":8800,"station_id":"ce4bhk92rcd13ifvqgb0","pricing_plan_id":"cebpf4jnsgd1na2vs0mg"},{"bike_id":"a49b5c62-4f4f-460b-89e2-d814335a19f8","system_id":"levelo_inurba_marseille","lat":43.28617,"lon":5.35109,"is_reserved":false,"is_disabled":false,"rental_uris":{"android":"levelo://app?vid=a49b5c62-4f4f-460b-89e2-d814335a19f8","ios":"levelo://app?vid=a49b5c62-4f4f-460b-89e2-d814335a19f8"},"vehicle_type_id":"4","last_reported":1731247637,"current_range_meters":28800,"station_id":"ce4bhch2rcd13ifvqeug","pricing_plan_id":"cebpf4jnsgd1na2vs0mg"},{"bike_id":"9a5eb101-92a2-4eeb-93bd-8d070d90c1ea","system_id":"levelo_inurba_marseille","lat":43.30433,"lon":5.42528,"is_reserved":false,"is_disabled":false,"rental_uris":{"android":"levelo://app?vid=9a5eb101-92a2-4eeb-93bd-8d070d90c1ea","ios":"levelo://app?vid=9a5eb101-92a2-4eeb-93bd-8d070d90c1ea"},"vehicle_type_id":"4","last_reported":1731247637,"current_range_meters":11600,"station_id":"","pricing_plan_id":"cebpf4jnsgd1na2vs0mg"},{"bike_id":"3ba567a2-e80d-4154-8ac4-aa6e78894b5a","system_id":"levelo_inurba_marseille","lat":43.27959,"lon":5.38732,"is_reserved":false,"is_disabled":false,"rental_uris":{"android":"levelo://app?vid=3ba567a2-e80d-4154-8ac4-aa6e78894b5a","ios":"levelo://app?vid=3ba567a2-e80d-4154-8ac4-aa6e78894b5a"},"vehicle_type_id":"4","last_reported":1731247637,"current_range_meters":8400,"station_id":"ce4bhg12rcd13ifvqf80","pricing_plan_id":"cebpf4jnsgd1na2vs0mg"},{"bike_id":"27e15419-d9b0-4647-890e-e21a7149b1cd","system_id":"levelo_inurba_marseille","lat":43.27067,"lon":5.42275,"is_reserved":false,"is_disabled":false,"rental_uris":{"android":"levelo://app?vid=27e15419-d9b0-4647-890e-e21a7149b1cd","ios":"levelo://app?vid=27e15419-d9b0-4647-890e-e21a7149b1cd"},"vehicle_type_id":"4","last_reported":1731247637,"current_range_meters":7200,"station_id":"ce4bhk92rcd13ifvqgb0","pricing_plan_id":"cebpf4jnsgd1na2vs0mg"},{"bike_id":"7e17ea8a-3183-4307-a2e8-7c66e65abb3a","system_id":"levelo_inurba_marseille","lat":43.284163,"lon":5.349776,"is_reserved":false,"is_disabled":false,"rental_uris":{"android":"levelo://app?vid=7e17ea8a-3183-4307-a2e8-7c66e65abb3a","ios":"levelo://app?vid=7e17ea8a-3183-4307-a2e8-7c66e65abb3a"},"vehicle_type_id":"4","last_reported":1731247637,"current_range_meters":38400,"station_id":"ce4bhbh2rcd13ifvqepg","pricing_plan_id":"cebpf4jnsgd1na2vs0mg"},{"bike_id":"91a598a9-4284-4e88-ab7f-5e3a7e64ed8d","system_id":"levelo_inurba_marseille","lat":43.25488,"lon":5.37654,"is_reserved":false,"is_disabled":false,"rental_uris":{"android":"levelo://app?vid=91a598a9-4284-4e88-ab7f-5e3a7e64ed8d","ios":"levelo://app?vid=91a598a9-4284-4e88-ab7f-5e3a7e64ed8d"},"vehicle_type_id":"4","last_reported":1731247637,"current_range_meters":7200,"station_id":"ce4bhh12rcd13ifvqff0","pricing_plan_id":"cebpf4jnsgd1na2vs0mg"},{"bike_id":"0d93b31b-854a-4c31-b287-70df5cbe7d07","system_id":"levelo_inurba_marseille","lat":43.24083,"lon":5.37741,"is_reserved":false,"is_disabled":false,"rental_uris":{"android":"levelo://app?vid=0d93b31b-854a-4c31-b287-70df5cbe7d07","ios":"levelo://app?vid=0d93b31b-854a-4c31-b287-70df5cbe7d07"},"vehicle_type_id":"4","last_reported":1731247637,"current_range_meters":11200,"station_id":"ce4bhnp2rcd13ifvqgvg","pricing_plan_id":"cebpf4jnsgd1na2vs0mg"},{"bike_id":"8e9a58c9-4fef-4aca-810f-eb47de85c9df","system_id":"levelo_inurba_marseille","lat":43.32474,"lon":5.36562,"is_reserved":false,"is_disabled":false,"rental_uris":{"android":"levelo://app?vid=8e9a58c9-4fef-4aca-810f-eb47de85c9df","ios":"levelo://app?vid=8e9a58c9-4fef-4aca-810f-eb47de85c9df"},"vehicle_type_id":"4","last_reported":1731247637,"current_range_meters":11600,"station_id":"ce4bhs12rcd13ifvqhvg","pricing_plan_id":"cebpf4jnsgd1na2vs0mg"},{"bike_id":"88064f05-2264-4852-b057-30e37fdabce1","system_id":"levelo_inurba_marseille","lat":43.2306,"lon":5.35493,"is_reserved":false,"is_disabled":false,"rental_uris":{"android":"levelo://app?vid=88064f05-2264-4852-b057-30e37fdabce1","ios":"levelo://app?vid=88064f05-2264-4852-b057-30e37fdabce1"},"vehicle_type_id":"4","last_reported":1731247637,"current_range_meters":38800,"station_id":"cpo3342slgdg3j2ifvpg","pricing_plan_id":"cebpf4jnsgd1na2vs0mg"},{"bike_id":"0e83ce01-6760-4f0a-b2cd-0dccbba565b3","system_id":"levelo_inurba_marseille","lat":43.28422,"lon":5.34993,"is_reserved":false,"is_disabled":false,"rental_uris":{"android":"levelo://app?vid=0e83ce01-6760-4f0a-b2cd-0dccbba565b3","ios":"levelo://app?vid=0e83ce01-6760-4f0a-b2cd-0dccbba565b3"},"vehicle_type_id":"4","last_reported":1731247637,"current_range_meters":18000,"station_id":"ce4bhbh2rcd13ifvqepg","pricing_plan_id":"cebpf4jnsgd1na2vs0mg"},{"bike_id":"4fb6af20-dec9-436c-9f32-24edbd37e126","system_id":"levelo_inurba_marseille","lat":43.28421,"lon":5.350032,"is_reserved":false,"is_disabled":false,"rental_uris":{"android":"levelo://app?vid=4fb6af20-dec9-436c-9f32-24edbd37e126","ios":"levelo://app?vid=4fb6af20-dec9-436c-9f32-24edbd37e126"},"vehicle_type_id":"4","last_reported":1731247637,"current_range_meters":11600,"station_id":"ce4bhbh2rcd13ifvqepg","pricing_plan_id":"cebpf4jnsgd1na2vs0mg"},{"bike_id":"c6ae65bf-8d5e-4ea9-a3a9-adc79d0ebafe","system_id":"levelo_inurba_marseille","lat":43.24392,"lon":5.37057,"is_reserved":false,"is_disabled":false,"rental_uris":{"android":"levelo://app?vid=c6ae65bf-8d5e-4ea9-a3a9-adc79d0ebafe","ios":"levelo://app?vid=c6ae65bf-8d5e-4ea9-a3a9-adc79d0ebafe"},"vehicle_type_id":"4","last_reported":1731247637,"current_range_meters":23200,"station_id":"ce4bhhh2rcd13ifvqfk0","pricing_plan_id":"cebpf4jnsgd1na2vs0mg"},{"bike_id":"1b641421-2e55-46f2-aa52-a5bd61345632","system_id":"levelo_inurba_marseille","lat":43.24168,"lon":5.36392,"is_reserved":false,"is_disabled":false,"rental_uris":{"android":"levelo://app?vid=1b641421-2e55-46f2-aa52-a5bd61345632","ios":"levelo://app?vid=1b641421-2e55-46f2-aa52-a5bd61345632"},"vehicle_type_id":"4","last_reported":1731247637,"current_range_meters":11200,"station_id":"cpo36qri1sfpv3e86is0","pricing_plan_id":"cebpf4jnsgd1na2vs0mg"},{"bike_id":"264596ae-132f-479e-b7f5-04ea012a5992","system_id":"levelo_inurba_marseille","lat":43.29991,"lon":5.37157,"is_reserved":false,"is_disabled":false,"rental_uris":{"android":"levelo://app?vid=264596ae-132f-479e-b7f5-04ea012a5992","ios":"levelo://app?vid=264596ae-132f-479e-b7f5-04ea012a5992"},"vehicle_type_id":"4","last_reported":1731247637,"current_range_meters":27200,"station_id":"ce4bgr92rcd13ifvqc7g","pricing_plan_id":"cebpf4jnsgd1na2vs0mg"},{"bike_id":"bd107d40-34a8-40f9-8610-97fdcd404745","system_id":"levelo_inurba_marseille","lat":43.25496,"lon":5.37655,"is_reserved":false,"is_disabled":false,"rental_uris":{"android":"levelo://app?vid=bd107d40-34a8-40f9-8610-97fdcd404745","ios":"levelo://app?vid=bd107d40-34a8-40f9-8610-97fdcd404745"},"vehicle_type_id":"4","last_reported":1731247637,"current_range_meters":38400,"station_id":"ce4bhh12rcd13ifvqff0","pricing_plan_id":"cebpf4jnsgd1na2vs0mg"},{"bike_id":"163dbc2a-4c24-4c8a-b152-a3779f8d2534","system_id":"levelo_inurba_marseille","lat":43.28692,"lon":5.37395,"is_reserved":false,"is_disabled":false,"rental_uris":{"android":"levelo://app?vid=163dbc2a-4c24-4c8a-b152-a3779f8d2534","ios":"levelo://app?vid=163dbc2a-4c24-4c8a-b152-a3779f8d2534"},"vehicle_type_id":"4","last_reported":1731247637,"current_range_meters":28800,"station_id":"ce4bh3p2rcd13ifvqdq0","pricing_plan_id":"cebpf4jnsgd1na2vs0mg"},{"bike_id":"a14eba83-c51d-4975-9294-c67e4d67f7c4","system_id":"levelo_inurba_marseille","lat":43.28153,"lon":5.42643,"is_reserved":false,"is_disabled":false,"rental_uris":{"android":"levelo://app?vid=a14eba83-c51d-4975-9294-c67e4d67f7c4","ios":"levelo://app?vid=a14eba83-c51d-4975-9294-c67e4d67f7c4"},"vehicle_type_id":"4","last_reported":1731247637,"current_range_meters":16400,"station_id":"ce4bhnh2rcd13ifvqgug","pricing_plan_id":"cebpf4jnsgd1na2vs0mg"},{"bike_id":"07704a86-dbed-425a-854d-11b1a4e3d84c","system_id":"levelo_inurba_marseille","lat":43.33753,"lon":5.37447,"is_reserved":false,"is_disabled":false,"rental_uris":{"android":"levelo://app?vid=07704a86-dbed-425a-854d-11b1a4e3d84c","ios":"levelo://app?vid=07704a86-dbed-425a-854d-11b1a4e3d84c"},"vehicle_type_id":"4","last_reported":1731247637,"current_range_meters":30800,"station_id":"","pricing_plan_id":"cebpf4jnsgd1na2vs0mg"},{"bike_id":"0b74ce83-e6b1-4485-8ca6-3897f29a426e","system_id":"levelo_inurba_marseille","lat":43.23957,"lon":5.36625,"is_reserved":false,"is_disabled":false,"rental_uris":{"android":"levelo://app?vid=0b74ce83-e6b1-4485-8ca6-3897f29a426e","ios":"levelo://app?vid=0b74ce83-e6b1-4485-8ca6-3897f29a426e"},"vehicle_type_id":"4","last_reported":1731247637,"current_range_meters":9200,"station_id":"ce4bhi12rcd13ifvqfp0","pricing_plan_id":"cebpf4jnsgd1na2vs0mg"},{"bike_id":"6c667f5f-b7e9-4c69-8c31-28fbbcdde478","system_id":"levelo_inurba_marseille","lat":43.23189,"lon":5.35564,"is_reserved":false,"is_disabled":false,"rental_uris":{"android":"levelo://app?vid=6c667f5f-b7e9-4c69-8c31-28fbbcdde478","ios":"levelo://app?vid=6c667f5f-b7e9-4c69-8c31-28fbbcdde478"},"vehicle_type_id":"4","last_reported":1731247637,"current_range_meters":8400,"station_id":"ce4bhu92rcd13ifvqi70","pricing_plan_id":"cebpf4jnsgd1na2vs0mg"},{"bike_id":"1bc42c89-6add-4f12-91a8-df4a8034b2db","system_id":"levelo_inurba_marseille","lat":43.23064,"lon":5.35491,"is_reserved":false,"is_disabled":false,"rental_uris":{"android":"levelo://app?vid=1bc42c89-6add-4f12-91a8-df4a8034b2db","ios":"levelo://app?vid=1bc42c89-6add-4f12-91a8-df4a8034b2db"},"vehicle_type_id":"4","last_reported":1731247637,"current_range_meters":7200,"station_id":"cpo3342slgdg3j2ifvpg","pricing_plan_id":"cebpf4jnsgd1na2vs0mg"},{"bike_id":"83c894fe-14ff-4c71-8685-9717a74922f0","system_id":"levelo_inurba_marseille","lat":43.23056,"lon":5.35494,"is_reserved":false,"is_disabled":false,"rental_uris":{"android":"levelo://app?vid=83c894fe-14ff-4c71-8685-9717a74922f0","ios":"levelo://app?vid=83c894fe-14ff-4c71-8685-9717a74922f0"},"vehicle_type_id":"4","last_reported":1731247637,"current_range_meters":29600,"station_id":"cpo3342slgdg3j2ifvpg","pricing_plan_id":"cebpf4jnsgd1na2vs0mg"},{"bike_id":"c168e25c-6e4a-48b5-8d5e-704d5732bac6","system_id":"levelo_inurba_marseille","lat":43.29277,"lon":5.36849,"is_reserved":false,"is_disabled":false,"rental_uris":{"android":"levelo://app?vid=c168e25c-6e4a-48b5-8d5e-704d5732bac6","ios":"levelo://app?vid=c168e25c-6e4a-48b5-8d5e-704d5732bac6"},"vehicle_type_id":"4","last_reported":1731247637,"current_range_meters":24800,"station_id":"ce4bhbp2rcd13ifvqesg","pricing_plan_id":"cebpf4jnsgd1na2vs0mg"},{"bike_id":"2016efc3-0c67-4b9f-a77c-4cad4e5226f3","system_id":"levelo_inurba_marseille","lat":43.281,"lon":5.3785,"is_reserved":false,"is_disabled":false,"rental_uris":{"android":"levelo://app?vid=2016efc3-0c67-4b9f-a77c-4cad4e5226f3","ios":"levelo://app?vid=2016efc3-0c67-4b9f-a77c-4cad4e5226f3"},"vehicle_type_id":"4","last_reported":1731247637,"current_range_meters":25200,"station_id":"ce4bha12rcd13ifvqee0","pricing_plan_id":"cebpf4jnsgd1na2vs0mg"},{"bike_id":"36c5ff9c-46cc-4c47-bdd2-03ca7a0be1ae","system_id":"levelo_inurba_marseille","lat":43.23967,"lon":5.36625,"is_reserved":false,"is_disabled":false,"rental_uris":{"android":"levelo://app?vid=36c5ff9c-46cc-4c47-bdd2-03ca7a0be1ae","ios":"levelo://app?vid=36c5ff9c-46cc-4c47-bdd2-03ca7a0be1ae"},"vehicle_type_id":"4","last_reported":1731247637,"current_range_meters":29600,"station_id":"ce4bhi12rcd13ifvqfp0","pricing_plan_id":"cebpf4jnsgd1na2vs0mg"},{"bike_id":"baac3be3-010c-4ab7-b814-2af962c842f8","system_id":"levelo_inurba_marseille","lat":43.28363,"lon":5.37521,"is_reserved":false,"is_disabled":false,"rental_uris":{"android":"levelo://app?vid=baac3be3-010c-4ab7-b814-2af962c842f8","ios":"levelo://app?vid=baac3be3-010c-4ab7-b814-2af962c842f8"},"vehicle_type_id":"4","last_reported":1731247637,"current_range_meters":26800,"station_id":"ce4bh412rcd13ifvqds0","pricing_plan_id":"cebpf4jnsgd1na2vs0mg"},{"bike_id":"a767394b-7831-493a-b139-68cf2e89e2d6","system_id":"levelo_inurba_marseille","lat":43.26058,"lon":5.394,"is_reserved":false,"is_disabled":false,"rental_uris":{"android":"levelo://app?vid=a767394b-7831-493a-b139-68cf2e89e2d6","ios":"levelo://app?vid=a767394b-7831-493a-b139-68cf2e89e2d6"},"vehicle_type_id":"4","last_reported":1731247637,"current_range_meters":14400,"station_id":"ce4bhh92rcd13ifvqfj0","pricing_plan_id":"cebpf4jnsgd1na2vs0mg"},{"bike_id":"306a0965-4cf3-43d3-9e96-0e49c5d0a28d","system_id":"levelo_inurba_marseille","lat":43.31355,"lon":5.38499,"is_reserved":false,"is_disabled":false,"rental_uris":{"android":"levelo://app?vid=306a0965-4cf3-43d3-9e96-0e49c5d0a28d","ios":"levelo://app?vid=306a0965-4cf3-43d3-9e96-0e49c5d0a28d"},"vehicle_type_id":"4","last_reported":1731247637,"current_range_meters":6800,"station_id":"ce4bgt92rcd13ifvqcf0","pricing_plan_id":"cebpf4jnsgd1na2vs0mg"},{"bike_id":"63892169-dd06-4cf3-ad14-218905bbd540","system_id":"levelo_inurba_marseille","lat":43.25495,"lon":5.37651,"is_reserved":false,"is_disabled":false,"rental_uris":{"android":"levelo://app?vid=63892169-dd06-4cf3-ad14-218905bbd540","ios":"levelo://app?vid=63892169-dd06-4cf3-ad14-218905bbd540"},"vehicle_type_id":"4","last_reported":1731247637,"current_range_meters":38800,"station_id":"ce4bhh12rcd13ifvqff0","pricing_plan_id":"cebpf4jnsgd1na2vs0mg"},{"bike_id":"11ac6ec8-27ad-46fb-8ebd-29892c774b1f","system_id":"levelo_inurba_marseille","lat":43.27492,"lon":5.42453,"is_reserved":false,"is_disabled":false,"rental_uris":{"android":"levelo://app?vid=11ac6ec8-27ad-46fb-8ebd-29892c774b1f","ios":"levelo://app?vid=11ac6ec8-27ad-46fb-8ebd-29892c774b1f"},"vehicle_type_id":"4","last_reported":1731247637,"current_range_meters":3600,"station_id":"ce4bhn92rcd13ifvqgrg","pricing_plan_id":"cebpf4jnsgd1na2vs0mg"},{"bike_id":"2a1d3ddd-9ad6-489d-8c7d-be8e0b1ca02c","system_id":"levelo_inurba_marseille","lat":43.24547,"lon":5.39519,"is_reserved":false,"is_disabled":false,"rental_uris":{"android":"levelo://app?vid=2a1d3ddd-9ad6-489d-8c7d-be8e0b1ca02c","ios":"levelo://app?vid=2a1d3ddd-9ad6-489d-8c7d-be8e0b1ca02c"},"vehicle_type_id":"4","last_reported":1731247637,"current_range_meters":39200,"station_id":"ce4bhlp2rcd13ifvqgjg","pricing_plan_id":"cebpf4jnsgd1na2vs0mg"},{"bike_id":"74978fdb-6ca2-4d8b-9174-9b622ddf0e88","system_id":"levelo_inurba_marseille","lat":43.22879,"lon":5.36504,"is_reserved":false,"is_disabled":false,"rental_uris":{"android":"levelo://app?vid=74978fdb-6ca2-4d8b-9174-9b622ddf0e88","ios":"levelo://app?vid=74978fdb-6ca2-4d8b-9174-9b622ddf0e88"},"vehicle_type_id":"4","last_reported":1731247637,"current_range_meters":37600,"station_id":"","pricing_plan_id":"cebpf4jnsgd1na2vs0mg"},{"bike_id":"6fabbb8c-a56d-4a53-9f01-1bc3642318a0","system_id":"levelo_inurba_marseille","lat":43.23959,"lon":5.36633,"is_reserved":false,"is_disabled":false,"rental_uris":{"android":"levelo://app?vid=6fabbb8c-a56d-4a53-9f01-1bc3642318a0","ios":"levelo://app?vid=6fabbb8c-a56d-4a53-9f01-1bc3642318a0"},"vehicle_type_id":"4","last_reported":1731247637,"current_range_meters":16000,"station_id":"ce4bhi12rcd13ifvqfp0","pricing_plan_id":"cebpf4jnsgd1na2vs0mg"},{"bike_id":"b4eb30bc-dd09-4cbf-8ece-3b8ada662aaf","system_id":"levelo_inurba_marseille","lat":43.25008,"lon":5.3891,"is_reserved":false,"is_disabled":false,"rental_uris":{"android":"levelo://app?vid=b4eb30bc-dd09-4cbf-8ece-3b8ada662aaf","ios":"levelo://app?vid=b4eb30bc-dd09-4cbf-8ece-3b8ada662aaf"},"vehicle_type_id":"4","last_reported":1731247637,"current_range_meters":12800,"station_id":"ce4bhgp2rcd13ifvqfd0","pricing_plan_id":"cebpf4jnsgd1na2vs0mg"},{"bike_id":"af14f072-43d6-472f-9f61-1015e273772b","system_id":"levelo_inurba_marseille","lat":43.23967,"lon":5.36646,"is_reserved":false,"is_disabled":false,"rental_uris":{"android":"levelo://app?vid=af14f072-43d6-472f-9f61-1015e273772b","ios":"levelo://app?vid=af14f072-43d6-472f-9f61-1015e273772b"},"vehicle_type_id":"4","last_reported":1731247637,"current_range_meters":27200,"station_id":"ce4bhi12rcd13ifvqfp0","pricing_plan_id":"cebpf4jnsgd1na2vs0mg"},{"bike_id":"35c9866e-9095-49c5-ba06-72a672a0ce24","system_id":"levelo_inurba_marseille","lat":43.22932,"lon":5.35373,"is_reserved":false,"is_disabled":false,"rental_uris":{"android":"levelo://app?vid=35c9866e-9095-49c5-ba06-72a672a0ce24","ios":"levelo://app?vid=35c9866e-9095-49c5-ba06-72a672a0ce24"},"vehicle_type_id":"4","last_reported":1731247637,"current_range_meters":24400,"station_id":"cpo3532slgdg3j2ikp40","pricing_plan_id":"cebpf4jnsgd1na2vs0mg"},{"bike_id":"c931e854-f671-4eae-be17-c754dc3c9917","system_id":"levelo_inurba_marseille","lat":43.29559,"lon":5.42288,"is_reserved":false,"is_disabled":false,"rental_uris":{"android":"levelo://app?vid=c931e854-f671-4eae-be17-c754dc3c9917","ios":"levelo://app?vid=c931e854-f671-4eae-be17-c754dc3c9917"},"vehicle_type_id":"4","last_reported":1731247637,"current_range_meters":8000,"station_id":"ce4bhph2rcd13ifvqhdg","pricing_plan_id":"cebpf4jnsgd1na2vs0mg"},{"bike_id":"5a416b26-4041-4400-b3dc-7ee182118b28","system_id":"levelo_inurba_marseille","lat":43.27087,"lon":5.42269,"is_reserved":false,"is_disabled":false,"rental_uris":{"android":"levelo://app?vid=5a416b26-4041-4400-b3dc-7ee182118b28","ios":"levelo://app?vid=5a416b26-4041-4400-b3dc-7ee182118b28"},"vehicle_type_id":"4","last_reported":1731247637,"current_range_meters":8000,"station_id":"ce4bhk92rcd13ifvqgb0","pricing_plan_id":"cebpf4jnsgd1na2vs0mg"},{"bike_id":"110cf750-d933-48ee-868c-94a0d2c3f544","system_id":"levelo_inurba_marseille","lat":43.22932,"lon":5.35377,"is_reserved":false,"is_disabled":false,"rental_uris":{"android":"levelo://app?vid=110cf750-d933-48ee-868c-94a0d2c3f544","ios":"levelo://app?vid=110cf750-d933-48ee-868c-94a0d2c3f544"},"vehicle_type_id":"4","last_reported":1731247637,"current_range_meters":40000,"station_id":"cpo3532slgdg3j2ikp40","pricing_plan_id":"cebpf4jnsgd1na2vs0mg"},{"bike_id":"f9536705-6469-40fe-8b90-ba5d77388fb4","system_id":"levelo_inurba_marseille","lat":43.25492,"lon":5.37656,"is_reserved":false,"is_disabled":false,"rental_uris":{"android":"levelo://app?vid=f9536705-6469-40fe-8b90-ba5d77388fb4","ios":"levelo://app?vid=f9536705-6469-40fe-8b90-ba5d77388fb4"},"vehicle_type_id":"4","last_reported":1731247637,"current_range_meters":18000,"station_id":"ce4bhh12rcd13ifvqff0","pricing_plan_id":"cebpf4jnsgd1na2vs0mg"},{"bike_id":"b8174fc0-0bcb-4647-8335-4d7e8c2fe3fa","system_id":"levelo_inurba_marseille","lat":43.320452,"lon":5.415583,"is_reserved":false,"is_disabled":false,"rental_uris":{"android":"levelo://app?vid=b8174fc0-0bcb-4647-8335-4d7e8c2fe3fa","ios":"levelo://app?vid=b8174fc0-0bcb-4647-8335-4d7e8c2fe3fa"},"vehicle_type_id":"4","last_reported":1731247637,"current_range_meters":28000,"station_id":"ce4bhq92rcd13ifvqhkg","pricing_plan_id":"cebpf4jnsgd1na2vs0mg"},{"bike_id":"34b046ac-5776-4eae-ad1d-7287cb7dcbe9","system_id":"levelo_inurba_marseille","lat":43.2397,"lon":5.36627,"is_reserved":false,"is_disabled":false,"rental_uris":{"android":"levelo://app?vid=34b046ac-5776-4eae-ad1d-7287cb7dcbe9","ios":"levelo://app?vid=34b046ac-5776-4eae-ad1d-7287cb7dcbe9"},"vehicle_type_id":"4","last_reported":1731247637,"current_range_meters":20000,"station_id":"ce4bhi12rcd13ifvqfp0","pricing_plan_id":"cebpf4jnsgd1na2vs0mg"},{"bike_id":"6b1015de-41e3-4669-bcf9-43f25a7b07ed","system_id":"levelo_inurba_marseille","lat":43.2315,"lon":5.43718,"is_reserved":false,"is_disabled":false,"rental_uris":{"android":"levelo://app?vid=6b1015de-41e3-4669-bcf9-43f25a7b07ed","ios":"levelo://app?vid=6b1015de-41e3-4669-bcf9-43f25a7b07ed"},"vehicle_type_id":"4","last_reported":1731247637,"current_range_meters":34800,"station_id":"ce4bhmp2rcd13ifvqgog","pricing_plan_id":"cebpf4jnsgd1na2vs0mg"},{"bike_id":"c1b9d62b-9cd0-4a22-b9fd-2e24483ac4dc","system_id":"levelo_inurba_marseille","lat":43.3029,"lon":5.36874,"is_reserved":false,"is_disabled":false,"rental_uris":{"android":"levelo://app?vid=c1b9d62b-9cd0-4a22-b9fd-2e24483ac4dc","ios":"levelo://app?vid=c1b9d62b-9cd0-4a22-b9fd-2e24483ac4dc"},"vehicle_type_id":"4","last_reported":1731247637,"current_range_meters":34800,"station_id":"ce4bgqh2rcd13ifvqc5g","pricing_plan_id":"cebpf4jnsgd1na2vs0mg"},{"bike_id":"2374b598-c89a-4a04-8070-828a0266e57c","system_id":"levelo_inurba_marseille","lat":43.26211,"lon":5.37443,"is_reserved":false,"is_disabled":false,"rental_uris":{"android":"levelo://app?vid=2374b598-c89a-4a04-8070-828a0266e57c","ios":"levelo://app?vid=2374b598-c89a-4a04-8070-828a0266e57c"},"vehicle_type_id":"4","last_reported":1731247637,"current_range_meters":2000,"station_id":"ce4bhgp2rcd13ifvqfc0","pricing_plan_id":"cebpf4jnsgd1na2vs0mg"},{"bike_id":"c43bfbe6-2bf2-47fb-80a7-057f382a90aa","system_id":"levelo_inurba_marseille","lat":43.23201,"lon":5.35551,"is_reserved":false,"is_disabled":false,"rental_uris":{"android":"levelo://app?vid=c43bfbe6-2bf2-47fb-80a7-057f382a90aa","ios":"levelo://app?vid=c43bfbe6-2bf2-47fb-80a7-057f382a90aa"},"vehicle_type_id":"4","last_reported":1731247637,"current_range_meters":24800,"station_id":"ce4bhu92rcd13ifvqi70","pricing_plan_id":"cebpf4jnsgd1na2vs0mg"},{"bike_id":"d604bdcf-1c29-4955-a92a-983bad3f66b9","system_id":"levelo_inurba_marseille","lat":43.28422,"lon":5.34987,"is_reserved":false,"is_disabled":false,"rental_uris":{"android":"levelo://app?vid=d604bdcf-1c29-4955-a92a-983bad3f66b9","ios":"levelo://app?vid=d604bdcf-1c29-4955-a92a-983bad3f66b9"},"vehicle_type_id":"4","last_reported":1731247637,"current_range_meters":30400,"station_id":"ce4bhbh2rcd13ifvqepg","pricing_plan_id":"cebpf4jnsgd1na2vs0mg"},{"bike_id":"e61e0940-c088-4879-95f6-2eeeebf20835","system_id":"levelo_inurba_marseille","lat":43.31697,"lon":5.37746,"is_reserved":false,"is_disabled":false,"rental_uris":{"android":"levelo://app?vid=e61e0940-c088-4879-95f6-2eeeebf20835","ios":"levelo://app?vid=e61e0940-c088-4879-95f6-2eeeebf20835"},"vehicle_type_id":"4","last_reported":1731247637,"current_range_meters":14000,"station_id":"ce4bgth2rcd13ifvqch0","pricing_plan_id":"cebpf4jnsgd1na2vs0mg"},{"bike_id":"e1871985-0fe4-4afb-99d5-0dd851faec4f","system_id":"levelo_inurba_marseille","lat":43.25496,"lon":5.37653,"is_reserved":false,"is_disabled":false,"rental_uris":{"android":"levelo://app?vid=e1871985-0fe4-4afb-99d5-0dd851faec4f","ios":"levelo://app?vid=e1871985-0fe4-4afb-99d5-0dd851faec4f"},"vehicle_type_id":"4","last_reported":1731247637,"current_range_meters":39200,"station_id":"ce4bhh12rcd13ifvqff0","pricing_plan_id":"cebpf4jnsgd1na2vs0mg"},{"bike_id":"daed64dd-02f6-4c40-9325-b28b46a59db3","system_id":"levelo_inurba_marseille","lat":43.23061,"lon":5.35488,"is_reserved":false,"is_disabled":false,"rental_uris":{"android":"levelo://app?vid=daed64dd-02f6-4c40-9325-b28b46a59db3","ios":"levelo://app?vid=daed64dd-02f6-4c40-9325-b28b46a59db3"},"vehicle_type_id":"4","last_reported":1731247637,"current_range_meters":24800,"station_id":"cpo3342slgdg3j2ifvpg","pricing_plan_id":"cebpf4jnsgd1na2vs0mg"},{"bike_id":"2ba681b1-c2b3-4287-8c1d-b6b7d820cb6c","system_id":"levelo_inurba_marseille","lat":43.24815,"lon":5.37463,"is_reserved":false,"is_disabled":false,"rental_uris":{"android":"levelo://app?vid=2ba681b1-c2b3-4287-8c1d-b6b7d820cb6c","ios":"levelo://app?vid=2ba681b1-c2b3-4287-8c1d-b6b7d820cb6c"},"vehicle_type_id":"4","last_reported":1731247637,"current_range_meters":13600,"station_id":"ce4bhgh2rcd13ifvqfb0","pricing_plan_id":"cebpf4jnsgd1na2vs0mg"},{"bike_id":"7e7be88e-2387-4ac1-8672-4e3f2accb589","system_id":"levelo_inurba_marseille","lat":43.23192,"lon":5.35553,"is_reserved":false,"is_disabled":false,"rental_uris":{"android":"levelo://app?vid=7e7be88e-2387-4ac1-8672-4e3f2accb589","ios":"levelo://app?vid=7e7be88e-2387-4ac1-8672-4e3f2accb589"},"vehicle_type_id":"4","last_reported":1731247637,"current_range_meters":9600,"station_id":"ce4bhu92rcd13ifvqi70","pricing_plan_id":"cebpf4jnsgd1na2vs0mg"},{"bike_id":"e2f539b2-1c9a-4c53-8dc2-a41bd1a14b91","system_id":"levelo_inurba_marseille","lat":43.28272,"lon":5.35075,"is_reserved":false,"is_disabled":false,"rental_uris":{"android":"levelo://app?vid=e2f539b2-1c9a-4c53-8dc2-a41bd1a14b91","ios":"levelo://app?vid=e2f539b2-1c9a-4c53-8dc2-a41bd1a14b91"},"vehicle_type_id":"4","last_reported":1731247637,"current_range_meters":30000,"station_id":"ce4bhbp2rcd13ifvqerg","pricing_plan_id":"cebpf4jnsgd1na2vs0mg"},{"bike_id":"7cbcc02e-b174-46f4-99d0-100529c6ebfd","system_id":"levelo_inurba_marseille","lat":43.23967,"lon":5.36643,"is_reserved":false,"is_disabled":false,"rental_uris":{"android":"levelo://app?vid=7cbcc02e-b174-46f4-99d0-100529c6ebfd","ios":"levelo://app?vid=7cbcc02e-b174-46f4-99d0-100529c6ebfd"},"vehicle_type_id":"4","last_reported":1731247637,"current_range_meters":20800,"station_id":"ce4bhi12rcd13ifvqfp0","pricing_plan_id":"cebpf4jnsgd1na2vs0mg"},{"bike_id":"8f176852-51d8-4ea9-943f-c539a472ae88","system_id":"levelo_inurba_marseille","lat":43.28271,"lon":5.35077,"is_reserved":false,"is_disabled":false,"rental_uris":{"android":"levelo://app?vid=8f176852-51d8-4ea9-943f-c539a472ae88","ios":"levelo://app?vid=8f176852-51d8-4ea9-943f-c539a472ae88"},"vehicle_type_id":"4","last_reported":1731247637,"current_range_meters":17600,"station_id":"ce4bhbp2rcd13ifvqerg","pricing_plan_id":"cebpf4jnsgd1na2vs0mg"},{"bike_id":"fa51528c-10ef-45f5-a250-a337bf8e66e5","system_id":"levelo_inurba_marseille","lat":43.256131,"lon":5.382385,"is_reserved":false,"is_disabled":false,"rental_uris":{"android":"levelo://app?vid=fa51528c-10ef-45f5-a250-a337bf8e66e5","ios":"levelo://app?vid=fa51528c-10ef-45f5-a250-a337bf8e66e5"},"vehicle_type_id":"4","last_reported":1731247637,"current_range_meters":34000,"station_id":"ce4bhih2rcd13ifvqfs0","pricing_plan_id":"cebpf4jnsgd1na2vs0mg"},{"bike_id":"1353dd95-4748-4b20-96e8-fb06f5f9fc6b","system_id":"levelo_inurba_marseille","lat":43.243256,"lon":5.396568,"is_reserved":false,"is_disabled":false,"rental_uris":{"android":"levelo://app?vid=1353dd95-4748-4b20-96e8-fb06f5f9fc6b","ios":"levelo://app?vid=1353dd95-4748-4b20-96e8-fb06f5f9fc6b"},"vehicle_type_id":"4","last_reported":1731247637,"current_range_meters":8400,"station_id":"ce4bhn12rcd13ifvqgpg","pricing_plan_id":"cebpf4jnsgd1na2vs0mg"},{"bike_id":"c2bf881a-f020-4e0e-819d-ec6a7c5dac04","system_id":"levelo_inurba_marseille","lat":43.31694,"lon":5.3775,"is_reserved":false,"is_disabled":false,"rental_uris":{"android":"levelo://app?vid=c2bf881a-f020-4e0e-819d-ec6a7c5dac04","ios":"levelo://app?vid=c2bf881a-f020-4e0e-819d-ec6a7c5dac04"},"vehicle_type_id":"4","last_reported":1731247637,"current_range_meters":18000,"station_id":"ce4bgth2rcd13ifvqch0","pricing_plan_id":"cebpf4jnsgd1na2vs0mg"},{"bike_id":"cf814691-9326-4ee3-84c9-f4d36412522d","system_id":"levelo_inurba_marseille","lat":43.31259,"lon":5.40159,"is_reserved":false,"is_disabled":false,"rental_uris":{"android":"levelo://app?vid=cf814691-9326-4ee3-84c9-f4d36412522d","ios":"levelo://app?vid=cf814691-9326-4ee3-84c9-f4d36412522d"},"vehicle_type_id":"4","last_reported":1731247637,"current_range_meters":30400,"station_id":"ce4bh092rcd13ifvqd30","pricing_plan_id":"cebpf4jnsgd1na2vs0mg"},{"bike_id":"04235e82-fc72-4f7e-b06a-6d4420bfa303","system_id":"levelo_inurba_marseille","lat":43.31707,"lon":5.37766,"is_reserved":false,"is_disabled":false,"rental_uris":{"android":"levelo://app?vid=04235e82-fc72-4f7e-b06a-6d4420bfa303","ios":"levelo://app?vid=04235e82-fc72-4f7e-b06a-6d4420bfa303"},"vehicle_type_id":"4","last_reported":1731247637,"current_range_meters":20800,"station_id":"","pricing_plan_id":"cebpf4jnsgd1na2vs0mg"},{"bike_id":"2f61e963-d604-49d6-9971-ee1cc4932842","system_id":"levelo_inurba_marseille","lat":43.30949,"lon":5.39029,"is_reserved":false,"is_disabled":false,"rental_uris":{"android":"levelo://app?vid=2f61e963-d604-49d6-9971-ee1cc4932842","ios":"levelo://app?vid=2f61e963-d604-49d6-9971-ee1cc4932842"},"vehicle_type_id":"4","last_reported":1731247637,"current_range_meters":31200,"station_id":"ce4bgup2rcd13ifvqco0","pricing_plan_id":"cebpf4jnsgd1na2vs0mg"},{"bike_id":"6a382b3e-46a5-47d8-8f2a-79f38274ae1c","system_id":"levelo_inurba_marseille","lat":43.23966,"lon":5.36635,"is_reserved":false,"is_disabled":false,"rental_uris":{"android":"levelo://app?vid=6a382b3e-46a5-47d8-8f2a-79f38274ae1c","ios":"levelo://app?vid=6a382b3e-46a5-47d8-8f2a-79f38274ae1c"},"vehicle_type_id":"4","last_reported":1731247637,"current_range_meters":32800,"station_id":"ce4bhi12rcd13ifvqfp0","pricing_plan_id":"cebpf4jnsgd1na2vs0mg"},{"bike_id":"ab904570-f9b4-48a9-a551-3152e9b31da8","system_id":"levelo_inurba_marseille","lat":43.27617,"lon":5.36109,"is_reserved":false,"is_disabled":false,"rental_uris":{"android":"levelo://app?vid=ab904570-f9b4-48a9-a551-3152e9b31da8","ios":"levelo://app?vid=ab904570-f9b4-48a9-a551-3152e9b31da8"},"vehicle_type_id":"4","last_reported":1731247637,"current_range_meters":39200,"station_id":"ce4bgj92rcd13ifvqbe0","pricing_plan_id":"cebpf4jnsgd1na2vs0mg"},{"bike_id":"2fd65b1d-d21b-4e4b-94ec-3cba01ab71ab","system_id":"levelo_inurba_marseille","lat":43.24391,"lon":5.3707,"is_reserved":false,"is_disabled":false,"rental_uris":{"android":"levelo://app?vid=2fd65b1d-d21b-4e4b-94ec-3cba01ab71ab","ios":"levelo://app?vid=2fd65b1d-d21b-4e4b-94ec-3cba01ab71ab"},"vehicle_type_id":"4","last_reported":1731247637,"current_range_meters":27600,"station_id":"ce4bhhh2rcd13ifvqfk0","pricing_plan_id":"cebpf4jnsgd1na2vs0mg"},{"bike_id":"82c9d555-ea91-4e68-8f02-a2e16e2a61fd","system_id":"levelo_inurba_marseille","lat":43.28618,"lon":5.35103,"is_reserved":false,"is_disabled":false,"rental_uris":{"android":"levelo://app?vid=82c9d555-ea91-4e68-8f02-a2e16e2a61fd","ios":"levelo://app?vid=82c9d555-ea91-4e68-8f02-a2e16e2a61fd"},"vehicle_type_id":"4","last_reported":1731247637,"current_range_meters":34000,"station_id":"ce4bhch2rcd13ifvqeug","pricing_plan_id":"cebpf4jnsgd1na2vs0mg"},{"bike_id":"d42cf8e3-ecf5-43e6-8833-b42af1c23cf8","system_id":"levelo_inurba_marseille","lat":43.26195,"lon":5.37937,"is_reserved":false,"is_disabled":false,"rental_uris":{"android":"levelo://app?vid=d42cf8e3-ecf5-43e6-8833-b42af1c23cf8","ios":"levelo://app?vid=d42cf8e3-ecf5-43e6-8833-b42af1c23cf8"},"vehicle_type_id":"4","last_reported":1731247637,"current_range_meters":12800,"station_id":"ce4bhjp2rcd13ifvqg90","pricing_plan_id":"cebpf4jnsgd1na2vs0mg"},{"bike_id":"20552d92-55b7-4a3e-ba07-6422a40ed315","system_id":"levelo_inurba_marseille","lat":43.33023,"lon":5.39034,"is_reserved":false,"is_disabled":false,"rental_uris":{"android":"levelo://app?vid=20552d92-55b7-4a3e-ba07-6422a40ed315","ios":"levelo://app?vid=20552d92-55b7-4a3e-ba07-6422a40ed315"},"vehicle_type_id":"4","last_reported":1731247637,"current_range_meters":38800,"station_id":"ce4bhr92rcd13ifvqhrg","pricing_plan_id":"cebpf4jnsgd1na2vs0mg"},{"bike_id":"e6970ce9-b289-47fa-8459-924af2fe66a3","system_id":"levelo_inurba_marseille","lat":43.23149,"lon":5.43713,"is_reserved":false,"is_disabled":false,"rental_uris":{"android":"levelo://app?vid=e6970ce9-b289-47fa-8459-924af2fe66a3","ios":"levelo://app?vid=e6970ce9-b289-47fa-8459-924af2fe66a3"},"vehicle_type_id":"4","last_reported":1731247637,"current_range_meters":40000,"station_id":"ce4bhmp2rcd13ifvqgog","pricing_plan_id":"cebpf4jnsgd1na2vs0mg"},{"bike_id":"b42c0d0c-e899-48c3-bc4e-0ea09d4bc70a","system_id":"levelo_inurba_marseille","lat":43.23186,"lon":5.4,"is_reserved":false,"is_disabled":false,"rental_uris":{"android":"levelo://app?vid=b42c0d0c-e899-48c3-bc4e-0ea09d4bc70a","ios":"levelo://app?vid=b42c0d0c-e899-48c3-bc4e-0ea09d4bc70a"},"vehicle_type_id":"4","last_reported":1731247637,"current_range_meters":18800,"station_id":"ce4bhn12rcd13ifvqgqg","pricing_plan_id":"cebpf4jnsgd1na2vs0mg"},{"bike_id":"6c55c68c-8072-4a7a-8968-0f76e76b364b","system_id":"levelo_inurba_marseille","lat":43.284187,"lon":5.349847,"is_reserved":false,"is_disabled":false,"rental_uris":{"android":"levelo://app?vid=6c55c68c-8072-4a7a-8968-0f76e76b364b","ios":"levelo://app?vid=6c55c68c-8072-4a7a-8968-0f76e76b364b"},"vehicle_type_id":"4","last_reported":1731247637,"current_range_meters":36800,"station_id":"ce4bhbh2rcd13ifvqepg","pricing_plan_id":"cebpf4jnsgd1na2vs0mg"},{"bike_id":"3ec3550b-0b0a-423a-846d-c6e23f763e6c","system_id":"levelo_inurba_marseille","lat":43.23061,"lon":5.35488,"is_reserved":false,"is_disabled":false,"rental_uris":{"android":"levelo://app?vid=3ec3550b-0b0a-423a-846d-c6e23f763e6c","ios":"levelo://app?vid=3ec3550b-0b0a-423a-846d-c6e23f763e6c"},"vehicle_type_id":"4","last_reported":1731247637,"current_range_meters":38800,"station_id":"cpo3342slgdg3j2ifvpg","pricing_plan_id":"cebpf4jnsgd1na2vs0mg"},{"bike_id":"8606dd30-fd6e-4b79-9c73-acace12c2d0d","system_id":"levelo_inurba_marseille","lat":43.30441,"lon":5.36722,"is_reserved":false,"is_disabled":false,"rental_uris":{"android":"levelo://app?vid=8606dd30-fd6e-4b79-9c73-acace12c2d0d","ios":"levelo://app?vid=8606dd30-fd6e-4b79-9c73-acace12c2d0d"},"vehicle_type_id":"4","last_reported":1731247637,"current_range_meters":33600,"station_id":"","pricing_plan_id":"cebpf4jnsgd1na2vs0mg"},{"bike_id":"b0ca4af2-a5d4-4df3-bbff-48880d0c5875","system_id":"levelo_inurba_marseille","lat":43.23062,"lon":5.35499,"is_reserved":false,"is_disabled":false,"rental_uris":{"android":"levelo://app?vid=b0ca4af2-a5d4-4df3-bbff-48880d0c5875","ios":"levelo://app?vid=b0ca4af2-a5d4-4df3-bbff-48880d0c5875"},"vehicle_type_id":"4","last_reported":1731247637,"current_range_meters":33600,"station_id":"cpo3342slgdg3j2ifvpg","pricing_plan_id":"cebpf4jnsgd1na2vs0mg"},{"bike_id":"c1c31a33-e063-48c2-b1f3-8c6f42d9e267","system_id":"levelo_inurba_marseille","lat":43.292537,"lon":5.409157,"is_reserved":false,"is_disabled":false,"rental_uris":{"android":"levelo://app?vid=c1c31a33-e063-48c2-b1f3-8c6f42d9e267","ios":"levelo://app?vid=c1c31a33-e063-48c2-b1f3-8c6f42d9e267"},"vehicle_type_id":"4","last_reported":1731247637,"current_range_meters":27600,"station_id":"ce4bh192rcd13ifvqdc0","pricing_plan_id":"cebpf4jnsgd1na2vs0mg"},{"bike_id":"3b7d2c34-ff0f-4bf4-bd93-77a227e013b9","system_id":"levelo_inurba_marseille","lat":43.25488,"lon":5.37649,"is_reserved":false,"is_disabled":false,"rental_uris":{"android":"levelo://app?vid=3b7d2c34-ff0f-4bf4-bd93-77a227e013b9","ios":"levelo://app?vid=3b7d2c34-ff0f-4bf4-bd93-77a227e013b9"},"vehicle_type_id":"4","last_reported":1731247637,"current_range_meters":20000,"station_id":"ce4bhh12rcd13ifvqff0","pricing_plan_id":"cebpf4jnsgd1na2vs0mg"},{"bike_id":"8c69f012-300b-4821-a16c-983df7d1abef","system_id":"levelo_inurba_marseille","lat":43.23962,"lon":5.36629,"is_reserved":false,"is_disabled":false,"rental_uris":{"android":"levelo://app?vid=8c69f012-300b-4821-a16c-983df7d1abef","ios":"levelo://app?vid=8c69f012-300b-4821-a16c-983df7d1abef"},"vehicle_type_id":"4","last_reported":1731247637,"current_range_meters":8800,"station_id":"ce4bhi12rcd13ifvqfp0","pricing_plan_id":"cebpf4jnsgd1na2vs0mg"},{"bike_id":"02bcfd7c-6a8e-42d7-be69-fea230859e5c","system_id":"levelo_inurba_marseille","lat":43.23148,"lon":5.43709,"is_reserved":false,"is_disabled":false,"rental_uris":{"android":"levelo://app?vid=02bcfd7c-6a8e-42d7-be69-fea230859e5c","ios":"levelo://app?vid=02bcfd7c-6a8e-42d7-be69-fea230859e5c"},"vehicle_type_id":"4","last_reported":1731247637,"current_range_meters":10000,"station_id":"ce4bhmp2rcd13ifvqgog","pricing_plan_id":"cebpf4jnsgd1na2vs0mg"},{"bike_id":"26563081-f5dd-4613-b100-48c7e8867ffd","system_id":"levelo_inurba_marseille","lat":43.24391,"lon":5.37052,"is_reserved":false,"is_disabled":false,"rental_uris":{"android":"levelo://app?vid=26563081-f5dd-4613-b100-48c7e8867ffd","ios":"levelo://app?vid=26563081-f5dd-4613-b100-48c7e8867ffd"},"vehicle_type_id":"4","last_reported":1731247637,"current_range_meters":38800,"station_id":"ce4bhhh2rcd13ifvqfk0","pricing_plan_id":"cebpf4jnsgd1na2vs0mg"},{"bike_id":"16edd5e5-0497-4831-bb6b-d18eb7e92293","system_id":"levelo_inurba_marseille","lat":43.24812,"lon":5.37457,"is_reserved":false,"is_disabled":false,"rental_uris":{"android":"levelo://app?vid=16edd5e5-0497-4831-bb6b-d18eb7e92293","ios":"levelo://app?vid=16edd5e5-0497-4831-bb6b-d18eb7e92293"},"vehicle_type_id":"4","last_reported":1731247637,"current_range_meters":29600,"station_id":"ce4bhgh2rcd13ifvqfb0","pricing_plan_id":"cebpf4jnsgd1na2vs0mg"},{"bike_id":"a05e16ff-fdba-40b4-933f-1b14dc881438","system_id":"levelo_inurba_marseille","lat":43.28418,"lon":5.34993,"is_reserved":false,"is_disabled":false,"rental_uris":{"android":"levelo://app?vid=a05e16ff-fdba-40b4-933f-1b14dc881438","ios":"levelo://app?vid=a05e16ff-fdba-40b4-933f-1b14dc881438"},"vehicle_type_id":"4","last_reported":1731247637,"current_range_meters":38000,"station_id":"ce4bhbh2rcd13ifvqepg","pricing_plan_id":"cebpf4jnsgd1na2vs0mg"},{"bike_id":"bac0b0ad-29d9-4a59-9392-4241429aca00","system_id":"levelo_inurba_marseille","lat":43.23137,"lon":5.43702,"is_reserved":false,"is_disabled":false,"rental_uris":{"android":"levelo://app?vid=bac0b0ad-29d9-4a59-9392-4241429aca00","ios":"levelo://app?vid=bac0b0ad-29d9-4a59-9392-4241429aca00"},"vehicle_type_id":"4","last_reported":1731247637,"current_range_meters":14000,"station_id":"ce4bhmp2rcd13ifvqgog","pricing_plan_id":"cebpf4jnsgd1na2vs0mg"},{"bike_id":"976c8f31-7379-4c68-a1b9-b3e57497554b","system_id":"levelo_inurba_marseille","lat":43.29063,"lon":5.37165,"is_reserved":false,"is_disabled":false,"rental_uris":{"android":"levelo://app?vid=976c8f31-7379-4c68-a1b9-b3e57497554b","ios":"levelo://app?vid=976c8f31-7379-4c68-a1b9-b3e57497554b"},"vehicle_type_id":"4","last_reported":1731247637,"current_range_meters":6800,"station_id":"ce4bh5p2rcd13ifvqe4g","pricing_plan_id":"cebpf4jnsgd1na2vs0mg"},{"bike_id":"3137f504-c340-4026-9855-d8abfc716841","system_id":"levelo_inurba_marseille","lat":43.23056,"lon":5.35502,"is_reserved":false,"is_disabled":false,"rental_uris":{"android":"levelo://app?vid=3137f504-c340-4026-9855-d8abfc716841","ios":"levelo://app?vid=3137f504-c340-4026-9855-d8abfc716841"},"vehicle_type_id":"4","last_reported":1731247637,"current_range_meters":38800,"station_id":"cpo3342slgdg3j2ifvpg","pricing_plan_id":"cebpf4jnsgd1na2vs0mg"},{"bike_id":"7b41cb72-e5a7-4522-afc0-478f7da18d1a","system_id":"levelo_inurba_marseille","lat":43.23965,"lon":5.36631,"is_reserved":false,"is_disabled":false,"rental_uris":{"android":"levelo://app?vid=7b41cb72-e5a7-4522-afc0-478f7da18d1a","ios":"levelo://app?vid=7b41cb72-e5a7-4522-afc0-478f7da18d1a"},"vehicle_type_id":"4","last_reported":1731247637,"current_range_meters":33200,"station_id":"ce4bhi12rcd13ifvqfp0","pricing_plan_id":"cebpf4jnsgd1na2vs0mg"},{"bike_id":"07601670-eb7f-4f0e-b9f6-627fce47aada","system_id":"levelo_inurba_marseille","lat":43.23187,"lon":5.39995,"is_reserved":false,"is_disabled":false,"rental_uris":{"android":"levelo://app?vid=07601670-eb7f-4f0e-b9f6-627fce47aada","ios":"levelo://app?vid=07601670-eb7f-4f0e-b9f6-627fce47aada"},"vehicle_type_id":"4","last_reported":1731247637,"current_range_meters":36400,"station_id":"ce4bhn12rcd13ifvqgqg","pricing_plan_id":"cebpf4jnsgd1na2vs0mg"},{"bike_id":"e9802a84-405e-4ad3-8d22-dbd83363f66a","system_id":"levelo_inurba_marseille","lat":43.2306,"lon":5.35496,"is_reserved":false,"is_disabled":false,"rental_uris":{"android":"levelo://app?vid=e9802a84-405e-4ad3-8d22-dbd83363f66a","ios":"levelo://app?vid=e9802a84-405e-4ad3-8d22-dbd83363f66a"},"vehicle_type_id":"4","last_reported":1731247637,"current_range_meters":14400,"station_id":"cpo3342slgdg3j2ifvpg","pricing_plan_id":"cebpf4jnsgd1na2vs0mg"},{"bike_id":"3afe71be-4f71-4789-be9e-12150afa4010","system_id":"levelo_inurba_marseille","lat":43.2293,"lon":5.35381,"is_reserved":false,"is_disabled":false,"rental_uris":{"android":"levelo://app?vid=3afe71be-4f71-4789-be9e-12150afa4010","ios":"levelo://app?vid=3afe71be-4f71-4789-be9e-12150afa4010"},"vehicle_type_id":"4","last_reported":1731247637,"current_range_meters":40000,"station_id":"cpo3532slgdg3j2ikp40","pricing_plan_id":"cebpf4jnsgd1na2vs0mg"},{"bike_id":"a672c2ef-c813-4e06-b21a-38d83e20314d","system_id":"levelo_inurba_marseille","lat":43.28415,"lon":5.34992,"is_reserved":false,"is_disabled":false,"rental_uris":{"android":"levelo://app?vid=a672c2ef-c813-4e06-b21a-38d83e20314d","ios":"levelo://app?vid=a672c2ef-c813-4e06-b21a-38d83e20314d"},"vehicle_type_id":"4","last_reported":1731247637,"current_range_meters":20800,"station_id":"ce4bhbh2rcd13ifvqepg","pricing_plan_id":"cebpf4jnsgd1na2vs0mg"},{"bike_id":"78188c58-680a-4bb4-917a-afe39a18c51f","system_id":"levelo_inurba_marseille","lat":43.22928,"lon":5.35374,"is_reserved":false,"is_disabled":false,"rental_uris":{"android":"levelo://app?vid=78188c58-680a-4bb4-917a-afe39a18c51f","ios":"levelo://app?vid=78188c58-680a-4bb4-917a-afe39a18c51f"},"vehicle_type_id":"4","last_reported":1731247637,"current_range_meters":11600,"station_id":"cpo3532slgdg3j2ikp40","pricing_plan_id":"cebpf4jnsgd1na2vs0mg"},{"bike_id":"d3346d1c-59f8-421c-bb35-dbbbafbb0030","system_id":"levelo_inurba_marseille","lat":43.319589,"lon":5.392068,"is_reserved":false,"is_disabled":false,"rental_uris":{"android":"levelo://app?vid=d3346d1c-59f8-421c-bb35-dbbbafbb0030","ios":"levelo://app?vid=d3346d1c-59f8-421c-bb35-dbbbafbb0030"},"vehicle_type_id":"4","last_reported":1731247637,"current_range_meters":15200,"station_id":"ce4bhqh2rcd13ifvqhlg","pricing_plan_id":"cebpf4jnsgd1na2vs0mg"},{"bike_id":"0f034e7e-0ef1-4a96-a627-9da43bb57f60","system_id":"levelo_inurba_marseille","lat":43.2439,"lon":5.37061,"is_reserved":false,"is_disabled":false,"rental_uris":{"android":"levelo://app?vid=0f034e7e-0ef1-4a96-a627-9da43bb57f60","ios":"levelo://app?vid=0f034e7e-0ef1-4a96-a627-9da43bb57f60"},"vehicle_type_id":"4","last_reported":1731247637,"current_range_meters":6400,"station_id":"ce4bhhh2rcd13ifvqfk0","pricing_plan_id":"cebpf4jnsgd1na2vs0mg"},{"bike_id":"1e50ad3c-09f0-4223-820f-4006deef49a3","system_id":"levelo_inurba_marseille","lat":43.25494,"lon":5.37654,"is_reserved":false,"is_disabled":false,"rental_uris":{"android":"levelo://app?vid=1e50ad3c-09f0-4223-820f-4006deef49a3","ios":"levelo://app?vid=1e50ad3c-09f0-4223-820f-4006deef49a3"},"vehicle_type_id":"4","last_reported":1731247637,"current_range_meters":22400,"station_id":"ce4bhh12rcd13ifvqff0","pricing_plan_id":"cebpf4jnsgd1na2vs0mg"},{"bike_id":"92d10030-6bbf-4b13-8747-6eaf1d5803ed","system_id":"levelo_inurba_marseille","lat":43.24083,"lon":5.37741,"is_reserved":false,"is_disabled":false,"rental_uris":{"android":"levelo://app?vid=92d10030-6bbf-4b13-8747-6eaf1d5803ed","ios":"levelo://app?vid=92d10030-6bbf-4b13-8747-6eaf1d5803ed"},"vehicle_type_id":"4","last_reported":1731247637,"current_range_meters":20000,"station_id":"ce4bhnp2rcd13ifvqgvg","pricing_plan_id":"cebpf4jnsgd1na2vs0mg"},{"bike_id":"7bd6649a-7cc7-4156-a2d2-a537934e1c08","system_id":"levelo_inurba_marseille","lat":43.28423,"lon":5.34988,"is_reserved":false,"is_disabled":false,"rental_uris":{"android":"levelo://app?vid=7bd6649a-7cc7-4156-a2d2-a537934e1c08","ios":"levelo://app?vid=7bd6649a-7cc7-4156-a2d2-a537934e1c08"},"vehicle_type_id":"4","last_reported":1731247637,"current_range_meters":23200,"station_id":"ce4bhbh2rcd13ifvqepg","pricing_plan_id":"cebpf4jnsgd1na2vs0mg"},{"bike_id":"884af005-1c9c-438b-b950-9e7eb819ba2a","system_id":"levelo_inurba_marseille","lat":43.24177,"lon":5.36406,"is_reserved":false,"is_disabled":false,"rental_uris":{"android":"levelo://app?vid=884af005-1c9c-438b-b950-9e7eb819ba2a","ios":"levelo://app?vid=884af005-1c9c-438b-b950-9e7eb819ba2a"},"vehicle_type_id":"4","last_reported":1731247637,"current_range_meters":17200,"station_id":"cpo36qri1sfpv3e86is0","pricing_plan_id":"cebpf4jnsgd1na2vs0mg"},{"bike_id":"40bbd6cf-6cee-4ee3-a676-06496ea11c61","system_id":"levelo_inurba_marseille","lat":43.23056,"lon":5.35492,"is_reserved":false,"is_disabled":false,"rental_uris":{"android":"levelo://app?vid=40bbd6cf-6cee-4ee3-a676-06496ea11c61","ios":"levelo://app?vid=40bbd6cf-6cee-4ee3-a676-06496ea11c61"},"vehicle_type_id":"4","last_reported":1731247637,"current_range_meters":14800,"station_id":"cpo3342slgdg3j2ifvpg","pricing_plan_id":"cebpf4jnsgd1na2vs0mg"},{"bike_id":"1dde6a50-7d5e-48a3-b151-347a437be479","system_id":"levelo_inurba_marseille","lat":43.28617,"lon":5.35106,"is_reserved":false,"is_disabled":false,"rental_uris":{"android":"levelo://app?vid=1dde6a50-7d5e-48a3-b151-347a437be479","ios":"levelo://app?vid=1dde6a50-7d5e-48a3-b151-347a437be479"},"vehicle_type_id":"4","last_reported":1731247637,"current_range_meters":38800,"station_id":"ce4bhch2rcd13ifvqeug","pricing_plan_id":"cebpf4jnsgd1na2vs0mg"},{"bike_id":"b066a3ba-8b24-40cf-b799-ebebf0c629b0","system_id":"levelo_inurba_marseille","lat":43.32338,"lon":5.40624,"is_reserved":false,"is_disabled":false,"rental_uris":{"android":"levelo://app?vid=b066a3ba-8b24-40cf-b799-ebebf0c629b0","ios":"levelo://app?vid=b066a3ba-8b24-40cf-b799-ebebf0c629b0"},"vehicle_type_id":"4","last_reported":1731247637,"current_range_meters":38800,"station_id":"ce4bhq92rcd13ifvqhjg","pricing_plan_id":"cebpf4jnsgd1na2vs0mg"},{"bike_id":"8a8655c3-0446-49f4-b251-2961912bcbfb","system_id":"levelo_inurba_marseille","lat":43.22935,"lon":5.35379,"is_reserved":false,"is_disabled":false,"rental_uris":{"android":"levelo://app?vid=8a8655c3-0446-49f4-b251-2961912bcbfb","ios":"levelo://app?vid=8a8655c3-0446-49f4-b251-2961912bcbfb"},"vehicle_type_id":"4","last_reported":1731247637,"current_range_meters":39200,"station_id":"cpo3532slgdg3j2ikp40","pricing_plan_id":"cebpf4jnsgd1na2vs0mg"},{"bike_id":"9eef85da-07fa-4b97-823a-a71425c3f9f0","system_id":"levelo_inurba_marseille","lat":43.27951,"lon":5.41041,"is_reserved":false,"is_disabled":false,"rental_uris":{"android":"levelo://app?vid=9eef85da-07fa-4b97-823a-a71425c3f9f0","ios":"levelo://app?vid=9eef85da-07fa-4b97-823a-a71425c3f9f0"},"vehicle_type_id":"4","last_reported":1731247637,"current_range_meters":12800,"station_id":"ce4bhnp2rcd13ifvqh0g","pricing_plan_id":"cebpf4jnsgd1na2vs0mg"},{"bike_id":"1ea8dd9a-808b-457b-bcd2-f5faf2bbae88","system_id":"levelo_inurba_marseille","lat":43.27208,"lon":5.39185,"is_reserved":false,"is_disabled":false,"rental_uris":{"android":"levelo://app?vid=1ea8dd9a-808b-457b-bcd2-f5faf2bbae88","ios":"levelo://app?vid=1ea8dd9a-808b-457b-bcd2-f5faf2bbae88"},"vehicle_type_id":"4","last_reported":1731247637,"current_range_meters":12000,"station_id":"ce4bhhp2rcd13ifvqfm0","pricing_plan_id":"cebpf4jnsgd1na2vs0mg"},{"bike_id":"8a8210ae-bae4-430d-84a0-17f30fc9692b","system_id":"levelo_inurba_marseille","lat":43.27067,"lon":5.42283,"is_reserved":false,"is_disabled":false,"rental_uris":{"android":"levelo://app?vid=8a8210ae-bae4-430d-84a0-17f30fc9692b","ios":"levelo://app?vid=8a8210ae-bae4-430d-84a0-17f30fc9692b"},"vehicle_type_id":"4","last_reported":1731247637,"current_range_meters":11600,"station_id":"ce4bhk92rcd13ifvqgb0","pricing_plan_id":"cebpf4jnsgd1na2vs0mg"},{"bike_id":"1b07045b-6491-4401-8fa3-b476803fba64","system_id":"levelo_inurba_marseille","lat":43.27949,"lon":5.41044,"is_reserved":false,"is_disabled":false,"rental_uris":{"android":"levelo://app?vid=1b07045b-6491-4401-8fa3-b476803fba64","ios":"levelo://app?vid=1b07045b-6491-4401-8fa3-b476803fba64"},"vehicle_type_id":"4","last_reported":1731247637,"current_range_meters":35600,"station_id":"ce4bhnp2rcd13ifvqh0g","pricing_plan_id":"cebpf4jnsgd1na2vs0mg"},{"bike_id":"739f406a-1133-4ca4-9a25-e084554f4c8d","system_id":"levelo_inurba_marseille","lat":43.27999,"lon":5.4167,"is_reserved":false,"is_disabled":false,"rental_uris":{"android":"levelo://app?vid=739f406a-1133-4ca4-9a25-e084554f4c8d","ios":"levelo://app?vid=739f406a-1133-4ca4-9a25-e084554f4c8d"},"vehicle_type_id":"4","last_reported":1731247637,"current_range_meters":18000,"station_id":"ce4bho12rcd13ifvqh1g","pricing_plan_id":"cebpf4jnsgd1na2vs0mg"},{"bike_id":"6087fa32-d329-4442-bb50-af0b5062e027","system_id":"levelo_inurba_marseille","lat":43.27495,"lon":5.42454,"is_reserved":false,"is_disabled":false,"rental_uris":{"android":"levelo://app?vid=6087fa32-d329-4442-bb50-af0b5062e027","ios":"levelo://app?vid=6087fa32-d329-4442-bb50-af0b5062e027"},"vehicle_type_id":"4","last_reported":1731247637,"current_range_meters":33600,"station_id":"ce4bhn92rcd13ifvqgrg","pricing_plan_id":"cebpf4jnsgd1na2vs0mg"},{"bike_id":"a347c9be-d588-4eb0-b9e9-73e02db827dd","system_id":"levelo_inurba_marseille","lat":43.28967,"lon":5.36464,"is_reserved":false,"is_disabled":false,"rental_uris":{"android":"levelo://app?vid=a347c9be-d588-4eb0-b9e9-73e02db827dd","ios":"levelo://app?vid=a347c9be-d588-4eb0-b9e9-73e02db827dd"},"vehicle_type_id":"4","last_reported":1731247637,"current_range_meters":33600,"station_id":"","pricing_plan_id":"cebpf4jnsgd1na2vs0mg"},{"bike_id":"058f66a5-3703-43a6-9f57-4dabe8be7a4e","system_id":"levelo_inurba_marseille","lat":43.31467,"lon":5.37337,"is_reserved":false,"is_disabled":false,"rental_uris":{"android":"levelo://app?vid=058f66a5-3703-43a6-9f57-4dabe8be7a4e","ios":"levelo://app?vid=058f66a5-3703-43a6-9f57-4dabe8be7a4e"},"vehicle_type_id":"4","last_reported":1731247637,"current_range_meters":8000,"station_id":"ce4bgt12rcd13ifvqcd0","pricing_plan_id":"cebpf4jnsgd1na2vs0mg"},{"bike_id":"08f940cf-08bb-449f-a9bd-76b1b7274e91","system_id":"levelo_inurba_marseille","lat":43.33018,"lon":5.39045,"is_reserved":false,"is_disabled":false,"rental_uris":{"android":"levelo://app?vid=08f940cf-08bb-449f-a9bd-76b1b7274e91","ios":"levelo://app?vid=08f940cf-08bb-449f-a9bd-76b1b7274e91"},"vehicle_type_id":"4","last_reported":1731247637,"current_range_meters":24000,"station_id":"ce4bhr92rcd13ifvqhrg","pricing_plan_id":"cebpf4jnsgd1na2vs0mg"},{"bike_id":"7e514a83-c0dd-47db-9deb-0c35bed0ce43","system_id":"levelo_inurba_marseille","lat":43.246395,"lon":5.388827,"is_reserved":false,"is_disabled":false,"rental_uris":{"android":"levelo://app?vid=7e514a83-c0dd-47db-9deb-0c35bed0ce43","ios":"levelo://app?vid=7e514a83-c0dd-47db-9deb-0c35bed0ce43"},"vehicle_type_id":"4","last_reported":1731247637,"current_range_meters":11600,"station_id":"","pricing_plan_id":"cebpf4jnsgd1na2vs0mg"},{"bike_id":"e9e6e798-736c-4b7c-8847-ded83c020fc8","system_id":"levelo_inurba_marseille","lat":43.22927,"lon":5.35376,"is_reserved":false,"is_disabled":false,"rental_uris":{"android":"levelo://app?vid=e9e6e798-736c-4b7c-8847-ded83c020fc8","ios":"levelo://app?vid=e9e6e798-736c-4b7c-8847-ded83c020fc8"},"vehicle_type_id":"4","last_reported":1731247637,"current_range_meters":24000,"station_id":"cpo3532slgdg3j2ikp40","pricing_plan_id":"cebpf4jnsgd1na2vs0mg"},{"bike_id":"bd8c90e1-842d-4b29-aa20-5d027002179b","system_id":"levelo_inurba_marseille","lat":43.25503,"lon":5.37648,"is_reserved":false,"is_disabled":false,"rental_uris":{"android":"levelo://app?vid=bd8c90e1-842d-4b29-aa20-5d027002179b","ios":"levelo://app?vid=bd8c90e1-842d-4b29-aa20-5d027002179b"},"vehicle_type_id":"4","last_reported":1731247637,"current_range_meters":38800,"station_id":"ce4bhh12rcd13ifvqff0","pricing_plan_id":"cebpf4jnsgd1na2vs0mg"},{"bike_id":"2a29933e-336f-4877-a982-8bf052b80f4c","system_id":"levelo_inurba_marseille","lat":43.284142,"lon":5.374974,"is_reserved":false,"is_disabled":false,"rental_uris":{"android":"levelo://app?vid=2a29933e-336f-4877-a982-8bf052b80f4c","ios":"levelo://app?vid=2a29933e-336f-4877-a982-8bf052b80f4c"},"vehicle_type_id":"4","last_reported":1731247637,"current_range_meters":30800,"station_id":"ce4bh412rcd13ifvqds0","pricing_plan_id":"cebpf4jnsgd1na2vs0mg"},{"bike_id":"ae064493-3417-48da-a1c4-aa286db73079","system_id":"levelo_inurba_marseille","lat":43.23194,"lon":5.35555,"is_reserved":false,"is_disabled":false,"rental_uris":{"android":"levelo://app?vid=ae064493-3417-48da-a1c4-aa286db73079","ios":"levelo://app?vid=ae064493-3417-48da-a1c4-aa286db73079"},"vehicle_type_id":"4","last_reported":1731247637,"current_range_meters":38800,"station_id":"ce4bhu92rcd13ifvqi70","pricing_plan_id":"cebpf4jnsgd1na2vs0mg"},{"bike_id":"ee2aa6b2-db2f-411b-8fb1-f06bd0aa2411","system_id":"levelo_inurba_marseille","lat":43.323337,"lon":5.406154,"is_reserved":false,"is_disabled":false,"rental_uris":{"android":"levelo://app?vid=ee2aa6b2-db2f-411b-8fb1-f06bd0aa2411","ios":"levelo://app?vid=ee2aa6b2-db2f-411b-8fb1-f06bd0aa2411"},"vehicle_type_id":"4","last_reported":1731247637,"current_range_meters":38800,"station_id":"ce4bhq92rcd13ifvqhjg","pricing_plan_id":"cebpf4jnsgd1na2vs0mg"},{"bike_id":"0407cb2d-14ca-4d18-ab0e-6f0e1d153c00","system_id":"levelo_inurba_marseille","lat":43.28267,"lon":5.35058,"is_reserved":false,"is_disabled":false,"rental_uris":{"android":"levelo://app?vid=0407cb2d-14ca-4d18-ab0e-6f0e1d153c00","ios":"levelo://app?vid=0407cb2d-14ca-4d18-ab0e-6f0e1d153c00"},"vehicle_type_id":"4","last_reported":1731247637,"current_range_meters":21600,"station_id":"ce4bhbp2rcd13ifvqerg","pricing_plan_id":"cebpf4jnsgd1na2vs0mg"},{"bike_id":"0d7ee971-d381-45a2-84a0-46b2de2c1a80","system_id":"levelo_inurba_marseille","lat":43.29992,"lon":5.37184,"is_reserved":false,"is_disabled":false,"rental_uris":{"android":"levelo://app?vid=0d7ee971-d381-45a2-84a0-46b2de2c1a80","ios":"levelo://app?vid=0d7ee971-d381-45a2-84a0-46b2de2c1a80"},"vehicle_type_id":"4","last_reported":1731247637,"current_range_meters":9200,"station_id":"ce4bgr92rcd13ifvqc7g","pricing_plan_id":"cebpf4jnsgd1na2vs0mg"},{"bike_id":"bdb9346d-5be9-4471-8d2a-32cdf1a4ac1d","system_id":"levelo_inurba_marseille","lat":43.23193,"lon":5.35556,"is_reserved":false,"is_disabled":false,"rental_uris":{"android":"levelo://app?vid=bdb9346d-5be9-4471-8d2a-32cdf1a4ac1d","ios":"levelo://app?vid=bdb9346d-5be9-4471-8d2a-32cdf1a4ac1d"},"vehicle_type_id":"4","last_reported":1731247637,"current_range_meters":24800,"station_id":"ce4bhu92rcd13ifvqi70","pricing_plan_id":"cebpf4jnsgd1na2vs0mg"},{"bike_id":"1258f062-8235-43e8-b889-c0731c1710dc","system_id":"levelo_inurba_marseille","lat":43.29073,"lon":5.37172,"is_reserved":false,"is_disabled":false,"rental_uris":{"android":"levelo://app?vid=1258f062-8235-43e8-b889-c0731c1710dc","ios":"levelo://app?vid=1258f062-8235-43e8-b889-c0731c1710dc"},"vehicle_type_id":"4","last_reported":1731247637,"current_range_meters":5600,"station_id":"ce4bh5p2rcd13ifvqe4g","pricing_plan_id":"cebpf4jnsgd1na2vs0mg"},{"bike_id":"39cc6fbb-8f78-480a-9c17-e583b9588aa5","system_id":"levelo_inurba_marseille","lat":43.27951,"lon":5.41042,"is_reserved":false,"is_disabled":false,"rental_uris":{"android":"levelo://app?vid=39cc6fbb-8f78-480a-9c17-e583b9588aa5","ios":"levelo://app?vid=39cc6fbb-8f78-480a-9c17-e583b9588aa5"},"vehicle_type_id":"4","last_reported":1731247637,"current_range_meters":34800,"station_id":"ce4bhnp2rcd13ifvqh0g","pricing_plan_id":"cebpf4jnsgd1na2vs0mg"},{"bike_id":"f62c9599-8f94-4b77-a76c-d41630489314","system_id":"levelo_inurba_marseille","lat":43.31396,"lon":5.43215,"is_reserved":false,"is_disabled":false,"rental_uris":{"android":"levelo://app?vid=f62c9599-8f94-4b77-a76c-d41630489314","ios":"levelo://app?vid=f62c9599-8f94-4b77-a76c-d41630489314"},"vehicle_type_id":"4","last_reported":1731247637,"current_range_meters":14800,"station_id":"ce4bhp92rcd13ifvqhcg","pricing_plan_id":"cebpf4jnsgd1na2vs0mg"},{"bike_id":"bb44ed2a-abc6-4144-ac28-733cc22b0f8a","system_id":"levelo_inurba_marseille","lat":43.24393,"lon":5.37058,"is_reserved":false,"is_disabled":false,"rental_uris":{"android":"levelo://app?vid=bb44ed2a-abc6-4144-ac28-733cc22b0f8a","ios":"levelo://app?vid=bb44ed2a-abc6-4144-ac28-733cc22b0f8a"},"vehicle_type_id":"4","last_reported":1731247637,"current_range_meters":38800,"station_id":"ce4bhhh2rcd13ifvqfk0","pricing_plan_id":"cebpf4jnsgd1na2vs0mg"},{"bike_id":"1f512544-29a3-4a0c-be20-464a0d926011","system_id":"levelo_inurba_marseille","lat":43.28415,"lon":5.34976,"is_reserved":false,"is_disabled":false,"rental_uris":{"android":"levelo://app?vid=1f512544-29a3-4a0c-be20-464a0d926011","ios":"levelo://app?vid=1f512544-29a3-4a0c-be20-464a0d926011"},"vehicle_type_id":"4","last_reported":1731247637,"current_range_meters":23200,"station_id":"ce4bhbh2rcd13ifvqepg","pricing_plan_id":"cebpf4jnsgd1na2vs0mg"},{"bike_id":"987273d8-6501-4d39-baba-662720d3e504","system_id":"levelo_inurba_marseille","lat":43.2648,"lon":5.39552,"is_reserved":false,"is_disabled":false,"rental_uris":{"android":"levelo://app?vid=987273d8-6501-4d39-baba-662720d3e504","ios":"levelo://app?vid=987273d8-6501-4d39-baba-662720d3e504"},"vehicle_type_id":"4","last_reported":1731247637,"current_range_meters":9600,"station_id":"ce4bhi12rcd13ifvqfq0","pricing_plan_id":"cebpf4jnsgd1na2vs0mg"},{"bike_id":"84b718a1-dd33-4e58-b63e-1e90d883524a","system_id":"levelo_inurba_marseille","lat":43.23151,"lon":5.43714,"is_reserved":false,"is_disabled":false,"rental_uris":{"android":"levelo://app?vid=84b718a1-dd33-4e58-b63e-1e90d883524a","ios":"levelo://app?vid=84b718a1-dd33-4e58-b63e-1e90d883524a"},"vehicle_type_id":"4","last_reported":1731247637,"current_range_meters":26800,"station_id":"ce4bhmp2rcd13ifvqgog","pricing_plan_id":"cebpf4jnsgd1na2vs0mg"},{"bike_id":"fe6cd887-d4f8-423a-b1b7-d9556f6d12d6","system_id":"levelo_inurba_marseille","lat":43.28416,"lon":5.35003,"is_reserved":false,"is_disabled":false,"rental_uris":{"android":"levelo://app?vid=fe6cd887-d4f8-423a-b1b7-d9556f6d12d6","ios":"levelo://app?vid=fe6cd887-d4f8-423a-b1b7-d9556f6d12d6"},"vehicle_type_id":"4","last_reported":1731247637,"current_range_meters":40000,"station_id":"ce4bhbh2rcd13ifvqepg","pricing_plan_id":"cebpf4jnsgd1na2vs0mg"},