{"last_updated":1740582645,"ttl":60,"version":"2.2","data":{"bikes":[{"bike_id":"1fcc4a40-af57-4a8a-9482-b38631354d7f","system_id":"levelo_inurba_marseille","lat":43.30101,"lon":5.39072,"is_reserved":false,"is_disabled":false,"rental_uris":{"android":"levelo://app?vid=1fcc4a40-af57-4a8a-9482-b38631354d7f","ios":"levelo://app?vid=1fcc4a40-af57-4a8a-9482-b38631354d7f"},"vehicle_type_id":"4","last_reported":1740582646,"current_range_meters":2800,"station_id":"ce4bh192rcd13ifvqdb0","pricing_plan_id":"cebpf4jnsgd1na2vs0mg"},{"bike_id":"ad9d61e8-06bb-48dd-b9f0-06a26ef9a32d","system_id":"levelo_inurba_marseille","lat":43.297821,"lon":5.370907,"is_reserved":false,"is_disabled":false,"rental_uris":{"android":"levelo://app?vid=ad9d61e8-06bb-48dd-b9f0-06a26ef9a32d","ios":"levelo://app?vid=ad9d61e8-06bb-48dd-b9f0-06a26ef9a32d"},"vehicle_type_id":"4","last_reported":1740582646,"current_range_meters":3200,"station_id":"ce4bh292rcd13ifvqdf0","pricing_plan_id":"cebpf4jnsgd1na2vs0mg"},{"bike_id":"b1390c52-917d-4eb2-9a5a-de5ed9ba5ddc","system_id":"levelo_inurba_marseille","lat":43.29904,"lon":5.43642,"is_reserved":false,"is_disabled":false,"rental_uris":{"android":"levelo://app?vid=b1390c52-917d-4eb2-9a5a-de5ed9ba5ddc","ios":"levelo://app?vid=b1390c52-917d-4eb2-9a5a-de5ed9ba5ddc"},"vehicle_type_id":"4","last_reported":1740582646,"current_range_meters":3600,"station_id":"ce4bhpp2rcd13ifvqhfg","pricing_plan_id":"cebpf4jnsgd1na2vs0mg"},{"bike_id":"1690cf1f-489e-42fe-b2b4-7448c418d56d","system_id":"levelo_inurba_marseille","lat":43.31989,"lon":5.38168,"is_reserved":false,"is_disabled":false,"rental_uris":{"android":"levelo://app?vid=1690cf1f-489e-42fe-b2b4-7448c418d56d","ios":"levelo://app?vid=1690cf1f-489e-42fe-b2b4-7448c418d56d"},"vehicle_type_id":"4","last_reported":1740582646,"current_range_meters":3200,"station_id":"ce4bhr12rcd13ifvqhpg","pricing_plan_id":"cebpf4jnsgd1na2vs0mg"},{"bike_id":"2cef6272-298d-47b1-88c0-81bf101f0ece","system_id":"levelo_inurba_marseille","lat":43.29785,"lon":5.39349,"is_reserved":false,"is_disabled":false,"rental_uris":{"android":"levelo://app?vid=2cef6272-298d-47b1-88c0-81bf101f0ece","ios":"levelo://app?vid=2cef6272-298d-47b1-88c0-81bf101f0ece"},"vehicle_type_id":"4","last_reported":1740582646,"current_range_meters":2800,"station_id":"chh1huq6cuj3fo74tm60","pricing_plan_id":"cebpf4jnsgd1na2vs0mg"},{"bike_id":"901e21cf-d8ae-47f3-bbe6-116e9f3a210b","system_id":"levelo_inurba_marseille","lat":43.26939,"lon":5.40258,"is_reserved":false,"is_disabled":false,"rental_uris":{"android":"levelo://app?vid=901e21cf-d8ae-47f3-bbe6-116e9f3a210b","ios":"levelo://app?vid=901e21cf-d8ae-47f3-bbe6-116e9f3a210b"},"vehicle_type_id":"4","last_reported":1740582646,"current_range_meters":4000,"station_id":"cjm6bp8fraef2m0cb0m0","pricing_plan_id":"cebpf4jnsgd1na2vs0mg"},{"bike_id":"ff95f9fc-1ebe-47df-981d-97d4a88d48e1","system_id":"levelo_inurba_marseille","lat":43.29909,"lon":5.38152,"is_reserved":false,"is_disabled":false,"rental_uris":{"android":"levelo://app?vid=ff95f9fc-1ebe-47df-981d-97d4a88d48e1","ios":"levelo://app?vid=ff95f9fc-1ebe-47df-981d-97d4a88d48e1"},"vehicle_type_id":"4","last_reported":1740582646,"current_range_meters":4000,"station_id":"ce4bgj12rcd13ifvqbc0","pricing_plan_id":"cebpf4jnsgd1na2vs0mg"},{"bike_id":"195417da-c57f-4f53-b489-8884d82c25e2","system_id":"levelo_inurba_marseille","lat":43.296304,"lon":5.376975,"is_reserved":false,"is_disabled":false,"rental_uris":{"android":"levelo://app?vid=195417da-c57f-4f53-b489-8884d82c25e2","ios":"levelo://app?vid=195417da-c57f-4f53-b489-8884d82c25e2"},"vehicle_type_id":"4","last_reported":1740582646,"current_range_meters":4000,"station_id":"ce4bha92rcd13ifvqeg0","pricing_plan_id":"cebpf4jnsgd1na2vs0mg"},{"bike_id":"9dddb1e0-e67e-4e90-b84a-eeafc6eee4ce","system_id":"levelo_inurba_marseille","lat":43.25578,"lon":5.38245,"is_reserved":false,"is_disabled":false,"rental_uris":{"android":"levelo://app?vid=9dddb1e0-e67e-4e90-b84a-eeafc6eee4ce","ios":"levelo://app?vid=9dddb1e0-e67e-4e90-b84a-eeafc6eee4ce"},"vehicle_type_id":"4","last_reported":1740582646,"current_range_meters":4400,"station_id":"ce4bhih2rcd13ifvqfs0","pricing_plan_id":"cebpf4jnsgd1na2vs0mg"},{"bike_id":"fb471a67-1f3a-41b9-b509-0e56c92c666f","system_id":"levelo_inurba_marseille","lat":43.30443,"lon":5.389,"is_reserved":false,"is_disabled":false,"rental_uris":{"android":"levelo://app?vid=fb471a67-1f3a-41b9-b509-0e56c92c666f","ios":"levelo://app?vid=fb471a67-1f3a-41b9-b509-0e56c92c666f"},"vehicle_type_id":"4","last_reported":1740582646,"current_range_meters":4400,"station_id":"ce4bgk12rcd13ifvqbi0","pricing_plan_id":"cebpf4jnsgd1na2vs0mg"},{"bike_id":"42a0cc6e-ca34-4fda-8e88-4d30056b37a2","system_id":"levelo_inurba_marseille","lat":43.303,"lon":5.39213,"is_reserved":false,"is_disabled":false,"rental_uris":{"android":"levelo://app?vid=42a0cc6e-ca34-4fda-8e88-4d30056b37a2","ios":"levelo://app?vid=42a0cc6e-ca34-4fda-8e88-4d30056b37a2"},"vehicle_type_id":"4","last_reported":1740582646,"current_range_meters":4800,"station_id":"ce4bgkh2rcd13ifvqbk0","pricing_plan_id":"cebpf4jnsgd1na2vs0mg"},{"bike_id":"c67c9cbe-a9f2-4867-967e-ed92f34447cf","system_id":"levelo_inurba_marseille","lat":43.29279,"lon":5.40147,"is_reserved":false,"is_disabled":false,"rental_uris":{"android":"levelo://app?vid=c67c9cbe-a9f2-4867-967e-ed92f34447cf","ios":"levelo://app?vid=c67c9cbe-a9f2-4867-967e-ed92f34447cf"},"vehicle_type_id":"4","last_reported":1740582646,"current_range_meters":4800,"station_id":"ce4bh312rcd13ifvqdk0","pricing_plan_id":"cebpf4jnsgd1na2vs0mg"},{"bike_id":"3132bc32-3cb4-4e12-9722-abaf9c54a832","system_id":"levelo_inurba_marseille","lat":43.26227,"lon":5.40452,"is_reserved":false,"is_disabled":false,"rental_uris":{"android":"levelo://app?vid=3132bc32-3cb4-4e12-9722-abaf9c54a832","ios":"levelo://app?vid=3132bc32-3cb4-4e12-9722-abaf9c54a832"},"vehicle_type_id":"4","last_reported":1740582646,"current_range_meters":4800,"station_id":"ce4bhmh2rcd13ifvqgmg","pricing_plan_id":"cebpf4jnsgd1na2vs0mg"},{"bike_id":"10662690-b91b-4fbe-9cf1-e2f63c03ba13","system_id":"levelo_inurba_marseille","lat":43.27367,"lon":5.36258,"is_reserved":false,"is_disabled":false,"rental_uris":{"android":"levelo://app?vid=10662690-b91b-4fbe-9cf1-e2f63c03ba13","ios":"levelo://app?vid=10662690-b91b-4fbe-9cf1-e2f63c03ba13"},"vehicle_type_id":"4","last_reported":1740582646,"current_range_meters":4800,"station_id":"ce4bhbh2rcd13ifvqeo0","pricing_plan_id":"cebpf4jnsgd1na2vs0mg"},{"bike_id":"7fc90eb1-9957-475e-9192-17ed554f6215","system_id":"levelo_inurba_marseille","lat":43.259333,"lon":5.40895,"is_reserved":false,"is_disabled":false,"rental_uris":{"android":"levelo://app?vid=7fc90eb1-9957-475e-9192-17ed554f6215","ios":"levelo://app?vid=7fc90eb1-9957-475e-9192-17ed554f6215"},"vehicle_type_id":"4","last_reported":1740582646,"current_range_meters":4800,"station_id":"ce4bhm92rcd13ifvqglg","pricing_plan_id":"cebpf4jnsgd1na2vs0mg"},{"bike_id":"79807e6d-2e96-4a67-9667-130609591f44","system_id":"levelo_inurba_marseille","lat":43.30307,"lon":5.36888,"is_reserved":false,"is_disabled":false,"rental_uris":{"android":"levelo://app?vid=79807e6d-2e96-4a67-9667-130609591f44","ios":"levelo://app?vid=79807e6d-2e96-4a67-9667-130609591f44"},"vehicle_type_id":"4","last_reported":1740582646,"current_range_meters":4800,"station_id":"ce4bgqh2rcd13ifvqc5g","pricing_plan_id":"cebpf4jnsgd1na2vs0mg"},{"bike_id":"3a6ab877-68b7-40a5-b5be-9127127ed0be","system_id":"levelo_inurba_marseille","lat":43.25615,"lon":5.4117,"is_reserved":false,"is_disabled":false,"rental_uris":{"android":"levelo://app?vid=3a6ab877-68b7-40a5-b5be-9127127ed0be","ios":"levelo://app?vid=3a6ab877-68b7-40a5-b5be-9127127ed0be"},"vehicle_type_id":"4","last_reported":1740582646,"current_range_meters":4800,"station_id":"","pricing_plan_id":"cebpf4jnsgd1na2vs0mg"},{"bike_id":"f22db6b6-2fb1-4509-9c9b-04185ade72c0","system_id":"levelo_inurba_marseille","lat":43.2706,"lon":5.40259,"is_reserved":false,"is_disabled":false,"rental_uris":{"android":"levelo://app?vid=f22db6b6-2fb1-4509-9c9b-04185ade72c0","ios":"levelo://app?vid=f22db6b6-2fb1-4509-9c9b-04185ade72c0"},"vehicle_type_id":"4","last_reported":1740582646,"current_range_meters":1600,"station_id":"ce4bhk92rcd13ifvqgc0","pricing_plan_id":"cebpf4jnsgd1na2vs0mg"},{"bike_id":"1fb0e46b-bdba-4a0b-8c63-b6e48236eaf3","system_id":"levelo_inurba_marseille","lat":43.31335,"lon":5.36672,"is_reserved":false,"is_disabled":false,"rental_uris":{"android":"levelo://app?vid=1fb0e46b-bdba-4a0b-8c63-b6e48236eaf3","ios":"levelo://app?vid=1fb0e46b-bdba-4a0b-8c63-b6e48236eaf3"},"vehicle_type_id":"4","last_reported":1740582646,"current_range_meters":6000,"station_id":"ce4bgr92rcd13ifvqc6g","pricing_plan_id":"cebpf4jnsgd1na2vs0mg"},{"bike_id":"4242ac5b-27c1-4aec-9f82-2fac9f8c98d2","system_id":"levelo_inurba_marseille","lat":43.28715,"lon":5.37387,"is_reserved":false,"is_disabled":false,"rental_uris":{"android":"levelo://app?vid=4242ac5b-27c1-4aec-9f82-2fac9f8c98d2","ios":"levelo://app?vid=4242ac5b-27c1-4aec-9f82-2fac9f8c98d2"},"vehicle_type_id":"4","last_reported":1740582646,"current_range_meters":3600,"station_id":"ce4bh3p2rcd13ifvqdq0","pricing_plan_id":"cebpf4jnsgd1na2vs0mg"},{"bike_id":"1f369cdd-8cca-4341-8813-01dfbcd6f804","system_id":"levelo_inurba_marseille","lat":43.27065,"lon":5.42281,"is_reserved":false,"is_disabled":false,"rental_uris":{"android":"levelo://app?vid=1f369cdd-8cca-4341-8813-01dfbcd6f804","ios":"levelo://app?vid=1f369cdd-8cca-4341-8813-01dfbcd6f804"},"vehicle_type_id":"4","last_reported":1740582646,"current_range_meters":4800,"station_id":"ce4bhk92rcd13ifvqgb0","pricing_plan_id":"cebpf4jnsgd1na2vs0mg"},{"bike_id":"1b4cb9d4-732c-4d1e-b068-6d0481f44414","system_id":"levelo_inurba_marseille","lat":43.23967,"lon":5.36632,"is_reserved":false,"is_disabled":false,"rental_uris":{"android":"levelo://app?vid=1b4cb9d4-732c-4d1e-b068-6d0481f44414","ios":"levelo://app?vid=1b4cb9d4-732c-4d1e-b068-6d0481f44414"},"vehicle_type_id":"4","last_reported":1740582646,"current_range_meters":6400,"station_id":"ce4bhi12rcd13ifvqfp0","pricing_plan_id":"cebpf4jnsgd1na2vs0mg"},{"bike_id":"e5c275a2-a964-47d8-9489-ed1126cf4cef","system_id":"levelo_inurba_marseille","lat":43.2962,"lon":5.37925,"is_reserved":false,"is_disabled":false,"rental_uris":{"android":"levelo://app?vid=e5c275a2-a964-47d8-9489-ed1126cf4cef","ios":"levelo://app?vid=e5c275a2-a964-47d8-9489-ed1126cf4cef"},"vehicle_type_id":"4","last_reported":1740582646,"current_range_meters":6400,"station_id":"","pricing_plan_id":"cebpf4jnsgd1na2vs0mg"},{"bike_id":"3f2d2949-015d-423e-935e-c7ec23302b6e","system_id":"levelo_inurba_marseille","lat":43.29719,"lon":5.377,"is_reserved":false,"is_disabled":false,"rental_uris":{"android":"levelo://app?vid=3f2d2949-015d-423e-935e-c7ec23302b6e","ios":"levelo://app?vid=3f2d2949-015d-423e-935e-c7ec23302b6e"},"vehicle_type_id":"4","last_reported":1740582646,"current_range_meters":6000,"station_id":"ce4bgkh2rcd13ifvqbl0","pricing_plan_id":"cebpf4jnsgd1na2vs0mg"},{"bike_id":"24a8cee3-b60a-461d-954c-54ff092724df","system_id":"levelo_inurba_marseille","lat":43.23193,"lon":5.35555,"is_reserved":false,"is_disabled":false,"rental_uris":{"android":"levelo://app?vid=24a8cee3-b60a-461d-954c-54ff092724df","ios":"levelo://app?vid=24a8cee3-b60a-461d-954c-54ff092724df"},"vehicle_type_id":"4","last_reported":1740582646,"current_range_meters":6400,"station_id":"ce4bhu92rcd13ifvqi70","pricing_plan_id":"cebpf4jnsgd1na2vs0mg"},{"bike_id":"e8a675a0-b675-4455-932b-aacbaceee3f4","system_id":"levelo_inurba_marseille","lat":43.28154,"lon":5.42643,"is_reserved":false,"is_disabled":false,"rental_uris":{"android":"levelo://app?vid=e8a675a0-b675-4455-932b-aacbaceee3f4","ios":"levelo://app?vid=e8a675a0-b675-4455-932b-aacbaceee3f4"},"vehicle_type_id":"4","last_reported":1740582646,"current_range_meters":6400,"station_id":"ce4bhnh2rcd13ifvqgug","pricing_plan_id":"cebpf4jnsgd1na2vs0mg"},{"bike_id":"595e9729-3378-4282-a234-4fb84071135a","system_id":"levelo_inurba_marseille","lat":43.28274,"lon":5.35077,"is_reserved":false,"is_disabled":false,"rental_uris":{"android":"levelo://app?vid=595e9729-3378-4282-a234-4fb84071135a","ios":"levelo://app?vid=595e9729-3378-4282-a234-4fb84071135a"},"vehicle_type_id":"4","last_reported":1740582646,"current_range_meters":6800,"station_id":"ce4bhbp2rcd13ifvqerg","pricing_plan_id":"cebpf4jnsgd1na2vs0mg"},{"bike_id":"89f898bd-76f1-4c1b-a911-8fa7a9f586b9","system_id":"levelo_inurba_marseille","lat":43.25579,"lon":5.38246,"is_reserved":false,"is_disabled":false,"rental_uris":{"android":"levelo://app?vid=89f898bd-76f1-4c1b-a911-8fa7a9f586b9","ios":"levelo://app?vid=89f898bd-76f1-4c1b-a911-8fa7a9f586b9"},"vehicle_type_id":"4","last_reported":1740582646,"current_range_meters":6800,"station_id":"ce4bhih2rcd13ifvqfs0","pricing_plan_id":"cebpf4jnsgd1na2vs0mg"},{"bike_id":"411b5315-e03f-43f4-b5cd-9f0caf8d3081","system_id":"levelo_inurba_marseille","lat":43.23192,"lon":5.39995,"is_reserved":false,"is_disabled":false,"rental_uris":{"android":"levelo://app?vid=411b5315-e03f-43f4-b5cd-9f0caf8d3081","ios":"levelo://app?vid=411b5315-e03f-43f4-b5cd-9f0caf8d3081"},"vehicle_type_id":"4","last_reported":1740582646,"current_range_meters":6800,"station_id":"ce4bhn12rcd13ifvqgqg","pricing_plan_id":"cebpf4jnsgd1na2vs0mg"},{"bike_id":"748744ff-6eef-4ea8-9e28-9e38d86d68b1","system_id":"levelo_inurba_marseille","lat":43.3033,"lon":5.40352,"is_reserved":false,"is_disabled":false,"rental_uris":{"android":"levelo://app?vid=748744ff-6eef-4ea8-9e28-9e38d86d68b1","ios":"levelo://app?vid=748744ff-6eef-4ea8-9e28-9e38d86d68b1"},"vehicle_type_id":"4","last_reported":1740582646,"current_range_meters":6800,"station_id":"ce4bh012rcd13ifvqd10","pricing_plan_id":"cebpf4jnsgd1na2vs0mg"},{"bike_id":"92747298-1229-470f-9b7a-6b59025d0516","system_id":"levelo_inurba_marseille","lat":43.28475,"lon":5.38428,"is_reserved":false,"is_disabled":false,"rental_uris":{"android":"levelo://app?vid=92747298-1229-470f-9b7a-6b59025d0516","ios":"levelo://app?vid=92747298-1229-470f-9b7a-6b59025d0516"},"vehicle_type_id":"4","last_reported":1740582646,"current_range_meters":7200,"station_id":"ce4bh512rcd13ifvqe3g","pricing_plan_id":"cebpf4jnsgd1na2vs0mg"},{"bike_id":"1f06841f-a08f-43b2-86cc-e1f209dcf739","system_id":"levelo_inurba_marseille","lat":43.30953,"lon":5.39036,"is_reserved":false,"is_disabled":false,"rental_uris":{"android":"levelo://app?vid=1f06841f-a08f-43b2-86cc-e1f209dcf739","ios":"levelo://app?vid=1f06841f-a08f-43b2-86cc-e1f209dcf739"},"vehicle_type_id":"4","last_reported":1740582646,"current_range_meters":6400,"station_id":"ce4bgup2rcd13ifvqco0","pricing_plan_id":"cebpf4jnsgd1na2vs0mg"},{"bike_id":"d195c036-1441-4910-bcb8-60d709890867","system_id":"levelo_inurba_marseille","lat":43.241643,"lon":5.363926,"is_reserved":false,"is_disabled":false,"rental_uris":{"android":"levelo://app?vid=d195c036-1441-4910-bcb8-60d709890867","ios":"levelo://app?vid=d195c036-1441-4910-bcb8-60d709890867"},"vehicle_type_id":"4","last_reported":1740582646,"current_range_meters":7200,"station_id":"cpo36qri1sfpv3e86is0","pricing_plan_id":"cebpf4jnsgd1na2vs0mg"},{"bike_id":"2c8ddf2e-e92e-4eb8-a14b-e04e569fe076","system_id":"levelo_inurba_marseille","lat":43.29534,"lon":5.37505,"is_reserved":false,"is_disabled":false,"rental_uris":{"android":"levelo://app?vid=2c8ddf2e-e92e-4eb8-a14b-e04e569fe076","ios":"levelo://app?vid=2c8ddf2e-e92e-4eb8-a14b-e04e569fe076"},"vehicle_type_id":"4","last_reported":1740582646,"current_range_meters":7200,"station_id":"ce4bgkp2rcd13ifvqbmg","pricing_plan_id":"cebpf4jnsgd1na2vs0mg"},{"bike_id":"ef1e57e6-2da8-4e63-8299-55a6faf4e4b9","system_id":"levelo_inurba_marseille","lat":43.28688,"lon":5.38652,"is_reserved":false,"is_disabled":false,"rental_uris":{"android":"levelo://app?vid=ef1e57e6-2da8-4e63-8299-55a6faf4e4b9","ios":"levelo://app?vid=ef1e57e6-2da8-4e63-8299-55a6faf4e4b9"},"vehicle_type_id":"4","last_reported":1740582646,"current_range_meters":7200,"station_id":"ce4bh492rcd13ifvqdug","pricing_plan_id":"cebpf4jnsgd1na2vs0mg"},{"bike_id":"5713724b-bc01-4ed5-85d5-bc16050657ce","system_id":"levelo_inurba_marseille","lat":43.25946,"lon":5.40902,"is_reserved":false,"is_disabled":false,"rental_uris":{"android":"levelo://app?vid=5713724b-bc01-4ed5-85d5-bc16050657ce","ios":"levelo://app?vid=5713724b-bc01-4ed5-85d5-bc16050657ce"},"vehicle_type_id":"4","last_reported":1740582646,"current_range_meters":7200,"station_id":"ce4bhm92rcd13ifvqglg","pricing_plan_id":"cebpf4jnsgd1na2vs0mg"},{"bike_id":"b35014d0-2386-4a4f-be92-a95210741c5e","system_id":"levelo_inurba_marseille","lat":43.29611,"lon":5.37723,"is_reserved":false,"is_disabled":false,"rental_uris":{"android":"levelo://app?vid=b35014d0-2386-4a4f-be92-a95210741c5e","ios":"levelo://app?vid=b35014d0-2386-4a4f-be92-a95210741c5e"},"vehicle_type_id":"4","last_reported":1740582646,"current_range_meters":7200,"station_id":"ce4bgi92rcd13ifvqb90","pricing_plan_id":"cebpf4jnsgd1na2vs0mg"},{"bike_id":"793b09bb-9227-4c43-9799-adceb6e67300","system_id":"levelo_inurba_marseille","lat":43.29968,"lon":5.38495,"is_reserved":false,"is_disabled":false,"rental_uris":{"android":"levelo://app?vid=793b09bb-9227-4c43-9799-adceb6e67300","ios":"levelo://app?vid=793b09bb-9227-4c43-9799-adceb6e67300"},"vehicle_type_id":"4","last_reported":1740582646,"current_range_meters":7200,"station_id":"ce4bgj92rcd13ifvqbd0","pricing_plan_id":"cebpf4jnsgd1na2vs0mg"},{"bike_id":"7cb2ec13-9150-4ba0-8600-71e4c8b933c1","system_id":"levelo_inurba_marseille","lat":43.28272,"lon":5.35068,"is_reserved":false,"is_disabled":false,"rental_uris":{"android":"levelo://app?vid=7cb2ec13-9150-4ba0-8600-71e4c8b933c1","ios":"levelo://app?vid=7cb2ec13-9150-4ba0-8600-71e4c8b933c1"},"vehicle_type_id":"4","last_reported":1740582646,"current_range_meters":7200,"station_id":"ce4bhbp2rcd13ifvqerg","pricing_plan_id":"cebpf4jnsgd1na2vs0mg"},{"bike_id":"60563ad7-422d-49af-af20-ae1986ecd328","system_id":"levelo_inurba_marseille","lat":43.31126,"lon":5.37774,"is_reserved":false,"is_disabled":false,"rental_uris":{"android":"levelo://app?vid=60563ad7-422d-49af-af20-ae1986ecd328","ios":"levelo://app?vid=60563ad7-422d-49af-af20-ae1986ecd328"},"vehicle_type_id":"4","last_reported":1740582646,"current_range_meters":7200,"station_id":"ce4bgt92rcd13ifvqcg0","pricing_plan_id":"cebpf4jnsgd1na2vs0mg"},{"bike_id":"7b31ef55-b1e3-4c93-954c-de1d66312233","system_id":"levelo_inurba_marseille","lat":43.30418,"lon":5.39769,"is_reserved":false,"is_disabled":false,"rental_uris":{"android":"levelo://app?vid=7b31ef55-b1e3-4c93-954c-de1d66312233","ios":"levelo://app?vid=7b31ef55-b1e3-4c93-954c-de1d66312233"},"vehicle_type_id":"4","last_reported":1740582646,"current_range_meters":8000,"station_id":"ce4bh092rcd13ifvqd20","pricing_plan_id":"cebpf4jnsgd1na2vs0mg"},{"bike_id":"05f51bd6-bf8c-4b6c-ba2f-d7bf7cec3006","system_id":"levelo_inurba_marseille","lat":43.23201,"lon":5.35559,"is_reserved":false,"is_disabled":false,"rental_uris":{"android":"levelo://app?vid=05f51bd6-bf8c-4b6c-ba2f-d7bf7cec3006","ios":"levelo://app?vid=05f51bd6-bf8c-4b6c-ba2f-d7bf7cec3006"},"vehicle_type_id":"4","last_reported":1740582646,"current_range_meters":8000,"station_id":"ce4bhu92rcd13ifvqi70","pricing_plan_id":"cebpf4jnsgd1na2vs0mg"},{"bike_id":"68db716c-6572-40ea-b079-987ee4623b4d","system_id":"levelo_inurba_marseille","lat":43.26844,"lon":5.40967,"is_reserved":false,"is_disabled":false,"rental_uris":{"android":"levelo://app?vid=68db716c-6572-40ea-b079-987ee4623b4d","ios":"levelo://app?vid=68db716c-6572-40ea-b079-987ee4623b4d"},"vehicle_type_id":"4","last_reported":1740582646,"current_range_meters":8000,"station_id":"","pricing_plan_id":"cebpf4jnsgd1na2vs0mg"},{"bike_id":"9c24a9e2-7378-4601-93d3-5ed31818cd93","system_id":"levelo_inurba_marseille","lat":43.23196,"lon":5.35552,"is_reserved":false,"is_disabled":false,"rental_uris":{"android":"levelo://app?vid=9c24a9e2-7378-4601-93d3-5ed31818cd93","ios":"levelo://app?vid=9c24a9e2-7378-4601-93d3-5ed31818cd93"},"vehicle_type_id":"4","last_reported":1740582646,"current_range_meters":8000,"station_id":"ce4bhu92rcd13ifvqi70","pricing_plan_id":"cebpf4jnsgd1na2vs0mg"},{"bike_id":"0a3f5ff5-949d-4cf4-a30b-f6d782a87c75","system_id":"levelo_inurba_marseille","lat":43.25579,"lon":5.38243,"is_reserved":false,"is_disabled":false,"rental_uris":{"android":"levelo://app?vid=0a3f5ff5-949d-4cf4-a30b-f6d782a87c75","ios":"levelo://app?vid=0a3f5ff5-949d-4cf4-a30b-f6d782a87c75"},"vehicle_type_id":"4","last_reported":1740582646,"current_range_meters":8400,"station_id":"ce4bhih2rcd13ifvqfs0","pricing_plan_id":"cebpf4jnsgd1na2vs0mg"},{"bike_id":"678b0958-a3d2-4757-be0c-77a3a366d6f9","system_id":"levelo_inurba_marseille","lat":43.29612,"lon":5.37736,"is_reserved":false,"is_disabled":false,"rental_uris":{"android":"levelo://app?vid=678b0958-a3d2-4757-be0c-77a3a366d6f9","ios":"levelo://app?vid=678b0958-a3d2-4757-be0c-77a3a366d6f9"},"vehicle_type_id":"4","last_reported":1740582646,"current_range_meters":8400,"station_id":"ce4bgi92rcd13ifvqb90","pricing_plan_id":"cebpf4jnsgd1na2vs0mg"},{"bike_id":"67bb984d-ad07-4e16-b122-6fcd1357e200","system_id":"levelo_inurba_marseille","lat":43.27071,"lon":5.42281,"is_reserved":false,"is_disabled":false,"rental_uris":{"android":"levelo://app?vid=67bb984d-ad07-4e16-b122-6fcd1357e200","ios":"levelo://app?vid=67bb984d-ad07-4e16-b122-6fcd1357e200"},"vehicle_type_id":"4","last_reported":1740582646,"current_range_meters":8400,"station_id":"ce4bhk92rcd13ifvqgb0","pricing_plan_id":"cebpf4jnsgd1na2vs0mg"},{"bike_id":"e278aacb-539f-4f85-8f4a-8bf82e73d71c","system_id":"levelo_inurba_marseille","lat":43.29863,"lon":5.36286,"is_reserved":false,"is_disabled":false,"rental_uris":{"android":"levelo://app?vid=e278aacb-539f-4f85-8f4a-8bf82e73d71c","ios":"levelo://app?vid=e278aacb-539f-4f85-8f4a-8bf82e73d71c"},"vehicle_type_id":"4","last_reported":1740582646,"current_range_meters":8400,"station_id":"ce4bgpp2rcd13ifvqc3g","pricing_plan_id":"cebpf4jnsgd1na2vs0mg"},{"bike_id":"97bef890-6ea3-4063-a9cf-4bb74de1fa03","system_id":"levelo_inurba_marseille","lat":43.28621,"lon":5.35096,"is_reserved":false,"is_disabled":false,"rental_uris":{"android":"levelo://app?vid=97bef890-6ea3-4063-a9cf-4bb74de1fa03","ios":"levelo://app?vid=97bef890-6ea3-4063-a9cf-4bb74de1fa03"},"vehicle_type_id":"4","last_reported":1740582646,"current_range_meters":8400,"station_id":"ce4bhch2rcd13ifvqeug","pricing_plan_id":"cebpf4jnsgd1na2vs0mg"},{"bike_id":"39741ec1-9727-49c5-ae13-84ad543ca730","system_id":"levelo_inurba_marseille","lat":43.30598,"lon":5.372425,"is_reserved":false,"is_disabled":false,"rental_uris":{"android":"levelo://app?vid=39741ec1-9727-49c5-ae13-84ad543ca730","ios":"levelo://app?vid=39741ec1-9727-49c5-ae13-84ad543ca730"},"vehicle_type_id":"4","last_reported":1740582646,"current_range_meters":8400,"station_id":"ce4bgqh2rcd13ifvqc4g","pricing_plan_id":"cebpf4jnsgd1na2vs0mg"},{"bike_id":"9a806a75-c907-416a-af1e-83fb09ca289c","system_id":"levelo_inurba_marseille","lat":43.24645,"lon":5.38896,"is_reserved":false,"is_disabled":false,"rental_uris":{"android":"levelo://app?vid=9a806a75-c907-416a-af1e-83fb09ca289c","ios":"levelo://app?vid=9a806a75-c907-416a-af1e-83fb09ca289c"},"vehicle_type_id":"4","last_reported":1740582646,"current_range_meters":8000,"station_id":"ce4bhg12rcd13ifvqf60","pricing_plan_id":"cebpf4jnsgd1na2vs0mg"},{"bike_id":"ac16063b-f81c-42af-ab51-789feff4f779","system_id":"levelo_inurba_marseille","lat":43.28954,"lon":5.36414,"is_reserved":false,"is_disabled":false,"rental_uris":{"android":"levelo://app?vid=ac16063b-f81c-42af-ab51-789feff4f779","ios":"levelo://app?vid=ac16063b-f81c-42af-ab51-789feff4f779"},"vehicle_type_id":"4","last_reported":1740582646,"current_range_meters":8400,"station_id":"ce4bhc92rcd13ifvqetg","pricing_plan_id":"cebpf4jnsgd1na2vs0mg"},{"bike_id":"dbc8f7b4-0717-4dd1-b8c8-259a7be32b08","system_id":"levelo_inurba_marseille","lat":43.29556,"lon":5.42281,"is_reserved":false,"is_disabled":false,"rental_uris":{"android":"levelo://app?vid=dbc8f7b4-0717-4dd1-b8c8-259a7be32b08","ios":"levelo://app?vid=dbc8f7b4-0717-4dd1-b8c8-259a7be32b08"},"vehicle_type_id":"4","last_reported":1740582646,"current_range_meters":8400,"station_id":"ce4bhph2rcd13ifvqhdg","pricing_plan_id":"cebpf4jnsgd1na2vs0mg"},{"bike_id":"8f4f5c61-91cc-4fd5-85ad-d5b23eff483d","system_id":"levelo_inurba_marseille","lat":43.29492,"lon":5.36221,"is_reserved":false,"is_disabled":false,"rental_uris":{"android":"levelo://app?vid=8f4f5c61-91cc-4fd5-85ad-d5b23eff483d","ios":"levelo://app?vid=8f4f5c61-91cc-4fd5-85ad-d5b23eff483d"},"vehicle_type_id":"4","last_reported":1740582646,"current_range_meters":6000,"station_id":"","pricing_plan_id":"cebpf4jnsgd1na2vs0mg"},{"bike_id":"c2923301-b954-4082-9f4f-c96c5993bee4","system_id":"levelo_inurba_marseille","lat":43.28352,"lon":5.38644,"is_reserved":false,"is_disabled":false,"rental_uris":{"android":"levelo://app?vid=c2923301-b954-4082-9f4f-c96c5993bee4","ios":"levelo://app?vid=c2923301-b954-4082-9f4f-c96c5993bee4"},"vehicle_type_id":"4","last_reported":1740582646,"current_range_meters":8800,"station_id":"ce4bh492rcd13ifvqdvg","pricing_plan_id":"cebpf4jnsgd1na2vs0mg"},{"bike_id":"bb0c7672-5984-45f2-8ca3-eb3e90172afc","system_id":"levelo_inurba_marseille","lat":43.261954,"lon":5.374496,"is_reserved":false,"is_disabled":false,"rental_uris":{"android":"levelo://app?vid=bb0c7672-5984-45f2-8ca3-eb3e90172afc","ios":"levelo://app?vid=bb0c7672-5984-45f2-8ca3-eb3e90172afc"},"vehicle_type_id":"4","last_reported":1740582646,"current_range_meters":8800,"station_id":"ce4bhgp2rcd13ifvqfc0","pricing_plan_id":"cebpf4jnsgd1na2vs0mg"},{"bike_id":"1b3133c9-e82e-4f29-99b4-5bcd3291984f","system_id":"levelo_inurba_marseille","lat":43.28944,"lon":5.3665,"is_reserved":false,"is_disabled":false,"rental_uris":{"android":"levelo://app?vid=1b3133c9-e82e-4f29-99b4-5bcd3291984f","ios":"levelo://app?vid=1b3133c9-e82e-4f29-99b4-5bcd3291984f"},"vehicle_type_id":"4","last_reported":1740582646,"current_range_meters":8800,"station_id":"ce4bhap2rcd13ifvqek0","pricing_plan_id":"cebpf4jnsgd1na2vs0mg"},{"bike_id":"ea5ec4ab-ecd5-4494-aa18-25dd066ee5be","system_id":"levelo_inurba_marseille","lat":43.28488,"lon":5.38421,"is_reserved":false,"is_disabled":false,"rental_uris":{"android":"levelo://app?vid=ea5ec4ab-ecd5-4494-aa18-25dd066ee5be","ios":"levelo://app?vid=ea5ec4ab-ecd5-4494-aa18-25dd066ee5be"},"vehicle_type_id":"4","last_reported":1740582646,"current_range_meters":8800,"station_id":"ce4bh512rcd13ifvqe3g","pricing_plan_id":"cebpf4jnsgd1na2vs0mg"},{"bike_id":"177f06fa-2bc2-4077-bea9-46db155b5a7e","system_id":"levelo_inurba_marseille","lat":43.299317,"lon":5.365432,"is_reserved":false,"is_disabled":false,"rental_uris":{"android":"levelo://app?vid=177f06fa-2bc2-4077-bea9-46db155b5a7e","ios":"levelo://app?vid=177f06fa-2bc2-4077-bea9-46db155b5a7e"},"vehicle_type_id":"4","last_reported":1740582646,"current_range_meters":8800,"station_id":"","pricing_plan_id":"cebpf4jnsgd1na2vs0mg"},{"bike_id":"afe3ff60-faf8-4978-aef6-176cfb3edafb","system_id":"levelo_inurba_marseille","lat":43.2795,"lon":5.41056,"is_reserved":false,"is_disabled":false,"rental_uris":{"android":"levelo://app?vid=afe3ff60-faf8-4978-aef6-176cfb3edafb","ios":"levelo://app?vid=afe3ff60-faf8-4978-aef6-176cfb3edafb"},"vehicle_type_id":"4","last_reported":1740582646,"current_range_meters":8800,"station_id":"ce4bhnp2rcd13ifvqh0g","pricing_plan_id":"cebpf4jnsgd1na2vs0mg"},{"bike_id":"780d3cb4-374e-48d5-b3bf-1fe958e2fe90","system_id":"levelo_inurba_marseille","lat":43.26223,"lon":5.37474,"is_reserved":false,"is_disabled":false,"rental_uris":{"android":"levelo://app?vid=780d3cb4-374e-48d5-b3bf-1fe958e2fe90","ios":"levelo://app?vid=780d3cb4-374e-48d5-b3bf-1fe958e2fe90"},"vehicle_type_id":"4","last_reported":1740582646,"current_range_meters":8800,"station_id":"ce4bhgp2rcd13ifvqfc0","pricing_plan_id":"cebpf4jnsgd1na2vs0mg"},{"bike_id":"029549d4-f925-42d5-be09-b73a69f9fb39","system_id":"levelo_inurba_marseille","lat":43.283557,"lon":5.381065,"is_reserved":false,"is_disabled":false,"rental_uris":{"android":"levelo://app?vid=029549d4-f925-42d5-be09-b73a69f9fb39","ios":"levelo://app?vid=029549d4-f925-42d5-be09-b73a69f9fb39"},"vehicle_type_id":"4","last_reported":1740582646,"current_range_meters":12800,"station_id":"ce4bh412rcd13ifvqdr0","pricing_plan_id":"cebpf4jnsgd1na2vs0mg"},{"bike_id":"503a0584-5456-4d24-af01-0e868e1cc216","system_id":"levelo_inurba_marseille","lat":43.276875,"lon":5.389105,"is_reserved":false,"is_disabled":false,"rental_uris":{"android":"levelo://app?vid=503a0584-5456-4d24-af01-0e868e1cc216","ios":"levelo://app?vid=503a0584-5456-4d24-af01-0e868e1cc216"},"vehicle_type_id":"4","last_reported":1740582646,"current_range_meters":8800,"station_id":"ce4bhi12rcd13ifvqfo0","pricing_plan_id":"cebpf4jnsgd1na2vs0mg"},{"bike_id":"c52acbad-9974-48d6-b92b-1d6c12a1b66d","system_id":"levelo_inurba_marseille","lat":43.2597,"lon":5.40803,"is_reserved":false,"is_disabled":false,"rental_uris":{"android":"levelo://app?vid=c52acbad-9974-48d6-b92b-1d6c12a1b66d","ios":"levelo://app?vid=c52acbad-9974-48d6-b92b-1d6c12a1b66d"},"vehicle_type_id":"4","last_reported":1740582646,"current_range_meters":9200,"station_id":"","pricing_plan_id":"cebpf4jnsgd1na2vs0mg"},{"bike_id":"7a6dbf21-59d5-416b-8111-14096a5b395c","system_id":"levelo_inurba_marseille","lat":43.25003,"lon":5.38918,"is_reserved":false,"is_disabled":false,"rental_uris":{"android":"levelo://app?vid=7a6dbf21-59d5-416b-8111-14096a5b395c","ios":"levelo://app?vid=7a6dbf21-59d5-416b-8111-14096a5b395c"},"vehicle_type_id":"4","last_reported":1740582646,"current_range_meters":9200,"station_id":"ce4bhgp2rcd13ifvqfd0","pricing_plan_id":"cebpf4jnsgd1na2vs0mg"},{"bike_id":"927c6008-d070-4b81-b1e6-eeb0f31f8fdd","system_id":"levelo_inurba_marseille","lat":43.28082,"lon":5.3966,"is_reserved":false,"is_disabled":false,"rental_uris":{"android":"levelo://app?vid=927c6008-d070-4b81-b1e6-eeb0f31f8fdd","ios":"levelo://app?vid=927c6008-d070-4b81-b1e6-eeb0f31f8fdd"},"vehicle_type_id":"4","last_reported":1740582646,"current_range_meters":8400,"station_id":"ce4bho12rcd13ifvqh2g","pricing_plan_id":"cebpf4jnsgd1na2vs0mg"},{"bike_id":"6b286004-f086-4023-9675-02a95f8e917b","system_id":"levelo_inurba_marseille","lat":43.3095,"lon":5.39043,"is_reserved":false,"is_disabled":true,"rental_uris":{"android":"levelo://app?vid=6b286004-f086-4023-9675-02a95f8e917b","ios":"levelo://app?vid=6b286004-f086-4023-9675-02a95f8e917b"},"vehicle_type_id":"4","last_reported":1740582646,"current_range_meters":9200,"station_id":"ce4bgup2rcd13ifvqco0","pricing_plan_id":"cebpf4jnsgd1na2vs0mg"},{"bike_id":"b007f058-4163-4bbe-ba13-50835769bd43","system_id":"levelo_inurba_marseille","lat":43.31718,"lon":5.43699,"is_reserved":false,"is_disabled":false,"rental_uris":{"android":"levelo://app?vid=b007f058-4163-4bbe-ba13-50835769bd43","ios":"levelo://app?vid=b007f058-4163-4bbe-ba13-50835769bd43"},"vehicle_type_id":"4","last_reported":1740582646,"current_range_meters":9200,"station_id":"ce4bhp92rcd13ifvqhcg","pricing_plan_id":"cebpf4jnsgd1na2vs0mg"},{"bike_id":"79c76d1e-a9b0-447a-9f34-f6dd253c00d2","system_id":"levelo_inurba_marseille","lat":43.27972,"lon":5.38738,"is_reserved":false,"is_disabled":false,"rental_uris":{"android":"levelo://app?vid=79c76d1e-a9b0-447a-9f34-f6dd253c00d2","ios":"levelo://app?vid=79c76d1e-a9b0-447a-9f34-f6dd253c00d2"},"vehicle_type_id":"4","last_reported":1740582646,"current_range_meters":8800,"station_id":"ce4bhg12rcd13ifvqf80","pricing_plan_id":"cebpf4jnsgd1na2vs0mg"},{"bike_id":"82b362b5-d227-4195-beed-65fdc1164837","system_id":"levelo_inurba_marseille","lat":43.29786,"lon":5.38078,"is_reserved":false,"is_disabled":false,"rental_uris":{"android":"levelo://app?vid=82b362b5-d227-4195-beed-65fdc1164837","ios":"levelo://app?vid=82b362b5-d227-4195-beed-65fdc1164837"},"vehicle_type_id":"4","last_reported":1740582646,"current_range_meters":10000,"station_id":"ce4bgip2rcd13ifvqbb0","pricing_plan_id":"cebpf4jnsgd1na2vs0mg"},{"bike_id":"c361e84c-311a-48cf-8bff-af8605825359","system_id":"levelo_inurba_marseille","lat":43.30302,"lon":5.3689,"is_reserved":false,"is_disabled":false,"rental_uris":{"android":"levelo://app?vid=c361e84c-311a-48cf-8bff-af8605825359","ios":"levelo://app?vid=c361e84c-311a-48cf-8bff-af8605825359"},"vehicle_type_id":"4","last_reported":1740582646,"current_range_meters":9200,"station_id":"ce4bgqh2rcd13ifvqc5g","pricing_plan_id":"cebpf4jnsgd1na2vs0mg"},{"bike_id":"a18d2462-6430-4fa5-8ce7-637ac348b4cd","system_id":"levelo_inurba_marseille","lat":43.27953,"lon":5.41019,"is_reserved":false,"is_disabled":false,"rental_uris":{"android":"levelo://app?vid=a18d2462-6430-4fa5-8ce7-637ac348b4cd","ios":"levelo://app?vid=a18d2462-6430-4fa5-8ce7-637ac348b4cd"},"vehicle_type_id":"4","last_reported":1740582646,"current_range_meters":9200,"station_id":"ce4bhnp2rcd13ifvqh0g","pricing_plan_id":"cebpf4jnsgd1na2vs0mg"},{"bike_id":"eec6fd0c-47b2-4d60-b5a3-3d356fdee7e7","system_id":"levelo_inurba_marseille","lat":43.23149,"lon":5.43712,"is_reserved":false,"is_disabled":false,"rental_uris":{"android":"levelo://app?vid=eec6fd0c-47b2-4d60-b5a3-3d356fdee7e7","ios":"levelo://app?vid=eec6fd0c-47b2-4d60-b5a3-3d356fdee7e7"},"vehicle_type_id":"4","last_reported":1740582646,"current_range_meters":9200,"station_id":"ce4bhmp2rcd13ifvqgog","pricing_plan_id":"cebpf4jnsgd1na2vs0mg"},{"bike_id":"d0801915-0de0-4f9d-9726-750b42c06614","system_id":"levelo_inurba_marseille","lat":43.32081,"lon":5.36765,"is_reserved":false,"is_disabled":false,"rental_uris":{"android":"levelo://app?vid=d0801915-0de0-4f9d-9726-750b42c06614","ios":"levelo://app?vid=d0801915-0de0-4f9d-9726-750b42c06614"},"vehicle_type_id":"4","last_reported":1740582646,"current_range_meters":9200,"station_id":"ce4bhrh2rcd13ifvqhug","pricing_plan_id":"cebpf4jnsgd1na2vs0mg"},{"bike_id":"b7a311c0-b08e-4dde-96a5-093323e33ff3","system_id":"levelo_inurba_marseille","lat":43.29841,"lon":5.36264,"is_reserved":false,"is_disabled":false,"rental_uris":{"android":"levelo://app?vid=b7a311c0-b08e-4dde-96a5-093323e33ff3","ios":"levelo://app?vid=b7a311c0-b08e-4dde-96a5-093323e33ff3"},"vehicle_type_id":"4","last_reported":1740582646,"current_range_meters":9600,"station_id":"ce4bgpp2rcd13ifvqc3g","pricing_plan_id":"cebpf4jnsgd1na2vs0mg"},{"bike_id":"7a38a04f-840e-4bce-8d59-cedba7f448bd","system_id":"levelo_inurba_marseille","lat":43.29615,"lon":5.37727,"is_reserved":false,"is_disabled":false,"rental_uris":{"android":"levelo://app?vid=7a38a04f-840e-4bce-8d59-cedba7f448bd","ios":"levelo://app?vid=7a38a04f-840e-4bce-8d59-cedba7f448bd"},"vehicle_type_id":"4","last_reported":1740582646,"current_range_meters":9600,"station_id":"ce4bgi92rcd13ifvqb90","pricing_plan_id":"cebpf4jnsgd1na2vs0mg"},{"bike_id":"c1e1cfc9-4e56-4f7a-94a9-2d01d9bb2a93","system_id":"levelo_inurba_marseille","lat":43.248035,"lon":5.374567,"is_reserved":false,"is_disabled":false,"rental_uris":{"android":"levelo://app?vid=c1e1cfc9-4e56-4f7a-94a9-2d01d9bb2a93","ios":"levelo://app?vid=c1e1cfc9-4e56-4f7a-94a9-2d01d9bb2a93"},"vehicle_type_id":"4","last_reported":1740582646,"current_range_meters":9600,"station_id":"ce4bhgh2rcd13ifvqfb0","pricing_plan_id":"cebpf4jnsgd1na2vs0mg"},{"bike_id":"7c8aaa9b-e43a-43de-8b4f-a531a44d3724","system_id":"levelo_inurba_marseille","lat":43.27939,"lon":5.41048,"is_reserved":false,"is_disabled":false,"rental_uris":{"android":"levelo://app?vid=7c8aaa9b-e43a-43de-8b4f-a531a44d3724","ios":"levelo://app?vid=7c8aaa9b-e43a-43de-8b4f-a531a44d3724"},"vehicle_type_id":"4","last_reported":1740582646,"current_range_meters":9600,"station_id":"ce4bhnp2rcd13ifvqh0g","pricing_plan_id":"cebpf4jnsgd1na2vs0mg"},{"bike_id":"d0699982-8abe-4e9c-8f9c-fac4cee48bc3","system_id":"levelo_inurba_marseille","lat":43.2827,"lon":5.35064,"is_reserved":false,"is_disabled":false,"rental_uris":{"android":"levelo://app?vid=d0699982-8abe-4e9c-8f9c-fac4cee48bc3","ios":"levelo://app?vid=d0699982-8abe-4e9c-8f9c-fac4cee48bc3"},"vehicle_type_id":"4","last_reported":1740582646,"current_range_meters":9600,"station_id":"ce4bhbp2rcd13ifvqerg","pricing_plan_id":"cebpf4jnsgd1na2vs0mg"},{"bike_id":"24ffca99-e2d2-4c79-9689-029e204b116d","system_id":"levelo_inurba_marseille","lat":43.32339,"lon":5.40633,"is_reserved":false,"is_disabled":false,"rental_uris":{"android":"levelo://app?vid=24ffca99-e2d2-4c79-9689-029e204b116d","ios":"levelo://app?vid=24ffca99-e2d2-4c79-9689-029e204b116d"},"vehicle_type_id":"4","last_reported":1740582646,"current_range_meters":9600,"station_id":"ce4bhq92rcd13ifvqhjg","pricing_plan_id":"cebpf4jnsgd1na2vs0mg"},{"bike_id":"7c9cd80a-e5de-4f68-bca0-c6fc876262c6","system_id":"levelo_inurba_marseille","lat":43.2837,"lon":5.3865,"is_reserved":false,"is_disabled":false,"rental_uris":{"android":"levelo://app?vid=7c9cd80a-e5de-4f68-bca0-c6fc876262c6","ios":"levelo://app?vid=7c9cd80a-e5de-4f68-bca0-c6fc876262c6"},"vehicle_type_id":"4","last_reported":1740582646,"current_range_meters":9600,"station_id":"ce4bh492rcd13ifvqdvg","pricing_plan_id":"cebpf4jnsgd1na2vs0mg"},{"bike_id":"ea630c8a-0ecd-4bee-b693-0df46eb3303f","system_id":"levelo_inurba_marseille","lat":43.30904,"lon":5.40125,"is_reserved":false,"is_disabled":false,"rental_uris":{"android":"levelo://app?vid=ea630c8a-0ecd-4bee-b693-0df46eb3303f","ios":"levelo://app?vid=ea630c8a-0ecd-4bee-b693-0df46eb3303f"},"vehicle_type_id":"4","last_reported":1740582646,"current_range_meters":10000,"station_id":"ce4bgvp2rcd13ifvqct0","pricing_plan_id":"cebpf4jnsgd1na2vs0mg"},{"bike_id":"261556eb-c6ed-4781-a967-bc98c917e52c","system_id":"levelo_inurba_marseille","lat":43.24177,"lon":5.39734,"is_reserved":false,"is_disabled":false,"rental_uris":{"android":"levelo://app?vid=261556eb-c6ed-4781-a967-bc98c917e52c","ios":"levelo://app?vid=261556eb-c6ed-4781-a967-bc98c917e52c"},"vehicle_type_id":"4","last_reported":1740582646,"current_range_meters":10000,"station_id":"ce4bhn12rcd13ifvqgpg","pricing_plan_id":"cebpf4jnsgd1na2vs0mg"},{"bike_id":"c38518e4-dee8-4f2a-a5a0-8e7730d73a3e","system_id":"levelo_inurba_marseille","lat":43.28679,"lon":5.3866,"is_reserved":false,"is_disabled":false,"rental_uris":{"android":"levelo://app?vid=c38518e4-dee8-4f2a-a5a0-8e7730d73a3e","ios":"levelo://app?vid=c38518e4-dee8-4f2a-a5a0-8e7730d73a3e"},"vehicle_type_id":"4","last_reported":1740582646,"current_range_meters":10000,"station_id":"ce4bh492rcd13ifvqdug","pricing_plan_id":"cebpf4jnsgd1na2vs0mg"},{"bike_id":"76d0ad16-3a89-42d8-9d5f-bbec859edad8","system_id":"levelo_inurba_marseille","lat":43.268068,"lon":5.402739,"is_reserved":false,"is_disabled":false,"rental_uris":{"android":"levelo://app?vid=76d0ad16-3a89-42d8-9d5f-bbec859edad8","ios":"levelo://app?vid=76d0ad16-3a89-42d8-9d5f-bbec859edad8"},"vehicle_type_id":"4","last_reported":1740582646,"current_range_meters":12800,"station_id":"ce4bhh12rcd13ifvqfg0","pricing_plan_id":"cebpf4jnsgd1na2vs0mg"},{"bike_id":"c42ca25a-3dec-456c-8621-0eed123349b3","system_id":"levelo_inurba_marseille","lat":43.30906,"lon":5.36867,"is_reserved":false,"is_disabled":false,"rental_uris":{"android":"levelo://app?vid=c42ca25a-3dec-456c-8621-0eed123349b3","ios":"levelo://app?vid=c42ca25a-3dec-456c-8621-0eed123349b3"},"vehicle_type_id":"4","last_reported":1740582646,"current_range_meters":10800,"station_id":"ce4bgn92rcd13ifvqbvg","pricing_plan_id":"cebpf4jnsgd1na2vs0mg"},{"bike_id":"67ee95a1-160f-49c1-b11e-b3640680cd0d","system_id":"levelo_inurba_marseille","lat":43.32082,"lon":5.36762,"is_reserved":false,"is_disabled":false,"rental_uris":{"android":"levelo://app?vid=67ee95a1-160f-49c1-b11e-b3640680cd0d","ios":"levelo://app?vid=67ee95a1-160f-49c1-b11e-b3640680cd0d"},"vehicle_type_id":"4","last_reported":1740582646,"current_range_meters":10800,"station_id":"ce4bhrh2rcd13ifvqhug","pricing_plan_id":"cebpf4jnsgd1na2vs0mg"},{"bike_id":"cdf503d0-4d7e-4370-9932-0f04e46cae0c","system_id":"levelo_inurba_marseille","lat":43.29539,"lon":5.394,"is_reserved":false,"is_disabled":false,"rental_uris":{"android":"levelo://app?vid=cdf503d0-4d7e-4370-9932-0f04e46cae0c","ios":"levelo://app?vid=cdf503d0-4d7e-4370-9932-0f04e46cae0c"},"vehicle_type_id":"4","last_reported":1740582646,"current_range_meters":10800,"station_id":"ce4bh292rcd13ifvqdf0","pricing_plan_id":"cebpf4jnsgd1na2vs0mg"},{"bike_id":"52832f17-343d-4a4b-8f6f-f4e9f87b0780","system_id":"levelo_inurba_marseille","lat":43.30411,"lon":5.41282,"is_reserved":false,"is_disabled":false,"rental_uris":{"android":"levelo://app?vid=52832f17-343d-4a4b-8f6f-f4e9f87b0780","ios":"levelo://app?vid=52832f17-343d-4a4b-8f6f-f4e9f87b0780"},"vehicle_type_id":"4","last_reported":1740582646,"current_range_meters":11200,"station_id":"ce4bhop2rcd13ifvqh8g","pricing_plan_id":"cebpf4jnsgd1na2vs0mg"},{"bike_id":"892ec2a1-329c-4584-aeed-ad1895bfe3e4","system_id":"levelo_inurba_marseille","lat":43.26558,"lon":5.37308,"is_reserved":false,"is_disabled":false,"rental_uris":{"android":"levelo://app?vid=892ec2a1-329c-4584-aeed-ad1895bfe3e4","ios":"levelo://app?vid=892ec2a1-329c-4584-aeed-ad1895bfe3e4"},"vehicle_type_id":"4","last_reported":1740582646,"current_range_meters":11200,"station_id":"ce4bhg12rcd13ifvqf70","pricing_plan_id":"cebpf4jnsgd1na2vs0mg"},{"bike_id":"20132499-f943-43f1-bf1c-75f3193c87fe","system_id":"levelo_inurba_marseille","lat":43.29037,"lon":5.37582,"is_reserved":false,"is_disabled":false,"rental_uris":{"android":"levelo://app?vid=20132499-f943-43f1-bf1c-75f3193c87fe","ios":"levelo://app?vid=20132499-f943-43f1-bf1c-75f3193c87fe"},"vehicle_type_id":"4","last_reported":1740582646,"current_range_meters":10800,"station_id":"ce4bh692rcd13ifvqe90","pricing_plan_id":"cebpf4jnsgd1na2vs0mg"},{"bike_id":"16ac3761-a368-46a1-8cb4-8428c6a9eca0","system_id":"levelo_inurba_marseille","lat":43.29027,"lon":5.38633,"is_reserved":false,"is_disabled":false,"rental_uris":{"android":"levelo://app?vid=16ac3761-a368-46a1-8cb4-8428c6a9eca0","ios":"levelo://app?vid=16ac3761-a368-46a1-8cb4-8428c6a9eca0"},"vehicle_type_id":"4","last_reported":1740582646,"current_range_meters":14400,"station_id":"ce4bh4p2rcd13ifvqe0g","pricing_plan_id":"cebpf4jnsgd1na2vs0mg"},{"bike_id":"1d70c622-10e8-4a33-8612-a7dc67991c51","system_id":"levelo_inurba_marseille","lat":43.31694,"lon":5.37747,"is_reserved":false,"is_disabled":false,"rental_uris":{"android":"levelo://app?vid=1d70c622-10e8-4a33-8612-a7dc67991c51","ios":"levelo://app?vid=1d70c622-10e8-4a33-8612-a7dc67991c51"},"vehicle_type_id":"4","last_reported":1740582646,"current_range_meters":11200,"station_id":"ce4bgth2rcd13ifvqch0","pricing_plan_id":"cebpf4jnsgd1na2vs0mg"},{"bike_id":"193f04b0-07b1-4f3e-b609-5fd028a89805","system_id":"levelo_inurba_marseille","lat":43.27392,"lon":5.36264,"is_reserved":false,"is_disabled":false,"rental_uris":{"android":"levelo://app?vid=193f04b0-07b1-4f3e-b609-5fd028a89805","ios":"levelo://app?vid=193f04b0-07b1-4f3e-b609-5fd028a89805"},"vehicle_type_id":"4","last_reported":1740582646,"current_range_meters":11200,"station_id":"ce4bhbh2rcd13ifvqeo0","pricing_plan_id":"cebpf4jnsgd1na2vs0mg"},{"bike_id":"c7fc1717-ae83-4928-be42-41531f692f76","system_id":"levelo_inurba_marseille","lat":43.29917,"lon":5.37478,"is_reserved":false,"is_disabled":false,"rental_uris":{"android":"levelo://app?vid=c7fc1717-ae83-4928-be42-41531f692f76","ios":"levelo://app?vid=c7fc1717-ae83-4928-be42-41531f692f76"},"vehicle_type_id":"4","last_reported":1740582646,"current_range_meters":11200,"station_id":"ce4bgjh2rcd13ifvqbg0","pricing_plan_id":"cebpf4jnsgd1na2vs0mg"},{"bike_id":"9f99fda2-839d-4f7c-a2e7-bf2872bc518d","system_id":"levelo_inurba_marseille","lat":43.337444,"lon":5.374475,"is_reserved":false,"is_disabled":false,"rental_uris":{"android":"levelo://app?vid=9f99fda2-839d-4f7c-a2e7-bf2872bc518d","ios":"levelo://app?vid=9f99fda2-839d-4f7c-a2e7-bf2872bc518d"},"vehicle_type_id":"4","last_reported":1740582646,"current_range_meters":11200,"station_id":"","pricing_plan_id":"cebpf4jnsgd1na2vs0mg"},{"bike_id":"df2b6808-8c0d-4f30-9be3-8afa5e31f82f","system_id":"levelo_inurba_marseille","lat":43.30889,"lon":5.3966,"is_reserved":false,"is_disabled":false,"rental_uris":{"android":"levelo://app?vid=df2b6808-8c0d-4f30-9be3-8afa5e31f82f","ios":"levelo://app?vid=df2b6808-8c0d-4f30-9be3-8afa5e31f82f"},"vehicle_type_id":"4","last_reported":1740582646,"current_range_meters":11200,"station_id":"ce4bh012rcd13ifvqcv0","pricing_plan_id":"cebpf4jnsgd1na2vs0mg"},{"bike_id":"fbf57c03-d28d-42a2-b2f9-c2b79921a987","system_id":"levelo_inurba_marseille","lat":43.28968,"lon":5.37835,"is_reserved":false,"is_disabled":false,"rental_uris":{"android":"levelo://app?vid=fbf57c03-d28d-42a2-b2f9-c2b79921a987","ios":"levelo://app?vid=fbf57c03-d28d-42a2-b2f9-c2b79921a987"},"vehicle_type_id":"4","last_reported":1740582646,"current_range_meters":10000,"station_id":"ce4bh9p2rcd13ifvqed0","pricing_plan_id":"cebpf4jnsgd1na2vs0mg"},{"bike_id":"a575f4dc-276f-4f6f-bc4c-8972fb7f85cb","system_id":"levelo_inurba_marseille","lat":43.25821,"lon":5.39437,"is_reserved":false,"is_disabled":false,"rental_uris":{"android":"levelo://app?vid=a575f4dc-276f-4f6f-bc4c-8972fb7f85cb","ios":"levelo://app?vid=a575f4dc-276f-4f6f-bc4c-8972fb7f85cb"},"vehicle_type_id":"4","last_reported":1740582646,"current_range_meters":11600,"station_id":"ce4bhip2rcd13ifvqft0","pricing_plan_id":"cebpf4jnsgd1na2vs0mg"},{"bike_id":"763b0198-834c-4f4a-902d-698b7b01f999","system_id":"levelo_inurba_marseille","lat":43.30875,"lon":5.39657,"is_reserved":false,"is_disabled":false,"rental_uris":{"android":"levelo://app?vid=763b0198-834c-4f4a-902d-698b7b01f999","ios":"levelo://app?vid=763b0198-834c-4f4a-902d-698b7b01f999"},"vehicle_type_id":"4","last_reported":1740582646,"current_range_meters":12000,"station_id":"ce4bh012rcd13ifvqcv0","pricing_plan_id":"cebpf4jnsgd1na2vs0mg"},{"bike_id":"2a278e2d-3600-4f30-a662-852fdca7d5a9","system_id":"levelo_inurba_marseille","lat":43.30555,"lon":5.36557,"is_reserved":false,"is_disabled":false,"rental_uris":{"android":"levelo://app?vid=2a278e2d-3600-4f30-a662-852fdca7d5a9","ios":"levelo://app?vid=2a278e2d-3600-4f30-a662-852fdca7d5a9"},"vehicle_type_id":"4","last_reported":1740582646,"current_range_meters":11200,"station_id":"ce4bgs12rcd13ifvqcag","pricing_plan_id":"cebpf4jnsgd1na2vs0mg"},{"bike_id":"52a02ec7-8e0c-4781-ae9b-a63b7edaabaf","system_id":"levelo_inurba_marseille","lat":43.28273,"lon":5.35054,"is_reserved":false,"is_disabled":false,"rental_uris":{"android":"levelo://app?vid=52a02ec7-8e0c-4781-ae9b-a63b7edaabaf","ios":"levelo://app?vid=52a02ec7-8e0c-4781-ae9b-a63b7edaabaf"},"vehicle_type_id":"4","last_reported":1740582646,"current_range_meters":11600,"station_id":"ce4bhbp2rcd13ifvqerg","pricing_plan_id":"cebpf4jnsgd1na2vs0mg"},{"bike_id":"634b0db3-eb2a-44d3-b72b-43fb39e98206","system_id":"levelo_inurba_marseille","lat":43.28698,"lon":5.37395,"is_reserved":false,"is_disabled":false,"rental_uris":{"android":"levelo://app?vid=634b0db3-eb2a-44d3-b72b-43fb39e98206","ios":"levelo://app?vid=634b0db3-eb2a-44d3-b72b-43fb39e98206"},"vehicle_type_id":"4","last_reported":1740582646,"current_range_meters":11600,"station_id":"ce4bh3p2rcd13ifvqdq0","pricing_plan_id":"cebpf4jnsgd1na2vs0mg"},{"bike_id":"587e219c-397e-4771-a64f-cd811a3cc087","system_id":"levelo_inurba_marseille","lat":43.32489,"lon":5.36569,"is_reserved":false,"is_disabled":false,"rental_uris":{"android":"levelo://app?vid=587e219c-397e-4771-a64f-cd811a3cc087","ios":"levelo://app?vid=587e219c-397e-4771-a64f-cd811a3cc087"},"vehicle_type_id":"4","last_reported":1740582646,"current_range_meters":11600,"station_id":"ce4bhs12rcd13ifvqhvg","pricing_plan_id":"cebpf4jnsgd1na2vs0mg"},{"bike_id":"f9eed1e4-1895-44e2-8624-cc9551693ed5","system_id":"levelo_inurba_marseille","lat":43.29742,"lon":5.36348,"is_reserved":false,"is_disabled":false,"rental_uris":{"android":"levelo://app?vid=f9eed1e4-1895-44e2-8624-cc9551693ed5","ios":"levelo://app?vid=f9eed1e4-1895-44e2-8624-cc9551693ed5"},"vehicle_type_id":"4","last_reported":1740582646,"current_range_meters":12400,"station_id":"ce4bgpp2rcd13ifvqc3g","pricing_plan_id":"cebpf4jnsgd1na2vs0mg"},{"bike_id":"d5ef1571-c6b9-4f13-96ed-bfaef3f9a56f","system_id":"levelo_inurba_marseille","lat":43.28953,"lon":5.36413,"is_reserved":false,"is_disabled":false,"rental_uris":{"android":"levelo://app?vid=d5ef1571-c6b9-4f13-96ed-bfaef3f9a56f","ios":"levelo://app?vid=d5ef1571-c6b9-4f13-96ed-bfaef3f9a56f"},"vehicle_type_id":"4","last_reported":1740582646,"current_range_meters":12400,"station_id":"ce4bhc92rcd13ifvqetg","pricing_plan_id":"cebpf4jnsgd1na2vs0mg"},{"bike_id":"65e8f8dd-53e2-4729-b441-c5d9a0776539","system_id":"levelo_inurba_marseille","lat":43.31453,"lon":5.37392,"is_reserved":false,"is_disabled":false,"rental_uris":{"android":"levelo://app?vid=65e8f8dd-53e2-4729-b441-c5d9a0776539","ios":"levelo://app?vid=65e8f8dd-53e2-4729-b441-c5d9a0776539"},"vehicle_type_id":"4","last_reported":1740582646,"current_range_meters":12000,"station_id":"","pricing_plan_id":"cebpf4jnsgd1na2vs0mg"},{"bike_id":"8ae38a21-09ad-49a1-8c16-292e0aa682e5","system_id":"levelo_inurba_marseille","lat":43.23676,"lon":5.39761,"is_reserved":false,"is_disabled":false,"rental_uris":{"android":"levelo://app?vid=8ae38a21-09ad-49a1-8c16-292e0aa682e5","ios":"levelo://app?vid=8ae38a21-09ad-49a1-8c16-292e0aa682e5"},"vehicle_type_id":"4","last_reported":1740582646,"current_range_meters":12400,"station_id":"ce4bhn12rcd13ifvqgqg","pricing_plan_id":"cebpf4jnsgd1na2vs0mg"},{"bike_id":"034e909b-6d4a-4a74-addc-217452f2e143","system_id":"levelo_inurba_marseille","lat":43.27941,"lon":5.41026,"is_reserved":false,"is_disabled":false,"rental_uris":{"android":"levelo://app?vid=034e909b-6d4a-4a74-addc-217452f2e143","ios":"levelo://app?vid=034e909b-6d4a-4a74-addc-217452f2e143"},"vehicle_type_id":"4","last_reported":1740582646,"current_range_meters":9600,"station_id":"ce4bhnp2rcd13ifvqh0g","pricing_plan_id":"cebpf4jnsgd1na2vs0mg"},{"bike_id":"0f6fc01f-ccb5-4e68-9e48-47ab104d6823","system_id":"levelo_inurba_marseille","lat":43.31241,"lon":5.36887,"is_reserved":false,"is_disabled":false,"rental_uris":{"android":"levelo://app?vid=0f6fc01f-ccb5-4e68-9e48-47ab104d6823","ios":"levelo://app?vid=0f6fc01f-ccb5-4e68-9e48-47ab104d6823"},"vehicle_type_id":"4","last_reported":1740582646,"current_range_meters":12400,"station_id":"ce4bgl92rcd13ifvqbq0","pricing_plan_id":"cebpf4jnsgd1na2vs0mg"},{"bike_id":"e1b9b2d7-1dac-4c61-95d3-32a81de29d5a","system_id":"levelo_inurba_marseille","lat":43.2587,"lon":5.39906,"is_reserved":false,"is_disabled":false,"rental_uris":{"android":"levelo://app?vid=e1b9b2d7-1dac-4c61-95d3-32a81de29d5a","ios":"levelo://app?vid=e1b9b2d7-1dac-4c61-95d3-32a81de29d5a"},"vehicle_type_id":"4","last_reported":1740582646,"current_range_meters":10800,"station_id":"ce4bhl92rcd13ifvqghg","pricing_plan_id":"cebpf4jnsgd1na2vs0mg"},{"bike_id":"511df7e7-1330-4159-bb5d-325216084662","system_id":"levelo_inurba_marseille","lat":43.26561,"lon":5.37304,"is_reserved":false,"is_disabled":false,"rental_uris":{"android":"levelo://app?vid=511df7e7-1330-4159-bb5d-325216084662","ios":"levelo://app?vid=511df7e7-1330-4159-bb5d-325216084662"},"vehicle_type_id":"4","last_reported":1740582646,"current_range_meters":12800,"station_id":"ce4bhg12rcd13ifvqf70","pricing_plan_id":"cebpf4jnsgd1na2vs0mg"},{"bike_id":"86b43e3a-ca58-476f-ad09-ef822f8704e3","system_id":"levelo_inurba_marseille","lat":43.30876,"lon":5.39621,"is_reserved":false,"is_disabled":false,"rental_uris":{"android":"levelo://app?vid=86b43e3a-ca58-476f-ad09-ef822f8704e3","ios":"levelo://app?vid=86b43e3a-ca58-476f-ad09-ef822f8704e3"},"vehicle_type_id":"4","last_reported":1740582646,"current_range_meters":12400,"station_id":"ce4bh012rcd13ifvqcv0","pricing_plan_id":"cebpf4jnsgd1na2vs0mg"},{"bike_id":"1f0b0ac7-40ed-42e1-a3f9-07ab1e9ab968","system_id":"levelo_inurba_marseille","lat":43.31887,"lon":5.40741,"is_reserved":false,"is_disabled":false,"rental_uris":{"android":"levelo://app?vid=1f0b0ac7-40ed-42e1-a3f9-07ab1e9ab968","ios":"levelo://app?vid=1f0b0ac7-40ed-42e1-a3f9-07ab1e9ab968"},"vehicle_type_id":"4","last_reported":1740582646,"current_range_meters":12400,"station_id":"ce4bhq12rcd13ifvqhig","pricing_plan_id":"cebpf4jnsgd1na2vs0mg"},{"bike_id":"13560646-f013-40a9-b493-91092ab4ee6c","system_id":"levelo_inurba_marseille","lat":43.28106,"lon":5.37839,"is_reserved":false,"is_disabled":false,"rental_uris":{"android":"levelo://app?vid=13560646-f013-40a9-b493-91092ab4ee6c","ios":"levelo://app?vid=13560646-f013-40a9-b493-91092ab4ee6c"},"vehicle_type_id":"4","last_reported":1740582646,"current_range_meters":12400,"station_id":"ce4bha12rcd13ifvqee0","pricing_plan_id":"cebpf4jnsgd1na2vs0mg"},{"bike_id":"6940e499-5859-4aac-8654-0974e849c16a","system_id":"levelo_inurba_marseille","lat":43.2707,"lon":5.42284,"is_reserved":false,"is_disabled":false,"rental_uris":{"android":"levelo://app?vid=6940e499-5859-4aac-8654-0974e849c16a","ios":"levelo://app?vid=6940e499-5859-4aac-8654-0974e849c16a"},"vehicle_type_id":"4","last_reported":1740582646,"current_range_meters":12400,"station_id":"ce4bhk92rcd13ifvqgb0","pricing_plan_id":"cebpf4jnsgd1na2vs0mg"},{"bike_id":"db2cbc37-f416-4cee-89d9-c6fa5d4bc6d8","system_id":"levelo_inurba_marseille","lat":43.29258,"lon":5.37622,"is_reserved":false,"is_disabled":false,"rental_uris":{"android":"levelo://app?vid=db2cbc37-f416-4cee-89d9-c6fa5d4bc6d8","ios":"levelo://app?vid=db2cbc37-f416-4cee-89d9-c6fa5d4bc6d8"},"vehicle_type_id":"4","last_reported":1740582646,"current_range_meters":12800,"station_id":"ce4bgi12rcd13ifvqb80","pricing_plan_id":"cebpf4jnsgd1na2vs0mg"},{"bike_id":"ad9571bc-5194-4f71-90ef-f1cb0835f36e","system_id":"levelo_inurba_marseille","lat":43.254944,"lon":5.37655,"is_reserved":false,"is_disabled":false,"rental_uris":{"android":"levelo://app?vid=ad9571bc-5194-4f71-90ef-f1cb0835f36e","ios":"levelo://app?vid=ad9571bc-5194-4f71-90ef-f1cb0835f36e"},"vehicle_type_id":"4","last_reported":1740582646,"current_range_meters":13600,"station_id":"ce4bhh12rcd13ifvqff0","pricing_plan_id":"cebpf4jnsgd1na2vs0mg"},{"bike_id":"03b5c3b0-159f-4ee9-945f-c6a64af3eb2e","system_id":"levelo_inurba_marseille","lat":43.28414,"lon":5.37524,"is_reserved":false,"is_disabled":false,"rental_uris":{"android":"levelo://app?vid=03b5c3b0-159f-4ee9-945f-c6a64af3eb2e","ios":"levelo://app?vid=03b5c3b0-159f-4ee9-945f-c6a64af3eb2e"},"vehicle_type_id":"4","last_reported":1740582646,"current_range_meters":12800,"station_id":"ce4bh412rcd13ifvqds0","pricing_plan_id":"cebpf4jnsgd1na2vs0mg"},{"bike_id":"37aee153-09c2-4cb5-bdbc-6e60b24fb2d2","system_id":"levelo_inurba_marseille","lat":43.292,"lon":5.35804,"is_reserved":false,"is_disabled":false,"rental_uris":{"android":"levelo://app?vid=37aee153-09c2-4cb5-bdbc-6e60b24fb2d2","ios":"levelo://app?vid=37aee153-09c2-4cb5-bdbc-6e60b24fb2d2"},"vehicle_type_id":"4","last_reported":1740582646,"current_range_meters":12800,"station_id":"ce4bhb12rcd13ifvqel0","pricing_plan_id":"cebpf4jnsgd1na2vs0mg"},{"bike_id":"6719687d-cbd8-4848-961c-fcb2135a434c","system_id":"levelo_inurba_marseille","lat":43.30433,"lon":5.38894,"is_reserved":false,"is_disabled":false,"rental_uris":{"android":"levelo://app?vid=6719687d-cbd8-4848-961c-fcb2135a434c","ios":"levelo://app?vid=6719687d-cbd8-4848-961c-fcb2135a434c"},"vehicle_type_id":"4","last_reported":1740582646,"current_range_meters":12800,"station_id":"ce4bgk12rcd13ifvqbi0","pricing_plan_id":"cebpf4jnsgd1na2vs0mg"},{"bike_id":"9a6f21ab-00ab-4659-a64f-a05d55d80f27","system_id":"levelo_inurba_marseille","lat":43.23145,"lon":5.43721,"is_reserved":false,"is_disabled":false,"rental_uris":{"android":"levelo://app?vid=9a6f21ab-00ab-4659-a64f-a05d55d80f27","ios":"levelo://app?vid=9a6f21ab-00ab-4659-a64f-a05d55d80f27"},"vehicle_type_id":"4","last_reported":1740582646,"current_range_meters":11200,"station_id":"ce4bhmp2rcd13ifvqgog","pricing_plan_id":"cebpf4jnsgd1na2vs0mg"},{"bike_id":"4d9278da-8984-4f0f-96a4-1910c7929870","system_id":"levelo_inurba_marseille","lat":43.25749,"lon":5.41108,"is_reserved":false,"is_disabled":false,"rental_uris":{"android":"levelo://app?vid=4d9278da-8984-4f0f-96a4-1910c7929870","ios":"levelo://app?vid=4d9278da-8984-4f0f-96a4-1910c7929870"},"vehicle_type_id":"4","last_reported":1740582646,"current_range_meters":13600,"station_id":"ce4bhkp2rcd13ifvqgd0","pricing_plan_id":"cebpf4jnsgd1na2vs0mg"},{"bike_id":"e47fdc11-0c86-4e0d-86ce-22618637b918","system_id":"levelo_inurba_marseille","lat":43.27813,"lon":5.40711,"is_reserved":false,"is_disabled":false,"rental_uris":{"android":"levelo://app?vid=e47fdc11-0c86-4e0d-86ce-22618637b918","ios":"levelo://app?vid=e47fdc11-0c86-4e0d-86ce-22618637b918"},"vehicle_type_id":"4","last_reported":1740582646,"current_range_meters":13600,"station_id":"ce4bhnh2rcd13ifvqgtg","pricing_plan_id":"cebpf4jnsgd1na2vs0mg"},{"bike_id":"1ca5b1d5-5a53-46dd-b1b2-e83fd71df428","system_id":"levelo_inurba_marseille","lat":43.27948,"lon":5.41062,"is_reserved":false,"is_disabled":false,"rental_uris":{"android":"levelo://app?vid=1ca5b1d5-5a53-46dd-b1b2-e83fd71df428","ios":"levelo://app?vid=1ca5b1d5-5a53-46dd-b1b2-e83fd71df428"},"vehicle_type_id":"4","last_reported":1740582646,"current_range_meters":14000,"station_id":"ce4bhnp2rcd13ifvqh0g","pricing_plan_id":"cebpf4jnsgd1na2vs0mg"},{"bike_id":"7266af47-e9f0-4e43-bba1-095ebf3818bf","system_id":"levelo_inurba_marseille","lat":43.25073,"lon":5.39533,"is_reserved":false,"is_disabled":false,"rental_uris":{"android":"levelo://app?vid=7266af47-e9f0-4e43-bba1-095ebf3818bf","ios":"levelo://app?vid=7266af47-e9f0-4e43-bba1-095ebf3818bf"},"vehicle_type_id":"4","last_reported":1740582646,"current_range_meters":13600,"station_id":"ce4bhm12rcd13ifvqgkg","pricing_plan_id":"cebpf4jnsgd1na2vs0mg"},{"bike_id":"7a2b86f5-72ed-4aa5-9744-b2308e37cec7","system_id":"levelo_inurba_marseille","lat":43.2827,"lon":5.35073,"is_reserved":false,"is_disabled":false,"rental_uris":{"android":"levelo://app?vid=7a2b86f5-72ed-4aa5-9744-b2308e37cec7","ios":"levelo://app?vid=7a2b86f5-72ed-4aa5-9744-b2308e37cec7"},"vehicle_type_id":"4","last_reported":1740582646,"current_range_meters":14000,"station_id":"ce4bhbp2rcd13ifvqerg","pricing_plan_id":"cebpf4jnsgd1na2vs0mg"},{"bike_id":"556f960b-c033-4485-a59d-87e7e7ecb70b","system_id":"levelo_inurba_marseille","lat":43.3112,"lon":5.37775,"is_reserved":false,"is_disabled":false,"rental_uris":{"android":"levelo://app?vid=556f960b-c033-4485-a59d-87e7e7ecb70b","ios":"levelo://app?vid=556f960b-c033-4485-a59d-87e7e7ecb70b"},"vehicle_type_id":"4","last_reported":1740582646,"current_range_meters":14000,"station_id":"ce4bgt92rcd13ifvqcg0","pricing_plan_id":"cebpf4jnsgd1na2vs0mg"},{"bike_id":"0beaff76-64ec-4a78-9af0-223853874867","system_id":"levelo_inurba_marseille","lat":43.3128,"lon":5.40168,"is_reserved":false,"is_disabled":false,"rental_uris":{"android":"levelo://app?vid=0beaff76-64ec-4a78-9af0-223853874867","ios":"levelo://app?vid=0beaff76-64ec-4a78-9af0-223853874867"},"vehicle_type_id":"4","last_reported":1740582646,"current_range_meters":12800,"station_id":"ce4bh092rcd13ifvqd30","pricing_plan_id":"cebpf4jnsgd1na2vs0mg"},{"bike_id":"f66913d8-adc8-4497-b81a-8613461ae8a9","system_id":"levelo_inurba_marseille","lat":43.28412,"lon":5.34992,"is_reserved":false,"is_disabled":false,"rental_uris":{"android":"levelo://app?vid=f66913d8-adc8-4497-b81a-8613461ae8a9","ios":"levelo://app?vid=f66913d8-adc8-4497-b81a-8613461ae8a9"},"vehicle_type_id":"4","last_reported":1740582646,"current_range_meters":14000,"station_id":"ce4bhbh2rcd13ifvqepg","pricing_plan_id":"cebpf4jnsgd1na2vs0mg"},{"bike_id":"05d3ed84-27f8-4bce-9877-c99295e35460","system_id":"levelo_inurba_marseille","lat":43.23153,"lon":5.43712,"is_reserved":false,"is_disabled":false,"rental_uris":{"android":"levelo://app?vid=05d3ed84-27f8-4bce-9877-c99295e35460","ios":"levelo://app?vid=05d3ed84-27f8-4bce-9877-c99295e35460"},"vehicle_type_id":"4","last_reported":1740582646,"current_range_meters":14000,"station_id":"ce4bhmp2rcd13ifvqgog","pricing_plan_id":"cebpf4jnsgd1na2vs0mg"},{"bike_id":"620faf8f-9860-4e84-b6cd-4559a0b9a89c","system_id":"levelo_inurba_marseille","lat":43.324895,"lon":5.365435,"is_reserved":false,"is_disabled":false,"rental_uris":{"android":"levelo://app?vid=620faf8f-9860-4e84-b6cd-4559a0b9a89c","ios":"levelo://app?vid=620faf8f-9860-4e84-b6cd-4559a0b9a89c"},"vehicle_type_id":"4","last_reported":1740582646,"current_range_meters":14000,"station_id":"ce4bhs12rcd13ifvqhvg","pricing_plan_id":"cebpf4jnsgd1na2vs0mg"},{"bike_id":"b8d6e10f-b148-4d4d-a56d-3e45e8f3a105","system_id":"levelo_inurba_marseille","lat":43.27566,"lon":5.38425,"is_reserved":false,"is_disabled":false,"rental_uris":{"android":"levelo://app?vid=b8d6e10f-b148-4d4d-a56d-3e45e8f3a105","ios":"levelo://app?vid=b8d6e10f-b148-4d4d-a56d-3e45e8f3a105"},"vehicle_type_id":"4","last_reported":1740582646,"current_range_meters":14000,"station_id":"ce4bhh92rcd13ifvqfi0","pricing_plan_id":"cebpf4jnsgd1na2vs0mg"},{"bike_id":"98b238a9-4025-493e-bfff-4f030bc1db49","system_id":"levelo_inurba_marseille","lat":43.30882,"lon":5.39636,"is_reserved":false,"is_disabled":false,"rental_uris":{"android":"levelo://app?vid=98b238a9-4025-493e-bfff-4f030bc1db49","ios":"levelo://app?vid=98b238a9-4025-493e-bfff-4f030bc1db49"},"vehicle_type_id":"4","last_reported":1740582646,"current_range_meters":9200,"station_id":"ce4bh012rcd13ifvqcv0","pricing_plan_id":"cebpf4jnsgd1na2vs0mg"},{"bike_id":"0f5d1a92-87a8-4843-bec2-bc31d71d0645","system_id":"levelo_inurba_marseille","lat":43.29271,"lon":5.36842,"is_reserved":false,"is_disabled":false,"rental_uris":{"android":"levelo://app?vid=0f5d1a92-87a8-4843-bec2-bc31d71d0645","ios":"levelo://app?vid=0f5d1a92-87a8-4843-bec2-bc31d71d0645"},"vehicle_type_id":"4","last_reported":1740582646,"current_range_meters":16000,"station_id":"ce4bhbp2rcd13ifvqesg","pricing_plan_id":"cebpf4jnsgd1na2vs0mg"},{"bike_id":"7f4ed1cf-ef17-4daf-b99f-7449676a892e","system_id":"levelo_inurba_marseille","lat":43.307846,"lon":5.376522,"is_reserved":false,"is_disabled":false,"rental_uris":{"android":"levelo://app?vid=7f4ed1cf-ef17-4daf-b99f-7449676a892e","ios":"levelo://app?vid=7f4ed1cf-ef17-4daf-b99f-7449676a892e"},"vehicle_type_id":"4","last_reported":1740582646,"current_range_meters":14400,"station_id":"ce4bgv92rcd13ifvqcq0","pricing_plan_id":"cebpf4jnsgd1na2vs0mg"},{"bike_id":"c5831f83-617a-4c44-b01b-5e23dfdc9298","system_id":"levelo_inurba_marseille","lat":43.26804,"lon":5.39447,"is_reserved":false,"is_disabled":false,"rental_uris":{"android":"levelo://app?vid=c5831f83-617a-4c44-b01b-5e23dfdc9298","ios":"levelo://app?vid=c5831f83-617a-4c44-b01b-5e23dfdc9298"},"vehicle_type_id":"4","last_reported":1740582646,"current_range_meters":14400,"station_id":"ce4bhh12rcd13ifvqfg0","pricing_plan_id":"cebpf4jnsgd1na2vs0mg"},{"bike_id":"4a102dfb-c6f3-43a4-808d-a3375535866f","system_id":"levelo_inurba_marseille","lat":43.30307,"lon":5.36892,"is_reserved":false,"is_disabled":false,"rental_uris":{"android":"levelo://app?vid=4a102dfb-c6f3-43a4-808d-a3375535866f","ios":"levelo://app?vid=4a102dfb-c6f3-43a4-808d-a3375535866f"},"vehicle_type_id":"4","last_reported":1740582646,"current_range_meters":14400,"station_id":"ce4bgqh2rcd13ifvqc5g","pricing_plan_id":"cebpf4jnsgd1na2vs0mg"},{"bike_id":"be910cb0-759b-4ba8-a8f3-163c41712da7","system_id":"levelo_inurba_marseille","lat":43.30533,"lon":5.36539,"is_reserved":false,"is_disabled":false,"rental_uris":{"android":"levelo://app?vid=be910cb0-759b-4ba8-a8f3-163c41712da7","ios":"levelo://app?vid=be910cb0-759b-4ba8-a8f3-163c41712da7"},"vehicle_type_id":"4","last_reported":1740582646,"current_range_meters":14000,"station_id":"ce4bgs12rcd13ifvqcag","pricing_plan_id":"cebpf4jnsgd1na2vs0mg"},{"bike_id":"9dc7e2d5-119c-4c57-96cd-7fcca21c9c6c","system_id":"levelo_inurba_marseille","lat":43.32493,"lon":5.36598,"is_reserved":false,"is_disabled":false,"rental_uris":{"android":"levelo://app?vid=9dc7e2d5-119c-4c57-96cd-7fcca21c9c6c","ios":"levelo://app?vid=9dc7e2d5-119c-4c57-96cd-7fcca21c9c6c"},"vehicle_type_id":"4","last_reported":1740582646,"current_range_meters":14400,"station_id":"ce4bhs12rcd13ifvqhvg","pricing_plan_id":"cebpf4jnsgd1na2vs0mg"},{"bike_id":"078382ff-a366-446f-9da3-27c510b60719","system_id":"levelo_inurba_marseille","lat":43.29589,"lon":5.39978,"is_reserved":false,"is_disabled":false,"rental_uris":{"android":"levelo://app?vid=078382ff-a366-446f-9da3-27c510b60719","ios":"levelo://app?vid=078382ff-a366-446f-9da3-27c510b60719"},"vehicle_type_id":"4","last_reported":1740582646,"current_range_meters":14400,"station_id":"ce4bh312rcd13ifvqdj0","pricing_plan_id":"cebpf4jnsgd1na2vs0mg"},{"bike_id":"19e4983d-b74d-4524-9c14-80fb6905f947","system_id":"levelo_inurba_marseille","lat":43.32098,"lon":5.368,"is_reserved":false,"is_disabled":false,"rental_uris":{"android":"levelo://app?vid=19e4983d-b74d-4524-9c14-80fb6905f947","ios":"levelo://app?vid=19e4983d-b74d-4524-9c14-80fb6905f947"},"vehicle_type_id":"4","last_reported":1740582646,"current_range_meters":14400,"station_id":"ce4bhrh2rcd13ifvqhug","pricing_plan_id":"cebpf4jnsgd1na2vs0mg"},{"bike_id":"5a24875a-6674-4caf-b53d-982a48f21751","system_id":"levelo_inurba_marseille","lat":43.26503,"lon":5.39535,"is_reserved":false,"is_disabled":false,"rental_uris":{"android":"levelo://app?vid=5a24875a-6674-4caf-b53d-982a48f21751","ios":"levelo://app?vid=5a24875a-6674-4caf-b53d-982a48f21751"},"vehicle_type_id":"4","last_reported":1740582646,"current_range_meters":14400,"station_id":"ce4bhi12rcd13ifvqfq0","pricing_plan_id":"cebpf4jnsgd1na2vs0mg"},{"bike_id":"26beaa03-4b78-4656-b0ab-8f85a8667980","system_id":"levelo_inurba_marseille","lat":43.30436,"lon":5.38877,"is_reserved":false,"is_disabled":false,"rental_uris":{"android":"levelo://app?vid=26beaa03-4b78-4656-b0ab-8f85a8667980","ios":"levelo://app?vid=26beaa03-4b78-4656-b0ab-8f85a8667980"},"vehicle_type_id":"4","last_reported":1740582646,"current_range_meters":14400,"station_id":"ce4bgk12rcd13ifvqbi0","pricing_plan_id":"cebpf4jnsgd1na2vs0mg"},{"bike_id":"cb82e8e2-0518-46d9-b5ce-726f4d37ced2","system_id":"levelo_inurba_marseille","lat":43.30879,"lon":5.39628,"is_reserved":false,"is_disabled":false,"rental_uris":{"android":"levelo://app?vid=cb82e8e2-0518-46d9-b5ce-726f4d37ced2","ios":"levelo://app?vid=cb82e8e2-0518-46d9-b5ce-726f4d37ced2"},"vehicle_type_id":"4","last_reported":1740582646,"current_range_meters":15200,"station_id":"ce4bh012rcd13ifvqcv0","pricing_plan_id":"cebpf4jnsgd1na2vs0mg"},{"bike_id":"17973595-0627-4cbe-be09-6d52168568c1","system_id":"levelo_inurba_marseille","lat":43.27814,"lon":5.40724,"is_reserved":false,"is_disabled":false,"rental_uris":{"android":"levelo://app?vid=17973595-0627-4cbe-be09-6d52168568c1","ios":"levelo://app?vid=17973595-0627-4cbe-be09-6d52168568c1"},"vehicle_type_id":"4","last_reported":1740582646,"current_range_meters":15200,"station_id":"ce4bhnh2rcd13ifvqgtg","pricing_plan_id":"cebpf4jnsgd1na2vs0mg"},{"bike_id":"5284c46e-9a97-41bb-bc1e-8adc8292813e","system_id":"levelo_inurba_marseille","lat":43.28467,"lon":5.38429,"is_reserved":false,"is_disabled":false,"rental_uris":{"android":"levelo://app?vid=5284c46e-9a97-41bb-bc1e-8adc8292813e","ios":"levelo://app?vid=5284c46e-9a97-41bb-bc1e-8adc8292813e"},"vehicle_type_id":"4","last_reported":1740582646,"current_range_meters":14800,"station_id":"ce4bh512rcd13ifvqe3g","pricing_plan_id":"cebpf4jnsgd1na2vs0mg"},{"bike_id":"4c5d33f9-704c-481d-8777-c6f74c41767b","system_id":"levelo_inurba_marseille","lat":43.26199,"lon":5.393315,"is_reserved":false,"is_disabled":false,"rental_uris":{"android":"levelo://app?vid=4c5d33f9-704c-481d-8777-c6f74c41767b","ios":"levelo://app?vid=4c5d33f9-704c-481d-8777-c6f74c41767b"},"vehicle_type_id":"4","last_reported":1740582646,"current_range_meters":14800,"station_id":"ce4bhh92rcd13ifvqfj0","pricing_plan_id":"cebpf4jnsgd1na2vs0mg"},{"bike_id":"6f76b8cb-a9c5-470f-9bf5-175ad19e2efc","system_id":"levelo_inurba_marseille","lat":43.29528,"lon":5.38537,"is_reserved":false,"is_disabled":false,"rental_uris":{"android":"levelo://app?vid=6f76b8cb-a9c5-470f-9bf5-175ad19e2efc","ios":"levelo://app?vid=6f76b8cb-a9c5-470f-9bf5-175ad19e2efc"},"vehicle_type_id":"4","last_reported":1740582646,"current_range_meters":15200,"station_id":"ce4bgih2rcd13ifvqba0","pricing_plan_id":"cebpf4jnsgd1na2vs0mg"},{"bike_id":"da9d55bd-dfdc-4725-be3b-7702e7ff8db2","system_id":"levelo_inurba_marseille","lat":43.28477,"lon":5.38417,"is_reserved":false,"is_disabled":false,"rental_uris":{"android":"levelo://app?vid=da9d55bd-dfdc-4725-be3b-7702e7ff8db2","ios":"levelo://app?vid=da9d55bd-dfdc-4725-be3b-7702e7ff8db2"},"vehicle_type_id":"4","last_reported":1740582646,"current_range_meters":15200,"station_id":"ce4bh512rcd13ifvqe3g","pricing_plan_id":"cebpf4jnsgd1na2vs0mg"},{"bike_id":"23c402b2-611c-40d3-a6d7-d7740f5dd908","system_id":"levelo_inurba_marseille","lat":43.29108,"lon":5.38143,"is_reserved":false,"is_disabled":false,"rental_uris":{"android":"levelo://app?vid=23c402b2-611c-40d3-a6d7-d7740f5dd908","ios":"levelo://app?vid=23c402b2-611c-40d3-a6d7-d7740f5dd908"},"vehicle_type_id":"4","last_reported":1740582646,"current_range_meters":15200,"station_id":"ce4bh512rcd13ifvqe2g","pricing_plan_id":"cebpf4jnsgd1na2vs0mg"},{"bike_id":"5d18d5b6-6ce4-477b-b561-9dfbcb9b8c26","system_id":"levelo_inurba_marseille","lat":43.30436,"lon":5.38886,"is_reserved":false,"is_disabled":false,"rental_uris":{"android":"levelo://app?vid=5d18d5b6-6ce4-477b-b561-9dfbcb9b8c26","ios":"levelo://app?vid=5d18d5b6-6ce4-477b-b561-9dfbcb9b8c26"},"vehicle_type_id":"4","last_reported":1740582646,"current_range_meters":16000,"station_id":"ce4bgk12rcd13ifvqbi0","pricing_plan_id":"cebpf4jnsgd1na2vs0mg"},{"bike_id":"d0eed576-967a-4a22-90f0-1b8c0372f57a","system_id":"levelo_inurba_marseille","lat":43.2503,"lon":5.38943,"is_reserved":false,"is_disabled":false,"rental_uris":{"android":"levelo://app?vid=d0eed576-967a-4a22-90f0-1b8c0372f57a","ios":"levelo://app?vid=d0eed576-967a-4a22-90f0-1b8c0372f57a"},"vehicle_type_id":"4","last_reported":1740582646,"current_range_meters":16000,"station_id":"ce4bhgp2rcd13ifvqfd0","pricing_plan_id":"cebpf4jnsgd1na2vs0mg"},{"bike_id":"ad5291e1-8eb3-448c-aea2-bcc75fa0f4c9","system_id":"levelo_inurba_marseille","lat":43.29305,"lon":5.36834,"is_reserved":false,"is_disabled":false,"rental_uris":{"android":"levelo://app?vid=ad5291e1-8eb3-448c-aea2-bcc75fa0f4c9","ios":"levelo://app?vid=ad5291e1-8eb3-448c-aea2-bcc75fa0f4c9"},"vehicle_type_id":"4","last_reported":1740582646,"current_range_meters":16000,"station_id":"ce4bhbp2rcd13ifvqesg","pricing_plan_id":"cebpf4jnsgd1na2vs0mg"},{"bike_id":"7f5dbe42-da8b-47f5-9beb-ac4cf767c9c8","system_id":"levelo_inurba_marseille","lat":43.3122,"lon":5.36848,"is_reserved":false,"is_disabled":false,"rental_uris":{"android":"levelo://app?vid=7f5dbe42-da8b-47f5-9beb-ac4cf767c9c8","ios":"levelo://app?vid=7f5dbe42-da8b-47f5-9beb-ac4cf767c9c8"},"vehicle_type_id":"4","last_reported":1740582646,"current_range_meters":16400,"station_id":"ce4bgl92rcd13ifvqbq0","pricing_plan_id":"cebpf4jnsgd1na2vs0mg"},{"bike_id":"bc7461ca-1682-41e7-9fc6-e3f877a41ac9","system_id":"levelo_inurba_marseille","lat":43.292,"lon":5.35827,"is_reserved":false,"is_disabled":false,"rental_uris":{"android":"levelo://app?vid=bc7461ca-1682-41e7-9fc6-e3f877a41ac9","ios":"levelo://app?vid=bc7461ca-1682-41e7-9fc6-e3f877a41ac9"},"vehicle_type_id":"4","last_reported":1740582646,"current_range_meters":16000,"station_id":"ce4bhb12rcd13ifvqel0","pricing_plan_id":"cebpf4jnsgd1na2vs0mg"},{"bike_id":"f35d6126-178c-4c08-8343-6bcc4ce94aad","system_id":"levelo_inurba_marseille","lat":43.24171,"lon":5.39747,"is_reserved":false,"is_disabled":false,"rental_uris":{"android":"levelo://app?vid=f35d6126-178c-4c08-8343-6bcc4ce94aad","ios":"levelo://app?vid=f35d6126-178c-4c08-8343-6bcc4ce94aad"},"vehicle_type_id":"4","last_reported":1740582646,"current_range_meters":16000,"station_id":"ce4bhn12rcd13ifvqgpg","pricing_plan_id":"cebpf4jnsgd1na2vs0mg"},{"bike_id":"c1f5384a-71a2-4dad-80de-d395c09980f5","system_id":"levelo_inurba_marseille","lat":43.31349,"lon":5.36724,"is_reserved":false,"is_disabled":false,"rental_uris":{"android":"levelo://app?vid=c1f5384a-71a2-4dad-80de-d395c09980f5","ios":"levelo://app?vid=c1f5384a-71a2-4dad-80de-d395c09980f5"},"vehicle_type_id":"4","last_reported":1740582646,"current_range_meters":16000,"station_id":"ce4bgr92rcd13ifvqc6g","pricing_plan_id":"cebpf4jnsgd1na2vs0mg"},{"bike_id":"9d5f68f4-bdcd-445a-978e-0d8a8bf45ae0","system_id":"levelo_inurba_marseille","lat":43.29314,"lon":5.3684,"is_reserved":false,"is_disabled":false,"rental_uris":{"android":"levelo://app?vid=9d5f68f4-bdcd-445a-978e-0d8a8bf45ae0","ios":"levelo://app?vid=9d5f68f4-bdcd-445a-978e-0d8a8bf45ae0"},"vehicle_type_id":"4","last_reported":1740582646,"current_range_meters":16400,"station_id":"ce4bhbp2rcd13ifvqesg","pricing_plan_id":"cebpf4jnsgd1na2vs0mg"},{"bike_id":"555f636f-9131-4e56-b952-ea801d427072","system_id":"levelo_inurba_marseille","lat":43.23155,"lon":5.43709,"is_reserved":false,"is_disabled":false,"rental_uris":{"android":"levelo://app?vid=555f636f-9131-4e56-b952-ea801d427072","ios":"levelo://app?vid=555f636f-9131-4e56-b952-ea801d427072"},"vehicle_type_id":"4","last_reported":1740582646,"current_range_meters":16800,"station_id":"ce4bhmp2rcd13ifvqgog","pricing_plan_id":"cebpf4jnsgd1na2vs0mg"},{"bike_id":"afca1011-2249-4deb-88cb-1fc3b687207b","system_id":"levelo_inurba_marseille","lat":43.30799,"lon":5.3817,"is_reserved":false,"is_disabled":false,"rental_uris":{"android":"levelo://app?vid=afca1011-2249-4deb-88cb-1fc3b687207b","ios":"levelo://app?vid=afca1011-2249-4deb-88cb-1fc3b687207b"},"vehicle_type_id":"4","last_reported":1740582646,"current_range_meters":16000,"station_id":"ce4bgt12rcd13ifvqce0","pricing_plan_id":"cebpf4jnsgd1na2vs0mg"},{"bike_id":"7719010b-43e0-47b2-9f39-4773b948eac1","system_id":"levelo_inurba_marseille","lat":43.30782,"lon":5.3766,"is_reserved":false,"is_disabled":false,"rental_uris":{"android":"levelo://app?vid=7719010b-43e0-47b2-9f39-4773b948eac1","ios":"levelo://app?vid=7719010b-43e0-47b2-9f39-4773b948eac1"},"vehicle_type_id":"4","last_reported":1740582646,"current_range_meters":16400,"station_id":"ce4bgv92rcd13ifvqcq0","pricing_plan_id":"cebpf4jnsgd1na2vs0mg"},{"bike_id":"a92380cc-78fd-4545-85ce-2589fea4cafc","system_id":"levelo_inurba_marseille","lat":43.27671,"lon":5.38892,"is_reserved":false,"is_disabled":false,"rental_uris":{"android":"levelo://app?vid=a92380cc-78fd-4545-85ce-2589fea4cafc","ios":"levelo://app?vid=a92380cc-78fd-4545-85ce-2589fea4cafc"},"vehicle_type_id":"4","last_reported":1740582646,"current_range_meters":16400,"station_id":"ce4bhi12rcd13ifvqfo0","pricing_plan_id":"cebpf4jnsgd1na2vs0mg"},{"bike_id":"128d9f19-560e-4907-b2b5-99db2fe70c71","system_id":"levelo_inurba_marseille","lat":43.33768,"lon":5.37468,"is_reserved":false,"is_disabled":false,"rental_uris":{"android":"levelo://app?vid=128d9f19-560e-4907-b2b5-99db2fe70c71","ios":"levelo://app?vid=128d9f19-560e-4907-b2b5-99db2fe70c71"},"vehicle_type_id":"4","last_reported":1740582646,"current_range_meters":16400,"station_id":"","pricing_plan_id":"cebpf4jnsgd1na2vs0mg"},{"bike_id":"8e3ca8c1-682d-42df-869d-550b4308d578","system_id":"levelo_inurba_marseille","lat":43.29628,"lon":5.37163,"is_reserved":false,"is_disabled":false,"rental_uris":{"android":"levelo://app?vid=8e3ca8c1-682d-42df-869d-550b4308d578","ios":"levelo://app?vid=8e3ca8c1-682d-42df-869d-550b4308d578"},"vehicle_type_id":"4","last_reported":1740582646,"current_range_meters":16400,"station_id":"ce4bgnh2rcd13ifvqc0g","pricing_plan_id":"cebpf4jnsgd1na2vs0mg"},{"bike_id":"32b06090-547a-420f-bb9a-f4d552b80295","system_id":"levelo_inurba_marseille","lat":43.27057,"lon":5.40268,"is_reserved":false,"is_disabled":false,"rental_uris":{"android":"levelo://app?vid=32b06090-547a-420f-bb9a-f4d552b80295","ios":"levelo://app?vid=32b06090-547a-420f-bb9a-f4d552b80295"},"vehicle_type_id":"4","last_reported":1740582646,"current_range_meters":16400,"station_id":"ce4bhk92rcd13ifvqgc0","pricing_plan_id":"cebpf4jnsgd1na2vs0mg"},{"bike_id":"072059ca-b533-4201-a9d8-cc256662ae7d","system_id":"levelo_inurba_marseille","lat":43.23152,"lon":5.43719,"is_reserved":false,"is_disabled":false,"rental_uris":{"android":"levelo://app?vid=072059ca-b533-4201-a9d8-cc256662ae7d","ios":"levelo://app?vid=072059ca-b533-4201-a9d8-cc256662ae7d"},"vehicle_type_id":"4","last_reported":1740582646,"current_range_meters":16400,"station_id":"ce4bhmp2rcd13ifvqgog","pricing_plan_id":"cebpf4jnsgd1na2vs0mg"},{"bike_id":"dc1deb5f-be60-47dd-a397-2458bf714b12","system_id":"levelo_inurba_marseille","lat":43.23066,"lon":5.35485,"is_reserved":false,"is_disabled":false,"rental_uris":{"android":"levelo://app?vid=dc1deb5f-be60-47dd-a397-2458bf714b12","ios":"levelo://app?vid=dc1deb5f-be60-47dd-a397-2458bf714b12"},"vehicle_type_id":"4","last_reported":1740582646,"current_range_meters":16400,"station_id":"cpo3342slgdg3j2ifvpg","pricing_plan_id":"cebpf4jnsgd1na2vs0mg"},{"bike_id":"43d81013-37ec-449e-94e2-2a31899c4279","system_id":"levelo_inurba_marseille","lat":43.27972,"lon":5.38661,"is_reserved":false,"is_disabled":false,"rental_uris":{"android":"levelo://app?vid=43d81013-37ec-449e-94e2-2a31899c4279","ios":"levelo://app?vid=43d81013-37ec-449e-94e2-2a31899c4279"},"vehicle_type_id":"4","last_reported":1740582646,"current_range_meters":16400,"station_id":"","pricing_plan_id":"cebpf4jnsgd1na2vs0mg"},{"bike_id":"92ef393e-531d-473a-be26-fa92b6713f16","system_id":"levelo_inurba_marseille","lat":43.23141,"lon":5.43709,"is_reserved":false,"is_disabled":false,"rental_uris":{"android":"levelo://app?vid=92ef393e-531d-473a-be26-fa92b6713f16","ios":"levelo://app?vid=92ef393e-531d-473a-be26-fa92b6713f16"},"vehicle_type_id":"4","last_reported":1740582646,"current_range_meters":16400,"station_id":"ce4bhmp2rcd13ifvqgog","pricing_plan_id":"cebpf4jnsgd1na2vs0mg"},{"bike_id":"3d200bc8-ffc0-49f3-b579-6a05dfb2a3ed","system_id":"levelo_inurba_marseille","lat":43.28078,"lon":5.39653,"is_reserved":false,"is_disabled":false,"rental_uris":{"android":"levelo://app?vid=3d200bc8-ffc0-49f3-b579-6a05dfb2a3ed","ios":"levelo://app?vid=3d200bc8-ffc0-49f3-b579-6a05dfb2a3ed"},"vehicle_type_id":"4","last_reported":1740582646,"current_range_meters":16400,"station_id":"ce4bho12rcd13ifvqh2g","pricing_plan_id":"cebpf4jnsgd1na2vs0mg"},{"bike_id":"5ddf6bb7-4f4e-4a22-abdb-9f8ef85c2bc9","system_id":"levelo_inurba_marseille","lat":43.30327,"lon":5.40448,"is_reserved":false,"is_disabled":false,"rental_uris":{"android":"levelo://app?vid=5ddf6bb7-4f4e-4a22-abdb-9f8ef85c2bc9","ios":"levelo://app?vid=5ddf6bb7-4f4e-4a22-abdb-9f8ef85c2bc9"},"vehicle_type_id":"4","last_reported":1740582646,"current_range_meters":16400,"station_id":"ce4bh012rcd13ifvqd10","pricing_plan_id":"cebpf4jnsgd1na2vs0mg"},{"bike_id":"5f7b420b-32f0-45cf-bc00-07beba71a552","system_id":"levelo_inurba_marseille","lat":43.24808,"lon":5.37451,"is_reserved":false,"is_disabled":false,"rental_uris":{"android":"levelo://app?vid=5f7b420b-32f0-45cf-bc00-07beba71a552","ios":"levelo://app?vid=5f7b420b-32f0-45cf-bc00-07beba71a552"},"vehicle_type_id":"4","last_reported":1740582646,"current_range_meters":16400,"station_id":"ce4bhgh2rcd13ifvqfb0","pricing_plan_id":"cebpf4jnsgd1na2vs0mg"},{"bike_id":"92bb8370-37ae-4a45-83be-ed1941827605","system_id":"levelo_inurba_marseille","lat":43.28933,"lon":5.36372,"is_reserved":false,"is_disabled":false,"rental_uris":{"android":"levelo://app?vid=92bb8370-37ae-4a45-83be-ed1941827605","ios":"levelo://app?vid=92bb8370-37ae-4a45-83be-ed1941827605"},"vehicle_type_id":"4","last_reported":1740582646,"current_range_meters":16000,"station_id":"ce4bhc92rcd13ifvqetg","pricing_plan_id":"cebpf4jnsgd1na2vs0mg"},{"bike_id":"a2bc9785-fe24-4d76-9dfb-8ce583b8eb43","system_id":"levelo_inurba_marseille","lat":43.29261,"lon":5.40914,"is_reserved":false,"is_disabled":false,"rental_uris":{"android":"levelo://app?vid=a2bc9785-fe24-4d76-9dfb-8ce583b8eb43","ios":"levelo://app?vid=a2bc9785-fe24-4d76-9dfb-8ce583b8eb43"},"vehicle_type_id":"4","last_reported":1740582646,"current_range_meters":16400,"station_id":"ce4bh192rcd13ifvqdc0","pricing_plan_id":"cebpf4jnsgd1na2vs0mg"},{"bike_id":"32022f30-217e-4459-b186-dd7b6ca601cd","system_id":"levelo_inurba_marseille","lat":43.27812,"lon":5.40703,"is_reserved":false,"is_disabled":false,"rental_uris":{"android":"levelo://app?vid=32022f30-217e-4459-b186-dd7b6ca601cd","ios":"levelo://app?vid=32022f30-217e-4459-b186-dd7b6ca601cd"},"vehicle_type_id":"4","last_reported":1740582646,"current_range_meters":16800,"station_id":"ce4bhnh2rcd13ifvqgtg","pricing_plan_id":"cebpf4jnsgd1na2vs0mg"},{"bike_id":"1568f4ba-0a37-4f8a-b50d-7e05c58773a3","system_id":"levelo_inurba_marseille","lat":43.28489,"lon":5.38392,"is_reserved":false,"is_disabled":false,"rental_uris":{"android":"levelo://app?vid=1568f4ba-0a37-4f8a-b50d-7e05c58773a3","ios":"levelo://app?vid=1568f4ba-0a37-4f8a-b50d-7e05c58773a3"},"vehicle_type_id":"4","last_reported":1740582646,"current_range_meters":13600,"station_id":"ce4bh512rcd13ifvqe3g","pricing_plan_id":"cebpf4jnsgd1na2vs0mg"},{"bike_id":"bfa6f7d2-c3a6-4c76-b5b5-4810d3f504bd","system_id":"levelo_inurba_marseille","lat":43.27065,"lon":5.40265,"is_reserved":false,"is_disabled":false,"rental_uris":{"android":"levelo://app?vid=bfa6f7d2-c3a6-4c76-b5b5-4810d3f504bd","ios":"levelo://app?vid=bfa6f7d2-c3a6-4c76-b5b5-4810d3f504bd"},"vehicle_type_id":"4","last_reported":1740582646,"current_range_meters":16800,"station_id":"ce4bhk92rcd13ifvqgc0","pricing_plan_id":"cebpf4jnsgd1na2vs0mg"},{"bike_id":"382f0e88-fe70-41aa-8a66-f70bee4e2ec5","system_id":"levelo_inurba_marseille","lat":43.29575,"lon":5.3996,"is_reserved":false,"is_disabled":false,"rental_uris":{"android":"levelo://app?vid=382f0e88-fe70-41aa-8a66-f70bee4e2ec5","ios":"levelo://app?vid=382f0e88-fe70-41aa-8a66-f70bee4e2ec5"},"vehicle_type_id":"4","last_reported":1740582646,"current_range_meters":16800,"station_id":"ce4bh312rcd13ifvqdj0","pricing_plan_id":"cebpf4jnsgd1na2vs0mg"},{"bike_id":"6202b189-9ebb-4798-abff-1e28411d61ad","system_id":"levelo_inurba_marseille","lat":43.23159,"lon":5.43715,"is_reserved":false,"is_disabled":false,"rental_uris":{"android":"levelo://app?vid=6202b189-9ebb-4798-abff-1e28411d61ad","ios":"levelo://app?vid=6202b189-9ebb-4798-abff-1e28411d61ad"},"vehicle_type_id":"4","last_reported":1740582646,"current_range_meters":16800,"station_id":"ce4bhmp2rcd13ifvqgog","pricing_plan_id":"cebpf4jnsgd1na2vs0mg"},{"bike_id":"5c310fd7-d8ad-4c4e-9e61-5fe3cbeb6566","system_id":"levelo_inurba_marseille","lat":43.26214,"lon":5.37928,"is_reserved":false,"is_disabled":false,"rental_uris":{"android":"levelo://app?vid=5c310fd7-d8ad-4c4e-9e61-5fe3cbeb6566","ios":"levelo://app?vid=5c310fd7-d8ad-4c4e-9e61-5fe3cbeb6566"},"vehicle_type_id":"4","last_reported":1740582646,"current_range_meters":17200,"station_id":"ce4bhjp2rcd13ifvqg90","pricing_plan_id":"cebpf4jnsgd1na2vs0mg"},{"bike_id":"62b18c59-e8d2-4c1e-a9e3-b1c683270d4a","system_id":"levelo_inurba_marseille","lat":43.26202,"lon":5.37922,"is_reserved":false,"is_disabled":false,"rental_uris":{"android":"levelo://app?vid=62b18c59-e8d2-4c1e-a9e3-b1c683270d4a","ios":"levelo://app?vid=62b18c59-e8d2-4c1e-a9e3-b1c683270d4a"},"vehicle_type_id":"4","last_reported":1740582646,"current_range_meters":17200,"station_id":"ce4bhjp2rcd13ifvqg90","pricing_plan_id":"cebpf4jnsgd1na2vs0mg"},{"bike_id":"bc679af8-b2d8-495d-8f01-39de79e9748b","system_id":"levelo_inurba_marseille","lat":43.29575,"lon":5.36743,"is_reserved":false,"is_disabled":false,"rental_uris":{"android":"levelo://app?vid=bc679af8-b2d8-495d-8f01-39de79e9748b","ios":"levelo://app?vid=bc679af8-b2d8-495d-8f01-39de79e9748b"},"vehicle_type_id":"4","last_reported":1740582646,"current_range_meters":17200,"station_id":"ce4bgph2rcd13ifvqc2g","pricing_plan_id":"cebpf4jnsgd1na2vs0mg"},{"bike_id":"19e09a69-c57f-482a-b847-7f66783bd645","system_id":"levelo_inurba_marseille","lat":43.27819,"lon":5.40714,"is_reserved":false,"is_disabled":false,"rental_uris":{"android":"levelo://app?vid=19e09a69-c57f-482a-b847-7f66783bd645","ios":"levelo://app?vid=19e09a69-c57f-482a-b847-7f66783bd645"},"vehicle_type_id":"4","last_reported":1740582646,"current_range_meters":17600,"station_id":"ce4bhnh2rcd13ifvqgtg","pricing_plan_id":"cebpf4jnsgd1na2vs0mg"},{"bike_id":"1df86f19-be6a-43d4-b0a7-6745ca4db86e","system_id":"levelo_inurba_marseille","lat":43.26565,"lon":5.39028,"is_reserved":false,"is_disabled":false,"rental_uris":{"android":"levelo://app?vid=1df86f19-be6a-43d4-b0a7-6745ca4db86e","ios":"levelo://app?vid=1df86f19-be6a-43d4-b0a7-6745ca4db86e"},"vehicle_type_id":"4","last_reported":1740582646,"current_range_meters":17600,"station_id":"ce4bhe12rcd13ifvqf30","pricing_plan_id":"cebpf4jnsgd1na2vs0mg"},{"bike_id":"8fccdb2e-af62-4a29-98c4-9bc5f39cc629","system_id":"levelo_inurba_marseille","lat":43.27997,"lon":5.40015,"is_reserved":false,"is_disabled":false,"rental_uris":{"android":"levelo://app?vid=8fccdb2e-af62-4a29-98c4-9bc5f39cc629","ios":"levelo://app?vid=8fccdb2e-af62-4a29-98c4-9bc5f39cc629"},"vehicle_type_id":"4","last_reported":1740582646,"current_range_meters":17600,"station_id":"ce4bho92rcd13ifvqh4g","pricing_plan_id":"cebpf4jnsgd1na2vs0mg"},{"bike_id":"8e7ca1de-f2e1-45da-a0a6-c0442942ed30","system_id":"levelo_inurba_marseille","lat":43.25499,"lon":5.3765,"is_reserved":false,"is_disabled":false,"rental_uris":{"android":"levelo://app?vid=8e7ca1de-f2e1-45da-a0a6-c0442942ed30","ios":"levelo://app?vid=8e7ca1de-f2e1-45da-a0a6-c0442942ed30"},"vehicle_type_id":"4","last_reported":1740582646,"current_range_meters":17600,"station_id":"ce4bhh12rcd13ifvqff0","pricing_plan_id":"cebpf4jnsgd1na2vs0mg"},{"bike_id":"94eb954d-b53e-420d-b3d7-b08ad25a89ca","system_id":"levelo_inurba_marseille","lat":43.2962,"lon":5.37168,"is_reserved":false,"is_disabled":false,"rental_uris":{"android":"levelo://app?vid=94eb954d-b53e-420d-b3d7-b08ad25a89ca","ios":"levelo://app?vid=94eb954d-b53e-420d-b3d7-b08ad25a89ca"},"vehicle_type_id":"4","last_reported":1740582646,"current_range_meters":17600,"station_id":"ce4bgnh2rcd13ifvqc0g","pricing_plan_id":"cebpf4jnsgd1na2vs0mg"},{"bike_id":"3db04eba-42e3-40d5-accd-e21d5e2ae9b8","system_id":"levelo_inurba_marseille","lat":43.27057,"lon":5.40267,"is_reserved":false,"is_disabled":false,"rental_uris":{"android":"levelo://app?vid=3db04eba-42e3-40d5-accd-e21d5e2ae9b8","ios":"levelo://app?vid=3db04eba-42e3-40d5-accd-e21d5e2ae9b8"},"vehicle_type_id":"4","last_reported":1740582646,"current_range_meters":17600,"station_id":"ce4bhk92rcd13ifvqgc0","pricing_plan_id":"cebpf4jnsgd1na2vs0mg"},{"bike_id":"6ecd83f3-31b9-4643-ac81-c0f8300aa1b3","system_id":"levelo_inurba_marseille","lat":43.26681,"lon":5.38266,"is_reserved":false,"is_disabled":false,"rental_uris":{"android":"levelo://app?vid=6ecd83f3-31b9-4643-ac81-c0f8300aa1b3","ios":"levelo://app?vid=6ecd83f3-31b9-4643-ac81-c0f8300aa1b3"},"vehicle_type_id":"4","last_reported":1740582646,"current_range_meters":18000,"station_id":"ce4bhg92rcd13ifvqf90","pricing_plan_id":"cebpf4jnsgd1na2vs0mg"},{"bike_id":"0ed72788-312f-4398-811f-dc2e05b88741","system_id":"levelo_inurba_marseille","lat":43.28939,"lon":5.36403,"is_reserved":false,"is_disabled":false,"rental_uris":{"android":"levelo://app?vid=0ed72788-312f-4398-811f-dc2e05b88741","ios":"levelo://app?vid=0ed72788-312f-4398-811f-dc2e05b88741"},"vehicle_type_id":"4","last_reported":1740582646,"current_range_meters":18000,"station_id":"ce4bhc92rcd13ifvqetg","pricing_plan_id":"cebpf4jnsgd1na2vs0mg"},{"bike_id":"09a08648-2d6f-4bd8-8ba2-f195a36f435c","system_id":"levelo_inurba_marseille","lat":43.30006,"lon":5.37422,"is_reserved":false,"is_disabled":false,"rental_uris":{"android":"levelo://app?vid=09a08648-2d6f-4bd8-8ba2-f195a36f435c","ios":"levelo://app?vid=09a08648-2d6f-4bd8-8ba2-f195a36f435c"},"vehicle_type_id":"4","last_reported":1740582646,"current_range_meters":18800,"station_id":"","pricing_plan_id":"cebpf4jnsgd1na2vs0mg"},{"bike_id":"43060123-5b35-49fe-a797-de2d0a07ced2","system_id":"levelo_inurba_marseille","lat":43.29632,"lon":5.37178,"is_reserved":false,"is_disabled":false,"rental_uris":{"android":"levelo://app?vid=43060123-5b35-49fe-a797-de2d0a07ced2","ios":"levelo://app?vid=43060123-5b35-49fe-a797-de2d0a07ced2"},"vehicle_type_id":"4","last_reported":1740582646,"current_range_meters":18000,"station_id":"ce4bgnh2rcd13ifvqc0g","pricing_plan_id":"cebpf4jnsgd1na2vs0mg"},{"bike_id":"a8dac662-04f9-46b7-b335-a013d510eb4a","system_id":"levelo_inurba_marseille","lat":43.30885,"lon":5.39627,"is_reserved":false,"is_disabled":false,"rental_uris":{"android":"levelo://app?vid=a8dac662-04f9-46b7-b335-a013d510eb4a","ios":"levelo://app?vid=a8dac662-04f9-46b7-b335-a013d510eb4a"},"vehicle_type_id":"4","last_reported":1740582646,"current_range_meters":18000,"station_id":"ce4bh012rcd13ifvqcv0","pricing_plan_id":"cebpf4jnsgd1na2vs0mg"},{"bike_id":"624f0be8-3004-4f56-bd32-f632626893e2","system_id":"levelo_inurba_marseille","lat":43.28158,"lon":5.42654,"is_reserved":false,"is_disabled":false,"rental_uris":{"android":"levelo://app?vid=624f0be8-3004-4f56-bd32-f632626893e2","ios":"levelo://app?vid=624f0be8-3004-4f56-bd32-f632626893e2"},"vehicle_type_id":"4","last_reported":1740582646,"current_range_meters":18000,"station_id":"ce4bhnh2rcd13ifvqgug","pricing_plan_id":"cebpf4jnsgd1na2vs0mg"},{"bike_id":"f5900fd7-5ebc-4e9b-ae58-1b8e740df4a2","system_id":"levelo_inurba_marseille","lat":43.27815,"lon":5.4072,"is_reserved":false,"is_disabled":false,"rental_uris":{"android":"levelo://app?vid=f5900fd7-5ebc-4e9b-ae58-1b8e740df4a2","ios":"levelo://app?vid=f5900fd7-5ebc-4e9b-ae58-1b8e740df4a2"},"vehicle_type_id":"4","last_reported":1740582646,"current_range_meters":18000,"station_id":"ce4bhnh2rcd13ifvqgtg","pricing_plan_id":"cebpf4jnsgd1na2vs0mg"},{"bike_id":"74edbbca-361e-4908-9052-c391ebb2fb2e","system_id":"levelo_inurba_marseille","lat":43.27057,"lon":5.40263,"is_reserved":false,"is_disabled":false,"rental_uris":{"android":"levelo://app?vid=74edbbca-361e-4908-9052-c391ebb2fb2e","ios":"levelo://app?vid=74edbbca-361e-4908-9052-c391ebb2fb2e"},"vehicle_type_id":"4","last_reported":1740582646,"current_range_meters":18000,"station_id":"ce4bhk92rcd13ifvqgc0","pricing_plan_id":"cebpf4jnsgd1na2vs0mg"},{"bike_id":"3de9aeda-1f9a-4bbc-8b90-e02a49e56ca9","system_id":"levelo_inurba_marseille","lat":43.23193,"lon":5.35561,"is_reserved":false,"is_disabled":false,"rental_uris":{"android":"levelo://app?vid=3de9aeda-1f9a-4bbc-8b90-e02a49e56ca9","ios":"levelo://app?vid=3de9aeda-1f9a-4bbc-8b90-e02a49e56ca9"},"vehicle_type_id":"4","last_reported":1740582646,"current_range_meters":18000,"station_id":"ce4bhu92rcd13ifvqi70","pricing_plan_id":"cebpf4jnsgd1na2vs0mg"},{"bike_id":"8ae21c46-bf94-4657-a7f0-7b40c0ec3486","system_id":"levelo_inurba_marseille","lat":43.26789,"lon":5.39417,"is_reserved":false,"is_disabled":false,"rental_uris":{"android":"levelo://app?vid=8ae21c46-bf94-4657-a7f0-7b40c0ec3486","ios":"levelo://app?vid=8ae21c46-bf94-4657-a7f0-7b40c0ec3486"},"vehicle_type_id":"4","last_reported":1740582646,"current_range_meters":17600,"station_id":"ce4bhh12rcd13ifvqfg0","pricing_plan_id":"cebpf4jnsgd1na2vs0mg"},{"bike_id":"f873cc6f-a3df-41db-8b8e-d27fb9ded171","system_id":"levelo_inurba_marseille","lat":43.27956,"lon":5.41021,"is_reserved":false,"is_disabled":false,"rental_uris":{"android":"levelo://app?vid=f873cc6f-a3df-41db-8b8e-d27fb9ded171","ios":"levelo://app?vid=f873cc6f-a3df-41db-8b8e-d27fb9ded171"},"vehicle_type_id":"4","last_reported":1740582646,"current_range_meters":18800,"station_id":"ce4bhnp2rcd13ifvqh0g","pricing_plan_id":"cebpf4jnsgd1na2vs0mg"},{"bike_id":"896fa85b-e6c2-4284-b540-4f908ecc715f","system_id":"levelo_inurba_marseille","lat":43.29303,"lon":5.37197,"is_reserved":false,"is_disabled":false,"rental_uris":{"android":"levelo://app?vid=896fa85b-e6c2-4284-b540-4f908ecc715f","ios":"levelo://app?vid=896fa85b-e6c2-4284-b540-4f908ecc715f"},"vehicle_type_id":"4","last_reported":1740582646,"current_range_meters":19200,"station_id":"ce4bgh92rcd13ifvqb40","pricing_plan_id":"cebpf4jnsgd1na2vs0mg"},{"bike_id":"7c6f2e19-e14e-482e-81a7-645fe762ee86","system_id":"levelo_inurba_marseille","lat":43.29583,"lon":5.36739,"is_reserved":false,"is_disabled":false,"rental_uris":{"android":"levelo://app?vid=7c6f2e19-e14e-482e-81a7-645fe762ee86","ios":"levelo://app?vid=7c6f2e19-e14e-482e-81a7-645fe762ee86"},"vehicle_type_id":"4","last_reported":1740582646,"current_range_meters":19200,"station_id":"ce4bgph2rcd13ifvqc2g","pricing_plan_id":"cebpf4jnsgd1na2vs0mg"},{"bike_id":"540b3dc9-3db8-4939-9fe3-3eac7e3237b9","system_id":"levelo_inurba_marseille","lat":43.28416,"lon":5.37511,"is_reserved":false,"is_disabled":false,"rental_uris":{"android":"levelo://app?vid=540b3dc9-3db8-4939-9fe3-3eac7e3237b9","ios":"levelo://app?vid=540b3dc9-3db8-4939-9fe3-3eac7e3237b9"},"vehicle_type_id":"4","last_reported":1740582646,"current_range_meters":19600,"station_id":"ce4bh412rcd13ifvqds0","pricing_plan_id":"cebpf4jnsgd1na2vs0mg"},{"bike_id":"2b4740fa-fc94-4961-a9b4-908c2d923a76","system_id":"levelo_inurba_marseille","lat":43.30783,"lon":5.37649,"is_reserved":false,"is_disabled":false,"rental_uris":{"android":"levelo://app?vid=2b4740fa-fc94-4961-a9b4-908c2d923a76","ios":"levelo://app?vid=2b4740fa-fc94-4961-a9b4-908c2d923a76"},"vehicle_type_id":"4","last_reported":1740582646,"current_range_meters":18000,"station_id":"ce4bgv92rcd13ifvqcq0","pricing_plan_id":"cebpf4jnsgd1na2vs0mg"},{"bike_id":"0218e8ce-fbc5-4ac2-825f-791b6c77d99c","system_id":"levelo_inurba_marseille","lat":43.26237,"lon":5.40459,"is_reserved":false,"is_disabled":false,"rental_uris":{"android":"levelo://app?vid=0218e8ce-fbc5-4ac2-825f-791b6c77d99c","ios":"levelo://app?vid=0218e8ce-fbc5-4ac2-825f-791b6c77d99c"},"vehicle_type_id":"4","last_reported":1740582646,"current_range_meters":18800,"station_id":"ce4bhmh2rcd13ifvqgmg","pricing_plan_id":"cebpf4jnsgd1na2vs0mg"},{"bike_id":"051ca857-0755-4f9c-8974-a2bb60736cd4","system_id":"levelo_inurba_marseille","lat":43.31678,"lon":5.37723,"is_reserved":false,"is_disabled":false,"rental_uris":{"android":"levelo://app?vid=051ca857-0755-4f9c-8974-a2bb60736cd4","ios":"levelo://app?vid=051ca857-0755-4f9c-8974-a2bb60736cd4"},"vehicle_type_id":"4","last_reported":1740582646,"current_range_meters":17600,"station_id":"ce4bgth2rcd13ifvqch0","pricing_plan_id":"cebpf4jnsgd1na2vs0mg"},{"bike_id":"37d3ac00-0646-49af-b587-1b2558010612","system_id":"levelo_inurba_marseille","lat":43.273654,"lon":5.362646,"is_reserved":false,"is_disabled":false,"rental_uris":{"android":"levelo://app?vid=37d3ac00-0646-49af-b587-1b2558010612","ios":"levelo://app?vid=37d3ac00-0646-49af-b587-1b2558010612"},"vehicle_type_id":"4","last_reported":1740582646,"current_range_meters":19200,"station_id":"ce4bhu92rcd13ifvqi70","pricing_plan_id":"cebpf4jnsgd1na2vs0mg"},{"bike_id":"40e25f70-02b5-4811-add6-6e8dbc26a035","system_id":"levelo_inurba_marseille","lat":43.28406,"lon":5.34974,"is_reserved":false,"is_disabled":false,"rental_uris":{"android":"levelo://app?vid=40e25f70-02b5-4811-add6-6e8dbc26a035","ios":"levelo://app?vid=40e25f70-02b5-4811-add6-6e8dbc26a035"},"vehicle_type_id":"4","last_reported":1740582646,"current_range_meters":19200,"station_id":"ce4bhbh2rcd13ifvqepg","pricing_plan_id":"cebpf4jnsgd1na2vs0mg"},{"bike_id":"451bde95-d50a-4ae4-9f07-3d2475af7250","system_id":"levelo_inurba_marseille","lat":43.23158,"lon":5.43712,"is_reserved":false,"is_disabled":false,"rental_uris":{"android":"levelo://app?vid=451bde95-d50a-4ae4-9f07-3d2475af7250","ios":"levelo://app?vid=451bde95-d50a-4ae4-9f07-3d2475af7250"},"vehicle_type_id":"4","last_reported":1740582646,"current_range_meters":19200,"station_id":"ce4bhmp2rcd13ifvqgog","pricing_plan_id":"cebpf4jnsgd1na2vs0mg"},{"bike_id":"f445c443-2918-4c3b-abc6-dabac14bca1e","system_id":"levelo_inurba_marseille","lat":43.2993,"lon":5.36557,"is_reserved":false,"is_disabled":false,"rental_uris":{"android":"levelo://app?vid=f445c443-2918-4c3b-abc6-dabac14bca1e","ios":"levelo://app?vid=f445c443-2918-4c3b-abc6-dabac14bca1e"},"vehicle_type_id":"4","last_reported":1740582646,"current_range_meters":19200,"station_id":"ce4bgm92rcd13ifvqbr0","pricing_plan_id":"cebpf4jnsgd1na2vs0mg"},{"bike_id":"201b43e1-9166-4b93-9ecb-211bb1985890","system_id":"levelo_inurba_marseille","lat":43.3236,"lon":5.36763,"is_reserved":false,"is_disabled":false,"rental_uris":{"android":"levelo://app?vid=201b43e1-9166-4b93-9ecb-211bb1985890","ios":"levelo://app?vid=201b43e1-9166-4b93-9ecb-211bb1985890"},"vehicle_type_id":"4","last_reported":1740582646,"current_range_meters":19200,"station_id":"ce4bhsh2rcd13ifvqi2g","pricing_plan_id":"cebpf4jnsgd1na2vs0mg"},{"bike_id":"c804314b-e40e-43eb-91d9-e684164d9c95","system_id":"levelo_inurba_marseille","lat":43.28364,"lon":5.38645,"is_reserved":false,"is_disabled":false,"rental_uris":{"android":"levelo://app?vid=c804314b-e40e-43eb-91d9-e684164d9c95","ios":"levelo://app?vid=c804314b-e40e-43eb-91d9-e684164d9c95"},"vehicle_type_id":"4","last_reported":1740582646,"current_range_meters":19200,"station_id":"ce4bh492rcd13ifvqdvg","pricing_plan_id":"cebpf4jnsgd1na2vs0mg"},{"bike_id":"1e3d123a-2faa-4cd7-b940-9e2627687e28","system_id":"levelo_inurba_marseille","lat":43.3021,"lon":5.39463,"is_reserved":false,"is_disabled":false,"rental_uris":{"android":"levelo://app?vid=1e3d123a-2faa-4cd7-b940-9e2627687e28","ios":"levelo://app?vid=1e3d123a-2faa-4cd7-b940-9e2627687e28"},"vehicle_type_id":"4","last_reported":1740582646,"current_range_meters":19200,"station_id":"ce4bh0p2rcd13ifvqd70","pricing_plan_id":"cebpf4jnsgd1na2vs0mg"},{"bike_id":"cef979dc-ab08-4410-acc0-3195eab667a3","system_id":"levelo_inurba_marseille","lat":43.30429,"lon":5.38895,"is_reserved":false,"is_disabled":false,"rental_uris":{"android":"levelo://app?vid=cef979dc-ab08-4410-acc0-3195eab667a3","ios":"levelo://app?vid=cef979dc-ab08-4410-acc0-3195eab667a3"},"vehicle_type_id":"4","last_reported":1740582646,"current_range_meters":19200,"station_id":"ce4bgk12rcd13ifvqbi0","pricing_plan_id":"cebpf4jnsgd1na2vs0mg"},{"bike_id":"d337cc62-b29d-4e4a-bd4f-e767bd643d41","system_id":"levelo_inurba_marseille","lat":43.32108,"lon":5.36793,"is_reserved":false,"is_disabled":false,"rental_uris":{"android":"levelo://app?vid=d337cc62-b29d-4e4a-bd4f-e767bd643d41","ios":"levelo://app?vid=d337cc62-b29d-4e4a-bd4f-e767bd643d41"},"vehicle_type_id":"4","last_reported":1740582646,"current_range_meters":19600,"station_id":"ce4bhrh2rcd13ifvqhug","pricing_plan_id":"cebpf4jnsgd1na2vs0mg"},{"bike_id":"00ec3e1c-1d9e-4ac0-a4f6-1a20ef2c2f4b","system_id":"levelo_inurba_marseille","lat":43.30882,"lon":5.37198,"is_reserved":false,"is_disabled":false,"rental_uris":{"android":"levelo://app?vid=00ec3e1c-1d9e-4ac0-a4f6-1a20ef2c2f4b","ios":"levelo://app?vid=00ec3e1c-1d9e-4ac0-a4f6-1a20ef2c2f4b"},"vehicle_type_id":"4","last_reported":1740582646,"current_range_meters":19600,"station_id":"ce4bguh2rcd13ifvqckg","pricing_plan_id":"cebpf4jnsgd1na2vs0mg"},{"bike_id":"f2652af0-7f89-4f32-835a-da4ab8b102ce","system_id":"levelo_inurba_marseille","lat":43.28418,"lon":5.34976,"is_reserved":false,"is_disabled":false,"rental_uris":{"android":"levelo://app?vid=f2652af0-7f89-4f32-835a-da4ab8b102ce","ios":"levelo://app?vid=f2652af0-7f89-4f32-835a-da4ab8b102ce"},"vehicle_type_id":"4","last_reported":1740582646,"current_range_meters":18800,"station_id":"ce4bhbh2rcd13ifvqepg","pricing_plan_id":"cebpf4jnsgd1na2vs0mg"},{"bike_id":"71fd5501-4551-412c-a109-38a6c1435d6c","system_id":"levelo_inurba_marseille","lat":43.30291,"lon":5.39214,"is_reserved":false,"is_disabled":false,"rental_uris":{"android":"levelo://app?vid=71fd5501-4551-412c-a109-38a6c1435d6c","ios":"levelo://app?vid=71fd5501-4551-412c-a109-38a6c1435d6c"},"vehicle_type_id":"4","last_reported":1740582646,"current_range_meters":21600,"station_id":"ce4bgkh2rcd13ifvqbk0","pricing_plan_id":"cebpf4jnsgd1na2vs0mg"},{"bike_id":"0ec9f480-a7c4-4b9c-83f9-5ba308a01937","system_id":"levelo_inurba_marseille","lat":43.3027,"lon":5.377,"is_reserved":false,"is_disabled":false,"rental_uris":{"android":"levelo://app?vid=0ec9f480-a7c4-4b9c-83f9-5ba308a01937","ios":"levelo://app?vid=0ec9f480-a7c4-4b9c-83f9-5ba308a01937"},"vehicle_type_id":"4","last_reported":1740582646,"current_range_meters":19600,"station_id":"ce4bguh2rcd13ifvqcj0","pricing_plan_id":"cebpf4jnsgd1na2vs0mg"},