{"last_updated":1703599566,"ttl":30,"version":"2.2","data":{"bikes":[{"bike_id":"ff914119-8f96-4e5f-a4e6-bb0fe2afd7f9","system_id":"levelo_inurba_marseille","lat":43.31354,"lon":5.367171,"is_reserved":false,"is_disabled":false,"rental_uris":{"android":"levelo://app?vid=ff914119-8f96-4e5f-a4e6-bb0fe2afd7f9","ios":"levelo://app?vid=ff914119-8f96-4e5f-a4e6-bb0fe2afd7f9"},"vehicle_type_id":"4","last_reported":1703599566,"current_range_meters":13600,"station_id":"ce4bgr92rcd13ifvqc6g","pricing_plan_id":"free"},{"bike_id":"80829a0b-0540-4cdd-b542-9c77a086e82e","system_id":"levelo_inurba_marseille","lat":43.312239,"lon":5.368562,"is_reserved":false,"is_disabled":false,"rental_uris":{"android":"levelo://app?vid=80829a0b-0540-4cdd-b542-9c77a086e82e","ios":"levelo://app?vid=80829a0b-0540-4cdd-b542-9c77a086e82e"},"vehicle_type_id":"4","last_reported":1703599566,"current_range_meters":16000,"station_id":"ce4bgl92rcd13ifvqbq0","pricing_plan_id":"free"},{"bike_id":"6a1cf590-6f99-483e-835b-2e3f4ae0d4af","system_id":"levelo_inurba_marseille","lat":43.31229,"lon":5.36861,"is_reserved":false,"is_disabled":false,"rental_uris":{"android":"levelo://app?vid=6a1cf590-6f99-483e-835b-2e3f4ae0d4af","ios":"levelo://app?vid=6a1cf590-6f99-483e-835b-2e3f4ae0d4af"},"vehicle_type_id":"4","last_reported":1703599566,"current_range_meters":18000,"station_id":"ce4bgl92rcd13ifvqbq0","pricing_plan_id":"free"},{"bike_id":"61a1391a-a674-4f6d-ba66-d65b48bfa817","system_id":"levelo_inurba_marseille","lat":43.312239,"lon":5.368562,"is_reserved":false,"is_disabled":false,"rental_uris":{"android":"levelo://app?vid=61a1391a-a674-4f6d-ba66-d65b48bfa817","ios":"levelo://app?vid=61a1391a-a674-4f6d-ba66-d65b48bfa817"},"vehicle_type_id":"4","last_reported":1703599566,"current_range_meters":31600,"station_id":"ce4bgl92rcd13ifvqbq0","pricing_plan_id":"free"},{"bike_id":"9b576c51-3043-401b-862d-fc83694eaecd","system_id":"levelo_inurba_marseille","lat":43.3122,"lon":5.3686,"is_reserved":false,"is_disabled":false,"rental_uris":{"android":"levelo://app?vid=9b576c51-3043-401b-862d-fc83694eaecd","ios":"levelo://app?vid=9b576c51-3043-401b-862d-fc83694eaecd"},"vehicle_type_id":"4","last_reported":1703599566,"current_range_meters":31200,"station_id":"ce4bgl92rcd13ifvqbq0","pricing_plan_id":"free"},{"bike_id":"017043ed-9c86-4ccc-9db9-4432568e53df","system_id":"levelo_inurba_marseille","lat":43.309076,"lon":5.368465,"is_reserved":false,"is_disabled":false,"rental_uris":{"android":"levelo://app?vid=017043ed-9c86-4ccc-9db9-4432568e53df","ios":"levelo://app?vid=017043ed-9c86-4ccc-9db9-4432568e53df"},"vehicle_type_id":"4","last_reported":1703599566,"current_range_meters":28400,"station_id":"ce4bgn92rcd13ifvqbvg","pricing_plan_id":"free"},{"bike_id":"4bde8aee-9e18-46f6-b8dc-c48475d27629","system_id":"levelo_inurba_marseille","lat":43.309039,"lon":5.371797,"is_reserved":false,"is_disabled":false,"rental_uris":{"android":"levelo://app?vid=4bde8aee-9e18-46f6-b8dc-c48475d27629","ios":"levelo://app?vid=4bde8aee-9e18-46f6-b8dc-c48475d27629"},"vehicle_type_id":"4","last_reported":1703599566,"current_range_meters":28800,"station_id":"ce4bguh2rcd13ifvqckg","pricing_plan_id":"free"},{"bike_id":"98fc8f36-009c-49c0-bde9-eaacf0237add","system_id":"levelo_inurba_marseille","lat":43.31494,"lon":5.37392,"is_reserved":false,"is_disabled":false,"rental_uris":{"android":"levelo://app?vid=98fc8f36-009c-49c0-bde9-eaacf0237add","ios":"levelo://app?vid=98fc8f36-009c-49c0-bde9-eaacf0237add"},"vehicle_type_id":"4","last_reported":1703599566,"current_range_meters":25600,"station_id":"","pricing_plan_id":"free"},{"bike_id":"b27a3049-e74d-4462-aed4-9491a2c15b26","system_id":"levelo_inurba_marseille","lat":43.305714,"lon":5.365633,"is_reserved":false,"is_disabled":false,"rental_uris":{"android":"levelo://app?vid=b27a3049-e74d-4462-aed4-9491a2c15b26","ios":"levelo://app?vid=b27a3049-e74d-4462-aed4-9491a2c15b26"},"vehicle_type_id":"4","last_reported":1703599566,"current_range_meters":24000,"station_id":"ce4bgs12rcd13ifvqcag","pricing_plan_id":"free"},{"bike_id":"ed0ee458-d167-4624-8c61-96e3c5ea9645","system_id":"levelo_inurba_marseille","lat":43.305706,"lon":5.365654,"is_reserved":false,"is_disabled":false,"rental_uris":{"android":"levelo://app?vid=ed0ee458-d167-4624-8c61-96e3c5ea9645","ios":"levelo://app?vid=ed0ee458-d167-4624-8c61-96e3c5ea9645"},"vehicle_type_id":"4","last_reported":1703599566,"current_range_meters":1600,"station_id":"ce4bgs12rcd13ifvqcag","pricing_plan_id":"free"},{"bike_id":"7b9d4915-c4cf-45ef-8020-b6f91426f50a","system_id":"levelo_inurba_marseille","lat":43.305706,"lon":5.365654,"is_reserved":false,"is_disabled":false,"rental_uris":{"android":"levelo://app?vid=7b9d4915-c4cf-45ef-8020-b6f91426f50a","ios":"levelo://app?vid=7b9d4915-c4cf-45ef-8020-b6f91426f50a"},"vehicle_type_id":"4","last_reported":1703599566,"current_range_meters":1200,"station_id":"ce4bgs12rcd13ifvqcag","pricing_plan_id":"free"},{"bike_id":"8a5a65b7-888e-4cfd-9956-5762ca0fdc86","system_id":"levelo_inurba_marseille","lat":43.305706,"lon":5.365654,"is_reserved":false,"is_disabled":false,"rental_uris":{"android":"levelo://app?vid=8a5a65b7-888e-4cfd-9956-5762ca0fdc86","ios":"levelo://app?vid=8a5a65b7-888e-4cfd-9956-5762ca0fdc86"},"vehicle_type_id":"4","last_reported":1703599566,"current_range_meters":29600,"station_id":"ce4bgs12rcd13ifvqcag","pricing_plan_id":"free"},{"bike_id":"4e5d006d-e792-4f94-a49c-e009829b8369","system_id":"levelo_inurba_marseille","lat":43.305706,"lon":5.365654,"is_reserved":false,"is_disabled":false,"rental_uris":{"android":"levelo://app?vid=4e5d006d-e792-4f94-a49c-e009829b8369","ios":"levelo://app?vid=4e5d006d-e792-4f94-a49c-e009829b8369"},"vehicle_type_id":"4","last_reported":1703599566,"current_range_meters":6400,"station_id":"ce4bgs12rcd13ifvqcag","pricing_plan_id":"free"},{"bike_id":"abf067b0-c141-42c0-a017-e8afbab80473","system_id":"levelo_inurba_marseille","lat":43.311125,"lon":5.377624,"is_reserved":false,"is_disabled":false,"rental_uris":{"android":"levelo://app?vid=abf067b0-c141-42c0-a017-e8afbab80473","ios":"levelo://app?vid=abf067b0-c141-42c0-a017-e8afbab80473"},"vehicle_type_id":"4","last_reported":1703599566,"current_range_meters":31600,"station_id":"ce4bgt92rcd13ifvqcg0","pricing_plan_id":"free"},{"bike_id":"693bab79-617b-49b0-a20f-464e84378b4a","system_id":"levelo_inurba_marseille","lat":43.31112,"lon":5.37775,"is_reserved":false,"is_disabled":false,"rental_uris":{"android":"levelo://app?vid=693bab79-617b-49b0-a20f-464e84378b4a","ios":"levelo://app?vid=693bab79-617b-49b0-a20f-464e84378b4a"},"vehicle_type_id":"4","last_reported":1703599566,"current_range_meters":31200,"station_id":"ce4bgt92rcd13ifvqcg0","pricing_plan_id":"free"},{"bike_id":"53bf41ef-cf78-423b-99cf-11270ba412f6","system_id":"levelo_inurba_marseille","lat":43.307945,"lon":5.376487,"is_reserved":false,"is_disabled":false,"rental_uris":{"android":"levelo://app?vid=53bf41ef-cf78-423b-99cf-11270ba412f6","ios":"levelo://app?vid=53bf41ef-cf78-423b-99cf-11270ba412f6"},"vehicle_type_id":"4","last_reported":1703599566,"current_range_meters":3600,"station_id":"ce4bgv92rcd13ifvqcq0","pricing_plan_id":"free"},{"bike_id":"e1bff199-0791-4bab-9636-aca3c92bcb3a","system_id":"levelo_inurba_marseille","lat":43.307945,"lon":5.376487,"is_reserved":false,"is_disabled":false,"rental_uris":{"android":"levelo://app?vid=e1bff199-0791-4bab-9636-aca3c92bcb3a","ios":"levelo://app?vid=e1bff199-0791-4bab-9636-aca3c92bcb3a"},"vehicle_type_id":"4","last_reported":1703599566,"current_range_meters":28000,"station_id":"ce4bgv92rcd13ifvqcq0","pricing_plan_id":"free"},{"bike_id":"b8a4bf56-e844-4801-8e1e-c60dd05102fa","system_id":"levelo_inurba_marseille","lat":43.31703,"lon":5.377373,"is_reserved":false,"is_disabled":false,"rental_uris":{"android":"levelo://app?vid=b8a4bf56-e844-4801-8e1e-c60dd05102fa","ios":"levelo://app?vid=b8a4bf56-e844-4801-8e1e-c60dd05102fa"},"vehicle_type_id":"4","last_reported":1703599566,"current_range_meters":18800,"station_id":"ce4bgth2rcd13ifvqch0","pricing_plan_id":"free"},{"bike_id":"6bacfdab-720e-41ae-b84b-af62ebaab82b","system_id":"levelo_inurba_marseille","lat":43.303046,"lon":5.368981,"is_reserved":false,"is_disabled":false,"rental_uris":{"android":"levelo://app?vid=6bacfdab-720e-41ae-b84b-af62ebaab82b","ios":"levelo://app?vid=6bacfdab-720e-41ae-b84b-af62ebaab82b"},"vehicle_type_id":"4","last_reported":1703599566,"current_range_meters":28000,"station_id":"ce4bgqh2rcd13ifvqc5g","pricing_plan_id":"free"},{"bike_id":"0e248e90-c6e3-4fca-8b14-3fbbd568d31d","system_id":"levelo_inurba_marseille","lat":43.30304,"lon":5.368987,"is_reserved":false,"is_disabled":false,"rental_uris":{"android":"levelo://app?vid=0e248e90-c6e3-4fca-8b14-3fbbd568d31d","ios":"levelo://app?vid=0e248e90-c6e3-4fca-8b14-3fbbd568d31d"},"vehicle_type_id":"4","last_reported":1703599566,"current_range_meters":30400,"station_id":"ce4bgqh2rcd13ifvqc5g","pricing_plan_id":"free"},{"bike_id":"36c4061c-c567-431e-87f1-6a753cd4db92","system_id":"levelo_inurba_marseille","lat":43.303046,"lon":5.368981,"is_reserved":false,"is_disabled":false,"rental_uris":{"android":"levelo://app?vid=36c4061c-c567-431e-87f1-6a753cd4db92","ios":"levelo://app?vid=36c4061c-c567-431e-87f1-6a753cd4db92"},"vehicle_type_id":"4","last_reported":1703599566,"current_range_meters":31600,"station_id":"ce4bgqh2rcd13ifvqc5g","pricing_plan_id":"free"},{"bike_id":"6229a11e-67ff-4128-994f-a106996e1234","system_id":"levelo_inurba_marseille","lat":43.30987,"lon":5.37985,"is_reserved":false,"is_disabled":false,"rental_uris":{"android":"levelo://app?vid=6229a11e-67ff-4128-994f-a106996e1234","ios":"levelo://app?vid=6229a11e-67ff-4128-994f-a106996e1234"},"vehicle_type_id":"4","last_reported":1703599566,"current_range_meters":26000,"station_id":"","pricing_plan_id":"free"},{"bike_id":"89c00127-e530-4f17-89e6-94c0452b3854","system_id":"levelo_inurba_marseille","lat":43.303046,"lon":5.368981,"is_reserved":false,"is_disabled":false,"rental_uris":{"android":"levelo://app?vid=89c00127-e530-4f17-89e6-94c0452b3854","ios":"levelo://app?vid=89c00127-e530-4f17-89e6-94c0452b3854"},"vehicle_type_id":"4","last_reported":1703599566,"current_range_meters":24800,"station_id":"ce4bgqh2rcd13ifvqc5g","pricing_plan_id":"free"},{"bike_id":"965f9f83-28e6-4848-bbc6-59bd4bf76e17","system_id":"levelo_inurba_marseille","lat":43.301939,"lon":5.366286,"is_reserved":false,"is_disabled":false,"rental_uris":{"android":"levelo://app?vid=965f9f83-28e6-4848-bbc6-59bd4bf76e17","ios":"levelo://app?vid=965f9f83-28e6-4848-bbc6-59bd4bf76e17"},"vehicle_type_id":"4","last_reported":1703599566,"current_range_meters":25600,"station_id":"ce4bgrh2rcd13ifvqc8g","pricing_plan_id":"free"},{"bike_id":"0c78b797-64ce-4430-b997-46350d5db248","system_id":"levelo_inurba_marseille","lat":43.308012,"lon":5.381511,"is_reserved":false,"is_disabled":false,"rental_uris":{"android":"levelo://app?vid=0c78b797-64ce-4430-b997-46350d5db248","ios":"levelo://app?vid=0c78b797-64ce-4430-b997-46350d5db248"},"vehicle_type_id":"4","last_reported":1703599566,"current_range_meters":22400,"station_id":"ce4bgt12rcd13ifvqce0","pricing_plan_id":"free"},{"bike_id":"14ae0c22-5a04-4c3d-bc73-ded3673575f1","system_id":"levelo_inurba_marseille","lat":43.307986,"lon":5.38149,"is_reserved":false,"is_disabled":false,"rental_uris":{"android":"levelo://app?vid=14ae0c22-5a04-4c3d-bc73-ded3673575f1","ios":"levelo://app?vid=14ae0c22-5a04-4c3d-bc73-ded3673575f1"},"vehicle_type_id":"4","last_reported":1703599566,"current_range_meters":22000,"station_id":"ce4bgt12rcd13ifvqce0","pricing_plan_id":"free"},{"bike_id":"8f6313cb-01ad-4fba-9e68-4a7881bdfcb0","system_id":"levelo_inurba_marseille","lat":43.304606,"lon":5.379026,"is_reserved":false,"is_disabled":false,"rental_uris":{"android":"levelo://app?vid=8f6313cb-01ad-4fba-9e68-4a7881bdfcb0","ios":"levelo://app?vid=8f6313cb-01ad-4fba-9e68-4a7881bdfcb0"},"vehicle_type_id":"4","last_reported":1703599566,"current_range_meters":31600,"station_id":"ce4bgup2rcd13ifvqcn0","pricing_plan_id":"free"},{"bike_id":"a9bb2618-5a29-43e2-b671-aa5febeaa61d","system_id":"levelo_inurba_marseille","lat":43.304606,"lon":5.379026,"is_reserved":false,"is_disabled":false,"rental_uris":{"android":"levelo://app?vid=a9bb2618-5a29-43e2-b671-aa5febeaa61d","ios":"levelo://app?vid=a9bb2618-5a29-43e2-b671-aa5febeaa61d"},"vehicle_type_id":"4","last_reported":1703599566,"current_range_meters":28000,"station_id":"ce4bgup2rcd13ifvqcn0","pricing_plan_id":"free"},{"bike_id":"87256b0e-1874-48f0-aceb-5bd7cef4dded","system_id":"levelo_inurba_marseille","lat":43.304606,"lon":5.379026,"is_reserved":false,"is_disabled":false,"rental_uris":{"android":"levelo://app?vid=87256b0e-1874-48f0-aceb-5bd7cef4dded","ios":"levelo://app?vid=87256b0e-1874-48f0-aceb-5bd7cef4dded"},"vehicle_type_id":"4","last_reported":1703599566,"current_range_meters":27600,"station_id":"ce4bgup2rcd13ifvqcn0","pricing_plan_id":"free"},{"bike_id":"32ea843a-bf05-44f9-bda8-b882c4cf0b88","system_id":"levelo_inurba_marseille","lat":43.304606,"lon":5.379026,"is_reserved":false,"is_disabled":false,"rental_uris":{"android":"levelo://app?vid=32ea843a-bf05-44f9-bda8-b882c4cf0b88","ios":"levelo://app?vid=32ea843a-bf05-44f9-bda8-b882c4cf0b88"},"vehicle_type_id":"4","last_reported":1703599566,"current_range_meters":29600,"station_id":"ce4bgup2rcd13ifvqcn0","pricing_plan_id":"free"},{"bike_id":"015f3b0c-adfc-4673-bcc3-428f9b23222e","system_id":"levelo_inurba_marseille","lat":43.304606,"lon":5.379026,"is_reserved":false,"is_disabled":false,"rental_uris":{"android":"levelo://app?vid=015f3b0c-adfc-4673-bcc3-428f9b23222e","ios":"levelo://app?vid=015f3b0c-adfc-4673-bcc3-428f9b23222e"},"vehicle_type_id":"4","last_reported":1703599566,"current_range_meters":22000,"station_id":"ce4bgup2rcd13ifvqcn0","pricing_plan_id":"free"},{"bike_id":"1634db0c-011b-4709-946e-76c57fb481dc","system_id":"levelo_inurba_marseille","lat":43.304606,"lon":5.379026,"is_reserved":false,"is_disabled":false,"rental_uris":{"android":"levelo://app?vid=1634db0c-011b-4709-946e-76c57fb481dc","ios":"levelo://app?vid=1634db0c-011b-4709-946e-76c57fb481dc"},"vehicle_type_id":"4","last_reported":1703599566,"current_range_meters":26800,"station_id":"ce4bgup2rcd13ifvqcn0","pricing_plan_id":"free"},{"bike_id":"f9c0218b-5208-4023-a3a0-7953bfc9adf2","system_id":"levelo_inurba_marseille","lat":43.304606,"lon":5.379026,"is_reserved":false,"is_disabled":false,"rental_uris":{"android":"levelo://app?vid=f9c0218b-5208-4023-a3a0-7953bfc9adf2","ios":"levelo://app?vid=f9c0218b-5208-4023-a3a0-7953bfc9adf2"},"vehicle_type_id":"4","last_reported":1703599566,"current_range_meters":27600,"station_id":"ce4bgup2rcd13ifvqcn0","pricing_plan_id":"free"},{"bike_id":"2cdd80b7-4fde-42e8-9ebe-66052739ee41","system_id":"levelo_inurba_marseille","lat":43.304606,"lon":5.379026,"is_reserved":false,"is_disabled":false,"rental_uris":{"android":"levelo://app?vid=2cdd80b7-4fde-42e8-9ebe-66052739ee41","ios":"levelo://app?vid=2cdd80b7-4fde-42e8-9ebe-66052739ee41"},"vehicle_type_id":"4","last_reported":1703599566,"current_range_meters":15600,"station_id":"ce4bgup2rcd13ifvqcn0","pricing_plan_id":"free"},{"bike_id":"6090f78c-6cc9-4bc7-b02c-989bf16b1a1b","system_id":"levelo_inurba_marseille","lat":43.304606,"lon":5.379026,"is_reserved":false,"is_disabled":false,"rental_uris":{"android":"levelo://app?vid=6090f78c-6cc9-4bc7-b02c-989bf16b1a1b","ios":"levelo://app?vid=6090f78c-6cc9-4bc7-b02c-989bf16b1a1b"},"vehicle_type_id":"4","last_reported":1703599566,"current_range_meters":28400,"station_id":"ce4bgup2rcd13ifvqcn0","pricing_plan_id":"free"},{"bike_id":"2eea9922-e277-49ad-be5f-5a162a2879ff","system_id":"levelo_inurba_marseille","lat":43.304606,"lon":5.379026,"is_reserved":false,"is_disabled":false,"rental_uris":{"android":"levelo://app?vid=2eea9922-e277-49ad-be5f-5a162a2879ff","ios":"levelo://app?vid=2eea9922-e277-49ad-be5f-5a162a2879ff"},"vehicle_type_id":"4","last_reported":1703599566,"current_range_meters":26400,"station_id":"ce4bgup2rcd13ifvqcn0","pricing_plan_id":"free"},{"bike_id":"f5c0e4d6-16bd-47eb-ba92-aa201d0984ce","system_id":"levelo_inurba_marseille","lat":43.324853,"lon":5.365675,"is_reserved":false,"is_disabled":false,"rental_uris":{"android":"levelo://app?vid=f5c0e4d6-16bd-47eb-ba92-aa201d0984ce","ios":"levelo://app?vid=f5c0e4d6-16bd-47eb-ba92-aa201d0984ce"},"vehicle_type_id":"4","last_reported":1703599566,"current_range_meters":29200,"station_id":"ce4bhs12rcd13ifvqhvg","pricing_plan_id":"free"},{"bike_id":"3dde0b41-f07c-4fa0-b64a-6cfd4f98170d","system_id":"levelo_inurba_marseille","lat":43.301453,"lon":5.37416,"is_reserved":false,"is_disabled":false,"rental_uris":{"android":"levelo://app?vid=3dde0b41-f07c-4fa0-b64a-6cfd4f98170d","ios":"levelo://app?vid=3dde0b41-f07c-4fa0-b64a-6cfd4f98170d"},"vehicle_type_id":"4","last_reported":1703599566,"current_range_meters":13200,"station_id":"","pricing_plan_id":"free"},{"bike_id":"19817601-ffb0-4e9d-9398-789a16d83038","system_id":"levelo_inurba_marseille","lat":43.30146,"lon":5.37419,"is_reserved":false,"is_disabled":false,"rental_uris":{"android":"levelo://app?vid=19817601-ffb0-4e9d-9398-789a16d83038","ios":"levelo://app?vid=19817601-ffb0-4e9d-9398-789a16d83038"},"vehicle_type_id":"4","last_reported":1703599566,"current_range_meters":13200,"station_id":"ce4bgs92rcd13ifvqcc0","pricing_plan_id":"free"},{"bike_id":"b4305c8f-3d4b-44e5-a6ab-29fc38c9c29f","system_id":"levelo_inurba_marseille","lat":43.30138,"lon":5.37411,"is_reserved":false,"is_disabled":false,"rental_uris":{"android":"levelo://app?vid=b4305c8f-3d4b-44e5-a6ab-29fc38c9c29f","ios":"levelo://app?vid=b4305c8f-3d4b-44e5-a6ab-29fc38c9c29f"},"vehicle_type_id":"4","last_reported":1703599566,"current_range_meters":25200,"station_id":"ce4bgs92rcd13ifvqcc0","pricing_plan_id":"free"},{"bike_id":"70b0ad2a-6533-4324-9176-53aa3f1f6a7a","system_id":"levelo_inurba_marseille","lat":43.32,"lon":5.3814,"is_reserved":false,"is_disabled":false,"rental_uris":{"android":"levelo://app?vid=70b0ad2a-6533-4324-9176-53aa3f1f6a7a","ios":"levelo://app?vid=70b0ad2a-6533-4324-9176-53aa3f1f6a7a"},"vehicle_type_id":"4","last_reported":1703599566,"current_range_meters":2800,"station_id":"ce4bhr12rcd13ifvqhpg","pricing_plan_id":"free"},{"bike_id":"28e05efb-a4cd-4a75-b37c-fadd87475b54","system_id":"levelo_inurba_marseille","lat":43.319935,"lon":5.381699,"is_reserved":false,"is_disabled":false,"rental_uris":{"android":"levelo://app?vid=28e05efb-a4cd-4a75-b37c-fadd87475b54","ios":"levelo://app?vid=28e05efb-a4cd-4a75-b37c-fadd87475b54"},"vehicle_type_id":"4","last_reported":1703599566,"current_range_meters":9200,"station_id":"ce4bhr12rcd13ifvqhpg","pricing_plan_id":"free"},{"bike_id":"07f9dc04-883c-4025-9202-13faf1dfed74","system_id":"levelo_inurba_marseille","lat":43.313571,"lon":5.384829,"is_reserved":false,"is_disabled":false,"rental_uris":{"android":"levelo://app?vid=07f9dc04-883c-4025-9202-13faf1dfed74","ios":"levelo://app?vid=07f9dc04-883c-4025-9202-13faf1dfed74"},"vehicle_type_id":"4","last_reported":1703599566,"current_range_meters":29600,"station_id":"ce4bgt92rcd13ifvqcf0","pricing_plan_id":"free"},{"bike_id":"d472f24e-f420-4ced-822f-e7391aee9aeb","system_id":"levelo_inurba_marseille","lat":43.313571,"lon":5.384829,"is_reserved":false,"is_disabled":false,"rental_uris":{"android":"levelo://app?vid=d472f24e-f420-4ced-822f-e7391aee9aeb","ios":"levelo://app?vid=d472f24e-f420-4ced-822f-e7391aee9aeb"},"vehicle_type_id":"4","last_reported":1703599566,"current_range_meters":25600,"station_id":"ce4bgt92rcd13ifvqcf0","pricing_plan_id":"free"},{"bike_id":"98d9adc7-7e96-4973-9a29-d11d19a8ad12","system_id":"levelo_inurba_marseille","lat":43.299724,"lon":5.371829,"is_reserved":false,"is_disabled":false,"rental_uris":{"android":"levelo://app?vid=98d9adc7-7e96-4973-9a29-d11d19a8ad12","ios":"levelo://app?vid=98d9adc7-7e96-4973-9a29-d11d19a8ad12"},"vehicle_type_id":"4","last_reported":1703599566,"current_range_meters":20800,"station_id":"ce4bgr92rcd13ifvqc7g","pricing_plan_id":"free"},{"bike_id":"c1c0d194-0d92-4f75-8b04-06d86dcfecfc","system_id":"levelo_inurba_marseille","lat":43.299724,"lon":5.371829,"is_reserved":false,"is_disabled":false,"rental_uris":{"android":"levelo://app?vid=c1c0d194-0d92-4f75-8b04-06d86dcfecfc","ios":"levelo://app?vid=c1c0d194-0d92-4f75-8b04-06d86dcfecfc"},"vehicle_type_id":"4","last_reported":1703599566,"current_range_meters":4800,"station_id":"ce4bgr92rcd13ifvqc7g","pricing_plan_id":"free"},{"bike_id":"242173a6-86a9-4a69-9d62-18818bc143a1","system_id":"levelo_inurba_marseille","lat":43.299724,"lon":5.371829,"is_reserved":false,"is_disabled":false,"rental_uris":{"android":"levelo://app?vid=242173a6-86a9-4a69-9d62-18818bc143a1","ios":"levelo://app?vid=242173a6-86a9-4a69-9d62-18818bc143a1"},"vehicle_type_id":"4","last_reported":1703599566,"current_range_meters":30800,"station_id":"ce4bgr92rcd13ifvqc7g","pricing_plan_id":"free"},{"bike_id":"6229263c-108d-4bd5-9b30-eff981ca1f5e","system_id":"levelo_inurba_marseille","lat":43.29926,"lon":5.36564,"is_reserved":false,"is_disabled":false,"rental_uris":{"android":"levelo://app?vid=6229263c-108d-4bd5-9b30-eff981ca1f5e","ios":"levelo://app?vid=6229263c-108d-4bd5-9b30-eff981ca1f5e"},"vehicle_type_id":"4","last_reported":1703599566,"current_range_meters":20800,"station_id":"ce4bgm92rcd13ifvqbr0","pricing_plan_id":"free"},{"bike_id":"c4be67dc-d5a8-4d18-986c-9cbc140fea47","system_id":"levelo_inurba_marseille","lat":43.299724,"lon":5.371829,"is_reserved":false,"is_disabled":false,"rental_uris":{"android":"levelo://app?vid=c4be67dc-d5a8-4d18-986c-9cbc140fea47","ios":"levelo://app?vid=c4be67dc-d5a8-4d18-986c-9cbc140fea47"},"vehicle_type_id":"4","last_reported":1703599566,"current_range_meters":31600,"station_id":"ce4bgr92rcd13ifvqc7g","pricing_plan_id":"free"},{"bike_id":"0b027942-0182-4d86-990d-704fbc027420","system_id":"levelo_inurba_marseille","lat":43.298433,"lon":5.362774,"is_reserved":false,"is_disabled":false,"rental_uris":{"android":"levelo://app?vid=0b027942-0182-4d86-990d-704fbc027420","ios":"levelo://app?vid=0b027942-0182-4d86-990d-704fbc027420"},"vehicle_type_id":"4","last_reported":1703599566,"current_range_meters":31600,"station_id":"ce4bgpp2rcd13ifvqc3g","pricing_plan_id":"free"},{"bike_id":"7e84003f-7a56-4d49-87de-5e93a687029e","system_id":"levelo_inurba_marseille","lat":43.298433,"lon":5.362774,"is_reserved":false,"is_disabled":false,"rental_uris":{"android":"levelo://app?vid=7e84003f-7a56-4d49-87de-5e93a687029e","ios":"levelo://app?vid=7e84003f-7a56-4d49-87de-5e93a687029e"},"vehicle_type_id":"4","last_reported":1703599566,"current_range_meters":24000,"station_id":"ce4bgpp2rcd13ifvqc3g","pricing_plan_id":"free"},{"bike_id":"4fdc7eae-3c03-40f8-8d94-810f5386fefd","system_id":"levelo_inurba_marseille","lat":43.298433,"lon":5.362774,"is_reserved":false,"is_disabled":false,"rental_uris":{"android":"levelo://app?vid=4fdc7eae-3c03-40f8-8d94-810f5386fefd","ios":"levelo://app?vid=4fdc7eae-3c03-40f8-8d94-810f5386fefd"},"vehicle_type_id":"4","last_reported":1703599566,"current_range_meters":22400,"station_id":"ce4bgpp2rcd13ifvqc3g","pricing_plan_id":"free"},{"bike_id":"440936a4-12aa-4381-95e6-9d921940a7af","system_id":"levelo_inurba_marseille","lat":43.298433,"lon":5.362774,"is_reserved":false,"is_disabled":false,"rental_uris":{"android":"levelo://app?vid=440936a4-12aa-4381-95e6-9d921940a7af","ios":"levelo://app?vid=440936a4-12aa-4381-95e6-9d921940a7af"},"vehicle_type_id":"4","last_reported":1703599566,"current_range_meters":18400,"station_id":"ce4bgpp2rcd13ifvqc3g","pricing_plan_id":"free"},{"bike_id":"60a9e46e-d4ca-4956-ba81-bde3eeb8ce9e","system_id":"levelo_inurba_marseille","lat":43.298433,"lon":5.362774,"is_reserved":false,"is_disabled":false,"rental_uris":{"android":"levelo://app?vid=60a9e46e-d4ca-4956-ba81-bde3eeb8ce9e","ios":"levelo://app?vid=60a9e46e-d4ca-4956-ba81-bde3eeb8ce9e"},"vehicle_type_id":"4","last_reported":1703599566,"current_range_meters":31200,"station_id":"ce4bgpp2rcd13ifvqc3g","pricing_plan_id":"free"},{"bike_id":"e786662e-fc12-4212-9bc5-64336eb19af9","system_id":"levelo_inurba_marseille","lat":43.298433,"lon":5.362774,"is_reserved":false,"is_disabled":false,"rental_uris":{"android":"levelo://app?vid=e786662e-fc12-4212-9bc5-64336eb19af9","ios":"levelo://app?vid=e786662e-fc12-4212-9bc5-64336eb19af9"},"vehicle_type_id":"4","last_reported":1703599566,"current_range_meters":15600,"station_id":"ce4bgpp2rcd13ifvqc3g","pricing_plan_id":"free"},{"bike_id":"eb9abf2c-1715-493d-a3e0-80a1d2745767","system_id":"levelo_inurba_marseille","lat":43.305364,"lon":5.384119,"is_reserved":false,"is_disabled":false,"rental_uris":{"android":"levelo://app?vid=eb9abf2c-1715-493d-a3e0-80a1d2745767","ios":"levelo://app?vid=eb9abf2c-1715-493d-a3e0-80a1d2745767"},"vehicle_type_id":"4","last_reported":1703599566,"current_range_meters":29200,"station_id":"ce4bgg92rcd13ifvqb30","pricing_plan_id":"free"},{"bike_id":"4c92b629-1a1d-4404-b422-334632944f73","system_id":"levelo_inurba_marseille","lat":43.298433,"lon":5.362774,"is_reserved":false,"is_disabled":false,"rental_uris":{"android":"levelo://app?vid=4c92b629-1a1d-4404-b422-334632944f73","ios":"levelo://app?vid=4c92b629-1a1d-4404-b422-334632944f73"},"vehicle_type_id":"4","last_reported":1703599566,"current_range_meters":1200,"station_id":"ce4bgpp2rcd13ifvqc3g","pricing_plan_id":"free"},{"bike_id":"f8d31576-30c8-40b7-89b1-8dff158c6f74","system_id":"levelo_inurba_marseille","lat":43.298433,"lon":5.362774,"is_reserved":false,"is_disabled":false,"rental_uris":{"android":"levelo://app?vid=f8d31576-30c8-40b7-89b1-8dff158c6f74","ios":"levelo://app?vid=f8d31576-30c8-40b7-89b1-8dff158c6f74"},"vehicle_type_id":"4","last_reported":1703599566,"current_range_meters":20000,"station_id":"ce4bgpp2rcd13ifvqc3g","pricing_plan_id":"free"},{"bike_id":"3540d652-83ee-4e54-82bb-c4527c65e1e6","system_id":"levelo_inurba_marseille","lat":43.299243,"lon":5.374807,"is_reserved":false,"is_disabled":false,"rental_uris":{"android":"levelo://app?vid=3540d652-83ee-4e54-82bb-c4527c65e1e6","ios":"levelo://app?vid=3540d652-83ee-4e54-82bb-c4527c65e1e6"},"vehicle_type_id":"4","last_reported":1703599566,"current_range_meters":21600,"station_id":"ce4bgjh2rcd13ifvqbg0","pricing_plan_id":"free"},{"bike_id":"755e31db-0c7e-4e3e-9d1d-38bd7d5b4038","system_id":"levelo_inurba_marseille","lat":43.298433,"lon":5.362774,"is_reserved":false,"is_disabled":false,"rental_uris":{"android":"levelo://app?vid=755e31db-0c7e-4e3e-9d1d-38bd7d5b4038","ios":"levelo://app?vid=755e31db-0c7e-4e3e-9d1d-38bd7d5b4038"},"vehicle_type_id":"4","last_reported":1703599566,"current_range_meters":31200,"station_id":"ce4bgpp2rcd13ifvqc3g","pricing_plan_id":"free"},{"bike_id":"c17127a1-5834-401d-a635-16f5d0d3625b","system_id":"levelo_inurba_marseille","lat":43.298427,"lon":5.362649,"is_reserved":false,"is_disabled":false,"rental_uris":{"android":"levelo://app?vid=c17127a1-5834-401d-a635-16f5d0d3625b","ios":"levelo://app?vid=c17127a1-5834-401d-a635-16f5d0d3625b"},"vehicle_type_id":"4","last_reported":1703599566,"current_range_meters":26400,"station_id":"ce4bgpp2rcd13ifvqc3g","pricing_plan_id":"free"},{"bike_id":"6c62ef82-e859-43d5-87dc-a88497758ab5","system_id":"levelo_inurba_marseille","lat":43.298412,"lon":5.362723,"is_reserved":false,"is_disabled":false,"rental_uris":{"android":"levelo://app?vid=6c62ef82-e859-43d5-87dc-a88497758ab5","ios":"levelo://app?vid=6c62ef82-e859-43d5-87dc-a88497758ab5"},"vehicle_type_id":"4","last_reported":1703599566,"current_range_meters":27200,"station_id":"ce4bgpp2rcd13ifvqc3g","pricing_plan_id":"free"},{"bike_id":"ffa18e00-56e1-42d2-b5e3-5555b04a51b4","system_id":"levelo_inurba_marseille","lat":43.298423,"lon":5.362651,"is_reserved":false,"is_disabled":false,"rental_uris":{"android":"levelo://app?vid=ffa18e00-56e1-42d2-b5e3-5555b04a51b4","ios":"levelo://app?vid=ffa18e00-56e1-42d2-b5e3-5555b04a51b4"},"vehicle_type_id":"4","last_reported":1703599566,"current_range_meters":31200,"station_id":"ce4bgpp2rcd13ifvqc3g","pricing_plan_id":"free"},{"bike_id":"6b851782-af4a-469a-90d1-befb1e03d233","system_id":"levelo_inurba_marseille","lat":43.298419,"lon":5.362679,"is_reserved":false,"is_disabled":false,"rental_uris":{"android":"levelo://app?vid=6b851782-af4a-469a-90d1-befb1e03d233","ios":"levelo://app?vid=6b851782-af4a-469a-90d1-befb1e03d233"},"vehicle_type_id":"4","last_reported":1703599566,"current_range_meters":27200,"station_id":"ce4bgpp2rcd13ifvqc3g","pricing_plan_id":"free"},{"bike_id":"8b414ef6-e648-4831-9810-a223151100af","system_id":"levelo_inurba_marseille","lat":43.298418,"lon":5.362679,"is_reserved":false,"is_disabled":false,"rental_uris":{"android":"levelo://app?vid=8b414ef6-e648-4831-9810-a223151100af","ios":"levelo://app?vid=8b414ef6-e648-4831-9810-a223151100af"},"vehicle_type_id":"4","last_reported":1703599566,"current_range_meters":31200,"station_id":"ce4bgpp2rcd13ifvqc3g","pricing_plan_id":"free"},{"bike_id":"4595518e-797a-4543-9d5a-c45eb61795f6","system_id":"levelo_inurba_marseille","lat":43.311722,"lon":5.387247,"is_reserved":false,"is_disabled":false,"rental_uris":{"android":"levelo://app?vid=4595518e-797a-4543-9d5a-c45eb61795f6","ios":"levelo://app?vid=4595518e-797a-4543-9d5a-c45eb61795f6"},"vehicle_type_id":"4","last_reported":1703599566,"current_range_meters":20000,"station_id":"ce4bgv12rcd13ifvqcp0","pricing_plan_id":"free"},{"bike_id":"7f82a62b-99c4-4508-933c-ac67bda5ac8e","system_id":"levelo_inurba_marseille","lat":43.311722,"lon":5.387247,"is_reserved":false,"is_disabled":false,"rental_uris":{"android":"levelo://app?vid=7f82a62b-99c4-4508-933c-ac67bda5ac8e","ios":"levelo://app?vid=7f82a62b-99c4-4508-933c-ac67bda5ac8e"},"vehicle_type_id":"4","last_reported":1703599566,"current_range_meters":19600,"station_id":"ce4bgv12rcd13ifvqcp0","pricing_plan_id":"free"},{"bike_id":"f0847710-54c2-4e7f-b401-fb7aa27219e2","system_id":"levelo_inurba_marseille","lat":43.29803,"lon":5.37088,"is_reserved":false,"is_disabled":false,"rental_uris":{"android":"levelo://app?vid=f0847710-54c2-4e7f-b401-fb7aa27219e2","ios":"levelo://app?vid=f0847710-54c2-4e7f-b401-fb7aa27219e2"},"vehicle_type_id":"4","last_reported":1703599566,"current_range_meters":12000,"station_id":"ce4bgop2rcd13ifvqc1g","pricing_plan_id":"free"},{"bike_id":"e9fca379-f6f8-4bc1-9240-878e4fded797","system_id":"levelo_inurba_marseille","lat":43.29802,"lon":5.37105,"is_reserved":false,"is_disabled":false,"rental_uris":{"android":"levelo://app?vid=e9fca379-f6f8-4bc1-9240-878e4fded797","ios":"levelo://app?vid=e9fca379-f6f8-4bc1-9240-878e4fded797"},"vehicle_type_id":"4","last_reported":1703599566,"current_range_meters":25200,"station_id":"ce4bgop2rcd13ifvqc1g","pricing_plan_id":"free"},{"bike_id":"702ba885-cbd7-4ae9-af14-d89902cde706","system_id":"levelo_inurba_marseille","lat":43.297826,"lon":5.371023,"is_reserved":false,"is_disabled":false,"rental_uris":{"android":"levelo://app?vid=702ba885-cbd7-4ae9-af14-d89902cde706","ios":"levelo://app?vid=702ba885-cbd7-4ae9-af14-d89902cde706"},"vehicle_type_id":"4","last_reported":1703599566,"current_range_meters":28400,"station_id":"ce4bgop2rcd13ifvqc1g","pricing_plan_id":"free"},{"bike_id":"8306887e-cddc-4f17-adfa-3a368daf552c","system_id":"levelo_inurba_marseille","lat":43.29784,"lon":5.37115,"is_reserved":false,"is_disabled":false,"rental_uris":{"android":"levelo://app?vid=8306887e-cddc-4f17-adfa-3a368daf552c","ios":"levelo://app?vid=8306887e-cddc-4f17-adfa-3a368daf552c"},"vehicle_type_id":"4","last_reported":1703599566,"current_range_meters":25600,"station_id":"ce4bgop2rcd13ifvqc1g","pricing_plan_id":"free"},{"bike_id":"51714c4a-3132-4951-88ec-80e85fa125e8","system_id":"levelo_inurba_marseille","lat":43.328253,"lon":5.366866,"is_reserved":false,"is_disabled":false,"rental_uris":{"android":"levelo://app?vid=51714c4a-3132-4951-88ec-80e85fa125e8","ios":"levelo://app?vid=51714c4a-3132-4951-88ec-80e85fa125e8"},"vehicle_type_id":"4","last_reported":1703599566,"current_range_meters":5600,"station_id":"ce4bhs92rcd13ifvqi0g","pricing_plan_id":"free"},{"bike_id":"5c89eee7-6e83-42b4-bd81-efdcf68f6666","system_id":"levelo_inurba_marseille","lat":43.32826,"lon":5.36684,"is_reserved":false,"is_disabled":false,"rental_uris":{"android":"levelo://app?vid=5c89eee7-6e83-42b4-bd81-efdcf68f6666","ios":"levelo://app?vid=5c89eee7-6e83-42b4-bd81-efdcf68f6666"},"vehicle_type_id":"4","last_reported":1703599566,"current_range_meters":28800,"station_id":"ce4bhs92rcd13ifvqi0g","pricing_plan_id":"free"},{"bike_id":"a448ca86-2b35-41e1-89c4-32a99bab0563","system_id":"levelo_inurba_marseille","lat":43.328371,"lon":5.366909,"is_reserved":false,"is_disabled":false,"rental_uris":{"android":"levelo://app?vid=a448ca86-2b35-41e1-89c4-32a99bab0563","ios":"levelo://app?vid=a448ca86-2b35-41e1-89c4-32a99bab0563"},"vehicle_type_id":"4","last_reported":1703599566,"current_range_meters":7600,"station_id":"ce4bhs92rcd13ifvqi0g","pricing_plan_id":"free"},{"bike_id":"5fed18d1-7f81-4167-a351-7c4be7bb7921","system_id":"levelo_inurba_marseille","lat":43.328283,"lon":5.366902,"is_reserved":false,"is_disabled":false,"rental_uris":{"android":"levelo://app?vid=5fed18d1-7f81-4167-a351-7c4be7bb7921","ios":"levelo://app?vid=5fed18d1-7f81-4167-a351-7c4be7bb7921"},"vehicle_type_id":"4","last_reported":1703599566,"current_range_meters":2000,"station_id":"ce4bhs92rcd13ifvqi0g","pricing_plan_id":"free"},{"bike_id":"904f83aa-e9ab-401d-84c1-9edfed82b884","system_id":"levelo_inurba_marseille","lat":43.328371,"lon":5.366909,"is_reserved":false,"is_disabled":false,"rental_uris":{"android":"levelo://app?vid=904f83aa-e9ab-401d-84c1-9edfed82b884","ios":"levelo://app?vid=904f83aa-e9ab-401d-84c1-9edfed82b884"},"vehicle_type_id":"4","last_reported":1703599566,"current_range_meters":19200,"station_id":"ce4bhs92rcd13ifvqi0g","pricing_plan_id":"free"},{"bike_id":"6f67326a-1664-406f-9978-902e013e2357","system_id":"levelo_inurba_marseille","lat":43.328371,"lon":5.366909,"is_reserved":false,"is_disabled":false,"rental_uris":{"android":"levelo://app?vid=6f67326a-1664-406f-9978-902e013e2357","ios":"levelo://app?vid=6f67326a-1664-406f-9978-902e013e2357"},"vehicle_type_id":"4","last_reported":1703599566,"current_range_meters":10800,"station_id":"ce4bhs92rcd13ifvqi0g","pricing_plan_id":"free"},{"bike_id":"de708f00-7118-4d7c-9021-d7dcbd798473","system_id":"levelo_inurba_marseille","lat":43.328371,"lon":5.366909,"is_reserved":false,"is_disabled":false,"rental_uris":{"android":"levelo://app?vid=de708f00-7118-4d7c-9021-d7dcbd798473","ios":"levelo://app?vid=de708f00-7118-4d7c-9021-d7dcbd798473"},"vehicle_type_id":"4","last_reported":1703599566,"current_range_meters":25200,"station_id":"ce4bhs92rcd13ifvqi0g","pricing_plan_id":"free"},{"bike_id":"e25a536f-1b6a-4896-a9d0-fc56e838306c","system_id":"levelo_inurba_marseille","lat":43.307945,"lon":5.376487,"is_reserved":false,"is_disabled":false,"rental_uris":{"android":"levelo://app?vid=e25a536f-1b6a-4896-a9d0-fc56e838306c","ios":"levelo://app?vid=e25a536f-1b6a-4896-a9d0-fc56e838306c"},"vehicle_type_id":"4","last_reported":1703599566,"current_range_meters":4800,"station_id":"ce4bgv92rcd13ifvqcq0","pricing_plan_id":"free"},{"bike_id":"40c2b532-aa81-4c78-b896-98260fc2f589","system_id":"levelo_inurba_marseille","lat":43.297163,"lon":5.365866,"is_reserved":false,"is_disabled":false,"rental_uris":{"android":"levelo://app?vid=40c2b532-aa81-4c78-b896-98260fc2f589","ios":"levelo://app?vid=40c2b532-aa81-4c78-b896-98260fc2f589"},"vehicle_type_id":"4","last_reported":1703599566,"current_range_meters":30800,"station_id":"ce4bgn12rcd13ifvqbt0","pricing_plan_id":"free"},{"bike_id":"84f1f0f6-25a2-4372-a44b-38d0f0d0a9ce","system_id":"levelo_inurba_marseille","lat":43.297163,"lon":5.365866,"is_reserved":false,"is_disabled":false,"rental_uris":{"android":"levelo://app?vid=84f1f0f6-25a2-4372-a44b-38d0f0d0a9ce","ios":"levelo://app?vid=84f1f0f6-25a2-4372-a44b-38d0f0d0a9ce"},"vehicle_type_id":"4","last_reported":1703599566,"current_range_meters":28000,"station_id":"ce4bgn12rcd13ifvqbt0","pricing_plan_id":"free"},{"bike_id":"6f1b7b06-1f77-4b88-bf73-5d81f3ee7e07","system_id":"levelo_inurba_marseille","lat":43.2968,"lon":5.37291,"is_reserved":false,"is_disabled":false,"rental_uris":{"android":"levelo://app?vid=6f1b7b06-1f77-4b88-bf73-5d81f3ee7e07","ios":"levelo://app?vid=6f1b7b06-1f77-4b88-bf73-5d81f3ee7e07"},"vehicle_type_id":"4","last_reported":1703599566,"current_range_meters":30400,"station_id":"ce4bgk12rcd13ifvqbj0","pricing_plan_id":"free"},{"bike_id":"921b424d-ad0d-4c7a-9d74-66e3a49bfa19","system_id":"levelo_inurba_marseille","lat":43.32934,"lon":5.36612,"is_reserved":false,"is_disabled":false,"rental_uris":{"android":"levelo://app?vid=921b424d-ad0d-4c7a-9d74-66e3a49bfa19","ios":"levelo://app?vid=921b424d-ad0d-4c7a-9d74-66e3a49bfa19"},"vehicle_type_id":"4","last_reported":1703599566,"current_range_meters":20800,"station_id":"","pricing_plan_id":"free"},{"bike_id":"06e957bd-df49-4d32-abc4-2e72cf631ab7","system_id":"levelo_inurba_marseille","lat":43.29573,"lon":5.367355,"is_reserved":false,"is_disabled":false,"rental_uris":{"android":"levelo://app?vid=06e957bd-df49-4d32-abc4-2e72cf631ab7","ios":"levelo://app?vid=06e957bd-df49-4d32-abc4-2e72cf631ab7"},"vehicle_type_id":"4","last_reported":1703599566,"current_range_meters":28800,"station_id":"ce4bgph2rcd13ifvqc2g","pricing_plan_id":"free"},{"bike_id":"8beb582a-00c8-4e62-966b-a4bcdf0aa12c","system_id":"levelo_inurba_marseille","lat":43.296921,"lon":5.376579,"is_reserved":false,"is_disabled":false,"rental_uris":{"android":"levelo://app?vid=8beb582a-00c8-4e62-966b-a4bcdf0aa12c","ios":"levelo://app?vid=8beb582a-00c8-4e62-966b-a4bcdf0aa12c"},"vehicle_type_id":"4","last_reported":1703599566,"current_range_meters":32000,"station_id":"ce4bgkh2rcd13ifvqbl0","pricing_plan_id":"free"},{"bike_id":"b3efd706-6e81-4c49-8468-0d279a9fc160","system_id":"levelo_inurba_marseille","lat":43.297319,"lon":5.376859,"is_reserved":false,"is_disabled":false,"rental_uris":{"android":"levelo://app?vid=b3efd706-6e81-4c49-8468-0d279a9fc160","ios":"levelo://app?vid=b3efd706-6e81-4c49-8468-0d279a9fc160"},"vehicle_type_id":"4","last_reported":1703599566,"current_range_meters":26800,"station_id":"ce4bgkh2rcd13ifvqbl0","pricing_plan_id":"free"},{"bike_id":"1ddbd0f3-15fe-4f8a-8117-19b409d39702","system_id":"levelo_inurba_marseille","lat":43.296935,"lon":5.376544,"is_reserved":false,"is_disabled":false,"rental_uris":{"android":"levelo://app?vid=1ddbd0f3-15fe-4f8a-8117-19b409d39702","ios":"levelo://app?vid=1ddbd0f3-15fe-4f8a-8117-19b409d39702"},"vehicle_type_id":"4","last_reported":1703599566,"current_range_meters":28400,"station_id":"ce4bgkh2rcd13ifvqbl0","pricing_plan_id":"free"},{"bike_id":"82d2b1bc-3076-46d3-870d-67cdfd465ecc","system_id":"levelo_inurba_marseille","lat":43.297193,"lon":5.376907,"is_reserved":false,"is_disabled":false,"rental_uris":{"android":"levelo://app?vid=82d2b1bc-3076-46d3-870d-67cdfd465ecc","ios":"levelo://app?vid=82d2b1bc-3076-46d3-870d-67cdfd465ecc"},"vehicle_type_id":"4","last_reported":1703599566,"current_range_meters":28800,"station_id":"ce4bgkh2rcd13ifvqbl0","pricing_plan_id":"free"},{"bike_id":"0fd41093-3abe-40fc-811a-f139caf221cb","system_id":"levelo_inurba_marseille","lat":43.299028,"lon":5.381509,"is_reserved":false,"is_disabled":false,"rental_uris":{"android":"levelo://app?vid=0fd41093-3abe-40fc-811a-f139caf221cb","ios":"levelo://app?vid=0fd41093-3abe-40fc-811a-f139caf221cb"},"vehicle_type_id":"4","last_reported":1703599566,"current_range_meters":20800,"station_id":"ce4bgj12rcd13ifvqbc0","pricing_plan_id":"free"},{"bike_id":"8882a937-1c69-4f4a-b9af-23eafa31c777","system_id":"levelo_inurba_marseille","lat":43.297013,"lon":5.376705,"is_reserved":false,"is_disabled":false,"rental_uris":{"android":"levelo://app?vid=8882a937-1c69-4f4a-b9af-23eafa31c777","ios":"levelo://app?vid=8882a937-1c69-4f4a-b9af-23eafa31c777"},"vehicle_type_id":"4","last_reported":1703599566,"current_range_meters":23200,"station_id":"ce4bh3p2rcd13ifvqdq0","pricing_plan_id":"free"},{"bike_id":"b16e11a2-b8db-412e-9373-5016ec4fb3e6","system_id":"levelo_inurba_marseille","lat":43.296921,"lon":5.376579,"is_reserved":false,"is_disabled":false,"rental_uris":{"android":"levelo://app?vid=b16e11a2-b8db-412e-9373-5016ec4fb3e6","ios":"levelo://app?vid=b16e11a2-b8db-412e-9373-5016ec4fb3e6"},"vehicle_type_id":"4","last_reported":1703599566,"current_range_meters":7200,"station_id":"ce4bgkh2rcd13ifvqbl0","pricing_plan_id":"free"},{"bike_id":"abb9bbaa-c0eb-43ea-af7c-73ed09262bd7","system_id":"levelo_inurba_marseille","lat":43.299028,"lon":5.381509,"is_reserved":false,"is_disabled":false,"rental_uris":{"android":"levelo://app?vid=abb9bbaa-c0eb-43ea-af7c-73ed09262bd7","ios":"levelo://app?vid=abb9bbaa-c0eb-43ea-af7c-73ed09262bd7"},"vehicle_type_id":"4","last_reported":1703599566,"current_range_meters":27600,"station_id":"ce4bgj12rcd13ifvqbc0","pricing_plan_id":"free"},{"bike_id":"0635876a-c2db-46c5-9dd1-c05857ec4b9c","system_id":"levelo_inurba_marseille","lat":43.309589,"lon":5.390258,"is_reserved":false,"is_disabled":false,"rental_uris":{"android":"levelo://app?vid=0635876a-c2db-46c5-9dd1-c05857ec4b9c","ios":"levelo://app?vid=0635876a-c2db-46c5-9dd1-c05857ec4b9c"},"vehicle_type_id":"4","last_reported":1703599566,"current_range_meters":6800,"station_id":"ce4bgup2rcd13ifvqco0","pricing_plan_id":"free"},{"bike_id":"c24325d0-1234-43e4-a38f-b36bf0b94166","system_id":"levelo_inurba_marseille","lat":43.29706,"lon":5.37707,"is_reserved":false,"is_disabled":false,"rental_uris":{"android":"levelo://app?vid=c24325d0-1234-43e4-a38f-b36bf0b94166","ios":"levelo://app?vid=c24325d0-1234-43e4-a38f-b36bf0b94166"},"vehicle_type_id":"4","last_reported":1703599566,"current_range_meters":28400,"station_id":"ce4bgkh2rcd13ifvqbl0","pricing_plan_id":"free"},{"bike_id":"9e614ecc-4de0-4775-98c6-5c96ef2e881a","system_id":"levelo_inurba_marseille","lat":43.309589,"lon":5.390258,"is_reserved":false,"is_disabled":false,"rental_uris":{"android":"levelo://app?vid=9e614ecc-4de0-4775-98c6-5c96ef2e881a","ios":"levelo://app?vid=9e614ecc-4de0-4775-98c6-5c96ef2e881a"},"vehicle_type_id":"4","last_reported":1703599566,"current_range_meters":31600,"station_id":"ce4bgup2rcd13ifvqco0","pricing_plan_id":"free"},{"bike_id":"b2125ad6-c2bc-4bc5-8986-4775a242da19","system_id":"levelo_inurba_marseille","lat":43.299028,"lon":5.381509,"is_reserved":false,"is_disabled":false,"rental_uris":{"android":"levelo://app?vid=b2125ad6-c2bc-4bc5-8986-4775a242da19","ios":"levelo://app?vid=b2125ad6-c2bc-4bc5-8986-4775a242da19"},"vehicle_type_id":"4","last_reported":1703599566,"current_range_meters":28400,"station_id":"ce4bgj12rcd13ifvqbc0","pricing_plan_id":"free"},{"bike_id":"1f8b878f-f671-4790-8d5b-c4dcdaf0ca88","system_id":"levelo_inurba_marseille","lat":43.317557,"lon":5.390173,"is_reserved":false,"is_disabled":false,"rental_uris":{"android":"levelo://app?vid=1f8b878f-f671-4790-8d5b-c4dcdaf0ca88","ios":"levelo://app?vid=1f8b878f-f671-4790-8d5b-c4dcdaf0ca88"},"vehicle_type_id":"4","last_reported":1703599566,"current_range_meters":28000,"station_id":"ce4bhqp2rcd13ifvqhng","pricing_plan_id":"free"},{"bike_id":"a2ecb5f5-86d3-4c84-8e01-2c9616d7acd8","system_id":"levelo_inurba_marseille","lat":43.296277,"lon":5.377108,"is_reserved":false,"is_disabled":false,"rental_uris":{"android":"levelo://app?vid=a2ecb5f5-86d3-4c84-8e01-2c9616d7acd8","ios":"levelo://app?vid=a2ecb5f5-86d3-4c84-8e01-2c9616d7acd8"},"vehicle_type_id":"4","last_reported":1703599566,"current_range_meters":26800,"station_id":"ce4bgi92rcd13ifvqb90","pricing_plan_id":"free"},{"bike_id":"99fe8493-071b-44bc-90b9-6621e3da5f9e","system_id":"levelo_inurba_marseille","lat":43.295279,"lon":5.375048,"is_reserved":false,"is_disabled":false,"rental_uris":{"android":"levelo://app?vid=99fe8493-071b-44bc-90b9-6621e3da5f9e","ios":"levelo://app?vid=99fe8493-071b-44bc-90b9-6621e3da5f9e"},"vehicle_type_id":"4","last_reported":1703599566,"current_range_meters":20400,"station_id":"ce4bgkp2rcd13ifvqbmg","pricing_plan_id":"free"},{"bike_id":"4905f7e0-05f0-4672-92aa-9ea49b8d218e","system_id":"levelo_inurba_marseille","lat":43.295279,"lon":5.375048,"is_reserved":false,"is_disabled":false,"rental_uris":{"android":"levelo://app?vid=4905f7e0-05f0-4672-92aa-9ea49b8d218e","ios":"levelo://app?vid=4905f7e0-05f0-4672-92aa-9ea49b8d218e"},"vehicle_type_id":"4","last_reported":1703599566,"current_range_meters":10000,"station_id":"ce4bgkp2rcd13ifvqbmg","pricing_plan_id":"free"},{"bike_id":"f58e7ddd-546d-4687-99a1-dea80d2744ef","system_id":"levelo_inurba_marseille","lat":43.29974,"lon":5.38493,"is_reserved":false,"is_disabled":false,"rental_uris":{"android":"levelo://app?vid=f58e7ddd-546d-4687-99a1-dea80d2744ef","ios":"levelo://app?vid=f58e7ddd-546d-4687-99a1-dea80d2744ef"},"vehicle_type_id":"4","last_reported":1703599566,"current_range_meters":0,"station_id":"ce4bgj92rcd13ifvqbd0","pricing_plan_id":"free"},{"bike_id":"ba88d1e0-808f-4d49-b6ae-d2edaa3a17fb","system_id":"levelo_inurba_marseille","lat":43.295279,"lon":5.375048,"is_reserved":false,"is_disabled":false,"rental_uris":{"android":"levelo://app?vid=ba88d1e0-808f-4d49-b6ae-d2edaa3a17fb","ios":"levelo://app?vid=ba88d1e0-808f-4d49-b6ae-d2edaa3a17fb"},"vehicle_type_id":"4","last_reported":1703599566,"current_range_meters":29600,"station_id":"ce4bgkp2rcd13ifvqbmg","pricing_plan_id":"free"},{"bike_id":"b1235778-3e4c-42e9-80d8-b992eb299a4b","system_id":"levelo_inurba_marseille","lat":43.295279,"lon":5.375048,"is_reserved":false,"is_disabled":false,"rental_uris":{"android":"levelo://app?vid=b1235778-3e4c-42e9-80d8-b992eb299a4b","ios":"levelo://app?vid=b1235778-3e4c-42e9-80d8-b992eb299a4b"},"vehicle_type_id":"4","last_reported":1703599566,"current_range_meters":26800,"station_id":"ce4bgkp2rcd13ifvqbmg","pricing_plan_id":"free"},{"bike_id":"bd5957b4-f06f-4227-b255-31afe50841a7","system_id":"levelo_inurba_marseille","lat":43.299717,"lon":5.384845,"is_reserved":false,"is_disabled":false,"rental_uris":{"android":"levelo://app?vid=bd5957b4-f06f-4227-b255-31afe50841a7","ios":"levelo://app?vid=bd5957b4-f06f-4227-b255-31afe50841a7"},"vehicle_type_id":"4","last_reported":1703599566,"current_range_meters":15600,"station_id":"ce4bgj92rcd13ifvqbd0","pricing_plan_id":"free"},{"bike_id":"ca648836-1ddd-4096-9a23-19966a204097","system_id":"levelo_inurba_marseille","lat":43.299717,"lon":5.384845,"is_reserved":false,"is_disabled":false,"rental_uris":{"android":"levelo://app?vid=ca648836-1ddd-4096-9a23-19966a204097","ios":"levelo://app?vid=ca648836-1ddd-4096-9a23-19966a204097"},"vehicle_type_id":"4","last_reported":1703599566,"current_range_meters":31600,"station_id":"ce4bgj92rcd13ifvqbd0","pricing_plan_id":"free"},{"bike_id":"cd250d41-719f-4f46-bdad-4802b2b95cdf","system_id":"levelo_inurba_marseille","lat":43.299717,"lon":5.384845,"is_reserved":false,"is_disabled":false,"rental_uris":{"android":"levelo://app?vid=cd250d41-719f-4f46-bdad-4802b2b95cdf","ios":"levelo://app?vid=cd250d41-719f-4f46-bdad-4802b2b95cdf"},"vehicle_type_id":"4","last_reported":1703599566,"current_range_meters":27600,"station_id":"ce4bgj92rcd13ifvqbd0","pricing_plan_id":"free"},{"bike_id":"466ac37c-cd7b-4ec3-b039-3d61dd1e2b0a","system_id":"levelo_inurba_marseille","lat":43.29601,"lon":5.381084,"is_reserved":false,"is_disabled":false,"rental_uris":{"android":"levelo://app?vid=466ac37c-cd7b-4ec3-b039-3d61dd1e2b0a","ios":"levelo://app?vid=466ac37c-cd7b-4ec3-b039-3d61dd1e2b0a"},"vehicle_type_id":"4","last_reported":1703599566,"current_range_meters":26000,"station_id":"ce4bgl12rcd13ifvqbo0","pricing_plan_id":"free"},{"bike_id":"e0f74817-3071-444d-9d77-cd26f5d66ea5","system_id":"levelo_inurba_marseille","lat":43.293259,"lon":5.371586,"is_reserved":false,"is_disabled":false,"rental_uris":{"android":"levelo://app?vid=e0f74817-3071-444d-9d77-cd26f5d66ea5","ios":"levelo://app?vid=e0f74817-3071-444d-9d77-cd26f5d66ea5"},"vehicle_type_id":"4","last_reported":1703599566,"current_range_meters":31600,"station_id":"ce4bgh92rcd13ifvqb40","pricing_plan_id":"free"},{"bike_id":"1e369da8-9b72-41fc-b6d5-b05ca21aed07","system_id":"levelo_inurba_marseille","lat":43.293259,"lon":5.371586,"is_reserved":false,"is_disabled":false,"rental_uris":{"android":"levelo://app?vid=1e369da8-9b72-41fc-b6d5-b05ca21aed07","ios":"levelo://app?vid=1e369da8-9b72-41fc-b6d5-b05ca21aed07"},"vehicle_type_id":"4","last_reported":1703599566,"current_range_meters":16000,"station_id":"ce4bgh92rcd13ifvqb40","pricing_plan_id":"free"},{"bike_id":"2293a425-b9a3-40b2-bb13-63f4fa997a78","system_id":"levelo_inurba_marseille","lat":43.292749,"lon":5.368402,"is_reserved":false,"is_disabled":false,"rental_uris":{"android":"levelo://app?vid=2293a425-b9a3-40b2-bb13-63f4fa997a78","ios":"levelo://app?vid=2293a425-b9a3-40b2-bb13-63f4fa997a78"},"vehicle_type_id":"4","last_reported":1703599566,"current_range_meters":26800,"station_id":"ce4bhbp2rcd13ifvqesg","pricing_plan_id":"free"},{"bike_id":"5d4519db-14c8-4185-9697-acef5c8d0ebe","system_id":"levelo_inurba_marseille","lat":43.302992,"lon":5.392136,"is_reserved":false,"is_disabled":false,"rental_uris":{"android":"levelo://app?vid=5d4519db-14c8-4185-9697-acef5c8d0ebe","ios":"levelo://app?vid=5d4519db-14c8-4185-9697-acef5c8d0ebe"},"vehicle_type_id":"4","last_reported":1703599566,"current_range_meters":5200,"station_id":"ce4bgkh2rcd13ifvqbk0","pricing_plan_id":"free"},{"bike_id":"1a9988b1-bf19-4a4d-9f29-6f5f9bbf6294","system_id":"levelo_inurba_marseille","lat":43.2936,"lon":5.37835,"is_reserved":false,"is_disabled":false,"rental_uris":{"android":"levelo://app?vid=1a9988b1-bf19-4a4d-9f29-6f5f9bbf6294","ios":"levelo://app?vid=1a9988b1-bf19-4a4d-9f29-6f5f9bbf6294"},"vehicle_type_id":"4","last_reported":1703599566,"current_range_meters":7200,"station_id":"ce4bgjh2rcd13ifvqbf0","pricing_plan_id":"free"},{"bike_id":"f64d2ebf-2c7a-4376-bac7-f238a421d87c","system_id":"levelo_inurba_marseille","lat":43.292311,"lon":5.360731,"is_reserved":false,"is_disabled":false,"rental_uris":{"android":"levelo://app?vid=f64d2ebf-2c7a-4376-bac7-f238a421d87c","ios":"levelo://app?vid=f64d2ebf-2c7a-4376-bac7-f238a421d87c"},"vehicle_type_id":"4","last_reported":1703599566,"current_range_meters":18400,"station_id":"ce4bhbh2rcd13ifvqeqg","pricing_plan_id":"free"},{"bike_id":"876a498e-fe73-4314-9943-12cd49bc87b3","system_id":"levelo_inurba_marseille","lat":43.295279,"lon":5.375048,"is_reserved":false,"is_disabled":false,"rental_uris":{"android":"levelo://app?vid=876a498e-fe73-4314-9943-12cd49bc87b3","ios":"levelo://app?vid=876a498e-fe73-4314-9943-12cd49bc87b3"},"vehicle_type_id":"4","last_reported":1703599566,"current_range_meters":20800,"station_id":"ce4bgkp2rcd13ifvqbmg","pricing_plan_id":"free"},{"bike_id":"00089bd2-804d-472d-9b8d-7b3a6399edfe","system_id":"levelo_inurba_marseille","lat":43.2936,"lon":5.37835,"is_reserved":false,"is_disabled":false,"rental_uris":{"android":"levelo://app?vid=00089bd2-804d-472d-9b8d-7b3a6399edfe","ios":"levelo://app?vid=00089bd2-804d-472d-9b8d-7b3a6399edfe"},"vehicle_type_id":"4","last_reported":1703599566,"current_range_meters":25600,"station_id":"ce4bgjh2rcd13ifvqbf0","pricing_plan_id":"free"},{"bike_id":"3ef9d71a-056c-4c1f-98b4-46e1d7aed9b4","system_id":"levelo_inurba_marseille","lat":43.291675,"lon":5.371583,"is_reserved":false,"is_disabled":false,"rental_uris":{"android":"levelo://app?vid=3ef9d71a-056c-4c1f-98b4-46e1d7aed9b4","ios":"levelo://app?vid=3ef9d71a-056c-4c1f-98b4-46e1d7aed9b4"},"vehicle_type_id":"4","last_reported":1703599566,"current_range_meters":6800,"station_id":"ce4bha92rcd13ifvqeh0","pricing_plan_id":"free"},{"bike_id":"f8ad87fb-faf9-4310-8434-bc415fdf4816","system_id":"levelo_inurba_marseille","lat":43.29867,"lon":5.38909,"is_reserved":false,"is_disabled":false,"rental_uris":{"android":"levelo://app?vid=f8ad87fb-faf9-4310-8434-bc415fdf4816","ios":"levelo://app?vid=f8ad87fb-faf9-4310-8434-bc415fdf4816"},"vehicle_type_id":"4","last_reported":1703599566,"current_range_meters":22800,"station_id":"","pricing_plan_id":"free"},{"bike_id":"2e2f5058-0de0-4941-bc5c-391537d16491","system_id":"levelo_inurba_marseille","lat":43.313291,"lon":5.396838,"is_reserved":false,"is_disabled":false,"rental_uris":{"android":"levelo://app?vid=2e2f5058-0de0-4941-bc5c-391537d16491","ios":"levelo://app?vid=2e2f5058-0de0-4941-bc5c-391537d16491"},"vehicle_type_id":"4","last_reported":1703599566,"current_range_meters":31200,"station_id":"ce4bgvp2rcd13ifvqcu0","pricing_plan_id":"free"},{"bike_id":"b0b688db-c663-41e1-9f74-1136f7b826cb","system_id":"levelo_inurba_marseille","lat":43.313291,"lon":5.396838,"is_reserved":false,"is_disabled":false,"rental_uris":{"android":"levelo://app?vid=b0b688db-c663-41e1-9f74-1136f7b826cb","ios":"levelo://app?vid=b0b688db-c663-41e1-9f74-1136f7b826cb"},"vehicle_type_id":"4","last_reported":1703599566,"current_range_meters":16000,"station_id":"ce4bgvp2rcd13ifvqcu0","pricing_plan_id":"free"},{"bike_id":"c71dd009-75f2-420d-85f5-bc66201ab595","system_id":"levelo_inurba_marseille","lat":43.302784,"lon":5.377158,"is_reserved":false,"is_disabled":false,"rental_uris":{"android":"levelo://app?vid=c71dd009-75f2-420d-85f5-bc66201ab595","ios":"levelo://app?vid=c71dd009-75f2-420d-85f5-bc66201ab595"},"vehicle_type_id":"4","last_reported":1703599566,"current_range_meters":13200,"station_id":"ce4bguh2rcd13ifvqcj0","pricing_plan_id":"free"},{"bike_id":"ed238374-9335-438f-80df-c5336487543d","system_id":"levelo_inurba_marseille","lat":43.290779,"lon":5.371482,"is_reserved":false,"is_disabled":false,"rental_uris":{"android":"levelo://app?vid=ed238374-9335-438f-80df-c5336487543d","ios":"levelo://app?vid=ed238374-9335-438f-80df-c5336487543d"},"vehicle_type_id":"4","last_reported":1703599566,"current_range_meters":16400,"station_id":"ce4bh5p2rcd13ifvqe4g","pricing_plan_id":"free"},{"bike_id":"f8bfc37e-50a3-4204-8c0c-f542c97157a5","system_id":"levelo_inurba_marseille","lat":43.302008,"lon":5.394694,"is_reserved":false,"is_disabled":false,"rental_uris":{"android":"levelo://app?vid=f8bfc37e-50a3-4204-8c0c-f542c97157a5","ios":"levelo://app?vid=f8bfc37e-50a3-4204-8c0c-f542c97157a5"},"vehicle_type_id":"4","last_reported":1703599566,"current_range_meters":31600,"station_id":"ce4bh0p2rcd13ifvqd70","pricing_plan_id":"free"},{"bike_id":"ea55bf23-46ce-4d3f-9ba3-1be8f6b83aa5","system_id":"levelo_inurba_marseille","lat":43.302008,"lon":5.394694,"is_reserved":false,"is_disabled":false,"rental_uris":{"android":"levelo://app?vid=ea55bf23-46ce-4d3f-9ba3-1be8f6b83aa5","ios":"levelo://app?vid=ea55bf23-46ce-4d3f-9ba3-1be8f6b83aa5"},"vehicle_type_id":"4","last_reported":1703599566,"current_range_meters":26400,"station_id":"ce4bh0p2rcd13ifvqd70","pricing_plan_id":"free"},{"bike_id":"6a491a5b-139c-4b11-b3ac-3d0f0e5c721c","system_id":"levelo_inurba_marseille","lat":43.289184,"lon":5.366408,"is_reserved":false,"is_disabled":false,"rental_uris":{"android":"levelo://app?vid=6a491a5b-139c-4b11-b3ac-3d0f0e5c721c","ios":"levelo://app?vid=6a491a5b-139c-4b11-b3ac-3d0f0e5c721c"},"vehicle_type_id":"4","last_reported":1703599566,"current_range_meters":23200,"station_id":"ce4bhap2rcd13ifvqek0","pricing_plan_id":"free"},{"bike_id":"5d79b526-9095-45a8-84be-f86e007b4c92","system_id":"levelo_inurba_marseille","lat":43.289184,"lon":5.366408,"is_reserved":false,"is_disabled":false,"rental_uris":{"android":"levelo://app?vid=5d79b526-9095-45a8-84be-f86e007b4c92","ios":"levelo://app?vid=5d79b526-9095-45a8-84be-f86e007b4c92"},"vehicle_type_id":"4","last_reported":1703599566,"current_range_meters":28000,"station_id":"ce4bhap2rcd13ifvqek0","pricing_plan_id":"free"},{"bike_id":"3186d49c-8357-4526-87c4-f650aa134c4c","system_id":"levelo_inurba_marseille","lat":43.289547,"lon":5.364247,"is_reserved":false,"is_disabled":false,"rental_uris":{"android":"levelo://app?vid=3186d49c-8357-4526-87c4-f650aa134c4c","ios":"levelo://app?vid=3186d49c-8357-4526-87c4-f650aa134c4c"},"vehicle_type_id":"4","last_reported":1703599566,"current_range_meters":29200,"station_id":"","pricing_plan_id":"free"},{"bike_id":"d3ccec80-f8e6-4159-909a-5c451ea78202","system_id":"levelo_inurba_marseille","lat":43.289184,"lon":5.366408,"is_reserved":false,"is_disabled":false,"rental_uris":{"android":"levelo://app?vid=d3ccec80-f8e6-4159-909a-5c451ea78202","ios":"levelo://app?vid=d3ccec80-f8e6-4159-909a-5c451ea78202"},"vehicle_type_id":"4","last_reported":1703599566,"current_range_meters":25600,"station_id":"ce4bhap2rcd13ifvqek0","pricing_plan_id":"free"},{"bike_id":"d0af2348-cbea-4e05-b73d-c4cffff7bbf8","system_id":"levelo_inurba_marseille","lat":43.304149,"lon":5.397581,"is_reserved":false,"is_disabled":false,"rental_uris":{"android":"levelo://app?vid=d0af2348-cbea-4e05-b73d-c4cffff7bbf8","ios":"levelo://app?vid=d0af2348-cbea-4e05-b73d-c4cffff7bbf8"},"vehicle_type_id":"4","last_reported":1703599566,"current_range_meters":28800,"station_id":"ce4bh092rcd13ifvqd20","pricing_plan_id":"free"},{"bike_id":"9040788f-36af-44b7-93ff-d88a294788ef","system_id":"levelo_inurba_marseille","lat":43.290103,"lon":5.356114,"is_reserved":false,"is_disabled":false,"rental_uris":{"android":"levelo://app?vid=9040788f-36af-44b7-93ff-d88a294788ef","ios":"levelo://app?vid=9040788f-36af-44b7-93ff-d88a294788ef"},"vehicle_type_id":"4","last_reported":1703599566,"current_range_meters":16000,"station_id":"ce4bhb92rcd13ifvqen0","pricing_plan_id":"free"},{"bike_id":"20965fbb-1c62-4620-9c40-d56941f0e8a2","system_id":"levelo_inurba_marseille","lat":43.290104,"lon":5.356111,"is_reserved":false,"is_disabled":false,"rental_uris":{"android":"levelo://app?vid=20965fbb-1c62-4620-9c40-d56941f0e8a2","ios":"levelo://app?vid=20965fbb-1c62-4620-9c40-d56941f0e8a2"},"vehicle_type_id":"4","last_reported":1703599566,"current_range_meters":20800,"station_id":"ce4bhb92rcd13ifvqen0","pricing_plan_id":"free"},{"bike_id":"ae523ffe-b547-4d94-979d-0441e3ea1d34","system_id":"levelo_inurba_marseille","lat":43.290103,"lon":5.356114,"is_reserved":false,"is_disabled":false,"rental_uris":{"android":"levelo://app?vid=ae523ffe-b547-4d94-979d-0441e3ea1d34","ios":"levelo://app?vid=ae523ffe-b547-4d94-979d-0441e3ea1d34"},"vehicle_type_id":"4","last_reported":1703599566,"current_range_meters":26400,"station_id":"ce4bhb92rcd13ifvqen0","pricing_plan_id":"free"},{"bike_id":"01eec893-cb22-47ea-ba6f-18aee64380c7","system_id":"levelo_inurba_marseille","lat":43.330237,"lon":5.39085,"is_reserved":false,"is_disabled":false,"rental_uris":{"android":"levelo://app?vid=01eec893-cb22-47ea-ba6f-18aee64380c7","ios":"levelo://app?vid=01eec893-cb22-47ea-ba6f-18aee64380c7"},"vehicle_type_id":"4","last_reported":1703599566,"current_range_meters":10400,"station_id":"","pricing_plan_id":"free"},{"bike_id":"ae1cfe2c-5020-4207-9a5e-0dc360fe23ea","system_id":"levelo_inurba_marseille","lat":43.2901,"lon":5.381269,"is_reserved":false,"is_disabled":false,"rental_uris":{"android":"levelo://app?vid=ae1cfe2c-5020-4207-9a5e-0dc360fe23ea","ios":"levelo://app?vid=ae1cfe2c-5020-4207-9a5e-0dc360fe23ea"},"vehicle_type_id":"4","last_reported":1703599566,"current_range_meters":28800,"station_id":"ce4bh4p2rcd13ifvqe1g","pricing_plan_id":"free"},{"bike_id":"1bb898f1-7eca-4686-aa5f-9ae4fda60f9f","system_id":"levelo_inurba_marseille","lat":43.28856,"lon":5.358371,"is_reserved":false,"is_disabled":false,"rental_uris":{"android":"levelo://app?vid=1bb898f1-7eca-4686-aa5f-9ae4fda60f9f","ios":"levelo://app?vid=1bb898f1-7eca-4686-aa5f-9ae4fda60f9f"},"vehicle_type_id":"4","last_reported":1703599566,"current_range_meters":14000,"station_id":"ce4bhb12rcd13ifvqem0","pricing_plan_id":"free"},{"bike_id":"7a543b19-90cd-4a87-b80d-37f423d89307","system_id":"levelo_inurba_marseille","lat":43.330447,"lon":5.391303,"is_reserved":false,"is_disabled":false,"rental_uris":{"android":"levelo://app?vid=7a543b19-90cd-4a87-b80d-37f423d89307","ios":"levelo://app?vid=7a543b19-90cd-4a87-b80d-37f423d89307"},"vehicle_type_id":"4","last_reported":1703599566,"current_range_meters":8400,"station_id":"","pricing_plan_id":"free"},{"bike_id":"b0a6e700-fd6a-4382-9c50-41fab89bed9c","system_id":"levelo_inurba_marseille","lat":43.303046,"lon":5.368981,"is_reserved":false,"is_disabled":false,"rental_uris":{"android":"levelo://app?vid=b0a6e700-fd6a-4382-9c50-41fab89bed9c","ios":"levelo://app?vid=b0a6e700-fd6a-4382-9c50-41fab89bed9c"},"vehicle_type_id":"4","last_reported":1703599566,"current_range_meters":25600,"station_id":"ce4bgqh2rcd13ifvqc5g","pricing_plan_id":"free"},{"bike_id":"369eacfc-a0c9-4da9-bafc-7f8cf9564284","system_id":"levelo_inurba_marseille","lat":43.301117,"lon":5.398795,"is_reserved":false,"is_disabled":false,"rental_uris":{"android":"levelo://app?vid=369eacfc-a0c9-4da9-bafc-7f8cf9564284","ios":"levelo://app?vid=369eacfc-a0c9-4da9-bafc-7f8cf9564284"},"vehicle_type_id":"4","last_reported":1703599566,"current_range_meters":19600,"station_id":"ce4bh0h2rcd13ifvqd40","pricing_plan_id":"free"},{"bike_id":"9010a516-95e6-406b-917f-5e2a36fd62b8","system_id":"levelo_inurba_marseille","lat":43.286591,"lon":5.363346,"is_reserved":false,"is_disabled":false,"rental_uris":{"android":"levelo://app?vid=9010a516-95e6-406b-917f-5e2a36fd62b8","ios":"levelo://app?vid=9010a516-95e6-406b-917f-5e2a36fd62b8"},"vehicle_type_id":"4","last_reported":1703599566,"current_range_meters":400,"station_id":"ce4bhah2rcd13ifvqej0","pricing_plan_id":"free"},{"bike_id":"cf9210e3-db51-40e4-a36b-516b52e91706","system_id":"levelo_inurba_marseille","lat":43.302759,"lon":5.400793,"is_reserved":false,"is_disabled":false,"rental_uris":{"android":"levelo://app?vid=cf9210e3-db51-40e4-a36b-516b52e91706","ios":"levelo://app?vid=cf9210e3-db51-40e4-a36b-516b52e91706"},"vehicle_type_id":"4","last_reported":1703599566,"current_range_meters":17200,"station_id":"ce4bgvh2rcd13ifvqcs0","pricing_plan_id":"free"},{"bike_id":"7260845c-a0df-4ce3-b635-e91590bb4f9a","system_id":"levelo_inurba_marseille","lat":43.28608,"lon":5.3707,"is_reserved":false,"is_disabled":false,"rental_uris":{"android":"levelo://app?vid=7260845c-a0df-4ce3-b635-e91590bb4f9a","ios":"levelo://app?vid=7260845c-a0df-4ce3-b635-e91590bb4f9a"},"vehicle_type_id":"4","last_reported":1703599566,"current_range_meters":20000,"station_id":"ce4bht12rcd13ifvqi60","pricing_plan_id":"free"},{"bike_id":"b8ae8959-d827-4ceb-8ce0-3e03906d250d","system_id":"levelo_inurba_marseille","lat":43.28605,"lon":5.37068,"is_reserved":false,"is_disabled":false,"rental_uris":{"android":"levelo://app?vid=b8ae8959-d827-4ceb-8ce0-3e03906d250d","ios":"levelo://app?vid=b8ae8959-d827-4ceb-8ce0-3e03906d250d"},"vehicle_type_id":"4","last_reported":1703599566,"current_range_meters":26800,"station_id":"ce4bht12rcd13ifvqi60","pricing_plan_id":"free"},{"bike_id":"e42f2d48-1eac-4ea9-97da-9a200b97c493","system_id":"levelo_inurba_marseille","lat":43.28604,"lon":5.37065,"is_reserved":false,"is_disabled":false,"rental_uris":{"android":"levelo://app?vid=e42f2d48-1eac-4ea9-97da-9a200b97c493","ios":"levelo://app?vid=e42f2d48-1eac-4ea9-97da-9a200b97c493"},"vehicle_type_id":"4","last_reported":1703599566,"current_range_meters":24800,"station_id":"ce4bht12rcd13ifvqi60","pricing_plan_id":"free"},{"bike_id":"0ade99fb-20fc-423b-a697-58876a6bf0b1","system_id":"levelo_inurba_marseille","lat":43.28699,"lon":5.379445,"is_reserved":false,"is_disabled":false,"rental_uris":{"android":"levelo://app?vid=0ade99fb-20fc-423b-a697-58876a6bf0b1","ios":"levelo://app?vid=0ade99fb-20fc-423b-a697-58876a6bf0b1"},"vehicle_type_id":"4","last_reported":1703599566,"current_range_meters":18000,"station_id":"ce4bh9p2rcd13ifvqec0","pricing_plan_id":"free"},{"bike_id":"b1e9710f-d578-4b72-aa53-0dda81a7a474","system_id":"levelo_inurba_marseille","lat":43.316821,"lon":5.404737,"is_reserved":false,"is_disabled":false,"rental_uris":{"android":"levelo://app?vid=b1e9710f-d578-4b72-aa53-0dda81a7a474","ios":"levelo://app?vid=b1e9710f-d578-4b72-aa53-0dda81a7a474"},"vehicle_type_id":"4","last_reported":1703599566,"current_range_meters":24400,"station_id":"ce4bh012rcd13ifvqd00","pricing_plan_id":"free"},{"bike_id":"e75c55f6-d6fc-47a1-9b16-7473a956ba1a","system_id":"levelo_inurba_marseille","lat":43.291994,"lon":5.392907,"is_reserved":false,"is_disabled":false,"rental_uris":{"android":"levelo://app?vid=e75c55f6-d6fc-47a1-9b16-7473a956ba1a","ios":"levelo://app?vid=e75c55f6-d6fc-47a1-9b16-7473a956ba1a"},"vehicle_type_id":"4","last_reported":1703599566,"current_range_meters":8800,"station_id":"ce4bh192rcd13ifvqdd0","pricing_plan_id":"free"},{"bike_id":"e2adfa7c-882e-48a1-9ee4-b36e6186ebbf","system_id":"levelo_inurba_marseille","lat":43.330912,"lon":5.396935,"is_reserved":false,"is_disabled":false,"rental_uris":{"android":"levelo://app?vid=e2adfa7c-882e-48a1-9ee4-b36e6186ebbf","ios":"levelo://app?vid=e2adfa7c-882e-48a1-9ee4-b36e6186ebbf"},"vehicle_type_id":"4","last_reported":1703599566,"current_range_meters":2800,"station_id":"","pricing_plan_id":"free"},{"bike_id":"d4a8c6f5-1913-4f5f-bcba-c2528c2f764a","system_id":"levelo_inurba_marseille","lat":43.284538,"lon":5.358657,"is_reserved":false,"is_disabled":false,"rental_uris":{"android":"levelo://app?vid=d4a8c6f5-1913-4f5f-bcba-c2528c2f764a","ios":"levelo://app?vid=d4a8c6f5-1913-4f5f-bcba-c2528c2f764a"},"vehicle_type_id":"4","last_reported":1703599566,"current_range_meters":29200,"station_id":"ce4bhah2rcd13ifvqei0","pricing_plan_id":"free"},{"bike_id":"4df3254e-2eff-42fb-b6ff-68ab0af643d1","system_id":"levelo_inurba_marseille","lat":43.284538,"lon":5.358657,"is_reserved":false,"is_disabled":false,"rental_uris":{"android":"levelo://app?vid=4df3254e-2eff-42fb-b6ff-68ab0af643d1","ios":"levelo://app?vid=4df3254e-2eff-42fb-b6ff-68ab0af643d1"},"vehicle_type_id":"4","last_reported":1703599566,"current_range_meters":13600,"station_id":"ce4bhah2rcd13ifvqei0","pricing_plan_id":"free"},{"bike_id":"01b4a3aa-0a62-4ca1-8faa-37f6d218c766","system_id":"levelo_inurba_marseille","lat":43.285856,"lon":5.350771,"is_reserved":false,"is_disabled":false,"rental_uris":{"android":"levelo://app?vid=01b4a3aa-0a62-4ca1-8faa-37f6d218c766","ios":"levelo://app?vid=01b4a3aa-0a62-4ca1-8faa-37f6d218c766"},"vehicle_type_id":"4","last_reported":1703599566,"current_range_meters":27200,"station_id":"ce4bhch2rcd13ifvqeug","pricing_plan_id":"free"},{"bike_id":"eb8d5b3b-07c7-42da-a4d0-419856d75b0d","system_id":"levelo_inurba_marseille","lat":43.294314,"lon":5.397498,"is_reserved":false,"is_disabled":false,"rental_uris":{"android":"levelo://app?vid=eb8d5b3b-07c7-42da-a4d0-419856d75b0d","ios":"levelo://app?vid=eb8d5b3b-07c7-42da-a4d0-419856d75b0d"},"vehicle_type_id":"4","last_reported":1703599566,"current_range_meters":30800,"station_id":"ce4bh3h2rcd13ifvqdo0","pricing_plan_id":"free"},{"bike_id":"c5c52ae5-62cc-4efa-801f-61722ac75fcf","system_id":"levelo_inurba_marseille","lat":43.285848,"lon":5.350787,"is_reserved":false,"is_disabled":false,"rental_uris":{"android":"levelo://app?vid=c5c52ae5-62cc-4efa-801f-61722ac75fcf","ios":"levelo://app?vid=c5c52ae5-62cc-4efa-801f-61722ac75fcf"},"vehicle_type_id":"4","last_reported":1703599566,"current_range_meters":11200,"station_id":"ce4bhch2rcd13ifvqeug","pricing_plan_id":"free"},{"bike_id":"9a77f09b-25ac-4ac2-ae90-2b7410b7d569","system_id":"levelo_inurba_marseille","lat":43.285848,"lon":5.350787,"is_reserved":false,"is_disabled":false,"rental_uris":{"android":"levelo://app?vid=9a77f09b-25ac-4ac2-ae90-2b7410b7d569","ios":"levelo://app?vid=9a77f09b-25ac-4ac2-ae90-2b7410b7d569"},"vehicle_type_id":"4","last_reported":1703599566,"current_range_meters":28800,"station_id":"ce4bhch2rcd13ifvqeug","pricing_plan_id":"free"},{"bike_id":"59a0be02-ba08-4c77-bd38-3f788fceb0cb","system_id":"levelo_inurba_marseille","lat":43.283998,"lon":5.375062,"is_reserved":false,"is_disabled":false,"rental_uris":{"android":"levelo://app?vid=59a0be02-ba08-4c77-bd38-3f788fceb0cb","ios":"levelo://app?vid=59a0be02-ba08-4c77-bd38-3f788fceb0cb"},"vehicle_type_id":"4","last_reported":1703599566,"current_range_meters":15600,"station_id":"ce4bh412rcd13ifvqds0","pricing_plan_id":"free"},{"bike_id":"e363cea8-da50-4f1f-909e-e09f5dbe365e","system_id":"levelo_inurba_marseille","lat":43.295713,"lon":5.399639,"is_reserved":false,"is_disabled":false,"rental_uris":{"android":"levelo://app?vid=e363cea8-da50-4f1f-909e-e09f5dbe365e","ios":"levelo://app?vid=e363cea8-da50-4f1f-909e-e09f5dbe365e"},"vehicle_type_id":"4","last_reported":1703599566,"current_range_meters":15600,"station_id":"ce4bh312rcd13ifvqdj0","pricing_plan_id":"free"},{"bike_id":"44a965cc-f7e7-4a8b-a6bb-0f61a188f88e","system_id":"levelo_inurba_marseille","lat":43.286595,"lon":5.386795,"is_reserved":false,"is_disabled":false,"rental_uris":{"android":"levelo://app?vid=44a965cc-f7e7-4a8b-a6bb-0f61a188f88e","ios":"levelo://app?vid=44a965cc-f7e7-4a8b-a6bb-0f61a188f88e"},"vehicle_type_id":"4","last_reported":1703599566,"current_range_meters":30400,"station_id":"ce4bh492rcd13ifvqdug","pricing_plan_id":"free"},{"bike_id":"8168c4d8-dab4-4aa0-8a1c-71a40c2d05f8","system_id":"levelo_inurba_marseille","lat":43.288235,"lon":5.390335,"is_reserved":false,"is_disabled":false,"rental_uris":{"android":"levelo://app?vid=8168c4d8-dab4-4aa0-8a1c-71a40c2d05f8","ios":"levelo://app?vid=8168c4d8-dab4-4aa0-8a1c-71a40c2d05f8"},"vehicle_type_id":"4","last_reported":1703599566,"current_range_meters":26800,"station_id":"","pricing_plan_id":"free"},{"bike_id":"ff6ebe2d-10e0-4bee-8d5b-0d34d0573673","system_id":"levelo_inurba_marseille","lat":43.33715,"lon":5.39161,"is_reserved":false,"is_disabled":false,"rental_uris":{"android":"levelo://app?vid=ff6ebe2d-10e0-4bee-8d5b-0d34d0573673","ios":"levelo://app?vid=ff6ebe2d-10e0-4bee-8d5b-0d34d0573673"},"vehicle_type_id":"4","last_reported":1703599566,"current_range_meters":17600,"station_id":"ce4bhr92rcd13ifvqhsg","pricing_plan_id":"free"},{"bike_id":"32358c1c-e30e-473f-9e3b-ee56f5e3d31c","system_id":"levelo_inurba_marseille","lat":43.323464,"lon":5.406297,"is_reserved":false,"is_disabled":false,"rental_uris":{"android":"levelo://app?vid=32358c1c-e30e-473f-9e3b-ee56f5e3d31c","ios":"levelo://app?vid=32358c1c-e30e-473f-9e3b-ee56f5e3d31c"},"vehicle_type_id":"4","last_reported":1703599566,"current_range_meters":28800,"station_id":"ce4bhq92rcd13ifvqhjg","pricing_plan_id":"free"},{"bike_id":"8ac3c01e-e66e-4bdd-a914-a60e9b177192","system_id":"levelo_inurba_marseille","lat":43.284793,"lon":5.384113,"is_reserved":false,"is_disabled":false,"rental_uris":{"android":"levelo://app?vid=8ac3c01e-e66e-4bdd-a914-a60e9b177192","ios":"levelo://app?vid=8ac3c01e-e66e-4bdd-a914-a60e9b177192"},"vehicle_type_id":"4","last_reported":1703599566,"current_range_meters":29600,"station_id":"ce4bh512rcd13ifvqe3g","pricing_plan_id":"free"},{"bike_id":"46a9d621-30eb-4b73-aeeb-7340e7419678","system_id":"levelo_inurba_marseille","lat":43.284793,"lon":5.384113,"is_reserved":false,"is_disabled":false,"rental_uris":{"android":"levelo://app?vid=46a9d621-30eb-4b73-aeeb-7340e7419678","ios":"levelo://app?vid=46a9d621-30eb-4b73-aeeb-7340e7419678"},"vehicle_type_id":"4","last_reported":1703599566,"current_range_meters":0,"station_id":"ce4bh512rcd13ifvqe3g","pricing_plan_id":"free"},{"bike_id":"0c42fa24-df28-4a31-9078-869414e2a519","system_id":"levelo_inurba_marseille","lat":43.29795,"lon":5.404086,"is_reserved":false,"is_disabled":false,"rental_uris":{"android":"levelo://app?vid=0c42fa24-df28-4a31-9078-869414e2a519","ios":"levelo://app?vid=0c42fa24-df28-4a31-9078-869414e2a519"},"vehicle_type_id":"4","last_reported":1703599566,"current_range_meters":30800,"station_id":"ce4bh112rcd13ifvqd90","pricing_plan_id":"free"},{"bike_id":"e0b68692-8b72-46fb-ac41-394761fb3425","system_id":"levelo_inurba_marseille","lat":43.283494,"lon":5.380945,"is_reserved":false,"is_disabled":false,"rental_uris":{"android":"levelo://app?vid=e0b68692-8b72-46fb-ac41-394761fb3425","ios":"levelo://app?vid=e0b68692-8b72-46fb-ac41-394761fb3425"},"vehicle_type_id":"4","last_reported":1703599566,"current_range_meters":20800,"station_id":"ce4bh412rcd13ifvqdr0","pricing_plan_id":"free"},{"bike_id":"e485450b-2736-4f4c-b94b-0da5a69b88aa","system_id":"levelo_inurba_marseille","lat":43.33385,"lon":5.39822,"is_reserved":false,"is_disabled":false,"rental_uris":{"android":"levelo://app?vid=e485450b-2736-4f4c-b94b-0da5a69b88aa","ios":"levelo://app?vid=e485450b-2736-4f4c-b94b-0da5a69b88aa"},"vehicle_type_id":"4","last_reported":1703599566,"current_range_meters":22400,"station_id":"","pricing_plan_id":"free"},{"bike_id":"67c705a4-01da-4e21-88a6-001dfcbf0921","system_id":"levelo_inurba_marseille","lat":43.284219,"lon":5.3497,"is_reserved":false,"is_disabled":false,"rental_uris":{"android":"levelo://app?vid=67c705a4-01da-4e21-88a6-001dfcbf0921","ios":"levelo://app?vid=67c705a4-01da-4e21-88a6-001dfcbf0921"},"vehicle_type_id":"4","last_reported":1703599566,"current_range_meters":20800,"station_id":"ce4bhbh2rcd13ifvqepg","pricing_plan_id":"free"},{"bike_id":"b8318ace-eb92-4308-8bc1-b1366804a530","system_id":"levelo_inurba_marseille","lat":43.292724,"lon":5.401131,"is_reserved":false,"is_disabled":false,"rental_uris":{"android":"levelo://app?vid=b8318ace-eb92-4308-8bc1-b1366804a530","ios":"levelo://app?vid=b8318ace-eb92-4308-8bc1-b1366804a530"},"vehicle_type_id":"4","last_reported":1703599566,"current_range_meters":16400,"station_id":"ce4bh312rcd13ifvqdk0","pricing_plan_id":"free"},{"bike_id":"0a44fa86-28e7-445e-b4aa-e7b93e175947","system_id":"levelo_inurba_marseille","lat":43.292724,"lon":5.401131,"is_reserved":false,"is_disabled":false,"rental_uris":{"android":"levelo://app?vid=0a44fa86-28e7-445e-b4aa-e7b93e175947","ios":"levelo://app?vid=0a44fa86-28e7-445e-b4aa-e7b93e175947"},"vehicle_type_id":"4","last_reported":1703599566,"current_range_meters":20400,"station_id":"ce4bh312rcd13ifvqdk0","pricing_plan_id":"free"},{"bike_id":"2e18abeb-9091-4aad-98dc-061407b1e5f5","system_id":"levelo_inurba_marseille","lat":43.282744,"lon":5.350533,"is_reserved":false,"is_disabled":false,"rental_uris":{"android":"levelo://app?vid=2e18abeb-9091-4aad-98dc-061407b1e5f5","ios":"levelo://app?vid=2e18abeb-9091-4aad-98dc-061407b1e5f5"},"vehicle_type_id":"4","last_reported":1703599566,"current_range_meters":12000,"station_id":"ce4bhbp2rcd13ifvqerg","pricing_plan_id":"free"},{"bike_id":"6e04ba8a-f88e-44d7-a29d-a07af31055f1","system_id":"levelo_inurba_marseille","lat":43.280349,"lon":5.369553,"is_reserved":false,"is_disabled":false,"rental_uris":{"android":"levelo://app?vid=6e04ba8a-f88e-44d7-a29d-a07af31055f1","ios":"levelo://app?vid=6e04ba8a-f88e-44d7-a29d-a07af31055f1"},"vehicle_type_id":"4","last_reported":1703599566,"current_range_meters":24800,"station_id":"","pricing_plan_id":"free"},{"bike_id":"a7241d5c-5d81-486d-bb24-2a125409238d","system_id":"levelo_inurba_marseille","lat":43.28039,"lon":5.369297,"is_reserved":false,"is_disabled":false,"rental_uris":{"android":"levelo://app?vid=a7241d5c-5d81-486d-bb24-2a125409238d","ios":"levelo://app?vid=a7241d5c-5d81-486d-bb24-2a125409238d"},"vehicle_type_id":"4","last_reported":1703599566,"current_range_meters":25200,"station_id":"ce4bha12rcd13ifvqef0","pricing_plan_id":"free"},{"bike_id":"f81d8819-e57d-4414-b076-5b63a433dd1c","system_id":"levelo_inurba_marseille","lat":43.290412,"lon":5.399633,"is_reserved":false,"is_disabled":false,"rental_uris":{"android":"levelo://app?vid=f81d8819-e57d-4414-b076-5b63a433dd1c","ios":"levelo://app?vid=f81d8819-e57d-4414-b076-5b63a433dd1c"},"vehicle_type_id":"4","last_reported":1703599566,"current_range_meters":3600,"station_id":"ce4bh392rcd13ifvqdm0","pricing_plan_id":"free"},{"bike_id":"336ab9c4-2ad2-4853-bdc0-34d8d34c438e","system_id":"levelo_inurba_marseille","lat":43.290412,"lon":5.399633,"is_reserved":false,"is_disabled":false,"rental_uris":{"android":"levelo://app?vid=336ab9c4-2ad2-4853-bdc0-34d8d34c438e","ios":"levelo://app?vid=336ab9c4-2ad2-4853-bdc0-34d8d34c438e"},"vehicle_type_id":"4","last_reported":1703599566,"current_range_meters":26400,"station_id":"ce4bh392rcd13ifvqdm0","pricing_plan_id":"free"},{"bike_id":"346ee1cc-0d6b-44f0-9613-1c9dc69ee100","system_id":"levelo_inurba_marseille","lat":43.284462,"lon":5.392121,"is_reserved":false,"is_disabled":false,"rental_uris":{"android":"levelo://app?vid=346ee1cc-0d6b-44f0-9613-1c9dc69ee100","ios":"levelo://app?vid=346ee1cc-0d6b-44f0-9613-1c9dc69ee100"},"vehicle_type_id":"4","last_reported":1703599566,"current_range_meters":27200,"station_id":"ce4bhoh2rcd13ifvqh5g","pricing_plan_id":"free"},{"bike_id":"6db115f2-2b8f-4ffa-9e31-b66bc9e104e2","system_id":"levelo_inurba_marseille","lat":43.284462,"lon":5.392121,"is_reserved":false,"is_disabled":false,"rental_uris":{"android":"levelo://app?vid=6db115f2-2b8f-4ffa-9e31-b66bc9e104e2","ios":"levelo://app?vid=6db115f2-2b8f-4ffa-9e31-b66bc9e104e2"},"vehicle_type_id":"4","last_reported":1703599566,"current_range_meters":31600,"station_id":"ce4bhoh2rcd13ifvqh5g","pricing_plan_id":"free"},{"bike_id":"e616b786-e4c0-4d73-9d4b-4bcba879a3ed","system_id":"levelo_inurba_marseille","lat":43.28573,"lon":5.394992,"is_reserved":false,"is_disabled":false,"rental_uris":{"android":"levelo://app?vid=e616b786-e4c0-4d73-9d4b-4bcba879a3ed","ios":"levelo://app?vid=e616b786-e4c0-4d73-9d4b-4bcba879a3ed"},"vehicle_type_id":"4","last_reported":1703599566,"current_range_meters":30000,"station_id":"ce4bh292rcd13ifvqdg0","pricing_plan_id":"free"},{"bike_id":"c5199734-a626-446d-8aec-f0d159158ae4","system_id":"levelo_inurba_marseille","lat":43.326605,"lon":5.409903,"is_reserved":false,"is_disabled":false,"rental_uris":{"android":"levelo://app?vid=c5199734-a626-446d-8aec-f0d159158ae4","ios":"levelo://app?vid=c5199734-a626-446d-8aec-f0d159158ae4"},"vehicle_type_id":"4","last_reported":1703599566,"current_range_meters":23600,"station_id":"ce4bhpp2rcd13ifvqhgg","pricing_plan_id":"free"},{"bike_id":"bc1f7b15-1c1c-41f9-9939-342701df6c92","system_id":"levelo_inurba_marseille","lat":43.279087,"lon":5.380114,"is_reserved":false,"is_disabled":false,"rental_uris":{"android":"levelo://app?vid=bc1f7b15-1c1c-41f9-9939-342701df6c92","ios":"levelo://app?vid=bc1f7b15-1c1c-41f9-9939-342701df6c92"},"vehicle_type_id":"4","last_reported":1703599566,"current_range_meters":31200,"station_id":"ce4bhf92rcd13ifvqf50","pricing_plan_id":"free"},{"bike_id":"bc83ed84-f61e-479d-af8f-4ea1e019dd6a","system_id":"levelo_inurba_marseille","lat":43.287154,"lon":5.399979,"is_reserved":false,"is_disabled":false,"rental_uris":{"android":"levelo://app?vid=bc83ed84-f61e-479d-af8f-4ea1e019dd6a","ios":"levelo://app?vid=bc83ed84-f61e-479d-af8f-4ea1e019dd6a"},"vehicle_type_id":"4","last_reported":1703599566,"current_range_meters":27200,"station_id":"ce4bho92rcd13ifvqh3g","pricing_plan_id":"free"},{"bike_id":"30f310ab-2186-4843-98a8-0917e06193d3","system_id":"levelo_inurba_marseille","lat":43.287154,"lon":5.399979,"is_reserved":false,"is_disabled":false,"rental_uris":{"android":"levelo://app?vid=30f310ab-2186-4843-98a8-0917e06193d3","ios":"levelo://app?vid=30f310ab-2186-4843-98a8-0917e06193d3"},"vehicle_type_id":"4","last_reported":1703599566,"current_range_meters":30000,"station_id":"ce4bho92rcd13ifvqh3g","pricing_plan_id":"free"},{"bike_id":"ff06289d-3be4-4f6d-94e5-47595f4fd9cb","system_id":"levelo_inurba_marseille","lat":43.287154,"lon":5.399979,"is_reserved":false,"is_disabled":false,"rental_uris":{"android":"levelo://app?vid=ff06289d-3be4-4f6d-94e5-47595f4fd9cb","ios":"levelo://app?vid=ff06289d-3be4-4f6d-94e5-47595f4fd9cb"},"vehicle_type_id":"4","last_reported":1703599566,"current_range_meters":26800,"station_id":"ce4bho92rcd13ifvqh3g","pricing_plan_id":"free"},{"bike_id":"85944aa3-9566-4184-94f0-1190b9e7e8cb","system_id":"levelo_inurba_marseille","lat":43.28711,"lon":5.39993,"is_reserved":false,"is_disabled":false,"rental_uris":{"android":"levelo://app?vid=85944aa3-9566-4184-94f0-1190b9e7e8cb","ios":"levelo://app?vid=85944aa3-9566-4184-94f0-1190b9e7e8cb"},"vehicle_type_id":"4","last_reported":1703599566,"current_range_meters":28400,"station_id":"ce4bho92rcd13ifvqh3g","pricing_plan_id":"free"},{"bike_id":"bf83e1d9-0520-4b94-9f30-a575f70d310c","system_id":"levelo_inurba_marseille","lat":43.287154,"lon":5.399979,"is_reserved":false,"is_disabled":false,"rental_uris":{"android":"levelo://app?vid=bf83e1d9-0520-4b94-9f30-a575f70d310c","ios":"levelo://app?vid=bf83e1d9-0520-4b94-9f30-a575f70d310c"},"vehicle_type_id":"4","last_reported":1703599566,"current_range_meters":28000,"station_id":"ce4bho92rcd13ifvqh3g","pricing_plan_id":"free"},{"bike_id":"1f49b234-69ed-438e-8d08-179a4fc9c8c6","system_id":"levelo_inurba_marseille","lat":43.320045,"lon":5.415046,"is_reserved":false,"is_disabled":false,"rental_uris":{"android":"levelo://app?vid=1f49b234-69ed-438e-8d08-179a4fc9c8c6","ios":"levelo://app?vid=1f49b234-69ed-438e-8d08-179a4fc9c8c6"},"vehicle_type_id":"4","last_reported":1703599566,"current_range_meters":30000,"station_id":"ce4bhq92rcd13ifvqhkg","pricing_plan_id":"free"},{"bike_id":"387750e4-51b8-4418-92c2-682d88f04745","system_id":"levelo_inurba_marseille","lat":43.320045,"lon":5.415048,"is_reserved":false,"is_disabled":false,"rental_uris":{"android":"levelo://app?vid=387750e4-51b8-4418-92c2-682d88f04745","ios":"levelo://app?vid=387750e4-51b8-4418-92c2-682d88f04745"},"vehicle_type_id":"4","last_reported":1703599566,"current_range_meters":30400,"station_id":"ce4bhq92rcd13ifvqhkg","pricing_plan_id":"free"},{"bike_id":"0f9ba54f-2d34-4815-a7a3-85ee9d8e32a4","system_id":"levelo_inurba_marseille","lat":43.320045,"lon":5.415048,"is_reserved":false,"is_disabled":false,"rental_uris":{"android":"levelo://app?vid=0f9ba54f-2d34-4815-a7a3-85ee9d8e32a4","ios":"levelo://app?vid=0f9ba54f-2d34-4815-a7a3-85ee9d8e32a4"},"vehicle_type_id":"4","last_reported":1703599566,"current_range_meters":29600,"station_id":"ce4bhq92rcd13ifvqhkg","pricing_plan_id":"free"},{"bike_id":"fec83181-1bcb-421d-8c90-7f426d72188a","system_id":"levelo_inurba_marseille","lat":43.29261,"lon":5.40902,"is_reserved":false,"is_disabled":false,"rental_uris":{"android":"levelo://app?vid=fec83181-1bcb-421d-8c90-7f426d72188a","ios":"levelo://app?vid=fec83181-1bcb-421d-8c90-7f426d72188a"},"vehicle_type_id":"4","last_reported":1703599566,"current_range_meters":20400,"station_id":"ce4bh192rcd13ifvqdc0","pricing_plan_id":"free"},{"bike_id":"8dc4a5bb-1084-4d65-a32c-faaa259b0626","system_id":"levelo_inurba_marseille","lat":43.292571,"lon":5.409107,"is_reserved":false,"is_disabled":false,"rental_uris":{"android":"levelo://app?vid=8dc4a5bb-1084-4d65-a32c-faaa259b0626","ios":"levelo://app?vid=8dc4a5bb-1084-4d65-a32c-faaa259b0626"},"vehicle_type_id":"4","last_reported":1703599566,"current_range_meters":15600,"station_id":"ce4bh192rcd13ifvqdc0","pricing_plan_id":"free"},{"bike_id":"11bfe843-22bd-4dfe-9a34-43ec002dbd62","system_id":"levelo_inurba_marseille","lat":43.292571,"lon":5.409107,"is_reserved":false,"is_disabled":false,"rental_uris":{"android":"levelo://app?vid=11bfe843-22bd-4dfe-9a34-43ec002dbd62","ios":"levelo://app?vid=11bfe843-22bd-4dfe-9a34-43ec002dbd62"},"vehicle_type_id":"4","last_reported":1703599566,"current_range_meters":28800,"station_id":"ce4bh192rcd13ifvqdc0","pricing_plan_id":"free"},{"bike_id":"45918fa4-cf1a-4ae5-9a54-72e6ab924d02","system_id":"levelo_inurba_marseille","lat":43.27618,"lon":5.361009,"is_reserved":false,"is_disabled":false,"rental_uris":{"android":"levelo://app?vid=45918fa4-cf1a-4ae5-9a54-72e6ab924d02","ios":"levelo://app?vid=45918fa4-cf1a-4ae5-9a54-72e6ab924d02"},"vehicle_type_id":"4","last_reported":1703599566,"current_range_meters":18800,"station_id":"ce4bgj92rcd13ifvqbe0","pricing_plan_id":"free"},{"bike_id":"a0871bc6-d375-4ee1-a0e4-5231c7897c09","system_id":"levelo_inurba_marseille","lat":43.280784,"lon":5.396622,"is_reserved":false,"is_disabled":false,"rental_uris":{"android":"levelo://app?vid=a0871bc6-d375-4ee1-a0e4-5231c7897c09","ios":"levelo://app?vid=a0871bc6-d375-4ee1-a0e4-5231c7897c09"},"vehicle_type_id":"4","last_reported":1703599566,"current_range_meters":20000,"station_id":"ce4bho12rcd13ifvqh2g","pricing_plan_id":"free"},{"bike_id":"8fe3a0cb-d962-4760-898e-83946c7a77c7","system_id":"levelo_inurba_marseille","lat":43.303837,"lon":5.418724,"is_reserved":false,"is_disabled":false,"rental_uris":{"android":"levelo://app?vid=8fe3a0cb-d962-4760-898e-83946c7a77c7","ios":"levelo://app?vid=8fe3a0cb-d962-4760-898e-83946c7a77c7"},"vehicle_type_id":"4","last_reported":1703599566,"current_range_meters":28800,"station_id":"ce4bhop2rcd13ifvqh7g","pricing_plan_id":"free"},{"bike_id":"1ac4b3fa-4dee-4c58-aa79-4d24df9afb7c","system_id":"levelo_inurba_marseille","lat":43.278399,"lon":5.392139,"is_reserved":false,"is_disabled":false,"rental_uris":{"android":"levelo://app?vid=1ac4b3fa-4dee-4c58-aa79-4d24df9afb7c","ios":"levelo://app?vid=1ac4b3fa-4dee-4c58-aa79-4d24df9afb7c"},"vehicle_type_id":"4","last_reported":1703599566,"current_range_meters":30000,"station_id":"ce4bhjp2rcd13ifvqga0","pricing_plan_id":"free"},{"bike_id":"eeace312-fbab-452f-b3d6-f5e0e63febd1","system_id":"levelo_inurba_marseille","lat":43.273613,"lon":5.362705,"is_reserved":false,"is_disabled":false,"rental_uris":{"android":"levelo://app?vid=eeace312-fbab-452f-b3d6-f5e0e63febd1","ios":"levelo://app?vid=eeace312-fbab-452f-b3d6-f5e0e63febd1"},"vehicle_type_id":"4","last_reported":1703599566,"current_range_meters":26000,"station_id":"ce4bhbh2rcd13ifvqeo0","pricing_plan_id":"free"},{"bike_id":"7ff67f23-16a0-49eb-aab1-302ad8cb1ef0","system_id":"levelo_inurba_marseille","lat":43.273613,"lon":5.362705,"is_reserved":false,"is_disabled":false,"rental_uris":{"android":"levelo://app?vid=7ff67f23-16a0-49eb-aab1-302ad8cb1ef0","ios":"levelo://app?vid=7ff67f23-16a0-49eb-aab1-302ad8cb1ef0"},"vehicle_type_id":"4","last_reported":1703599566,"current_range_meters":24000,"station_id":"ce4bhbh2rcd13ifvqeo0","pricing_plan_id":"free"},{"bike_id":"78d502da-5cef-4d0d-9f76-b9d4e703386d","system_id":"levelo_inurba_marseille","lat":43.273613,"lon":5.362705,"is_reserved":false,"is_disabled":false,"rental_uris":{"android":"levelo://app?vid=78d502da-5cef-4d0d-9f76-b9d4e703386d","ios":"levelo://app?vid=78d502da-5cef-4d0d-9f76-b9d4e703386d"},"vehicle_type_id":"4","last_reported":1703599566,"current_range_meters":27600,"station_id":"ce4bhbh2rcd13ifvqeo0","pricing_plan_id":"free"},{"bike_id":"7d38f3a2-92f4-43b4-b7a2-03681ac63ac9","system_id":"levelo_inurba_marseille","lat":43.273613,"lon":5.362705,"is_reserved":false,"is_disabled":false,"rental_uris":{"android":"levelo://app?vid=7d38f3a2-92f4-43b4-b7a2-03681ac63ac9","ios":"levelo://app?vid=7d38f3a2-92f4-43b4-b7a2-03681ac63ac9"},"vehicle_type_id":"4","last_reported":1703599566,"current_range_meters":28000,"station_id":"ce4bhbh2rcd13ifvqeo0","pricing_plan_id":"free"},{"bike_id":"51f419a2-4ffd-4925-9da9-b9cbc370a337","system_id":"levelo_inurba_marseille","lat":43.273613,"lon":5.362705,"is_reserved":false,"is_disabled":false,"rental_uris":{"android":"levelo://app?vid=51f419a2-4ffd-4925-9da9-b9cbc370a337","ios":"levelo://app?vid=51f419a2-4ffd-4925-9da9-b9cbc370a337"},"vehicle_type_id":"4","last_reported":1703599566,"current_range_meters":21600,"station_id":"ce4bhbh2rcd13ifvqeo0","pricing_plan_id":"free"},{"bike_id":"1b227829-f00a-47a8-a334-0c3ce8f714c9","system_id":"levelo_inurba_marseille","lat":43.273609,"lon":5.362708,"is_reserved":false,"is_disabled":false,"rental_uris":{"android":"levelo://app?vid=1b227829-f00a-47a8-a334-0c3ce8f714c9","ios":"levelo://app?vid=1b227829-f00a-47a8-a334-0c3ce8f714c9"},"vehicle_type_id":"4","last_reported":1703599566,"current_range_meters":27200,"station_id":"ce4bhbh2rcd13ifvqeo0","pricing_plan_id":"free"},{"bike_id":"0743da1b-3ba1-404d-b533-b506760131ea","system_id":"levelo_inurba_marseille","lat":43.276769,"lon":5.388787,"is_reserved":false,"is_disabled":false,"rental_uris":{"android":"levelo://app?vid=0743da1b-3ba1-404d-b533-b506760131ea","ios":"levelo://app?vid=0743da1b-3ba1-404d-b533-b506760131ea"},"vehicle_type_id":"4","last_reported":1703599566,"current_range_meters":29600,"station_id":"ce4bhi12rcd13ifvqfo0","pricing_plan_id":"free"},{"bike_id":"a034fd5d-400a-45c1-8dc7-065ff66b2ccb","system_id":"levelo_inurba_marseille","lat":43.276771,"lon":5.388799,"is_reserved":false,"is_disabled":false,"rental_uris":{"android":"levelo://app?vid=a034fd5d-400a-45c1-8dc7-065ff66b2ccb","ios":"levelo://app?vid=a034fd5d-400a-45c1-8dc7-065ff66b2ccb"},"vehicle_type_id":"4","last_reported":1703599566,"current_range_meters":29200,"station_id":"ce4bhi12rcd13ifvqfo0","pricing_plan_id":"free"},{"bike_id":"fcc6e162-f058-47cd-a188-341f974156f4","system_id":"levelo_inurba_marseille","lat":43.311887,"lon":5.423755,"is_reserved":false,"is_disabled":false,"rental_uris":{"android":"levelo://app?vid=fcc6e162-f058-47cd-a188-341f974156f4","ios":"levelo://app?vid=fcc6e162-f058-47cd-a188-341f974156f4"},"vehicle_type_id":"4","last_reported":1703599566,"current_range_meters":26000,"station_id":"","pricing_plan_id":"free"},{"bike_id":"136cb9da-15ee-40e3-bc2c-40c9c9d6a86d","system_id":"levelo_inurba_marseille","lat":43.317121,"lon":5.423936,"is_reserved":false,"is_disabled":false,"rental_uris":{"android":"levelo://app?vid=136cb9da-15ee-40e3-bc2c-40c9c9d6a86d","ios":"levelo://app?vid=136cb9da-15ee-40e3-bc2c-40c9c9d6a86d"},"vehicle_type_id":"4","last_reported":1703599566,"current_range_meters":30400,"station_id":"ce4bhp92rcd13ifvqhbg","pricing_plan_id":"free"},{"bike_id":"c228ce51-0034-408b-93aa-dbde9bbacd8a","system_id":"levelo_inurba_marseille","lat":43.31084,"lon":5.42431,"is_reserved":false,"is_disabled":false,"rental_uris":{"android":"levelo://app?vid=c228ce51-0034-408b-93aa-dbde9bbacd8a","ios":"levelo://app?vid=c228ce51-0034-408b-93aa-dbde9bbacd8a"},"vehicle_type_id":"4","last_reported":1703599566,"current_range_meters":30800,"station_id":"ce4bhp92rcd13ifvqhag","pricing_plan_id":"free"},{"bike_id":"55c634c8-65ee-47b8-9656-14180506d92f","system_id":"levelo_inurba_marseille","lat":43.31082,"lon":5.42433,"is_reserved":false,"is_disabled":false,"rental_uris":{"android":"levelo://app?vid=55c634c8-65ee-47b8-9656-14180506d92f","ios":"levelo://app?vid=55c634c8-65ee-47b8-9656-14180506d92f"},"vehicle_type_id":"4","last_reported":1703599566,"current_range_meters":26000,"station_id":"ce4bhp92rcd13ifvqhag","pricing_plan_id":"free"},{"bike_id":"8688502e-c777-4738-8968-43d18688f77f","system_id":"levelo_inurba_marseille","lat":43.31082,"lon":5.42433,"is_reserved":false,"is_disabled":false,"rental_uris":{"android":"levelo://app?vid=8688502e-c777-4738-8968-43d18688f77f","ios":"levelo://app?vid=8688502e-c777-4738-8968-43d18688f77f"},"vehicle_type_id":"4","last_reported":1703599566,"current_range_meters":31200,"station_id":"ce4bhp92rcd13ifvqhag","pricing_plan_id":"free"},{"bike_id":"a5ef3ffe-074d-4034-8a49-1265e8309ea7","system_id":"levelo_inurba_marseille","lat":43.310843,"lon":5.424338,"is_reserved":false,"is_disabled":false,"rental_uris":{"android":"levelo://app?vid=a5ef3ffe-074d-4034-8a49-1265e8309ea7","ios":"levelo://app?vid=a5ef3ffe-074d-4034-8a49-1265e8309ea7"},"vehicle_type_id":"4","last_reported":1703599566,"current_range_meters":31200,"station_id":"ce4bhp92rcd13ifvqhag","pricing_plan_id":"free"},{"bike_id":"b2974ce4-58ca-4652-8486-f4891c019db7","system_id":"levelo_inurba_marseille","lat":43.310785,"lon":5.424305,"is_reserved":false,"is_disabled":false,"rental_uris":{"android":"levelo://app?vid=b2974ce4-58ca-4652-8486-f4891c019db7","ios":"levelo://app?vid=b2974ce4-58ca-4652-8486-f4891c019db7"},"vehicle_type_id":"4","last_reported":1703599566,"current_range_meters":28000,"station_id":"ce4bhp92rcd13ifvqhag","pricing_plan_id":"free"},{"bike_id":"68736a0c-c45e-44b7-9894-9250e5012bfe","system_id":"levelo_inurba_marseille","lat":43.31083,"lon":5.42436,"is_reserved":false,"is_disabled":false,"rental_uris":{"android":"levelo://app?vid=68736a0c-c45e-44b7-9894-9250e5012bfe","ios":"levelo://app?vid=68736a0c-c45e-44b7-9894-9250e5012bfe"},"vehicle_type_id":"4","last_reported":1703599566,"current_range_meters":27200,"station_id":"ce4bhp92rcd13ifvqhag","pricing_plan_id":"free"},{"bike_id":"c807b277-1704-46fd-9976-fda8eb7df135","system_id":"levelo_inurba_marseille","lat":43.31076,"lon":5.42436,"is_reserved":false,"is_disabled":false,"rental_uris":{"android":"levelo://app?vid=c807b277-1704-46fd-9976-fda8eb7df135","ios":"levelo://app?vid=c807b277-1704-46fd-9976-fda8eb7df135"},"vehicle_type_id":"4","last_reported":1703599566,"current_range_meters":22000,"station_id":"ce4bhp92rcd13ifvqhag","pricing_plan_id":"free"},{"bike_id":"bb90a34b-3d33-434d-960c-40abe2f16ea4","system_id":"levelo_inurba_marseille","lat":43.31082,"lon":5.42439,"is_reserved":false,"is_disabled":false,"rental_uris":{"android":"levelo://app?vid=bb90a34b-3d33-434d-960c-40abe2f16ea4","ios":"levelo://app?vid=bb90a34b-3d33-434d-960c-40abe2f16ea4"},"vehicle_type_id":"4","last_reported":1703599566,"current_range_meters":28800,"station_id":"ce4bhp92rcd13ifvqhag","pricing_plan_id":"free"},{"bike_id":"40000c49-67f1-4183-81bd-797685f5b1f8","system_id":"levelo_inurba_marseille","lat":43.31079,"lon":5.42442,"is_reserved":false,"is_disabled":false,"rental_uris":{"android":"levelo://app?vid=40000c49-67f1-4183-81bd-797685f5b1f8","ios":"levelo://app?vid=40000c49-67f1-4183-81bd-797685f5b1f8"},"vehicle_type_id":"4","last_reported":1703599566,"current_range_meters":29200,"station_id":"ce4bhp92rcd13ifvqhag","pricing_plan_id":"free"},{"bike_id":"d34a21e9-75d4-4403-8c2a-13dda26f4543","system_id":"levelo_inurba_marseille","lat":43.274103,"lon":5.394016,"is_reserved":false,"is_disabled":false,"rental_uris":{"android":"levelo://app?vid=d34a21e9-75d4-4403-8c2a-13dda26f4543","ios":"levelo://app?vid=d34a21e9-75d4-4403-8c2a-13dda26f4543"},"vehicle_type_id":"4","last_reported":1703599566,"current_range_meters":31600,"station_id":"ce4bhdp2rcd13ifvqf20","pricing_plan_id":"free"},{"bike_id":"1d15b6fb-4c0e-4446-a794-4d1a49148511","system_id":"levelo_inurba_marseille","lat":43.274103,"lon":5.394016,"is_reserved":false,"is_disabled":false,"rental_uris":{"android":"levelo://app?vid=1d15b6fb-4c0e-4446-a794-4d1a49148511","ios":"levelo://app?vid=1d15b6fb-4c0e-4446-a794-4d1a49148511"},"vehicle_type_id":"4","last_reported":1703599566,"current_range_meters":12400,"station_id":"ce4bhdp2rcd13ifvqf20","pricing_plan_id":"free"},{"bike_id":"f556d316-c44a-4d50-a77d-683f4af0ce62","system_id":"levelo_inurba_marseille","lat":43.273129,"lon":5.390725,"is_reserved":false,"is_disabled":false,"rental_uris":{"android":"levelo://app?vid=f556d316-c44a-4d50-a77d-683f4af0ce62","ios":"levelo://app?vid=f556d316-c44a-4d50-a77d-683f4af0ce62"},"vehicle_type_id":"4","last_reported":1703599566,"current_range_meters":8400,"station_id":"ce4bhgp2rcd13ifvqfe0","pricing_plan_id":"free"},{"bike_id":"d1e397f3-b139-4ced-98a7-ebc706af9675","system_id":"levelo_inurba_marseille","lat":43.304096,"lon":5.425385,"is_reserved":false,"is_disabled":false,"rental_uris":{"android":"levelo://app?vid=d1e397f3-b139-4ced-98a7-ebc706af9675","ios":"levelo://app?vid=d1e397f3-b139-4ced-98a7-ebc706af9675"},"vehicle_type_id":"4","last_reported":1703599566,"current_range_meters":1600,"station_id":"ce4bhoh2rcd13ifvqh6g","pricing_plan_id":"free"},{"bike_id":"f6133491-ff83-415f-8a7d-195abfef63a4","system_id":"levelo_inurba_marseille","lat":43.304096,"lon":5.425385,"is_reserved":false,"is_disabled":false,"rental_uris":{"android":"levelo://app?vid=f6133491-ff83-415f-8a7d-195abfef63a4","ios":"levelo://app?vid=f6133491-ff83-415f-8a7d-195abfef63a4"},"vehicle_type_id":"4","last_reported":1703599566,"current_range_meters":28400,"station_id":"ce4bhoh2rcd13ifvqh6g","pricing_plan_id":"free"},{"bike_id":"04b44689-b179-4800-8622-740e783d0e47","system_id":"levelo_inurba_marseille","lat":43.304096,"lon":5.425385,"is_reserved":false,"is_disabled":false,"rental_uris":{"android":"levelo://app?vid=04b44689-b179-4800-8622-740e783d0e47","ios":"levelo://app?vid=04b44689-b179-4800-8622-740e783d0e47"},"vehicle_type_id":"4","last_reported":1703599566,"current_range_meters":29200,"station_id":"ce4bhoh2rcd13ifvqh6g","pricing_plan_id":"free"},{"bike_id":"41382738-9e52-4dc6-a61d-5eed9f020555","system_id":"levelo_inurba_marseille","lat":43.304096,"lon":5.425385,"is_reserved":false,"is_disabled":false,"rental_uris":{"android":"levelo://app?vid=41382738-9e52-4dc6-a61d-5eed9f020555","ios":"levelo://app?vid=41382738-9e52-4dc6-a61d-5eed9f020555"},"vehicle_type_id":"4","last_reported":1703599566,"current_range_meters":18000,"station_id":"ce4bhoh2rcd13ifvqh6g","pricing_plan_id":"free"},{"bike_id":"e192df68-2c2b-482d-b6fd-3b8920434290","system_id":"levelo_inurba_marseille","lat":43.295523,"lon":5.422926,"is_reserved":false,"is_disabled":false,"rental_uris":{"android":"levelo://app?vid=e192df68-2c2b-482d-b6fd-3b8920434290","ios":"levelo://app?vid=e192df68-2c2b-482d-b6fd-3b8920434290"},"vehicle_type_id":"4","last_reported":1703599566,"current_range_meters":31600,"station_id":"ce4bhph2rcd13ifvqhdg","pricing_plan_id":"free"},{"bike_id":"cb6b2288-2fd3-4282-94eb-683acd48348a","system_id":"levelo_inurba_marseille","lat":43.295511,"lon":5.422926,"is_reserved":false,"is_disabled":false,"rental_uris":{"android":"levelo://app?vid=cb6b2288-2fd3-4282-94eb-683acd48348a","ios":"levelo://app?vid=cb6b2288-2fd3-4282-94eb-683acd48348a"},"vehicle_type_id":"4","last_reported":1703599566,"current_range_meters":28800,"station_id":"ce4bhph2rcd13ifvqhdg","pricing_plan_id":"free"},{"bike_id":"5b8be4a2-9e7a-457f-b482-e2479c2a3178","system_id":"levelo_inurba_marseille","lat":43.295511,"lon":5.422926,"is_reserved":false,"is_disabled":false,"rental_uris":{"android":"levelo://app?vid=5b8be4a2-9e7a-457f-b482-e2479c2a3178","ios":"levelo://app?vid=5b8be4a2-9e7a-457f-b482-e2479c2a3178"},"vehicle_type_id":"4","last_reported":1703599566,"current_range_meters":31600,"station_id":"ce4bhph2rcd13ifvqhdg","pricing_plan_id":"free"},{"bike_id":"b25844a5-727a-4c38-9d28-285f48cb7d43","system_id":"levelo_inurba_marseille","lat":43.295523,"lon":5.422926,"is_reserved":false,"is_disabled":false,"rental_uris":{"android":"levelo://app?vid=b25844a5-727a-4c38-9d28-285f48cb7d43","ios":"levelo://app?vid=b25844a5-727a-4c38-9d28-285f48cb7d43"},"vehicle_type_id":"4","last_reported":1703599566,"current_range_meters":27600,"station_id":"ce4bhph2rcd13ifvqhdg","pricing_plan_id":"free"},{"bike_id":"b2bce869-908e-434e-a8d3-6ca3b7dc025d","system_id":"levelo_inurba_marseille","lat":43.272124,"lon":5.391768,"is_reserved":false,"is_disabled":false,"rental_uris":{"android":"levelo://app?vid=b2bce869-908e-434e-a8d3-6ca3b7dc025d","ios":"levelo://app?vid=b2bce869-908e-434e-a8d3-6ca3b7dc025d"},"vehicle_type_id":"4","last_reported":1703599566,"current_range_meters":16400,"station_id":"ce4bhhp2rcd13ifvqfm0","pricing_plan_id":"free"},{"bike_id":"f1891175-7df4-4989-a1ba-e874a3306c3e","system_id":"levelo_inurba_marseille","lat":43.278128,"lon":5.407195,"is_reserved":false,"is_disabled":false,"rental_uris":{"android":"levelo://app?vid=f1891175-7df4-4989-a1ba-e874a3306c3e","ios":"levelo://app?vid=f1891175-7df4-4989-a1ba-e874a3306c3e"},"vehicle_type_id":"4","last_reported":1703599566,"current_range_meters":26800,"station_id":"ce4bhnh2rcd13ifvqgtg","pricing_plan_id":"free"},{"bike_id":"67ed47de-6f4d-40f1-8353-c25b6fa19fbd","system_id":"levelo_inurba_marseille","lat":43.278128,"lon":5.407195,"is_reserved":false,"is_disabled":false,"rental_uris":{"android":"levelo://app?vid=67ed47de-6f4d-40f1-8353-c25b6fa19fbd","ios":"levelo://app?vid=67ed47de-6f4d-40f1-8353-c25b6fa19fbd"},"vehicle_type_id":"4","last_reported":1703599566,"current_range_meters":19600,"station_id":"ce4bhnh2rcd13ifvqgtg","pricing_plan_id":"free"},{"bike_id":"2bcf1142-ed97-4c5e-82a3-c388e97d44f3","system_id":"levelo_inurba_marseille","lat":43.269467,"lon":5.386439,"is_reserved":false,"is_disabled":false,"rental_uris":{"android":"levelo://app?vid=2bcf1142-ed97-4c5e-82a3-c388e97d44f3","ios":"levelo://app?vid=2bcf1142-ed97-4c5e-82a3-c388e97d44f3"},"vehicle_type_id":"4","last_reported":1703599566,"current_range_meters":31600,"station_id":"ce4bhh92rcd13ifvqfh0","pricing_plan_id":"free"},{"bike_id":"f548d445-77b1-4822-b3f6-5fa0b68f5d98","system_id":"levelo_inurba_marseille","lat":43.26681,"lon":5.382694,"is_reserved":false,"is_disabled":false,"rental_uris":{"android":"levelo://app?vid=f548d445-77b1-4822-b3f6-5fa0b68f5d98","ios":"levelo://app?vid=f548d445-77b1-4822-b3f6-5fa0b68f5d98"},"vehicle_type_id":"4","last_reported":1703599566,"current_range_meters":23200,"station_id":"ce4bhg92rcd13ifvqf90","pricing_plan_id":"free"},