{"last_updated":1701979680,"ttl":30,"version":"2.2","data":{"bikes":[{"bike_id":"adb2f603-0135-4203-8407-597239175e1b","system_id":"levelo_inurba_marseille","lat":43.312239,"lon":5.368562,"is_reserved":false,"is_disabled":false,"rental_uris":{"android":"levelo://app?vid=adb2f603-0135-4203-8407-597239175e1b","ios":"levelo://app?vid=adb2f603-0135-4203-8407-597239175e1b"},"vehicle_type_id":"4","last_reported":1701979680,"current_range_meters":17200,"station_id":"ce4bgl92rcd13ifvqbq0","pricing_plan_id":"free"},{"bike_id":"372fdd11-07fc-433a-a4fb-f044e71a65cc","system_id":"levelo_inurba_marseille","lat":43.314811,"lon":5.373103,"is_reserved":false,"is_disabled":false,"rental_uris":{"android":"levelo://app?vid=372fdd11-07fc-433a-a4fb-f044e71a65cc","ios":"levelo://app?vid=372fdd11-07fc-433a-a4fb-f044e71a65cc"},"vehicle_type_id":"4","last_reported":1701979680,"current_range_meters":30400,"station_id":"ce4bgt12rcd13ifvqcd0","pricing_plan_id":"free"},{"bike_id":"2c4259f8-296c-49b8-818d-81d850bc35bf","system_id":"levelo_inurba_marseille","lat":43.317075,"lon":5.377367,"is_reserved":false,"is_disabled":false,"rental_uris":{"android":"levelo://app?vid=2c4259f8-296c-49b8-818d-81d850bc35bf","ios":"levelo://app?vid=2c4259f8-296c-49b8-818d-81d850bc35bf"},"vehicle_type_id":"4","last_reported":1701979680,"current_range_meters":11600,"station_id":"ce4bgth2rcd13ifvqch0","pricing_plan_id":"free"},{"bike_id":"adf146c5-e4e1-4668-9a33-042940925130","system_id":"levelo_inurba_marseille","lat":43.31351,"lon":5.37909,"is_reserved":false,"is_disabled":false,"rental_uris":{"android":"levelo://app?vid=adf146c5-e4e1-4668-9a33-042940925130","ios":"levelo://app?vid=adf146c5-e4e1-4668-9a33-042940925130"},"vehicle_type_id":"4","last_reported":1701979680,"current_range_meters":1200,"station_id":"","pricing_plan_id":"free"},{"bike_id":"1ea60f58-75f7-4484-b705-1156df4b02ad","system_id":"levelo_inurba_marseille","lat":43.302764,"lon":5.373435,"is_reserved":false,"is_disabled":false,"rental_uris":{"android":"levelo://app?vid=1ea60f58-75f7-4484-b705-1156df4b02ad","ios":"levelo://app?vid=1ea60f58-75f7-4484-b705-1156df4b02ad"},"vehicle_type_id":"4","last_reported":1701979680,"current_range_meters":4400,"station_id":"","pricing_plan_id":"free"},{"bike_id":"4b68bd17-e412-4122-b48a-5d659d284533","system_id":"levelo_inurba_marseille","lat":43.301939,"lon":5.366286,"is_reserved":false,"is_disabled":false,"rental_uris":{"android":"levelo://app?vid=4b68bd17-e412-4122-b48a-5d659d284533","ios":"levelo://app?vid=4b68bd17-e412-4122-b48a-5d659d284533"},"vehicle_type_id":"4","last_reported":1701979680,"current_range_meters":21600,"station_id":"ce4bgrh2rcd13ifvqc8g","pricing_plan_id":"free"},{"bike_id":"4a4dc389-a795-4a76-b6b3-3c7d00b57c94","system_id":"levelo_inurba_marseille","lat":43.324771,"lon":5.36557,"is_reserved":false,"is_disabled":false,"rental_uris":{"android":"levelo://app?vid=4a4dc389-a795-4a76-b6b3-3c7d00b57c94","ios":"levelo://app?vid=4a4dc389-a795-4a76-b6b3-3c7d00b57c94"},"vehicle_type_id":"4","last_reported":1701979680,"current_range_meters":6400,"station_id":"ce4bhs12rcd13ifvqhvg","pricing_plan_id":"free"},{"bike_id":"8e6bcc22-26a3-4f21-b99e-ec3014f3e345","system_id":"levelo_inurba_marseille","lat":43.31993,"lon":5.38149,"is_reserved":false,"is_disabled":false,"rental_uris":{"android":"levelo://app?vid=8e6bcc22-26a3-4f21-b99e-ec3014f3e345","ios":"levelo://app?vid=8e6bcc22-26a3-4f21-b99e-ec3014f3e345"},"vehicle_type_id":"4","last_reported":1701979680,"current_range_meters":17200,"station_id":"ce4bhr12rcd13ifvqhpg","pricing_plan_id":"free"},{"bike_id":"cb473838-747e-47ca-b07a-3dc20b15e156","system_id":"levelo_inurba_marseille","lat":43.319935,"lon":5.381699,"is_reserved":false,"is_disabled":false,"rental_uris":{"android":"levelo://app?vid=cb473838-747e-47ca-b07a-3dc20b15e156","ios":"levelo://app?vid=cb473838-747e-47ca-b07a-3dc20b15e156"},"vehicle_type_id":"4","last_reported":1701979680,"current_range_meters":24400,"station_id":"ce4bhr12rcd13ifvqhpg","pricing_plan_id":"free"},{"bike_id":"a88cf5d7-0e4d-4efb-83ba-895743ae7648","system_id":"levelo_inurba_marseille","lat":43.319935,"lon":5.381699,"is_reserved":false,"is_disabled":false,"rental_uris":{"android":"levelo://app?vid=a88cf5d7-0e4d-4efb-83ba-895743ae7648","ios":"levelo://app?vid=a88cf5d7-0e4d-4efb-83ba-895743ae7648"},"vehicle_type_id":"4","last_reported":1701979680,"current_range_meters":18800,"station_id":"ce4bhr12rcd13ifvqhpg","pricing_plan_id":"free"},{"bike_id":"9ee0ef7a-8d9c-4d78-8ae5-64e12b708d26","system_id":"levelo_inurba_marseille","lat":43.319997,"lon":5.381594,"is_reserved":false,"is_disabled":false,"rental_uris":{"android":"levelo://app?vid=9ee0ef7a-8d9c-4d78-8ae5-64e12b708d26","ios":"levelo://app?vid=9ee0ef7a-8d9c-4d78-8ae5-64e12b708d26"},"vehicle_type_id":"4","last_reported":1701979680,"current_range_meters":0,"station_id":"ce4bhr12rcd13ifvqhpg","pricing_plan_id":"free"},{"bike_id":"a49b99ee-38eb-49b5-978d-00cf198fff08","system_id":"levelo_inurba_marseille","lat":43.299656,"lon":5.366323,"is_reserved":false,"is_disabled":false,"rental_uris":{"android":"levelo://app?vid=a49b99ee-38eb-49b5-978d-00cf198fff08","ios":"levelo://app?vid=a49b99ee-38eb-49b5-978d-00cf198fff08"},"vehicle_type_id":"4","last_reported":1701979680,"current_range_meters":22400,"station_id":"","pricing_plan_id":"free"},{"bike_id":"ffecd1c3-6b94-4dfb-a0c6-df1cbc88f2fd","system_id":"levelo_inurba_marseille","lat":43.311722,"lon":5.387247,"is_reserved":false,"is_disabled":false,"rental_uris":{"android":"levelo://app?vid=ffecd1c3-6b94-4dfb-a0c6-df1cbc88f2fd","ios":"levelo://app?vid=ffecd1c3-6b94-4dfb-a0c6-df1cbc88f2fd"},"vehicle_type_id":"4","last_reported":1701979680,"current_range_meters":4800,"station_id":"ce4bgv12rcd13ifvqcp0","pricing_plan_id":"free"},{"bike_id":"d9385dc4-cf40-45c8-91f8-488c058a8d14","system_id":"levelo_inurba_marseille","lat":43.31167,"lon":5.38721,"is_reserved":false,"is_disabled":false,"rental_uris":{"android":"levelo://app?vid=d9385dc4-cf40-45c8-91f8-488c058a8d14","ios":"levelo://app?vid=d9385dc4-cf40-45c8-91f8-488c058a8d14"},"vehicle_type_id":"4","last_reported":1701979680,"current_range_meters":2400,"station_id":"ce4bgv12rcd13ifvqcp0","pricing_plan_id":"free"},{"bike_id":"0d54d094-e0f1-40b0-976d-4597098b5ddc","system_id":"levelo_inurba_marseille","lat":43.322872,"lon":5.382756,"is_reserved":false,"is_disabled":false,"rental_uris":{"android":"levelo://app?vid=0d54d094-e0f1-40b0-976d-4597098b5ddc","ios":"levelo://app?vid=0d54d094-e0f1-40b0-976d-4597098b5ddc"},"vehicle_type_id":"4","last_reported":1701979680,"current_range_meters":14000,"station_id":"ce4bhr12rcd13ifvqhqg","pricing_plan_id":"free"},{"bike_id":"3dcd4a73-468d-493a-bf11-93ceddd109f8","system_id":"levelo_inurba_marseille","lat":43.322872,"lon":5.382756,"is_reserved":false,"is_disabled":false,"rental_uris":{"android":"levelo://app?vid=3dcd4a73-468d-493a-bf11-93ceddd109f8","ios":"levelo://app?vid=3dcd4a73-468d-493a-bf11-93ceddd109f8"},"vehicle_type_id":"4","last_reported":1701979680,"current_range_meters":24000,"station_id":"ce4bhr12rcd13ifvqhqg","pricing_plan_id":"free"},{"bike_id":"92dc65d6-6823-4de3-93d4-056f738f090c","system_id":"levelo_inurba_marseille","lat":43.316538,"lon":5.38954,"is_reserved":false,"is_disabled":false,"rental_uris":{"android":"levelo://app?vid=92dc65d6-6823-4de3-93d4-056f738f090c","ios":"levelo://app?vid=92dc65d6-6823-4de3-93d4-056f738f090c"},"vehicle_type_id":"4","last_reported":1701979680,"current_range_meters":4400,"station_id":"","pricing_plan_id":"free"},{"bike_id":"ef08f774-2713-46c7-ac61-11066468225e","system_id":"levelo_inurba_marseille","lat":43.29573,"lon":5.367955,"is_reserved":false,"is_disabled":false,"rental_uris":{"android":"levelo://app?vid=ef08f774-2713-46c7-ac61-11066468225e","ios":"levelo://app?vid=ef08f774-2713-46c7-ac61-11066468225e"},"vehicle_type_id":"4","last_reported":1701979680,"current_range_meters":25200,"station_id":"ce4bgph2rcd13ifvqc2g","pricing_plan_id":"free"},{"bike_id":"2d0597bb-e8cf-47db-a18f-0b42e4b899bd","system_id":"levelo_inurba_marseille","lat":43.299028,"lon":5.381509,"is_reserved":false,"is_disabled":false,"rental_uris":{"android":"levelo://app?vid=2d0597bb-e8cf-47db-a18f-0b42e4b899bd","ios":"levelo://app?vid=2d0597bb-e8cf-47db-a18f-0b42e4b899bd"},"vehicle_type_id":"4","last_reported":1701979680,"current_range_meters":13600,"station_id":"ce4bgj12rcd13ifvqbc0","pricing_plan_id":"free"},{"bike_id":"2a6b5526-c67a-4261-8504-11607a657197","system_id":"levelo_inurba_marseille","lat":43.296921,"lon":5.376579,"is_reserved":false,"is_disabled":false,"rental_uris":{"android":"levelo://app?vid=2a6b5526-c67a-4261-8504-11607a657197","ios":"levelo://app?vid=2a6b5526-c67a-4261-8504-11607a657197"},"vehicle_type_id":"4","last_reported":1701979680,"current_range_meters":21600,"station_id":"ce4bgkh2rcd13ifvqbl0","pricing_plan_id":"free"},{"bike_id":"3723ca47-9dc6-4289-8f52-a49a13bb69b8","system_id":"levelo_inurba_marseille","lat":43.317557,"lon":5.390173,"is_reserved":false,"is_disabled":false,"rental_uris":{"android":"levelo://app?vid=3723ca47-9dc6-4289-8f52-a49a13bb69b8","ios":"levelo://app?vid=3723ca47-9dc6-4289-8f52-a49a13bb69b8"},"vehicle_type_id":"4","last_reported":1701979680,"current_range_meters":13600,"station_id":"ce4bhqp2rcd13ifvqhng","pricing_plan_id":"free"},{"bike_id":"9ca5634d-fa83-463b-90bf-8915b8259a6b","system_id":"levelo_inurba_marseille","lat":43.304274,"lon":5.388873,"is_reserved":false,"is_disabled":false,"rental_uris":{"android":"levelo://app?vid=9ca5634d-fa83-463b-90bf-8915b8259a6b","ios":"levelo://app?vid=9ca5634d-fa83-463b-90bf-8915b8259a6b"},"vehicle_type_id":"4","last_reported":1701979680,"current_range_meters":17200,"station_id":"ce4bgk12rcd13ifvqbi0","pricing_plan_id":"free"},{"bike_id":"2084733f-1d91-496a-b141-d5a498f0aa59","system_id":"levelo_inurba_marseille","lat":43.304278,"lon":5.388868,"is_reserved":false,"is_disabled":false,"rental_uris":{"android":"levelo://app?vid=2084733f-1d91-496a-b141-d5a498f0aa59","ios":"levelo://app?vid=2084733f-1d91-496a-b141-d5a498f0aa59"},"vehicle_type_id":"4","last_reported":1701979680,"current_range_meters":29200,"station_id":"ce4bgk12rcd13ifvqbi0","pricing_plan_id":"free"},{"bike_id":"479c85dd-ba3f-4a12-8ddd-073c2bfaf8aa","system_id":"levelo_inurba_marseille","lat":43.29608,"lon":5.37709,"is_reserved":false,"is_disabled":false,"rental_uris":{"android":"levelo://app?vid=479c85dd-ba3f-4a12-8ddd-073c2bfaf8aa","ios":"levelo://app?vid=479c85dd-ba3f-4a12-8ddd-073c2bfaf8aa"},"vehicle_type_id":"4","last_reported":1701979680,"current_range_meters":0,"station_id":"ce4bgi92rcd13ifvqb90","pricing_plan_id":"free"},{"bike_id":"a1146276-33b3-469b-ad9a-5ac347dde538","system_id":"levelo_inurba_marseille","lat":43.29525,"lon":5.37508,"is_reserved":false,"is_disabled":false,"rental_uris":{"android":"levelo://app?vid=a1146276-33b3-469b-ad9a-5ac347dde538","ios":"levelo://app?vid=a1146276-33b3-469b-ad9a-5ac347dde538"},"vehicle_type_id":"4","last_reported":1701979680,"current_range_meters":0,"station_id":"ce4bgkp2rcd13ifvqbmg","pricing_plan_id":"free"},{"bike_id":"14a93d79-94a2-4b3d-8757-d3884dbe92a5","system_id":"levelo_inurba_marseille","lat":43.32367,"lon":5.388836,"is_reserved":false,"is_disabled":false,"rental_uris":{"android":"levelo://app?vid=14a93d79-94a2-4b3d-8757-d3884dbe92a5","ios":"levelo://app?vid=14a93d79-94a2-4b3d-8757-d3884dbe92a5"},"vehicle_type_id":"4","last_reported":1701979680,"current_range_meters":800,"station_id":"ce4bhqp2rcd13ifvqhog","pricing_plan_id":"free"},{"bike_id":"b8c88944-6fef-48f6-b70f-fad422e100d9","system_id":"levelo_inurba_marseille","lat":43.32367,"lon":5.388836,"is_reserved":false,"is_disabled":false,"rental_uris":{"android":"levelo://app?vid=b8c88944-6fef-48f6-b70f-fad422e100d9","ios":"levelo://app?vid=b8c88944-6fef-48f6-b70f-fad422e100d9"},"vehicle_type_id":"4","last_reported":1701979680,"current_range_meters":10400,"station_id":"ce4bhqp2rcd13ifvqhog","pricing_plan_id":"free"},{"bike_id":"7579423d-f3b8-4e7f-be59-2ba9da91b549","system_id":"levelo_inurba_marseille","lat":43.31422,"lon":5.39389,"is_reserved":false,"is_disabled":false,"rental_uris":{"android":"levelo://app?vid=7579423d-f3b8-4e7f-be59-2ba9da91b549","ios":"levelo://app?vid=7579423d-f3b8-4e7f-be59-2ba9da91b549"},"vehicle_type_id":"4","last_reported":1701979680,"current_range_meters":7600,"station_id":"","pricing_plan_id":"free"},{"bike_id":"acb5236e-b614-49e9-9b3c-cb8ccf06d580","system_id":"levelo_inurba_marseille","lat":43.293009,"lon":5.374584,"is_reserved":false,"is_disabled":false,"rental_uris":{"android":"levelo://app?vid=acb5236e-b614-49e9-9b3c-cb8ccf06d580","ios":"levelo://app?vid=acb5236e-b614-49e9-9b3c-cb8ccf06d580"},"vehicle_type_id":"4","last_reported":1701979680,"current_range_meters":0,"station_id":"ce4bgi12rcd13ifvqb70","pricing_plan_id":"free"},{"bike_id":"47498a19-30a0-4bf8-846b-01b33ab63b65","system_id":"levelo_inurba_marseille","lat":43.293009,"lon":5.374584,"is_reserved":false,"is_disabled":false,"rental_uris":{"android":"levelo://app?vid=47498a19-30a0-4bf8-846b-01b33ab63b65","ios":"levelo://app?vid=47498a19-30a0-4bf8-846b-01b33ab63b65"},"vehicle_type_id":"4","last_reported":1701979680,"current_range_meters":8400,"station_id":"ce4bgi12rcd13ifvqb70","pricing_plan_id":"free"},{"bike_id":"993ce0c2-5de4-4dd9-ab5e-2375a26b3e1b","system_id":"levelo_inurba_marseille","lat":43.292663,"lon":5.376389,"is_reserved":false,"is_disabled":false,"rental_uris":{"android":"levelo://app?vid=993ce0c2-5de4-4dd9-ab5e-2375a26b3e1b","ios":"levelo://app?vid=993ce0c2-5de4-4dd9-ab5e-2375a26b3e1b"},"vehicle_type_id":"4","last_reported":1701979680,"current_range_meters":2000,"station_id":"ce4bgi12rcd13ifvqb80","pricing_plan_id":"free"},{"bike_id":"af19e12c-3bf0-4095-8089-ef207e4b81f0","system_id":"levelo_inurba_marseille","lat":43.29165,"lon":5.37145,"is_reserved":false,"is_disabled":false,"rental_uris":{"android":"levelo://app?vid=af19e12c-3bf0-4095-8089-ef207e4b81f0","ios":"levelo://app?vid=af19e12c-3bf0-4095-8089-ef207e4b81f0"},"vehicle_type_id":"4","last_reported":1701979680,"current_range_meters":8000,"station_id":"ce4bha92rcd13ifvqeh0","pricing_plan_id":"free"},{"bike_id":"9dfc0264-3b6b-4c73-8f5e-0888bec2ba7e","system_id":"levelo_inurba_marseille","lat":43.313267,"lon":5.396887,"is_reserved":false,"is_disabled":false,"rental_uris":{"android":"levelo://app?vid=9dfc0264-3b6b-4c73-8f5e-0888bec2ba7e","ios":"levelo://app?vid=9dfc0264-3b6b-4c73-8f5e-0888bec2ba7e"},"vehicle_type_id":"4","last_reported":1701979680,"current_range_meters":7200,"station_id":"ce4bgvp2rcd13ifvqcu0","pricing_plan_id":"free"},{"bike_id":"000a0652-5abf-489e-974e-587dca4fe85c","system_id":"levelo_inurba_marseille","lat":43.309047,"lon":5.396551,"is_reserved":false,"is_disabled":false,"rental_uris":{"android":"levelo://app?vid=000a0652-5abf-489e-974e-587dca4fe85c","ios":"levelo://app?vid=000a0652-5abf-489e-974e-587dca4fe85c"},"vehicle_type_id":"4","last_reported":1701979680,"current_range_meters":9600,"station_id":"ce4bh012rcd13ifvqcv0","pricing_plan_id":"free"},{"bike_id":"402666bd-ab7f-44c3-a6a5-bd73fc74f492","system_id":"levelo_inurba_marseille","lat":43.31325,"lon":5.39691,"is_reserved":false,"is_disabled":false,"rental_uris":{"android":"levelo://app?vid=402666bd-ab7f-44c3-a6a5-bd73fc74f492","ios":"levelo://app?vid=402666bd-ab7f-44c3-a6a5-bd73fc74f492"},"vehicle_type_id":"4","last_reported":1701979680,"current_range_meters":0,"station_id":"ce4bgvp2rcd13ifvqcu0","pricing_plan_id":"free"},{"bike_id":"3814f3b5-cafa-4033-bb67-ed20152de6b0","system_id":"levelo_inurba_marseille","lat":43.313291,"lon":5.396838,"is_reserved":false,"is_disabled":false,"rental_uris":{"android":"levelo://app?vid=3814f3b5-cafa-4033-bb67-ed20152de6b0","ios":"levelo://app?vid=3814f3b5-cafa-4033-bb67-ed20152de6b0"},"vehicle_type_id":"4","last_reported":1701979680,"current_range_meters":800,"station_id":"ce4bgvp2rcd13ifvqcu0","pricing_plan_id":"free"},{"bike_id":"5cc46180-f859-423b-b402-0af92ab53d05","system_id":"levelo_inurba_marseille","lat":43.31326,"lon":5.39692,"is_reserved":false,"is_disabled":false,"rental_uris":{"android":"levelo://app?vid=5cc46180-f859-423b-b402-0af92ab53d05","ios":"levelo://app?vid=5cc46180-f859-423b-b402-0af92ab53d05"},"vehicle_type_id":"4","last_reported":1701979680,"current_range_meters":0,"station_id":"ce4bgvp2rcd13ifvqcu0","pricing_plan_id":"free"},{"bike_id":"9896f0ee-c20e-4279-ae97-fc4ae65c84d6","system_id":"levelo_inurba_marseille","lat":43.31335,"lon":5.39696,"is_reserved":false,"is_disabled":false,"rental_uris":{"android":"levelo://app?vid=9896f0ee-c20e-4279-ae97-fc4ae65c84d6","ios":"levelo://app?vid=9896f0ee-c20e-4279-ae97-fc4ae65c84d6"},"vehicle_type_id":"4","last_reported":1701979680,"current_range_meters":27200,"station_id":"ce4bgvp2rcd13ifvqcu0","pricing_plan_id":"free"},{"bike_id":"187b539b-4d11-4879-9e56-80418f38f0b5","system_id":"levelo_inurba_marseille","lat":43.29529,"lon":5.385581,"is_reserved":false,"is_disabled":false,"rental_uris":{"android":"levelo://app?vid=187b539b-4d11-4879-9e56-80418f38f0b5","ios":"levelo://app?vid=187b539b-4d11-4879-9e56-80418f38f0b5"},"vehicle_type_id":"4","last_reported":1701979680,"current_range_meters":30000,"station_id":"ce4bgih2rcd13ifvqba0","pricing_plan_id":"free"},{"bike_id":"b3412777-7088-4d0a-87b2-d83a274275be","system_id":"levelo_inurba_marseille","lat":43.290624,"lon":5.359245,"is_reserved":false,"is_disabled":false,"rental_uris":{"android":"levelo://app?vid=b3412777-7088-4d0a-87b2-d83a274275be","ios":"levelo://app?vid=b3412777-7088-4d0a-87b2-d83a274275be"},"vehicle_type_id":"4","last_reported":1701979680,"current_range_meters":5600,"station_id":"ce4bha92rcd13ifvqeg0","pricing_plan_id":"free"},{"bike_id":"54f4ffef-4aae-4aaa-a542-9cb546cdb0d6","system_id":"levelo_inurba_marseille","lat":43.29038,"lon":5.37575,"is_reserved":false,"is_disabled":false,"rental_uris":{"android":"levelo://app?vid=54f4ffef-4aae-4aaa-a542-9cb546cdb0d6","ios":"levelo://app?vid=54f4ffef-4aae-4aaa-a542-9cb546cdb0d6"},"vehicle_type_id":"4","last_reported":1701979680,"current_range_meters":0,"station_id":"ce4bh692rcd13ifvqe90","pricing_plan_id":"free"},{"bike_id":"469304cd-b034-4d0a-80dc-d5bba7cda868","system_id":"levelo_inurba_marseille","lat":43.289184,"lon":5.366408,"is_reserved":false,"is_disabled":false,"rental_uris":{"android":"levelo://app?vid=469304cd-b034-4d0a-80dc-d5bba7cda868","ios":"levelo://app?vid=469304cd-b034-4d0a-80dc-d5bba7cda868"},"vehicle_type_id":"4","last_reported":1701979680,"current_range_meters":6400,"station_id":"ce4bhap2rcd13ifvqek0","pricing_plan_id":"free"},{"bike_id":"35167050-f909-4250-a110-df5bedfb0a40","system_id":"levelo_inurba_marseille","lat":43.29425,"lon":5.38646,"is_reserved":false,"is_disabled":false,"rental_uris":{"android":"levelo://app?vid=35167050-f909-4250-a110-df5bedfb0a40","ios":"levelo://app?vid=35167050-f909-4250-a110-df5bedfb0a40"},"vehicle_type_id":"4","last_reported":1701979680,"current_range_meters":4800,"station_id":"ce4bh2h2rcd13ifvqdh0","pricing_plan_id":"free"},{"bike_id":"8a94f3ac-0283-4846-800c-bb7f861b668e","system_id":"levelo_inurba_marseille","lat":43.290161,"lon":5.375651,"is_reserved":false,"is_disabled":false,"rental_uris":{"android":"levelo://app?vid=8a94f3ac-0283-4846-800c-bb7f861b668e","ios":"levelo://app?vid=8a94f3ac-0283-4846-800c-bb7f861b668e"},"vehicle_type_id":"4","last_reported":1701979680,"current_range_meters":20000,"station_id":"","pricing_plan_id":"free"},{"bike_id":"a02a1b20-1fb1-4951-988a-77389649024d","system_id":"levelo_inurba_marseille","lat":43.289259,"lon":5.366364,"is_reserved":false,"is_disabled":false,"rental_uris":{"android":"levelo://app?vid=a02a1b20-1fb1-4951-988a-77389649024d","ios":"levelo://app?vid=a02a1b20-1fb1-4951-988a-77389649024d"},"vehicle_type_id":"4","last_reported":1701979680,"current_range_meters":18800,"station_id":"","pricing_plan_id":"free"},{"bike_id":"80f585c4-d203-4249-92d0-56d62cdd928d","system_id":"levelo_inurba_marseille","lat":43.292642,"lon":5.384254,"is_reserved":false,"is_disabled":false,"rental_uris":{"android":"levelo://app?vid=80f585c4-d203-4249-92d0-56d62cdd928d","ios":"levelo://app?vid=80f585c4-d203-4249-92d0-56d62cdd928d"},"vehicle_type_id":"4","last_reported":1701979680,"current_range_meters":0,"station_id":"ce4bh692rcd13ifvqea0","pricing_plan_id":"free"},{"bike_id":"f1ef2111-cf87-4746-8c15-344b42d15562","system_id":"levelo_inurba_marseille","lat":43.290995,"lon":5.381361,"is_reserved":false,"is_disabled":false,"rental_uris":{"android":"levelo://app?vid=f1ef2111-cf87-4746-8c15-344b42d15562","ios":"levelo://app?vid=f1ef2111-cf87-4746-8c15-344b42d15562"},"vehicle_type_id":"4","last_reported":1701979680,"current_range_meters":27600,"station_id":"ce4bh512rcd13ifvqe2g","pricing_plan_id":"free"},{"bike_id":"108696cb-6bfa-4400-aa7a-ab44a5402b00","system_id":"levelo_inurba_marseille","lat":43.288558,"lon":5.358635,"is_reserved":false,"is_disabled":false,"rental_uris":{"android":"levelo://app?vid=108696cb-6bfa-4400-aa7a-ab44a5402b00","ios":"levelo://app?vid=108696cb-6bfa-4400-aa7a-ab44a5402b00"},"vehicle_type_id":"4","last_reported":1701979680,"current_range_meters":26800,"station_id":"","pricing_plan_id":"free"},{"bike_id":"8905581f-3bb2-4b81-9772-fb778280cb77","system_id":"levelo_inurba_marseille","lat":43.28856,"lon":5.358371,"is_reserved":false,"is_disabled":false,"rental_uris":{"android":"levelo://app?vid=8905581f-3bb2-4b81-9772-fb778280cb77","ios":"levelo://app?vid=8905581f-3bb2-4b81-9772-fb778280cb77"},"vehicle_type_id":"4","last_reported":1701979680,"current_range_meters":5600,"station_id":"ce4bhb12rcd13ifvqem0","pricing_plan_id":"free"},{"bike_id":"eefaac36-0854-4162-b00c-9dfa62ff9a0f","system_id":"levelo_inurba_marseille","lat":43.295196,"lon":5.39397,"is_reserved":false,"is_disabled":false,"rental_uris":{"android":"levelo://app?vid=eefaac36-0854-4162-b00c-9dfa62ff9a0f","ios":"levelo://app?vid=eefaac36-0854-4162-b00c-9dfa62ff9a0f"},"vehicle_type_id":"4","last_reported":1701979680,"current_range_meters":4000,"station_id":"ce4bh292rcd13ifvqdf0","pricing_plan_id":"free"},{"bike_id":"f0dd8e31-f08e-444c-8bda-236440bfc1d2","system_id":"levelo_inurba_marseille","lat":43.28727,"lon":5.36078,"is_reserved":false,"is_disabled":false,"rental_uris":{"android":"levelo://app?vid=f0dd8e31-f08e-444c-8bda-236440bfc1d2","ios":"levelo://app?vid=f0dd8e31-f08e-444c-8bda-236440bfc1d2"},"vehicle_type_id":"4","last_reported":1701979680,"current_range_meters":24800,"station_id":"cki0cbj6b192h4jlfktg","pricing_plan_id":"free"},{"bike_id":"85056595-08c7-445b-a929-b8e36b2c1e7c","system_id":"levelo_inurba_marseille","lat":43.28723,"lon":5.36098,"is_reserved":false,"is_disabled":false,"rental_uris":{"android":"levelo://app?vid=85056595-08c7-445b-a929-b8e36b2c1e7c","ios":"levelo://app?vid=85056595-08c7-445b-a929-b8e36b2c1e7c"},"vehicle_type_id":"4","last_reported":1701979680,"current_range_meters":4800,"station_id":"cki0cbj6b192h4jlfktg","pricing_plan_id":"free"},{"bike_id":"41b37be4-557a-46fc-b825-91f9e7e482f1","system_id":"levelo_inurba_marseille","lat":43.28722,"lon":5.36092,"is_reserved":false,"is_disabled":false,"rental_uris":{"android":"levelo://app?vid=41b37be4-557a-46fc-b825-91f9e7e482f1","ios":"levelo://app?vid=41b37be4-557a-46fc-b825-91f9e7e482f1"},"vehicle_type_id":"4","last_reported":1701979680,"current_range_meters":24800,"station_id":"cki0cbj6b192h4jlfktg","pricing_plan_id":"free"},{"bike_id":"fc95b9e8-4706-4d61-9b73-00ee748d1ccc","system_id":"levelo_inurba_marseille","lat":43.28722,"lon":5.36088,"is_reserved":false,"is_disabled":false,"rental_uris":{"android":"levelo://app?vid=fc95b9e8-4706-4d61-9b73-00ee748d1ccc","ios":"levelo://app?vid=fc95b9e8-4706-4d61-9b73-00ee748d1ccc"},"vehicle_type_id":"4","last_reported":1701979680,"current_range_meters":400,"station_id":"cki0cbj6b192h4jlfktg","pricing_plan_id":"free"},{"bike_id":"9d30c0a1-78b6-4686-a33e-68de7f52067a","system_id":"levelo_inurba_marseille","lat":43.295196,"lon":5.39397,"is_reserved":false,"is_disabled":false,"rental_uris":{"android":"levelo://app?vid=9d30c0a1-78b6-4686-a33e-68de7f52067a","ios":"levelo://app?vid=9d30c0a1-78b6-4686-a33e-68de7f52067a"},"vehicle_type_id":"4","last_reported":1701979680,"current_range_meters":10000,"station_id":"ce4bh292rcd13ifvqdf0","pricing_plan_id":"free"},{"bike_id":"f7171ac6-bec9-422c-911b-25d7c63aa337","system_id":"levelo_inurba_marseille","lat":43.290345,"lon":5.38646,"is_reserved":false,"is_disabled":false,"rental_uris":{"android":"levelo://app?vid=f7171ac6-bec9-422c-911b-25d7c63aa337","ios":"levelo://app?vid=f7171ac6-bec9-422c-911b-25d7c63aa337"},"vehicle_type_id":"4","last_reported":1701979680,"current_range_meters":26800,"station_id":"ce4bh4p2rcd13ifvqe0g","pricing_plan_id":"free"},{"bike_id":"37491834-6cc2-4768-bbbc-6404c9f09d56","system_id":"levelo_inurba_marseille","lat":43.302759,"lon":5.400793,"is_reserved":false,"is_disabled":false,"rental_uris":{"android":"levelo://app?vid=37491834-6cc2-4768-bbbc-6404c9f09d56","ios":"levelo://app?vid=37491834-6cc2-4768-bbbc-6404c9f09d56"},"vehicle_type_id":"4","last_reported":1701979680,"current_range_meters":20800,"station_id":"ce4bgvh2rcd13ifvqcs0","pricing_plan_id":"free"},{"bike_id":"248297f2-2dbe-486f-a48d-a019ce0dbcf8","system_id":"levelo_inurba_marseille","lat":43.289307,"lon":5.38406,"is_reserved":false,"is_disabled":false,"rental_uris":{"android":"levelo://app?vid=248297f2-2dbe-486f-a48d-a019ce0dbcf8","ios":"levelo://app?vid=248297f2-2dbe-486f-a48d-a019ce0dbcf8"},"vehicle_type_id":"4","last_reported":1701979680,"current_range_meters":27600,"station_id":"ce4bh612rcd13ifvqe6g","pricing_plan_id":"free"},{"bike_id":"40daa7a0-8c0b-4a78-b0d3-7dfe39007088","system_id":"levelo_inurba_marseille","lat":43.302759,"lon":5.400793,"is_reserved":false,"is_disabled":false,"rental_uris":{"android":"levelo://app?vid=40daa7a0-8c0b-4a78-b0d3-7dfe39007088","ios":"levelo://app?vid=40daa7a0-8c0b-4a78-b0d3-7dfe39007088"},"vehicle_type_id":"4","last_reported":1701979680,"current_range_meters":20800,"station_id":"ce4bgvh2rcd13ifvqcs0","pricing_plan_id":"free"},{"bike_id":"9771dfd8-017b-477e-9f38-39c8dec9c905","system_id":"levelo_inurba_marseille","lat":43.286039,"lon":5.370679,"is_reserved":false,"is_disabled":false,"rental_uris":{"android":"levelo://app?vid=9771dfd8-017b-477e-9f38-39c8dec9c905","ios":"levelo://app?vid=9771dfd8-017b-477e-9f38-39c8dec9c905"},"vehicle_type_id":"4","last_reported":1701979680,"current_range_meters":31200,"station_id":"ce4bht12rcd13ifvqi60","pricing_plan_id":"free"},{"bike_id":"bfed4cd0-6885-4ce4-a838-464d6856ad07","system_id":"levelo_inurba_marseille","lat":43.286039,"lon":5.370679,"is_reserved":false,"is_disabled":false,"rental_uris":{"android":"levelo://app?vid=bfed4cd0-6885-4ce4-a838-464d6856ad07","ios":"levelo://app?vid=bfed4cd0-6885-4ce4-a838-464d6856ad07"},"vehicle_type_id":"4","last_reported":1701979680,"current_range_meters":13600,"station_id":"ce4bht12rcd13ifvqi60","pricing_plan_id":"free"},{"bike_id":"b9368d4f-73ed-4565-b2ae-63aeb9262fc6","system_id":"levelo_inurba_marseille","lat":43.31696,"lon":5.4047,"is_reserved":false,"is_disabled":false,"rental_uris":{"android":"levelo://app?vid=b9368d4f-73ed-4565-b2ae-63aeb9262fc6","ios":"levelo://app?vid=b9368d4f-73ed-4565-b2ae-63aeb9262fc6"},"vehicle_type_id":"4","last_reported":1701979680,"current_range_meters":18800,"station_id":"","pricing_plan_id":"free"},{"bike_id":"e1381426-8458-4c46-98bb-f6547eef6199","system_id":"levelo_inurba_marseille","lat":43.291994,"lon":5.392907,"is_reserved":false,"is_disabled":false,"rental_uris":{"android":"levelo://app?vid=e1381426-8458-4c46-98bb-f6547eef6199","ios":"levelo://app?vid=e1381426-8458-4c46-98bb-f6547eef6199"},"vehicle_type_id":"4","last_reported":1701979680,"current_range_meters":2400,"station_id":"ce4bh192rcd13ifvqdd0","pricing_plan_id":"free"},{"bike_id":"2b715313-a8a9-4433-9018-d854945294a0","system_id":"levelo_inurba_marseille","lat":43.284538,"lon":5.358657,"is_reserved":false,"is_disabled":false,"rental_uris":{"android":"levelo://app?vid=2b715313-a8a9-4433-9018-d854945294a0","ios":"levelo://app?vid=2b715313-a8a9-4433-9018-d854945294a0"},"vehicle_type_id":"4","last_reported":1701979680,"current_range_meters":9600,"station_id":"ce4bhah2rcd13ifvqei0","pricing_plan_id":"free"},{"bike_id":"fb8129b0-fe0a-4869-8c36-05e027179d11","system_id":"levelo_inurba_marseille","lat":43.284534,"lon":5.358662,"is_reserved":false,"is_disabled":false,"rental_uris":{"android":"levelo://app?vid=fb8129b0-fe0a-4869-8c36-05e027179d11","ios":"levelo://app?vid=fb8129b0-fe0a-4869-8c36-05e027179d11"},"vehicle_type_id":"4","last_reported":1701979680,"current_range_meters":21600,"station_id":"ce4bhah2rcd13ifvqei0","pricing_plan_id":"free"},{"bike_id":"6f3805da-607e-4644-a872-a570d4d7529e","system_id":"levelo_inurba_marseille","lat":43.284538,"lon":5.358657,"is_reserved":false,"is_disabled":false,"rental_uris":{"android":"levelo://app?vid=6f3805da-607e-4644-a872-a570d4d7529e","ios":"levelo://app?vid=6f3805da-607e-4644-a872-a570d4d7529e"},"vehicle_type_id":"4","last_reported":1701979680,"current_range_meters":18400,"station_id":"ce4bhah2rcd13ifvqei0","pricing_plan_id":"free"},{"bike_id":"35e727f1-d0ed-42ac-ba34-f6061294dfff","system_id":"levelo_inurba_marseille","lat":43.294314,"lon":5.397498,"is_reserved":false,"is_disabled":false,"rental_uris":{"android":"levelo://app?vid=35e727f1-d0ed-42ac-ba34-f6061294dfff","ios":"levelo://app?vid=35e727f1-d0ed-42ac-ba34-f6061294dfff"},"vehicle_type_id":"4","last_reported":1701979680,"current_range_meters":30800,"station_id":"ce4bh3h2rcd13ifvqdo0","pricing_plan_id":"free"},{"bike_id":"c884ba4f-eb3b-4c6f-9a66-04d0b0c97449","system_id":"levelo_inurba_marseille","lat":43.285856,"lon":5.350771,"is_reserved":false,"is_disabled":false,"rental_uris":{"android":"levelo://app?vid=c884ba4f-eb3b-4c6f-9a66-04d0b0c97449","ios":"levelo://app?vid=c884ba4f-eb3b-4c6f-9a66-04d0b0c97449"},"vehicle_type_id":"4","last_reported":1701979680,"current_range_meters":30400,"station_id":"ce4bhch2rcd13ifvqeug","pricing_plan_id":"free"},{"bike_id":"26b1bda2-61f4-437b-9df9-5744148fdab0","system_id":"levelo_inurba_marseille","lat":43.28616,"lon":5.35095,"is_reserved":false,"is_disabled":false,"rental_uris":{"android":"levelo://app?vid=26b1bda2-61f4-437b-9df9-5744148fdab0","ios":"levelo://app?vid=26b1bda2-61f4-437b-9df9-5744148fdab0"},"vehicle_type_id":"4","last_reported":1701979680,"current_range_meters":30800,"station_id":"ce4bhch2rcd13ifvqeug","pricing_plan_id":"free"},{"bike_id":"15169293-4511-4f9b-bd76-b3e5d467311c","system_id":"levelo_inurba_marseille","lat":43.285848,"lon":5.350787,"is_reserved":false,"is_disabled":false,"rental_uris":{"android":"levelo://app?vid=15169293-4511-4f9b-bd76-b3e5d467311c","ios":"levelo://app?vid=15169293-4511-4f9b-bd76-b3e5d467311c"},"vehicle_type_id":"4","last_reported":1701979680,"current_range_meters":28400,"station_id":"ce4bhch2rcd13ifvqeug","pricing_plan_id":"free"},{"bike_id":"b7035b36-5633-4a55-a1cf-7d1055fcd683","system_id":"levelo_inurba_marseille","lat":43.295713,"lon":5.399639,"is_reserved":false,"is_disabled":false,"rental_uris":{"android":"levelo://app?vid=b7035b36-5633-4a55-a1cf-7d1055fcd683","ios":"levelo://app?vid=b7035b36-5633-4a55-a1cf-7d1055fcd683"},"vehicle_type_id":"4","last_reported":1701979680,"current_range_meters":6800,"station_id":"ce4bh312rcd13ifvqdj0","pricing_plan_id":"free"},{"bike_id":"4db0597f-cdbc-4b1c-8a4e-b6c3b464c764","system_id":"levelo_inurba_marseille","lat":43.295713,"lon":5.399639,"is_reserved":false,"is_disabled":false,"rental_uris":{"android":"levelo://app?vid=4db0597f-cdbc-4b1c-8a4e-b6c3b464c764","ios":"levelo://app?vid=4db0597f-cdbc-4b1c-8a4e-b6c3b464c764"},"vehicle_type_id":"4","last_reported":1701979680,"current_range_meters":16400,"station_id":"ce4bh312rcd13ifvqdj0","pricing_plan_id":"free"},{"bike_id":"b77d28e4-5c0e-4a7f-b184-8b5c352d6957","system_id":"levelo_inurba_marseille","lat":43.319179,"lon":5.407725,"is_reserved":false,"is_disabled":false,"rental_uris":{"android":"levelo://app?vid=b77d28e4-5c0e-4a7f-b184-8b5c352d6957","ios":"levelo://app?vid=b77d28e4-5c0e-4a7f-b184-8b5c352d6957"},"vehicle_type_id":"4","last_reported":1701979680,"current_range_meters":12800,"station_id":"ce4bhq12rcd13ifvqhig","pricing_plan_id":"free"},{"bike_id":"06070a5a-4b04-4262-80e6-ef3153c54cac","system_id":"levelo_inurba_marseille","lat":43.319179,"lon":5.407725,"is_reserved":false,"is_disabled":false,"rental_uris":{"android":"levelo://app?vid=06070a5a-4b04-4262-80e6-ef3153c54cac","ios":"levelo://app?vid=06070a5a-4b04-4262-80e6-ef3153c54cac"},"vehicle_type_id":"4","last_reported":1701979680,"current_range_meters":17200,"station_id":"ce4bhq12rcd13ifvqhig","pricing_plan_id":"free"},{"bike_id":"56ac9cc9-bb61-47d5-bb32-c23299a9fd93","system_id":"levelo_inurba_marseille","lat":43.322556,"lon":5.40697,"is_reserved":false,"is_disabled":false,"rental_uris":{"android":"levelo://app?vid=56ac9cc9-bb61-47d5-bb32-c23299a9fd93","ios":"levelo://app?vid=56ac9cc9-bb61-47d5-bb32-c23299a9fd93"},"vehicle_type_id":"4","last_reported":1701979680,"current_range_meters":26800,"station_id":"","pricing_plan_id":"free"},{"bike_id":"a72915e6-3a85-49d1-bc22-0ecfd6304769","system_id":"levelo_inurba_marseille","lat":43.284219,"lon":5.3497,"is_reserved":false,"is_disabled":false,"rental_uris":{"android":"levelo://app?vid=a72915e6-3a85-49d1-bc22-0ecfd6304769","ios":"levelo://app?vid=a72915e6-3a85-49d1-bc22-0ecfd6304769"},"vehicle_type_id":"4","last_reported":1701979680,"current_range_meters":26800,"station_id":"ce4bhbh2rcd13ifvqepg","pricing_plan_id":"free"},{"bike_id":"f54f645a-96de-4b34-8f9b-c335ba7e0fd5","system_id":"levelo_inurba_marseille","lat":43.292724,"lon":5.401131,"is_reserved":false,"is_disabled":false,"rental_uris":{"android":"levelo://app?vid=f54f645a-96de-4b34-8f9b-c335ba7e0fd5","ios":"levelo://app?vid=f54f645a-96de-4b34-8f9b-c335ba7e0fd5"},"vehicle_type_id":"4","last_reported":1701979680,"current_range_meters":8800,"station_id":"ce4bh312rcd13ifvqdk0","pricing_plan_id":"free"},{"bike_id":"dff78d48-7689-4242-aaf9-5b7f8581676f","system_id":"levelo_inurba_marseille","lat":43.282744,"lon":5.350533,"is_reserved":false,"is_disabled":false,"rental_uris":{"android":"levelo://app?vid=dff78d48-7689-4242-aaf9-5b7f8581676f","ios":"levelo://app?vid=dff78d48-7689-4242-aaf9-5b7f8581676f"},"vehicle_type_id":"4","last_reported":1701979680,"current_range_meters":10800,"station_id":"ce4bhbp2rcd13ifvqerg","pricing_plan_id":"free"},{"bike_id":"5a069719-4c70-4906-82f5-8cf558b67fd3","system_id":"levelo_inurba_marseille","lat":43.28039,"lon":5.369297,"is_reserved":false,"is_disabled":false,"rental_uris":{"android":"levelo://app?vid=5a069719-4c70-4906-82f5-8cf558b67fd3","ios":"levelo://app?vid=5a069719-4c70-4906-82f5-8cf558b67fd3"},"vehicle_type_id":"4","last_reported":1701979680,"current_range_meters":21600,"station_id":"ce4bha12rcd13ifvqef0","pricing_plan_id":"free"},{"bike_id":"b6d7f8e9-a14d-4ca8-a33d-ad36a81b4bc6","system_id":"levelo_inurba_marseille","lat":43.28039,"lon":5.369297,"is_reserved":false,"is_disabled":false,"rental_uris":{"android":"levelo://app?vid=b6d7f8e9-a14d-4ca8-a33d-ad36a81b4bc6","ios":"levelo://app?vid=b6d7f8e9-a14d-4ca8-a33d-ad36a81b4bc6"},"vehicle_type_id":"4","last_reported":1701979680,"current_range_meters":20800,"station_id":"ce4bha12rcd13ifvqef0","pricing_plan_id":"free"},{"bike_id":"eb8cbc53-a540-4691-8c3b-0681c41b0d15","system_id":"levelo_inurba_marseille","lat":43.28039,"lon":5.369297,"is_reserved":false,"is_disabled":false,"rental_uris":{"android":"levelo://app?vid=eb8cbc53-a540-4691-8c3b-0681c41b0d15","ios":"levelo://app?vid=eb8cbc53-a540-4691-8c3b-0681c41b0d15"},"vehicle_type_id":"4","last_reported":1701979680,"current_range_meters":32000,"station_id":"ce4bha12rcd13ifvqef0","pricing_plan_id":"free"},{"bike_id":"43766193-4434-4423-a292-2b96b38001ad","system_id":"levelo_inurba_marseille","lat":43.290412,"lon":5.399633,"is_reserved":false,"is_disabled":false,"rental_uris":{"android":"levelo://app?vid=43766193-4434-4423-a292-2b96b38001ad","ios":"levelo://app?vid=43766193-4434-4423-a292-2b96b38001ad"},"vehicle_type_id":"4","last_reported":1701979680,"current_range_meters":5600,"station_id":"ce4bh392rcd13ifvqdm0","pricing_plan_id":"free"},{"bike_id":"72af730e-be32-4abe-b4be-5c9b83dd38cf","system_id":"levelo_inurba_marseille","lat":43.281044,"lon":5.378308,"is_reserved":false,"is_disabled":false,"rental_uris":{"android":"levelo://app?vid=72af730e-be32-4abe-b4be-5c9b83dd38cf","ios":"levelo://app?vid=72af730e-be32-4abe-b4be-5c9b83dd38cf"},"vehicle_type_id":"4","last_reported":1701979680,"current_range_meters":23200,"station_id":"ce4bha12rcd13ifvqee0","pricing_plan_id":"free"},{"bike_id":"68bf0473-2937-406c-955b-5f92ae61d953","system_id":"levelo_inurba_marseille","lat":43.281044,"lon":5.378308,"is_reserved":false,"is_disabled":false,"rental_uris":{"android":"levelo://app?vid=68bf0473-2937-406c-955b-5f92ae61d953","ios":"levelo://app?vid=68bf0473-2937-406c-955b-5f92ae61d953"},"vehicle_type_id":"4","last_reported":1701979680,"current_range_meters":5200,"station_id":"ce4bha12rcd13ifvqee0","pricing_plan_id":"free"},{"bike_id":"d5f463f1-42f7-4b4b-beab-188bb98bb28a","system_id":"levelo_inurba_marseille","lat":43.28101,"lon":5.378489,"is_reserved":false,"is_disabled":false,"rental_uris":{"android":"levelo://app?vid=d5f463f1-42f7-4b4b-beab-188bb98bb28a","ios":"levelo://app?vid=d5f463f1-42f7-4b4b-beab-188bb98bb28a"},"vehicle_type_id":"4","last_reported":1701979680,"current_range_meters":0,"station_id":"ce4bha12rcd13ifvqee0","pricing_plan_id":"free"},{"bike_id":"916a7912-188f-4842-a3fd-ab528a439fc9","system_id":"levelo_inurba_marseille","lat":43.284462,"lon":5.392121,"is_reserved":false,"is_disabled":false,"rental_uris":{"android":"levelo://app?vid=916a7912-188f-4842-a3fd-ab528a439fc9","ios":"levelo://app?vid=916a7912-188f-4842-a3fd-ab528a439fc9"},"vehicle_type_id":"4","last_reported":1701979680,"current_range_meters":24400,"station_id":"ce4bhoh2rcd13ifvqh5g","pricing_plan_id":"free"},{"bike_id":"43532f18-fd38-4041-884d-515c14b82ab9","system_id":"levelo_inurba_marseille","lat":43.284462,"lon":5.392121,"is_reserved":false,"is_disabled":false,"rental_uris":{"android":"levelo://app?vid=43532f18-fd38-4041-884d-515c14b82ab9","ios":"levelo://app?vid=43532f18-fd38-4041-884d-515c14b82ab9"},"vehicle_type_id":"4","last_reported":1701979680,"current_range_meters":2400,"station_id":"ce4bhoh2rcd13ifvqh5g","pricing_plan_id":"free"},{"bike_id":"5479ec44-6531-4cd2-a31f-eaf7df8a408e","system_id":"levelo_inurba_marseille","lat":43.28573,"lon":5.394992,"is_reserved":false,"is_disabled":false,"rental_uris":{"android":"levelo://app?vid=5479ec44-6531-4cd2-a31f-eaf7df8a408e","ios":"levelo://app?vid=5479ec44-6531-4cd2-a31f-eaf7df8a408e"},"vehicle_type_id":"4","last_reported":1701979680,"current_range_meters":22400,"station_id":"ce4bh292rcd13ifvqdg0","pricing_plan_id":"free"},{"bike_id":"070a260d-ecc1-46d1-afab-6774750cd900","system_id":"levelo_inurba_marseille","lat":43.326605,"lon":5.409903,"is_reserved":false,"is_disabled":false,"rental_uris":{"android":"levelo://app?vid=070a260d-ecc1-46d1-afab-6774750cd900","ios":"levelo://app?vid=070a260d-ecc1-46d1-afab-6774750cd900"},"vehicle_type_id":"4","last_reported":1701979680,"current_range_meters":11200,"station_id":"ce4bhpp2rcd13ifvqhgg","pricing_plan_id":"free"},{"bike_id":"ee749571-803d-4459-a453-c9dc13147324","system_id":"levelo_inurba_marseille","lat":43.304188,"lon":5.412904,"is_reserved":false,"is_disabled":false,"rental_uris":{"android":"levelo://app?vid=ee749571-803d-4459-a453-c9dc13147324","ios":"levelo://app?vid=ee749571-803d-4459-a453-c9dc13147324"},"vehicle_type_id":"4","last_reported":1701979680,"current_range_meters":23600,"station_id":"ce4bhop2rcd13ifvqh8g","pricing_plan_id":"free"},{"bike_id":"1062989e-5509-4131-add8-21721d8275d9","system_id":"levelo_inurba_marseille","lat":43.304188,"lon":5.412904,"is_reserved":false,"is_disabled":false,"rental_uris":{"android":"levelo://app?vid=1062989e-5509-4131-add8-21721d8275d9","ios":"levelo://app?vid=1062989e-5509-4131-add8-21721d8275d9"},"vehicle_type_id":"4","last_reported":1701979680,"current_range_meters":29200,"station_id":"ce4bhop2rcd13ifvqh8g","pricing_plan_id":"free"},{"bike_id":"bf9c0286-54ca-458d-a58a-9d0d9c0353fb","system_id":"levelo_inurba_marseille","lat":43.279087,"lon":5.380114,"is_reserved":false,"is_disabled":false,"rental_uris":{"android":"levelo://app?vid=bf9c0286-54ca-458d-a58a-9d0d9c0353fb","ios":"levelo://app?vid=bf9c0286-54ca-458d-a58a-9d0d9c0353fb"},"vehicle_type_id":"4","last_reported":1701979680,"current_range_meters":30000,"station_id":"ce4bhf92rcd13ifvqf50","pricing_plan_id":"free"},{"bike_id":"0f6d01f5-3543-4832-88df-8db7390ca67a","system_id":"levelo_inurba_marseille","lat":43.279087,"lon":5.380114,"is_reserved":false,"is_disabled":false,"rental_uris":{"android":"levelo://app?vid=0f6d01f5-3543-4832-88df-8db7390ca67a","ios":"levelo://app?vid=0f6d01f5-3543-4832-88df-8db7390ca67a"},"vehicle_type_id":"4","last_reported":1701979680,"current_range_meters":5600,"station_id":"ce4bhf92rcd13ifvqf50","pricing_plan_id":"free"},{"bike_id":"26eebe02-1a75-4d86-ba42-d05341fb02a4","system_id":"levelo_inurba_marseille","lat":43.292571,"lon":5.409107,"is_reserved":false,"is_disabled":false,"rental_uris":{"android":"levelo://app?vid=26eebe02-1a75-4d86-ba42-d05341fb02a4","ios":"levelo://app?vid=26eebe02-1a75-4d86-ba42-d05341fb02a4"},"vehicle_type_id":"4","last_reported":1701979680,"current_range_meters":15200,"station_id":"ce4bh192rcd13ifvqdc0","pricing_plan_id":"free"},{"bike_id":"388efbac-c15b-41fd-968c-14d3e5b23864","system_id":"levelo_inurba_marseille","lat":43.292569,"lon":5.409107,"is_reserved":false,"is_disabled":false,"rental_uris":{"android":"levelo://app?vid=388efbac-c15b-41fd-968c-14d3e5b23864","ios":"levelo://app?vid=388efbac-c15b-41fd-968c-14d3e5b23864"},"vehicle_type_id":"4","last_reported":1701979680,"current_range_meters":6000,"station_id":"ce4bh192rcd13ifvqdc0","pricing_plan_id":"free"},{"bike_id":"37df529e-29cb-48e9-b118-d75b2ba32fa5","system_id":"levelo_inurba_marseille","lat":43.280784,"lon":5.396622,"is_reserved":false,"is_disabled":false,"rental_uris":{"android":"levelo://app?vid=37df529e-29cb-48e9-b118-d75b2ba32fa5","ios":"levelo://app?vid=37df529e-29cb-48e9-b118-d75b2ba32fa5"},"vehicle_type_id":"4","last_reported":1701979680,"current_range_meters":22800,"station_id":"ce4bho12rcd13ifvqh2g","pricing_plan_id":"free"},{"bike_id":"6001a8a3-1715-4d67-ae24-1286ec7f5762","system_id":"levelo_inurba_marseille","lat":43.303837,"lon":5.418724,"is_reserved":false,"is_disabled":false,"rental_uris":{"android":"levelo://app?vid=6001a8a3-1715-4d67-ae24-1286ec7f5762","ios":"levelo://app?vid=6001a8a3-1715-4d67-ae24-1286ec7f5762"},"vehicle_type_id":"4","last_reported":1701979680,"current_range_meters":16400,"station_id":"ce4bhop2rcd13ifvqh7g","pricing_plan_id":"free"},{"bike_id":"13664840-ed25-474a-95e6-1d3b4e9d48f2","system_id":"levelo_inurba_marseille","lat":43.278401,"lon":5.392152,"is_reserved":false,"is_disabled":false,"rental_uris":{"android":"levelo://app?vid=13664840-ed25-474a-95e6-1d3b4e9d48f2","ios":"levelo://app?vid=13664840-ed25-474a-95e6-1d3b4e9d48f2"},"vehicle_type_id":"4","last_reported":1701979680,"current_range_meters":18800,"station_id":"ce4bhjp2rcd13ifvqga0","pricing_plan_id":"free"},{"bike_id":"da8d6ff8-e1f0-4f21-894c-b0d31a40f237","system_id":"levelo_inurba_marseille","lat":43.278399,"lon":5.392139,"is_reserved":false,"is_disabled":false,"rental_uris":{"android":"levelo://app?vid=da8d6ff8-e1f0-4f21-894c-b0d31a40f237","ios":"levelo://app?vid=da8d6ff8-e1f0-4f21-894c-b0d31a40f237"},"vehicle_type_id":"4","last_reported":1701979680,"current_range_meters":22000,"station_id":"ce4bhjp2rcd13ifvqga0","pricing_plan_id":"free"},{"bike_id":"78203767-4ee8-46d3-9e05-6553dc63fc98","system_id":"levelo_inurba_marseille","lat":43.278399,"lon":5.392139,"is_reserved":false,"is_disabled":false,"rental_uris":{"android":"levelo://app?vid=78203767-4ee8-46d3-9e05-6553dc63fc98","ios":"levelo://app?vid=78203767-4ee8-46d3-9e05-6553dc63fc98"},"vehicle_type_id":"4","last_reported":1701979680,"current_range_meters":3200,"station_id":"ce4bhjp2rcd13ifvqga0","pricing_plan_id":"free"},{"bike_id":"9667e010-49a2-4303-8054-6ba9f8dcfdcb","system_id":"levelo_inurba_marseille","lat":43.275625,"lon":5.384392,"is_reserved":false,"is_disabled":false,"rental_uris":{"android":"levelo://app?vid=9667e010-49a2-4303-8054-6ba9f8dcfdcb","ios":"levelo://app?vid=9667e010-49a2-4303-8054-6ba9f8dcfdcb"},"vehicle_type_id":"4","last_reported":1701979680,"current_range_meters":21200,"station_id":"ce4bhh92rcd13ifvqfi0","pricing_plan_id":"free"},{"bike_id":"c1cacff4-e519-4644-b807-629909573477","system_id":"levelo_inurba_marseille","lat":43.278399,"lon":5.392139,"is_reserved":false,"is_disabled":false,"rental_uris":{"android":"levelo://app?vid=c1cacff4-e519-4644-b807-629909573477","ios":"levelo://app?vid=c1cacff4-e519-4644-b807-629909573477"},"vehicle_type_id":"4","last_reported":1701979680,"current_range_meters":3600,"station_id":"ce4bhjp2rcd13ifvqga0","pricing_plan_id":"free"},{"bike_id":"1d8b4536-ae5e-40ac-b70c-0cb9fc062294","system_id":"levelo_inurba_marseille","lat":43.278401,"lon":5.392152,"is_reserved":false,"is_disabled":false,"rental_uris":{"android":"levelo://app?vid=1d8b4536-ae5e-40ac-b70c-0cb9fc062294","ios":"levelo://app?vid=1d8b4536-ae5e-40ac-b70c-0cb9fc062294"},"vehicle_type_id":"4","last_reported":1701979680,"current_range_meters":26000,"station_id":"ce4bhjp2rcd13ifvqga0","pricing_plan_id":"free"},{"bike_id":"b1b7fd9e-6e9e-4d94-9157-a5ade84b3380","system_id":"levelo_inurba_marseille","lat":43.278401,"lon":5.392152,"is_reserved":false,"is_disabled":false,"rental_uris":{"android":"levelo://app?vid=b1b7fd9e-6e9e-4d94-9157-a5ade84b3380","ios":"levelo://app?vid=b1b7fd9e-6e9e-4d94-9157-a5ade84b3380"},"vehicle_type_id":"4","last_reported":1701979680,"current_range_meters":4400,"station_id":"ce4bhjp2rcd13ifvqga0","pricing_plan_id":"free"},{"bike_id":"3a14b7e9-9e04-4b0e-95bf-f1515833e55d","system_id":"levelo_inurba_marseille","lat":43.275625,"lon":5.384392,"is_reserved":false,"is_disabled":false,"rental_uris":{"android":"levelo://app?vid=3a14b7e9-9e04-4b0e-95bf-f1515833e55d","ios":"levelo://app?vid=3a14b7e9-9e04-4b0e-95bf-f1515833e55d"},"vehicle_type_id":"4","last_reported":1701979680,"current_range_meters":10000,"station_id":"ce4bhh92rcd13ifvqfi0","pricing_plan_id":"free"},{"bike_id":"9af4cd29-1b7b-4931-b1a6-2ecb3a186984","system_id":"levelo_inurba_marseille","lat":43.275625,"lon":5.384392,"is_reserved":false,"is_disabled":false,"rental_uris":{"android":"levelo://app?vid=9af4cd29-1b7b-4931-b1a6-2ecb3a186984","ios":"levelo://app?vid=9af4cd29-1b7b-4931-b1a6-2ecb3a186984"},"vehicle_type_id":"4","last_reported":1701979680,"current_range_meters":23600,"station_id":"ce4bhh92rcd13ifvqfi0","pricing_plan_id":"free"},{"bike_id":"417255ce-2886-418f-840c-a8460c94906d","system_id":"levelo_inurba_marseille","lat":43.275625,"lon":5.384392,"is_reserved":false,"is_disabled":false,"rental_uris":{"android":"levelo://app?vid=417255ce-2886-418f-840c-a8460c94906d","ios":"levelo://app?vid=417255ce-2886-418f-840c-a8460c94906d"},"vehicle_type_id":"4","last_reported":1701979680,"current_range_meters":24400,"station_id":"ce4bhh92rcd13ifvqfi0","pricing_plan_id":"free"},{"bike_id":"8f3b1729-b8e3-43d0-b182-24b7245a4c94","system_id":"levelo_inurba_marseille","lat":43.276771,"lon":5.388799,"is_reserved":false,"is_disabled":false,"rental_uris":{"android":"levelo://app?vid=8f3b1729-b8e3-43d0-b182-24b7245a4c94","ios":"levelo://app?vid=8f3b1729-b8e3-43d0-b182-24b7245a4c94"},"vehicle_type_id":"4","last_reported":1701979680,"current_range_meters":3600,"station_id":"ce4bhi12rcd13ifvqfo0","pricing_plan_id":"free"},{"bike_id":"ac48d04c-c813-4dcb-8013-15216c7aa7de","system_id":"levelo_inurba_marseille","lat":43.340804,"lon":5.410219,"is_reserved":false,"is_disabled":false,"rental_uris":{"android":"levelo://app?vid=ac48d04c-c813-4dcb-8013-15216c7aa7de","ios":"levelo://app?vid=ac48d04c-c813-4dcb-8013-15216c7aa7de"},"vehicle_type_id":"4","last_reported":1701979680,"current_range_meters":18800,"station_id":"ce4bhqh2rcd13ifvqhlg","pricing_plan_id":"free"},{"bike_id":"e7e35992-3a3d-448e-9a9c-48870975c082","system_id":"levelo_inurba_marseille","lat":43.340804,"lon":5.410219,"is_reserved":false,"is_disabled":false,"rental_uris":{"android":"levelo://app?vid=e7e35992-3a3d-448e-9a9c-48870975c082","ios":"levelo://app?vid=e7e35992-3a3d-448e-9a9c-48870975c082"},"vehicle_type_id":"4","last_reported":1701979680,"current_range_meters":26800,"station_id":"ce4bhqh2rcd13ifvqhlg","pricing_plan_id":"free"},{"bike_id":"8a8bc4d6-0029-4fbf-9728-a692a0316877","system_id":"levelo_inurba_marseille","lat":43.27513,"lon":5.39499,"is_reserved":false,"is_disabled":false,"rental_uris":{"android":"levelo://app?vid=8a8bc4d6-0029-4fbf-9728-a692a0316877","ios":"levelo://app?vid=8a8bc4d6-0029-4fbf-9728-a692a0316877"},"vehicle_type_id":"4","last_reported":1701979680,"current_range_meters":2800,"station_id":"","pricing_plan_id":"free"},{"bike_id":"77e2df1b-d75a-48fe-a6ad-744dfbe91f1d","system_id":"levelo_inurba_marseille","lat":43.27214,"lon":5.3925,"is_reserved":false,"is_disabled":false,"rental_uris":{"android":"levelo://app?vid=77e2df1b-d75a-48fe-a6ad-744dfbe91f1d","ios":"levelo://app?vid=77e2df1b-d75a-48fe-a6ad-744dfbe91f1d"},"vehicle_type_id":"4","last_reported":1701979680,"current_range_meters":8000,"station_id":"","pricing_plan_id":"free"},{"bike_id":"7b84562b-f023-458e-9f63-22f52b26a915","system_id":"levelo_inurba_marseille","lat":43.278128,"lon":5.407195,"is_reserved":false,"is_disabled":false,"rental_uris":{"android":"levelo://app?vid=7b84562b-f023-458e-9f63-22f52b26a915","ios":"levelo://app?vid=7b84562b-f023-458e-9f63-22f52b26a915"},"vehicle_type_id":"4","last_reported":1701979680,"current_range_meters":29200,"station_id":"ce4bhnh2rcd13ifvqgtg","pricing_plan_id":"free"},{"bike_id":"2eb7b164-467e-49b0-a554-29c177f95c2a","system_id":"levelo_inurba_marseille","lat":43.2781,"lon":5.40708,"is_reserved":false,"is_disabled":false,"rental_uris":{"android":"levelo://app?vid=2eb7b164-467e-49b0-a554-29c177f95c2a","ios":"levelo://app?vid=2eb7b164-467e-49b0-a554-29c177f95c2a"},"vehicle_type_id":"4","last_reported":1701979680,"current_range_meters":16800,"station_id":"ce4bhnh2rcd13ifvqgtg","pricing_plan_id":"free"},{"bike_id":"8e3ed466-32b5-40fb-9e63-efc51e8e36c0","system_id":"levelo_inurba_marseille","lat":43.278128,"lon":5.407195,"is_reserved":false,"is_disabled":false,"rental_uris":{"android":"levelo://app?vid=8e3ed466-32b5-40fb-9e63-efc51e8e36c0","ios":"levelo://app?vid=8e3ed466-32b5-40fb-9e63-efc51e8e36c0"},"vehicle_type_id":"4","last_reported":1701979680,"current_range_meters":19200,"station_id":"ce4bhnh2rcd13ifvqgtg","pricing_plan_id":"free"},{"bike_id":"7c98996b-84bf-4cb7-a399-61f0c30c115d","system_id":"levelo_inurba_marseille","lat":43.279393,"lon":5.410293,"is_reserved":false,"is_disabled":false,"rental_uris":{"android":"levelo://app?vid=7c98996b-84bf-4cb7-a399-61f0c30c115d","ios":"levelo://app?vid=7c98996b-84bf-4cb7-a399-61f0c30c115d"},"vehicle_type_id":"4","last_reported":1701979680,"current_range_meters":16800,"station_id":"ce4bhnp2rcd13ifvqh0g","pricing_plan_id":"free"},{"bike_id":"56e1faa4-f404-40c0-8c46-fdaefc68de0f","system_id":"levelo_inurba_marseille","lat":43.279465,"lon":5.410561,"is_reserved":false,"is_disabled":false,"rental_uris":{"android":"levelo://app?vid=56e1faa4-f404-40c0-8c46-fdaefc68de0f","ios":"levelo://app?vid=56e1faa4-f404-40c0-8c46-fdaefc68de0f"},"vehicle_type_id":"4","last_reported":1701979680,"current_range_meters":20800,"station_id":"ce4bhnp2rcd13ifvqh0g","pricing_plan_id":"free"},{"bike_id":"dffd642e-6acf-43e9-84fd-33fa89f52c00","system_id":"levelo_inurba_marseille","lat":43.27906,"lon":5.4122,"is_reserved":false,"is_disabled":false,"rental_uris":{"android":"levelo://app?vid=dffd642e-6acf-43e9-84fd-33fa89f52c00","ios":"levelo://app?vid=dffd642e-6acf-43e9-84fd-33fa89f52c00"},"vehicle_type_id":"4","last_reported":1701979680,"current_range_meters":14000,"station_id":"","pricing_plan_id":"free"},{"bike_id":"c3e1a85a-f0ec-4402-aae7-a79f7120b679","system_id":"levelo_inurba_marseille","lat":43.26681,"lon":5.382694,"is_reserved":false,"is_disabled":false,"rental_uris":{"android":"levelo://app?vid=c3e1a85a-f0ec-4402-aae7-a79f7120b679","ios":"levelo://app?vid=c3e1a85a-f0ec-4402-aae7-a79f7120b679"},"vehicle_type_id":"4","last_reported":1701979680,"current_range_meters":26400,"station_id":"ce4bhg92rcd13ifvqf90","pricing_plan_id":"free"},{"bike_id":"6195d0d2-9c21-43fb-8f34-0e956b1e4d59","system_id":"levelo_inurba_marseille","lat":43.26681,"lon":5.382694,"is_reserved":false,"is_disabled":false,"rental_uris":{"android":"levelo://app?vid=6195d0d2-9c21-43fb-8f34-0e956b1e4d59","ios":"levelo://app?vid=6195d0d2-9c21-43fb-8f34-0e956b1e4d59"},"vehicle_type_id":"4","last_reported":1701979680,"current_range_meters":10400,"station_id":"ce4bhg92rcd13ifvqf90","pricing_plan_id":"free"},{"bike_id":"cd266389-c915-413f-ae44-18c519dba30a","system_id":"levelo_inurba_marseille","lat":43.26557,"lon":5.37284,"is_reserved":false,"is_disabled":false,"rental_uris":{"android":"levelo://app?vid=cd266389-c915-413f-ae44-18c519dba30a","ios":"levelo://app?vid=cd266389-c915-413f-ae44-18c519dba30a"},"vehicle_type_id":"4","last_reported":1701979680,"current_range_meters":4000,"station_id":"ce4bhg12rcd13ifvqf70","pricing_plan_id":"free"},{"bike_id":"c95aa9ae-88ee-4969-8ee4-6838d7fae15a","system_id":"levelo_inurba_marseille","lat":43.26681,"lon":5.382694,"is_reserved":false,"is_disabled":false,"rental_uris":{"android":"levelo://app?vid=c95aa9ae-88ee-4969-8ee4-6838d7fae15a","ios":"levelo://app?vid=c95aa9ae-88ee-4969-8ee4-6838d7fae15a"},"vehicle_type_id":"4","last_reported":1701979680,"current_range_meters":21600,"station_id":"ce4bhg92rcd13ifvqf90","pricing_plan_id":"free"},{"bike_id":"cd1651d1-9afd-4f87-ad0b-92c6ac6b10f5","system_id":"levelo_inurba_marseille","lat":43.279881,"lon":5.416579,"is_reserved":false,"is_disabled":false,"rental_uris":{"android":"levelo://app?vid=cd1651d1-9afd-4f87-ad0b-92c6ac6b10f5","ios":"levelo://app?vid=cd1651d1-9afd-4f87-ad0b-92c6ac6b10f5"},"vehicle_type_id":"4","last_reported":1701979680,"current_range_meters":8800,"station_id":"ce4bho12rcd13ifvqh1g","pricing_plan_id":"free"},{"bike_id":"5c62f0fe-2a68-4f0e-8c5e-1c3be35b64ff","system_id":"levelo_inurba_marseille","lat":43.291754,"lon":5.427922,"is_reserved":false,"is_disabled":false,"rental_uris":{"android":"levelo://app?vid=5c62f0fe-2a68-4f0e-8c5e-1c3be35b64ff","ios":"levelo://app?vid=5c62f0fe-2a68-4f0e-8c5e-1c3be35b64ff"},"vehicle_type_id":"4","last_reported":1701979680,"current_range_meters":14000,"station_id":"","pricing_plan_id":"free"},{"bike_id":"9c166d58-4f4c-4cc4-92b0-a73f43b65e2c","system_id":"levelo_inurba_marseille","lat":43.26939,"lon":5.40267,"is_reserved":false,"is_disabled":false,"rental_uris":{"android":"levelo://app?vid=9c166d58-4f4c-4cc4-92b0-a73f43b65e2c","ios":"levelo://app?vid=9c166d58-4f4c-4cc4-92b0-a73f43b65e2c"},"vehicle_type_id":"4","last_reported":1701979680,"current_range_meters":13200,"station_id":"cjm6bp8fraef2m0cb0m0","pricing_plan_id":"free"},{"bike_id":"94a4ba24-bccf-4c87-ac17-c799eaea448b","system_id":"levelo_inurba_marseille","lat":43.261836,"lon":5.374398,"is_reserved":false,"is_disabled":false,"rental_uris":{"android":"levelo://app?vid=94a4ba24-bccf-4c87-ac17-c799eaea448b","ios":"levelo://app?vid=94a4ba24-bccf-4c87-ac17-c799eaea448b"},"vehicle_type_id":"4","last_reported":1701979680,"current_range_meters":22800,"station_id":"ce4bhgp2rcd13ifvqfc0","pricing_plan_id":"free"},{"bike_id":"348fb38f-6188-424d-b105-be89b04f1f0d","system_id":"levelo_inurba_marseille","lat":43.261782,"lon":5.374515,"is_reserved":false,"is_disabled":false,"rental_uris":{"android":"levelo://app?vid=348fb38f-6188-424d-b105-be89b04f1f0d","ios":"levelo://app?vid=348fb38f-6188-424d-b105-be89b04f1f0d"},"vehicle_type_id":"4","last_reported":1701979680,"current_range_meters":30000,"station_id":"ce4bhgp2rcd13ifvqfc0","pricing_plan_id":"free"},{"bike_id":"d2ec8962-9e85-4cdd-9ded-420338983c94","system_id":"levelo_inurba_marseille","lat":43.261782,"lon":5.374515,"is_reserved":false,"is_disabled":false,"rental_uris":{"android":"levelo://app?vid=d2ec8962-9e85-4cdd-9ded-420338983c94","ios":"levelo://app?vid=d2ec8962-9e85-4cdd-9ded-420338983c94"},"vehicle_type_id":"4","last_reported":1701979680,"current_range_meters":14800,"station_id":"ce4bhgp2rcd13ifvqfc0","pricing_plan_id":"free"},{"bike_id":"837003b0-2b49-4f38-9ab9-fca5b462f5a3","system_id":"levelo_inurba_marseille","lat":43.261811,"lon":5.374428,"is_reserved":false,"is_disabled":false,"rental_uris":{"android":"levelo://app?vid=837003b0-2b49-4f38-9ab9-fca5b462f5a3","ios":"levelo://app?vid=837003b0-2b49-4f38-9ab9-fca5b462f5a3"},"vehicle_type_id":"4","last_reported":1701979680,"current_range_meters":28800,"station_id":"ce4bhgp2rcd13ifvqfc0","pricing_plan_id":"free"},{"bike_id":"ed3d39e3-16d0-4193-b5f3-7d15fa62181e","system_id":"levelo_inurba_marseille","lat":43.262012,"lon":5.379307,"is_reserved":false,"is_disabled":false,"rental_uris":{"android":"levelo://app?vid=ed3d39e3-16d0-4193-b5f3-7d15fa62181e","ios":"levelo://app?vid=ed3d39e3-16d0-4193-b5f3-7d15fa62181e"},"vehicle_type_id":"4","last_reported":1701979680,"current_range_meters":27600,"station_id":"ce4bhjp2rcd13ifvqg90","pricing_plan_id":"free"},{"bike_id":"c1c633b1-949d-4123-8171-c197a14e353e","system_id":"levelo_inurba_marseille","lat":43.27174,"lon":5.40989,"is_reserved":false,"is_disabled":false,"rental_uris":{"android":"levelo://app?vid=c1c633b1-949d-4123-8171-c197a14e353e","ios":"levelo://app?vid=c1c633b1-949d-4123-8171-c197a14e353e"},"vehicle_type_id":"4","last_reported":1701979680,"current_range_meters":9200,"station_id":"ce4bhl12rcd13ifvqgf0","pricing_plan_id":"free"},{"bike_id":"50b57549-b3da-4393-86c8-d9ab04bd4183","system_id":"levelo_inurba_marseille","lat":43.26202,"lon":5.379299,"is_reserved":false,"is_disabled":false,"rental_uris":{"android":"levelo://app?vid=50b57549-b3da-4393-86c8-d9ab04bd4183","ios":"levelo://app?vid=50b57549-b3da-4393-86c8-d9ab04bd4183"},"vehicle_type_id":"4","last_reported":1701979680,"current_range_meters":10400,"station_id":"ce4bhjp2rcd13ifvqg90","pricing_plan_id":"free"},{"bike_id":"4f68f183-a711-4386-a731-e8ea8e2f115e","system_id":"levelo_inurba_marseille","lat":43.298768,"lon":5.43643,"is_reserved":false,"is_disabled":false,"rental_uris":{"android":"levelo://app?vid=4f68f183-a711-4386-a731-e8ea8e2f115e","ios":"levelo://app?vid=4f68f183-a711-4386-a731-e8ea8e2f115e"},"vehicle_type_id":"4","last_reported":1701979680,"current_range_meters":26800,"station_id":"ce4bhpp2rcd13ifvqhfg","pricing_plan_id":"free"},{"bike_id":"83e2018e-7127-4415-8bbf-2e347a9c6750","system_id":"levelo_inurba_marseille","lat":43.298932,"lon":5.436632,"is_reserved":false,"is_disabled":false,"rental_uris":{"android":"levelo://app?vid=83e2018e-7127-4415-8bbf-2e347a9c6750","ios":"levelo://app?vid=83e2018e-7127-4415-8bbf-2e347a9c6750"},"vehicle_type_id":"4","last_reported":1701979680,"current_range_meters":6800,"station_id":"ce4bhpp2rcd13ifvqhfg","pricing_plan_id":"free"},{"bike_id":"0a3af9fe-4495-4765-a364-07e789cdace4","system_id":"levelo_inurba_marseille","lat":43.298768,"lon":5.43643,"is_reserved":false,"is_disabled":false,"rental_uris":{"android":"levelo://app?vid=0a3af9fe-4495-4765-a364-07e789cdace4","ios":"levelo://app?vid=0a3af9fe-4495-4765-a364-07e789cdace4"},"vehicle_type_id":"4","last_reported":1701979680,"current_range_meters":29200,"station_id":"ce4bhpp2rcd13ifvqhfg","pricing_plan_id":"free"},{"bike_id":"ca4db8a8-5b98-4b78-bc3d-514f38028a3d","system_id":"levelo_inurba_marseille","lat":43.298768,"lon":5.43643,"is_reserved":false,"is_disabled":false,"rental_uris":{"android":"levelo://app?vid=ca4db8a8-5b98-4b78-bc3d-514f38028a3d","ios":"levelo://app?vid=ca4db8a8-5b98-4b78-bc3d-514f38028a3d"},"vehicle_type_id":"4","last_reported":1701979680,"current_range_meters":30400,"station_id":"ce4bhpp2rcd13ifvqhfg","pricing_plan_id":"free"},{"bike_id":"b13d38ce-5f53-4fd8-a1c9-e1f1d0d516e7","system_id":"levelo_inurba_marseille","lat":43.281548,"lon":5.42643,"is_reserved":false,"is_disabled":false,"rental_uris":{"android":"levelo://app?vid=b13d38ce-5f53-4fd8-a1c9-e1f1d0d516e7","ios":"levelo://app?vid=b13d38ce-5f53-4fd8-a1c9-e1f1d0d516e7"},"vehicle_type_id":"4","last_reported":1701979680,"current_range_meters":29600,"station_id":"ce4bhnh2rcd13ifvqgug","pricing_plan_id":"free"},{"bike_id":"6c4a4127-c4de-4571-99d2-c4e93580765c","system_id":"levelo_inurba_marseille","lat":43.281548,"lon":5.42643,"is_reserved":false,"is_disabled":false,"rental_uris":{"android":"levelo://app?vid=6c4a4127-c4de-4571-99d2-c4e93580765c","ios":"levelo://app?vid=6c4a4127-c4de-4571-99d2-c4e93580765c"},"vehicle_type_id":"4","last_reported":1701979680,"current_range_meters":21600,"station_id":"ce4bhnh2rcd13ifvqgug","pricing_plan_id":"free"},{"bike_id":"ba7ddf79-ff50-4f5c-8fc6-82d165f47152","system_id":"levelo_inurba_marseille","lat":43.28156,"lon":5.42655,"is_reserved":false,"is_disabled":false,"rental_uris":{"android":"levelo://app?vid=ba7ddf79-ff50-4f5c-8fc6-82d165f47152","ios":"levelo://app?vid=ba7ddf79-ff50-4f5c-8fc6-82d165f47152"},"vehicle_type_id":"4","last_reported":1701979680,"current_range_meters":6400,"station_id":"ce4bhnh2rcd13ifvqgug","pricing_plan_id":"free"},{"bike_id":"09f678c9-cba3-47e0-8b9a-77e472d1189b","system_id":"levelo_inurba_marseille","lat":43.274998,"lon":5.424464,"is_reserved":false,"is_disabled":false,"rental_uris":{"android":"levelo://app?vid=09f678c9-cba3-47e0-8b9a-77e472d1189b","ios":"levelo://app?vid=09f678c9-cba3-47e0-8b9a-77e472d1189b"},"vehicle_type_id":"4","last_reported":1701979680,"current_range_meters":5600,"station_id":"ce4bhn92rcd13ifvqgrg","pricing_plan_id":"free"},{"bike_id":"6fd428c6-ac14-48f1-9358-28b552e88ed8","system_id":"levelo_inurba_marseille","lat":43.25578,"lon":5.38232,"is_reserved":false,"is_disabled":false,"rental_uris":{"android":"levelo://app?vid=6fd428c6-ac14-48f1-9358-28b552e88ed8","ios":"levelo://app?vid=6fd428c6-ac14-48f1-9358-28b552e88ed8"},"vehicle_type_id":"4","last_reported":1701979680,"current_range_meters":7200,"station_id":"ce4bhih2rcd13ifvqfs0","pricing_plan_id":"free"},{"bike_id":"1aa8b663-7302-4e11-9288-674d603dc997","system_id":"levelo_inurba_marseille","lat":43.258224,"lon":5.394369,"is_reserved":false,"is_disabled":false,"rental_uris":{"android":"levelo://app?vid=1aa8b663-7302-4e11-9288-674d603dc997","ios":"levelo://app?vid=1aa8b663-7302-4e11-9288-674d603dc997"},"vehicle_type_id":"4","last_reported":1701979680,"current_range_meters":0,"station_id":"ce4bhip2rcd13ifvqft0","pricing_plan_id":"free"},{"bike_id":"9e2f9286-5e34-44f1-a6f3-6024bb861c7a","system_id":"levelo_inurba_marseille","lat":43.258224,"lon":5.394369,"is_reserved":false,"is_disabled":false,"rental_uris":{"android":"levelo://app?vid=9e2f9286-5e34-44f1-a6f3-6024bb861c7a","ios":"levelo://app?vid=9e2f9286-5e34-44f1-a6f3-6024bb861c7a"},"vehicle_type_id":"4","last_reported":1701979680,"current_range_meters":2800,"station_id":"ce4bhip2rcd13ifvqft0","pricing_plan_id":"free"},{"bike_id":"988506ac-2c90-4ef1-890a-b9028b8dac3f","system_id":"levelo_inurba_marseille","lat":43.270721,"lon":5.422764,"is_reserved":false,"is_disabled":false,"rental_uris":{"android":"levelo://app?vid=988506ac-2c90-4ef1-890a-b9028b8dac3f","ios":"levelo://app?vid=988506ac-2c90-4ef1-890a-b9028b8dac3f"},"vehicle_type_id":"4","last_reported":1701979680,"current_range_meters":30400,"station_id":"ce4bhk92rcd13ifvqgb0","pricing_plan_id":"free"},{"bike_id":"82a58f87-3779-46df-a3d7-771c0822f310","system_id":"levelo_inurba_marseille","lat":43.258658,"lon":5.398935,"is_reserved":false,"is_disabled":false,"rental_uris":{"android":"levelo://app?vid=82a58f87-3779-46df-a3d7-771c0822f310","ios":"levelo://app?vid=82a58f87-3779-46df-a3d7-771c0822f310"},"vehicle_type_id":"4","last_reported":1701979680,"current_range_meters":12000,"station_id":"ce4bhl92rcd13ifvqghg","pricing_plan_id":"free"},{"bike_id":"08d9ac1e-a500-45d2-9e89-0b3c79f69a1c","system_id":"levelo_inurba_marseille","lat":43.258658,"lon":5.398935,"is_reserved":false,"is_disabled":false,"rental_uris":{"android":"levelo://app?vid=08d9ac1e-a500-45d2-9e89-0b3c79f69a1c","ios":"levelo://app?vid=08d9ac1e-a500-45d2-9e89-0b3c79f69a1c"},"vehicle_type_id":"4","last_reported":1701979680,"current_range_meters":15600,"station_id":"ce4bhl92rcd13ifvqghg","pricing_plan_id":"free"},{"bike_id":"73dc9d83-7366-4cba-a66f-edab57dc1251","system_id":"levelo_inurba_marseille","lat":43.25933,"lon":5.40916,"is_reserved":false,"is_disabled":false,"rental_uris":{"android":"levelo://app?vid=73dc9d83-7366-4cba-a66f-edab57dc1251","ios":"levelo://app?vid=73dc9d83-7366-4cba-a66f-edab57dc1251"},"vehicle_type_id":"4","last_reported":1701979680,"current_range_meters":800,"station_id":"ce4bhm92rcd13ifvqglg","pricing_plan_id":"free"},{"bike_id":"ea6f15d6-03ac-476d-a535-2e7d3b9eaeef","system_id":"levelo_inurba_marseille","lat":43.257079,"lon":5.411051,"is_reserved":false,"is_disabled":false,"rental_uris":{"android":"levelo://app?vid=ea6f15d6-03ac-476d-a535-2e7d3b9eaeef","ios":"levelo://app?vid=ea6f15d6-03ac-476d-a535-2e7d3b9eaeef"},"vehicle_type_id":"4","last_reported":1701979680,"current_range_meters":800,"station_id":"ce4bhkp2rcd13ifvqgd0","pricing_plan_id":"free"},{"bike_id":"5e28afdb-366a-4ee2-bf4c-72dd44305a45","system_id":"levelo_inurba_marseille","lat":43.257079,"lon":5.411051,"is_reserved":false,"is_disabled":false,"rental_uris":{"android":"levelo://app?vid=5e28afdb-366a-4ee2-bf4c-72dd44305a45","ios":"levelo://app?vid=5e28afdb-366a-4ee2-bf4c-72dd44305a45"},"vehicle_type_id":"4","last_reported":1701979680,"current_range_meters":6800,"station_id":"ce4bhkp2rcd13ifvqgd0","pricing_plan_id":"free"},{"bike_id":"430e7c59-7257-45c0-9a36-bfaa9a147960","system_id":"levelo_inurba_marseille","lat":43.2479,"lon":5.374457,"is_reserved":false,"is_disabled":false,"rental_uris":{"android":"levelo://app?vid=430e7c59-7257-45c0-9a36-bfaa9a147960","ios":"levelo://app?vid=430e7c59-7257-45c0-9a36-bfaa9a147960"},"vehicle_type_id":"4","last_reported":1701979680,"current_range_meters":23200,"station_id":"ce4bhgh2rcd13ifvqfb0","pricing_plan_id":"free"},{"bike_id":"ddb99db1-b7da-40e7-883b-6f7b3f6593f1","system_id":"levelo_inurba_marseille","lat":43.2479,"lon":5.374457,"is_reserved":false,"is_disabled":false,"rental_uris":{"android":"levelo://app?vid=ddb99db1-b7da-40e7-883b-6f7b3f6593f1","ios":"levelo://app?vid=ddb99db1-b7da-40e7-883b-6f7b3f6593f1"},"vehicle_type_id":"4","last_reported":1701979680,"current_range_meters":18400,"station_id":"ce4bhgh2rcd13ifvqfb0","pricing_plan_id":"free"},{"bike_id":"06cc70de-7146-4da6-b747-f32cca09a658","system_id":"levelo_inurba_marseille","lat":43.250966,"lon":5.395186,"is_reserved":false,"is_disabled":false,"rental_uris":{"android":"levelo://app?vid=06cc70de-7146-4da6-b747-f32cca09a658","ios":"levelo://app?vid=06cc70de-7146-4da6-b747-f32cca09a658"},"vehicle_type_id":"4","last_reported":1701979680,"current_range_meters":21200,"station_id":"ce4bhm12rcd13ifvqgkg","pricing_plan_id":"free"},{"bike_id":"968025e4-dff2-491f-839f-df959b81cd91","system_id":"levelo_inurba_marseille","lat":43.25102,"lon":5.403214,"is_reserved":false,"is_disabled":false,"rental_uris":{"android":"levelo://app?vid=968025e4-dff2-491f-839f-df959b81cd91","ios":"levelo://app?vid=968025e4-dff2-491f-839f-df959b81cd91"},"vehicle_type_id":"4","last_reported":1701979680,"current_range_meters":2000,"station_id":"ce4bhlh2rcd13ifvqgig","pricing_plan_id":"free"},{"bike_id":"e0a03d41-3dd3-434f-91e5-5951a4fbb31e","system_id":"levelo_inurba_marseille","lat":43.25102,"lon":5.403214,"is_reserved":false,"is_disabled":false,"rental_uris":{"android":"levelo://app?vid=e0a03d41-3dd3-434f-91e5-5951a4fbb31e","ios":"levelo://app?vid=e0a03d41-3dd3-434f-91e5-5951a4fbb31e"},"vehicle_type_id":"4","last_reported":1701979680,"current_range_meters":0,"station_id":"ce4bhlh2rcd13ifvqgig","pricing_plan_id":"free"},{"bike_id":"7fa28b9f-041a-4ac4-bd68-1adb36ed1ee2","system_id":"levelo_inurba_marseille","lat":43.243884,"lon":5.370737,"is_reserved":false,"is_disabled":false,"rental_uris":{"android":"levelo://app?vid=7fa28b9f-041a-4ac4-bd68-1adb36ed1ee2","ios":"levelo://app?vid=7fa28b9f-041a-4ac4-bd68-1adb36ed1ee2"},"vehicle_type_id":"4","last_reported":1701979680,"current_range_meters":30400,"station_id":"ce4bhhh2rcd13ifvqfk0","pricing_plan_id":"free"},{"bike_id":"a90a99ca-c9ac-4a74-90be-4885c839ceff","system_id":"levelo_inurba_marseille","lat":43.245581,"lon":5.395069,"is_reserved":false,"is_disabled":false,"rental_uris":{"android":"levelo://app?vid=a90a99ca-c9ac-4a74-90be-4885c839ceff","ios":"levelo://app?vid=a90a99ca-c9ac-4a74-90be-4885c839ceff"},"vehicle_type_id":"4","last_reported":1701979680,"current_range_meters":30000,"station_id":"ce4bhlp2rcd13ifvqgjg","pricing_plan_id":"free"},{"bike_id":"2f056394-a08e-4cc5-a179-5bd62c626144","system_id":"levelo_inurba_marseille","lat":43.24072,"lon":5.3776,"is_reserved":false,"is_disabled":false,"rental_uris":{"android":"levelo://app?vid=2f056394-a08e-4cc5-a179-5bd62c626144","ios":"levelo://app?vid=2f056394-a08e-4cc5-a179-5bd62c626144"},"vehicle_type_id":"4","last_reported":1701979680,"current_range_meters":11600,"station_id":"ce4bhnp2rcd13ifvqgvg","pricing_plan_id":"free"},{"bike_id":"8b59b500-ecc8-4962-8958-689a83bb1e67","system_id":"levelo_inurba_marseille","lat":43.240623,"lon":5.377642,"is_reserved":false,"is_disabled":false,"rental_uris":{"android":"levelo://app?vid=8b59b500-ecc8-4962-8958-689a83bb1e67","ios":"levelo://app?vid=8b59b500-ecc8-4962-8958-689a83bb1e67"},"vehicle_type_id":"4","last_reported":1701979680,"current_range_meters":29200,"station_id":"ce4bhnp2rcd13ifvqgvg","pricing_plan_id":"free"},{"bike_id":"ae091325-81a8-4ee7-8e2e-41c809378c75","system_id":"levelo_inurba_marseille","lat":43.240623,"lon":5.377642,"is_reserved":false,"is_disabled":false,"rental_uris":{"android":"levelo://app?vid=ae091325-81a8-4ee7-8e2e-41c809378c75","ios":"levelo://app?vid=ae091325-81a8-4ee7-8e2e-41c809378c75"},"vehicle_type_id":"4","last_reported":1701979680,"current_range_meters":11600,"station_id":"ce4bhnp2rcd13ifvqgvg","pricing_plan_id":"free"},{"bike_id":"7ece5855-fe49-46dd-ba3f-2d015925612a","system_id":"levelo_inurba_marseille","lat":43.239588,"lon":5.366238,"is_reserved":false,"is_disabled":false,"rental_uris":{"android":"levelo://app?vid=7ece5855-fe49-46dd-ba3f-2d015925612a","ios":"levelo://app?vid=7ece5855-fe49-46dd-ba3f-2d015925612a"},"vehicle_type_id":"4","last_reported":1701979680,"current_range_meters":30800,"station_id":"ce4bhi12rcd13ifvqfp0","pricing_plan_id":"free"},{"bike_id":"60ad9113-792e-49c9-8f27-886e1959d13e","system_id":"levelo_inurba_marseille","lat":43.241782,"lon":5.397261,"is_reserved":false,"is_disabled":false,"rental_uris":{"android":"levelo://app?vid=60ad9113-792e-49c9-8f27-886e1959d13e","ios":"levelo://app?vid=60ad9113-792e-49c9-8f27-886e1959d13e"},"vehicle_type_id":"4","last_reported":1701979680,"current_range_meters":6000,"station_id":"ce4bhn12rcd13ifvqgpg","pricing_plan_id":"free"},{"bike_id":"7fb0f437-2534-4c82-a071-a834d78df9bc","system_id":"levelo_inurba_marseille","lat":43.2319,"lon":5.35542,"is_reserved":false,"is_disabled":false,"rental_uris":{"android":"levelo://app?vid=7fb0f437-2534-4c82-a071-a834d78df9bc","ios":"levelo://app?vid=7fb0f437-2534-4c82-a071-a834d78df9bc"},"vehicle_type_id":"4","last_reported":1701979680,"current_range_meters":0,"station_id":"ce4bhu92rcd13ifvqi70","pricing_plan_id":"free"},{"bike_id":"db8ee247-5c27-465c-9667-2bac338a063a","system_id":"levelo_inurba_marseille","lat":43.231794,"lon":5.400052,"is_reserved":false,"is_disabled":false,"rental_uris":{"android":"levelo://app?vid=db8ee247-5c27-465c-9667-2bac338a063a","ios":"levelo://app?vid=db8ee247-5c27-465c-9667-2bac338a063a"},"vehicle_type_id":"4","last_reported":1701979680,"current_range_meters":20800,"station_id":"ce4bhn12rcd13ifvqgqg","pricing_plan_id":"free"},{"bike_id":"6c4620c0-0d4d-493f-9950-4fd3c4457696","system_id":"levelo_inurba_marseille","lat":43.231794,"lon":5.400052,"is_reserved":false,"is_disabled":false,"rental_uris":{"android":"levelo://app?vid=6c4620c0-0d4d-493f-9950-4fd3c4457696","ios":"levelo://app?vid=6c4620c0-0d4d-493f-9950-4fd3c4457696"},"vehicle_type_id":"4","last_reported":1701979680,"current_range_meters":32000,"station_id":"ce4bhn12rcd13ifvqgqg","pricing_plan_id":"free"},{"bike_id":"be845917-f52e-4a9f-83ff-909546a09332","system_id":"levelo_inurba_marseille","lat":43.231794,"lon":5.400052,"is_reserved":false,"is_disabled":false,"rental_uris":{"android":"levelo://app?vid=be845917-f52e-4a9f-83ff-909546a09332","ios":"levelo://app?vid=be845917-f52e-4a9f-83ff-909546a09332"},"vehicle_type_id":"4","last_reported":1701979680,"current_range_meters":32000,"station_id":"ce4bhn12rcd13ifvqgqg","pricing_plan_id":"free"},{"bike_id":"51bd0e75-103f-4c34-a127-bc9329dc93a4","system_id":"levelo_inurba_marseille","lat":43.231794,"lon":5.400052,"is_reserved":false,"is_disabled":false,"rental_uris":{"android":"levelo://app?vid=51bd0e75-103f-4c34-a127-bc9329dc93a4","ios":"levelo://app?vid=51bd0e75-103f-4c34-a127-bc9329dc93a4"},"vehicle_type_id":"4","last_reported":1701979680,"current_range_meters":15600,"station_id":"ce4bhn12rcd13ifvqgqg","pricing_plan_id":"free"}]}}