{"last_updated":1750259472,"ttl":60,"version":"2.2","data":{"bikes":[{"bike_id":"3da29fb8-fc97-44c6-b9ac-31dd456b2fd4","system_id":"levelo_inurba_marseille","lat":43.33771,"lon":5.37424,"is_reserved":false,"is_disabled":true,"rental_uris":{"android":"levelo://app?vid=3da29fb8-fc97-44c6-b9ac-31dd456b2fd4","ios":"levelo://app?vid=3da29fb8-fc97-44c6-b9ac-31dd456b2fd4"},"vehicle_type_id":"4","last_reported":1750259472,"current_range_meters":0,"station_id":"","pricing_plan_id":"cebpf4jnsgd1na2vs0mg"},{"bike_id":"01861ad8-a8d7-4be6-816e-651927c87584","system_id":"levelo_inurba_marseille","lat":43.33751,"lon":5.37456,"is_reserved":false,"is_disabled":true,"rental_uris":{"android":"levelo://app?vid=01861ad8-a8d7-4be6-816e-651927c87584","ios":"levelo://app?vid=01861ad8-a8d7-4be6-816e-651927c87584"},"vehicle_type_id":"4","last_reported":1750259472,"current_range_meters":0,"station_id":"","pricing_plan_id":"cebpf4jnsgd1na2vs0mg"},{"bike_id":"dbfce7a3-3423-4296-b193-a177dea644ac","system_id":"levelo_inurba_marseille","lat":43.27291,"lon":5.41635,"is_reserved":false,"is_disabled":true,"rental_uris":{"android":"levelo://app?vid=dbfce7a3-3423-4296-b193-a177dea644ac","ios":"levelo://app?vid=dbfce7a3-3423-4296-b193-a177dea644ac"},"vehicle_type_id":"4","last_reported":1750259472,"current_range_meters":0,"station_id":"","pricing_plan_id":"cebpf4jnsgd1na2vs0mg"},{"bike_id":"d2bd57c8-6b64-48db-ad24-5398eb3fd9d6","system_id":"levelo_inurba_marseille","lat":43.337444,"lon":5.374475,"is_reserved":false,"is_disabled":true,"rental_uris":{"android":"levelo://app?vid=d2bd57c8-6b64-48db-ad24-5398eb3fd9d6","ios":"levelo://app?vid=d2bd57c8-6b64-48db-ad24-5398eb3fd9d6"},"vehicle_type_id":"4","last_reported":1750259472,"current_range_meters":0,"station_id":"","pricing_plan_id":"cebpf4jnsgd1na2vs0mg"},{"bike_id":"62a493c7-4534-4419-ad43-0582de34a72a","system_id":"levelo_inurba_marseille","lat":43.21366,"lon":5.355183,"is_reserved":false,"is_disabled":true,"rental_uris":{"android":"levelo://app?vid=62a493c7-4534-4419-ad43-0582de34a72a","ios":"levelo://app?vid=62a493c7-4534-4419-ad43-0582de34a72a"},"vehicle_type_id":"4","last_reported":1750259472,"current_range_meters":0,"station_id":"","pricing_plan_id":"cebpf4jnsgd1na2vs0mg"},{"bike_id":"b9e37238-9abe-4b8b-b932-edaee33a7e59","system_id":"levelo_inurba_marseille","lat":43.27447,"lon":5.38975,"is_reserved":false,"is_disabled":true,"rental_uris":{"android":"levelo://app?vid=b9e37238-9abe-4b8b-b932-edaee33a7e59","ios":"levelo://app?vid=b9e37238-9abe-4b8b-b932-edaee33a7e59"},"vehicle_type_id":"4","last_reported":1750259472,"current_range_meters":0,"station_id":"","pricing_plan_id":"cebpf4jnsgd1na2vs0mg"},{"bike_id":"cba28a02-9f06-41dd-8645-e3bd321e07ba","system_id":"levelo_inurba_marseille","lat":43.28759,"lon":5.38707,"is_reserved":false,"is_disabled":true,"rental_uris":{"android":"levelo://app?vid=cba28a02-9f06-41dd-8645-e3bd321e07ba","ios":"levelo://app?vid=cba28a02-9f06-41dd-8645-e3bd321e07ba"},"vehicle_type_id":"4","last_reported":1750259472,"current_range_meters":0,"station_id":"","pricing_plan_id":"cebpf4jnsgd1na2vs0mg"},{"bike_id":"dba623ec-664c-4621-8832-8f9cf82566ea","system_id":"levelo_inurba_marseille","lat":43.2804,"lon":5.36844,"is_reserved":false,"is_disabled":true,"rental_uris":{"android":"levelo://app?vid=dba623ec-664c-4621-8832-8f9cf82566ea","ios":"levelo://app?vid=dba623ec-664c-4621-8832-8f9cf82566ea"},"vehicle_type_id":"4","last_reported":1750259472,"current_range_meters":0,"station_id":"","pricing_plan_id":"cebpf4jnsgd1na2vs0mg"},{"bike_id":"8ad9234e-001a-4549-8bba-9baf2ef98804","system_id":"levelo_inurba_marseille","lat":43.27421,"lon":5.3979,"is_reserved":false,"is_disabled":true,"rental_uris":{"android":"levelo://app?vid=8ad9234e-001a-4549-8bba-9baf2ef98804","ios":"levelo://app?vid=8ad9234e-001a-4549-8bba-9baf2ef98804"},"vehicle_type_id":"4","last_reported":1750259472,"current_range_meters":0,"station_id":"","pricing_plan_id":"cebpf4jnsgd1na2vs0mg"},{"bike_id":"93af304b-67b5-47b8-a3fd-e0775f7cde8c","system_id":"levelo_inurba_marseille","lat":43.215301,"lon":5.347406,"is_reserved":false,"is_disabled":true,"rental_uris":{"android":"levelo://app?vid=93af304b-67b5-47b8-a3fd-e0775f7cde8c","ios":"levelo://app?vid=93af304b-67b5-47b8-a3fd-e0775f7cde8c"},"vehicle_type_id":"4","last_reported":1750259472,"current_range_meters":0,"station_id":"","pricing_plan_id":"cebpf4jnsgd1na2vs0mg"},{"bike_id":"d6609b4f-333b-43c1-9ebe-8726f5e76e88","system_id":"levelo_inurba_marseille","lat":43.337444,"lon":5.374475,"is_reserved":false,"is_disabled":true,"rental_uris":{"android":"levelo://app?vid=d6609b4f-333b-43c1-9ebe-8726f5e76e88","ios":"levelo://app?vid=d6609b4f-333b-43c1-9ebe-8726f5e76e88"},"vehicle_type_id":"4","last_reported":1750259472,"current_range_meters":0,"station_id":"","pricing_plan_id":"cebpf4jnsgd1na2vs0mg"},{"bike_id":"57c83ce1-960e-466a-b6c5-d93bc130c53a","system_id":"levelo_inurba_marseille","lat":43.24901,"lon":5.38961,"is_reserved":false,"is_disabled":true,"rental_uris":{"android":"levelo://app?vid=57c83ce1-960e-466a-b6c5-d93bc130c53a","ios":"levelo://app?vid=57c83ce1-960e-466a-b6c5-d93bc130c53a"},"vehicle_type_id":"4","last_reported":1750259472,"current_range_meters":0,"station_id":"","pricing_plan_id":"cebpf4jnsgd1na2vs0mg"},{"bike_id":"570b7ad9-21cc-41cd-9a05-1bcaa60c8922","system_id":"levelo_inurba_marseille","lat":43.304405,"lon":5.388396,"is_reserved":false,"is_disabled":true,"rental_uris":{"android":"levelo://app?vid=570b7ad9-21cc-41cd-9a05-1bcaa60c8922","ios":"levelo://app?vid=570b7ad9-21cc-41cd-9a05-1bcaa60c8922"},"vehicle_type_id":"4","last_reported":1750259472,"current_range_meters":0,"station_id":"ce4bgk12rcd13ifvqbi0","pricing_plan_id":"cebpf4jnsgd1na2vs0mg"},{"bike_id":"af864303-fb2f-42c6-808c-d30b5223f328","system_id":"levelo_inurba_marseille","lat":43.29605,"lon":5.38105,"is_reserved":false,"is_disabled":true,"rental_uris":{"android":"levelo://app?vid=af864303-fb2f-42c6-808c-d30b5223f328","ios":"levelo://app?vid=af864303-fb2f-42c6-808c-d30b5223f328"},"vehicle_type_id":"4","last_reported":1750259472,"current_range_meters":0,"station_id":"ce4bgl12rcd13ifvqbo0","pricing_plan_id":"cebpf4jnsgd1na2vs0mg"},{"bike_id":"2b637b4c-bba8-46e1-88dc-2baf08cd8784","system_id":"levelo_inurba_marseille","lat":43.29605,"lon":5.38085,"is_reserved":false,"is_disabled":true,"rental_uris":{"android":"levelo://app?vid=2b637b4c-bba8-46e1-88dc-2baf08cd8784","ios":"levelo://app?vid=2b637b4c-bba8-46e1-88dc-2baf08cd8784"},"vehicle_type_id":"4","last_reported":1750259472,"current_range_meters":0,"station_id":"ce4bgl12rcd13ifvqbo0","pricing_plan_id":"cebpf4jnsgd1na2vs0mg"},{"bike_id":"d6eda669-c698-4352-a682-7ac7648b6b22","system_id":"levelo_inurba_marseille","lat":43.31074,"lon":5.38358,"is_reserved":false,"is_disabled":true,"rental_uris":{"android":"levelo://app?vid=d6eda669-c698-4352-a682-7ac7648b6b22","ios":"levelo://app?vid=d6eda669-c698-4352-a682-7ac7648b6b22"},"vehicle_type_id":"4","last_reported":1750259472,"current_range_meters":0,"station_id":"ce4bgv92rcd13ifvqcr0","pricing_plan_id":"cebpf4jnsgd1na2vs0mg"},{"bike_id":"778e9d29-8782-4b20-a34e-c201e476924a","system_id":"levelo_inurba_marseille","lat":43.29268,"lon":5.40913,"is_reserved":false,"is_disabled":true,"rental_uris":{"android":"levelo://app?vid=778e9d29-8782-4b20-a34e-c201e476924a","ios":"levelo://app?vid=778e9d29-8782-4b20-a34e-c201e476924a"},"vehicle_type_id":"4","last_reported":1750259472,"current_range_meters":0,"station_id":"ce4bh192rcd13ifvqdc0","pricing_plan_id":"cebpf4jnsgd1na2vs0mg"},{"bike_id":"1a3550c7-4262-45df-b851-25c4e5e70cc8","system_id":"levelo_inurba_marseille","lat":43.29248,"lon":5.38434,"is_reserved":false,"is_disabled":true,"rental_uris":{"android":"levelo://app?vid=1a3550c7-4262-45df-b851-25c4e5e70cc8","ios":"levelo://app?vid=1a3550c7-4262-45df-b851-25c4e5e70cc8"},"vehicle_type_id":"4","last_reported":1750259472,"current_range_meters":0,"station_id":"ce4bh692rcd13ifvqea0","pricing_plan_id":"cebpf4jnsgd1na2vs0mg"},{"bike_id":"dcb0d20a-9bca-41d8-9990-28cf0f4a0947","system_id":"levelo_inurba_marseille","lat":43.28485,"lon":5.38541,"is_reserved":false,"is_disabled":true,"rental_uris":{"android":"levelo://app?vid=dcb0d20a-9bca-41d8-9990-28cf0f4a0947","ios":"levelo://app?vid=dcb0d20a-9bca-41d8-9990-28cf0f4a0947"},"vehicle_type_id":"4","last_reported":1750259472,"current_range_meters":0,"station_id":"ce4bh8p2rcd13ifvqeb0","pricing_plan_id":"cebpf4jnsgd1na2vs0mg"},{"bike_id":"81b9f44b-0ce0-4726-9582-79fb5fb05321","system_id":"levelo_inurba_marseille","lat":43.29166,"lon":5.37155,"is_reserved":false,"is_disabled":true,"rental_uris":{"android":"levelo://app?vid=81b9f44b-0ce0-4726-9582-79fb5fb05321","ios":"levelo://app?vid=81b9f44b-0ce0-4726-9582-79fb5fb05321"},"vehicle_type_id":"4","last_reported":1750259472,"current_range_meters":0,"station_id":"ce4bha92rcd13ifvqeh0","pricing_plan_id":"cebpf4jnsgd1na2vs0mg"},{"bike_id":"69883f43-62ea-4723-b6ef-b5132c318844","system_id":"levelo_inurba_marseille","lat":43.28934,"lon":5.36623,"is_reserved":false,"is_disabled":true,"rental_uris":{"android":"levelo://app?vid=69883f43-62ea-4723-b6ef-b5132c318844","ios":"levelo://app?vid=69883f43-62ea-4723-b6ef-b5132c318844"},"vehicle_type_id":"4","last_reported":1750259472,"current_range_meters":0,"station_id":"ce4bhap2rcd13ifvqek0","pricing_plan_id":"cebpf4jnsgd1na2vs0mg"},{"bike_id":"9eacf647-6b48-4dc9-a3d8-384aa720d21a","system_id":"levelo_inurba_marseille","lat":43.28419,"lon":5.34999,"is_reserved":false,"is_disabled":false,"rental_uris":{"android":"levelo://app?vid=9eacf647-6b48-4dc9-a3d8-384aa720d21a","ios":"levelo://app?vid=9eacf647-6b48-4dc9-a3d8-384aa720d21a"},"vehicle_type_id":"4","last_reported":1750259472,"current_range_meters":0,"station_id":"ce4bhbh2rcd13ifvqepg","pricing_plan_id":"cebpf4jnsgd1na2vs0mg"},{"bike_id":"a5b3f295-0797-4858-a014-809abeca638a","system_id":"levelo_inurba_marseille","lat":43.29228,"lon":5.36058,"is_reserved":false,"is_disabled":true,"rental_uris":{"android":"levelo://app?vid=a5b3f295-0797-4858-a014-809abeca638a","ios":"levelo://app?vid=a5b3f295-0797-4858-a014-809abeca638a"},"vehicle_type_id":"4","last_reported":1750259472,"current_range_meters":0,"station_id":"ce4bhbh2rcd13ifvqeqg","pricing_plan_id":"cebpf4jnsgd1na2vs0mg"},{"bike_id":"5fc9177c-cad1-4cdd-99e3-14792400f372","system_id":"levelo_inurba_marseille","lat":43.32344,"lon":5.40615,"is_reserved":false,"is_disabled":true,"rental_uris":{"android":"levelo://app?vid=5fc9177c-cad1-4cdd-99e3-14792400f372","ios":"levelo://app?vid=5fc9177c-cad1-4cdd-99e3-14792400f372"},"vehicle_type_id":"4","last_reported":1750259472,"current_range_meters":0,"station_id":"ce4bhq92rcd13ifvqhjg","pricing_plan_id":"cebpf4jnsgd1na2vs0mg"},{"bike_id":"1a753e9e-dfe8-47b1-993b-e078fb974559","system_id":"levelo_inurba_marseille","lat":43.3087,"lon":5.37202,"is_reserved":false,"is_disabled":true,"rental_uris":{"android":"levelo://app?vid=1a753e9e-dfe8-47b1-993b-e078fb974559","ios":"levelo://app?vid=1a753e9e-dfe8-47b1-993b-e078fb974559"},"vehicle_type_id":"4","last_reported":1750259472,"current_range_meters":400,"station_id":"ce4bguh2rcd13ifvqckg","pricing_plan_id":"cebpf4jnsgd1na2vs0mg"},{"bike_id":"5146a0ab-0493-4da2-a280-0e1bd755b020","system_id":"levelo_inurba_marseille","lat":43.2963,"lon":5.40595,"is_reserved":false,"is_disabled":true,"rental_uris":{"android":"levelo://app?vid=5146a0ab-0493-4da2-a280-0e1bd755b020","ios":"levelo://app?vid=5146a0ab-0493-4da2-a280-0e1bd755b020"},"vehicle_type_id":"4","last_reported":1750259472,"current_range_meters":400,"station_id":"ce4bh0h2rcd13ifvqd60","pricing_plan_id":"cebpf4jnsgd1na2vs0mg"},{"bike_id":"b5345ec3-e1d5-48e9-9f60-26725b10e401","system_id":"levelo_inurba_marseille","lat":43.284119,"lon":5.349795,"is_reserved":false,"is_disabled":true,"rental_uris":{"android":"levelo://app?vid=b5345ec3-e1d5-48e9-9f60-26725b10e401","ios":"levelo://app?vid=b5345ec3-e1d5-48e9-9f60-26725b10e401"},"vehicle_type_id":"4","last_reported":1750259472,"current_range_meters":400,"station_id":"ce4bhbh2rcd13ifvqepg","pricing_plan_id":"cebpf4jnsgd1na2vs0mg"},{"bike_id":"92454a9a-5951-4490-b7c9-46a0418f9096","system_id":"levelo_inurba_marseille","lat":43.28267,"lon":5.35074,"is_reserved":false,"is_disabled":true,"rental_uris":{"android":"levelo://app?vid=92454a9a-5951-4490-b7c9-46a0418f9096","ios":"levelo://app?vid=92454a9a-5951-4490-b7c9-46a0418f9096"},"vehicle_type_id":"4","last_reported":1750259472,"current_range_meters":400,"station_id":"ce4bhbp2rcd13ifvqerg","pricing_plan_id":"cebpf4jnsgd1na2vs0mg"},{"bike_id":"763cf2b9-345c-48bb-83f6-c104ad8d9f74","system_id":"levelo_inurba_marseille","lat":43.25115,"lon":5.40326,"is_reserved":false,"is_disabled":true,"rental_uris":{"android":"levelo://app?vid=763cf2b9-345c-48bb-83f6-c104ad8d9f74","ios":"levelo://app?vid=763cf2b9-345c-48bb-83f6-c104ad8d9f74"},"vehicle_type_id":"4","last_reported":1750259472,"current_range_meters":400,"station_id":"ce4bhlh2rcd13ifvqgig","pricing_plan_id":"cebpf4jnsgd1na2vs0mg"},{"bike_id":"905ac880-7b89-4b44-a9ce-52de25f05c74","system_id":"levelo_inurba_marseille","lat":43.29606,"lon":5.37726,"is_reserved":false,"is_disabled":true,"rental_uris":{"android":"levelo://app?vid=905ac880-7b89-4b44-a9ce-52de25f05c74","ios":"levelo://app?vid=905ac880-7b89-4b44-a9ce-52de25f05c74"},"vehicle_type_id":"4","last_reported":1750259472,"current_range_meters":800,"station_id":"ce4bgi92rcd13ifvqb90","pricing_plan_id":"cebpf4jnsgd1na2vs0mg"},{"bike_id":"250f53d9-7c89-4a2f-abaf-a5ef225f4c43","system_id":"levelo_inurba_marseille","lat":43.30591,"lon":5.39349,"is_reserved":false,"is_disabled":true,"rental_uris":{"android":"levelo://app?vid=250f53d9-7c89-4a2f-abaf-a5ef225f4c43","ios":"levelo://app?vid=250f53d9-7c89-4a2f-abaf-a5ef225f4c43"},"vehicle_type_id":"4","last_reported":1750259472,"current_range_meters":800,"station_id":"ce4bh0p2rcd13ifvqd80","pricing_plan_id":"cebpf4jnsgd1na2vs0mg"},{"bike_id":"44a6308f-2cc5-47cc-8c7b-6573c2fbebab","system_id":"levelo_inurba_marseille","lat":43.29411,"lon":5.38609,"is_reserved":false,"is_disabled":true,"rental_uris":{"android":"levelo://app?vid=44a6308f-2cc5-47cc-8c7b-6573c2fbebab","ios":"levelo://app?vid=44a6308f-2cc5-47cc-8c7b-6573c2fbebab"},"vehicle_type_id":"4","last_reported":1750259472,"current_range_meters":800,"station_id":"ce4bh2h2rcd13ifvqdh0","pricing_plan_id":"cebpf4jnsgd1na2vs0mg"},{"bike_id":"8936c730-b164-407c-a277-bed4db69072e","system_id":"levelo_inurba_marseille","lat":43.28682,"lon":5.38664,"is_reserved":false,"is_disabled":true,"rental_uris":{"android":"levelo://app?vid=8936c730-b164-407c-a277-bed4db69072e","ios":"levelo://app?vid=8936c730-b164-407c-a277-bed4db69072e"},"vehicle_type_id":"4","last_reported":1750259472,"current_range_meters":800,"station_id":"ce4bh492rcd13ifvqdug","pricing_plan_id":"cebpf4jnsgd1na2vs0mg"},{"bike_id":"02c8fe53-d0ef-44be-933d-fe0f11585f68","system_id":"levelo_inurba_marseille","lat":43.28267,"lon":5.35066,"is_reserved":false,"is_disabled":true,"rental_uris":{"android":"levelo://app?vid=02c8fe53-d0ef-44be-933d-fe0f11585f68","ios":"levelo://app?vid=02c8fe53-d0ef-44be-933d-fe0f11585f68"},"vehicle_type_id":"4","last_reported":1750259472,"current_range_meters":800,"station_id":"ce4bhbp2rcd13ifvqerg","pricing_plan_id":"cebpf4jnsgd1na2vs0mg"},{"bike_id":"a13b521d-2da8-4cd8-859c-ad6b8cddaeed","system_id":"levelo_inurba_marseille","lat":43.25502,"lon":5.37648,"is_reserved":false,"is_disabled":true,"rental_uris":{"android":"levelo://app?vid=a13b521d-2da8-4cd8-859c-ad6b8cddaeed","ios":"levelo://app?vid=a13b521d-2da8-4cd8-859c-ad6b8cddaeed"},"vehicle_type_id":"4","last_reported":1750259472,"current_range_meters":800,"station_id":"ce4bhh12rcd13ifvqff0","pricing_plan_id":"cebpf4jnsgd1na2vs0mg"},{"bike_id":"d573cacf-f8a2-47d5-b18a-7866b12a83f5","system_id":"levelo_inurba_marseille","lat":43.27057,"lon":5.40259,"is_reserved":false,"is_disabled":true,"rental_uris":{"android":"levelo://app?vid=d573cacf-f8a2-47d5-b18a-7866b12a83f5","ios":"levelo://app?vid=d573cacf-f8a2-47d5-b18a-7866b12a83f5"},"vehicle_type_id":"4","last_reported":1750259472,"current_range_meters":800,"station_id":"ce4bhk92rcd13ifvqgc0","pricing_plan_id":"cebpf4jnsgd1na2vs0mg"},{"bike_id":"b6d27190-b949-4a3d-816f-d496cdfa6600","system_id":"levelo_inurba_marseille","lat":43.21199,"lon":5.35058,"is_reserved":false,"is_disabled":true,"rental_uris":{"android":"levelo://app?vid=b6d27190-b949-4a3d-816f-d496cdfa6600","ios":"levelo://app?vid=b6d27190-b949-4a3d-816f-d496cdfa6600"},"vehicle_type_id":"4","last_reported":1750259472,"current_range_meters":800,"station_id":"st_cvj6sg6p6f1abm77japg","pricing_plan_id":"cebpf4jnsgd1na2vs0mg"},{"bike_id":"4a0f1ced-d78d-46e4-a042-7a10531b1b90","system_id":"levelo_inurba_marseille","lat":43.2954,"lon":5.38528,"is_reserved":false,"is_disabled":true,"rental_uris":{"android":"levelo://app?vid=4a0f1ced-d78d-46e4-a042-7a10531b1b90","ios":"levelo://app?vid=4a0f1ced-d78d-46e4-a042-7a10531b1b90"},"vehicle_type_id":"4","last_reported":1750259472,"current_range_meters":1200,"station_id":"ce4bgih2rcd13ifvqba0","pricing_plan_id":"cebpf4jnsgd1na2vs0mg"},{"bike_id":"f4092d85-445f-4f10-8c87-cddb3c0c9958","system_id":"levelo_inurba_marseille","lat":43.31483,"lon":5.37307,"is_reserved":false,"is_disabled":true,"rental_uris":{"android":"levelo://app?vid=f4092d85-445f-4f10-8c87-cddb3c0c9958","ios":"levelo://app?vid=f4092d85-445f-4f10-8c87-cddb3c0c9958"},"vehicle_type_id":"4","last_reported":1750259472,"current_range_meters":1200,"station_id":"ce4bgt12rcd13ifvqcd0","pricing_plan_id":"cebpf4jnsgd1na2vs0mg"},{"bike_id":"b7c4ecb8-b56d-4e88-a832-0a6f7cbbd943","system_id":"levelo_inurba_marseille","lat":43.300873,"lon":5.39078,"is_reserved":false,"is_disabled":true,"rental_uris":{"android":"levelo://app?vid=b7c4ecb8-b56d-4e88-a832-0a6f7cbbd943","ios":"levelo://app?vid=b7c4ecb8-b56d-4e88-a832-0a6f7cbbd943"},"vehicle_type_id":"4","last_reported":1750259472,"current_range_meters":1200,"station_id":"ce4bh192rcd13ifvqdb0","pricing_plan_id":"cebpf4jnsgd1na2vs0mg"},{"bike_id":"ed8972d1-3691-4ee2-b12c-9e5f151f9119","system_id":"levelo_inurba_marseille","lat":43.295251,"lon":5.394011,"is_reserved":false,"is_disabled":true,"rental_uris":{"android":"levelo://app?vid=ed8972d1-3691-4ee2-b12c-9e5f151f9119","ios":"levelo://app?vid=ed8972d1-3691-4ee2-b12c-9e5f151f9119"},"vehicle_type_id":"4","last_reported":1750259472,"current_range_meters":1200,"station_id":"ce4bh292rcd13ifvqdf0","pricing_plan_id":"cebpf4jnsgd1na2vs0mg"},{"bike_id":"840a231f-293f-40fb-80b8-7df0c5ed9170","system_id":"levelo_inurba_marseille","lat":43.29867,"lon":5.38927,"is_reserved":false,"is_disabled":true,"rental_uris":{"android":"levelo://app?vid=840a231f-293f-40fb-80b8-7df0c5ed9170","ios":"levelo://app?vid=840a231f-293f-40fb-80b8-7df0c5ed9170"},"vehicle_type_id":"4","last_reported":1750259472,"current_range_meters":1200,"station_id":"ce4bh392rcd13ifvqdl0","pricing_plan_id":"cebpf4jnsgd1na2vs0mg"},{"bike_id":"24e94738-7895-4326-a071-c650d052f080","system_id":"levelo_inurba_marseille","lat":43.28483,"lon":5.38421,"is_reserved":false,"is_disabled":true,"rental_uris":{"android":"levelo://app?vid=24e94738-7895-4326-a071-c650d052f080","ios":"levelo://app?vid=24e94738-7895-4326-a071-c650d052f080"},"vehicle_type_id":"4","last_reported":1750259472,"current_range_meters":1200,"station_id":"ce4bh512rcd13ifvqe3g","pricing_plan_id":"cebpf4jnsgd1na2vs0mg"},{"bike_id":"2395248d-0fef-4e4f-ba8e-f8283c94ae53","system_id":"levelo_inurba_marseille","lat":43.312474,"lon":5.395048,"is_reserved":false,"is_disabled":true,"rental_uris":{"android":"levelo://app?vid=2395248d-0fef-4e4f-ba8e-f8283c94ae53","ios":"levelo://app?vid=2395248d-0fef-4e4f-ba8e-f8283c94ae53"},"vehicle_type_id":"4","last_reported":1750259472,"current_range_meters":1600,"station_id":"","pricing_plan_id":"cebpf4jnsgd1na2vs0mg"},{"bike_id":"be0f226f-7441-488d-badf-35122b3df455","system_id":"levelo_inurba_marseille","lat":43.28458,"lon":5.35884,"is_reserved":false,"is_disabled":true,"rental_uris":{"android":"levelo://app?vid=be0f226f-7441-488d-badf-35122b3df455","ios":"levelo://app?vid=be0f226f-7441-488d-badf-35122b3df455"},"vehicle_type_id":"4","last_reported":1750259472,"current_range_meters":1600,"station_id":"ce4bhah2rcd13ifvqei0","pricing_plan_id":"cebpf4jnsgd1na2vs0mg"},{"bike_id":"72e9f20f-9483-44e5-be74-956a537052fb","system_id":"levelo_inurba_marseille","lat":43.27916,"lon":5.39579,"is_reserved":false,"is_disabled":true,"rental_uris":{"android":"levelo://app?vid=72e9f20f-9483-44e5-be74-956a537052fb","ios":"levelo://app?vid=72e9f20f-9483-44e5-be74-956a537052fb"},"vehicle_type_id":"4","last_reported":1750259472,"current_range_meters":1600,"station_id":"ce4bhf92rcd13ifvqf40","pricing_plan_id":"cebpf4jnsgd1na2vs0mg"},{"bike_id":"47196f00-388f-4b3b-a4de-3dba126cd107","system_id":"levelo_inurba_marseille","lat":43.24375,"lon":5.41171,"is_reserved":false,"is_disabled":true,"rental_uris":{"android":"levelo://app?vid=47196f00-388f-4b3b-a4de-3dba126cd107","ios":"levelo://app?vid=47196f00-388f-4b3b-a4de-3dba126cd107"},"vehicle_type_id":"4","last_reported":1750259472,"current_range_meters":2000,"station_id":"","pricing_plan_id":"cebpf4jnsgd1na2vs0mg"},{"bike_id":"65286ca7-4d51-40e9-aff0-3476053d7312","system_id":"levelo_inurba_marseille","lat":43.28933,"lon":5.36643,"is_reserved":false,"is_disabled":true,"rental_uris":{"android":"levelo://app?vid=65286ca7-4d51-40e9-aff0-3476053d7312","ios":"levelo://app?vid=65286ca7-4d51-40e9-aff0-3476053d7312"},"vehicle_type_id":"4","last_reported":1750259472,"current_range_meters":2000,"station_id":"ce4bhap2rcd13ifvqek0","pricing_plan_id":"cebpf4jnsgd1na2vs0mg"},{"bike_id":"c5a59bf6-5565-456c-8b10-477433571570","system_id":"levelo_inurba_marseille","lat":43.28156,"lon":5.42638,"is_reserved":false,"is_disabled":true,"rental_uris":{"android":"levelo://app?vid=c5a59bf6-5565-456c-8b10-477433571570","ios":"levelo://app?vid=c5a59bf6-5565-456c-8b10-477433571570"},"vehicle_type_id":"4","last_reported":1750259472,"current_range_meters":2000,"station_id":"ce4bhnh2rcd13ifvqgug","pricing_plan_id":"cebpf4jnsgd1na2vs0mg"},{"bike_id":"ee14adfa-dd21-4c29-88ed-242c84440f16","system_id":"levelo_inurba_marseille","lat":43.30355,"lon":5.41881,"is_reserved":false,"is_disabled":true,"rental_uris":{"android":"levelo://app?vid=ee14adfa-dd21-4c29-88ed-242c84440f16","ios":"levelo://app?vid=ee14adfa-dd21-4c29-88ed-242c84440f16"},"vehicle_type_id":"4","last_reported":1750259472,"current_range_meters":2000,"station_id":"ce4bhop2rcd13ifvqh7g","pricing_plan_id":"cebpf4jnsgd1na2vs0mg"},{"bike_id":"a56ec072-cf2a-4ea0-91de-c6cb93825089","system_id":"levelo_inurba_marseille","lat":43.241883,"lon":5.366278,"is_reserved":false,"is_disabled":true,"rental_uris":{"android":"levelo://app?vid=a56ec072-cf2a-4ea0-91de-c6cb93825089","ios":"levelo://app?vid=a56ec072-cf2a-4ea0-91de-c6cb93825089"},"vehicle_type_id":"4","last_reported":1750259472,"current_range_meters":2000,"station_id":"cpo36qri1sfpv3e86is0","pricing_plan_id":"cebpf4jnsgd1na2vs0mg"},{"bike_id":"53aabf5a-753f-436d-9700-0663aea2b672","system_id":"levelo_inurba_marseille","lat":43.32337,"lon":5.40626,"is_reserved":false,"is_disabled":false,"rental_uris":{"android":"levelo://app?vid=53aabf5a-753f-436d-9700-0663aea2b672","ios":"levelo://app?vid=53aabf5a-753f-436d-9700-0663aea2b672"},"vehicle_type_id":"4","last_reported":1750259472,"current_range_meters":2800,"station_id":"ce4bhq92rcd13ifvqhjg","pricing_plan_id":"cebpf4jnsgd1na2vs0mg"},{"bike_id":"084f82a6-1eca-4985-a6bb-ea29e2a327b4","system_id":"levelo_inurba_marseille","lat":43.30941,"lon":5.40586,"is_reserved":false,"is_disabled":false,"rental_uris":{"android":"levelo://app?vid=084f82a6-1eca-4985-a6bb-ea29e2a327b4","ios":"levelo://app?vid=084f82a6-1eca-4985-a6bb-ea29e2a327b4"},"vehicle_type_id":"4","last_reported":1750259472,"current_range_meters":3600,"station_id":"","pricing_plan_id":"cebpf4jnsgd1na2vs0mg"},{"bike_id":"fe753a6d-0961-441e-b4a4-a4fa5974f5cc","system_id":"levelo_inurba_marseille","lat":43.21199,"lon":5.3506,"is_reserved":false,"is_disabled":false,"rental_uris":{"android":"levelo://app?vid=fe753a6d-0961-441e-b4a4-a4fa5974f5cc","ios":"levelo://app?vid=fe753a6d-0961-441e-b4a4-a4fa5974f5cc"},"vehicle_type_id":"4","last_reported":1750259472,"current_range_meters":3600,"station_id":"st_cvj6sg6p6f1abm77japg","pricing_plan_id":"cebpf4jnsgd1na2vs0mg"},{"bike_id":"66dbc151-066a-461f-a55f-dd041350aa6d","system_id":"levelo_inurba_marseille","lat":43.310211,"lon":5.390603,"is_reserved":false,"is_disabled":false,"rental_uris":{"android":"levelo://app?vid=66dbc151-066a-461f-a55f-dd041350aa6d","ios":"levelo://app?vid=66dbc151-066a-461f-a55f-dd041350aa6d"},"vehicle_type_id":"4","last_reported":1750259472,"current_range_meters":4000,"station_id":"ce4bhch2rcd13ifvqeug","pricing_plan_id":"cebpf4jnsgd1na2vs0mg"},{"bike_id":"6947b7ae-0614-4d7e-bb6d-6d3af0cbd6da","system_id":"levelo_inurba_marseille","lat":43.255758,"lon":5.382365,"is_reserved":false,"is_disabled":false,"rental_uris":{"android":"levelo://app?vid=6947b7ae-0614-4d7e-bb6d-6d3af0cbd6da","ios":"levelo://app?vid=6947b7ae-0614-4d7e-bb6d-6d3af0cbd6da"},"vehicle_type_id":"4","last_reported":1750259472,"current_range_meters":4000,"station_id":"ce4bhih2rcd13ifvqfs0","pricing_plan_id":"cebpf4jnsgd1na2vs0mg"},{"bike_id":"37e73977-d4e5-44b6-8cb6-ce18b3e865e6","system_id":"levelo_inurba_marseille","lat":43.32361,"lon":5.36747,"is_reserved":false,"is_disabled":false,"rental_uris":{"android":"levelo://app?vid=37e73977-d4e5-44b6-8cb6-ce18b3e865e6","ios":"levelo://app?vid=37e73977-d4e5-44b6-8cb6-ce18b3e865e6"},"vehicle_type_id":"4","last_reported":1750259472,"current_range_meters":4000,"station_id":"ce4bhsh2rcd13ifvqi2g","pricing_plan_id":"cebpf4jnsgd1na2vs0mg"},{"bike_id":"ac1c17be-32dc-4449-8610-ca5bfe2cd501","system_id":"levelo_inurba_marseille","lat":43.33769,"lon":5.37468,"is_reserved":false,"is_disabled":false,"rental_uris":{"android":"levelo://app?vid=ac1c17be-32dc-4449-8610-ca5bfe2cd501","ios":"levelo://app?vid=ac1c17be-32dc-4449-8610-ca5bfe2cd501"},"vehicle_type_id":"4","last_reported":1750259472,"current_range_meters":4800,"station_id":"","pricing_plan_id":"cebpf4jnsgd1na2vs0mg"},{"bike_id":"33e9c9da-1cc0-4262-ad00-281d3e3f35fc","system_id":"levelo_inurba_marseille","lat":43.33766,"lon":5.37481,"is_reserved":false,"is_disabled":false,"rental_uris":{"android":"levelo://app?vid=33e9c9da-1cc0-4262-ad00-281d3e3f35fc","ios":"levelo://app?vid=33e9c9da-1cc0-4262-ad00-281d3e3f35fc"},"vehicle_type_id":"4","last_reported":1750259472,"current_range_meters":4800,"station_id":"","pricing_plan_id":"cebpf4jnsgd1na2vs0mg"},{"bike_id":"7fb8b15e-4b64-481d-bb7c-0cfd6c7982d8","system_id":"levelo_inurba_marseille","lat":43.30562,"lon":5.365562,"is_reserved":false,"is_disabled":false,"rental_uris":{"android":"levelo://app?vid=7fb8b15e-4b64-481d-bb7c-0cfd6c7982d8","ios":"levelo://app?vid=7fb8b15e-4b64-481d-bb7c-0cfd6c7982d8"},"vehicle_type_id":"4","last_reported":1750259472,"current_range_meters":4800,"station_id":"ce4bgs12rcd13ifvqcag","pricing_plan_id":"cebpf4jnsgd1na2vs0mg"},{"bike_id":"6391810a-f907-42dd-82c6-8f79102fc608","system_id":"levelo_inurba_marseille","lat":43.30784,"lon":5.37654,"is_reserved":false,"is_disabled":false,"rental_uris":{"android":"levelo://app?vid=6391810a-f907-42dd-82c6-8f79102fc608","ios":"levelo://app?vid=6391810a-f907-42dd-82c6-8f79102fc608"},"vehicle_type_id":"4","last_reported":1750259472,"current_range_meters":4800,"station_id":"ce4bgv92rcd13ifvqcq0","pricing_plan_id":"cebpf4jnsgd1na2vs0mg"},{"bike_id":"cb4bafa5-7766-4c7f-8b27-52af550d2809","system_id":"levelo_inurba_marseille","lat":43.3175,"lon":5.39014,"is_reserved":false,"is_disabled":false,"rental_uris":{"android":"levelo://app?vid=cb4bafa5-7766-4c7f-8b27-52af550d2809","ios":"levelo://app?vid=cb4bafa5-7766-4c7f-8b27-52af550d2809"},"vehicle_type_id":"4","last_reported":1750259472,"current_range_meters":4800,"station_id":"ce4bhqp2rcd13ifvqhng","pricing_plan_id":"cebpf4jnsgd1na2vs0mg"},{"bike_id":"ae4a7bb6-19ec-4528-ba2f-4c58721d2ee8","system_id":"levelo_inurba_marseille","lat":43.23347,"lon":5.43588,"is_reserved":false,"is_disabled":false,"rental_uris":{"android":"levelo://app?vid=ae4a7bb6-19ec-4528-ba2f-4c58721d2ee8","ios":"levelo://app?vid=ae4a7bb6-19ec-4528-ba2f-4c58721d2ee8"},"vehicle_type_id":"4","last_reported":1750259472,"current_range_meters":5600,"station_id":"","pricing_plan_id":"cebpf4jnsgd1na2vs0mg"},{"bike_id":"6ba80795-26da-43fa-ab60-6831760385ff","system_id":"levelo_inurba_marseille","lat":43.32577,"lon":5.419598,"is_reserved":false,"is_disabled":false,"rental_uris":{"android":"levelo://app?vid=6ba80795-26da-43fa-ab60-6831760385ff","ios":"levelo://app?vid=6ba80795-26da-43fa-ab60-6831760385ff"},"vehicle_type_id":"4","last_reported":1750259472,"current_range_meters":5600,"station_id":"","pricing_plan_id":"cebpf4jnsgd1na2vs0mg"},{"bike_id":"f0ffecb1-137e-456c-a1a5-4d78d799cdba","system_id":"levelo_inurba_marseille","lat":43.30534,"lon":5.36725,"is_reserved":false,"is_disabled":false,"rental_uris":{"android":"levelo://app?vid=f0ffecb1-137e-456c-a1a5-4d78d799cdba","ios":"levelo://app?vid=f0ffecb1-137e-456c-a1a5-4d78d799cdba"},"vehicle_type_id":"4","last_reported":1750259472,"current_range_meters":5600,"station_id":"ce4bgrp2rcd13ifvqc9g","pricing_plan_id":"cebpf4jnsgd1na2vs0mg"},{"bike_id":"b4c019a8-d88a-46a2-b660-55d33f7e0ef8","system_id":"levelo_inurba_marseille","lat":43.30462,"lon":5.37902,"is_reserved":false,"is_disabled":false,"rental_uris":{"android":"levelo://app?vid=b4c019a8-d88a-46a2-b660-55d33f7e0ef8","ios":"levelo://app?vid=b4c019a8-d88a-46a2-b660-55d33f7e0ef8"},"vehicle_type_id":"4","last_reported":1750259472,"current_range_meters":5600,"station_id":"ce4bgup2rcd13ifvqcn0","pricing_plan_id":"cebpf4jnsgd1na2vs0mg"},{"bike_id":"5eab46b5-1b7b-4329-a184-4968b9056cb2","system_id":"levelo_inurba_marseille","lat":43.29024,"lon":5.38141,"is_reserved":false,"is_disabled":false,"rental_uris":{"android":"levelo://app?vid=5eab46b5-1b7b-4329-a184-4968b9056cb2","ios":"levelo://app?vid=5eab46b5-1b7b-4329-a184-4968b9056cb2"},"vehicle_type_id":"4","last_reported":1750259472,"current_range_meters":5600,"station_id":"ce4bh4p2rcd13ifvqe1g","pricing_plan_id":"cebpf4jnsgd1na2vs0mg"},{"bike_id":"49c8c6fa-ccf9-4fe9-b6d8-be7bd43d1a54","system_id":"levelo_inurba_marseille","lat":43.27912,"lon":5.39569,"is_reserved":false,"is_disabled":false,"rental_uris":{"android":"levelo://app?vid=49c8c6fa-ccf9-4fe9-b6d8-be7bd43d1a54","ios":"levelo://app?vid=49c8c6fa-ccf9-4fe9-b6d8-be7bd43d1a54"},"vehicle_type_id":"4","last_reported":1750259472,"current_range_meters":5600,"station_id":"ce4bhf92rcd13ifvqf40","pricing_plan_id":"cebpf4jnsgd1na2vs0mg"},{"bike_id":"4815297c-3e51-45cf-988f-cd36d5596a18","system_id":"levelo_inurba_marseille","lat":43.2439,"lon":5.3706,"is_reserved":false,"is_disabled":false,"rental_uris":{"android":"levelo://app?vid=4815297c-3e51-45cf-988f-cd36d5596a18","ios":"levelo://app?vid=4815297c-3e51-45cf-988f-cd36d5596a18"},"vehicle_type_id":"4","last_reported":1750259472,"current_range_meters":5600,"station_id":"ce4bhhh2rcd13ifvqfk0","pricing_plan_id":"cebpf4jnsgd1na2vs0mg"},{"bike_id":"857c245f-8ab5-4179-9a16-97db6aa6bebe","system_id":"levelo_inurba_marseille","lat":43.23152,"lon":5.43722,"is_reserved":false,"is_disabled":false,"rental_uris":{"android":"levelo://app?vid=857c245f-8ab5-4179-9a16-97db6aa6bebe","ios":"levelo://app?vid=857c245f-8ab5-4179-9a16-97db6aa6bebe"},"vehicle_type_id":"4","last_reported":1750259472,"current_range_meters":5600,"station_id":"ce4bhmp2rcd13ifvqgog","pricing_plan_id":"cebpf4jnsgd1na2vs0mg"},{"bike_id":"e03a6d42-f362-4878-ab56-4b5afba95b0c","system_id":"levelo_inurba_marseille","lat":43.31473,"lon":5.36913,"is_reserved":false,"is_disabled":false,"rental_uris":{"android":"levelo://app?vid=e03a6d42-f362-4878-ab56-4b5afba95b0c","ios":"levelo://app?vid=e03a6d42-f362-4878-ab56-4b5afba95b0c"},"vehicle_type_id":"4","last_reported":1750259472,"current_range_meters":6000,"station_id":"","pricing_plan_id":"cebpf4jnsgd1na2vs0mg"},{"bike_id":"e4dc6ce0-fbc6-4464-b1f8-5b7a6a970f97","system_id":"levelo_inurba_marseille","lat":43.27426,"lon":5.39425,"is_reserved":false,"is_disabled":false,"rental_uris":{"android":"levelo://app?vid=e4dc6ce0-fbc6-4464-b1f8-5b7a6a970f97","ios":"levelo://app?vid=e4dc6ce0-fbc6-4464-b1f8-5b7a6a970f97"},"vehicle_type_id":"4","last_reported":1750259472,"current_range_meters":6000,"station_id":"ce4bhdp2rcd13ifvqf20","pricing_plan_id":"cebpf4jnsgd1na2vs0mg"},{"bike_id":"3b136301-d892-4bf1-aa15-695ec30464ca","system_id":"levelo_inurba_marseille","lat":43.32092,"lon":5.36743,"is_reserved":false,"is_disabled":false,"rental_uris":{"android":"levelo://app?vid=3b136301-d892-4bf1-aa15-695ec30464ca","ios":"levelo://app?vid=3b136301-d892-4bf1-aa15-695ec30464ca"},"vehicle_type_id":"4","last_reported":1750259472,"current_range_meters":6400,"station_id":"ce4bhrh2rcd13ifvqhug","pricing_plan_id":"cebpf4jnsgd1na2vs0mg"},{"bike_id":"fb7f0fca-328c-4590-8315-5fcf92aa068d","system_id":"levelo_inurba_marseille","lat":43.33776,"lon":5.37471,"is_reserved":false,"is_disabled":false,"rental_uris":{"android":"levelo://app?vid=fb7f0fca-328c-4590-8315-5fcf92aa068d","ios":"levelo://app?vid=fb7f0fca-328c-4590-8315-5fcf92aa068d"},"vehicle_type_id":"4","last_reported":1750259472,"current_range_meters":6800,"station_id":"","pricing_plan_id":"cebpf4jnsgd1na2vs0mg"},{"bike_id":"19650b9b-4c29-4b8a-8cc9-ad3be58c7fe8","system_id":"levelo_inurba_marseille","lat":43.28415,"lon":5.34983,"is_reserved":false,"is_disabled":false,"rental_uris":{"android":"levelo://app?vid=19650b9b-4c29-4b8a-8cc9-ad3be58c7fe8","ios":"levelo://app?vid=19650b9b-4c29-4b8a-8cc9-ad3be58c7fe8"},"vehicle_type_id":"4","last_reported":1750259472,"current_range_meters":6800,"station_id":"ce4bhbh2rcd13ifvqepg","pricing_plan_id":"cebpf4jnsgd1na2vs0mg"},{"bike_id":"abf4ed8b-1b33-4c2d-9ef0-f124cf1fc678","system_id":"levelo_inurba_marseille","lat":43.26563,"lon":5.37287,"is_reserved":false,"is_disabled":false,"rental_uris":{"android":"levelo://app?vid=abf4ed8b-1b33-4c2d-9ef0-f124cf1fc678","ios":"levelo://app?vid=abf4ed8b-1b33-4c2d-9ef0-f124cf1fc678"},"vehicle_type_id":"4","last_reported":1750259472,"current_range_meters":6800,"station_id":"ce4bhg12rcd13ifvqf70","pricing_plan_id":"cebpf4jnsgd1na2vs0mg"},{"bike_id":"910a6c97-a872-4bc5-8229-2056288fca56","system_id":"levelo_inurba_marseille","lat":43.25832,"lon":5.39437,"is_reserved":false,"is_disabled":false,"rental_uris":{"android":"levelo://app?vid=910a6c97-a872-4bc5-8229-2056288fca56","ios":"levelo://app?vid=910a6c97-a872-4bc5-8229-2056288fca56"},"vehicle_type_id":"4","last_reported":1750259472,"current_range_meters":6800,"station_id":"ce4bhip2rcd13ifvqft0","pricing_plan_id":"cebpf4jnsgd1na2vs0mg"},{"bike_id":"6ac31038-4f65-4e74-88dd-bd39801ecde9","system_id":"levelo_inurba_marseille","lat":43.33724,"lon":5.39186,"is_reserved":false,"is_disabled":false,"rental_uris":{"android":"levelo://app?vid=6ac31038-4f65-4e74-88dd-bd39801ecde9","ios":"levelo://app?vid=6ac31038-4f65-4e74-88dd-bd39801ecde9"},"vehicle_type_id":"4","last_reported":1750259472,"current_range_meters":6800,"station_id":"ce4bhr92rcd13ifvqhsg","pricing_plan_id":"cebpf4jnsgd1na2vs0mg"},{"bike_id":"13603010-4ba6-45d8-8742-faf7a41367fa","system_id":"levelo_inurba_marseille","lat":43.29205,"lon":5.38289,"is_reserved":false,"is_disabled":false,"rental_uris":{"android":"levelo://app?vid=13603010-4ba6-45d8-8742-faf7a41367fa","ios":"levelo://app?vid=13603010-4ba6-45d8-8742-faf7a41367fa"},"vehicle_type_id":"4","last_reported":1750259472,"current_range_meters":7200,"station_id":"","pricing_plan_id":"cebpf4jnsgd1na2vs0mg"},{"bike_id":"820df921-69fc-426c-b325-82acf4918bb0","system_id":"levelo_inurba_marseille","lat":43.30604,"lon":5.372023,"is_reserved":false,"is_disabled":false,"rental_uris":{"android":"levelo://app?vid=820df921-69fc-426c-b325-82acf4918bb0","ios":"levelo://app?vid=820df921-69fc-426c-b325-82acf4918bb0"},"vehicle_type_id":"4","last_reported":1750259472,"current_range_meters":7200,"station_id":"ce4bgqh2rcd13ifvqc4g","pricing_plan_id":"cebpf4jnsgd1na2vs0mg"},{"bike_id":"e6f36741-acf8-4834-a101-38f9c14e1f12","system_id":"levelo_inurba_marseille","lat":43.29197,"lon":5.39315,"is_reserved":false,"is_disabled":false,"rental_uris":{"android":"levelo://app?vid=e6f36741-acf8-4834-a101-38f9c14e1f12","ios":"levelo://app?vid=e6f36741-acf8-4834-a101-38f9c14e1f12"},"vehicle_type_id":"4","last_reported":1750259472,"current_range_meters":7200,"station_id":"ce4bh192rcd13ifvqdd0","pricing_plan_id":"cebpf4jnsgd1na2vs0mg"},{"bike_id":"0c2732ce-a727-46b0-af5a-af7ba2098b27","system_id":"levelo_inurba_marseille","lat":43.319885,"lon":5.381659,"is_reserved":false,"is_disabled":false,"rental_uris":{"android":"levelo://app?vid=0c2732ce-a727-46b0-af5a-af7ba2098b27","ios":"levelo://app?vid=0c2732ce-a727-46b0-af5a-af7ba2098b27"},"vehicle_type_id":"4","last_reported":1750259472,"current_range_meters":8000,"station_id":"","pricing_plan_id":"cebpf4jnsgd1na2vs0mg"},{"bike_id":"94bcc58f-7023-41cb-871b-3595da7eac8b","system_id":"levelo_inurba_marseille","lat":43.331474,"lon":5.381676,"is_reserved":false,"is_disabled":false,"rental_uris":{"android":"levelo://app?vid=94bcc58f-7023-41cb-871b-3595da7eac8b","ios":"levelo://app?vid=94bcc58f-7023-41cb-871b-3595da7eac8b"},"vehicle_type_id":"4","last_reported":1750259472,"current_range_meters":8000,"station_id":"","pricing_plan_id":"cebpf4jnsgd1na2vs0mg"},{"bike_id":"98eea61b-51db-43b8-ad82-2f4b801a044f","system_id":"levelo_inurba_marseille","lat":43.243882,"lon":5.370542,"is_reserved":false,"is_disabled":false,"rental_uris":{"android":"levelo://app?vid=98eea61b-51db-43b8-ad82-2f4b801a044f","ios":"levelo://app?vid=98eea61b-51db-43b8-ad82-2f4b801a044f"},"vehicle_type_id":"4","last_reported":1750259472,"current_range_meters":8000,"station_id":"ce4bhhh2rcd13ifvqfk0","pricing_plan_id":"cebpf4jnsgd1na2vs0mg"},{"bike_id":"c57c5c32-d8b9-477b-a5db-6526b8392cb0","system_id":"levelo_inurba_marseille","lat":43.29552,"lon":5.42288,"is_reserved":false,"is_disabled":false,"rental_uris":{"android":"levelo://app?vid=c57c5c32-d8b9-477b-a5db-6526b8392cb0","ios":"levelo://app?vid=c57c5c32-d8b9-477b-a5db-6526b8392cb0"},"vehicle_type_id":"4","last_reported":1750259472,"current_range_meters":8000,"station_id":"ce4bhph2rcd13ifvqhdg","pricing_plan_id":"cebpf4jnsgd1na2vs0mg"},{"bike_id":"d31dee22-c0d2-4965-a7a3-04f95bc8c47c","system_id":"levelo_inurba_marseille","lat":43.27933,"lon":5.41223,"is_reserved":false,"is_disabled":false,"rental_uris":{"android":"levelo://app?vid=d31dee22-c0d2-4965-a7a3-04f95bc8c47c","ios":"levelo://app?vid=d31dee22-c0d2-4965-a7a3-04f95bc8c47c"},"vehicle_type_id":"4","last_reported":1750259472,"current_range_meters":8400,"station_id":"","pricing_plan_id":"cebpf4jnsgd1na2vs0mg"},{"bike_id":"6f3a0055-18ce-456d-886f-5dd53c809fc5","system_id":"levelo_inurba_marseille","lat":43.26793,"lon":5.42538,"is_reserved":false,"is_disabled":false,"rental_uris":{"android":"levelo://app?vid=6f3a0055-18ce-456d-886f-5dd53c809fc5","ios":"levelo://app?vid=6f3a0055-18ce-456d-886f-5dd53c809fc5"},"vehicle_type_id":"4","last_reported":1750259472,"current_range_meters":8400,"station_id":"","pricing_plan_id":"cebpf4jnsgd1na2vs0mg"},{"bike_id":"d51e5aa8-73cd-420c-a7dc-ddc7aeff6fb0","system_id":"levelo_inurba_marseille","lat":43.29436,"lon":5.39757,"is_reserved":false,"is_disabled":false,"rental_uris":{"android":"levelo://app?vid=d51e5aa8-73cd-420c-a7dc-ddc7aeff6fb0","ios":"levelo://app?vid=d51e5aa8-73cd-420c-a7dc-ddc7aeff6fb0"},"vehicle_type_id":"4","last_reported":1750259472,"current_range_meters":8400,"station_id":"ce4bh3h2rcd13ifvqdo0","pricing_plan_id":"cebpf4jnsgd1na2vs0mg"},{"bike_id":"f9faeb76-0d66-4a25-95e1-9d0edeb33bd2","system_id":"levelo_inurba_marseille","lat":43.25584,"lon":5.38227,"is_reserved":false,"is_disabled":false,"rental_uris":{"android":"levelo://app?vid=f9faeb76-0d66-4a25-95e1-9d0edeb33bd2","ios":"levelo://app?vid=f9faeb76-0d66-4a25-95e1-9d0edeb33bd2"},"vehicle_type_id":"4","last_reported":1750259472,"current_range_meters":8800,"station_id":"","pricing_plan_id":"cebpf4jnsgd1na2vs0mg"},{"bike_id":"b5002037-f4b0-4634-8bc4-796d0c74810e","system_id":"levelo_inurba_marseille","lat":43.24364,"lon":5.4117,"is_reserved":false,"is_disabled":false,"rental_uris":{"android":"levelo://app?vid=b5002037-f4b0-4634-8bc4-796d0c74810e","ios":"levelo://app?vid=b5002037-f4b0-4634-8bc4-796d0c74810e"},"vehicle_type_id":"4","last_reported":1750259472,"current_range_meters":8800,"station_id":"","pricing_plan_id":"cebpf4jnsgd1na2vs0mg"},{"bike_id":"0d43baa1-747c-4cde-8701-d65c1b1ad0ff","system_id":"levelo_inurba_marseille","lat":43.30445,"lon":5.37933,"is_reserved":false,"is_disabled":false,"rental_uris":{"android":"levelo://app?vid=0d43baa1-747c-4cde-8701-d65c1b1ad0ff","ios":"levelo://app?vid=0d43baa1-747c-4cde-8701-d65c1b1ad0ff"},"vehicle_type_id":"4","last_reported":1750259472,"current_range_meters":8800,"station_id":"ce4bgup2rcd13ifvqcn0","pricing_plan_id":"cebpf4jnsgd1na2vs0mg"},{"bike_id":"75fd588d-acfb-46e9-8dd8-1fb428c7a2d5","system_id":"levelo_inurba_marseille","lat":43.33782,"lon":5.37468,"is_reserved":false,"is_disabled":false,"rental_uris":{"android":"levelo://app?vid=75fd588d-acfb-46e9-8dd8-1fb428c7a2d5","ios":"levelo://app?vid=75fd588d-acfb-46e9-8dd8-1fb428c7a2d5"},"vehicle_type_id":"4","last_reported":1750259472,"current_range_meters":9200,"station_id":"","pricing_plan_id":"cebpf4jnsgd1na2vs0mg"},{"bike_id":"faf93ab9-d310-4ec0-abee-43c9bd81b06d","system_id":"levelo_inurba_marseille","lat":43.30306,"lon":5.39211,"is_reserved":false,"is_disabled":false,"rental_uris":{"android":"levelo://app?vid=faf93ab9-d310-4ec0-abee-43c9bd81b06d","ios":"levelo://app?vid=faf93ab9-d310-4ec0-abee-43c9bd81b06d"},"vehicle_type_id":"4","last_reported":1750259472,"current_range_meters":9200,"station_id":"ce4bgkh2rcd13ifvqbk0","pricing_plan_id":"cebpf4jnsgd1na2vs0mg"},{"bike_id":"46f8d112-9310-4082-be51-efd5497bf5a3","system_id":"levelo_inurba_marseille","lat":43.31355,"lon":5.38494,"is_reserved":false,"is_disabled":false,"rental_uris":{"android":"levelo://app?vid=46f8d112-9310-4082-be51-efd5497bf5a3","ios":"levelo://app?vid=46f8d112-9310-4082-be51-efd5497bf5a3"},"vehicle_type_id":"4","last_reported":1750259472,"current_range_meters":9200,"station_id":"ce4bgt92rcd13ifvqcf0","pricing_plan_id":"cebpf4jnsgd1na2vs0mg"},{"bike_id":"4b306b75-a788-4446-9bbc-eab195e1954e","system_id":"levelo_inurba_marseille","lat":43.27209,"lon":5.39177,"is_reserved":false,"is_disabled":false,"rental_uris":{"android":"levelo://app?vid=4b306b75-a788-4446-9bbc-eab195e1954e","ios":"levelo://app?vid=4b306b75-a788-4446-9bbc-eab195e1954e"},"vehicle_type_id":"4","last_reported":1750259472,"current_range_meters":9200,"station_id":"ce4bhhp2rcd13ifvqfm0","pricing_plan_id":"cebpf4jnsgd1na2vs0mg"},{"bike_id":"83cfee7d-980d-496a-98c8-745c7e44c68d","system_id":"levelo_inurba_marseille","lat":43.32874,"lon":5.39095,"is_reserved":false,"is_disabled":false,"rental_uris":{"android":"levelo://app?vid=83cfee7d-980d-496a-98c8-745c7e44c68d","ios":"levelo://app?vid=83cfee7d-980d-496a-98c8-745c7e44c68d"},"vehicle_type_id":"4","last_reported":1750259472,"current_range_meters":9600,"station_id":"","pricing_plan_id":"cebpf4jnsgd1na2vs0mg"},{"bike_id":"04a4d042-848d-4c10-aa67-8fd1bc782796","system_id":"levelo_inurba_marseille","lat":43.29294,"lon":5.37977,"is_reserved":false,"is_disabled":false,"rental_uris":{"android":"levelo://app?vid=04a4d042-848d-4c10-aa67-8fd1bc782796","ios":"levelo://app?vid=04a4d042-848d-4c10-aa67-8fd1bc782796"},"vehicle_type_id":"4","last_reported":1750259472,"current_range_meters":9600,"station_id":"","pricing_plan_id":"cebpf4jnsgd1na2vs0mg"},{"bike_id":"bc4e9d60-44d6-442a-aec5-e4a38b25a9cd","system_id":"levelo_inurba_marseille","lat":43.301758,"lon":5.40053,"is_reserved":false,"is_disabled":false,"rental_uris":{"android":"levelo://app?vid=bc4e9d60-44d6-442a-aec5-e4a38b25a9cd","ios":"levelo://app?vid=bc4e9d60-44d6-442a-aec5-e4a38b25a9cd"},"vehicle_type_id":"4","last_reported":1750259472,"current_range_meters":9600,"station_id":"ce4bgvh2rcd13ifvqcs0","pricing_plan_id":"cebpf4jnsgd1na2vs0mg"},{"bike_id":"f2bbbd0b-f42e-47e1-b8b7-29f9f7d634d5","system_id":"levelo_inurba_marseille","lat":43.29627,"lon":5.40595,"is_reserved":false,"is_disabled":false,"rental_uris":{"android":"levelo://app?vid=f2bbbd0b-f42e-47e1-b8b7-29f9f7d634d5","ios":"levelo://app?vid=f2bbbd0b-f42e-47e1-b8b7-29f9f7d634d5"},"vehicle_type_id":"4","last_reported":1750259472,"current_range_meters":9600,"station_id":"ce4bh0h2rcd13ifvqd60","pricing_plan_id":"cebpf4jnsgd1na2vs0mg"},{"bike_id":"e79248ee-db07-4d04-916f-f0154af89e5f","system_id":"levelo_inurba_marseille","lat":43.27375,"lon":5.36255,"is_reserved":false,"is_disabled":false,"rental_uris":{"android":"levelo://app?vid=e79248ee-db07-4d04-916f-f0154af89e5f","ios":"levelo://app?vid=e79248ee-db07-4d04-916f-f0154af89e5f"},"vehicle_type_id":"4","last_reported":1750259472,"current_range_meters":9600,"station_id":"ce4bhbh2rcd13ifvqeo0","pricing_plan_id":"cebpf4jnsgd1na2vs0mg"},{"bike_id":"2c49226e-44b8-43a4-90f9-304e2e968ebb","system_id":"levelo_inurba_marseille","lat":43.24186,"lon":5.39719,"is_reserved":false,"is_disabled":false,"rental_uris":{"android":"levelo://app?vid=2c49226e-44b8-43a4-90f9-304e2e968ebb","ios":"levelo://app?vid=2c49226e-44b8-43a4-90f9-304e2e968ebb"},"vehicle_type_id":"4","last_reported":1750259472,"current_range_meters":9600,"station_id":"ce4bhn12rcd13ifvqgpg","pricing_plan_id":"cebpf4jnsgd1na2vs0mg"},{"bike_id":"2770e4d4-303c-4166-bb57-843ac98353db","system_id":"levelo_inurba_marseille","lat":43.29545,"lon":5.42281,"is_reserved":false,"is_disabled":false,"rental_uris":{"android":"levelo://app?vid=2770e4d4-303c-4166-bb57-843ac98353db","ios":"levelo://app?vid=2770e4d4-303c-4166-bb57-843ac98353db"},"vehicle_type_id":"4","last_reported":1750259472,"current_range_meters":9600,"station_id":"ce4bhph2rcd13ifvqhdg","pricing_plan_id":"cebpf4jnsgd1na2vs0mg"},{"bike_id":"242da3cf-1dd4-4ffe-a4d7-835aeb4001c6","system_id":"levelo_inurba_marseille","lat":43.29574,"lon":5.37519,"is_reserved":false,"is_disabled":false,"rental_uris":{"android":"levelo://app?vid=242da3cf-1dd4-4ffe-a4d7-835aeb4001c6","ios":"levelo://app?vid=242da3cf-1dd4-4ffe-a4d7-835aeb4001c6"},"vehicle_type_id":"4","last_reported":1750259472,"current_range_meters":10000,"station_id":"ce4bgh92rcd13ifvqb50","pricing_plan_id":"cebpf4jnsgd1na2vs0mg"},{"bike_id":"d27ddcb5-9bf3-4a93-839f-300de98866fe","system_id":"levelo_inurba_marseille","lat":43.30593,"lon":5.37263,"is_reserved":false,"is_disabled":false,"rental_uris":{"android":"levelo://app?vid=d27ddcb5-9bf3-4a93-839f-300de98866fe","ios":"levelo://app?vid=d27ddcb5-9bf3-4a93-839f-300de98866fe"},"vehicle_type_id":"4","last_reported":1750259472,"current_range_meters":10000,"station_id":"ce4bgqh2rcd13ifvqc4g","pricing_plan_id":"cebpf4jnsgd1na2vs0mg"},{"bike_id":"518475d1-8916-4515-b945-d1e31fae8f0b","system_id":"levelo_inurba_marseille","lat":43.3028,"lon":5.37715,"is_reserved":false,"is_disabled":false,"rental_uris":{"android":"levelo://app?vid=518475d1-8916-4515-b945-d1e31fae8f0b","ios":"levelo://app?vid=518475d1-8916-4515-b945-d1e31fae8f0b"},"vehicle_type_id":"4","last_reported":1750259472,"current_range_meters":10000,"station_id":"ce4bguh2rcd13ifvqcj0","pricing_plan_id":"cebpf4jnsgd1na2vs0mg"},{"bike_id":"eac129a6-616e-4e1d-9d09-c5ddf22e457f","system_id":"levelo_inurba_marseille","lat":43.28258,"lon":5.35077,"is_reserved":false,"is_disabled":false,"rental_uris":{"android":"levelo://app?vid=eac129a6-616e-4e1d-9d09-c5ddf22e457f","ios":"levelo://app?vid=eac129a6-616e-4e1d-9d09-c5ddf22e457f"},"vehicle_type_id":"4","last_reported":1750259472,"current_range_meters":10000,"station_id":"ce4bhbp2rcd13ifvqerg","pricing_plan_id":"cebpf4jnsgd1na2vs0mg"},{"bike_id":"992ca5a7-b166-48ca-972e-19776771193a","system_id":"levelo_inurba_marseille","lat":43.28267,"lon":5.35076,"is_reserved":false,"is_disabled":false,"rental_uris":{"android":"levelo://app?vid=992ca5a7-b166-48ca-972e-19776771193a","ios":"levelo://app?vid=992ca5a7-b166-48ca-972e-19776771193a"},"vehicle_type_id":"4","last_reported":1750259472,"current_range_meters":10000,"station_id":"ce4bhbp2rcd13ifvqerg","pricing_plan_id":"cebpf4jnsgd1na2vs0mg"},{"bike_id":"159191c3-aa93-4306-95a2-6de614ec2741","system_id":"levelo_inurba_marseille","lat":43.26572,"lon":5.37274,"is_reserved":false,"is_disabled":false,"rental_uris":{"android":"levelo://app?vid=159191c3-aa93-4306-95a2-6de614ec2741","ios":"levelo://app?vid=159191c3-aa93-4306-95a2-6de614ec2741"},"vehicle_type_id":"4","last_reported":1750259472,"current_range_meters":10000,"station_id":"ce4bhg12rcd13ifvqf70","pricing_plan_id":"cebpf4jnsgd1na2vs0mg"},{"bike_id":"6cb4488d-5fcf-404e-b8e7-119b1467d8cc","system_id":"levelo_inurba_marseille","lat":43.24594,"lon":5.37432,"is_reserved":false,"is_disabled":false,"rental_uris":{"android":"levelo://app?vid=6cb4488d-5fcf-404e-b8e7-119b1467d8cc","ios":"levelo://app?vid=6cb4488d-5fcf-404e-b8e7-119b1467d8cc"},"vehicle_type_id":"4","last_reported":1750259472,"current_range_meters":10000,"station_id":"ce4bhhh2rcd13ifvqfk0","pricing_plan_id":"cebpf4jnsgd1na2vs0mg"},{"bike_id":"998d0538-52e0-477f-8e72-1b383baadd73","system_id":"levelo_inurba_marseille","lat":43.23147,"lon":5.43718,"is_reserved":false,"is_disabled":false,"rental_uris":{"android":"levelo://app?vid=998d0538-52e0-477f-8e72-1b383baadd73","ios":"levelo://app?vid=998d0538-52e0-477f-8e72-1b383baadd73"},"vehicle_type_id":"4","last_reported":1750259472,"current_range_meters":10000,"station_id":"ce4bhmp2rcd13ifvqgog","pricing_plan_id":"cebpf4jnsgd1na2vs0mg"},{"bike_id":"a7f02a5b-f2c9-487a-ae0e-85af2b5c3f2e","system_id":"levelo_inurba_marseille","lat":43.26058,"lon":5.39398,"is_reserved":false,"is_disabled":false,"rental_uris":{"android":"levelo://app?vid=a7f02a5b-f2c9-487a-ae0e-85af2b5c3f2e","ios":"levelo://app?vid=a7f02a5b-f2c9-487a-ae0e-85af2b5c3f2e"},"vehicle_type_id":"4","last_reported":1750259472,"current_range_meters":10800,"station_id":"ce4bhh92rcd13ifvqfj0","pricing_plan_id":"cebpf4jnsgd1na2vs0mg"},{"bike_id":"de0f7c2b-5974-4035-a240-8ed367c0e3f3","system_id":"levelo_inurba_marseille","lat":43.31975,"lon":5.37632,"is_reserved":false,"is_disabled":false,"rental_uris":{"android":"levelo://app?vid=de0f7c2b-5974-4035-a240-8ed367c0e3f3","ios":"levelo://app?vid=de0f7c2b-5974-4035-a240-8ed367c0e3f3"},"vehicle_type_id":"4","last_reported":1750259472,"current_range_meters":11200,"station_id":"","pricing_plan_id":"cebpf4jnsgd1na2vs0mg"},{"bike_id":"23473c5a-ff05-41d4-a194-b16ef02094df","system_id":"levelo_inurba_marseille","lat":43.30559,"lon":5.36539,"is_reserved":false,"is_disabled":false,"rental_uris":{"android":"levelo://app?vid=23473c5a-ff05-41d4-a194-b16ef02094df","ios":"levelo://app?vid=23473c5a-ff05-41d4-a194-b16ef02094df"},"vehicle_type_id":"4","last_reported":1750259472,"current_range_meters":11200,"station_id":"ce4bgs12rcd13ifvqcag","pricing_plan_id":"cebpf4jnsgd1na2vs0mg"},{"bike_id":"a7333462-bad0-4d72-9455-5c675b01d237","system_id":"levelo_inurba_marseille","lat":43.30546,"lon":5.36559,"is_reserved":false,"is_disabled":false,"rental_uris":{"android":"levelo://app?vid=a7333462-bad0-4d72-9455-5c675b01d237","ios":"levelo://app?vid=a7333462-bad0-4d72-9455-5c675b01d237"},"vehicle_type_id":"4","last_reported":1750259472,"current_range_meters":11200,"station_id":"ce4bgs12rcd13ifvqcag","pricing_plan_id":"cebpf4jnsgd1na2vs0mg"},{"bike_id":"46b6b92c-42b6-402f-8681-7ed0d88f5e82","system_id":"levelo_inurba_marseille","lat":43.28998,"lon":5.35611,"is_reserved":false,"is_disabled":false,"rental_uris":{"android":"levelo://app?vid=46b6b92c-42b6-402f-8681-7ed0d88f5e82","ios":"levelo://app?vid=46b6b92c-42b6-402f-8681-7ed0d88f5e82"},"vehicle_type_id":"4","last_reported":1750259472,"current_range_meters":11200,"station_id":"ce4bhb92rcd13ifvqen0","pricing_plan_id":"cebpf4jnsgd1na2vs0mg"},{"bike_id":"df4e2464-49cf-4137-a654-97f7634a7442","system_id":"levelo_inurba_marseille","lat":43.24386,"lon":5.37055,"is_reserved":false,"is_disabled":false,"rental_uris":{"android":"levelo://app?vid=df4e2464-49cf-4137-a654-97f7634a7442","ios":"levelo://app?vid=df4e2464-49cf-4137-a654-97f7634a7442"},"vehicle_type_id":"4","last_reported":1750259472,"current_range_meters":11200,"station_id":"ce4bhhh2rcd13ifvqfk0","pricing_plan_id":"cebpf4jnsgd1na2vs0mg"},{"bike_id":"1dd5fe34-e9e1-460d-939e-f296a66aecc6","system_id":"levelo_inurba_marseille","lat":43.24545,"lon":5.39523,"is_reserved":false,"is_disabled":false,"rental_uris":{"android":"levelo://app?vid=1dd5fe34-e9e1-460d-939e-f296a66aecc6","ios":"levelo://app?vid=1dd5fe34-e9e1-460d-939e-f296a66aecc6"},"vehicle_type_id":"4","last_reported":1750259472,"current_range_meters":11200,"station_id":"ce4bhlp2rcd13ifvqgjg","pricing_plan_id":"cebpf4jnsgd1na2vs0mg"},{"bike_id":"cdf5e6fb-5784-4dd5-a259-812a34175539","system_id":"levelo_inurba_marseille","lat":43.31719,"lon":5.42396,"is_reserved":false,"is_disabled":false,"rental_uris":{"android":"levelo://app?vid=cdf5e6fb-5784-4dd5-a259-812a34175539","ios":"levelo://app?vid=cdf5e6fb-5784-4dd5-a259-812a34175539"},"vehicle_type_id":"4","last_reported":1750259472,"current_range_meters":11200,"station_id":"ce4bhp92rcd13ifvqhbg","pricing_plan_id":"cebpf4jnsgd1na2vs0mg"},{"bike_id":"f7fa858e-b7ee-404f-8191-6184cc003e2b","system_id":"levelo_inurba_marseille","lat":43.23186,"lon":5.35549,"is_reserved":false,"is_disabled":false,"rental_uris":{"android":"levelo://app?vid=f7fa858e-b7ee-404f-8191-6184cc003e2b","ios":"levelo://app?vid=f7fa858e-b7ee-404f-8191-6184cc003e2b"},"vehicle_type_id":"4","last_reported":1750259472,"current_range_meters":11200,"station_id":"ce4bhu92rcd13ifvqi70","pricing_plan_id":"cebpf4jnsgd1na2vs0mg"},{"bike_id":"05e2e880-75f3-4a05-81f8-c1237d819b48","system_id":"levelo_inurba_marseille","lat":43.23191,"lon":5.35578,"is_reserved":false,"is_disabled":false,"rental_uris":{"android":"levelo://app?vid=05e2e880-75f3-4a05-81f8-c1237d819b48","ios":"levelo://app?vid=05e2e880-75f3-4a05-81f8-c1237d819b48"},"vehicle_type_id":"4","last_reported":1750259472,"current_range_meters":11200,"station_id":"ce4bhu92rcd13ifvqi70","pricing_plan_id":"cebpf4jnsgd1na2vs0mg"},{"bike_id":"3518210a-6d90-482f-a11b-11cb7c94acd1","system_id":"levelo_inurba_marseille","lat":43.26482,"lon":5.39239,"is_reserved":false,"is_disabled":false,"rental_uris":{"android":"levelo://app?vid=3518210a-6d90-482f-a11b-11cb7c94acd1","ios":"levelo://app?vid=3518210a-6d90-482f-a11b-11cb7c94acd1"},"vehicle_type_id":"4","last_reported":1750259472,"current_range_meters":11600,"station_id":"","pricing_plan_id":"cebpf4jnsgd1na2vs0mg"},{"bike_id":"e0c3fbab-f387-4c5d-bb84-dd810d7f3a18","system_id":"levelo_inurba_marseille","lat":43.29707,"lon":5.37698,"is_reserved":false,"is_disabled":false,"rental_uris":{"android":"levelo://app?vid=e0c3fbab-f387-4c5d-bb84-dd810d7f3a18","ios":"levelo://app?vid=e0c3fbab-f387-4c5d-bb84-dd810d7f3a18"},"vehicle_type_id":"4","last_reported":1750259472,"current_range_meters":11600,"station_id":"ce4bgkh2rcd13ifvqbl0","pricing_plan_id":"cebpf4jnsgd1na2vs0mg"},{"bike_id":"8bdb2c6a-591a-4960-b5ed-805bab55ca73","system_id":"levelo_inurba_marseille","lat":43.28275,"lon":5.35088,"is_reserved":false,"is_disabled":false,"rental_uris":{"android":"levelo://app?vid=8bdb2c6a-591a-4960-b5ed-805bab55ca73","ios":"levelo://app?vid=8bdb2c6a-591a-4960-b5ed-805bab55ca73"},"vehicle_type_id":"4","last_reported":1750259472,"current_range_meters":11600,"station_id":"ce4bhbp2rcd13ifvqerg","pricing_plan_id":"cebpf4jnsgd1na2vs0mg"},{"bike_id":"2ebfebb3-1d58-47a4-99dd-2391896642e6","system_id":"levelo_inurba_marseille","lat":43.23969,"lon":5.36628,"is_reserved":false,"is_disabled":false,"rental_uris":{"android":"levelo://app?vid=2ebfebb3-1d58-47a4-99dd-2391896642e6","ios":"levelo://app?vid=2ebfebb3-1d58-47a4-99dd-2391896642e6"},"vehicle_type_id":"4","last_reported":1750259472,"current_range_meters":11600,"station_id":"ce4bhi12rcd13ifvqfp0","pricing_plan_id":"cebpf4jnsgd1na2vs0mg"},{"bike_id":"21c5a6e1-ee31-4c46-800b-dc6f7391485e","system_id":"levelo_inurba_marseille","lat":43.26497,"lon":5.39546,"is_reserved":false,"is_disabled":false,"rental_uris":{"android":"levelo://app?vid=21c5a6e1-ee31-4c46-800b-dc6f7391485e","ios":"levelo://app?vid=21c5a6e1-ee31-4c46-800b-dc6f7391485e"},"vehicle_type_id":"4","last_reported":1750259472,"current_range_meters":11600,"station_id":"ce4bhi12rcd13ifvqfq0","pricing_plan_id":"cebpf4jnsgd1na2vs0mg"},{"bike_id":"5fca8285-46cd-4a61-afa7-083de6991d10","system_id":"levelo_inurba_marseille","lat":43.23145,"lon":5.43722,"is_reserved":false,"is_disabled":false,"rental_uris":{"android":"levelo://app?vid=5fca8285-46cd-4a61-afa7-083de6991d10","ios":"levelo://app?vid=5fca8285-46cd-4a61-afa7-083de6991d10"},"vehicle_type_id":"4","last_reported":1750259472,"current_range_meters":11600,"station_id":"ce4bhmp2rcd13ifvqgog","pricing_plan_id":"cebpf4jnsgd1na2vs0mg"},{"bike_id":"6db694cf-67b7-4afd-a515-bf8be37d8cfd","system_id":"levelo_inurba_marseille","lat":43.28412,"lon":5.37523,"is_reserved":false,"is_disabled":false,"rental_uris":{"android":"levelo://app?vid=6db694cf-67b7-4afd-a515-bf8be37d8cfd","ios":"levelo://app?vid=6db694cf-67b7-4afd-a515-bf8be37d8cfd"},"vehicle_type_id":"4","last_reported":1750259472,"current_range_meters":12000,"station_id":"ce4bh412rcd13ifvqds0","pricing_plan_id":"cebpf4jnsgd1na2vs0mg"},{"bike_id":"a5c0eca6-0a75-4353-941c-2563cb6f5966","system_id":"levelo_inurba_marseille","lat":43.27374,"lon":5.36256,"is_reserved":false,"is_disabled":false,"rental_uris":{"android":"levelo://app?vid=a5c0eca6-0a75-4353-941c-2563cb6f5966","ios":"levelo://app?vid=a5c0eca6-0a75-4353-941c-2563cb6f5966"},"vehicle_type_id":"4","last_reported":1750259472,"current_range_meters":12000,"station_id":"ce4bhbh2rcd13ifvqeo0","pricing_plan_id":"cebpf4jnsgd1na2vs0mg"},{"bike_id":"3f677e3f-0b55-46e0-8547-523a5ab758d3","system_id":"levelo_inurba_marseille","lat":43.25121,"lon":5.40312,"is_reserved":false,"is_disabled":false,"rental_uris":{"android":"levelo://app?vid=3f677e3f-0b55-46e0-8547-523a5ab758d3","ios":"levelo://app?vid=3f677e3f-0b55-46e0-8547-523a5ab758d3"},"vehicle_type_id":"4","last_reported":1750259472,"current_range_meters":12000,"station_id":"ce4bhlh2rcd13ifvqgig","pricing_plan_id":"cebpf4jnsgd1na2vs0mg"},{"bike_id":"7e0d01ba-3aa4-4bfd-a810-a2de6c2f7d88","system_id":"levelo_inurba_marseille","lat":43.2694,"lon":5.40251,"is_reserved":false,"is_disabled":false,"rental_uris":{"android":"levelo://app?vid=7e0d01ba-3aa4-4bfd-a810-a2de6c2f7d88","ios":"levelo://app?vid=7e0d01ba-3aa4-4bfd-a810-a2de6c2f7d88"},"vehicle_type_id":"4","last_reported":1750259472,"current_range_meters":12000,"station_id":"cjm6bp8fraef2m0cb0m0","pricing_plan_id":"cebpf4jnsgd1na2vs0mg"},{"bike_id":"84111953-f69c-4763-a946-bf4affad9317","system_id":"levelo_inurba_marseille","lat":43.304292,"lon":5.388932,"is_reserved":false,"is_disabled":false,"rental_uris":{"android":"levelo://app?vid=84111953-f69c-4763-a946-bf4affad9317","ios":"levelo://app?vid=84111953-f69c-4763-a946-bf4affad9317"},"vehicle_type_id":"4","last_reported":1750259472,"current_range_meters":12400,"station_id":"ce4bgk12rcd13ifvqbi0","pricing_plan_id":"cebpf4jnsgd1na2vs0mg"},{"bike_id":"507d14ef-c922-4d3e-be5f-2c7aaef4c043","system_id":"levelo_inurba_marseille","lat":43.28265,"lon":5.35075,"is_reserved":false,"is_disabled":false,"rental_uris":{"android":"levelo://app?vid=507d14ef-c922-4d3e-be5f-2c7aaef4c043","ios":"levelo://app?vid=507d14ef-c922-4d3e-be5f-2c7aaef4c043"},"vehicle_type_id":"4","last_reported":1750259472,"current_range_meters":12400,"station_id":"ce4bhbp2rcd13ifvqerg","pricing_plan_id":"cebpf4jnsgd1na2vs0mg"},{"bike_id":"f96fac91-fcd6-4cf6-94db-3fb959156263","system_id":"levelo_inurba_marseille","lat":43.282773,"lon":5.350683,"is_reserved":false,"is_disabled":false,"rental_uris":{"android":"levelo://app?vid=f96fac91-fcd6-4cf6-94db-3fb959156263","ios":"levelo://app?vid=f96fac91-fcd6-4cf6-94db-3fb959156263"},"vehicle_type_id":"4","last_reported":1750259472,"current_range_meters":12400,"station_id":"ce4bhbp2rcd13ifvqerg","pricing_plan_id":"cebpf4jnsgd1na2vs0mg"},{"bike_id":"103096e4-ad17-4db0-a09f-c27dd36f1567","system_id":"levelo_inurba_marseille","lat":43.28615,"lon":5.35108,"is_reserved":false,"is_disabled":false,"rental_uris":{"android":"levelo://app?vid=103096e4-ad17-4db0-a09f-c27dd36f1567","ios":"levelo://app?vid=103096e4-ad17-4db0-a09f-c27dd36f1567"},"vehicle_type_id":"4","last_reported":1750259472,"current_range_meters":12400,"station_id":"ce4bhch2rcd13ifvqeug","pricing_plan_id":"cebpf4jnsgd1na2vs0mg"},{"bike_id":"bb264eab-52b8-4eb3-a85a-bdda546d9752","system_id":"levelo_inurba_marseille","lat":43.27072,"lon":5.4228,"is_reserved":false,"is_disabled":false,"rental_uris":{"android":"levelo://app?vid=bb264eab-52b8-4eb3-a85a-bdda546d9752","ios":"levelo://app?vid=bb264eab-52b8-4eb3-a85a-bdda546d9752"},"vehicle_type_id":"4","last_reported":1750259472,"current_range_meters":12400,"station_id":"ce4bhk92rcd13ifvqgb0","pricing_plan_id":"cebpf4jnsgd1na2vs0mg"},{"bike_id":"4b8da722-ee9e-48a4-a5e5-3a8a10364708","system_id":"levelo_inurba_marseille","lat":43.31232,"lon":5.37819,"is_reserved":false,"is_disabled":false,"rental_uris":{"android":"levelo://app?vid=4b8da722-ee9e-48a4-a5e5-3a8a10364708","ios":"levelo://app?vid=4b8da722-ee9e-48a4-a5e5-3a8a10364708"},"vehicle_type_id":"4","last_reported":1750259472,"current_range_meters":12800,"station_id":"","pricing_plan_id":"cebpf4jnsgd1na2vs0mg"},{"bike_id":"0dedb6f6-6801-483b-bfb8-9cd4533d158f","system_id":"levelo_inurba_marseille","lat":43.3113,"lon":5.38091,"is_reserved":false,"is_disabled":false,"rental_uris":{"android":"levelo://app?vid=0dedb6f6-6801-483b-bfb8-9cd4533d158f","ios":"levelo://app?vid=0dedb6f6-6801-483b-bfb8-9cd4533d158f"},"vehicle_type_id":"4","last_reported":1750259472,"current_range_meters":12800,"station_id":"","pricing_plan_id":"cebpf4jnsgd1na2vs0mg"},{"bike_id":"a49fc998-e1c8-4119-a59a-25d0f4c78a5f","system_id":"levelo_inurba_marseille","lat":43.29311,"lon":5.3718,"is_reserved":false,"is_disabled":false,"rental_uris":{"android":"levelo://app?vid=a49fc998-e1c8-4119-a59a-25d0f4c78a5f","ios":"levelo://app?vid=a49fc998-e1c8-4119-a59a-25d0f4c78a5f"},"vehicle_type_id":"4","last_reported":1750259472,"current_range_meters":12800,"station_id":"ce4bgh92rcd13ifvqb40","pricing_plan_id":"cebpf4jnsgd1na2vs0mg"},{"bike_id":"37070259-b24f-479b-b5ec-8c90efe3fb83","system_id":"levelo_inurba_marseille","lat":43.29613,"lon":5.37714,"is_reserved":false,"is_disabled":false,"rental_uris":{"android":"levelo://app?vid=37070259-b24f-479b-b5ec-8c90efe3fb83","ios":"levelo://app?vid=37070259-b24f-479b-b5ec-8c90efe3fb83"},"vehicle_type_id":"4","last_reported":1750259472,"current_range_meters":12800,"station_id":"ce4bgi92rcd13ifvqb90","pricing_plan_id":"cebpf4jnsgd1na2vs0mg"},{"bike_id":"7c702181-2991-464d-bf00-d5dd95400208","system_id":"levelo_inurba_marseille","lat":43.29225,"lon":5.36057,"is_reserved":false,"is_disabled":false,"rental_uris":{"android":"levelo://app?vid=7c702181-2991-464d-bf00-d5dd95400208","ios":"levelo://app?vid=7c702181-2991-464d-bf00-d5dd95400208"},"vehicle_type_id":"4","last_reported":1750259472,"current_range_meters":12800,"station_id":"ce4bhbh2rcd13ifvqeqg","pricing_plan_id":"cebpf4jnsgd1na2vs0mg"},{"bike_id":"1ce3b46c-a922-40c8-b9bb-dd9b0c6c806b","system_id":"levelo_inurba_marseille","lat":43.2407,"lon":5.37756,"is_reserved":false,"is_disabled":false,"rental_uris":{"android":"levelo://app?vid=1ce3b46c-a922-40c8-b9bb-dd9b0c6c806b","ios":"levelo://app?vid=1ce3b46c-a922-40c8-b9bb-dd9b0c6c806b"},"vehicle_type_id":"4","last_reported":1750259472,"current_range_meters":12800,"station_id":"ce4bhnp2rcd13ifvqgvg","pricing_plan_id":"cebpf4jnsgd1na2vs0mg"},{"bike_id":"d1cf4809-6529-41e3-8cbc-570ff5bdad5f","system_id":"levelo_inurba_marseille","lat":43.3211,"lon":5.36784,"is_reserved":false,"is_disabled":false,"rental_uris":{"android":"levelo://app?vid=d1cf4809-6529-41e3-8cbc-570ff5bdad5f","ios":"levelo://app?vid=d1cf4809-6529-41e3-8cbc-570ff5bdad5f"},"vehicle_type_id":"4","last_reported":1750259472,"current_range_meters":12800,"station_id":"ce4bhrh2rcd13ifvqhug","pricing_plan_id":"cebpf4jnsgd1na2vs0mg"},{"bike_id":"b9740617-416c-49ef-a593-d345aa13726b","system_id":"levelo_inurba_marseille","lat":43.27013,"lon":5.4314,"is_reserved":false,"is_disabled":false,"rental_uris":{"android":"levelo://app?vid=b9740617-416c-49ef-a593-d345aa13726b","ios":"levelo://app?vid=b9740617-416c-49ef-a593-d345aa13726b"},"vehicle_type_id":"4","last_reported":1750259472,"current_range_meters":13600,"station_id":"","pricing_plan_id":"cebpf4jnsgd1na2vs0mg"},{"bike_id":"c55a1495-9afa-4d93-8682-858eeec4d752","system_id":"levelo_inurba_marseille","lat":43.30434,"lon":5.38891,"is_reserved":false,"is_disabled":false,"rental_uris":{"android":"levelo://app?vid=c55a1495-9afa-4d93-8682-858eeec4d752","ios":"levelo://app?vid=c55a1495-9afa-4d93-8682-858eeec4d752"},"vehicle_type_id":"4","last_reported":1750259472,"current_range_meters":13600,"station_id":"ce4bgk12rcd13ifvqbi0","pricing_plan_id":"cebpf4jnsgd1na2vs0mg"},{"bike_id":"a4a6924c-c806-4cde-8440-26cd4df5fe79","system_id":"levelo_inurba_marseille","lat":43.298517,"lon":5.362777,"is_reserved":false,"is_disabled":false,"rental_uris":{"android":"levelo://app?vid=a4a6924c-c806-4cde-8440-26cd4df5fe79","ios":"levelo://app?vid=a4a6924c-c806-4cde-8440-26cd4df5fe79"},"vehicle_type_id":"4","last_reported":1750259472,"current_range_meters":13600,"station_id":"ce4bgpp2rcd13ifvqc3g","pricing_plan_id":"cebpf4jnsgd1na2vs0mg"},{"bike_id":"41626865-5382-4088-91b0-1f15d2537a3c","system_id":"levelo_inurba_marseille","lat":43.29629,"lon":5.40599,"is_reserved":false,"is_disabled":false,"rental_uris":{"android":"levelo://app?vid=41626865-5382-4088-91b0-1f15d2537a3c","ios":"levelo://app?vid=41626865-5382-4088-91b0-1f15d2537a3c"},"vehicle_type_id":"4","last_reported":1750259472,"current_range_meters":13600,"station_id":"ce4bh0h2rcd13ifvqd60","pricing_plan_id":"cebpf4jnsgd1na2vs0mg"},{"bike_id":"2cc926f4-9c7a-4d5e-962d-579330579007","system_id":"levelo_inurba_marseille","lat":43.26938,"lon":5.38914,"is_reserved":false,"is_disabled":false,"rental_uris":{"android":"levelo://app?vid=2cc926f4-9c7a-4d5e-962d-579330579007","ios":"levelo://app?vid=2cc926f4-9c7a-4d5e-962d-579330579007"},"vehicle_type_id":"4","last_reported":1750259472,"current_range_meters":13600,"station_id":"ce4bhhh2rcd13ifvqfl0","pricing_plan_id":"cebpf4jnsgd1na2vs0mg"},{"bike_id":"f333ac74-42cc-4d5b-88d9-20563186f61d","system_id":"levelo_inurba_marseille","lat":43.22929,"lon":5.35373,"is_reserved":false,"is_disabled":false,"rental_uris":{"android":"levelo://app?vid=f333ac74-42cc-4d5b-88d9-20563186f61d","ios":"levelo://app?vid=f333ac74-42cc-4d5b-88d9-20563186f61d"},"vehicle_type_id":"4","last_reported":1750259472,"current_range_meters":13600,"station_id":"cpo3532slgdg3j2ikp40","pricing_plan_id":"cebpf4jnsgd1na2vs0mg"},{"bike_id":"e7ed3994-57ec-41cb-942f-e3313f3650f1","system_id":"levelo_inurba_marseille","lat":43.30278,"lon":5.37717,"is_reserved":false,"is_disabled":false,"rental_uris":{"android":"levelo://app?vid=e7ed3994-57ec-41cb-942f-e3313f3650f1","ios":"levelo://app?vid=e7ed3994-57ec-41cb-942f-e3313f3650f1"},"vehicle_type_id":"4","last_reported":1750259472,"current_range_meters":14000,"station_id":"ce4bguh2rcd13ifvqcj0","pricing_plan_id":"cebpf4jnsgd1na2vs0mg"},{"bike_id":"155ad7b8-dc29-4ca8-bdc8-582add5147a8","system_id":"levelo_inurba_marseille","lat":43.28262,"lon":5.3507,"is_reserved":false,"is_disabled":false,"rental_uris":{"android":"levelo://app?vid=155ad7b8-dc29-4ca8-bdc8-582add5147a8","ios":"levelo://app?vid=155ad7b8-dc29-4ca8-bdc8-582add5147a8"},"vehicle_type_id":"4","last_reported":1750259472,"current_range_meters":14000,"station_id":"ce4bhbp2rcd13ifvqerg","pricing_plan_id":"cebpf4jnsgd1na2vs0mg"},{"bike_id":"70388e91-9d2d-4910-bc24-29a9cf43cdb4","system_id":"levelo_inurba_marseille","lat":43.26955,"lon":5.38632,"is_reserved":false,"is_disabled":false,"rental_uris":{"android":"levelo://app?vid=70388e91-9d2d-4910-bc24-29a9cf43cdb4","ios":"levelo://app?vid=70388e91-9d2d-4910-bc24-29a9cf43cdb4"},"vehicle_type_id":"4","last_reported":1750259472,"current_range_meters":14000,"station_id":"ce4bhh92rcd13ifvqfh0","pricing_plan_id":"cebpf4jnsgd1na2vs0mg"},{"bike_id":"581151ec-995a-423c-8645-3738b96faae3","system_id":"levelo_inurba_marseille","lat":43.2466,"lon":5.38166,"is_reserved":false,"is_disabled":false,"rental_uris":{"android":"levelo://app?vid=581151ec-995a-423c-8645-3738b96faae3","ios":"levelo://app?vid=581151ec-995a-423c-8645-3738b96faae3"},"vehicle_type_id":"4","last_reported":1750259472,"current_range_meters":14000,"station_id":"ce4bhih2rcd13ifvqfr0","pricing_plan_id":"cebpf4jnsgd1na2vs0mg"},{"bike_id":"2ca362ab-b422-4772-b2fa-ec2ebf4f6001","system_id":"levelo_inurba_marseille","lat":43.27072,"lon":5.42281,"is_reserved":false,"is_disabled":false,"rental_uris":{"android":"levelo://app?vid=2ca362ab-b422-4772-b2fa-ec2ebf4f6001","ios":"levelo://app?vid=2ca362ab-b422-4772-b2fa-ec2ebf4f6001"},"vehicle_type_id":"4","last_reported":1750259472,"current_range_meters":14400,"station_id":"ce4bhk92rcd13ifvqgb0","pricing_plan_id":"cebpf4jnsgd1na2vs0mg"},{"bike_id":"faf048f0-ef47-45f8-8544-8137d956151e","system_id":"levelo_inurba_marseille","lat":43.31232,"lon":5.37447,"is_reserved":false,"is_disabled":false,"rental_uris":{"android":"levelo://app?vid=faf048f0-ef47-45f8-8544-8137d956151e","ios":"levelo://app?vid=faf048f0-ef47-45f8-8544-8137d956151e"},"vehicle_type_id":"4","last_reported":1750259472,"current_range_meters":14800,"station_id":"","pricing_plan_id":"cebpf4jnsgd1na2vs0mg"},{"bike_id":"268aafb4-1331-426c-97bc-a7d6564caeb6","system_id":"levelo_inurba_marseille","lat":43.32933,"lon":5.37919,"is_reserved":false,"is_disabled":false,"rental_uris":{"android":"levelo://app?vid=268aafb4-1331-426c-97bc-a7d6564caeb6","ios":"levelo://app?vid=268aafb4-1331-426c-97bc-a7d6564caeb6"},"vehicle_type_id":"4","last_reported":1750259472,"current_range_meters":14800,"station_id":"","pricing_plan_id":"cebpf4jnsgd1na2vs0mg"},{"bike_id":"b847d6fb-d960-4954-ada5-f6dc4fbc1d17","system_id":"levelo_inurba_marseille","lat":43.29836,"lon":5.36288,"is_reserved":false,"is_disabled":false,"rental_uris":{"android":"levelo://app?vid=b847d6fb-d960-4954-ada5-f6dc4fbc1d17","ios":"levelo://app?vid=b847d6fb-d960-4954-ada5-f6dc4fbc1d17"},"vehicle_type_id":"4","last_reported":1750259472,"current_range_meters":14800,"station_id":"ce4bgpp2rcd13ifvqc3g","pricing_plan_id":"cebpf4jnsgd1na2vs0mg"},{"bike_id":"21a61df0-e09f-4222-8295-3916ac32480a","system_id":"levelo_inurba_marseille","lat":43.30463,"lon":5.37909,"is_reserved":false,"is_disabled":false,"rental_uris":{"android":"levelo://app?vid=21a61df0-e09f-4222-8295-3916ac32480a","ios":"levelo://app?vid=21a61df0-e09f-4222-8295-3916ac32480a"},"vehicle_type_id":"4","last_reported":1750259472,"current_range_meters":14800,"station_id":"ce4bgup2rcd13ifvqcn0","pricing_plan_id":"cebpf4jnsgd1na2vs0mg"},{"bike_id":"ff899b15-fdd1-4c2d-9023-b38ebd1a6335","system_id":"levelo_inurba_marseille","lat":43.2319,"lon":5.35557,"is_reserved":false,"is_disabled":false,"rental_uris":{"android":"levelo://app?vid=ff899b15-fdd1-4c2d-9023-b38ebd1a6335","ios":"levelo://app?vid=ff899b15-fdd1-4c2d-9023-b38ebd1a6335"},"vehicle_type_id":"4","last_reported":1750259472,"current_range_meters":14800,"station_id":"ce4bhu92rcd13ifvqi70","pricing_plan_id":"cebpf4jnsgd1na2vs0mg"},{"bike_id":"8dc3f506-d8c7-45a7-8cc8-ec897678ea5f","system_id":"levelo_inurba_marseille","lat":43.24156,"lon":5.36416,"is_reserved":false,"is_disabled":false,"rental_uris":{"android":"levelo://app?vid=8dc3f506-d8c7-45a7-8cc8-ec897678ea5f","ios":"levelo://app?vid=8dc3f506-d8c7-45a7-8cc8-ec897678ea5f"},"vehicle_type_id":"4","last_reported":1750259472,"current_range_meters":14800,"station_id":"cpo36qri1sfpv3e86is0","pricing_plan_id":"cebpf4jnsgd1na2vs0mg"},{"bike_id":"2b727e9c-1bba-4978-8e35-92a7192bc563","system_id":"levelo_inurba_marseille","lat":43.30934,"lon":5.40142,"is_reserved":false,"is_disabled":false,"rental_uris":{"android":"levelo://app?vid=2b727e9c-1bba-4978-8e35-92a7192bc563","ios":"levelo://app?vid=2b727e9c-1bba-4978-8e35-92a7192bc563"},"vehicle_type_id":"4","last_reported":1750259472,"current_range_meters":15200,"station_id":"ce4bgvp2rcd13ifvqct0","pricing_plan_id":"cebpf4jnsgd1na2vs0mg"},{"bike_id":"64928721-f996-4218-9df4-6ecfd1991c07","system_id":"levelo_inurba_marseille","lat":43.2885,"lon":5.35838,"is_reserved":false,"is_disabled":false,"rental_uris":{"android":"levelo://app?vid=64928721-f996-4218-9df4-6ecfd1991c07","ios":"levelo://app?vid=64928721-f996-4218-9df4-6ecfd1991c07"},"vehicle_type_id":"4","last_reported":1750259472,"current_range_meters":15200,"station_id":"ce4bhb12rcd13ifvqem0","pricing_plan_id":"cebpf4jnsgd1na2vs0mg"},{"bike_id":"9d2a90e7-394f-41d8-ae49-77712a22ee78","system_id":"levelo_inurba_marseille","lat":43.255,"lon":5.37637,"is_reserved":false,"is_disabled":false,"rental_uris":{"android":"levelo://app?vid=9d2a90e7-394f-41d8-ae49-77712a22ee78","ios":"levelo://app?vid=9d2a90e7-394f-41d8-ae49-77712a22ee78"},"vehicle_type_id":"4","last_reported":1750259472,"current_range_meters":15200,"station_id":"ce4bhh12rcd13ifvqff0","pricing_plan_id":"cebpf4jnsgd1na2vs0mg"},{"bike_id":"9b715934-3d22-43ac-8730-70198edf799e","system_id":"levelo_inurba_marseille","lat":43.25578,"lon":5.38245,"is_reserved":false,"is_disabled":false,"rental_uris":{"android":"levelo://app?vid=9b715934-3d22-43ac-8730-70198edf799e","ios":"levelo://app?vid=9b715934-3d22-43ac-8730-70198edf799e"},"vehicle_type_id":"4","last_reported":1750259472,"current_range_meters":15200,"station_id":"ce4bhih2rcd13ifvqfs0","pricing_plan_id":"cebpf4jnsgd1na2vs0mg"},{"bike_id":"975d7472-abaa-40d3-8524-613626275fdc","system_id":"levelo_inurba_marseille","lat":43.23191,"lon":5.35556,"is_reserved":false,"is_disabled":false,"rental_uris":{"android":"levelo://app?vid=975d7472-abaa-40d3-8524-613626275fdc","ios":"levelo://app?vid=975d7472-abaa-40d3-8524-613626275fdc"},"vehicle_type_id":"4","last_reported":1750259472,"current_range_meters":15200,"station_id":"ce4bhu92rcd13ifvqi70","pricing_plan_id":"cebpf4jnsgd1na2vs0mg"},{"bike_id":"f025e0b0-8595-426c-b214-cb9b74c5fcfd","system_id":"levelo_inurba_marseille","lat":43.32198,"lon":5.40576,"is_reserved":false,"is_disabled":false,"rental_uris":{"android":"levelo://app?vid=f025e0b0-8595-426c-b214-cb9b74c5fcfd","ios":"levelo://app?vid=f025e0b0-8595-426c-b214-cb9b74c5fcfd"},"vehicle_type_id":"4","last_reported":1750259472,"current_range_meters":16000,"station_id":"","pricing_plan_id":"cebpf4jnsgd1na2vs0mg"},{"bike_id":"6eb525e5-cbac-4e46-a9d5-aaa089817693","system_id":"levelo_inurba_marseille","lat":43.2632,"lon":5.37394,"is_reserved":false,"is_disabled":false,"rental_uris":{"android":"levelo://app?vid=6eb525e5-cbac-4e46-a9d5-aaa089817693","ios":"levelo://app?vid=6eb525e5-cbac-4e46-a9d5-aaa089817693"},"vehicle_type_id":"4","last_reported":1750259472,"current_range_meters":16000,"station_id":"","pricing_plan_id":"cebpf4jnsgd1na2vs0mg"},{"bike_id":"233a4760-e2b8-4bf8-9aa1-b4bc97629e72","system_id":"levelo_inurba_marseille","lat":43.28598,"lon":5.351053,"is_reserved":false,"is_disabled":false,"rental_uris":{"android":"levelo://app?vid=233a4760-e2b8-4bf8-9aa1-b4bc97629e72","ios":"levelo://app?vid=233a4760-e2b8-4bf8-9aa1-b4bc97629e72"},"vehicle_type_id":"4","last_reported":1750259472,"current_range_meters":16000,"station_id":"","pricing_plan_id":"cebpf4jnsgd1na2vs0mg"},{"bike_id":"67f3df11-0585-4eae-81e9-f632ab83c308","system_id":"levelo_inurba_marseille","lat":43.26219,"lon":5.37438,"is_reserved":false,"is_disabled":false,"rental_uris":{"android":"levelo://app?vid=67f3df11-0585-4eae-81e9-f632ab83c308","ios":"levelo://app?vid=67f3df11-0585-4eae-81e9-f632ab83c308"},"vehicle_type_id":"4","last_reported":1750259472,"current_range_meters":16000,"station_id":"ce4bhgp2rcd13ifvqfc0","pricing_plan_id":"cebpf4jnsgd1na2vs0mg"},{"bike_id":"cf299a66-f36e-4f7f-ae04-c4e2a9b85a63","system_id":"levelo_inurba_marseille","lat":43.26486,"lon":5.39549,"is_reserved":false,"is_disabled":false,"rental_uris":{"android":"levelo://app?vid=cf299a66-f36e-4f7f-ae04-c4e2a9b85a63","ios":"levelo://app?vid=cf299a66-f36e-4f7f-ae04-c4e2a9b85a63"},"vehicle_type_id":"4","last_reported":1750259472,"current_range_meters":16000,"station_id":"ce4bhi12rcd13ifvqfq0","pricing_plan_id":"cebpf4jnsgd1na2vs0mg"},{"bike_id":"dfc6110e-945d-4714-b491-53699eee1c22","system_id":"levelo_inurba_marseille","lat":43.2315,"lon":5.43719,"is_reserved":false,"is_disabled":false,"rental_uris":{"android":"levelo://app?vid=dfc6110e-945d-4714-b491-53699eee1c22","ios":"levelo://app?vid=dfc6110e-945d-4714-b491-53699eee1c22"},"vehicle_type_id":"4","last_reported":1750259472,"current_range_meters":16000,"station_id":"ce4bhmp2rcd13ifvqgog","pricing_plan_id":"cebpf4jnsgd1na2vs0mg"},{"bike_id":"d6b59448-6161-4e70-befd-235ecc0fb1fc","system_id":"levelo_inurba_marseille","lat":43.23189,"lon":5.35578,"is_reserved":false,"is_disabled":false,"rental_uris":{"android":"levelo://app?vid=d6b59448-6161-4e70-befd-235ecc0fb1fc","ios":"levelo://app?vid=d6b59448-6161-4e70-befd-235ecc0fb1fc"},"vehicle_type_id":"4","last_reported":1750259472,"current_range_meters":16000,"station_id":"ce4bhu92rcd13ifvqi70","pricing_plan_id":"cebpf4jnsgd1na2vs0mg"},{"bike_id":"eaaa9fcd-34d4-4d0b-8f90-fbf605a0610f","system_id":"levelo_inurba_marseille","lat":43.21199,"lon":5.35081,"is_reserved":false,"is_disabled":false,"rental_uris":{"android":"levelo://app?vid=eaaa9fcd-34d4-4d0b-8f90-fbf605a0610f","ios":"levelo://app?vid=eaaa9fcd-34d4-4d0b-8f90-fbf605a0610f"},"vehicle_type_id":"4","last_reported":1750259472,"current_range_meters":16000,"station_id":"st_cvj6sg6p6f1abm77japg","pricing_plan_id":"cebpf4jnsgd1na2vs0mg"},{"bike_id":"e921cee3-b8ce-4c00-b7eb-8ab335b5e125","system_id":"levelo_inurba_marseille","lat":43.301951,"lon":5.422716,"is_reserved":false,"is_disabled":false,"rental_uris":{"android":"levelo://app?vid=e921cee3-b8ce-4c00-b7eb-8ab335b5e125","ios":"levelo://app?vid=e921cee3-b8ce-4c00-b7eb-8ab335b5e125"},"vehicle_type_id":"4","last_reported":1750259472,"current_range_meters":16400,"station_id":"","pricing_plan_id":"cebpf4jnsgd1na2vs0mg"},{"bike_id":"3eb9992a-e24a-4ed3-bd44-5e035e6e973e","system_id":"levelo_inurba_marseille","lat":43.31297,"lon":5.37884,"is_reserved":false,"is_disabled":false,"rental_uris":{"android":"levelo://app?vid=3eb9992a-e24a-4ed3-bd44-5e035e6e973e","ios":"levelo://app?vid=3eb9992a-e24a-4ed3-bd44-5e035e6e973e"},"vehicle_type_id":"4","last_reported":1750259472,"current_range_meters":16400,"station_id":"","pricing_plan_id":"cebpf4jnsgd1na2vs0mg"},{"bike_id":"40f0b07d-e863-40dd-a969-12c6efebf098","system_id":"levelo_inurba_marseille","lat":43.30422,"lon":5.38887,"is_reserved":false,"is_disabled":false,"rental_uris":{"android":"levelo://app?vid=40f0b07d-e863-40dd-a969-12c6efebf098","ios":"levelo://app?vid=40f0b07d-e863-40dd-a969-12c6efebf098"},"vehicle_type_id":"4","last_reported":1750259472,"current_range_meters":16400,"station_id":"ce4bgk12rcd13ifvqbi0","pricing_plan_id":"cebpf4jnsgd1na2vs0mg"},{"bike_id":"f9b66d6b-d00c-48f3-ae8e-444dc6752b49","system_id":"levelo_inurba_marseille","lat":43.30541,"lon":5.36548,"is_reserved":false,"is_disabled":false,"rental_uris":{"android":"levelo://app?vid=f9b66d6b-d00c-48f3-ae8e-444dc6752b49","ios":"levelo://app?vid=f9b66d6b-d00c-48f3-ae8e-444dc6752b49"},"vehicle_type_id":"4","last_reported":1750259472,"current_range_meters":16400,"station_id":"ce4bgs12rcd13ifvqcag","pricing_plan_id":"cebpf4jnsgd1na2vs0mg"},{"bike_id":"de3fd6e3-2f56-4b85-b784-11a799eec8e6","system_id":"levelo_inurba_marseille","lat":43.27381,"lon":5.36254,"is_reserved":false,"is_disabled":false,"rental_uris":{"android":"levelo://app?vid=de3fd6e3-2f56-4b85-b784-11a799eec8e6","ios":"levelo://app?vid=de3fd6e3-2f56-4b85-b784-11a799eec8e6"},"vehicle_type_id":"4","last_reported":1750259472,"current_range_meters":16400,"station_id":"ce4bhbh2rcd13ifvqeo0","pricing_plan_id":"cebpf4jnsgd1na2vs0mg"},{"bike_id":"80b25b1e-ae9d-4532-96ff-2d177cda8073","system_id":"levelo_inurba_marseille","lat":43.28616,"lon":5.35108,"is_reserved":false,"is_disabled":false,"rental_uris":{"android":"levelo://app?vid=80b25b1e-ae9d-4532-96ff-2d177cda8073","ios":"levelo://app?vid=80b25b1e-ae9d-4532-96ff-2d177cda8073"},"vehicle_type_id":"4","last_reported":1750259472,"current_range_meters":16400,"station_id":"ce4bhch2rcd13ifvqeug","pricing_plan_id":"cebpf4jnsgd1na2vs0mg"},{"bike_id":"caa7a473-a728-4942-9155-61ec407abffe","system_id":"levelo_inurba_marseille","lat":43.26205,"lon":5.379315,"is_reserved":false,"is_disabled":false,"rental_uris":{"android":"levelo://app?vid=caa7a473-a728-4942-9155-61ec407abffe","ios":"levelo://app?vid=caa7a473-a728-4942-9155-61ec407abffe"},"vehicle_type_id":"4","last_reported":1750259472,"current_range_meters":16400,"station_id":"ce4bhjp2rcd13ifvqg90","pricing_plan_id":"cebpf4jnsgd1na2vs0mg"},{"bike_id":"390b8ed5-abf6-4fcf-9370-66dd64d65ab8","system_id":"levelo_inurba_marseille","lat":43.21753,"lon":5.34602,"is_reserved":false,"is_disabled":false,"rental_uris":{"android":"levelo://app?vid=390b8ed5-abf6-4fcf-9370-66dd64d65ab8","ios":"levelo://app?vid=390b8ed5-abf6-4fcf-9370-66dd64d65ab8"},"vehicle_type_id":"4","last_reported":1750259472,"current_range_meters":16400,"station_id":"st_cvj6r9ubvosntc0bgbag","pricing_plan_id":"cebpf4jnsgd1na2vs0mg"},{"bike_id":"46da6a56-256e-4e41-a78c-d7b189c1acce","system_id":"levelo_inurba_marseille","lat":43.29525,"lon":5.37512,"is_reserved":false,"is_disabled":false,"rental_uris":{"android":"levelo://app?vid=46da6a56-256e-4e41-a78c-d7b189c1acce","ios":"levelo://app?vid=46da6a56-256e-4e41-a78c-d7b189c1acce"},"vehicle_type_id":"4","last_reported":1750259472,"current_range_meters":16800,"station_id":"ce4bgkp2rcd13ifvqbmg","pricing_plan_id":"cebpf4jnsgd1na2vs0mg"},{"bike_id":"fb8b2b22-5b3a-4c23-b9a4-1876a44cb4a6","system_id":"levelo_inurba_marseille","lat":43.30804,"lon":5.38146,"is_reserved":false,"is_disabled":false,"rental_uris":{"android":"levelo://app?vid=fb8b2b22-5b3a-4c23-b9a4-1876a44cb4a6","ios":"levelo://app?vid=fb8b2b22-5b3a-4c23-b9a4-1876a44cb4a6"},"vehicle_type_id":"4","last_reported":1750259472,"current_range_meters":16800,"station_id":"ce4bgt12rcd13ifvqce0","pricing_plan_id":"cebpf4jnsgd1na2vs0mg"},{"bike_id":"e7dad37e-e27e-45a3-98af-53555fde6281","system_id":"levelo_inurba_marseille","lat":43.28278,"lon":5.35067,"is_reserved":false,"is_disabled":false,"rental_uris":{"android":"levelo://app?vid=e7dad37e-e27e-45a3-98af-53555fde6281","ios":"levelo://app?vid=e7dad37e-e27e-45a3-98af-53555fde6281"},"vehicle_type_id":"4","last_reported":1750259472,"current_range_meters":16800,"station_id":"ce4bhbp2rcd13ifvqerg","pricing_plan_id":"cebpf4jnsgd1na2vs0mg"},{"bike_id":"092dee0e-5c68-4681-9910-bf998c009662","system_id":"levelo_inurba_marseille","lat":43.28629,"lon":5.35115,"is_reserved":false,"is_disabled":false,"rental_uris":{"android":"levelo://app?vid=092dee0e-5c68-4681-9910-bf998c009662","ios":"levelo://app?vid=092dee0e-5c68-4681-9910-bf998c009662"},"vehicle_type_id":"4","last_reported":1750259472,"current_range_meters":16800,"station_id":"ce4bhch2rcd13ifvqeug","pricing_plan_id":"cebpf4jnsgd1na2vs0mg"},{"bike_id":"ca17c611-8a47-42a0-bb1e-ca22e1401919","system_id":"levelo_inurba_marseille","lat":43.262159,"lon":5.374388,"is_reserved":false,"is_disabled":false,"rental_uris":{"android":"levelo://app?vid=ca17c611-8a47-42a0-bb1e-ca22e1401919","ios":"levelo://app?vid=ca17c611-8a47-42a0-bb1e-ca22e1401919"},"vehicle_type_id":"4","last_reported":1750259472,"current_range_meters":16800,"station_id":"ce4bhgp2rcd13ifvqfc0","pricing_plan_id":"cebpf4jnsgd1na2vs0mg"},{"bike_id":"6cb48f54-41ac-4833-b5b3-f59098492f48","system_id":"levelo_inurba_marseille","lat":43.27208,"lon":5.39172,"is_reserved":false,"is_disabled":false,"rental_uris":{"android":"levelo://app?vid=6cb48f54-41ac-4833-b5b3-f59098492f48","ios":"levelo://app?vid=6cb48f54-41ac-4833-b5b3-f59098492f48"},"vehicle_type_id":"4","last_reported":1750259472,"current_range_meters":16800,"station_id":"ce4bhhp2rcd13ifvqfm0","pricing_plan_id":"cebpf4jnsgd1na2vs0mg"},{"bike_id":"89d41de7-1893-47a7-aa78-d453dc2df427","system_id":"levelo_inurba_marseille","lat":43.262085,"lon":5.379291,"is_reserved":false,"is_disabled":false,"rental_uris":{"android":"levelo://app?vid=89d41de7-1893-47a7-aa78-d453dc2df427","ios":"levelo://app?vid=89d41de7-1893-47a7-aa78-d453dc2df427"},"vehicle_type_id":"4","last_reported":1750259472,"current_range_meters":16800,"station_id":"ce4bhjp2rcd13ifvqg90","pricing_plan_id":"cebpf4jnsgd1na2vs0mg"},{"bike_id":"bc23166e-55f9-473c-ba93-87dd12173a65","system_id":"levelo_inurba_marseille","lat":43.24067,"lon":5.377657,"is_reserved":false,"is_disabled":false,"rental_uris":{"android":"levelo://app?vid=bc23166e-55f9-473c-ba93-87dd12173a65","ios":"levelo://app?vid=bc23166e-55f9-473c-ba93-87dd12173a65"},"vehicle_type_id":"4","last_reported":1750259472,"current_range_meters":16800,"station_id":"ce4bhnp2rcd13ifvqgvg","pricing_plan_id":"cebpf4jnsgd1na2vs0mg"},{"bike_id":"744f0163-1137-46db-835e-c2dc58d25488","system_id":"levelo_inurba_marseille","lat":43.22929,"lon":5.35386,"is_reserved":false,"is_disabled":false,"rental_uris":{"android":"levelo://app?vid=744f0163-1137-46db-835e-c2dc58d25488","ios":"levelo://app?vid=744f0163-1137-46db-835e-c2dc58d25488"},"vehicle_type_id":"4","last_reported":1750259472,"current_range_meters":16800,"station_id":"cpo3532slgdg3j2ikp40","pricing_plan_id":"cebpf4jnsgd1na2vs0mg"},{"bike_id":"744b1c90-170f-4e99-8fd9-ae1376712de0","system_id":"levelo_inurba_marseille","lat":43.21755,"lon":5.34603,"is_reserved":false,"is_disabled":false,"rental_uris":{"android":"levelo://app?vid=744b1c90-170f-4e99-8fd9-ae1376712de0","ios":"levelo://app?vid=744b1c90-170f-4e99-8fd9-ae1376712de0"},"vehicle_type_id":"4","last_reported":1750259472,"current_range_meters":16800,"station_id":"st_cvj6r9ubvosntc0bgbag","pricing_plan_id":"cebpf4jnsgd1na2vs0mg"},{"bike_id":"59b01bdf-7c4b-43f7-b2b4-8518cda98383","system_id":"levelo_inurba_marseille","lat":43.21751,"lon":5.346,"is_reserved":false,"is_disabled":false,"rental_uris":{"android":"levelo://app?vid=59b01bdf-7c4b-43f7-b2b4-8518cda98383","ios":"levelo://app?vid=59b01bdf-7c4b-43f7-b2b4-8518cda98383"},"vehicle_type_id":"4","last_reported":1750259472,"current_range_meters":16800,"station_id":"st_cvj6r9ubvosntc0bgbag","pricing_plan_id":"cebpf4jnsgd1na2vs0mg"},{"bike_id":"4b6b2a2b-d3c4-4663-8ea1-de4eff39b7b2","system_id":"levelo_inurba_marseille","lat":43.21195,"lon":5.35077,"is_reserved":false,"is_disabled":false,"rental_uris":{"android":"levelo://app?vid=4b6b2a2b-d3c4-4663-8ea1-de4eff39b7b2","ios":"levelo://app?vid=4b6b2a2b-d3c4-4663-8ea1-de4eff39b7b2"},"vehicle_type_id":"4","last_reported":1750259472,"current_range_meters":16800,"station_id":"st_cvj6sg6p6f1abm77japg","pricing_plan_id":"cebpf4jnsgd1na2vs0mg"},{"bike_id":"77ac8037-3c3c-493a-82c2-904a9ad6c7d0","system_id":"levelo_inurba_marseille","lat":43.26833,"lon":5.3905,"is_reserved":false,"is_disabled":false,"rental_uris":{"android":"levelo://app?vid=77ac8037-3c3c-493a-82c2-904a9ad6c7d0","ios":"levelo://app?vid=77ac8037-3c3c-493a-82c2-904a9ad6c7d0"},"vehicle_type_id":"4","last_reported":1750259472,"current_range_meters":17200,"station_id":"","pricing_plan_id":"cebpf4jnsgd1na2vs0mg"},{"bike_id":"81390936-03c0-4e89-94ae-9f9ab06829d5","system_id":"levelo_inurba_marseille","lat":43.3044,"lon":5.38847,"is_reserved":false,"is_disabled":false,"rental_uris":{"android":"levelo://app?vid=81390936-03c0-4e89-94ae-9f9ab06829d5","ios":"levelo://app?vid=81390936-03c0-4e89-94ae-9f9ab06829d5"},"vehicle_type_id":"4","last_reported":1750259472,"current_range_meters":17200,"station_id":"ce4bgk12rcd13ifvqbi0","pricing_plan_id":"cebpf4jnsgd1na2vs0mg"},{"bike_id":"16897525-bd0e-46dc-b4c9-a9157715bdbc","system_id":"levelo_inurba_marseille","lat":43.29518,"lon":5.39399,"is_reserved":false,"is_disabled":false,"rental_uris":{"android":"levelo://app?vid=16897525-bd0e-46dc-b4c9-a9157715bdbc","ios":"levelo://app?vid=16897525-bd0e-46dc-b4c9-a9157715bdbc"},"vehicle_type_id":"4","last_reported":1750259472,"current_range_meters":17200,"station_id":"ce4bh292rcd13ifvqdf0","pricing_plan_id":"cebpf4jnsgd1na2vs0mg"},{"bike_id":"130428e0-68b5-4aff-a260-9f102d8ed8d3","system_id":"levelo_inurba_marseille","lat":43.28253,"lon":5.35076,"is_reserved":false,"is_disabled":false,"rental_uris":{"android":"levelo://app?vid=130428e0-68b5-4aff-a260-9f102d8ed8d3","ios":"levelo://app?vid=130428e0-68b5-4aff-a260-9f102d8ed8d3"},"vehicle_type_id":"4","last_reported":1750259472,"current_range_meters":17200,"station_id":"ce4bhbp2rcd13ifvqerg","pricing_plan_id":"cebpf4jnsgd1na2vs0mg"},{"bike_id":"f57c3844-b35c-4829-beb0-bce318ebc4f4","system_id":"levelo_inurba_marseille","lat":43.28617,"lon":5.35105,"is_reserved":false,"is_disabled":false,"rental_uris":{"android":"levelo://app?vid=f57c3844-b35c-4829-beb0-bce318ebc4f4","ios":"levelo://app?vid=f57c3844-b35c-4829-beb0-bce318ebc4f4"},"vehicle_type_id":"4","last_reported":1750259472,"current_range_meters":17200,"station_id":"ce4bhch2rcd13ifvqeug","pricing_plan_id":"cebpf4jnsgd1na2vs0mg"},{"bike_id":"d9a1cc3b-64c2-49fc-ba12-fb7514a25935","system_id":"levelo_inurba_marseille","lat":43.26214,"lon":5.37446,"is_reserved":false,"is_disabled":false,"rental_uris":{"android":"levelo://app?vid=d9a1cc3b-64c2-49fc-ba12-fb7514a25935","ios":"levelo://app?vid=d9a1cc3b-64c2-49fc-ba12-fb7514a25935"},"vehicle_type_id":"4","last_reported":1750259472,"current_range_meters":17200,"station_id":"ce4bhgp2rcd13ifvqfc0","pricing_plan_id":"cebpf4jnsgd1na2vs0mg"},{"bike_id":"73e60e02-e6a7-4b89-9541-57b7de048bfb","system_id":"levelo_inurba_marseille","lat":43.25582,"lon":5.38245,"is_reserved":false,"is_disabled":false,"rental_uris":{"android":"levelo://app?vid=73e60e02-e6a7-4b89-9541-57b7de048bfb","ios":"levelo://app?vid=73e60e02-e6a7-4b89-9541-57b7de048bfb"},"vehicle_type_id":"4","last_reported":1750259472,"current_range_meters":17200,"station_id":"ce4bhih2rcd13ifvqfs0","pricing_plan_id":"cebpf4jnsgd1na2vs0mg"},{"bike_id":"bae15b76-842a-4a74-8145-0a580ef8eccb","system_id":"levelo_inurba_marseille","lat":43.23178,"lon":5.39986,"is_reserved":false,"is_disabled":false,"rental_uris":{"android":"levelo://app?vid=bae15b76-842a-4a74-8145-0a580ef8eccb","ios":"levelo://app?vid=bae15b76-842a-4a74-8145-0a580ef8eccb"},"vehicle_type_id":"4","last_reported":1750259472,"current_range_meters":17200,"station_id":"ce4bhn12rcd13ifvqgqg","pricing_plan_id":"cebpf4jnsgd1na2vs0mg"},{"bike_id":"a004d7f2-75e1-49e9-b073-ad13bcf23d1e","system_id":"levelo_inurba_marseille","lat":43.23178,"lon":5.35593,"is_reserved":false,"is_disabled":false,"rental_uris":{"android":"levelo://app?vid=a004d7f2-75e1-49e9-b073-ad13bcf23d1e","ios":"levelo://app?vid=a004d7f2-75e1-49e9-b073-ad13bcf23d1e"},"vehicle_type_id":"4","last_reported":1750259472,"current_range_meters":17200,"station_id":"ce4bhu92rcd13ifvqi70","pricing_plan_id":"cebpf4jnsgd1na2vs0mg"},{"bike_id":"d7c3225d-3afe-4b95-bf0f-2e4324b5050d","system_id":"levelo_inurba_marseille","lat":43.23059,"lon":5.35496,"is_reserved":false,"is_disabled":false,"rental_uris":{"android":"levelo://app?vid=d7c3225d-3afe-4b95-bf0f-2e4324b5050d","ios":"levelo://app?vid=d7c3225d-3afe-4b95-bf0f-2e4324b5050d"},"vehicle_type_id":"4","last_reported":1750259472,"current_range_meters":17200,"station_id":"cpo3342slgdg3j2ifvpg","pricing_plan_id":"cebpf4jnsgd1na2vs0mg"},{"bike_id":"e5863b13-0bb4-41ee-a7a1-72091c1036b5","system_id":"levelo_inurba_marseille","lat":43.31608,"lon":5.3839,"is_reserved":false,"is_disabled":false,"rental_uris":{"android":"levelo://app?vid=e5863b13-0bb4-41ee-a7a1-72091c1036b5","ios":"levelo://app?vid=e5863b13-0bb4-41ee-a7a1-72091c1036b5"},"vehicle_type_id":"4","last_reported":1750259472,"current_range_meters":17600,"station_id":"","pricing_plan_id":"cebpf4jnsgd1na2vs0mg"},{"bike_id":"6c42bf7a-d42c-474e-96e1-0831274cb28c","system_id":"levelo_inurba_marseille","lat":43.31325,"lon":5.39688,"is_reserved":false,"is_disabled":false,"rental_uris":{"android":"levelo://app?vid=6c42bf7a-d42c-474e-96e1-0831274cb28c","ios":"levelo://app?vid=6c42bf7a-d42c-474e-96e1-0831274cb28c"},"vehicle_type_id":"4","last_reported":1750259472,"current_range_meters":17600,"station_id":"ce4bgvp2rcd13ifvqcu0","pricing_plan_id":"cebpf4jnsgd1na2vs0mg"},{"bike_id":"7eaae68b-cc21-4604-bf7e-22ae4066ed34","system_id":"levelo_inurba_marseille","lat":43.30645,"lon":5.40081,"is_reserved":false,"is_disabled":false,"rental_uris":{"android":"levelo://app?vid=7eaae68b-cc21-4604-bf7e-22ae4066ed34","ios":"levelo://app?vid=7eaae68b-cc21-4604-bf7e-22ae4066ed34"},"vehicle_type_id":"4","last_reported":1750259472,"current_range_meters":17600,"station_id":"ce4bh112rcd13ifvqda0","pricing_plan_id":"cebpf4jnsgd1na2vs0mg"},{"bike_id":"9a91b7d2-bdc3-4c07-98a2-679539e31782","system_id":"levelo_inurba_marseille","lat":43.28706,"lon":5.37392,"is_reserved":false,"is_disabled":false,"rental_uris":{"android":"levelo://app?vid=9a91b7d2-bdc3-4c07-98a2-679539e31782","ios":"levelo://app?vid=9a91b7d2-bdc3-4c07-98a2-679539e31782"},"vehicle_type_id":"4","last_reported":1750259472,"current_range_meters":17600,"station_id":"ce4bh3p2rcd13ifvqdq0","pricing_plan_id":"cebpf4jnsgd1na2vs0mg"},{"bike_id":"a1c3599a-e54a-42d7-b0ec-68b726909ec8","system_id":"levelo_inurba_marseille","lat":43.28425,"lon":5.34993,"is_reserved":false,"is_disabled":false,"rental_uris":{"android":"levelo://app?vid=a1c3599a-e54a-42d7-b0ec-68b726909ec8","ios":"levelo://app?vid=a1c3599a-e54a-42d7-b0ec-68b726909ec8"},"vehicle_type_id":"4","last_reported":1750259472,"current_range_meters":17600,"station_id":"ce4bhbh2rcd13ifvqepg","pricing_plan_id":"cebpf4jnsgd1na2vs0mg"},{"bike_id":"a4a1f81d-f1d3-4a18-91ac-e86adf4b0027","system_id":"levelo_inurba_marseille","lat":43.28273,"lon":5.35083,"is_reserved":false,"is_disabled":false,"rental_uris":{"android":"levelo://app?vid=a4a1f81d-f1d3-4a18-91ac-e86adf4b0027","ios":"levelo://app?vid=a4a1f81d-f1d3-4a18-91ac-e86adf4b0027"},"vehicle_type_id":"4","last_reported":1750259472,"current_range_meters":17600,"station_id":"ce4bhbp2rcd13ifvqerg","pricing_plan_id":"cebpf4jnsgd1na2vs0mg"},{"bike_id":"d3eccb2b-8808-4f8a-b2e4-99ca1d6549a8","system_id":"levelo_inurba_marseille","lat":43.28616,"lon":5.35104,"is_reserved":false,"is_disabled":false,"rental_uris":{"android":"levelo://app?vid=d3eccb2b-8808-4f8a-b2e4-99ca1d6549a8","ios":"levelo://app?vid=d3eccb2b-8808-4f8a-b2e4-99ca1d6549a8"},"vehicle_type_id":"4","last_reported":1750259472,"current_range_meters":17600,"station_id":"ce4bhch2rcd13ifvqeug","pricing_plan_id":"cebpf4jnsgd1na2vs0mg"},{"bike_id":"bcc573f7-4885-4e01-a82f-f27d067ecde3","system_id":"levelo_inurba_marseille","lat":43.2418,"lon":5.39717,"is_reserved":false,"is_disabled":false,"rental_uris":{"android":"levelo://app?vid=bcc573f7-4885-4e01-a82f-f27d067ecde3","ios":"levelo://app?vid=bcc573f7-4885-4e01-a82f-f27d067ecde3"},"vehicle_type_id":"4","last_reported":1750259472,"current_range_meters":17600,"station_id":"ce4bhn12rcd13ifvqgpg","pricing_plan_id":"cebpf4jnsgd1na2vs0mg"},{"bike_id":"5bfceb6b-ff2b-4520-b851-907407b10ea3","system_id":"levelo_inurba_marseille","lat":43.30874,"lon":5.37204,"is_reserved":false,"is_disabled":false,"rental_uris":{"android":"levelo://app?vid=5bfceb6b-ff2b-4520-b851-907407b10ea3","ios":"levelo://app?vid=5bfceb6b-ff2b-4520-b851-907407b10ea3"},"vehicle_type_id":"4","last_reported":1750259472,"current_range_meters":18000,"station_id":"ce4bguh2rcd13ifvqckg","pricing_plan_id":"cebpf4jnsgd1na2vs0mg"},{"bike_id":"96abcc7e-772c-4699-b670-e00eebb0fc7d","system_id":"levelo_inurba_marseille","lat":43.28572,"lon":5.39506,"is_reserved":false,"is_disabled":false,"rental_uris":{"android":"levelo://app?vid=96abcc7e-772c-4699-b670-e00eebb0fc7d","ios":"levelo://app?vid=96abcc7e-772c-4699-b670-e00eebb0fc7d"},"vehicle_type_id":"4","last_reported":1750259472,"current_range_meters":18000,"station_id":"ce4bh292rcd13ifvqdg0","pricing_plan_id":"cebpf4jnsgd1na2vs0mg"},{"bike_id":"cb741fde-0f2c-408d-94a8-ffe393f7a7de","system_id":"levelo_inurba_marseille","lat":43.2886,"lon":5.35834,"is_reserved":false,"is_disabled":false,"rental_uris":{"android":"levelo://app?vid=cb741fde-0f2c-408d-94a8-ffe393f7a7de","ios":"levelo://app?vid=cb741fde-0f2c-408d-94a8-ffe393f7a7de"},"vehicle_type_id":"4","last_reported":1750259472,"current_range_meters":18000,"station_id":"ce4bhb12rcd13ifvqem0","pricing_plan_id":"cebpf4jnsgd1na2vs0mg"},{"bike_id":"8ab37ab0-94dc-435d-b77b-2a44ebf6fdb1","system_id":"levelo_inurba_marseille","lat":43.273729,"lon":5.3626,"is_reserved":false,"is_disabled":false,"rental_uris":{"android":"levelo://app?vid=8ab37ab0-94dc-435d-b77b-2a44ebf6fdb1","ios":"levelo://app?vid=8ab37ab0-94dc-435d-b77b-2a44ebf6fdb1"},"vehicle_type_id":"4","last_reported":1750259472,"current_range_meters":18000,"station_id":"ce4bhbh2rcd13ifvqeo0","pricing_plan_id":"cebpf4jnsgd1na2vs0mg"},{"bike_id":"c733d4b0-41d4-4805-acb6-89e37cdaf5fc","system_id":"levelo_inurba_marseille","lat":43.28418,"lon":5.34986,"is_reserved":false,"is_disabled":false,"rental_uris":{"android":"levelo://app?vid=c733d4b0-41d4-4805-acb6-89e37cdaf5fc","ios":"levelo://app?vid=c733d4b0-41d4-4805-acb6-89e37cdaf5fc"},"vehicle_type_id":"4","last_reported":1750259472,"current_range_meters":18000,"station_id":"ce4bhbh2rcd13ifvqepg","pricing_plan_id":"cebpf4jnsgd1na2vs0mg"},{"bike_id":"3faa3961-acba-40c7-9213-4c174004efab","system_id":"levelo_inurba_marseille","lat":43.28411,"lon":5.35,"is_reserved":false,"is_disabled":false,"rental_uris":{"android":"levelo://app?vid=3faa3961-acba-40c7-9213-4c174004efab","ios":"levelo://app?vid=3faa3961-acba-40c7-9213-4c174004efab"},"vehicle_type_id":"4","last_reported":1750259472,"current_range_meters":18000,"station_id":"ce4bhbh2rcd13ifvqepg","pricing_plan_id":"cebpf4jnsgd1na2vs0mg"},{"bike_id":"97583c32-c754-49c7-94c2-ece514471ae0","system_id":"levelo_inurba_marseille","lat":43.2862,"lon":5.35101,"is_reserved":false,"is_disabled":false,"rental_uris":{"android":"levelo://app?vid=97583c32-c754-49c7-94c2-ece514471ae0","ios":"levelo://app?vid=97583c32-c754-49c7-94c2-ece514471ae0"},"vehicle_type_id":"4","last_reported":1750259472,"current_range_meters":18000,"station_id":"ce4bhch2rcd13ifvqeug","pricing_plan_id":"cebpf4jnsgd1na2vs0mg"},{"bike_id":"8c5cd972-5b0f-4432-a392-d321c9174cb4","system_id":"levelo_inurba_marseille","lat":43.23145,"lon":5.4372,"is_reserved":false,"is_disabled":false,"rental_uris":{"android":"levelo://app?vid=8c5cd972-5b0f-4432-a392-d321c9174cb4","ios":"levelo://app?vid=8c5cd972-5b0f-4432-a392-d321c9174cb4"},"vehicle_type_id":"4","last_reported":1750259472,"current_range_meters":18000,"station_id":"ce4bhmp2rcd13ifvqgog","pricing_plan_id":"cebpf4jnsgd1na2vs0mg"},{"bike_id":"9330ddf8-19a2-4f7e-a642-64601f2da5de","system_id":"levelo_inurba_marseille","lat":43.24067,"lon":5.37768,"is_reserved":false,"is_disabled":false,"rental_uris":{"android":"levelo://app?vid=9330ddf8-19a2-4f7e-a642-64601f2da5de","ios":"levelo://app?vid=9330ddf8-19a2-4f7e-a642-64601f2da5de"},"vehicle_type_id":"4","last_reported":1750259472,"current_range_meters":18000,"station_id":"ce4bhnp2rcd13ifvqgvg","pricing_plan_id":"cebpf4jnsgd1na2vs0mg"},{"bike_id":"833b16e1-97ec-4192-81e4-91877b340a52","system_id":"levelo_inurba_marseille","lat":43.32477,"lon":5.36566,"is_reserved":false,"is_disabled":false,"rental_uris":{"android":"levelo://app?vid=833b16e1-97ec-4192-81e4-91877b340a52","ios":"levelo://app?vid=833b16e1-97ec-4192-81e4-91877b340a52"},"vehicle_type_id":"4","last_reported":1750259472,"current_range_meters":18000,"station_id":"ce4bhs12rcd13ifvqhvg","pricing_plan_id":"cebpf4jnsgd1na2vs0mg"},{"bike_id":"a52c398e-80c6-403b-8a57-70006c3a9fac","system_id":"levelo_inurba_marseille","lat":43.22935,"lon":5.35387,"is_reserved":false,"is_disabled":false,"rental_uris":{"android":"levelo://app?vid=a52c398e-80c6-403b-8a57-70006c3a9fac","ios":"levelo://app?vid=a52c398e-80c6-403b-8a57-70006c3a9fac"},"vehicle_type_id":"4","last_reported":1750259472,"current_range_meters":18000,"station_id":"cpo3532slgdg3j2ikp40","pricing_plan_id":"cebpf4jnsgd1na2vs0mg"},