{"last_updated":1758874469,"ttl":60,"version":"2.2","data":{"bikes":[{"bike_id":"bf302821-1642-4d9f-b7da-fd184a6bfd2b","system_id":"levelo_inurba_marseille","lat":43.27372,"lon":5.36243,"is_reserved":false,"is_disabled":false,"rental_uris":{"android":"levelo://app?vid=bf302821-1642-4d9f-b7da-fd184a6bfd2b","ios":"levelo://app?vid=bf302821-1642-4d9f-b7da-fd184a6bfd2b"},"vehicle_type_id":"4","last_reported":1758874469,"current_range_meters":2800,"station_id":"ce4bhbh2rcd13ifvqeo0","pricing_plan_id":"cebpf4jnsgd1na2vs0mg"},{"bike_id":"12e1485f-a9c8-4411-b5e4-34bfaf6030a4","system_id":"levelo_inurba_marseille","lat":43.292031,"lon":5.393114,"is_reserved":false,"is_disabled":false,"rental_uris":{"android":"levelo://app?vid=12e1485f-a9c8-4411-b5e4-34bfaf6030a4","ios":"levelo://app?vid=12e1485f-a9c8-4411-b5e4-34bfaf6030a4"},"vehicle_type_id":"4","last_reported":1758874469,"current_range_meters":3200,"station_id":"ce4bh192rcd13ifvqdd0","pricing_plan_id":"cebpf4jnsgd1na2vs0mg"},{"bike_id":"c1037910-9f8b-4dd8-8c65-9383f35c162b","system_id":"levelo_inurba_marseille","lat":43.24084,"lon":5.37749,"is_reserved":false,"is_disabled":false,"rental_uris":{"android":"levelo://app?vid=c1037910-9f8b-4dd8-8c65-9383f35c162b","ios":"levelo://app?vid=c1037910-9f8b-4dd8-8c65-9383f35c162b"},"vehicle_type_id":"4","last_reported":1758874469,"current_range_meters":3200,"station_id":"ce4bhnp2rcd13ifvqgvg","pricing_plan_id":"cebpf4jnsgd1na2vs0mg"},{"bike_id":"7ed33cf5-c025-4fca-b62d-66fe538c64b8","system_id":"levelo_inurba_marseille","lat":43.31213,"lon":5.36844,"is_reserved":false,"is_disabled":false,"rental_uris":{"android":"levelo://app?vid=7ed33cf5-c025-4fca-b62d-66fe538c64b8","ios":"levelo://app?vid=7ed33cf5-c025-4fca-b62d-66fe538c64b8"},"vehicle_type_id":"4","last_reported":1758874469,"current_range_meters":3200,"station_id":"ce4bgl92rcd13ifvqbq0","pricing_plan_id":"cebpf4jnsgd1na2vs0mg"},{"bike_id":"9c4a7bdb-c552-4dfd-8efb-40b9e0b0b147","system_id":"levelo_inurba_marseille","lat":43.309252,"lon":5.367439,"is_reserved":false,"is_disabled":false,"rental_uris":{"android":"levelo://app?vid=9c4a7bdb-c552-4dfd-8efb-40b9e0b0b147","ios":"levelo://app?vid=9c4a7bdb-c552-4dfd-8efb-40b9e0b0b147"},"vehicle_type_id":"4","last_reported":1758874469,"current_range_meters":3200,"station_id":"","pricing_plan_id":"cebpf4jnsgd1na2vs0mg"},{"bike_id":"e325525b-66e8-49e7-b1d3-d32cc71e8502","system_id":"levelo_inurba_marseille","lat":43.2826,"lon":5.35083,"is_reserved":false,"is_disabled":false,"rental_uris":{"android":"levelo://app?vid=e325525b-66e8-49e7-b1d3-d32cc71e8502","ios":"levelo://app?vid=e325525b-66e8-49e7-b1d3-d32cc71e8502"},"vehicle_type_id":"4","last_reported":1758874469,"current_range_meters":3200,"station_id":"ce4bhbp2rcd13ifvqerg","pricing_plan_id":"cebpf4jnsgd1na2vs0mg"},{"bike_id":"136a707a-b224-4c44-8119-f846f7b7d0a7","system_id":"levelo_inurba_marseille","lat":43.29516,"lon":5.37375,"is_reserved":false,"is_disabled":false,"rental_uris":{"android":"levelo://app?vid=136a707a-b224-4c44-8119-f846f7b7d0a7","ios":"levelo://app?vid=136a707a-b224-4c44-8119-f846f7b7d0a7"},"vehicle_type_id":"4","last_reported":1758874469,"current_range_meters":3600,"station_id":"","pricing_plan_id":"cebpf4jnsgd1na2vs0mg"},{"bike_id":"4e737411-53ce-4bdf-9802-c3bc30d9bc94","system_id":"levelo_inurba_marseille","lat":43.295504,"lon":5.406281,"is_reserved":false,"is_disabled":false,"rental_uris":{"android":"levelo://app?vid=4e737411-53ce-4bdf-9802-c3bc30d9bc94","ios":"levelo://app?vid=4e737411-53ce-4bdf-9802-c3bc30d9bc94"},"vehicle_type_id":"4","last_reported":1758874469,"current_range_meters":3600,"station_id":"","pricing_plan_id":"cebpf4jnsgd1na2vs0mg"},{"bike_id":"eac30b29-54dc-4408-9100-5711cb6ad9ba","system_id":"levelo_inurba_marseille","lat":43.240688,"lon":5.377629,"is_reserved":false,"is_disabled":false,"rental_uris":{"android":"levelo://app?vid=eac30b29-54dc-4408-9100-5711cb6ad9ba","ios":"levelo://app?vid=eac30b29-54dc-4408-9100-5711cb6ad9ba"},"vehicle_type_id":"4","last_reported":1758874469,"current_range_meters":3600,"station_id":"ce4bhnp2rcd13ifvqgvg","pricing_plan_id":"cebpf4jnsgd1na2vs0mg"},{"bike_id":"8d731f86-93c0-4090-9c56-28fae2a352c6","system_id":"levelo_inurba_marseille","lat":43.25868,"lon":5.39894,"is_reserved":false,"is_disabled":false,"rental_uris":{"android":"levelo://app?vid=8d731f86-93c0-4090-9c56-28fae2a352c6","ios":"levelo://app?vid=8d731f86-93c0-4090-9c56-28fae2a352c6"},"vehicle_type_id":"4","last_reported":1758874469,"current_range_meters":3600,"station_id":"ce4bhl92rcd13ifvqghg","pricing_plan_id":"cebpf4jnsgd1na2vs0mg"},{"bike_id":"1ac680ec-2697-4199-bbea-78eaf1ea8517","system_id":"levelo_inurba_marseille","lat":43.231741,"lon":5.437522,"is_reserved":false,"is_disabled":false,"rental_uris":{"android":"levelo://app?vid=1ac680ec-2697-4199-bbea-78eaf1ea8517","ios":"levelo://app?vid=1ac680ec-2697-4199-bbea-78eaf1ea8517"},"vehicle_type_id":"4","last_reported":1758874469,"current_range_meters":3600,"station_id":"ce4bhmp2rcd13ifvqgog","pricing_plan_id":"cebpf4jnsgd1na2vs0mg"},{"bike_id":"67c7bb5b-4b26-4e7b-91aa-53edc2e711d6","system_id":"levelo_inurba_marseille","lat":43.28344,"lon":5.38104,"is_reserved":false,"is_disabled":false,"rental_uris":{"android":"levelo://app?vid=67c7bb5b-4b26-4e7b-91aa-53edc2e711d6","ios":"levelo://app?vid=67c7bb5b-4b26-4e7b-91aa-53edc2e711d6"},"vehicle_type_id":"4","last_reported":1758874469,"current_range_meters":4000,"station_id":"ce4bh412rcd13ifvqdr0","pricing_plan_id":"cebpf4jnsgd1na2vs0mg"},{"bike_id":"d1bf5877-7433-4026-a1ea-b36c24e54045","system_id":"levelo_inurba_marseille","lat":43.21192,"lon":5.35072,"is_reserved":false,"is_disabled":false,"rental_uris":{"android":"levelo://app?vid=d1bf5877-7433-4026-a1ea-b36c24e54045","ios":"levelo://app?vid=d1bf5877-7433-4026-a1ea-b36c24e54045"},"vehicle_type_id":"4","last_reported":1758874469,"current_range_meters":4400,"station_id":"","pricing_plan_id":"cebpf4jnsgd1na2vs0mg"},{"bike_id":"58bcb43d-c000-4e3e-b004-30450f57645b","system_id":"levelo_inurba_marseille","lat":43.29527,"lon":5.37448,"is_reserved":false,"is_disabled":false,"rental_uris":{"android":"levelo://app?vid=58bcb43d-c000-4e3e-b004-30450f57645b","ios":"levelo://app?vid=58bcb43d-c000-4e3e-b004-30450f57645b"},"vehicle_type_id":"4","last_reported":1758874469,"current_range_meters":4400,"station_id":"","pricing_plan_id":"cebpf4jnsgd1na2vs0mg"},{"bike_id":"438ead59-de14-4fa0-a61d-03a70a4122ae","system_id":"levelo_inurba_marseille","lat":43.97269,"lon":4.89111,"is_reserved":false,"is_disabled":true,"rental_uris":{"android":"levelo://app?vid=438ead59-de14-4fa0-a61d-03a70a4122ae","ios":"levelo://app?vid=438ead59-de14-4fa0-a61d-03a70a4122ae"},"vehicle_type_id":"4","last_reported":1758874469,"current_range_meters":4400,"station_id":"","pricing_plan_id":"cebpf4jnsgd1na2vs0mg"},{"bike_id":"4989591b-309b-4692-99a2-a6cf66ec5160","system_id":"levelo_inurba_marseille","lat":43.33601,"lon":5.40995,"is_reserved":false,"is_disabled":false,"rental_uris":{"android":"levelo://app?vid=4989591b-309b-4692-99a2-a6cf66ec5160","ios":"levelo://app?vid=4989591b-309b-4692-99a2-a6cf66ec5160"},"vehicle_type_id":"4","last_reported":1758874469,"current_range_meters":4400,"station_id":"ce4bhqh2rcd13ifvqhmg","pricing_plan_id":"cebpf4jnsgd1na2vs0mg"},{"bike_id":"cf9b5710-d632-4c78-ad46-7a0deb8dea8a","system_id":"levelo_inurba_marseille","lat":43.30523,"lon":5.3843,"is_reserved":false,"is_disabled":false,"rental_uris":{"android":"levelo://app?vid=cf9b5710-d632-4c78-ad46-7a0deb8dea8a","ios":"levelo://app?vid=cf9b5710-d632-4c78-ad46-7a0deb8dea8a"},"vehicle_type_id":"4","last_reported":1758874469,"current_range_meters":4800,"station_id":"ce4bgg92rcd13ifvqb30","pricing_plan_id":"cebpf4jnsgd1na2vs0mg"},{"bike_id":"e1b38a33-1bf8-47ec-9317-703f304aecb2","system_id":"levelo_inurba_marseille","lat":43.23135,"lon":5.43705,"is_reserved":false,"is_disabled":false,"rental_uris":{"android":"levelo://app?vid=e1b38a33-1bf8-47ec-9317-703f304aecb2","ios":"levelo://app?vid=e1b38a33-1bf8-47ec-9317-703f304aecb2"},"vehicle_type_id":"4","last_reported":1758874469,"current_range_meters":6800,"station_id":"ce4bhmp2rcd13ifvqgog","pricing_plan_id":"cebpf4jnsgd1na2vs0mg"},{"bike_id":"042e0ced-30e4-40c9-a3a1-e529df527d26","system_id":"levelo_inurba_marseille","lat":43.29705,"lon":5.36614,"is_reserved":false,"is_disabled":false,"rental_uris":{"android":"levelo://app?vid=042e0ced-30e4-40c9-a3a1-e529df527d26","ios":"levelo://app?vid=042e0ced-30e4-40c9-a3a1-e529df527d26"},"vehicle_type_id":"4","last_reported":1758874469,"current_range_meters":4400,"station_id":"ce4bgn12rcd13ifvqbt0","pricing_plan_id":"cebpf4jnsgd1na2vs0mg"},{"bike_id":"8e693ade-c7b7-4143-bb59-5ce7150dac3e","system_id":"levelo_inurba_marseille","lat":43.29039,"lon":5.35921,"is_reserved":false,"is_disabled":false,"rental_uris":{"android":"levelo://app?vid=8e693ade-c7b7-4143-bb59-5ce7150dac3e","ios":"levelo://app?vid=8e693ade-c7b7-4143-bb59-5ce7150dac3e"},"vehicle_type_id":"4","last_reported":1758874469,"current_range_meters":4800,"station_id":"ce4bha92rcd13ifvqeg0","pricing_plan_id":"cebpf4jnsgd1na2vs0mg"},{"bike_id":"5d78462b-ed0c-435f-ba61-aabb585b6a57","system_id":"levelo_inurba_marseille","lat":43.30427,"lon":5.3888,"is_reserved":false,"is_disabled":false,"rental_uris":{"android":"levelo://app?vid=5d78462b-ed0c-435f-ba61-aabb585b6a57","ios":"levelo://app?vid=5d78462b-ed0c-435f-ba61-aabb585b6a57"},"vehicle_type_id":"4","last_reported":1758874469,"current_range_meters":4800,"station_id":"ce4bgk12rcd13ifvqbi0","pricing_plan_id":"cebpf4jnsgd1na2vs0mg"},{"bike_id":"bf1cb5c8-ad44-481f-a03c-84a96ba8d5e0","system_id":"levelo_inurba_marseille","lat":43.27662,"lon":5.38896,"is_reserved":false,"is_disabled":false,"rental_uris":{"android":"levelo://app?vid=bf1cb5c8-ad44-481f-a03c-84a96ba8d5e0","ios":"levelo://app?vid=bf1cb5c8-ad44-481f-a03c-84a96ba8d5e0"},"vehicle_type_id":"4","last_reported":1758874469,"current_range_meters":5600,"station_id":"ce4bhi12rcd13ifvqfo0","pricing_plan_id":"cebpf4jnsgd1na2vs0mg"},{"bike_id":"de2f6325-6436-4a54-9e78-0e324a9d0c20","system_id":"levelo_inurba_marseille","lat":43.24664,"lon":5.38155,"is_reserved":false,"is_disabled":false,"rental_uris":{"android":"levelo://app?vid=de2f6325-6436-4a54-9e78-0e324a9d0c20","ios":"levelo://app?vid=de2f6325-6436-4a54-9e78-0e324a9d0c20"},"vehicle_type_id":"4","last_reported":1758874469,"current_range_meters":5600,"station_id":"ce4bhih2rcd13ifvqfr0","pricing_plan_id":"cebpf4jnsgd1na2vs0mg"},{"bike_id":"c575721f-de31-4f0e-9dbf-4833e1affcb4","system_id":"levelo_inurba_marseille","lat":43.24068,"lon":5.37763,"is_reserved":false,"is_disabled":false,"rental_uris":{"android":"levelo://app?vid=c575721f-de31-4f0e-9dbf-4833e1affcb4","ios":"levelo://app?vid=c575721f-de31-4f0e-9dbf-4833e1affcb4"},"vehicle_type_id":"4","last_reported":1758874469,"current_range_meters":6000,"station_id":"ce4bhnp2rcd13ifvqgvg","pricing_plan_id":"cebpf4jnsgd1na2vs0mg"},{"bike_id":"6cd537e0-dbfc-4f59-b3b3-22491905826b","system_id":"levelo_inurba_marseille","lat":43.246423,"lon":5.389153,"is_reserved":false,"is_disabled":false,"rental_uris":{"android":"levelo://app?vid=6cd537e0-dbfc-4f59-b3b3-22491905826b","ios":"levelo://app?vid=6cd537e0-dbfc-4f59-b3b3-22491905826b"},"vehicle_type_id":"4","last_reported":1758874469,"current_range_meters":6000,"station_id":"ce4bhg12rcd13ifvqf60","pricing_plan_id":"cebpf4jnsgd1na2vs0mg"},{"bike_id":"e0b6b40b-ca64-4394-80c5-b562f49b1dfe","system_id":"levelo_inurba_marseille","lat":43.2582,"lon":5.39441,"is_reserved":false,"is_disabled":false,"rental_uris":{"android":"levelo://app?vid=e0b6b40b-ca64-4394-80c5-b562f49b1dfe","ios":"levelo://app?vid=e0b6b40b-ca64-4394-80c5-b562f49b1dfe"},"vehicle_type_id":"4","last_reported":1758874469,"current_range_meters":6000,"station_id":"ce4bhip2rcd13ifvqft0","pricing_plan_id":"cebpf4jnsgd1na2vs0mg"},{"bike_id":"88fead56-f1d3-405a-8605-273112786ce7","system_id":"levelo_inurba_marseille","lat":43.28486,"lon":5.38553,"is_reserved":false,"is_disabled":false,"rental_uris":{"android":"levelo://app?vid=88fead56-f1d3-405a-8605-273112786ce7","ios":"levelo://app?vid=88fead56-f1d3-405a-8605-273112786ce7"},"vehicle_type_id":"4","last_reported":1758874469,"current_range_meters":6000,"station_id":"ce4bh8p2rcd13ifvqeb0","pricing_plan_id":"cebpf4jnsgd1na2vs0mg"},{"bike_id":"3bd489e5-2659-4c74-b36b-70a17cc86db1","system_id":"levelo_inurba_marseille","lat":43.23369,"lon":5.36048,"is_reserved":false,"is_disabled":false,"rental_uris":{"android":"levelo://app?vid=3bd489e5-2659-4c74-b36b-70a17cc86db1","ios":"levelo://app?vid=3bd489e5-2659-4c74-b36b-70a17cc86db1"},"vehicle_type_id":"4","last_reported":1758874469,"current_range_meters":6400,"station_id":"","pricing_plan_id":"cebpf4jnsgd1na2vs0mg"},{"bike_id":"0c81b40b-1c40-4984-9001-de11236803c2","system_id":"levelo_inurba_marseille","lat":43.337444,"lon":5.374475,"is_reserved":false,"is_disabled":false,"rental_uris":{"android":"levelo://app?vid=0c81b40b-1c40-4984-9001-de11236803c2","ios":"levelo://app?vid=0c81b40b-1c40-4984-9001-de11236803c2"},"vehicle_type_id":"4","last_reported":1758874469,"current_range_meters":6400,"station_id":"","pricing_plan_id":"cebpf4jnsgd1na2vs0mg"},{"bike_id":"933cc938-5ed2-4891-8083-5abecfb2466f","system_id":"levelo_inurba_marseille","lat":43.33612,"lon":5.41018,"is_reserved":false,"is_disabled":false,"rental_uris":{"android":"levelo://app?vid=933cc938-5ed2-4891-8083-5abecfb2466f","ios":"levelo://app?vid=933cc938-5ed2-4891-8083-5abecfb2466f"},"vehicle_type_id":"4","last_reported":1758874469,"current_range_meters":6400,"station_id":"ce4bhqh2rcd13ifvqhmg","pricing_plan_id":"cebpf4jnsgd1na2vs0mg"},{"bike_id":"d30e861e-4058-469b-a3d8-ba491f250550","system_id":"levelo_inurba_marseille","lat":43.31076,"lon":5.38352,"is_reserved":false,"is_disabled":true,"rental_uris":{"android":"levelo://app?vid=d30e861e-4058-469b-a3d8-ba491f250550","ios":"levelo://app?vid=d30e861e-4058-469b-a3d8-ba491f250550"},"vehicle_type_id":"4","last_reported":1758874469,"current_range_meters":6400,"station_id":"ce4bgv92rcd13ifvqcr0","pricing_plan_id":"cebpf4jnsgd1na2vs0mg"},{"bike_id":"6d64825d-1a65-4844-8584-89db40da4ba9","system_id":"levelo_inurba_marseille","lat":43.25582,"lon":5.3823,"is_reserved":false,"is_disabled":false,"rental_uris":{"android":"levelo://app?vid=6d64825d-1a65-4844-8584-89db40da4ba9","ios":"levelo://app?vid=6d64825d-1a65-4844-8584-89db40da4ba9"},"vehicle_type_id":"4","last_reported":1758874469,"current_range_meters":6800,"station_id":"ce4bhih2rcd13ifvqfs0","pricing_plan_id":"cebpf4jnsgd1na2vs0mg"},{"bike_id":"3a83ddcd-ce03-4ed4-a7fa-b273c2464f02","system_id":"levelo_inurba_marseille","lat":43.27962,"lon":5.36322,"is_reserved":false,"is_disabled":false,"rental_uris":{"android":"levelo://app?vid=3a83ddcd-ce03-4ed4-a7fa-b273c2464f02","ios":"levelo://app?vid=3a83ddcd-ce03-4ed4-a7fa-b273c2464f02"},"vehicle_type_id":"4","last_reported":1758874469,"current_range_meters":6800,"station_id":"","pricing_plan_id":"cebpf4jnsgd1na2vs0mg"},{"bike_id":"a9a99c4e-0c05-4c41-9361-de79abda7454","system_id":"levelo_inurba_marseille","lat":43.23181,"lon":5.39982,"is_reserved":false,"is_disabled":false,"rental_uris":{"android":"levelo://app?vid=a9a99c4e-0c05-4c41-9361-de79abda7454","ios":"levelo://app?vid=a9a99c4e-0c05-4c41-9361-de79abda7454"},"vehicle_type_id":"4","last_reported":1758874469,"current_range_meters":6800,"station_id":"ce4bhn12rcd13ifvqgqg","pricing_plan_id":"cebpf4jnsgd1na2vs0mg"},{"bike_id":"170d25a3-3f37-45de-95ef-88e6e1e28de3","system_id":"levelo_inurba_marseille","lat":43.31142,"lon":5.37208,"is_reserved":false,"is_disabled":false,"rental_uris":{"android":"levelo://app?vid=170d25a3-3f37-45de-95ef-88e6e1e28de3","ios":"levelo://app?vid=170d25a3-3f37-45de-95ef-88e6e1e28de3"},"vehicle_type_id":"4","last_reported":1758874469,"current_range_meters":7200,"station_id":"","pricing_plan_id":"cebpf4jnsgd1na2vs0mg"},{"bike_id":"3352d2f2-cffb-4ad8-a3b0-f8aab450ad19","system_id":"levelo_inurba_marseille","lat":43.30278,"lon":5.37714,"is_reserved":false,"is_disabled":false,"rental_uris":{"android":"levelo://app?vid=3352d2f2-cffb-4ad8-a3b0-f8aab450ad19","ios":"levelo://app?vid=3352d2f2-cffb-4ad8-a3b0-f8aab450ad19"},"vehicle_type_id":"4","last_reported":1758874469,"current_range_meters":6800,"station_id":"ce4bguh2rcd13ifvqcj0","pricing_plan_id":"cebpf4jnsgd1na2vs0mg"},{"bike_id":"cfa462e1-a746-48ae-b405-0b9474d89333","system_id":"levelo_inurba_marseille","lat":43.289836,"lon":5.36398,"is_reserved":false,"is_disabled":false,"rental_uris":{"android":"levelo://app?vid=cfa462e1-a746-48ae-b405-0b9474d89333","ios":"levelo://app?vid=cfa462e1-a746-48ae-b405-0b9474d89333"},"vehicle_type_id":"4","last_reported":1758874469,"current_range_meters":7200,"station_id":"ce4bhc92rcd13ifvqetg","pricing_plan_id":"cebpf4jnsgd1na2vs0mg"},{"bike_id":"4035ffcf-62d8-4fb0-89da-8d7b6b41ef29","system_id":"levelo_inurba_marseille","lat":43.29459,"lon":5.39765,"is_reserved":false,"is_disabled":true,"rental_uris":{"android":"levelo://app?vid=4035ffcf-62d8-4fb0-89da-8d7b6b41ef29","ios":"levelo://app?vid=4035ffcf-62d8-4fb0-89da-8d7b6b41ef29"},"vehicle_type_id":"4","last_reported":1758874469,"current_range_meters":7200,"station_id":"ce4bh3h2rcd13ifvqdo0","pricing_plan_id":"cebpf4jnsgd1na2vs0mg"},{"bike_id":"736ff02a-66d6-4f5e-865c-68fe9ab585da","system_id":"levelo_inurba_marseille","lat":43.31722,"lon":5.40417,"is_reserved":false,"is_disabled":false,"rental_uris":{"android":"levelo://app?vid=736ff02a-66d6-4f5e-865c-68fe9ab585da","ios":"levelo://app?vid=736ff02a-66d6-4f5e-865c-68fe9ab585da"},"vehicle_type_id":"4","last_reported":1758874469,"current_range_meters":8000,"station_id":"ce4bh012rcd13ifvqd00","pricing_plan_id":"cebpf4jnsgd1na2vs0mg"},{"bike_id":"78d2b417-3d8b-4bb2-ad38-c91fae7b88ad","system_id":"levelo_inurba_marseille","lat":43.3361,"lon":5.41017,"is_reserved":false,"is_disabled":false,"rental_uris":{"android":"levelo://app?vid=78d2b417-3d8b-4bb2-ad38-c91fae7b88ad","ios":"levelo://app?vid=78d2b417-3d8b-4bb2-ad38-c91fae7b88ad"},"vehicle_type_id":"4","last_reported":1758874469,"current_range_meters":8000,"station_id":"ce4bhqh2rcd13ifvqhmg","pricing_plan_id":"cebpf4jnsgd1na2vs0mg"},{"bike_id":"b5e6e639-daaa-4cd7-a77a-57d87e19fa2e","system_id":"levelo_inurba_marseille","lat":43.30145,"lon":5.38071,"is_reserved":false,"is_disabled":false,"rental_uris":{"android":"levelo://app?vid=b5e6e639-daaa-4cd7-a77a-57d87e19fa2e","ios":"levelo://app?vid=b5e6e639-daaa-4cd7-a77a-57d87e19fa2e"},"vehicle_type_id":"4","last_reported":1758874469,"current_range_meters":8000,"station_id":"ce4bgjp2rcd13ifvqbh0","pricing_plan_id":"cebpf4jnsgd1na2vs0mg"},{"bike_id":"379911e0-a8b9-4b05-96ac-c75be54d3c45","system_id":"levelo_inurba_marseille","lat":43.28854,"lon":5.42516,"is_reserved":false,"is_disabled":false,"rental_uris":{"android":"levelo://app?vid=379911e0-a8b9-4b05-96ac-c75be54d3c45","ios":"levelo://app?vid=379911e0-a8b9-4b05-96ac-c75be54d3c45"},"vehicle_type_id":"4","last_reported":1758874469,"current_range_meters":8000,"station_id":"st_d3b462108ojc7389ooeg","pricing_plan_id":"cebpf4jnsgd1na2vs0mg"},{"bike_id":"88d4f928-adea-4cc4-a244-e47fba7e11e6","system_id":"levelo_inurba_marseille","lat":43.23134,"lon":5.43719,"is_reserved":false,"is_disabled":false,"rental_uris":{"android":"levelo://app?vid=88d4f928-adea-4cc4-a244-e47fba7e11e6","ios":"levelo://app?vid=88d4f928-adea-4cc4-a244-e47fba7e11e6"},"vehicle_type_id":"4","last_reported":1758874469,"current_range_meters":8400,"station_id":"ce4bhmp2rcd13ifvqgog","pricing_plan_id":"cebpf4jnsgd1na2vs0mg"},{"bike_id":"a22a4a21-2728-424d-91e6-1ba5cc0c4b64","system_id":"levelo_inurba_marseille","lat":43.29607,"lon":5.381,"is_reserved":false,"is_disabled":false,"rental_uris":{"android":"levelo://app?vid=a22a4a21-2728-424d-91e6-1ba5cc0c4b64","ios":"levelo://app?vid=a22a4a21-2728-424d-91e6-1ba5cc0c4b64"},"vehicle_type_id":"4","last_reported":1758874469,"current_range_meters":8400,"station_id":"ce4bgl12rcd13ifvqbo0","pricing_plan_id":"cebpf4jnsgd1na2vs0mg"},{"bike_id":"234f9897-ca2f-4a17-807c-faef05729c1e","system_id":"levelo_inurba_marseille","lat":43.305397,"lon":5.367128,"is_reserved":false,"is_disabled":false,"rental_uris":{"android":"levelo://app?vid=234f9897-ca2f-4a17-807c-faef05729c1e","ios":"levelo://app?vid=234f9897-ca2f-4a17-807c-faef05729c1e"},"vehicle_type_id":"4","last_reported":1758874469,"current_range_meters":8400,"station_id":"ce4bgrp2rcd13ifvqc9g","pricing_plan_id":"cebpf4jnsgd1na2vs0mg"},{"bike_id":"2896fec8-8330-469a-a771-755aaff115cf","system_id":"levelo_inurba_marseille","lat":43.29047,"lon":5.3757,"is_reserved":false,"is_disabled":false,"rental_uris":{"android":"levelo://app?vid=2896fec8-8330-469a-a771-755aaff115cf","ios":"levelo://app?vid=2896fec8-8330-469a-a771-755aaff115cf"},"vehicle_type_id":"4","last_reported":1758874469,"current_range_meters":8800,"station_id":"ce4bh692rcd13ifvqe90","pricing_plan_id":"cebpf4jnsgd1na2vs0mg"},{"bike_id":"8eae954c-dab6-4303-94f5-569e1c483f62","system_id":"levelo_inurba_marseille","lat":43.294511,"lon":5.407503,"is_reserved":false,"is_disabled":false,"rental_uris":{"android":"levelo://app?vid=8eae954c-dab6-4303-94f5-569e1c483f62","ios":"levelo://app?vid=8eae954c-dab6-4303-94f5-569e1c483f62"},"vehicle_type_id":"4","last_reported":1758874469,"current_range_meters":8800,"station_id":"","pricing_plan_id":"cebpf4jnsgd1na2vs0mg"},{"bike_id":"c8e305c3-bcb8-4ab8-a46d-ed4617ce9b16","system_id":"levelo_inurba_marseille","lat":43.317064,"lon":5.377424,"is_reserved":false,"is_disabled":false,"rental_uris":{"android":"levelo://app?vid=c8e305c3-bcb8-4ab8-a46d-ed4617ce9b16","ios":"levelo://app?vid=c8e305c3-bcb8-4ab8-a46d-ed4617ce9b16"},"vehicle_type_id":"4","last_reported":1758874469,"current_range_meters":8800,"station_id":"ce4bgth2rcd13ifvqch0","pricing_plan_id":"cebpf4jnsgd1na2vs0mg"},{"bike_id":"bdec3261-de13-477f-818b-7af8ae1d1f6a","system_id":"levelo_inurba_marseille","lat":43.239718,"lon":5.376623,"is_reserved":false,"is_disabled":false,"rental_uris":{"android":"levelo://app?vid=bdec3261-de13-477f-818b-7af8ae1d1f6a","ios":"levelo://app?vid=bdec3261-de13-477f-818b-7af8ae1d1f6a"},"vehicle_type_id":"4","last_reported":1758874469,"current_range_meters":8800,"station_id":"","pricing_plan_id":"cebpf4jnsgd1na2vs0mg"},{"bike_id":"d975f13c-9428-477e-ace4-d171f96baa01","system_id":"levelo_inurba_marseille","lat":43.24075,"lon":5.37753,"is_reserved":false,"is_disabled":false,"rental_uris":{"android":"levelo://app?vid=d975f13c-9428-477e-ace4-d171f96baa01","ios":"levelo://app?vid=d975f13c-9428-477e-ace4-d171f96baa01"},"vehicle_type_id":"4","last_reported":1758874469,"current_range_meters":8800,"station_id":"ce4bhnp2rcd13ifvqgvg","pricing_plan_id":"cebpf4jnsgd1na2vs0mg"},{"bike_id":"7b5d279d-19e6-4c91-9c3b-3c0bd0e166d5","system_id":"levelo_inurba_marseille","lat":43.32319,"lon":5.40619,"is_reserved":false,"is_disabled":false,"rental_uris":{"android":"levelo://app?vid=7b5d279d-19e6-4c91-9c3b-3c0bd0e166d5","ios":"levelo://app?vid=7b5d279d-19e6-4c91-9c3b-3c0bd0e166d5"},"vehicle_type_id":"4","last_reported":1758874469,"current_range_meters":8800,"station_id":"ce4bhq92rcd13ifvqhjg","pricing_plan_id":"cebpf4jnsgd1na2vs0mg"},{"bike_id":"3c25e8ce-2870-4cf9-9c4b-12067a666c0d","system_id":"levelo_inurba_marseille","lat":43.30561,"lon":5.36534,"is_reserved":false,"is_disabled":false,"rental_uris":{"android":"levelo://app?vid=3c25e8ce-2870-4cf9-9c4b-12067a666c0d","ios":"levelo://app?vid=3c25e8ce-2870-4cf9-9c4b-12067a666c0d"},"vehicle_type_id":"4","last_reported":1758874469,"current_range_meters":8800,"station_id":"ce4bgs12rcd13ifvqcag","pricing_plan_id":"cebpf4jnsgd1na2vs0mg"},{"bike_id":"003515e8-8117-44bb-979d-5f47e8d50fda","system_id":"levelo_inurba_marseille","lat":43.30632,"lon":5.37556,"is_reserved":false,"is_disabled":false,"rental_uris":{"android":"levelo://app?vid=003515e8-8117-44bb-979d-5f47e8d50fda","ios":"levelo://app?vid=003515e8-8117-44bb-979d-5f47e8d50fda"},"vehicle_type_id":"4","last_reported":1758874469,"current_range_meters":9200,"station_id":"","pricing_plan_id":"cebpf4jnsgd1na2vs0mg"},{"bike_id":"2bd2a176-8590-4e06-8b8c-a96b49b7b36a","system_id":"levelo_inurba_marseille","lat":43.242409,"lon":5.41085,"is_reserved":false,"is_disabled":false,"rental_uris":{"android":"levelo://app?vid=2bd2a176-8590-4e06-8b8c-a96b49b7b36a","ios":"levelo://app?vid=2bd2a176-8590-4e06-8b8c-a96b49b7b36a"},"vehicle_type_id":"4","last_reported":1758874469,"current_range_meters":9200,"station_id":"","pricing_plan_id":"cebpf4jnsgd1na2vs0mg"},{"bike_id":"a4161d96-122f-4a76-beca-a26823490a3f","system_id":"levelo_inurba_marseille","lat":43.33606,"lon":5.41038,"is_reserved":false,"is_disabled":false,"rental_uris":{"android":"levelo://app?vid=a4161d96-122f-4a76-beca-a26823490a3f","ios":"levelo://app?vid=a4161d96-122f-4a76-beca-a26823490a3f"},"vehicle_type_id":"4","last_reported":1758874469,"current_range_meters":9200,"station_id":"ce4bhqh2rcd13ifvqhmg","pricing_plan_id":"cebpf4jnsgd1na2vs0mg"},{"bike_id":"48cfa5e0-d4fe-46dc-9056-cb144be641cf","system_id":"levelo_inurba_marseille","lat":43.23195,"lon":5.39969,"is_reserved":false,"is_disabled":false,"rental_uris":{"android":"levelo://app?vid=48cfa5e0-d4fe-46dc-9056-cb144be641cf","ios":"levelo://app?vid=48cfa5e0-d4fe-46dc-9056-cb144be641cf"},"vehicle_type_id":"4","last_reported":1758874469,"current_range_meters":9200,"station_id":"ce4bhn12rcd13ifvqgqg","pricing_plan_id":"cebpf4jnsgd1na2vs0mg"},{"bike_id":"68141cbc-6b9c-49f4-b058-f4fb9b8677d3","system_id":"levelo_inurba_marseille","lat":43.23195,"lon":5.4001,"is_reserved":false,"is_disabled":false,"rental_uris":{"android":"levelo://app?vid=68141cbc-6b9c-49f4-b058-f4fb9b8677d3","ios":"levelo://app?vid=68141cbc-6b9c-49f4-b058-f4fb9b8677d3"},"vehicle_type_id":"4","last_reported":1758874469,"current_range_meters":9200,"station_id":"ce4bhn12rcd13ifvqgqg","pricing_plan_id":"cebpf4jnsgd1na2vs0mg"},{"bike_id":"aa5cfa38-2fd1-4e19-b6cd-0a02c6ab2567","system_id":"levelo_inurba_marseille","lat":43.2827,"lon":5.35081,"is_reserved":false,"is_disabled":false,"rental_uris":{"android":"levelo://app?vid=aa5cfa38-2fd1-4e19-b6cd-0a02c6ab2567","ios":"levelo://app?vid=aa5cfa38-2fd1-4e19-b6cd-0a02c6ab2567"},"vehicle_type_id":"4","last_reported":1758874469,"current_range_meters":9200,"station_id":"ce4bhbp2rcd13ifvqerg","pricing_plan_id":"cebpf4jnsgd1na2vs0mg"},{"bike_id":"212de2eb-8bbc-413c-b204-9fe1facd76e8","system_id":"levelo_inurba_marseille","lat":43.31279,"lon":5.37828,"is_reserved":false,"is_disabled":false,"rental_uris":{"android":"levelo://app?vid=212de2eb-8bbc-413c-b204-9fe1facd76e8","ios":"levelo://app?vid=212de2eb-8bbc-413c-b204-9fe1facd76e8"},"vehicle_type_id":"4","last_reported":1758874469,"current_range_meters":9200,"station_id":"","pricing_plan_id":"cebpf4jnsgd1na2vs0mg"},{"bike_id":"5aefa4bb-466e-4cd2-82cd-58a67836e397","system_id":"levelo_inurba_marseille","lat":43.30959,"lon":5.39045,"is_reserved":false,"is_disabled":false,"rental_uris":{"android":"levelo://app?vid=5aefa4bb-466e-4cd2-82cd-58a67836e397","ios":"levelo://app?vid=5aefa4bb-466e-4cd2-82cd-58a67836e397"},"vehicle_type_id":"4","last_reported":1758874469,"current_range_meters":9200,"station_id":"ce4bgup2rcd13ifvqco0","pricing_plan_id":"cebpf4jnsgd1na2vs0mg"},{"bike_id":"cb3139a4-f2d1-4c6a-bb07-a858c1fa1910","system_id":"levelo_inurba_marseille","lat":43.26562,"lon":5.39094,"is_reserved":false,"is_disabled":false,"rental_uris":{"android":"levelo://app?vid=cb3139a4-f2d1-4c6a-bb07-a858c1fa1910","ios":"levelo://app?vid=cb3139a4-f2d1-4c6a-bb07-a858c1fa1910"},"vehicle_type_id":"4","last_reported":1758874469,"current_range_meters":9200,"station_id":"ce4bhe12rcd13ifvqf30","pricing_plan_id":"cebpf4jnsgd1na2vs0mg"},{"bike_id":"019d6aa5-035d-42fc-9bdb-939e26fd267a","system_id":"levelo_inurba_marseille","lat":43.31352,"lon":5.36709,"is_reserved":false,"is_disabled":false,"rental_uris":{"android":"levelo://app?vid=019d6aa5-035d-42fc-9bdb-939e26fd267a","ios":"levelo://app?vid=019d6aa5-035d-42fc-9bdb-939e26fd267a"},"vehicle_type_id":"4","last_reported":1758874469,"current_range_meters":9600,"station_id":"ce4bgr92rcd13ifvqc6g","pricing_plan_id":"cebpf4jnsgd1na2vs0mg"},{"bike_id":"d7f9e1df-8b0f-4a8d-ad58-d349030d8c25","system_id":"levelo_inurba_marseille","lat":43.29615,"lon":5.37809,"is_reserved":false,"is_disabled":false,"rental_uris":{"android":"levelo://app?vid=d7f9e1df-8b0f-4a8d-ad58-d349030d8c25","ios":"levelo://app?vid=d7f9e1df-8b0f-4a8d-ad58-d349030d8c25"},"vehicle_type_id":"4","last_reported":1758874469,"current_range_meters":9600,"station_id":"","pricing_plan_id":"cebpf4jnsgd1na2vs0mg"},{"bike_id":"d31d856a-933d-49cf-948f-ce03657dfc74","system_id":"levelo_inurba_marseille","lat":43.2843,"lon":5.35009,"is_reserved":false,"is_disabled":false,"rental_uris":{"android":"levelo://app?vid=d31d856a-933d-49cf-948f-ce03657dfc74","ios":"levelo://app?vid=d31d856a-933d-49cf-948f-ce03657dfc74"},"vehicle_type_id":"4","last_reported":1758874469,"current_range_meters":9600,"station_id":"ce4bhbh2rcd13ifvqepg","pricing_plan_id":"cebpf4jnsgd1na2vs0mg"},{"bike_id":"36f8784e-a971-4fb3-90b1-947ba193a5b8","system_id":"levelo_inurba_marseille","lat":43.26556,"lon":5.37284,"is_reserved":false,"is_disabled":false,"rental_uris":{"android":"levelo://app?vid=36f8784e-a971-4fb3-90b1-947ba193a5b8","ios":"levelo://app?vid=36f8784e-a971-4fb3-90b1-947ba193a5b8"},"vehicle_type_id":"4","last_reported":1758874469,"current_range_meters":9600,"station_id":"ce4bhg12rcd13ifvqf70","pricing_plan_id":"cebpf4jnsgd1na2vs0mg"},{"bike_id":"f897d300-643c-4c7a-951b-f56d70ef23ca","system_id":"levelo_inurba_marseille","lat":43.30313,"lon":5.39102,"is_reserved":false,"is_disabled":false,"rental_uris":{"android":"levelo://app?vid=f897d300-643c-4c7a-951b-f56d70ef23ca","ios":"levelo://app?vid=f897d300-643c-4c7a-951b-f56d70ef23ca"},"vehicle_type_id":"4","last_reported":1758874469,"current_range_meters":10000,"station_id":"","pricing_plan_id":"cebpf4jnsgd1na2vs0mg"},{"bike_id":"202aaa43-17e8-4e6a-bcb3-6b375e35854c","system_id":"levelo_inurba_marseille","lat":43.267684,"lon":5.394271,"is_reserved":false,"is_disabled":false,"rental_uris":{"android":"levelo://app?vid=202aaa43-17e8-4e6a-bcb3-6b375e35854c","ios":"levelo://app?vid=202aaa43-17e8-4e6a-bcb3-6b375e35854c"},"vehicle_type_id":"4","last_reported":1758874469,"current_range_meters":9600,"station_id":"ce4bhh12rcd13ifvqfg0","pricing_plan_id":"cebpf4jnsgd1na2vs0mg"},{"bike_id":"550bb153-0cef-4b33-b904-2f02054aa671","system_id":"levelo_inurba_marseille","lat":43.30145,"lon":5.38782,"is_reserved":false,"is_disabled":false,"rental_uris":{"android":"levelo://app?vid=550bb153-0cef-4b33-b904-2f02054aa671","ios":"levelo://app?vid=550bb153-0cef-4b33-b904-2f02054aa671"},"vehicle_type_id":"4","last_reported":1758874469,"current_range_meters":10000,"station_id":"ce4bghh2rcd13ifvqb60","pricing_plan_id":"cebpf4jnsgd1na2vs0mg"},{"bike_id":"e8f1bb4b-6767-4e83-acee-3cdfa763a5ca","system_id":"levelo_inurba_marseille","lat":43.30556,"lon":5.36553,"is_reserved":false,"is_disabled":false,"rental_uris":{"android":"levelo://app?vid=e8f1bb4b-6767-4e83-acee-3cdfa763a5ca","ios":"levelo://app?vid=e8f1bb4b-6767-4e83-acee-3cdfa763a5ca"},"vehicle_type_id":"4","last_reported":1758874469,"current_range_meters":10800,"station_id":"ce4bgs12rcd13ifvqcag","pricing_plan_id":"cebpf4jnsgd1na2vs0mg"},{"bike_id":"1b95970f-42c4-4ab0-acc7-2baa194657cf","system_id":"levelo_inurba_marseille","lat":43.33615,"lon":5.41023,"is_reserved":false,"is_disabled":false,"rental_uris":{"android":"levelo://app?vid=1b95970f-42c4-4ab0-acc7-2baa194657cf","ios":"levelo://app?vid=1b95970f-42c4-4ab0-acc7-2baa194657cf"},"vehicle_type_id":"4","last_reported":1758874469,"current_range_meters":10800,"station_id":"ce4bhqh2rcd13ifvqhmg","pricing_plan_id":"cebpf4jnsgd1na2vs0mg"},{"bike_id":"f5a888db-229a-4246-81ee-0ff2a1bcfdfa","system_id":"levelo_inurba_marseille","lat":43.22935,"lon":5.35375,"is_reserved":false,"is_disabled":false,"rental_uris":{"android":"levelo://app?vid=f5a888db-229a-4246-81ee-0ff2a1bcfdfa","ios":"levelo://app?vid=f5a888db-229a-4246-81ee-0ff2a1bcfdfa"},"vehicle_type_id":"4","last_reported":1758874469,"current_range_meters":10800,"station_id":"cpo3532slgdg3j2ikp40","pricing_plan_id":"cebpf4jnsgd1na2vs0mg"},{"bike_id":"0ab91c66-4446-45e7-a295-03ae6b7a6521","system_id":"levelo_inurba_marseille","lat":43.30956,"lon":5.39034,"is_reserved":false,"is_disabled":false,"rental_uris":{"android":"levelo://app?vid=0ab91c66-4446-45e7-a295-03ae6b7a6521","ios":"levelo://app?vid=0ab91c66-4446-45e7-a295-03ae6b7a6521"},"vehicle_type_id":"4","last_reported":1758874469,"current_range_meters":10800,"station_id":"ce4bgup2rcd13ifvqco0","pricing_plan_id":"cebpf4jnsgd1na2vs0mg"},{"bike_id":"1c35bf83-ebdb-4c44-ba8d-eb30d817a599","system_id":"levelo_inurba_marseille","lat":43.304251,"lon":5.39741,"is_reserved":false,"is_disabled":true,"rental_uris":{"android":"levelo://app?vid=1c35bf83-ebdb-4c44-ba8d-eb30d817a599","ios":"levelo://app?vid=1c35bf83-ebdb-4c44-ba8d-eb30d817a599"},"vehicle_type_id":"4","last_reported":1758874469,"current_range_meters":10800,"station_id":"","pricing_plan_id":"cebpf4jnsgd1na2vs0mg"},{"bike_id":"e5303607-da03-4ac7-b81e-b332ede84cf7","system_id":"levelo_inurba_marseille","lat":43.31268,"lon":5.37824,"is_reserved":false,"is_disabled":false,"rental_uris":{"android":"levelo://app?vid=e5303607-da03-4ac7-b81e-b332ede84cf7","ios":"levelo://app?vid=e5303607-da03-4ac7-b81e-b332ede84cf7"},"vehicle_type_id":"4","last_reported":1758874469,"current_range_meters":10800,"station_id":"","pricing_plan_id":"cebpf4jnsgd1na2vs0mg"},{"bike_id":"c114f41b-543e-44f4-b69a-a8099c4981f9","system_id":"levelo_inurba_marseille","lat":43.29576,"lon":5.37523,"is_reserved":false,"is_disabled":false,"rental_uris":{"android":"levelo://app?vid=c114f41b-543e-44f4-b69a-a8099c4981f9","ios":"levelo://app?vid=c114f41b-543e-44f4-b69a-a8099c4981f9"},"vehicle_type_id":"4","last_reported":1758874469,"current_range_meters":11200,"station_id":"ce4bgh92rcd13ifvqb50","pricing_plan_id":"cebpf4jnsgd1na2vs0mg"},{"bike_id":"d4ff37ac-4b54-432d-a5da-4c0f4f93531f","system_id":"levelo_inurba_marseille","lat":43.24164,"lon":5.36432,"is_reserved":false,"is_disabled":false,"rental_uris":{"android":"levelo://app?vid=d4ff37ac-4b54-432d-a5da-4c0f4f93531f","ios":"levelo://app?vid=d4ff37ac-4b54-432d-a5da-4c0f4f93531f"},"vehicle_type_id":"4","last_reported":1758874469,"current_range_meters":11200,"station_id":"cpo36qri1sfpv3e86is0","pricing_plan_id":"cebpf4jnsgd1na2vs0mg"},{"bike_id":"0d54f249-b891-4504-a5ff-687b2a4870e6","system_id":"levelo_inurba_marseille","lat":43.28607,"lon":5.35112,"is_reserved":false,"is_disabled":false,"rental_uris":{"android":"levelo://app?vid=0d54f249-b891-4504-a5ff-687b2a4870e6","ios":"levelo://app?vid=0d54f249-b891-4504-a5ff-687b2a4870e6"},"vehicle_type_id":"4","last_reported":1758874469,"current_range_meters":11200,"station_id":"ce4bhch2rcd13ifvqeug","pricing_plan_id":"cebpf4jnsgd1na2vs0mg"},{"bike_id":"c7f6a08b-c655-4213-b2ba-7d02e7f382fe","system_id":"levelo_inurba_marseille","lat":43.27988,"lon":5.39483,"is_reserved":false,"is_disabled":false,"rental_uris":{"android":"levelo://app?vid=c7f6a08b-c655-4213-b2ba-7d02e7f382fe","ios":"levelo://app?vid=c7f6a08b-c655-4213-b2ba-7d02e7f382fe"},"vehicle_type_id":"4","last_reported":1758874469,"current_range_meters":11200,"station_id":"","pricing_plan_id":"cebpf4jnsgd1na2vs0mg"},{"bike_id":"97a5ee76-2e0a-479d-a727-d5a9ad8fecb2","system_id":"levelo_inurba_marseille","lat":43.22934,"lon":5.3538,"is_reserved":false,"is_disabled":false,"rental_uris":{"android":"levelo://app?vid=97a5ee76-2e0a-479d-a727-d5a9ad8fecb2","ios":"levelo://app?vid=97a5ee76-2e0a-479d-a727-d5a9ad8fecb2"},"vehicle_type_id":"4","last_reported":1758874469,"current_range_meters":11600,"station_id":"cpo3532slgdg3j2ikp40","pricing_plan_id":"cebpf4jnsgd1na2vs0mg"},{"bike_id":"8469b207-a570-4bd8-b337-ee90916b8002","system_id":"levelo_inurba_marseille","lat":43.30373,"lon":5.42488,"is_reserved":false,"is_disabled":false,"rental_uris":{"android":"levelo://app?vid=8469b207-a570-4bd8-b337-ee90916b8002","ios":"levelo://app?vid=8469b207-a570-4bd8-b337-ee90916b8002"},"vehicle_type_id":"4","last_reported":1758874469,"current_range_meters":11600,"station_id":"ce4bhoh2rcd13ifvqh6g","pricing_plan_id":"cebpf4jnsgd1na2vs0mg"},{"bike_id":"0a7dee83-f3d6-49dd-9849-b85dcb39280d","system_id":"levelo_inurba_marseille","lat":43.30138,"lon":5.3808,"is_reserved":false,"is_disabled":true,"rental_uris":{"android":"levelo://app?vid=0a7dee83-f3d6-49dd-9849-b85dcb39280d","ios":"levelo://app?vid=0a7dee83-f3d6-49dd-9849-b85dcb39280d"},"vehicle_type_id":"4","last_reported":1758874469,"current_range_meters":11600,"station_id":"ce4bgjp2rcd13ifvqbh0","pricing_plan_id":"cebpf4jnsgd1na2vs0mg"},{"bike_id":"064cfafc-654c-47b9-87bf-4d744f3f4bdf","system_id":"levelo_inurba_marseille","lat":43.306009,"lon":5.372313,"is_reserved":false,"is_disabled":false,"rental_uris":{"android":"levelo://app?vid=064cfafc-654c-47b9-87bf-4d744f3f4bdf","ios":"levelo://app?vid=064cfafc-654c-47b9-87bf-4d744f3f4bdf"},"vehicle_type_id":"4","last_reported":1758874469,"current_range_meters":11600,"station_id":"ce4bgqh2rcd13ifvqc4g","pricing_plan_id":"cebpf4jnsgd1na2vs0mg"},{"bike_id":"53030e64-f921-444d-bd54-865a8a994a1f","system_id":"levelo_inurba_marseille","lat":43.33612,"lon":5.41025,"is_reserved":false,"is_disabled":false,"rental_uris":{"android":"levelo://app?vid=53030e64-f921-444d-bd54-865a8a994a1f","ios":"levelo://app?vid=53030e64-f921-444d-bd54-865a8a994a1f"},"vehicle_type_id":"4","last_reported":1758874469,"current_range_meters":11600,"station_id":"ce4bhqh2rcd13ifvqhmg","pricing_plan_id":"cebpf4jnsgd1na2vs0mg"},{"bike_id":"041cd397-24ab-4e04-af23-07b961e161f4","system_id":"levelo_inurba_marseille","lat":43.337444,"lon":5.374475,"is_reserved":false,"is_disabled":false,"rental_uris":{"android":"levelo://app?vid=041cd397-24ab-4e04-af23-07b961e161f4","ios":"levelo://app?vid=041cd397-24ab-4e04-af23-07b961e161f4"},"vehicle_type_id":"4","last_reported":1758874469,"current_range_meters":11600,"station_id":"","pricing_plan_id":"cebpf4jnsgd1na2vs0mg"},{"bike_id":"59cd2745-08b3-48eb-acaf-6a19698cf7d0","system_id":"levelo_inurba_marseille","lat":43.24999,"lon":5.38931,"is_reserved":false,"is_disabled":false,"rental_uris":{"android":"levelo://app?vid=59cd2745-08b3-48eb-acaf-6a19698cf7d0","ios":"levelo://app?vid=59cd2745-08b3-48eb-acaf-6a19698cf7d0"},"vehicle_type_id":"4","last_reported":1758874469,"current_range_meters":11600,"station_id":"ce4bhgp2rcd13ifvqfd0","pricing_plan_id":"cebpf4jnsgd1na2vs0mg"},{"bike_id":"c4c4666f-baab-4b8c-b422-612a13b1a123","system_id":"levelo_inurba_marseille","lat":43.31757,"lon":5.39015,"is_reserved":false,"is_disabled":false,"rental_uris":{"android":"levelo://app?vid=c4c4666f-baab-4b8c-b422-612a13b1a123","ios":"levelo://app?vid=c4c4666f-baab-4b8c-b422-612a13b1a123"},"vehicle_type_id":"4","last_reported":1758874469,"current_range_meters":11600,"station_id":"ce4bhqp2rcd13ifvqhng","pricing_plan_id":"cebpf4jnsgd1na2vs0mg"},{"bike_id":"d734f0f7-bb82-4cbc-9571-824c32d91d22","system_id":"levelo_inurba_marseille","lat":43.24166,"lon":5.36402,"is_reserved":false,"is_disabled":false,"rental_uris":{"android":"levelo://app?vid=d734f0f7-bb82-4cbc-9571-824c32d91d22","ios":"levelo://app?vid=d734f0f7-bb82-4cbc-9571-824c32d91d22"},"vehicle_type_id":"4","last_reported":1758874469,"current_range_meters":12000,"station_id":"cpo36qri1sfpv3e86is0","pricing_plan_id":"cebpf4jnsgd1na2vs0mg"},{"bike_id":"c7c9ea85-6445-4e1d-98b4-f53f9a6cb3c4","system_id":"levelo_inurba_marseille","lat":43.24803,"lon":5.37462,"is_reserved":false,"is_disabled":false,"rental_uris":{"android":"levelo://app?vid=c7c9ea85-6445-4e1d-98b4-f53f9a6cb3c4","ios":"levelo://app?vid=c7c9ea85-6445-4e1d-98b4-f53f9a6cb3c4"},"vehicle_type_id":"4","last_reported":1758874469,"current_range_meters":12000,"station_id":"ce4bhgh2rcd13ifvqfb0","pricing_plan_id":"cebpf4jnsgd1na2vs0mg"},{"bike_id":"02132fbf-da0f-41b3-a2f0-f58c9502e647","system_id":"levelo_inurba_marseille","lat":43.24387,"lon":5.37051,"is_reserved":false,"is_disabled":false,"rental_uris":{"android":"levelo://app?vid=02132fbf-da0f-41b3-a2f0-f58c9502e647","ios":"levelo://app?vid=02132fbf-da0f-41b3-a2f0-f58c9502e647"},"vehicle_type_id":"4","last_reported":1758874469,"current_range_meters":11600,"station_id":"ce4bhhh2rcd13ifvqfk0","pricing_plan_id":"cebpf4jnsgd1na2vs0mg"},{"bike_id":"39e6b2d7-e7bc-4366-8a01-87bc46855564","system_id":"levelo_inurba_marseille","lat":43.32091,"lon":5.36834,"is_reserved":false,"is_disabled":false,"rental_uris":{"android":"levelo://app?vid=39e6b2d7-e7bc-4366-8a01-87bc46855564","ios":"levelo://app?vid=39e6b2d7-e7bc-4366-8a01-87bc46855564"},"vehicle_type_id":"4","last_reported":1758874469,"current_range_meters":12000,"station_id":"","pricing_plan_id":"cebpf4jnsgd1na2vs0mg"},{"bike_id":"b6ff3672-4e7c-404c-ab2a-bd902cf95e14","system_id":"levelo_inurba_marseille","lat":43.26855,"lon":5.40659,"is_reserved":false,"is_disabled":false,"rental_uris":{"android":"levelo://app?vid=b6ff3672-4e7c-404c-ab2a-bd902cf95e14","ios":"levelo://app?vid=b6ff3672-4e7c-404c-ab2a-bd902cf95e14"},"vehicle_type_id":"4","last_reported":1758874469,"current_range_meters":12000,"station_id":"","pricing_plan_id":"cebpf4jnsgd1na2vs0mg"},{"bike_id":"534a761b-a464-4ff7-aa1d-1181d2f2c818","system_id":"levelo_inurba_marseille","lat":43.31239,"lon":5.36902,"is_reserved":false,"is_disabled":false,"rental_uris":{"android":"levelo://app?vid=534a761b-a464-4ff7-aa1d-1181d2f2c818","ios":"levelo://app?vid=534a761b-a464-4ff7-aa1d-1181d2f2c818"},"vehicle_type_id":"4","last_reported":1758874469,"current_range_meters":12000,"station_id":"ce4bgl92rcd13ifvqbq0","pricing_plan_id":"cebpf4jnsgd1na2vs0mg"},{"bike_id":"f3c5f598-e12d-4211-b749-11b51d760ccb","system_id":"levelo_inurba_marseille","lat":43.30164,"lon":5.3808,"is_reserved":false,"is_disabled":false,"rental_uris":{"android":"levelo://app?vid=f3c5f598-e12d-4211-b749-11b51d760ccb","ios":"levelo://app?vid=f3c5f598-e12d-4211-b749-11b51d760ccb"},"vehicle_type_id":"4","last_reported":1758874469,"current_range_meters":12400,"station_id":"ce4bgjp2rcd13ifvqbh0","pricing_plan_id":"cebpf4jnsgd1na2vs0mg"},{"bike_id":"fe00f682-cca5-427d-a71d-4e3cd090cf19","system_id":"levelo_inurba_marseille","lat":43.240697,"lon":5.377644,"is_reserved":false,"is_disabled":false,"rental_uris":{"android":"levelo://app?vid=fe00f682-cca5-427d-a71d-4e3cd090cf19","ios":"levelo://app?vid=fe00f682-cca5-427d-a71d-4e3cd090cf19"},"vehicle_type_id":"4","last_reported":1758874469,"current_range_meters":12400,"station_id":"ce4bhnp2rcd13ifvqgvg","pricing_plan_id":"cebpf4jnsgd1na2vs0mg"},{"bike_id":"b0934032-3d3c-44e1-985e-e72b8cee3491","system_id":"levelo_inurba_marseille","lat":43.24653,"lon":5.43132,"is_reserved":false,"is_disabled":false,"rental_uris":{"android":"levelo://app?vid=b0934032-3d3c-44e1-985e-e72b8cee3491","ios":"levelo://app?vid=b0934032-3d3c-44e1-985e-e72b8cee3491"},"vehicle_type_id":"4","last_reported":1758874469,"current_range_meters":12400,"station_id":"st_d2m6c4gdas8pm72e190g","pricing_plan_id":"cebpf4jnsgd1na2vs0mg"},{"bike_id":"99aec3fd-38e8-433a-8b41-16e4e4589de6","system_id":"levelo_inurba_marseille","lat":43.337444,"lon":5.374475,"is_reserved":false,"is_disabled":false,"rental_uris":{"android":"levelo://app?vid=99aec3fd-38e8-433a-8b41-16e4e4589de6","ios":"levelo://app?vid=99aec3fd-38e8-433a-8b41-16e4e4589de6"},"vehicle_type_id":"4","last_reported":1758874469,"current_range_meters":12400,"station_id":"ce4bhih2rcd13ifvqfs0","pricing_plan_id":"cebpf4jnsgd1na2vs0mg"},{"bike_id":"610e0521-83c2-4561-91c9-cfa88423a420","system_id":"levelo_inurba_marseille","lat":43.3248,"lon":5.36576,"is_reserved":false,"is_disabled":false,"rental_uris":{"android":"levelo://app?vid=610e0521-83c2-4561-91c9-cfa88423a420","ios":"levelo://app?vid=610e0521-83c2-4561-91c9-cfa88423a420"},"vehicle_type_id":"4","last_reported":1758874469,"current_range_meters":12000,"station_id":"ce4bhs12rcd13ifvqhvg","pricing_plan_id":"cebpf4jnsgd1na2vs0mg"},{"bike_id":"4a6dcd31-c824-46f9-975e-8d4915309406","system_id":"levelo_inurba_marseille","lat":43.28263,"lon":5.35073,"is_reserved":false,"is_disabled":false,"rental_uris":{"android":"levelo://app?vid=4a6dcd31-c824-46f9-975e-8d4915309406","ios":"levelo://app?vid=4a6dcd31-c824-46f9-975e-8d4915309406"},"vehicle_type_id":"4","last_reported":1758874469,"current_range_meters":12400,"station_id":"ce4bhbp2rcd13ifvqerg","pricing_plan_id":"cebpf4jnsgd1na2vs0mg"},{"bike_id":"d8ba8ee6-367f-42a1-8c68-e1d4e0be4dd9","system_id":"levelo_inurba_marseille","lat":43.30539,"lon":5.36555,"is_reserved":false,"is_disabled":false,"rental_uris":{"android":"levelo://app?vid=d8ba8ee6-367f-42a1-8c68-e1d4e0be4dd9","ios":"levelo://app?vid=d8ba8ee6-367f-42a1-8c68-e1d4e0be4dd9"},"vehicle_type_id":"4","last_reported":1758874469,"current_range_meters":12400,"station_id":"ce4bgs12rcd13ifvqcag","pricing_plan_id":"cebpf4jnsgd1na2vs0mg"},{"bike_id":"f9af076b-c426-46f0-97f6-f6a5a530c8e2","system_id":"levelo_inurba_marseille","lat":43.33051,"lon":5.39481,"is_reserved":false,"is_disabled":true,"rental_uris":{"android":"levelo://app?vid=f9af076b-c426-46f0-97f6-f6a5a530c8e2","ios":"levelo://app?vid=f9af076b-c426-46f0-97f6-f6a5a530c8e2"},"vehicle_type_id":"4","last_reported":1758874469,"current_range_meters":12400,"station_id":"","pricing_plan_id":"cebpf4jnsgd1na2vs0mg"},{"bike_id":"7a954262-b188-451d-88bd-8f338c6c6829","system_id":"levelo_inurba_marseille","lat":43.24074,"lon":5.37754,"is_reserved":false,"is_disabled":false,"rental_uris":{"android":"levelo://app?vid=7a954262-b188-451d-88bd-8f338c6c6829","ios":"levelo://app?vid=7a954262-b188-451d-88bd-8f338c6c6829"},"vehicle_type_id":"4","last_reported":1758874469,"current_range_meters":12400,"station_id":"ce4bhnp2rcd13ifvqgvg","pricing_plan_id":"cebpf4jnsgd1na2vs0mg"},{"bike_id":"0ef81889-2d7f-4e70-b480-0b08f55cbfba","system_id":"levelo_inurba_marseille","lat":43.30835,"lon":5.36848,"is_reserved":false,"is_disabled":false,"rental_uris":{"android":"levelo://app?vid=0ef81889-2d7f-4e70-b480-0b08f55cbfba","ios":"levelo://app?vid=0ef81889-2d7f-4e70-b480-0b08f55cbfba"},"vehicle_type_id":"4","last_reported":1758874469,"current_range_meters":12400,"station_id":"","pricing_plan_id":"cebpf4jnsgd1na2vs0mg"},{"bike_id":"ac7752fe-d97c-46d7-aeaa-7e5e7e00becc","system_id":"levelo_inurba_marseille","lat":43.30432,"lon":5.38885,"is_reserved":false,"is_disabled":false,"rental_uris":{"android":"levelo://app?vid=ac7752fe-d97c-46d7-aeaa-7e5e7e00becc","ios":"levelo://app?vid=ac7752fe-d97c-46d7-aeaa-7e5e7e00becc"},"vehicle_type_id":"4","last_reported":1758874469,"current_range_meters":12400,"station_id":"ce4bgk12rcd13ifvqbi0","pricing_plan_id":"cebpf4jnsgd1na2vs0mg"},{"bike_id":"358b5bd0-bd1a-4b9c-b0d1-08dbb5ab85b3","system_id":"levelo_inurba_marseille","lat":43.27055,"lon":5.40273,"is_reserved":false,"is_disabled":false,"rental_uris":{"android":"levelo://app?vid=358b5bd0-bd1a-4b9c-b0d1-08dbb5ab85b3","ios":"levelo://app?vid=358b5bd0-bd1a-4b9c-b0d1-08dbb5ab85b3"},"vehicle_type_id":"4","last_reported":1758874469,"current_range_meters":12800,"station_id":"ce4bhk92rcd13ifvqgc0","pricing_plan_id":"cebpf4jnsgd1na2vs0mg"},{"bike_id":"6a5edbe2-66a8-4cc0-87c0-11d5220ca8c5","system_id":"levelo_inurba_marseille","lat":43.241617,"lon":5.364026,"is_reserved":false,"is_disabled":false,"rental_uris":{"android":"levelo://app?vid=6a5edbe2-66a8-4cc0-87c0-11d5220ca8c5","ios":"levelo://app?vid=6a5edbe2-66a8-4cc0-87c0-11d5220ca8c5"},"vehicle_type_id":"4","last_reported":1758874469,"current_range_meters":12800,"station_id":"cpo36qri1sfpv3e86is0","pricing_plan_id":"cebpf4jnsgd1na2vs0mg"},{"bike_id":"b01b5bc6-6834-41fb-be97-f5b6fb7e9ec8","system_id":"levelo_inurba_marseille","lat":43.2632,"lon":5.39858,"is_reserved":false,"is_disabled":false,"rental_uris":{"android":"levelo://app?vid=b01b5bc6-6834-41fb-be97-f5b6fb7e9ec8","ios":"levelo://app?vid=b01b5bc6-6834-41fb-be97-f5b6fb7e9ec8"},"vehicle_type_id":"4","last_reported":1758874469,"current_range_meters":12800,"station_id":"","pricing_plan_id":"cebpf4jnsgd1na2vs0mg"},{"bike_id":"2202b42a-5ef5-42b0-9a0d-87b216b22643","system_id":"levelo_inurba_marseille","lat":43.305992,"lon":5.372322,"is_reserved":false,"is_disabled":false,"rental_uris":{"android":"levelo://app?vid=2202b42a-5ef5-42b0-9a0d-87b216b22643","ios":"levelo://app?vid=2202b42a-5ef5-42b0-9a0d-87b216b22643"},"vehicle_type_id":"4","last_reported":1758874469,"current_range_meters":12800,"station_id":"ce4bgqh2rcd13ifvqc4g","pricing_plan_id":"cebpf4jnsgd1na2vs0mg"},{"bike_id":"a57b3feb-2354-42fe-87fd-e8fcee3a0260","system_id":"levelo_inurba_marseille","lat":43.26953,"lon":5.40241,"is_reserved":false,"is_disabled":false,"rental_uris":{"android":"levelo://app?vid=a57b3feb-2354-42fe-87fd-e8fcee3a0260","ios":"levelo://app?vid=a57b3feb-2354-42fe-87fd-e8fcee3a0260"},"vehicle_type_id":"4","last_reported":1758874469,"current_range_meters":12800,"station_id":"","pricing_plan_id":"cebpf4jnsgd1na2vs0mg"},{"bike_id":"b4f47bc1-4d12-4541-a757-a859819c9d1c","system_id":"levelo_inurba_marseille","lat":43.276802,"lon":5.388803,"is_reserved":false,"is_disabled":false,"rental_uris":{"android":"levelo://app?vid=b4f47bc1-4d12-4541-a757-a859819c9d1c","ios":"levelo://app?vid=b4f47bc1-4d12-4541-a757-a859819c9d1c"},"vehicle_type_id":"4","last_reported":1758874469,"current_range_meters":13600,"station_id":"","pricing_plan_id":"cebpf4jnsgd1na2vs0mg"},{"bike_id":"127a2772-9d59-4564-9afc-f6ddd422b53d","system_id":"levelo_inurba_marseille","lat":43.30203,"lon":5.3947,"is_reserved":false,"is_disabled":false,"rental_uris":{"android":"levelo://app?vid=127a2772-9d59-4564-9afc-f6ddd422b53d","ios":"levelo://app?vid=127a2772-9d59-4564-9afc-f6ddd422b53d"},"vehicle_type_id":"4","last_reported":1758874469,"current_range_meters":13600,"station_id":"ce4bh0p2rcd13ifvqd70","pricing_plan_id":"cebpf4jnsgd1na2vs0mg"},{"bike_id":"b52cfa62-e0be-45a9-911c-358436312b9d","system_id":"levelo_inurba_marseille","lat":43.26224,"lon":5.40458,"is_reserved":false,"is_disabled":false,"rental_uris":{"android":"levelo://app?vid=b52cfa62-e0be-45a9-911c-358436312b9d","ios":"levelo://app?vid=b52cfa62-e0be-45a9-911c-358436312b9d"},"vehicle_type_id":"4","last_reported":1758874469,"current_range_meters":13600,"station_id":"ce4bhmh2rcd13ifvqgmg","pricing_plan_id":"cebpf4jnsgd1na2vs0mg"},{"bike_id":"41cfb404-a246-4ca2-b7a6-1f89b85dc9db","system_id":"levelo_inurba_marseille","lat":43.30142,"lon":5.37413,"is_reserved":false,"is_disabled":false,"rental_uris":{"android":"levelo://app?vid=41cfb404-a246-4ca2-b7a6-1f89b85dc9db","ios":"levelo://app?vid=41cfb404-a246-4ca2-b7a6-1f89b85dc9db"},"vehicle_type_id":"4","last_reported":1758874469,"current_range_meters":13600,"station_id":"ce4bgs92rcd13ifvqcc0","pricing_plan_id":"cebpf4jnsgd1na2vs0mg"},{"bike_id":"a24b4c4b-92af-4172-8e9b-b41c08f2d93d","system_id":"levelo_inurba_marseille","lat":43.29215,"lon":5.36073,"is_reserved":false,"is_disabled":false,"rental_uris":{"android":"levelo://app?vid=a24b4c4b-92af-4172-8e9b-b41c08f2d93d","ios":"levelo://app?vid=a24b4c4b-92af-4172-8e9b-b41c08f2d93d"},"vehicle_type_id":"4","last_reported":1758874469,"current_range_meters":12800,"station_id":"ce4bhbh2rcd13ifvqeqg","pricing_plan_id":"cebpf4jnsgd1na2vs0mg"},{"bike_id":"24e3eaa1-ca26-4680-91e4-c0585b3eeeec","system_id":"levelo_inurba_marseille","lat":43.25085,"lon":5.3951,"is_reserved":false,"is_disabled":false,"rental_uris":{"android":"levelo://app?vid=24e3eaa1-ca26-4680-91e4-c0585b3eeeec","ios":"levelo://app?vid=24e3eaa1-ca26-4680-91e4-c0585b3eeeec"},"vehicle_type_id":"4","last_reported":1758874469,"current_range_meters":12800,"station_id":"ce4bhm12rcd13ifvqgkg","pricing_plan_id":"cebpf4jnsgd1na2vs0mg"},{"bike_id":"75611fb7-df45-4d9f-9db0-a181136cc424","system_id":"levelo_inurba_marseille","lat":43.21758,"lon":5.34596,"is_reserved":false,"is_disabled":true,"rental_uris":{"android":"levelo://app?vid=75611fb7-df45-4d9f-9db0-a181136cc424","ios":"levelo://app?vid=75611fb7-df45-4d9f-9db0-a181136cc424"},"vehicle_type_id":"4","last_reported":1758874469,"current_range_meters":14000,"station_id":"st_cvj6r9ubvosntc0bgbag","pricing_plan_id":"cebpf4jnsgd1na2vs0mg"},{"bike_id":"377142cb-267c-494b-99d9-6fe238c4e676","system_id":"levelo_inurba_marseille","lat":43.30982,"lon":5.40792,"is_reserved":false,"is_disabled":false,"rental_uris":{"android":"levelo://app?vid=377142cb-267c-494b-99d9-6fe238c4e676","ios":"levelo://app?vid=377142cb-267c-494b-99d9-6fe238c4e676"},"vehicle_type_id":"4","last_reported":1758874469,"current_range_meters":14000,"station_id":"","pricing_plan_id":"cebpf4jnsgd1na2vs0mg"},{"bike_id":"1f805626-3479-45ce-8948-2c6842b13253","system_id":"levelo_inurba_marseille","lat":43.29616,"lon":5.3716,"is_reserved":false,"is_disabled":false,"rental_uris":{"android":"levelo://app?vid=1f805626-3479-45ce-8948-2c6842b13253","ios":"levelo://app?vid=1f805626-3479-45ce-8948-2c6842b13253"},"vehicle_type_id":"4","last_reported":1758874469,"current_range_meters":13600,"station_id":"ce4bgnh2rcd13ifvqc0g","pricing_plan_id":"cebpf4jnsgd1na2vs0mg"},{"bike_id":"262dc574-a1cb-4c72-8c4c-82b40860fa6d","system_id":"levelo_inurba_marseille","lat":43.29908,"lon":5.37471,"is_reserved":false,"is_disabled":false,"rental_uris":{"android":"levelo://app?vid=262dc574-a1cb-4c72-8c4c-82b40860fa6d","ios":"levelo://app?vid=262dc574-a1cb-4c72-8c4c-82b40860fa6d"},"vehicle_type_id":"4","last_reported":1758874469,"current_range_meters":14000,"station_id":"ce4bgjh2rcd13ifvqbg0","pricing_plan_id":"cebpf4jnsgd1na2vs0mg"},{"bike_id":"434b2abe-54ea-40cc-a22e-26af0ffd3c60","system_id":"levelo_inurba_marseille","lat":43.23172,"lon":5.3999,"is_reserved":false,"is_disabled":false,"rental_uris":{"android":"levelo://app?vid=434b2abe-54ea-40cc-a22e-26af0ffd3c60","ios":"levelo://app?vid=434b2abe-54ea-40cc-a22e-26af0ffd3c60"},"vehicle_type_id":"4","last_reported":1758874469,"current_range_meters":14000,"station_id":"ce4bhn12rcd13ifvqgqg","pricing_plan_id":"cebpf4jnsgd1na2vs0mg"},{"bike_id":"8baeac13-7e80-456d-83aa-12e0372d0df5","system_id":"levelo_inurba_marseille","lat":43.324583,"lon":5.375477,"is_reserved":false,"is_disabled":true,"rental_uris":{"android":"levelo://app?vid=8baeac13-7e80-456d-83aa-12e0372d0df5","ios":"levelo://app?vid=8baeac13-7e80-456d-83aa-12e0372d0df5"},"vehicle_type_id":"4","last_reported":1758874469,"current_range_meters":14000,"station_id":"","pricing_plan_id":"cebpf4jnsgd1na2vs0mg"},{"bike_id":"79064598-6dd8-4019-943b-fc802c539d02","system_id":"levelo_inurba_marseille","lat":43.24075,"lon":5.37758,"is_reserved":false,"is_disabled":false,"rental_uris":{"android":"levelo://app?vid=79064598-6dd8-4019-943b-fc802c539d02","ios":"levelo://app?vid=79064598-6dd8-4019-943b-fc802c539d02"},"vehicle_type_id":"4","last_reported":1758874469,"current_range_meters":14000,"station_id":"ce4bhnp2rcd13ifvqgvg","pricing_plan_id":"cebpf4jnsgd1na2vs0mg"},{"bike_id":"5fc3794f-ec60-405e-a377-df9bf704ac15","system_id":"levelo_inurba_marseille","lat":43.28722,"lon":5.37949,"is_reserved":false,"is_disabled":false,"rental_uris":{"android":"levelo://app?vid=5fc3794f-ec60-405e-a377-df9bf704ac15","ios":"levelo://app?vid=5fc3794f-ec60-405e-a377-df9bf704ac15"},"vehicle_type_id":"4","last_reported":1758874469,"current_range_meters":14400,"station_id":"ce4bh9p2rcd13ifvqec0","pricing_plan_id":"cebpf4jnsgd1na2vs0mg"},{"bike_id":"df649d25-1f44-4471-8cdd-9566da8ef9b9","system_id":"levelo_inurba_marseille","lat":43.321594,"lon":5.387903,"is_reserved":false,"is_disabled":false,"rental_uris":{"android":"levelo://app?vid=df649d25-1f44-4471-8cdd-9566da8ef9b9","ios":"levelo://app?vid=df649d25-1f44-4471-8cdd-9566da8ef9b9"},"vehicle_type_id":"4","last_reported":1758874469,"current_range_meters":14400,"station_id":"","pricing_plan_id":"cebpf4jnsgd1na2vs0mg"},{"bike_id":"280349c2-7d75-4732-844a-272770d12d07","system_id":"levelo_inurba_marseille","lat":43.24947,"lon":5.40486,"is_reserved":false,"is_disabled":false,"rental_uris":{"android":"levelo://app?vid=280349c2-7d75-4732-844a-272770d12d07","ios":"levelo://app?vid=280349c2-7d75-4732-844a-272770d12d07"},"vehicle_type_id":"4","last_reported":1758874469,"current_range_meters":14400,"station_id":"st_d2ngiaodas8pm72gd1h0","pricing_plan_id":"cebpf4jnsgd1na2vs0mg"},{"bike_id":"2ba673bf-3d4d-4128-9a4e-4f1585dcf645","system_id":"levelo_inurba_marseille","lat":43.28975,"lon":5.37841,"is_reserved":false,"is_disabled":false,"rental_uris":{"android":"levelo://app?vid=2ba673bf-3d4d-4128-9a4e-4f1585dcf645","ios":"levelo://app?vid=2ba673bf-3d4d-4128-9a4e-4f1585dcf645"},"vehicle_type_id":"4","last_reported":1758874469,"current_range_meters":14400,"station_id":"ce4bh9p2rcd13ifvqed0","pricing_plan_id":"cebpf4jnsgd1na2vs0mg"},{"bike_id":"c110996d-22e7-4035-9eef-b37954d27511","system_id":"levelo_inurba_marseille","lat":43.23206,"lon":5.35534,"is_reserved":false,"is_disabled":false,"rental_uris":{"android":"levelo://app?vid=c110996d-22e7-4035-9eef-b37954d27511","ios":"levelo://app?vid=c110996d-22e7-4035-9eef-b37954d27511"},"vehicle_type_id":"4","last_reported":1758874469,"current_range_meters":14400,"station_id":"ce4bhu92rcd13ifvqi70","pricing_plan_id":"cebpf4jnsgd1na2vs0mg"},{"bike_id":"1d5d14cf-15e7-4470-bff9-613bb9abe120","system_id":"levelo_inurba_marseille","lat":43.33484,"lon":5.42048,"is_reserved":false,"is_disabled":false,"rental_uris":{"android":"levelo://app?vid=1d5d14cf-15e7-4470-bff9-613bb9abe120","ios":"levelo://app?vid=1d5d14cf-15e7-4470-bff9-613bb9abe120"},"vehicle_type_id":"4","last_reported":1758874469,"current_range_meters":14400,"station_id":"","pricing_plan_id":"cebpf4jnsgd1na2vs0mg"},{"bike_id":"5d944089-7d4d-485d-8e5e-fe9c9b3dd7de","system_id":"levelo_inurba_marseille","lat":43.225663,"lon":5.416291,"is_reserved":false,"is_disabled":false,"rental_uris":{"android":"levelo://app?vid=5d944089-7d4d-485d-8e5e-fe9c9b3dd7de","ios":"levelo://app?vid=5d944089-7d4d-485d-8e5e-fe9c9b3dd7de"},"vehicle_type_id":"4","last_reported":1758874469,"current_range_meters":14400,"station_id":"st_d2o4gvlbi1j2169b742g","pricing_plan_id":"cebpf4jnsgd1na2vs0mg"},{"bike_id":"b0312c9c-826b-47b2-974a-89cfb1beed08","system_id":"levelo_inurba_marseille","lat":43.24079,"lon":5.37757,"is_reserved":false,"is_disabled":false,"rental_uris":{"android":"levelo://app?vid=b0312c9c-826b-47b2-974a-89cfb1beed08","ios":"levelo://app?vid=b0312c9c-826b-47b2-974a-89cfb1beed08"},"vehicle_type_id":"4","last_reported":1758874469,"current_range_meters":14800,"station_id":"ce4bhnp2rcd13ifvqgvg","pricing_plan_id":"cebpf4jnsgd1na2vs0mg"},{"bike_id":"6ee917b5-7410-457c-9b85-88c720c02d38","system_id":"levelo_inurba_marseille","lat":43.301533,"lon":5.380902,"is_reserved":false,"is_disabled":false,"rental_uris":{"android":"levelo://app?vid=6ee917b5-7410-457c-9b85-88c720c02d38","ios":"levelo://app?vid=6ee917b5-7410-457c-9b85-88c720c02d38"},"vehicle_type_id":"4","last_reported":1758874469,"current_range_meters":14800,"station_id":"ce4bgjp2rcd13ifvqbh0","pricing_plan_id":"cebpf4jnsgd1na2vs0mg"},{"bike_id":"b0638895-8dbe-4173-950c-83ad3446529c","system_id":"levelo_inurba_marseille","lat":43.31276,"lon":5.36889,"is_reserved":false,"is_disabled":false,"rental_uris":{"android":"levelo://app?vid=b0638895-8dbe-4173-950c-83ad3446529c","ios":"levelo://app?vid=b0638895-8dbe-4173-950c-83ad3446529c"},"vehicle_type_id":"4","last_reported":1758874469,"current_range_meters":14800,"station_id":"ce4bgl92rcd13ifvqbq0","pricing_plan_id":"cebpf4jnsgd1na2vs0mg"},{"bike_id":"08fe2b08-b3fa-43f8-ae73-04061f76318d","system_id":"levelo_inurba_marseille","lat":43.305552,"lon":5.365395,"is_reserved":false,"is_disabled":false,"rental_uris":{"android":"levelo://app?vid=08fe2b08-b3fa-43f8-ae73-04061f76318d","ios":"levelo://app?vid=08fe2b08-b3fa-43f8-ae73-04061f76318d"},"vehicle_type_id":"4","last_reported":1758874469,"current_range_meters":14800,"station_id":"","pricing_plan_id":"cebpf4jnsgd1na2vs0mg"},{"bike_id":"208d8654-3228-40c7-b9c8-8618c2e5fa52","system_id":"levelo_inurba_marseille","lat":43.28641,"lon":5.38257,"is_reserved":false,"is_disabled":false,"rental_uris":{"android":"levelo://app?vid=208d8654-3228-40c7-b9c8-8618c2e5fa52","ios":"levelo://app?vid=208d8654-3228-40c7-b9c8-8618c2e5fa52"},"vehicle_type_id":"4","last_reported":1758874469,"current_range_meters":14800,"station_id":"","pricing_plan_id":"cebpf4jnsgd1na2vs0mg"},{"bike_id":"2efcdf95-60d6-4b92-b733-9b7aaa02079b","system_id":"levelo_inurba_marseille","lat":43.23147,"lon":5.4371,"is_reserved":false,"is_disabled":false,"rental_uris":{"android":"levelo://app?vid=2efcdf95-60d6-4b92-b733-9b7aaa02079b","ios":"levelo://app?vid=2efcdf95-60d6-4b92-b733-9b7aaa02079b"},"vehicle_type_id":"4","last_reported":1758874469,"current_range_meters":14800,"station_id":"ce4bhmp2rcd13ifvqgog","pricing_plan_id":"cebpf4jnsgd1na2vs0mg"},{"bike_id":"10b8d871-07e9-4114-9eb9-6bcce40e7beb","system_id":"levelo_inurba_marseille","lat":43.27045,"lon":5.392226,"is_reserved":false,"is_disabled":false,"rental_uris":{"android":"levelo://app?vid=10b8d871-07e9-4114-9eb9-6bcce40e7beb","ios":"levelo://app?vid=10b8d871-07e9-4114-9eb9-6bcce40e7beb"},"vehicle_type_id":"4","last_reported":1758874469,"current_range_meters":14800,"station_id":"ce4bhe12rcd13ifvqf30","pricing_plan_id":"cebpf4jnsgd1na2vs0mg"},{"bike_id":"c775c065-8bc8-42b8-a0b6-e89502695ddf","system_id":"levelo_inurba_marseille","lat":43.29023,"lon":5.38127,"is_reserved":false,"is_disabled":false,"rental_uris":{"android":"levelo://app?vid=c775c065-8bc8-42b8-a0b6-e89502695ddf","ios":"levelo://app?vid=c775c065-8bc8-42b8-a0b6-e89502695ddf"},"vehicle_type_id":"4","last_reported":1758874469,"current_range_meters":16000,"station_id":"ce4bh4p2rcd13ifvqe1g","pricing_plan_id":"cebpf4jnsgd1na2vs0mg"},{"bike_id":"9321d8db-ec73-4d9f-82d4-529eada95131","system_id":"levelo_inurba_marseille","lat":43.30139,"lon":5.37417,"is_reserved":false,"is_disabled":false,"rental_uris":{"android":"levelo://app?vid=9321d8db-ec73-4d9f-82d4-529eada95131","ios":"levelo://app?vid=9321d8db-ec73-4d9f-82d4-529eada95131"},"vehicle_type_id":"4","last_reported":1758874469,"current_range_meters":15200,"station_id":"ce4bgs92rcd13ifvqcc0","pricing_plan_id":"cebpf4jnsgd1na2vs0mg"},{"bike_id":"ad86a8fc-ef1f-496b-8843-3b37aab70ba4","system_id":"levelo_inurba_marseille","lat":43.23963,"lon":5.36636,"is_reserved":false,"is_disabled":false,"rental_uris":{"android":"levelo://app?vid=ad86a8fc-ef1f-496b-8843-3b37aab70ba4","ios":"levelo://app?vid=ad86a8fc-ef1f-496b-8843-3b37aab70ba4"},"vehicle_type_id":"4","last_reported":1758874469,"current_range_meters":15200,"station_id":"ce4bhi12rcd13ifvqfp0","pricing_plan_id":"cebpf4jnsgd1na2vs0mg"},{"bike_id":"6ff62d79-81a4-487f-8694-4fb22f54a494","system_id":"levelo_inurba_marseille","lat":43.32483,"lon":5.39132,"is_reserved":false,"is_disabled":false,"rental_uris":{"android":"levelo://app?vid=6ff62d79-81a4-487f-8694-4fb22f54a494","ios":"levelo://app?vid=6ff62d79-81a4-487f-8694-4fb22f54a494"},"vehicle_type_id":"4","last_reported":1758874469,"current_range_meters":15200,"station_id":"","pricing_plan_id":"cebpf4jnsgd1na2vs0mg"},{"bike_id":"ee9dbae0-e0e6-4baf-a574-c8f5ce6f3027","system_id":"levelo_inurba_marseille","lat":43.27493,"lon":5.4247,"is_reserved":false,"is_disabled":false,"rental_uris":{"android":"levelo://app?vid=ee9dbae0-e0e6-4baf-a574-c8f5ce6f3027","ios":"levelo://app?vid=ee9dbae0-e0e6-4baf-a574-c8f5ce6f3027"},"vehicle_type_id":"4","last_reported":1758874469,"current_range_meters":15200,"station_id":"ce4bhn92rcd13ifvqgrg","pricing_plan_id":"cebpf4jnsgd1na2vs0mg"},{"bike_id":"f9157fcc-c7f7-49df-a01d-e68f92baa362","system_id":"levelo_inurba_marseille","lat":43.30946,"lon":5.39035,"is_reserved":false,"is_disabled":false,"rental_uris":{"android":"levelo://app?vid=f9157fcc-c7f7-49df-a01d-e68f92baa362","ios":"levelo://app?vid=f9157fcc-c7f7-49df-a01d-e68f92baa362"},"vehicle_type_id":"4","last_reported":1758874469,"current_range_meters":15200,"station_id":"ce4bgup2rcd13ifvqco0","pricing_plan_id":"cebpf4jnsgd1na2vs0mg"},{"bike_id":"f9e21fc1-be7d-42a8-9eff-6458e73f3db9","system_id":"levelo_inurba_marseille","lat":43.32367,"lon":5.36751,"is_reserved":false,"is_disabled":false,"rental_uris":{"android":"levelo://app?vid=f9e21fc1-be7d-42a8-9eff-6458e73f3db9","ios":"levelo://app?vid=f9e21fc1-be7d-42a8-9eff-6458e73f3db9"},"vehicle_type_id":"4","last_reported":1758874469,"current_range_meters":15200,"station_id":"ce4bhsh2rcd13ifvqi2g","pricing_plan_id":"cebpf4jnsgd1na2vs0mg"},{"bike_id":"467b4306-5fd8-484e-9a4b-cf8eb50151ba","system_id":"levelo_inurba_marseille","lat":43.32296,"lon":5.3828,"is_reserved":false,"is_disabled":false,"rental_uris":{"android":"levelo://app?vid=467b4306-5fd8-484e-9a4b-cf8eb50151ba","ios":"levelo://app?vid=467b4306-5fd8-484e-9a4b-cf8eb50151ba"},"vehicle_type_id":"4","last_reported":1758874469,"current_range_meters":16000,"station_id":"ce4bhr12rcd13ifvqhqg","pricing_plan_id":"cebpf4jnsgd1na2vs0mg"},{"bike_id":"08292ac0-f4a0-4778-9703-5ac015ee1e3a","system_id":"levelo_inurba_marseille","lat":43.24622,"lon":5.43154,"is_reserved":false,"is_disabled":false,"rental_uris":{"android":"levelo://app?vid=08292ac0-f4a0-4778-9703-5ac015ee1e3a","ios":"levelo://app?vid=08292ac0-f4a0-4778-9703-5ac015ee1e3a"},"vehicle_type_id":"4","last_reported":1758874469,"current_range_meters":16000,"station_id":"st_d2m6c4gdas8pm72e190g","pricing_plan_id":"cebpf4jnsgd1na2vs0mg"},{"bike_id":"47b9cece-62de-43f0-80d8-9147224e7ea6","system_id":"levelo_inurba_marseille","lat":43.3015,"lon":5.38081,"is_reserved":false,"is_disabled":false,"rental_uris":{"android":"levelo://app?vid=47b9cece-62de-43f0-80d8-9147224e7ea6","ios":"levelo://app?vid=47b9cece-62de-43f0-80d8-9147224e7ea6"},"vehicle_type_id":"4","last_reported":1758874469,"current_range_meters":16000,"station_id":"ce4bgjp2rcd13ifvqbh0","pricing_plan_id":"cebpf4jnsgd1na2vs0mg"},{"bike_id":"9a4f92ed-e086-4038-a651-bbe0613f80bd","system_id":"levelo_inurba_marseille","lat":43.22573,"lon":5.41614,"is_reserved":false,"is_disabled":false,"rental_uris":{"android":"levelo://app?vid=9a4f92ed-e086-4038-a651-bbe0613f80bd","ios":"levelo://app?vid=9a4f92ed-e086-4038-a651-bbe0613f80bd"},"vehicle_type_id":"4","last_reported":1758874469,"current_range_meters":16000,"station_id":"st_d2o4gvlbi1j2169b742g","pricing_plan_id":"cebpf4jnsgd1na2vs0mg"},{"bike_id":"ece36685-817e-47c1-b130-8af29913096b","system_id":"levelo_inurba_marseille","lat":43.292835,"lon":5.401144,"is_reserved":false,"is_disabled":false,"rental_uris":{"android":"levelo://app?vid=ece36685-817e-47c1-b130-8af29913096b","ios":"levelo://app?vid=ece36685-817e-47c1-b130-8af29913096b"},"vehicle_type_id":"4","last_reported":1758874469,"current_range_meters":16000,"station_id":"","pricing_plan_id":"cebpf4jnsgd1na2vs0mg"},{"bike_id":"c0344c79-2ae5-4a66-b545-5235cbd72a4d","system_id":"levelo_inurba_marseille","lat":43.30562,"lon":5.38419,"is_reserved":false,"is_disabled":false,"rental_uris":{"android":"levelo://app?vid=c0344c79-2ae5-4a66-b545-5235cbd72a4d","ios":"levelo://app?vid=c0344c79-2ae5-4a66-b545-5235cbd72a4d"},"vehicle_type_id":"4","last_reported":1758874469,"current_range_meters":16000,"station_id":"ce4bgg92rcd13ifvqb30","pricing_plan_id":"cebpf4jnsgd1na2vs0mg"},{"bike_id":"9004b345-7c80-4442-aa3c-82020b52ef9c","system_id":"levelo_inurba_marseille","lat":43.26955,"lon":5.38632,"is_reserved":false,"is_disabled":false,"rental_uris":{"android":"levelo://app?vid=9004b345-7c80-4442-aa3c-82020b52ef9c","ios":"levelo://app?vid=9004b345-7c80-4442-aa3c-82020b52ef9c"},"vehicle_type_id":"4","last_reported":1758874469,"current_range_meters":16000,"station_id":"ce4bhh92rcd13ifvqfh0","pricing_plan_id":"cebpf4jnsgd1na2vs0mg"},{"bike_id":"b2fc922b-ff47-4f68-9531-9abaa818a9ad","system_id":"levelo_inurba_marseille","lat":43.24937,"lon":5.40494,"is_reserved":false,"is_disabled":false,"rental_uris":{"android":"levelo://app?vid=b2fc922b-ff47-4f68-9531-9abaa818a9ad","ios":"levelo://app?vid=b2fc922b-ff47-4f68-9531-9abaa818a9ad"},"vehicle_type_id":"4","last_reported":1758874469,"current_range_meters":16000,"station_id":"st_d2ngiaodas8pm72gd1h0","pricing_plan_id":"cebpf4jnsgd1na2vs0mg"},{"bike_id":"5ba54380-2fc1-4ae5-9bd6-21e0beb4d3dc","system_id":"levelo_inurba_marseille","lat":43.286172,"lon":5.384354,"is_reserved":false,"is_disabled":false,"rental_uris":{"android":"levelo://app?vid=5ba54380-2fc1-4ae5-9bd6-21e0beb4d3dc","ios":"levelo://app?vid=5ba54380-2fc1-4ae5-9bd6-21e0beb4d3dc"},"vehicle_type_id":"4","last_reported":1758874469,"current_range_meters":16000,"station_id":"","pricing_plan_id":"cebpf4jnsgd1na2vs0mg"},{"bike_id":"e30c1d2f-47db-4e75-bb18-61579886473a","system_id":"levelo_inurba_marseille","lat":43.32538,"lon":5.41428,"is_reserved":false,"is_disabled":false,"rental_uris":{"android":"levelo://app?vid=e30c1d2f-47db-4e75-bb18-61579886473a","ios":"levelo://app?vid=e30c1d2f-47db-4e75-bb18-61579886473a"},"vehicle_type_id":"4","last_reported":1758874469,"current_range_meters":16000,"station_id":"ce4bhq12rcd13ifvqhhg","pricing_plan_id":"cebpf4jnsgd1na2vs0mg"},{"bike_id":"cc929d5c-1e16-4b81-9bec-eeaf53033103","system_id":"levelo_inurba_marseille","lat":43.29853,"lon":5.36263,"is_reserved":false,"is_disabled":false,"rental_uris":{"android":"levelo://app?vid=cc929d5c-1e16-4b81-9bec-eeaf53033103","ios":"levelo://app?vid=cc929d5c-1e16-4b81-9bec-eeaf53033103"},"vehicle_type_id":"4","last_reported":1758874469,"current_range_meters":16000,"station_id":"ce4bgpp2rcd13ifvqc3g","pricing_plan_id":"cebpf4jnsgd1na2vs0mg"},{"bike_id":"1aedbc2a-7a72-42ec-a4d3-98616de82dbb","system_id":"levelo_inurba_marseille","lat":43.29523,"lon":5.37515,"is_reserved":false,"is_disabled":false,"rental_uris":{"android":"levelo://app?vid=1aedbc2a-7a72-42ec-a4d3-98616de82dbb","ios":"levelo://app?vid=1aedbc2a-7a72-42ec-a4d3-98616de82dbb"},"vehicle_type_id":"4","last_reported":1758874469,"current_range_meters":16400,"station_id":"ce4bgkp2rcd13ifvqbmg","pricing_plan_id":"cebpf4jnsgd1na2vs0mg"},{"bike_id":"fd18a301-a9dd-4600-afce-c6b935fa8b40","system_id":"levelo_inurba_marseille","lat":43.26193,"lon":5.37452,"is_reserved":false,"is_disabled":false,"rental_uris":{"android":"levelo://app?vid=fd18a301-a9dd-4600-afce-c6b935fa8b40","ios":"levelo://app?vid=fd18a301-a9dd-4600-afce-c6b935fa8b40"},"vehicle_type_id":"4","last_reported":1758874469,"current_range_meters":16400,"station_id":"ce4bhgp2rcd13ifvqfc0","pricing_plan_id":"cebpf4jnsgd1na2vs0mg"},{"bike_id":"885c9a19-740d-4924-a459-3948fcf4fd1d","system_id":"levelo_inurba_marseille","lat":43.29961,"lon":5.41322,"is_reserved":false,"is_disabled":false,"rental_uris":{"android":"levelo://app?vid=885c9a19-740d-4924-a459-3948fcf4fd1d","ios":"levelo://app?vid=885c9a19-740d-4924-a459-3948fcf4fd1d"},"vehicle_type_id":"4","last_reported":1758874469,"current_range_meters":16400,"station_id":"ce4bhp12rcd13ifvqh9g","pricing_plan_id":"cebpf4jnsgd1na2vs0mg"},{"bike_id":"9d95f00f-b6a6-4086-8204-e717c98b9cfc","system_id":"levelo_inurba_marseille","lat":43.24075,"lon":5.37742,"is_reserved":false,"is_disabled":false,"rental_uris":{"android":"levelo://app?vid=9d95f00f-b6a6-4086-8204-e717c98b9cfc","ios":"levelo://app?vid=9d95f00f-b6a6-4086-8204-e717c98b9cfc"},"vehicle_type_id":"4","last_reported":1758874469,"current_range_meters":16400,"station_id":"ce4bhnp2rcd13ifvqgvg","pricing_plan_id":"cebpf4jnsgd1na2vs0mg"},{"bike_id":"1954e710-b297-4f83-b0fa-8bcb2b8d6d89","system_id":"levelo_inurba_marseille","lat":43.29893,"lon":5.43662,"is_reserved":false,"is_disabled":false,"rental_uris":{"android":"levelo://app?vid=1954e710-b297-4f83-b0fa-8bcb2b8d6d89","ios":"levelo://app?vid=1954e710-b297-4f83-b0fa-8bcb2b8d6d89"},"vehicle_type_id":"4","last_reported":1758874469,"current_range_meters":16400,"station_id":"ce4bhpp2rcd13ifvqhfg","pricing_plan_id":"cebpf4jnsgd1na2vs0mg"},{"bike_id":"a786b5d5-c359-4afc-85e8-23c07eaacae5","system_id":"levelo_inurba_marseille","lat":43.24073,"lon":5.37759,"is_reserved":false,"is_disabled":false,"rental_uris":{"android":"levelo://app?vid=a786b5d5-c359-4afc-85e8-23c07eaacae5","ios":"levelo://app?vid=a786b5d5-c359-4afc-85e8-23c07eaacae5"},"vehicle_type_id":"4","last_reported":1758874469,"current_range_meters":16400,"station_id":"ce4bhnp2rcd13ifvqgvg","pricing_plan_id":"cebpf4jnsgd1na2vs0mg"},{"bike_id":"b5b3cf7c-3cd2-468e-81f0-a3cad12404e6","system_id":"levelo_inurba_marseille","lat":43.25956,"lon":5.40897,"is_reserved":false,"is_disabled":false,"rental_uris":{"android":"levelo://app?vid=b5b3cf7c-3cd2-468e-81f0-a3cad12404e6","ios":"levelo://app?vid=b5b3cf7c-3cd2-468e-81f0-a3cad12404e6"},"vehicle_type_id":"4","last_reported":1758874469,"current_range_meters":16400,"station_id":"ce4bhm92rcd13ifvqglg","pricing_plan_id":"cebpf4jnsgd1na2vs0mg"},{"bike_id":"46a648bf-42a5-4fc5-b881-b77e8e43b612","system_id":"levelo_inurba_marseille","lat":43.22919,"lon":5.35397,"is_reserved":false,"is_disabled":false,"rental_uris":{"android":"levelo://app?vid=46a648bf-42a5-4fc5-b881-b77e8e43b612","ios":"levelo://app?vid=46a648bf-42a5-4fc5-b881-b77e8e43b612"},"vehicle_type_id":"4","last_reported":1758874469,"current_range_meters":16400,"station_id":"cpo3532slgdg3j2ikp40","pricing_plan_id":"cebpf4jnsgd1na2vs0mg"},{"bike_id":"e438f743-9525-44aa-8cda-c8be3486e464","system_id":"levelo_inurba_marseille","lat":43.33608,"lon":5.41004,"is_reserved":false,"is_disabled":false,"rental_uris":{"android":"levelo://app?vid=e438f743-9525-44aa-8cda-c8be3486e464","ios":"levelo://app?vid=e438f743-9525-44aa-8cda-c8be3486e464"},"vehicle_type_id":"4","last_reported":1758874469,"current_range_meters":16400,"station_id":"ce4bhqh2rcd13ifvqhmg","pricing_plan_id":"cebpf4jnsgd1na2vs0mg"},{"bike_id":"5953e050-f8a0-4e94-8fb6-913d54d35f7d","system_id":"levelo_inurba_marseille","lat":43.27314,"lon":5.39108,"is_reserved":false,"is_disabled":false,"rental_uris":{"android":"levelo://app?vid=5953e050-f8a0-4e94-8fb6-913d54d35f7d","ios":"levelo://app?vid=5953e050-f8a0-4e94-8fb6-913d54d35f7d"},"vehicle_type_id":"4","last_reported":1758874469,"current_range_meters":16400,"station_id":"ce4bhgp2rcd13ifvqfe0","pricing_plan_id":"cebpf4jnsgd1na2vs0mg"},{"bike_id":"32ad929f-3e3e-4d5c-9b67-71449fd28054","system_id":"levelo_inurba_marseille","lat":43.31247,"lon":5.3691,"is_reserved":false,"is_disabled":false,"rental_uris":{"android":"levelo://app?vid=32ad929f-3e3e-4d5c-9b67-71449fd28054","ios":"levelo://app?vid=32ad929f-3e3e-4d5c-9b67-71449fd28054"},"vehicle_type_id":"4","last_reported":1758874469,"current_range_meters":16400,"station_id":"ce4bgl92rcd13ifvqbq0","pricing_plan_id":"cebpf4jnsgd1na2vs0mg"},{"bike_id":"74a0cd52-f718-4bdb-9392-0d4318de3a49","system_id":"levelo_inurba_marseille","lat":43.323366,"lon":5.40627,"is_reserved":false,"is_disabled":false,"rental_uris":{"android":"levelo://app?vid=74a0cd52-f718-4bdb-9392-0d4318de3a49","ios":"levelo://app?vid=74a0cd52-f718-4bdb-9392-0d4318de3a49"},"vehicle_type_id":"4","last_reported":1758874469,"current_range_meters":16400,"station_id":"ce4bhq92rcd13ifvqhjg","pricing_plan_id":"cebpf4jnsgd1na2vs0mg"},{"bike_id":"f2945c6f-dada-4bc9-a7c8-16adc94854cd","system_id":"levelo_inurba_marseille","lat":43.28215,"lon":5.39053,"is_reserved":false,"is_disabled":false,"rental_uris":{"android":"levelo://app?vid=f2945c6f-dada-4bc9-a7c8-16adc94854cd","ios":"levelo://app?vid=f2945c6f-dada-4bc9-a7c8-16adc94854cd"},"vehicle_type_id":"4","last_reported":1758874469,"current_range_meters":16400,"station_id":"ce4bhn92rcd13ifvqgsg","pricing_plan_id":"cebpf4jnsgd1na2vs0mg"},{"bike_id":"2a416e7a-1803-402e-9523-74bfe690bd54","system_id":"levelo_inurba_marseille","lat":43.32365,"lon":5.36767,"is_reserved":false,"is_disabled":false,"rental_uris":{"android":"levelo://app?vid=2a416e7a-1803-402e-9523-74bfe690bd54","ios":"levelo://app?vid=2a416e7a-1803-402e-9523-74bfe690bd54"},"vehicle_type_id":"4","last_reported":1758874469,"current_range_meters":16400,"station_id":"ce4bhsh2rcd13ifvqi2g","pricing_plan_id":"cebpf4jnsgd1na2vs0mg"},{"bike_id":"175ed984-4779-4b98-920a-039ca300eaa4","system_id":"levelo_inurba_marseille","lat":43.272943,"lon":5.40814,"is_reserved":false,"is_disabled":false,"rental_uris":{"android":"levelo://app?vid=175ed984-4779-4b98-920a-039ca300eaa4","ios":"levelo://app?vid=175ed984-4779-4b98-920a-039ca300eaa4"},"vehicle_type_id":"4","last_reported":1758874469,"current_range_meters":16800,"station_id":"","pricing_plan_id":"cebpf4jnsgd1na2vs0mg"},{"bike_id":"7bae3060-c47a-4be6-bd00-0a07b5d1af80","system_id":"levelo_inurba_marseille","lat":43.27319,"lon":5.39096,"is_reserved":false,"is_disabled":false,"rental_uris":{"android":"levelo://app?vid=7bae3060-c47a-4be6-bd00-0a07b5d1af80","ios":"levelo://app?vid=7bae3060-c47a-4be6-bd00-0a07b5d1af80"},"vehicle_type_id":"4","last_reported":1758874469,"current_range_meters":16400,"station_id":"ce4bhgp2rcd13ifvqfe0","pricing_plan_id":"cebpf4jnsgd1na2vs0mg"},{"bike_id":"9c3e0c65-00bf-47b6-818a-c1f5575c6ca2","system_id":"levelo_inurba_marseille","lat":43.30273,"lon":5.37688,"is_reserved":false,"is_disabled":false,"rental_uris":{"android":"levelo://app?vid=9c3e0c65-00bf-47b6-818a-c1f5575c6ca2","ios":"levelo://app?vid=9c3e0c65-00bf-47b6-818a-c1f5575c6ca2"},"vehicle_type_id":"4","last_reported":1758874469,"current_range_meters":16800,"station_id":"ce4bguh2rcd13ifvqcj0","pricing_plan_id":"cebpf4jnsgd1na2vs0mg"},{"bike_id":"a30b7a93-09c8-4963-8ddf-5219da54960d","system_id":"levelo_inurba_marseille","lat":43.27305,"lon":5.39106,"is_reserved":false,"is_disabled":false,"rental_uris":{"android":"levelo://app?vid=a30b7a93-09c8-4963-8ddf-5219da54960d","ios":"levelo://app?vid=a30b7a93-09c8-4963-8ddf-5219da54960d"},"vehicle_type_id":"4","last_reported":1758874469,"current_range_meters":16800,"station_id":"ce4bhgp2rcd13ifvqfe0","pricing_plan_id":"cebpf4jnsgd1na2vs0mg"},{"bike_id":"63d52c35-c9c9-44eb-9780-1b2f9145123b","system_id":"levelo_inurba_marseille","lat":43.29627,"lon":5.377037,"is_reserved":false,"is_disabled":false,"rental_uris":{"android":"levelo://app?vid=63d52c35-c9c9-44eb-9780-1b2f9145123b","ios":"levelo://app?vid=63d52c35-c9c9-44eb-9780-1b2f9145123b"},"vehicle_type_id":"4","last_reported":1758874469,"current_range_meters":16800,"station_id":"","pricing_plan_id":"cebpf4jnsgd1na2vs0mg"},{"bike_id":"85782661-163d-4a8b-b5a4-1f0a766faaa2","system_id":"levelo_inurba_marseille","lat":43.24633,"lon":5.43161,"is_reserved":false,"is_disabled":false,"rental_uris":{"android":"levelo://app?vid=85782661-163d-4a8b-b5a4-1f0a766faaa2","ios":"levelo://app?vid=85782661-163d-4a8b-b5a4-1f0a766faaa2"},"vehicle_type_id":"4","last_reported":1758874469,"current_range_meters":16800,"station_id":"st_d2m6c4gdas8pm72e190g","pricing_plan_id":"cebpf4jnsgd1na2vs0mg"},{"bike_id":"301a5873-cfe3-4c06-9c83-a405ecc07049","system_id":"levelo_inurba_marseille","lat":43.29514,"lon":5.375183,"is_reserved":false,"is_disabled":false,"rental_uris":{"android":"levelo://app?vid=301a5873-cfe3-4c06-9c83-a405ecc07049","ios":"levelo://app?vid=301a5873-cfe3-4c06-9c83-a405ecc07049"},"vehicle_type_id":"4","last_reported":1758874469,"current_range_meters":16800,"station_id":"ce4bgkp2rcd13ifvqbmg","pricing_plan_id":"cebpf4jnsgd1na2vs0mg"},{"bike_id":"fc0cd328-6320-49b4-9fc7-09a1e6c72fe7","system_id":"levelo_inurba_marseille","lat":43.29455,"lon":5.39752,"is_reserved":false,"is_disabled":false,"rental_uris":{"android":"levelo://app?vid=fc0cd328-6320-49b4-9fc7-09a1e6c72fe7","ios":"levelo://app?vid=fc0cd328-6320-49b4-9fc7-09a1e6c72fe7"},"vehicle_type_id":"4","last_reported":1758874469,"current_range_meters":16800,"station_id":"ce4bhhh2rcd13ifvqfl0","pricing_plan_id":"cebpf4jnsgd1na2vs0mg"},{"bike_id":"8fbcd673-2700-4b25-a92a-fd7d794b93d7","system_id":"levelo_inurba_marseille","lat":43.29553,"lon":5.42291,"is_reserved":false,"is_disabled":false,"rental_uris":{"android":"levelo://app?vid=8fbcd673-2700-4b25-a92a-fd7d794b93d7","ios":"levelo://app?vid=8fbcd673-2700-4b25-a92a-fd7d794b93d7"},"vehicle_type_id":"4","last_reported":1758874469,"current_range_meters":16800,"station_id":"ce4bhph2rcd13ifvqhdg","pricing_plan_id":"cebpf4jnsgd1na2vs0mg"},{"bike_id":"fec08481-c683-4f8d-8de9-462eff043834","system_id":"levelo_inurba_marseille","lat":43.27061,"lon":5.40256,"is_reserved":false,"is_disabled":false,"rental_uris":{"android":"levelo://app?vid=fec08481-c683-4f8d-8de9-462eff043834","ios":"levelo://app?vid=fec08481-c683-4f8d-8de9-462eff043834"},"vehicle_type_id":"4","last_reported":1758874469,"current_range_meters":16800,"station_id":"ce4bhk92rcd13ifvqgc0","pricing_plan_id":"cebpf4jnsgd1na2vs0mg"},{"bike_id":"50403fee-05b6-4f96-a764-c3716edce5ad","system_id":"levelo_inurba_marseille","lat":43.240856,"lon":5.377597,"is_reserved":false,"is_disabled":false,"rental_uris":{"android":"levelo://app?vid=50403fee-05b6-4f96-a764-c3716edce5ad","ios":"levelo://app?vid=50403fee-05b6-4f96-a764-c3716edce5ad"},"vehicle_type_id":"4","last_reported":1758874469,"current_range_meters":16800,"station_id":"ce4bhnp2rcd13ifvqgvg","pricing_plan_id":"cebpf4jnsgd1na2vs0mg"},{"bike_id":"fee74e98-eb52-4f66-a612-109c75f34aa6","system_id":"levelo_inurba_marseille","lat":43.29599,"lon":5.37948,"is_reserved":false,"is_disabled":false,"rental_uris":{"android":"levelo://app?vid=fee74e98-eb52-4f66-a612-109c75f34aa6","ios":"levelo://app?vid=fee74e98-eb52-4f66-a612-109c75f34aa6"},"vehicle_type_id":"4","last_reported":1758874469,"current_range_meters":16800,"station_id":"","pricing_plan_id":"cebpf4jnsgd1na2vs0mg"},{"bike_id":"4d2374ce-004b-4b44-815d-bb859642125d","system_id":"levelo_inurba_marseille","lat":43.30287,"lon":5.36878,"is_reserved":false,"is_disabled":false,"rental_uris":{"android":"levelo://app?vid=4d2374ce-004b-4b44-815d-bb859642125d","ios":"levelo://app?vid=4d2374ce-004b-4b44-815d-bb859642125d"},"vehicle_type_id":"4","last_reported":1758874469,"current_range_meters":17200,"station_id":"ce4bgqh2rcd13ifvqc5g","pricing_plan_id":"cebpf4jnsgd1na2vs0mg"},{"bike_id":"a3bcd496-d182-4abc-a036-b6bed79baa57","system_id":"levelo_inurba_marseille","lat":43.29577,"lon":5.36743,"is_reserved":false,"is_disabled":false,"rental_uris":{"android":"levelo://app?vid=a3bcd496-d182-4abc-a036-b6bed79baa57","ios":"levelo://app?vid=a3bcd496-d182-4abc-a036-b6bed79baa57"},"vehicle_type_id":"4","last_reported":1758874469,"current_range_meters":17200,"station_id":"ce4bgph2rcd13ifvqc2g","pricing_plan_id":"cebpf4jnsgd1na2vs0mg"},{"bike_id":"c973dbb4-81a7-4731-a850-2666ddbc48bd","system_id":"levelo_inurba_marseille","lat":43.28166,"lon":5.4264,"is_reserved":false,"is_disabled":false,"rental_uris":{"android":"levelo://app?vid=c973dbb4-81a7-4731-a850-2666ddbc48bd","ios":"levelo://app?vid=c973dbb4-81a7-4731-a850-2666ddbc48bd"},"vehicle_type_id":"4","last_reported":1758874469,"current_range_meters":17200,"station_id":"ce4bhnh2rcd13ifvqgug","pricing_plan_id":"cebpf4jnsgd1na2vs0mg"},{"bike_id":"43d3e43e-b792-4604-865a-4db1d5f5a46a","system_id":"levelo_inurba_marseille","lat":43.2509,"lon":5.39528,"is_reserved":false,"is_disabled":true,"rental_uris":{"android":"levelo://app?vid=43d3e43e-b792-4604-865a-4db1d5f5a46a","ios":"levelo://app?vid=43d3e43e-b792-4604-865a-4db1d5f5a46a"},"vehicle_type_id":"4","last_reported":1758874469,"current_range_meters":17200,"station_id":"ce4bhm12rcd13ifvqgkg","pricing_plan_id":"cebpf4jnsgd1na2vs0mg"},{"bike_id":"71480e3b-e8c0-407b-a70e-14dd67ebf7e2","system_id":"levelo_inurba_marseille","lat":43.24082,"lon":5.37753,"is_reserved":false,"is_disabled":false,"rental_uris":{"android":"levelo://app?vid=71480e3b-e8c0-407b-a70e-14dd67ebf7e2","ios":"levelo://app?vid=71480e3b-e8c0-407b-a70e-14dd67ebf7e2"},"vehicle_type_id":"4","last_reported":1758874469,"current_range_meters":17200,"station_id":"ce4bhnp2rcd13ifvqgvg","pricing_plan_id":"cebpf4jnsgd1na2vs0mg"},{"bike_id":"c47381a3-5a4b-4844-b987-0207088305bf","system_id":"levelo_inurba_marseille","lat":43.31301,"lon":5.36867,"is_reserved":false,"is_disabled":false,"rental_uris":{"android":"levelo://app?vid=c47381a3-5a4b-4844-b987-0207088305bf","ios":"levelo://app?vid=c47381a3-5a4b-4844-b987-0207088305bf"},"vehicle_type_id":"4","last_reported":1758874469,"current_range_meters":17600,"station_id":"","pricing_plan_id":"cebpf4jnsgd1na2vs0mg"},{"bike_id":"65c81813-950e-49dd-9e79-9e7489bde34a","system_id":"levelo_inurba_marseille","lat":43.30278,"lon":5.37715,"is_reserved":false,"is_disabled":false,"rental_uris":{"android":"levelo://app?vid=65c81813-950e-49dd-9e79-9e7489bde34a","ios":"levelo://app?vid=65c81813-950e-49dd-9e79-9e7489bde34a"},"vehicle_type_id":"4","last_reported":1758874469,"current_range_meters":16800,"station_id":"ce4bguh2rcd13ifvqcj0","pricing_plan_id":"cebpf4jnsgd1na2vs0mg"},{"bike_id":"b56b42ea-e46b-42ac-9f9d-0445991782dd","system_id":"levelo_inurba_marseille","lat":43.29576,"lon":5.36735,"is_reserved":false,"is_disabled":false,"rental_uris":{"android":"levelo://app?vid=b56b42ea-e46b-42ac-9f9d-0445991782dd","ios":"levelo://app?vid=b56b42ea-e46b-42ac-9f9d-0445991782dd"},"vehicle_type_id":"4","last_reported":1758874469,"current_range_meters":17200,"station_id":"ce4bgph2rcd13ifvqc2g","pricing_plan_id":"cebpf4jnsgd1na2vs0mg"},{"bike_id":"3a722ba8-3e34-4960-a75b-22d080f8c311","system_id":"levelo_inurba_marseille","lat":43.24101,"lon":5.37753,"is_reserved":false,"is_disabled":false,"rental_uris":{"android":"levelo://app?vid=3a722ba8-3e34-4960-a75b-22d080f8c311","ios":"levelo://app?vid=3a722ba8-3e34-4960-a75b-22d080f8c311"},"vehicle_type_id":"4","last_reported":1758874469,"current_range_meters":17200,"station_id":"ce4bhnp2rcd13ifvqgvg","pricing_plan_id":"cebpf4jnsgd1na2vs0mg"},{"bike_id":"f7d02cdd-1af8-489d-84e6-2169828dbac6","system_id":"levelo_inurba_marseille","lat":43.30552,"lon":5.36712,"is_reserved":false,"is_disabled":false,"rental_uris":{"android":"levelo://app?vid=f7d02cdd-1af8-489d-84e6-2169828dbac6","ios":"levelo://app?vid=f7d02cdd-1af8-489d-84e6-2169828dbac6"},"vehicle_type_id":"4","last_reported":1758874469,"current_range_meters":17200,"station_id":"ce4bgrp2rcd13ifvqc9g","pricing_plan_id":"cebpf4jnsgd1na2vs0mg"},{"bike_id":"66d7338f-5df2-47d3-9ca4-acf9a7aae8f8","system_id":"levelo_inurba_marseille","lat":43.33606,"lon":5.41026,"is_reserved":false,"is_disabled":false,"rental_uris":{"android":"levelo://app?vid=66d7338f-5df2-47d3-9ca4-acf9a7aae8f8","ios":"levelo://app?vid=66d7338f-5df2-47d3-9ca4-acf9a7aae8f8"},"vehicle_type_id":"4","last_reported":1758874469,"current_range_meters":17200,"station_id":"ce4bhqh2rcd13ifvqhmg","pricing_plan_id":"cebpf4jnsgd1na2vs0mg"},{"bike_id":"01bf55f2-4ac6-46f6-8504-3267bf31e1a6","system_id":"levelo_inurba_marseille","lat":43.2973,"lon":5.381787,"is_reserved":false,"is_disabled":false,"rental_uris":{"android":"levelo://app?vid=01bf55f2-4ac6-46f6-8504-3267bf31e1a6","ios":"levelo://app?vid=01bf55f2-4ac6-46f6-8504-3267bf31e1a6"},"vehicle_type_id":"4","last_reported":1758874469,"current_range_meters":17200,"station_id":"","pricing_plan_id":"cebpf4jnsgd1na2vs0mg"},{"bike_id":"695ac183-f275-407f-9172-52657984d0dc","system_id":"levelo_inurba_marseille","lat":43.26685,"lon":5.38272,"is_reserved":false,"is_disabled":true,"rental_uris":{"android":"levelo://app?vid=695ac183-f275-407f-9172-52657984d0dc","ios":"levelo://app?vid=695ac183-f275-407f-9172-52657984d0dc"},"vehicle_type_id":"4","last_reported":1758874469,"current_range_meters":17200,"station_id":"ce4bhg92rcd13ifvqf90","pricing_plan_id":"cebpf4jnsgd1na2vs0mg"},{"bike_id":"889259be-1a40-472d-babf-d9213822d385","system_id":"levelo_inurba_marseille","lat":43.24657,"lon":5.38877,"is_reserved":false,"is_disabled":false,"rental_uris":{"android":"levelo://app?vid=889259be-1a40-472d-babf-d9213822d385","ios":"levelo://app?vid=889259be-1a40-472d-babf-d9213822d385"},"vehicle_type_id":"4","last_reported":1758874469,"current_range_meters":17200,"station_id":"ce4bhg12rcd13ifvqf60","pricing_plan_id":"cebpf4jnsgd1na2vs0mg"},{"bike_id":"d2c76f28-de75-475b-a585-dd5fe8122538","system_id":"levelo_inurba_marseille","lat":43.24075,"lon":5.377578,"is_reserved":false,"is_disabled":false,"rental_uris":{"android":"levelo://app?vid=d2c76f28-de75-475b-a585-dd5fe8122538","ios":"levelo://app?vid=d2c76f28-de75-475b-a585-dd5fe8122538"},"vehicle_type_id":"4","last_reported":1758874469,"current_range_meters":17200,"station_id":"ce4bhnp2rcd13ifvqgvg","pricing_plan_id":"cebpf4jnsgd1na2vs0mg"},{"bike_id":"5a4b8c6b-d0cc-4c20-b6e0-0ef9ea4576c8","system_id":"levelo_inurba_marseille","lat":43.28699,"lon":5.39979,"is_reserved":false,"is_disabled":false,"rental_uris":{"android":"levelo://app?vid=5a4b8c6b-d0cc-4c20-b6e0-0ef9ea4576c8","ios":"levelo://app?vid=5a4b8c6b-d0cc-4c20-b6e0-0ef9ea4576c8"},"vehicle_type_id":"4","last_reported":1758874469,"current_range_meters":17200,"station_id":"ce4bho92rcd13ifvqh3g","pricing_plan_id":"cebpf4jnsgd1na2vs0mg"},{"bike_id":"641b771c-d094-4ec2-9ba9-76f128180a50","system_id":"levelo_inurba_marseille","lat":43.30148,"lon":5.38078,"is_reserved":false,"is_disabled":false,"rental_uris":{"android":"levelo://app?vid=641b771c-d094-4ec2-9ba9-76f128180a50","ios":"levelo://app?vid=641b771c-d094-4ec2-9ba9-76f128180a50"},"vehicle_type_id":"4","last_reported":1758874469,"current_range_meters":17200,"station_id":"ce4bgjp2rcd13ifvqbh0","pricing_plan_id":"cebpf4jnsgd1na2vs0mg"},{"bike_id":"8cf842e4-76c1-4a82-ad31-66529da65dba","system_id":"levelo_inurba_marseille","lat":43.26712,"lon":5.40241,"is_reserved":false,"is_disabled":false,"rental_uris":{"android":"levelo://app?vid=8cf842e4-76c1-4a82-ad31-66529da65dba","ios":"levelo://app?vid=8cf842e4-76c1-4a82-ad31-66529da65dba"},"vehicle_type_id":"4","last_reported":1758874469,"current_range_meters":17600,"station_id":"","pricing_plan_id":"cebpf4jnsgd1na2vs0mg"},{"bike_id":"ff80ace9-5bb1-4400-92db-811f67417271","system_id":"levelo_inurba_marseille","lat":43.24949,"lon":5.40494,"is_reserved":false,"is_disabled":false,"rental_uris":{"android":"levelo://app?vid=ff80ace9-5bb1-4400-92db-811f67417271","ios":"levelo://app?vid=ff80ace9-5bb1-4400-92db-811f67417271"},"vehicle_type_id":"4","last_reported":1758874469,"current_range_meters":17600,"station_id":"st_d2ngiaodas8pm72gd1h0","pricing_plan_id":"cebpf4jnsgd1na2vs0mg"},{"bike_id":"42f948d3-7023-4c53-aa3f-a682b5a0a210","system_id":"levelo_inurba_marseille","lat":43.29943,"lon":5.36786,"is_reserved":false,"is_disabled":false,"rental_uris":{"android":"levelo://app?vid=42f948d3-7023-4c53-aa3f-a682b5a0a210","ios":"levelo://app?vid=42f948d3-7023-4c53-aa3f-a682b5a0a210"},"vehicle_type_id":"4","last_reported":1758874469,"current_range_meters":17600,"station_id":"ce4bgm92rcd13ifvqbr0","pricing_plan_id":"cebpf4jnsgd1na2vs0mg"},{"bike_id":"7f09bc43-02a6-468a-9182-731c83281b4a","system_id":"levelo_inurba_marseille","lat":43.26362,"lon":5.37506,"is_reserved":false,"is_disabled":false,"rental_uris":{"android":"levelo://app?vid=7f09bc43-02a6-468a-9182-731c83281b4a","ios":"levelo://app?vid=7f09bc43-02a6-468a-9182-731c83281b4a"},"vehicle_type_id":"4","last_reported":1758874469,"current_range_meters":17600,"station_id":"","pricing_plan_id":"cebpf4jnsgd1na2vs0mg"},{"bike_id":"9811e1f7-6003-4f66-9587-6fdbbe85e0ed","system_id":"levelo_inurba_marseille","lat":43.29556,"lon":5.42313,"is_reserved":false,"is_disabled":false,"rental_uris":{"android":"levelo://app?vid=9811e1f7-6003-4f66-9587-6fdbbe85e0ed","ios":"levelo://app?vid=9811e1f7-6003-4f66-9587-6fdbbe85e0ed"},"vehicle_type_id":"4","last_reported":1758874469,"current_range_meters":17600,"station_id":"ce4bhph2rcd13ifvqhdg","pricing_plan_id":"cebpf4jnsgd1na2vs0mg"},{"bike_id":"74e80d7c-036c-4d08-a82d-3904c5e3b031","system_id":"levelo_inurba_marseille","lat":43.28273,"lon":5.35075,"is_reserved":false,"is_disabled":true,"rental_uris":{"android":"levelo://app?vid=74e80d7c-036c-4d08-a82d-3904c5e3b031","ios":"levelo://app?vid=74e80d7c-036c-4d08-a82d-3904c5e3b031"},"vehicle_type_id":"4","last_reported":1758874469,"current_range_meters":17600,"station_id":"ce4bhbp2rcd13ifvqerg","pricing_plan_id":"cebpf4jnsgd1na2vs0mg"},{"bike_id":"06f02ab2-329e-44dc-a6c3-a06d23ecbefc","system_id":"levelo_inurba_marseille","lat":43.28357,"lon":5.38106,"is_reserved":false,"is_disabled":false,"rental_uris":{"android":"levelo://app?vid=06f02ab2-329e-44dc-a6c3-a06d23ecbefc","ios":"levelo://app?vid=06f02ab2-329e-44dc-a6c3-a06d23ecbefc"},"vehicle_type_id":"4","last_reported":1758874469,"current_range_meters":17600,"station_id":"ce4bh412rcd13ifvqdr0","pricing_plan_id":"cebpf4jnsgd1na2vs0mg"},{"bike_id":"73a70554-70da-4605-bef1-4d4b32250950","system_id":"levelo_inurba_marseille","lat":43.26791,"lon":5.39419,"is_reserved":false,"is_disabled":false,"rental_uris":{"android":"levelo://app?vid=73a70554-70da-4605-bef1-4d4b32250950","ios":"levelo://app?vid=73a70554-70da-4605-bef1-4d4b32250950"},"vehicle_type_id":"4","last_reported":1758874469,"current_range_meters":17600,"station_id":"ce4bhh12rcd13ifvqfg0","pricing_plan_id":"cebpf4jnsgd1na2vs0mg"},{"bike_id":"41fbe864-b9c2-4b8a-a22b-e40ee788b52e","system_id":"levelo_inurba_marseille","lat":43.25091,"lon":5.3952,"is_reserved":false,"is_disabled":false,"rental_uris":{"android":"levelo://app?vid=41fbe864-b9c2-4b8a-a22b-e40ee788b52e","ios":"levelo://app?vid=41fbe864-b9c2-4b8a-a22b-e40ee788b52e"},"vehicle_type_id":"4","last_reported":1758874469,"current_range_meters":17600,"station_id":"ce4bhm12rcd13ifvqgkg","pricing_plan_id":"cebpf4jnsgd1na2vs0mg"},{"bike_id":"b44e1d36-8452-4ee7-8a78-723a4720942f","system_id":"levelo_inurba_marseille","lat":43.32487,"lon":5.36565,"is_reserved":false,"is_disabled":false,"rental_uris":{"android":"levelo://app?vid=b44e1d36-8452-4ee7-8a78-723a4720942f","ios":"levelo://app?vid=b44e1d36-8452-4ee7-8a78-723a4720942f"},"vehicle_type_id":"4","last_reported":1758874469,"current_range_meters":17200,"station_id":"ce4bhs12rcd13ifvqhvg","pricing_plan_id":"cebpf4jnsgd1na2vs0mg"},{"bike_id":"ee925a9c-c600-454e-8837-0da5956fd25f","system_id":"levelo_inurba_marseille","lat":43.2293,"lon":5.35387,"is_reserved":false,"is_disabled":false,"rental_uris":{"android":"levelo://app?vid=ee925a9c-c600-454e-8837-0da5956fd25f","ios":"levelo://app?vid=ee925a9c-c600-454e-8837-0da5956fd25f"},"vehicle_type_id":"4","last_reported":1758874469,"current_range_meters":17600,"station_id":"cpo3532slgdg3j2ikp40","pricing_plan_id":"cebpf4jnsgd1na2vs0mg"},{"bike_id":"934ea1ec-b7f6-49a1-9efa-287317d4eb22","system_id":"levelo_inurba_marseille","lat":43.29048,"lon":5.35914,"is_reserved":false,"is_disabled":false,"rental_uris":{"android":"levelo://app?vid=934ea1ec-b7f6-49a1-9efa-287317d4eb22","ios":"levelo://app?vid=934ea1ec-b7f6-49a1-9efa-287317d4eb22"},"vehicle_type_id":"4","last_reported":1758874469,"current_range_meters":18000,"station_id":"","pricing_plan_id":"cebpf4jnsgd1na2vs0mg"},{"bike_id":"de53e98d-7799-443c-89e3-22015d9816b2","system_id":"levelo_inurba_marseille","lat":43.29603,"lon":5.37736,"is_reserved":false,"is_disabled":false,"rental_uris":{"android":"levelo://app?vid=de53e98d-7799-443c-89e3-22015d9816b2","ios":"levelo://app?vid=de53e98d-7799-443c-89e3-22015d9816b2"},"vehicle_type_id":"4","last_reported":1758874469,"current_range_meters":17600,"station_id":"ce4bgi92rcd13ifvqb90","pricing_plan_id":"cebpf4jnsgd1na2vs0mg"},{"bike_id":"931b2d2b-f421-44f8-8482-9160d70f473e","system_id":"levelo_inurba_marseille","lat":43.24388,"lon":5.3706,"is_reserved":false,"is_disabled":false,"rental_uris":{"android":"levelo://app?vid=931b2d2b-f421-44f8-8482-9160d70f473e","ios":"levelo://app?vid=931b2d2b-f421-44f8-8482-9160d70f473e"},"vehicle_type_id":"4","last_reported":1758874469,"current_range_meters":17600,"station_id":"ce4bhhh2rcd13ifvqfk0","pricing_plan_id":"cebpf4jnsgd1na2vs0mg"},{"bike_id":"827c9168-6815-4bae-8aad-d2089a3c583e","system_id":"levelo_inurba_marseille","lat":43.262089,"lon":5.374423,"is_reserved":false,"is_disabled":false,"rental_uris":{"android":"levelo://app?vid=827c9168-6815-4bae-8aad-d2089a3c583e","ios":"levelo://app?vid=827c9168-6815-4bae-8aad-d2089a3c583e"},"vehicle_type_id":"4","last_reported":1758874469,"current_range_meters":18000,"station_id":"ce4bhgp2rcd13ifvqfc0","pricing_plan_id":"cebpf4jnsgd1na2vs0mg"},{"bike_id":"80bdba63-46f3-4274-b0d9-d9711409b6a8","system_id":"levelo_inurba_marseille","lat":43.270752,"lon":5.402497,"is_reserved":false,"is_disabled":false,"rental_uris":{"android":"levelo://app?vid=80bdba63-46f3-4274-b0d9-d9711409b6a8","ios":"levelo://app?vid=80bdba63-46f3-4274-b0d9-d9711409b6a8"},"vehicle_type_id":"4","last_reported":1758874469,"current_range_meters":18000,"station_id":"","pricing_plan_id":"cebpf4jnsgd1na2vs0mg"},{"bike_id":"fa30a465-be27-46de-ab29-cb63f85e35bc","system_id":"levelo_inurba_marseille","lat":43.28484,"lon":5.3858,"is_reserved":false,"is_disabled":false,"rental_uris":{"android":"levelo://app?vid=fa30a465-be27-46de-ab29-cb63f85e35bc","ios":"levelo://app?vid=fa30a465-be27-46de-ab29-cb63f85e35bc"},"vehicle_type_id":"4","last_reported":1758874469,"current_range_meters":18000,"station_id":"ce4bh8p2rcd13ifvqeb0","pricing_plan_id":"cebpf4jnsgd1na2vs0mg"},{"bike_id":"d70e87cb-22a8-48da-b3f8-60e8aae01473","system_id":"levelo_inurba_marseille","lat":43.27201,"lon":5.39186,"is_reserved":false,"is_disabled":false,"rental_uris":{"android":"levelo://app?vid=d70e87cb-22a8-48da-b3f8-60e8aae01473","ios":"levelo://app?vid=d70e87cb-22a8-48da-b3f8-60e8aae01473"},"vehicle_type_id":"4","last_reported":1758874469,"current_range_meters":18000,"station_id":"ce4bhhp2rcd13ifvqfm0","pricing_plan_id":"cebpf4jnsgd1na2vs0mg"},{"bike_id":"d0ec73e5-3d2c-4537-a514-eb0f6fe495f1","system_id":"levelo_inurba_marseille","lat":43.26209,"lon":5.37441,"is_reserved":false,"is_disabled":false,"rental_uris":{"android":"levelo://app?vid=d0ec73e5-3d2c-4537-a514-eb0f6fe495f1","ios":"levelo://app?vid=d0ec73e5-3d2c-4537-a514-eb0f6fe495f1"},"vehicle_type_id":"4","last_reported":1758874469,"current_range_meters":18800,"station_id":"ce4bhgp2rcd13ifvqfc0","pricing_plan_id":"cebpf4jnsgd1na2vs0mg"},{"bike_id":"048a304b-7e71-45af-aa0b-f5c2acabb6bb","system_id":"levelo_inurba_marseille","lat":43.229279,"lon":5.353758,"is_reserved":false,"is_disabled":false,"rental_uris":{"android":"levelo://app?vid=048a304b-7e71-45af-aa0b-f5c2acabb6bb","ios":"levelo://app?vid=048a304b-7e71-45af-aa0b-f5c2acabb6bb"},"vehicle_type_id":"4","last_reported":1758874469,"current_range_meters":18800,"station_id":"cpo3532slgdg3j2ikp40","pricing_plan_id":"cebpf4jnsgd1na2vs0mg"},{"bike_id":"a5a2625f-b126-4eab-82fe-a90b89fac046","system_id":"levelo_inurba_marseille","lat":43.31279,"lon":5.36775,"is_reserved":false,"is_disabled":false,"rental_uris":{"android":"levelo://app?vid=a5a2625f-b126-4eab-82fe-a90b89fac046","ios":"levelo://app?vid=a5a2625f-b126-4eab-82fe-a90b89fac046"},"vehicle_type_id":"4","last_reported":1758874469,"current_range_meters":18800,"station_id":"","pricing_plan_id":"cebpf4jnsgd1na2vs0mg"},{"bike_id":"db50faee-463f-4c65-aa2f-f221a5fab4ee","system_id":"levelo_inurba_marseille","lat":43.31224,"lon":5.36866,"is_reserved":false,"is_disabled":false,"rental_uris":{"android":"levelo://app?vid=db50faee-463f-4c65-aa2f-f221a5fab4ee","ios":"levelo://app?vid=db50faee-463f-4c65-aa2f-f221a5fab4ee"},"vehicle_type_id":"4","last_reported":1758874469,"current_range_meters":18800,"station_id":"ce4bgl92rcd13ifvqbq0","pricing_plan_id":"cebpf4jnsgd1na2vs0mg"},{"bike_id":"63c0879c-e69b-4e84-9806-c068fbaee754","system_id":"levelo_inurba_marseille","lat":43.22933,"lon":5.35376,"is_reserved":false,"is_disabled":false,"rental_uris":{"android":"levelo://app?vid=63c0879c-e69b-4e84-9806-c068fbaee754","ios":"levelo://app?vid=63c0879c-e69b-4e84-9806-c068fbaee754"},"vehicle_type_id":"4","last_reported":1758874469,"current_range_meters":18800,"station_id":"cpo3532slgdg3j2ikp40","pricing_plan_id":"cebpf4jnsgd1na2vs0mg"},{"bike_id":"bb81d282-6c0f-4589-a020-4d7a19ec5137","system_id":"levelo_inurba_marseille","lat":43.31169,"lon":5.39378,"is_reserved":false,"is_disabled":false,"rental_uris":{"android":"levelo://app?vid=bb81d282-6c0f-4589-a020-4d7a19ec5137","ios":"levelo://app?vid=bb81d282-6c0f-4589-a020-4d7a19ec5137"},"vehicle_type_id":"4","last_reported":1758874469,"current_range_meters":18800,"station_id":"","pricing_plan_id":"cebpf4jnsgd1na2vs0mg"},{"bike_id":"bc9b4f13-b07f-41dd-9ca9-9cb7500d8a43","system_id":"levelo_inurba_marseille","lat":43.28978,"lon":5.37841,"is_reserved":false,"is_disabled":false,"rental_uris":{"android":"levelo://app?vid=bc9b4f13-b07f-41dd-9ca9-9cb7500d8a43","ios":"levelo://app?vid=bc9b4f13-b07f-41dd-9ca9-9cb7500d8a43"},