{"last_updated":1767993106,"ttl":60,"version":"2.2","data":{"bikes":[{"bike_id":"35bc93a6-6f9c-416a-8b7f-3420f66213d3","system_id":"levelo_inurba_marseille","lat":43.24174,"lon":5.36407,"is_reserved":false,"is_disabled":false,"rental_uris":{"android":"levelo://app?vid=35bc93a6-6f9c-416a-8b7f-3420f66213d3","ios":"levelo://app?vid=35bc93a6-6f9c-416a-8b7f-3420f66213d3"},"vehicle_type_id":"4","last_reported":1767993107,"current_range_meters":2800,"station_id":"cpo36qri1sfpv3e86is0","pricing_plan_id":"cebpf4jnsgd1na2vs0mg"},{"bike_id":"71d9d47c-4942-48f9-b412-e972ad2487d2","system_id":"levelo_inurba_marseille","lat":43.26383,"lon":5.41072,"is_reserved":false,"is_disabled":false,"rental_uris":{"android":"levelo://app?vid=71d9d47c-4942-48f9-b412-e972ad2487d2","ios":"levelo://app?vid=71d9d47c-4942-48f9-b412-e972ad2487d2"},"vehicle_type_id":"4","last_reported":1767993107,"current_range_meters":2800,"station_id":"st_d4e5ca6na9uc73bfl5fg","pricing_plan_id":"cebpf4jnsgd1na2vs0mg"},{"bike_id":"9a8477f9-78df-41ee-97c4-f8499f8fffab","system_id":"levelo_inurba_marseille","lat":43.2872,"lon":5.37922,"is_reserved":false,"is_disabled":false,"rental_uris":{"android":"levelo://app?vid=9a8477f9-78df-41ee-97c4-f8499f8fffab","ios":"levelo://app?vid=9a8477f9-78df-41ee-97c4-f8499f8fffab"},"vehicle_type_id":"4","last_reported":1767993107,"current_range_meters":2800,"station_id":"ce4bh9p2rcd13ifvqec0","pricing_plan_id":"cebpf4jnsgd1na2vs0mg"},{"bike_id":"e41d8bea-ffd2-440d-b446-b472b1d04e4d","system_id":"levelo_inurba_marseille","lat":43.23963,"lon":5.36625,"is_reserved":false,"is_disabled":false,"rental_uris":{"android":"levelo://app?vid=e41d8bea-ffd2-440d-b446-b472b1d04e4d","ios":"levelo://app?vid=e41d8bea-ffd2-440d-b446-b472b1d04e4d"},"vehicle_type_id":"4","last_reported":1767993107,"current_range_meters":2800,"station_id":"ce4bhi12rcd13ifvqfp0","pricing_plan_id":"cebpf4jnsgd1na2vs0mg"},{"bike_id":"78e548d8-0265-46e8-a56e-2159545c3d74","system_id":"levelo_inurba_marseille","lat":43.28709,"lon":5.37382,"is_reserved":false,"is_disabled":false,"rental_uris":{"android":"levelo://app?vid=78e548d8-0265-46e8-a56e-2159545c3d74","ios":"levelo://app?vid=78e548d8-0265-46e8-a56e-2159545c3d74"},"vehicle_type_id":"4","last_reported":1767993107,"current_range_meters":2800,"station_id":"ce4bh3p2rcd13ifvqdq0","pricing_plan_id":"cebpf4jnsgd1na2vs0mg"},{"bike_id":"ee05330e-63d4-49de-90ba-2aaeec786db0","system_id":"levelo_inurba_marseille","lat":43.29376,"lon":5.37858,"is_reserved":false,"is_disabled":false,"rental_uris":{"android":"levelo://app?vid=ee05330e-63d4-49de-90ba-2aaeec786db0","ios":"levelo://app?vid=ee05330e-63d4-49de-90ba-2aaeec786db0"},"vehicle_type_id":"4","last_reported":1767993107,"current_range_meters":2800,"station_id":"ce4bgjh2rcd13ifvqbf0","pricing_plan_id":"cebpf4jnsgd1na2vs0mg"},{"bike_id":"bb0e890d-0506-44f5-a8d9-b29bad87de2a","system_id":"levelo_inurba_marseille","lat":43.24157,"lon":5.36416,"is_reserved":false,"is_disabled":false,"rental_uris":{"android":"levelo://app?vid=bb0e890d-0506-44f5-a8d9-b29bad87de2a","ios":"levelo://app?vid=bb0e890d-0506-44f5-a8d9-b29bad87de2a"},"vehicle_type_id":"4","last_reported":1767993107,"current_range_meters":2800,"station_id":"cpo36qri1sfpv3e86is0","pricing_plan_id":"cebpf4jnsgd1na2vs0mg"},{"bike_id":"49ed3de6-56a7-43a3-b15f-0edc094a131d","system_id":"levelo_inurba_marseille","lat":43.305488,"lon":5.365539,"is_reserved":false,"is_disabled":false,"rental_uris":{"android":"levelo://app?vid=49ed3de6-56a7-43a3-b15f-0edc094a131d","ios":"levelo://app?vid=49ed3de6-56a7-43a3-b15f-0edc094a131d"},"vehicle_type_id":"4","last_reported":1767993107,"current_range_meters":2800,"station_id":"ce4bgs12rcd13ifvqcag","pricing_plan_id":"cebpf4jnsgd1na2vs0mg"},{"bike_id":"1ec94ba1-41d1-4288-80e5-6a131d1cb21d","system_id":"levelo_inurba_marseille","lat":43.25335,"lon":5.421634,"is_reserved":false,"is_disabled":false,"rental_uris":{"android":"levelo://app?vid=1ec94ba1-41d1-4288-80e5-6a131d1cb21d","ios":"levelo://app?vid=1ec94ba1-41d1-4288-80e5-6a131d1cb21d"},"vehicle_type_id":"4","last_reported":1767993107,"current_range_meters":2800,"station_id":"st_d2m65c5bi1j21697t3ng","pricing_plan_id":"cebpf4jnsgd1na2vs0mg"},{"bike_id":"755fddff-196e-4df8-9ed5-b269f8727526","system_id":"levelo_inurba_marseille","lat":43.2718,"lon":5.40991,"is_reserved":false,"is_disabled":false,"rental_uris":{"android":"levelo://app?vid=755fddff-196e-4df8-9ed5-b269f8727526","ios":"levelo://app?vid=755fddff-196e-4df8-9ed5-b269f8727526"},"vehicle_type_id":"4","last_reported":1767993107,"current_range_meters":2800,"station_id":"ce4bhl12rcd13ifvqgf0","pricing_plan_id":"cebpf4jnsgd1na2vs0mg"},{"bike_id":"b08bf379-2e01-4039-9ca7-edecf2b97518","system_id":"levelo_inurba_marseille","lat":43.23177,"lon":5.39991,"is_reserved":false,"is_disabled":false,"rental_uris":{"android":"levelo://app?vid=b08bf379-2e01-4039-9ca7-edecf2b97518","ios":"levelo://app?vid=b08bf379-2e01-4039-9ca7-edecf2b97518"},"vehicle_type_id":"4","last_reported":1767993107,"current_range_meters":2800,"station_id":"ce4bhn12rcd13ifvqgqg","pricing_plan_id":"cebpf4jnsgd1na2vs0mg"},{"bike_id":"8c90c973-d813-4351-b024-6a22ded6d260","system_id":"levelo_inurba_marseille","lat":43.32357,"lon":5.36745,"is_reserved":false,"is_disabled":false,"rental_uris":{"android":"levelo://app?vid=8c90c973-d813-4351-b024-6a22ded6d260","ios":"levelo://app?vid=8c90c973-d813-4351-b024-6a22ded6d260"},"vehicle_type_id":"4","last_reported":1767993107,"current_range_meters":2800,"station_id":"ce4bhsh2rcd13ifvqi2g","pricing_plan_id":"cebpf4jnsgd1na2vs0mg"},{"bike_id":"0ea80dce-8500-4148-8615-291778a27326","system_id":"levelo_inurba_marseille","lat":43.305515,"lon":5.365329,"is_reserved":false,"is_disabled":false,"rental_uris":{"android":"levelo://app?vid=0ea80dce-8500-4148-8615-291778a27326","ios":"levelo://app?vid=0ea80dce-8500-4148-8615-291778a27326"},"vehicle_type_id":"4","last_reported":1767993107,"current_range_meters":2800,"station_id":"ce4bgs12rcd13ifvqcag","pricing_plan_id":"cebpf4jnsgd1na2vs0mg"},{"bike_id":"df8ff779-90c8-4b65-a5d0-99687c060dae","system_id":"levelo_inurba_marseille","lat":43.32362,"lon":5.36725,"is_reserved":false,"is_disabled":false,"rental_uris":{"android":"levelo://app?vid=df8ff779-90c8-4b65-a5d0-99687c060dae","ios":"levelo://app?vid=df8ff779-90c8-4b65-a5d0-99687c060dae"},"vehicle_type_id":"4","last_reported":1767993107,"current_range_meters":2800,"station_id":"ce4bhsh2rcd13ifvqi2g","pricing_plan_id":"cebpf4jnsgd1na2vs0mg"},{"bike_id":"36c3097c-2122-4b98-a149-c16b13fb82b9","system_id":"levelo_inurba_marseille","lat":43.26068,"lon":5.39395,"is_reserved":false,"is_disabled":false,"rental_uris":{"android":"levelo://app?vid=36c3097c-2122-4b98-a149-c16b13fb82b9","ios":"levelo://app?vid=36c3097c-2122-4b98-a149-c16b13fb82b9"},"vehicle_type_id":"4","last_reported":1767993107,"current_range_meters":2800,"station_id":"ce4bhh92rcd13ifvqfj0","pricing_plan_id":"cebpf4jnsgd1na2vs0mg"},{"bike_id":"8ff52944-c36c-46ee-b2b9-242f429aa86f","system_id":"levelo_inurba_marseille","lat":43.24672,"lon":5.38154,"is_reserved":false,"is_disabled":false,"rental_uris":{"android":"levelo://app?vid=8ff52944-c36c-46ee-b2b9-242f429aa86f","ios":"levelo://app?vid=8ff52944-c36c-46ee-b2b9-242f429aa86f"},"vehicle_type_id":"4","last_reported":1767993107,"current_range_meters":2800,"station_id":"ce4bhih2rcd13ifvqfr0","pricing_plan_id":"cebpf4jnsgd1na2vs0mg"},{"bike_id":"07ce38ef-b77b-4e60-8d32-d85f5b3b47f2","system_id":"levelo_inurba_marseille","lat":43.32354,"lon":5.36714,"is_reserved":false,"is_disabled":false,"rental_uris":{"android":"levelo://app?vid=07ce38ef-b77b-4e60-8d32-d85f5b3b47f2","ios":"levelo://app?vid=07ce38ef-b77b-4e60-8d32-d85f5b3b47f2"},"vehicle_type_id":"4","last_reported":1767993107,"current_range_meters":3200,"station_id":"ce4bhsh2rcd13ifvqi2g","pricing_plan_id":"cebpf4jnsgd1na2vs0mg"},{"bike_id":"68513fb0-4842-494c-af07-70cf04b1a746","system_id":"levelo_inurba_marseille","lat":43.29647,"lon":5.378,"is_reserved":false,"is_disabled":true,"rental_uris":{"android":"levelo://app?vid=68513fb0-4842-494c-af07-70cf04b1a746","ios":"levelo://app?vid=68513fb0-4842-494c-af07-70cf04b1a746"},"vehicle_type_id":"4","last_reported":1767993107,"current_range_meters":3200,"station_id":"","pricing_plan_id":"cebpf4jnsgd1na2vs0mg"},{"bike_id":"00bf2578-c2e7-4693-bdfc-aa0da096cebc","system_id":"levelo_inurba_marseille","lat":43.2533,"lon":5.42162,"is_reserved":false,"is_disabled":false,"rental_uris":{"android":"levelo://app?vid=00bf2578-c2e7-4693-bdfc-aa0da096cebc","ios":"levelo://app?vid=00bf2578-c2e7-4693-bdfc-aa0da096cebc"},"vehicle_type_id":"4","last_reported":1767993107,"current_range_meters":3200,"station_id":"st_d2m65c5bi1j21697t3ng","pricing_plan_id":"cebpf4jnsgd1na2vs0mg"},{"bike_id":"6956611f-a103-46e4-bdd8-9e933bd28e5f","system_id":"levelo_inurba_marseille","lat":43.31164,"lon":5.38726,"is_reserved":false,"is_disabled":false,"rental_uris":{"android":"levelo://app?vid=6956611f-a103-46e4-bdd8-9e933bd28e5f","ios":"levelo://app?vid=6956611f-a103-46e4-bdd8-9e933bd28e5f"},"vehicle_type_id":"4","last_reported":1767993107,"current_range_meters":3200,"station_id":"ce4bgv12rcd13ifvqcp0","pricing_plan_id":"cebpf4jnsgd1na2vs0mg"},{"bike_id":"c3c1f2ac-afb8-4ee3-8aa5-6687f610d70e","system_id":"levelo_inurba_marseille","lat":43.29572,"lon":5.37613,"is_reserved":false,"is_disabled":false,"rental_uris":{"android":"levelo://app?vid=c3c1f2ac-afb8-4ee3-8aa5-6687f610d70e","ios":"levelo://app?vid=c3c1f2ac-afb8-4ee3-8aa5-6687f610d70e"},"vehicle_type_id":"4","last_reported":1767993107,"current_range_meters":3200,"station_id":"","pricing_plan_id":"cebpf4jnsgd1na2vs0mg"},{"bike_id":"b336fed5-fe66-4b92-8c4d-43170367d8ce","system_id":"levelo_inurba_marseille","lat":43.31479,"lon":5.37052,"is_reserved":false,"is_disabled":false,"rental_uris":{"android":"levelo://app?vid=b336fed5-fe66-4b92-8c4d-43170367d8ce","ios":"levelo://app?vid=b336fed5-fe66-4b92-8c4d-43170367d8ce"},"vehicle_type_id":"4","last_reported":1767993107,"current_range_meters":3200,"station_id":"","pricing_plan_id":"cebpf4jnsgd1na2vs0mg"},{"bike_id":"ce3cc1d9-9ec8-4064-92e2-4915f0b7e6ce","system_id":"levelo_inurba_marseille","lat":43.24644,"lon":5.43138,"is_reserved":false,"is_disabled":false,"rental_uris":{"android":"levelo://app?vid=ce3cc1d9-9ec8-4064-92e2-4915f0b7e6ce","ios":"levelo://app?vid=ce3cc1d9-9ec8-4064-92e2-4915f0b7e6ce"},"vehicle_type_id":"4","last_reported":1767993107,"current_range_meters":3200,"station_id":"st_d2m6c4gdas8pm72e190g","pricing_plan_id":"cebpf4jnsgd1na2vs0mg"},{"bike_id":"a76c3cca-0b55-4bb3-a27f-9c1202d23218","system_id":"levelo_inurba_marseille","lat":43.2781,"lon":5.40706,"is_reserved":false,"is_disabled":false,"rental_uris":{"android":"levelo://app?vid=a76c3cca-0b55-4bb3-a27f-9c1202d23218","ios":"levelo://app?vid=a76c3cca-0b55-4bb3-a27f-9c1202d23218"},"vehicle_type_id":"4","last_reported":1767993107,"current_range_meters":3200,"station_id":"ce4bhnh2rcd13ifvqgtg","pricing_plan_id":"cebpf4jnsgd1na2vs0mg"},{"bike_id":"4c8436e4-2bd6-4814-943e-a8eec302564a","system_id":"levelo_inurba_marseille","lat":43.24801,"lon":5.37452,"is_reserved":false,"is_disabled":false,"rental_uris":{"android":"levelo://app?vid=4c8436e4-2bd6-4814-943e-a8eec302564a","ios":"levelo://app?vid=4c8436e4-2bd6-4814-943e-a8eec302564a"},"vehicle_type_id":"4","last_reported":1767993107,"current_range_meters":3200,"station_id":"ce4bhgh2rcd13ifvqfb0","pricing_plan_id":"cebpf4jnsgd1na2vs0mg"},{"bike_id":"8ab16ac3-fa4e-46a2-9111-97e2c725995c","system_id":"levelo_inurba_marseille","lat":43.25332,"lon":5.42169,"is_reserved":false,"is_disabled":false,"rental_uris":{"android":"levelo://app?vid=8ab16ac3-fa4e-46a2-9111-97e2c725995c","ios":"levelo://app?vid=8ab16ac3-fa4e-46a2-9111-97e2c725995c"},"vehicle_type_id":"4","last_reported":1767993107,"current_range_meters":3200,"station_id":"st_d2m65c5bi1j21697t3ng","pricing_plan_id":"cebpf4jnsgd1na2vs0mg"},{"bike_id":"dad5c2c8-926c-48a4-ac79-1133c709b615","system_id":"levelo_inurba_marseille","lat":43.29307,"lon":5.37153,"is_reserved":false,"is_disabled":false,"rental_uris":{"android":"levelo://app?vid=dad5c2c8-926c-48a4-ac79-1133c709b615","ios":"levelo://app?vid=dad5c2c8-926c-48a4-ac79-1133c709b615"},"vehicle_type_id":"4","last_reported":1767993107,"current_range_meters":3200,"station_id":"ce4bgh92rcd13ifvqb40","pricing_plan_id":"cebpf4jnsgd1na2vs0mg"},{"bike_id":"66f8152c-2168-445e-83e0-8684cf418427","system_id":"levelo_inurba_marseille","lat":43.28476,"lon":5.384103,"is_reserved":false,"is_disabled":false,"rental_uris":{"android":"levelo://app?vid=66f8152c-2168-445e-83e0-8684cf418427","ios":"levelo://app?vid=66f8152c-2168-445e-83e0-8684cf418427"},"vehicle_type_id":"4","last_reported":1767993107,"current_range_meters":3200,"station_id":"ce4bh512rcd13ifvqe3g","pricing_plan_id":"cebpf4jnsgd1na2vs0mg"},{"bike_id":"b6265358-2c21-43a7-a94f-3619c88e0d45","system_id":"levelo_inurba_marseille","lat":43.301251,"lon":5.398649,"is_reserved":false,"is_disabled":false,"rental_uris":{"android":"levelo://app?vid=b6265358-2c21-43a7-a94f-3619c88e0d45","ios":"levelo://app?vid=b6265358-2c21-43a7-a94f-3619c88e0d45"},"vehicle_type_id":"4","last_reported":1767993107,"current_range_meters":3200,"station_id":"","pricing_plan_id":"cebpf4jnsgd1na2vs0mg"},{"bike_id":"845bee73-fea8-4b21-9671-09bb9a36c361","system_id":"levelo_inurba_marseille","lat":43.25029,"lon":5.39547,"is_reserved":false,"is_disabled":false,"rental_uris":{"android":"levelo://app?vid=845bee73-fea8-4b21-9671-09bb9a36c361","ios":"levelo://app?vid=845bee73-fea8-4b21-9671-09bb9a36c361"},"vehicle_type_id":"4","last_reported":1767993107,"current_range_meters":3200,"station_id":"ce4bhm12rcd13ifvqgkg","pricing_plan_id":"cebpf4jnsgd1na2vs0mg"},{"bike_id":"96b27b3a-186f-4dff-8edc-5c63ee21e387","system_id":"levelo_inurba_marseille","lat":43.26804,"lon":5.39455,"is_reserved":false,"is_disabled":false,"rental_uris":{"android":"levelo://app?vid=96b27b3a-186f-4dff-8edc-5c63ee21e387","ios":"levelo://app?vid=96b27b3a-186f-4dff-8edc-5c63ee21e387"},"vehicle_type_id":"4","last_reported":1767993107,"current_range_meters":3200,"station_id":"ce4bhh12rcd13ifvqfg0","pricing_plan_id":"cebpf4jnsgd1na2vs0mg"},{"bike_id":"362f309d-8dd6-4bdf-80f5-648165384441","system_id":"levelo_inurba_marseille","lat":43.24679,"lon":5.38188,"is_reserved":false,"is_disabled":false,"rental_uris":{"android":"levelo://app?vid=362f309d-8dd6-4bdf-80f5-648165384441","ios":"levelo://app?vid=362f309d-8dd6-4bdf-80f5-648165384441"},"vehicle_type_id":"4","last_reported":1767993107,"current_range_meters":3200,"station_id":"ce4bhih2rcd13ifvqfr0","pricing_plan_id":"cebpf4jnsgd1na2vs0mg"},{"bike_id":"7492de2b-a7c6-4be2-981c-a91f29de3e07","system_id":"levelo_inurba_marseille","lat":43.2118,"lon":5.35075,"is_reserved":false,"is_disabled":false,"rental_uris":{"android":"levelo://app?vid=7492de2b-a7c6-4be2-981c-a91f29de3e07","ios":"levelo://app?vid=7492de2b-a7c6-4be2-981c-a91f29de3e07"},"vehicle_type_id":"4","last_reported":1767993107,"current_range_meters":3200,"station_id":"cpo3532slgdg3j2ikp40","pricing_plan_id":"cebpf4jnsgd1na2vs0mg"},{"bike_id":"18afe4f0-c6cc-4b38-bf81-c7d7522e4905","system_id":"levelo_inurba_marseille","lat":43.3303,"lon":5.39036,"is_reserved":false,"is_disabled":false,"rental_uris":{"android":"levelo://app?vid=18afe4f0-c6cc-4b38-bf81-c7d7522e4905","ios":"levelo://app?vid=18afe4f0-c6cc-4b38-bf81-c7d7522e4905"},"vehicle_type_id":"4","last_reported":1767993107,"current_range_meters":3200,"station_id":"ce4bhr92rcd13ifvqhrg","pricing_plan_id":"cebpf4jnsgd1na2vs0mg"},{"bike_id":"8ac6f207-1741-415f-96ee-387f71196755","system_id":"levelo_inurba_marseille","lat":43.29271,"lon":5.38439,"is_reserved":false,"is_disabled":false,"rental_uris":{"android":"levelo://app?vid=8ac6f207-1741-415f-96ee-387f71196755","ios":"levelo://app?vid=8ac6f207-1741-415f-96ee-387f71196755"},"vehicle_type_id":"4","last_reported":1767993107,"current_range_meters":3600,"station_id":"ce4bh692rcd13ifvqea0","pricing_plan_id":"cebpf4jnsgd1na2vs0mg"},{"bike_id":"20ada4ff-1583-47d8-bab3-2795378da094","system_id":"levelo_inurba_marseille","lat":43.28729,"lon":5.40017,"is_reserved":false,"is_disabled":false,"rental_uris":{"android":"levelo://app?vid=20ada4ff-1583-47d8-bab3-2795378da094","ios":"levelo://app?vid=20ada4ff-1583-47d8-bab3-2795378da094"},"vehicle_type_id":"4","last_reported":1767993107,"current_range_meters":3600,"station_id":"ce4bho92rcd13ifvqh3g","pricing_plan_id":"cebpf4jnsgd1na2vs0mg"},{"bike_id":"528852f0-b3e1-4361-91fd-d35d5de704d7","system_id":"levelo_inurba_marseille","lat":43.255,"lon":5.37667,"is_reserved":false,"is_disabled":false,"rental_uris":{"android":"levelo://app?vid=528852f0-b3e1-4361-91fd-d35d5de704d7","ios":"levelo://app?vid=528852f0-b3e1-4361-91fd-d35d5de704d7"},"vehicle_type_id":"4","last_reported":1767993107,"current_range_meters":3600,"station_id":"ce4bhh12rcd13ifvqff0","pricing_plan_id":"cebpf4jnsgd1na2vs0mg"},{"bike_id":"a0645671-f1ba-4d4c-8bad-1dfb56afcb60","system_id":"levelo_inurba_marseille","lat":43.2656,"lon":5.40329,"is_reserved":false,"is_disabled":false,"rental_uris":{"android":"levelo://app?vid=a0645671-f1ba-4d4c-8bad-1dfb56afcb60","ios":"levelo://app?vid=a0645671-f1ba-4d4c-8bad-1dfb56afcb60"},"vehicle_type_id":"4","last_reported":1767993107,"current_range_meters":3600,"station_id":"ce4bhmp2rcd13ifvqgng","pricing_plan_id":"cebpf4jnsgd1na2vs0mg"},{"bike_id":"2d902303-27a4-408e-98d1-54e9693b7c77","system_id":"levelo_inurba_marseille","lat":43.30895,"lon":5.37212,"is_reserved":false,"is_disabled":false,"rental_uris":{"android":"levelo://app?vid=2d902303-27a4-408e-98d1-54e9693b7c77","ios":"levelo://app?vid=2d902303-27a4-408e-98d1-54e9693b7c77"},"vehicle_type_id":"4","last_reported":1767993107,"current_range_meters":3600,"station_id":"ce4bguh2rcd13ifvqckg","pricing_plan_id":"cebpf4jnsgd1na2vs0mg"},{"bike_id":"52c545a6-4990-49e9-b5f1-ef579ddc71f3","system_id":"levelo_inurba_marseille","lat":43.25566,"lon":5.38231,"is_reserved":false,"is_disabled":false,"rental_uris":{"android":"levelo://app?vid=52c545a6-4990-49e9-b5f1-ef579ddc71f3","ios":"levelo://app?vid=52c545a6-4990-49e9-b5f1-ef579ddc71f3"},"vehicle_type_id":"4","last_reported":1767993107,"current_range_meters":3600,"station_id":"ce4bhih2rcd13ifvqfs0","pricing_plan_id":"cebpf4jnsgd1na2vs0mg"},{"bike_id":"577b404b-63b1-4b8e-82e8-29162d5c26c7","system_id":"levelo_inurba_marseille","lat":43.32521,"lon":5.36515,"is_reserved":false,"is_disabled":false,"rental_uris":{"android":"levelo://app?vid=577b404b-63b1-4b8e-82e8-29162d5c26c7","ios":"levelo://app?vid=577b404b-63b1-4b8e-82e8-29162d5c26c7"},"vehicle_type_id":"4","last_reported":1767993107,"current_range_meters":3600,"station_id":"","pricing_plan_id":"cebpf4jnsgd1na2vs0mg"},{"bike_id":"eb34eeed-8803-4e8d-8cab-0cdf8b41c4a5","system_id":"levelo_inurba_marseille","lat":43.28942,"lon":5.36637,"is_reserved":false,"is_disabled":false,"rental_uris":{"android":"levelo://app?vid=eb34eeed-8803-4e8d-8cab-0cdf8b41c4a5","ios":"levelo://app?vid=eb34eeed-8803-4e8d-8cab-0cdf8b41c4a5"},"vehicle_type_id":"4","last_reported":1767993107,"current_range_meters":3600,"station_id":"ce4bhap2rcd13ifvqek0","pricing_plan_id":"cebpf4jnsgd1na2vs0mg"},{"bike_id":"c5ebb06a-e7b2-4a17-ba27-94521770985b","system_id":"levelo_inurba_marseille","lat":43.31082,"lon":5.38364,"is_reserved":false,"is_disabled":false,"rental_uris":{"android":"levelo://app?vid=c5ebb06a-e7b2-4a17-ba27-94521770985b","ios":"levelo://app?vid=c5ebb06a-e7b2-4a17-ba27-94521770985b"},"vehicle_type_id":"4","last_reported":1767993107,"current_range_meters":3600,"station_id":"ce4bgv92rcd13ifvqcr0","pricing_plan_id":"cebpf4jnsgd1na2vs0mg"},{"bike_id":"e87775d5-5cda-4cd7-8236-ab25add9f605","system_id":"levelo_inurba_marseille","lat":43.28349,"lon":5.38104,"is_reserved":false,"is_disabled":false,"rental_uris":{"android":"levelo://app?vid=e87775d5-5cda-4cd7-8236-ab25add9f605","ios":"levelo://app?vid=e87775d5-5cda-4cd7-8236-ab25add9f605"},"vehicle_type_id":"4","last_reported":1767993107,"current_range_meters":3600,"station_id":"ce4bh412rcd13ifvqdr0","pricing_plan_id":"cebpf4jnsgd1na2vs0mg"},{"bike_id":"11385dab-e966-45da-8f53-8dee531d77b2","system_id":"levelo_inurba_marseille","lat":43.25582,"lon":5.38215,"is_reserved":false,"is_disabled":false,"rental_uris":{"android":"levelo://app?vid=11385dab-e966-45da-8f53-8dee531d77b2","ios":"levelo://app?vid=11385dab-e966-45da-8f53-8dee531d77b2"},"vehicle_type_id":"4","last_reported":1767993107,"current_range_meters":3600,"station_id":"ce4bhih2rcd13ifvqfs0","pricing_plan_id":"cebpf4jnsgd1na2vs0mg"},{"bike_id":"4d897799-4b2b-4283-99ba-91bad8d648f2","system_id":"levelo_inurba_marseille","lat":43.29303,"lon":5.37167,"is_reserved":false,"is_disabled":false,"rental_uris":{"android":"levelo://app?vid=4d897799-4b2b-4283-99ba-91bad8d648f2","ios":"levelo://app?vid=4d897799-4b2b-4283-99ba-91bad8d648f2"},"vehicle_type_id":"4","last_reported":1767993107,"current_range_meters":3600,"station_id":"ce4bgh92rcd13ifvqb40","pricing_plan_id":"cebpf4jnsgd1na2vs0mg"},{"bike_id":"1943e30c-e480-44ad-bf46-a5f0443aa45d","system_id":"levelo_inurba_marseille","lat":43.29018,"lon":5.3863,"is_reserved":false,"is_disabled":false,"rental_uris":{"android":"levelo://app?vid=1943e30c-e480-44ad-bf46-a5f0443aa45d","ios":"levelo://app?vid=1943e30c-e480-44ad-bf46-a5f0443aa45d"},"vehicle_type_id":"4","last_reported":1767993107,"current_range_meters":3600,"station_id":"ce4bh4p2rcd13ifvqe0g","pricing_plan_id":"cebpf4jnsgd1na2vs0mg"},{"bike_id":"08957de4-9992-495d-8912-2cf2b8055921","system_id":"levelo_inurba_marseille","lat":43.2902,"lon":5.38634,"is_reserved":false,"is_disabled":false,"rental_uris":{"android":"levelo://app?vid=08957de4-9992-495d-8912-2cf2b8055921","ios":"levelo://app?vid=08957de4-9992-495d-8912-2cf2b8055921"},"vehicle_type_id":"4","last_reported":1767993107,"current_range_meters":3600,"station_id":"ce4bh4p2rcd13ifvqe0g","pricing_plan_id":"cebpf4jnsgd1na2vs0mg"},{"bike_id":"05ce4c7a-eb23-4592-b1ab-9cccd51515da","system_id":"levelo_inurba_marseille","lat":43.30954,"lon":5.39023,"is_reserved":false,"is_disabled":false,"rental_uris":{"android":"levelo://app?vid=05ce4c7a-eb23-4592-b1ab-9cccd51515da","ios":"levelo://app?vid=05ce4c7a-eb23-4592-b1ab-9cccd51515da"},"vehicle_type_id":"4","last_reported":1767993107,"current_range_meters":3600,"station_id":"ce4bgup2rcd13ifvqco0","pricing_plan_id":"cebpf4jnsgd1na2vs0mg"},{"bike_id":"1ef08d50-1295-4aab-90c8-d0f14942e52f","system_id":"levelo_inurba_marseille","lat":43.295692,"lon":5.399702,"is_reserved":false,"is_disabled":false,"rental_uris":{"android":"levelo://app?vid=1ef08d50-1295-4aab-90c8-d0f14942e52f","ios":"levelo://app?vid=1ef08d50-1295-4aab-90c8-d0f14942e52f"},"vehicle_type_id":"4","last_reported":1767993107,"current_range_meters":3600,"station_id":"ce4bh312rcd13ifvqdj0","pricing_plan_id":"cebpf4jnsgd1na2vs0mg"},{"bike_id":"9b21fb58-1ca0-4226-bc9d-2eb45c91c4c6","system_id":"levelo_inurba_marseille","lat":43.22553,"lon":5.41619,"is_reserved":false,"is_disabled":false,"rental_uris":{"android":"levelo://app?vid=9b21fb58-1ca0-4226-bc9d-2eb45c91c4c6","ios":"levelo://app?vid=9b21fb58-1ca0-4226-bc9d-2eb45c91c4c6"},"vehicle_type_id":"4","last_reported":1767993107,"current_range_meters":3600,"station_id":"st_d2o4gvlbi1j2169b742g","pricing_plan_id":"cebpf4jnsgd1na2vs0mg"},{"bike_id":"0be2933b-3376-4854-8e8b-e51b6e23ecc1","system_id":"levelo_inurba_marseille","lat":43.292265,"lon":5.360651,"is_reserved":false,"is_disabled":false,"rental_uris":{"android":"levelo://app?vid=0be2933b-3376-4854-8e8b-e51b6e23ecc1","ios":"levelo://app?vid=0be2933b-3376-4854-8e8b-e51b6e23ecc1"},"vehicle_type_id":"4","last_reported":1767993107,"current_range_meters":4000,"station_id":"ce4bhbh2rcd13ifvqeqg","pricing_plan_id":"cebpf4jnsgd1na2vs0mg"},{"bike_id":"a947241a-d3af-4302-a18c-3fd572da3e9b","system_id":"levelo_inurba_marseille","lat":43.26025,"lon":5.37553,"is_reserved":false,"is_disabled":false,"rental_uris":{"android":"levelo://app?vid=a947241a-d3af-4302-a18c-3fd572da3e9b","ios":"levelo://app?vid=a947241a-d3af-4302-a18c-3fd572da3e9b"},"vehicle_type_id":"4","last_reported":1767993107,"current_range_meters":4000,"station_id":"ce4bhgh2rcd13ifvqfa0","pricing_plan_id":"cebpf4jnsgd1na2vs0mg"},{"bike_id":"7017533d-0e6f-4a91-bdf9-4569e8a4b13c","system_id":"levelo_inurba_marseille","lat":43.30969,"lon":5.39031,"is_reserved":false,"is_disabled":false,"rental_uris":{"android":"levelo://app?vid=7017533d-0e6f-4a91-bdf9-4569e8a4b13c","ios":"levelo://app?vid=7017533d-0e6f-4a91-bdf9-4569e8a4b13c"},"vehicle_type_id":"4","last_reported":1767993107,"current_range_meters":4000,"station_id":"ce4bgup2rcd13ifvqco0","pricing_plan_id":"cebpf4jnsgd1na2vs0mg"},{"bike_id":"73311dd9-ce76-4424-880c-4c44988d4f09","system_id":"levelo_inurba_marseille","lat":43.24952,"lon":5.40499,"is_reserved":false,"is_disabled":false,"rental_uris":{"android":"levelo://app?vid=73311dd9-ce76-4424-880c-4c44988d4f09","ios":"levelo://app?vid=73311dd9-ce76-4424-880c-4c44988d4f09"},"vehicle_type_id":"4","last_reported":1767993107,"current_range_meters":4000,"station_id":"st_d2ngiaodas8pm72gd1h0","pricing_plan_id":"cebpf4jnsgd1na2vs0mg"},{"bike_id":"7853f7c4-c0be-4516-a0a8-b18036d59504","system_id":"levelo_inurba_marseille","lat":43.2439,"lon":5.37061,"is_reserved":false,"is_disabled":false,"rental_uris":{"android":"levelo://app?vid=7853f7c4-c0be-4516-a0a8-b18036d59504","ios":"levelo://app?vid=7853f7c4-c0be-4516-a0a8-b18036d59504"},"vehicle_type_id":"4","last_reported":1767993107,"current_range_meters":4000,"station_id":"ce4bhhh2rcd13ifvqfk0","pricing_plan_id":"cebpf4jnsgd1na2vs0mg"},{"bike_id":"31447a0e-5f20-40ed-81c7-81b3e7eb8db6","system_id":"levelo_inurba_marseille","lat":43.313734,"lon":5.385908,"is_reserved":false,"is_disabled":false,"rental_uris":{"android":"levelo://app?vid=31447a0e-5f20-40ed-81c7-81b3e7eb8db6","ios":"levelo://app?vid=31447a0e-5f20-40ed-81c7-81b3e7eb8db6"},"vehicle_type_id":"4","last_reported":1767993107,"current_range_meters":4000,"station_id":"","pricing_plan_id":"cebpf4jnsgd1na2vs0mg"},{"bike_id":"83a30931-2174-4c19-9994-b548f7a6a130","system_id":"levelo_inurba_marseille","lat":43.293135,"lon":5.374485,"is_reserved":false,"is_disabled":true,"rental_uris":{"android":"levelo://app?vid=83a30931-2174-4c19-9994-b548f7a6a130","ios":"levelo://app?vid=83a30931-2174-4c19-9994-b548f7a6a130"},"vehicle_type_id":"4","last_reported":1767993107,"current_range_meters":4000,"station_id":"ce4bgi12rcd13ifvqb70","pricing_plan_id":"cebpf4jnsgd1na2vs0mg"},{"bike_id":"c399a74d-879f-47b3-8e54-0476c2dd2dcc","system_id":"levelo_inurba_marseille","lat":43.2861,"lon":5.39902,"is_reserved":false,"is_disabled":true,"rental_uris":{"android":"levelo://app?vid=c399a74d-879f-47b3-8e54-0476c2dd2dcc","ios":"levelo://app?vid=c399a74d-879f-47b3-8e54-0476c2dd2dcc"},"vehicle_type_id":"4","last_reported":1767993107,"current_range_meters":4000,"station_id":"ce4bho92rcd13ifvqh3g","pricing_plan_id":"cebpf4jnsgd1na2vs0mg"},{"bike_id":"b3b2615c-2e6e-46eb-8bb7-74402f5b36ba","system_id":"levelo_inurba_marseille","lat":43.26949,"lon":5.40254,"is_reserved":false,"is_disabled":false,"rental_uris":{"android":"levelo://app?vid=b3b2615c-2e6e-46eb-8bb7-74402f5b36ba","ios":"levelo://app?vid=b3b2615c-2e6e-46eb-8bb7-74402f5b36ba"},"vehicle_type_id":"4","last_reported":1767993107,"current_range_meters":4000,"station_id":"cjm6bp8fraef2m0cb0m0","pricing_plan_id":"cebpf4jnsgd1na2vs0mg"},{"bike_id":"d564640e-8980-4d50-9141-d01b2d41a726","system_id":"levelo_inurba_marseille","lat":43.24136,"lon":5.3644,"is_reserved":false,"is_disabled":false,"rental_uris":{"android":"levelo://app?vid=d564640e-8980-4d50-9141-d01b2d41a726","ios":"levelo://app?vid=d564640e-8980-4d50-9141-d01b2d41a726"},"vehicle_type_id":"4","last_reported":1767993107,"current_range_meters":4000,"station_id":"cpo36qri1sfpv3e86is0","pricing_plan_id":"cebpf4jnsgd1na2vs0mg"},{"bike_id":"748e6a5e-97a9-489d-8fdc-20f62045411a","system_id":"levelo_inurba_marseille","lat":43.28908,"lon":5.39687,"is_reserved":false,"is_disabled":false,"rental_uris":{"android":"levelo://app?vid=748e6a5e-97a9-489d-8fdc-20f62045411a","ios":"levelo://app?vid=748e6a5e-97a9-489d-8fdc-20f62045411a"},"vehicle_type_id":"4","last_reported":1767993107,"current_range_meters":4000,"station_id":"","pricing_plan_id":"cebpf4jnsgd1na2vs0mg"},{"bike_id":"203901a8-7796-462c-b8ca-ce985701687f","system_id":"levelo_inurba_marseille","lat":43.28048,"lon":5.39919,"is_reserved":false,"is_disabled":false,"rental_uris":{"android":"levelo://app?vid=203901a8-7796-462c-b8ca-ce985701687f","ios":"levelo://app?vid=203901a8-7796-462c-b8ca-ce985701687f"},"vehicle_type_id":"4","last_reported":1767993107,"current_range_meters":4000,"station_id":"","pricing_plan_id":"cebpf4jnsgd1na2vs0mg"},{"bike_id":"e357c14c-113c-4953-a62c-a387de649c30","system_id":"levelo_inurba_marseille","lat":43.30213,"lon":5.39473,"is_reserved":false,"is_disabled":false,"rental_uris":{"android":"levelo://app?vid=e357c14c-113c-4953-a62c-a387de649c30","ios":"levelo://app?vid=e357c14c-113c-4953-a62c-a387de649c30"},"vehicle_type_id":"4","last_reported":1767993107,"current_range_meters":4400,"station_id":"ce4bh0p2rcd13ifvqd70","pricing_plan_id":"cebpf4jnsgd1na2vs0mg"},{"bike_id":"dac07700-29e3-49f0-a4e4-e34f10568b7e","system_id":"levelo_inurba_marseille","lat":43.28686,"lon":5.3866,"is_reserved":false,"is_disabled":false,"rental_uris":{"android":"levelo://app?vid=dac07700-29e3-49f0-a4e4-e34f10568b7e","ios":"levelo://app?vid=dac07700-29e3-49f0-a4e4-e34f10568b7e"},"vehicle_type_id":"4","last_reported":1767993107,"current_range_meters":4400,"station_id":"ce4bh492rcd13ifvqdug","pricing_plan_id":"cebpf4jnsgd1na2vs0mg"},{"bike_id":"afbfc22c-0163-4e0f-bc46-9fcb146cdab6","system_id":"levelo_inurba_marseille","lat":43.2695,"lon":5.40253,"is_reserved":false,"is_disabled":false,"rental_uris":{"android":"levelo://app?vid=afbfc22c-0163-4e0f-bc46-9fcb146cdab6","ios":"levelo://app?vid=afbfc22c-0163-4e0f-bc46-9fcb146cdab6"},"vehicle_type_id":"4","last_reported":1767993107,"current_range_meters":4400,"station_id":"cjm6bp8fraef2m0cb0m0","pricing_plan_id":"cebpf4jnsgd1na2vs0mg"},{"bike_id":"53cf3160-7dda-42ad-bc9b-1dee361a523c","system_id":"levelo_inurba_marseille","lat":43.26209,"lon":5.37452,"is_reserved":false,"is_disabled":false,"rental_uris":{"android":"levelo://app?vid=53cf3160-7dda-42ad-bc9b-1dee361a523c","ios":"levelo://app?vid=53cf3160-7dda-42ad-bc9b-1dee361a523c"},"vehicle_type_id":"4","last_reported":1767993107,"current_range_meters":4400,"station_id":"ce4bhgp2rcd13ifvqfc0","pricing_plan_id":"cebpf4jnsgd1na2vs0mg"},{"bike_id":"b2a3da8f-bf56-4eb9-9359-d00614059d44","system_id":"levelo_inurba_marseille","lat":43.29063,"lon":5.38089,"is_reserved":false,"is_disabled":false,"rental_uris":{"android":"levelo://app?vid=b2a3da8f-bf56-4eb9-9359-d00614059d44","ios":"levelo://app?vid=b2a3da8f-bf56-4eb9-9359-d00614059d44"},"vehicle_type_id":"4","last_reported":1767993107,"current_range_meters":4400,"station_id":"","pricing_plan_id":"cebpf4jnsgd1na2vs0mg"},{"bike_id":"0bb6e065-a70a-4665-ad4a-8f4905111162","system_id":"levelo_inurba_marseille","lat":43.25945,"lon":5.40962,"is_reserved":false,"is_disabled":false,"rental_uris":{"android":"levelo://app?vid=0bb6e065-a70a-4665-ad4a-8f4905111162","ios":"levelo://app?vid=0bb6e065-a70a-4665-ad4a-8f4905111162"},"vehicle_type_id":"4","last_reported":1767993107,"current_range_meters":4400,"station_id":"ce4bhm92rcd13ifvqglg","pricing_plan_id":"cebpf4jnsgd1na2vs0mg"},{"bike_id":"0d6a9a04-1891-48de-b8dc-a5fb353d9b7e","system_id":"levelo_inurba_marseille","lat":43.28975,"lon":5.35804,"is_reserved":false,"is_disabled":false,"rental_uris":{"android":"levelo://app?vid=0d6a9a04-1891-48de-b8dc-a5fb353d9b7e","ios":"levelo://app?vid=0d6a9a04-1891-48de-b8dc-a5fb353d9b7e"},"vehicle_type_id":"4","last_reported":1767993107,"current_range_meters":4400,"station_id":"","pricing_plan_id":"cebpf4jnsgd1na2vs0mg"},{"bike_id":"f3087d44-1285-4751-a26b-ca81d5c7e543","system_id":"levelo_inurba_marseille","lat":43.290417,"lon":5.424844,"is_reserved":false,"is_disabled":false,"rental_uris":{"android":"levelo://app?vid=f3087d44-1285-4751-a26b-ca81d5c7e543","ios":"levelo://app?vid=f3087d44-1285-4751-a26b-ca81d5c7e543"},"vehicle_type_id":"4","last_reported":1767993107,"current_range_meters":4400,"station_id":"ce4bgkh2rcd13ifvqbk0","pricing_plan_id":"cebpf4jnsgd1na2vs0mg"},{"bike_id":"e4b543e4-7198-4112-93ae-6c25b36bd4a3","system_id":"levelo_inurba_marseille","lat":43.23782,"lon":5.36591,"is_reserved":false,"is_disabled":false,"rental_uris":{"android":"levelo://app?vid=e4b543e4-7198-4112-93ae-6c25b36bd4a3","ios":"levelo://app?vid=e4b543e4-7198-4112-93ae-6c25b36bd4a3"},"vehicle_type_id":"4","last_reported":1767993107,"current_range_meters":4400,"station_id":"st_d3nk18o9ro0c73en2l3g","pricing_plan_id":"cebpf4jnsgd1na2vs0mg"},{"bike_id":"4e41aa3b-9162-476b-82f4-857ae55d1a75","system_id":"levelo_inurba_marseille","lat":43.32365,"lon":5.36798,"is_reserved":false,"is_disabled":false,"rental_uris":{"android":"levelo://app?vid=4e41aa3b-9162-476b-82f4-857ae55d1a75","ios":"levelo://app?vid=4e41aa3b-9162-476b-82f4-857ae55d1a75"},"vehicle_type_id":"4","last_reported":1767993107,"current_range_meters":4400,"station_id":"ce4bhsh2rcd13ifvqi2g","pricing_plan_id":"cebpf4jnsgd1na2vs0mg"},{"bike_id":"9a84455d-66b0-4d3f-8c81-d289293761d8","system_id":"levelo_inurba_marseille","lat":43.24178,"lon":5.36394,"is_reserved":false,"is_disabled":false,"rental_uris":{"android":"levelo://app?vid=9a84455d-66b0-4d3f-8c81-d289293761d8","ios":"levelo://app?vid=9a84455d-66b0-4d3f-8c81-d289293761d8"},"vehicle_type_id":"4","last_reported":1767993107,"current_range_meters":4400,"station_id":"cpo36qri1sfpv3e86is0","pricing_plan_id":"cebpf4jnsgd1na2vs0mg"},{"bike_id":"efa4c1c5-fbe5-4c79-8d6a-2c6c123dd0f0","system_id":"levelo_inurba_marseille","lat":43.27858,"lon":5.39199,"is_reserved":false,"is_disabled":true,"rental_uris":{"android":"levelo://app?vid=efa4c1c5-fbe5-4c79-8d6a-2c6c123dd0f0","ios":"levelo://app?vid=efa4c1c5-fbe5-4c79-8d6a-2c6c123dd0f0"},"vehicle_type_id":"4","last_reported":1767993107,"current_range_meters":4800,"station_id":"ce4bhjp2rcd13ifvqga0","pricing_plan_id":"cebpf4jnsgd1na2vs0mg"},{"bike_id":"7a2db32e-cf3a-409e-bb36-047869209912","system_id":"levelo_inurba_marseille","lat":43.2621,"lon":5.37442,"is_reserved":false,"is_disabled":false,"rental_uris":{"android":"levelo://app?vid=7a2db32e-cf3a-409e-bb36-047869209912","ios":"levelo://app?vid=7a2db32e-cf3a-409e-bb36-047869209912"},"vehicle_type_id":"4","last_reported":1767993107,"current_range_meters":4800,"station_id":"ce4bhgp2rcd13ifvqfc0","pricing_plan_id":"cebpf4jnsgd1na2vs0mg"},{"bike_id":"84be322d-3f5a-42b3-b4ff-9332fdae0ce8","system_id":"levelo_inurba_marseille","lat":43.33124,"lon":5.37725,"is_reserved":false,"is_disabled":false,"rental_uris":{"android":"levelo://app?vid=84be322d-3f5a-42b3-b4ff-9332fdae0ce8","ios":"levelo://app?vid=84be322d-3f5a-42b3-b4ff-9332fdae0ce8"},"vehicle_type_id":"4","last_reported":1767993107,"current_range_meters":4800,"station_id":"","pricing_plan_id":"cebpf4jnsgd1na2vs0mg"},{"bike_id":"85ec619e-5ea0-4fca-a7de-dd41384f5c43","system_id":"levelo_inurba_marseille","lat":43.26588,"lon":5.373,"is_reserved":false,"is_disabled":false,"rental_uris":{"android":"levelo://app?vid=85ec619e-5ea0-4fca-a7de-dd41384f5c43","ios":"levelo://app?vid=85ec619e-5ea0-4fca-a7de-dd41384f5c43"},"vehicle_type_id":"4","last_reported":1767993107,"current_range_meters":4800,"station_id":"ce4bhg12rcd13ifvqf70","pricing_plan_id":"cebpf4jnsgd1na2vs0mg"},{"bike_id":"2a0030df-4c50-443e-8acb-7dc78d6f6c82","system_id":"levelo_inurba_marseille","lat":43.29018,"lon":5.35607,"is_reserved":false,"is_disabled":false,"rental_uris":{"android":"levelo://app?vid=2a0030df-4c50-443e-8acb-7dc78d6f6c82","ios":"levelo://app?vid=2a0030df-4c50-443e-8acb-7dc78d6f6c82"},"vehicle_type_id":"4","last_reported":1767993107,"current_range_meters":4800,"station_id":"ce4bhb92rcd13ifvqen0","pricing_plan_id":"cebpf4jnsgd1na2vs0mg"},{"bike_id":"efa4b8fa-5901-4da8-b472-a0ce891acb7c","system_id":"levelo_inurba_marseille","lat":43.305857,"lon":5.393681,"is_reserved":false,"is_disabled":false,"rental_uris":{"android":"levelo://app?vid=efa4b8fa-5901-4da8-b472-a0ce891acb7c","ios":"levelo://app?vid=efa4b8fa-5901-4da8-b472-a0ce891acb7c"},"vehicle_type_id":"4","last_reported":1767993107,"current_range_meters":4800,"station_id":"ce4bh0p2rcd13ifvqd80","pricing_plan_id":"cebpf4jnsgd1na2vs0mg"},{"bike_id":"4c3bd91d-5b37-464b-8989-7f58124eb9e3","system_id":"levelo_inurba_marseille","lat":43.3029,"lon":5.37259,"is_reserved":false,"is_disabled":false,"rental_uris":{"android":"levelo://app?vid=4c3bd91d-5b37-464b-8989-7f58124eb9e3","ios":"levelo://app?vid=4c3bd91d-5b37-464b-8989-7f58124eb9e3"},"vehicle_type_id":"4","last_reported":1767993107,"current_range_meters":4800,"station_id":"","pricing_plan_id":"cebpf4jnsgd1na2vs0mg"},{"bike_id":"0e7e919c-83a3-45be-90bf-dcf29db4b4ea","system_id":"levelo_inurba_marseille","lat":43.32343,"lon":5.36721,"is_reserved":false,"is_disabled":false,"rental_uris":{"android":"levelo://app?vid=0e7e919c-83a3-45be-90bf-dcf29db4b4ea","ios":"levelo://app?vid=0e7e919c-83a3-45be-90bf-dcf29db4b4ea"},"vehicle_type_id":"4","last_reported":1767993107,"current_range_meters":5600,"station_id":"ce4bhsh2rcd13ifvqi2g","pricing_plan_id":"cebpf4jnsgd1na2vs0mg"},{"bike_id":"b7dddc8e-ff5d-458a-a8d3-88dc4e34e930","system_id":"levelo_inurba_marseille","lat":43.2737,"lon":5.36253,"is_reserved":false,"is_disabled":false,"rental_uris":{"android":"levelo://app?vid=b7dddc8e-ff5d-458a-a8d3-88dc4e34e930","ios":"levelo://app?vid=b7dddc8e-ff5d-458a-a8d3-88dc4e34e930"},"vehicle_type_id":"4","last_reported":1767993107,"current_range_meters":5600,"station_id":"ce4bhbh2rcd13ifvqeo0","pricing_plan_id":"cebpf4jnsgd1na2vs0mg"},{"bike_id":"19c90349-756f-4679-a530-ebef5565e237","system_id":"levelo_inurba_marseille","lat":43.32365,"lon":5.36748,"is_reserved":false,"is_disabled":false,"rental_uris":{"android":"levelo://app?vid=19c90349-756f-4679-a530-ebef5565e237","ios":"levelo://app?vid=19c90349-756f-4679-a530-ebef5565e237"},"vehicle_type_id":"4","last_reported":1767993107,"current_range_meters":5600,"station_id":"ce4bhsh2rcd13ifvqi2g","pricing_plan_id":"cebpf4jnsgd1na2vs0mg"},{"bike_id":"f16f12d5-0602-4c91-8ec1-600aec7de735","system_id":"levelo_inurba_marseille","lat":43.275698,"lon":5.384074,"is_reserved":false,"is_disabled":true,"rental_uris":{"android":"levelo://app?vid=f16f12d5-0602-4c91-8ec1-600aec7de735","ios":"levelo://app?vid=f16f12d5-0602-4c91-8ec1-600aec7de735"},"vehicle_type_id":"4","last_reported":1767993107,"current_range_meters":5600,"station_id":"ce4bhh92rcd13ifvqfi0","pricing_plan_id":"cebpf4jnsgd1na2vs0mg"},{"bike_id":"500ce305-2b9a-46a3-a579-379ae2c92155","system_id":"levelo_inurba_marseille","lat":43.2924,"lon":5.40884,"is_reserved":false,"is_disabled":false,"rental_uris":{"android":"levelo://app?vid=500ce305-2b9a-46a3-a579-379ae2c92155","ios":"levelo://app?vid=500ce305-2b9a-46a3-a579-379ae2c92155"},"vehicle_type_id":"4","last_reported":1767993107,"current_range_meters":5600,"station_id":"ce4bh192rcd13ifvqdc0","pricing_plan_id":"cebpf4jnsgd1na2vs0mg"},{"bike_id":"576ee14a-a8c8-455d-a7d2-3ffcb40cf234","system_id":"levelo_inurba_marseille","lat":43.33775,"lon":5.37472,"is_reserved":false,"is_disabled":false,"rental_uris":{"android":"levelo://app?vid=576ee14a-a8c8-455d-a7d2-3ffcb40cf234","ios":"levelo://app?vid=576ee14a-a8c8-455d-a7d2-3ffcb40cf234"},"vehicle_type_id":"4","last_reported":1767993107,"current_range_meters":5600,"station_id":"","pricing_plan_id":"cebpf4jnsgd1na2vs0mg"},{"bike_id":"18afa7e5-a060-43b9-bd3e-ab224bbb7669","system_id":"levelo_inurba_marseille","lat":43.2887,"lon":5.42527,"is_reserved":false,"is_disabled":false,"rental_uris":{"android":"levelo://app?vid=18afa7e5-a060-43b9-bd3e-ab224bbb7669","ios":"levelo://app?vid=18afa7e5-a060-43b9-bd3e-ab224bbb7669"},"vehicle_type_id":"4","last_reported":1767993107,"current_range_meters":5600,"station_id":"st_d3b462108ojc7389ooeg","pricing_plan_id":"cebpf4jnsgd1na2vs0mg"},{"bike_id":"e4df723d-5713-46e5-bbd2-6513a624238e","system_id":"levelo_inurba_marseille","lat":43.268,"lon":5.39417,"is_reserved":false,"is_disabled":true,"rental_uris":{"android":"levelo://app?vid=e4df723d-5713-46e5-bbd2-6513a624238e","ios":"levelo://app?vid=e4df723d-5713-46e5-bbd2-6513a624238e"},"vehicle_type_id":"4","last_reported":1767993107,"current_range_meters":5600,"station_id":"ce4bhh12rcd13ifvqfg0","pricing_plan_id":"cebpf4jnsgd1na2vs0mg"},{"bike_id":"7873a432-75ba-46ba-a34c-4dc6ef756fe4","system_id":"levelo_inurba_marseille","lat":43.3129,"lon":5.40193,"is_reserved":false,"is_disabled":false,"rental_uris":{"android":"levelo://app?vid=7873a432-75ba-46ba-a34c-4dc6ef756fe4","ios":"levelo://app?vid=7873a432-75ba-46ba-a34c-4dc6ef756fe4"},"vehicle_type_id":"4","last_reported":1767993107,"current_range_meters":5600,"station_id":"ce4bh092rcd13ifvqd30","pricing_plan_id":"cebpf4jnsgd1na2vs0mg"},{"bike_id":"c83a89ec-ead4-45e2-8b4f-13c69f631cb6","system_id":"levelo_inurba_marseille","lat":43.250105,"lon":5.389128,"is_reserved":false,"is_disabled":true,"rental_uris":{"android":"levelo://app?vid=c83a89ec-ead4-45e2-8b4f-13c69f631cb6","ios":"levelo://app?vid=c83a89ec-ead4-45e2-8b4f-13c69f631cb6"},"vehicle_type_id":"4","last_reported":1767993107,"current_range_meters":5600,"station_id":"ce4bhgp2rcd13ifvqfd0","pricing_plan_id":"cebpf4jnsgd1na2vs0mg"},{"bike_id":"2ce5425d-5b38-4acd-a6e9-bb0d6532119b","system_id":"levelo_inurba_marseille","lat":43.29895,"lon":5.43658,"is_reserved":false,"is_disabled":false,"rental_uris":{"android":"levelo://app?vid=2ce5425d-5b38-4acd-a6e9-bb0d6532119b","ios":"levelo://app?vid=2ce5425d-5b38-4acd-a6e9-bb0d6532119b"},"vehicle_type_id":"4","last_reported":1767993107,"current_range_meters":5600,"station_id":"ce4bhpp2rcd13ifvqhfg","pricing_plan_id":"cebpf4jnsgd1na2vs0mg"},{"bike_id":"49693813-6422-4c0b-883f-2f9444f40ff2","system_id":"levelo_inurba_marseille","lat":43.25506,"lon":5.37648,"is_reserved":false,"is_disabled":false,"rental_uris":{"android":"levelo://app?vid=49693813-6422-4c0b-883f-2f9444f40ff2","ios":"levelo://app?vid=49693813-6422-4c0b-883f-2f9444f40ff2"},"vehicle_type_id":"4","last_reported":1767993107,"current_range_meters":5600,"station_id":"ce4bhh12rcd13ifvqff0","pricing_plan_id":"cebpf4jnsgd1na2vs0mg"},{"bike_id":"027e0bbd-8c02-488f-85fd-304e5764166d","system_id":"levelo_inurba_marseille","lat":43.28856,"lon":5.38227,"is_reserved":false,"is_disabled":false,"rental_uris":{"android":"levelo://app?vid=027e0bbd-8c02-488f-85fd-304e5764166d","ios":"levelo://app?vid=027e0bbd-8c02-488f-85fd-304e5764166d"},"vehicle_type_id":"4","last_reported":1767993107,"current_range_meters":5600,"station_id":"","pricing_plan_id":"cebpf4jnsgd1na2vs0mg"},{"bike_id":"e78923fd-61c1-423d-b508-7e6a481c6dfb","system_id":"levelo_inurba_marseille","lat":43.26238,"lon":5.40448,"is_reserved":false,"is_disabled":false,"rental_uris":{"android":"levelo://app?vid=e78923fd-61c1-423d-b508-7e6a481c6dfb","ios":"levelo://app?vid=e78923fd-61c1-423d-b508-7e6a481c6dfb"},"vehicle_type_id":"4","last_reported":1767993107,"current_range_meters":5600,"station_id":"ce4bhmh2rcd13ifvqgmg","pricing_plan_id":"cebpf4jnsgd1na2vs0mg"},{"bike_id":"c27f5d14-cab3-4763-b92a-83ad3b0fa3d9","system_id":"levelo_inurba_marseille","lat":43.29285,"lon":5.37476,"is_reserved":false,"is_disabled":false,"rental_uris":{"android":"levelo://app?vid=c27f5d14-cab3-4763-b92a-83ad3b0fa3d9","ios":"levelo://app?vid=c27f5d14-cab3-4763-b92a-83ad3b0fa3d9"},"vehicle_type_id":"4","last_reported":1767993107,"current_range_meters":5600,"station_id":"ce4bgi12rcd13ifvqb70","pricing_plan_id":"cebpf4jnsgd1na2vs0mg"},{"bike_id":"b642ccbd-66c0-4823-9ea9-3bfe04d5dc9a","system_id":"levelo_inurba_marseille","lat":43.29529,"lon":5.38529,"is_reserved":false,"is_disabled":false,"rental_uris":{"android":"levelo://app?vid=b642ccbd-66c0-4823-9ea9-3bfe04d5dc9a","ios":"levelo://app?vid=b642ccbd-66c0-4823-9ea9-3bfe04d5dc9a"},"vehicle_type_id":"4","last_reported":1767993107,"current_range_meters":5600,"station_id":"ce4bgih2rcd13ifvqba0","pricing_plan_id":"cebpf4jnsgd1na2vs0mg"},{"bike_id":"d5c29c18-7a27-4023-8927-8003cd0b16af","system_id":"levelo_inurba_marseille","lat":43.26166,"lon":5.37502,"is_reserved":false,"is_disabled":false,"rental_uris":{"android":"levelo://app?vid=d5c29c18-7a27-4023-8927-8003cd0b16af","ios":"levelo://app?vid=d5c29c18-7a27-4023-8927-8003cd0b16af"},"vehicle_type_id":"4","last_reported":1767993107,"current_range_meters":5600,"station_id":"ce4bhgp2rcd13ifvqfc0","pricing_plan_id":"cebpf4jnsgd1na2vs0mg"},{"bike_id":"41d6074c-e5ee-4a0a-a616-e208bafc7ed6","system_id":"levelo_inurba_marseille","lat":43.25832,"lon":5.39439,"is_reserved":false,"is_disabled":false,"rental_uris":{"android":"levelo://app?vid=41d6074c-e5ee-4a0a-a616-e208bafc7ed6","ios":"levelo://app?vid=41d6074c-e5ee-4a0a-a616-e208bafc7ed6"},"vehicle_type_id":"4","last_reported":1767993107,"current_range_meters":5600,"station_id":"ce4bhip2rcd13ifvqft0","pricing_plan_id":"cebpf4jnsgd1na2vs0mg"},{"bike_id":"c103346d-3384-4b83-9ff8-dff851f4fdfe","system_id":"levelo_inurba_marseille","lat":43.31373,"lon":5.3804,"is_reserved":false,"is_disabled":false,"rental_uris":{"android":"levelo://app?vid=c103346d-3384-4b83-9ff8-dff851f4fdfe","ios":"levelo://app?vid=c103346d-3384-4b83-9ff8-dff851f4fdfe"},"vehicle_type_id":"4","last_reported":1767993107,"current_range_meters":5600,"station_id":"","pricing_plan_id":"cebpf4jnsgd1na2vs0mg"},{"bike_id":"12cd6376-0c28-45f2-91d7-64cb4b3513f0","system_id":"levelo_inurba_marseille","lat":43.311037,"lon":5.387501,"is_reserved":false,"is_disabled":false,"rental_uris":{"android":"levelo://app?vid=12cd6376-0c28-45f2-91d7-64cb4b3513f0","ios":"levelo://app?vid=12cd6376-0c28-45f2-91d7-64cb4b3513f0"},"vehicle_type_id":"4","last_reported":1767993107,"current_range_meters":5600,"station_id":"ce4bh9p2rcd13ifvqed0","pricing_plan_id":"cebpf4jnsgd1na2vs0mg"},{"bike_id":"77609f6c-a0ae-4a06-a2d6-469590bc28dc","system_id":"levelo_inurba_marseille","lat":43.29317,"lon":5.37166,"is_reserved":false,"is_disabled":false,"rental_uris":{"android":"levelo://app?vid=77609f6c-a0ae-4a06-a2d6-469590bc28dc","ios":"levelo://app?vid=77609f6c-a0ae-4a06-a2d6-469590bc28dc"},"vehicle_type_id":"4","last_reported":1767993107,"current_range_meters":6000,"station_id":"ce4bgh92rcd13ifvqb40","pricing_plan_id":"cebpf4jnsgd1na2vs0mg"},{"bike_id":"61a67d5c-3c03-49eb-b785-afd5c367f8ec","system_id":"levelo_inurba_marseille","lat":43.25803,"lon":5.39426,"is_reserved":false,"is_disabled":false,"rental_uris":{"android":"levelo://app?vid=61a67d5c-3c03-49eb-b785-afd5c367f8ec","ios":"levelo://app?vid=61a67d5c-3c03-49eb-b785-afd5c367f8ec"},"vehicle_type_id":"4","last_reported":1767993107,"current_range_meters":6000,"station_id":"ce4bhip2rcd13ifvqft0","pricing_plan_id":"cebpf4jnsgd1na2vs0mg"},{"bike_id":"aa186435-cc03-4095-aab3-165e1212d005","system_id":"levelo_inurba_marseille","lat":43.32361,"lon":5.36758,"is_reserved":false,"is_disabled":false,"rental_uris":{"android":"levelo://app?vid=aa186435-cc03-4095-aab3-165e1212d005","ios":"levelo://app?vid=aa186435-cc03-4095-aab3-165e1212d005"},"vehicle_type_id":"4","last_reported":1767993107,"current_range_meters":6000,"station_id":"ce4bhsh2rcd13ifvqi2g","pricing_plan_id":"cebpf4jnsgd1na2vs0mg"},{"bike_id":"e0338060-ce0a-4822-8d71-f2c1872544f8","system_id":"levelo_inurba_marseille","lat":43.28404,"lon":5.34979,"is_reserved":false,"is_disabled":false,"rental_uris":{"android":"levelo://app?vid=e0338060-ce0a-4822-8d71-f2c1872544f8","ios":"levelo://app?vid=e0338060-ce0a-4822-8d71-f2c1872544f8"},"vehicle_type_id":"4","last_reported":1767993107,"current_range_meters":6000,"station_id":"ce4bhbh2rcd13ifvqepg","pricing_plan_id":"cebpf4jnsgd1na2vs0mg"},{"bike_id":"e8237869-6bc1-4aff-8e00-c83ace1ecdfb","system_id":"levelo_inurba_marseille","lat":43.225335,"lon":5.348347,"is_reserved":false,"is_disabled":false,"rental_uris":{"android":"levelo://app?vid=e8237869-6bc1-4aff-8e00-c83ace1ecdfb","ios":"levelo://app?vid=e8237869-6bc1-4aff-8e00-c83ace1ecdfb"},"vehicle_type_id":"4","last_reported":1767993107,"current_range_meters":6000,"station_id":"","pricing_plan_id":"cebpf4jnsgd1na2vs0mg"},{"bike_id":"645210fa-1f8d-4358-8422-5e41d9e4b56c","system_id":"levelo_inurba_marseille","lat":43.26376,"lon":5.41076,"is_reserved":false,"is_disabled":false,"rental_uris":{"android":"levelo://app?vid=645210fa-1f8d-4358-8422-5e41d9e4b56c","ios":"levelo://app?vid=645210fa-1f8d-4358-8422-5e41d9e4b56c"},"vehicle_type_id":"4","last_reported":1767993107,"current_range_meters":6000,"station_id":"st_d4e5ca6na9uc73bfl5fg","pricing_plan_id":"cebpf4jnsgd1na2vs0mg"},{"bike_id":"0eb5c5de-e526-4531-ad17-62b9b5ba50f9","system_id":"levelo_inurba_marseille","lat":43.23193,"lon":5.35564,"is_reserved":false,"is_disabled":false,"rental_uris":{"android":"levelo://app?vid=0eb5c5de-e526-4531-ad17-62b9b5ba50f9","ios":"levelo://app?vid=0eb5c5de-e526-4531-ad17-62b9b5ba50f9"},"vehicle_type_id":"4","last_reported":1767993107,"current_range_meters":6000,"station_id":"ce4bhu92rcd13ifvqi70","pricing_plan_id":"cebpf4jnsgd1na2vs0mg"},{"bike_id":"486e3358-5ad4-47dd-8cf9-949675911464","system_id":"levelo_inurba_marseille","lat":43.2559,"lon":5.38254,"is_reserved":false,"is_disabled":false,"rental_uris":{"android":"levelo://app?vid=486e3358-5ad4-47dd-8cf9-949675911464","ios":"levelo://app?vid=486e3358-5ad4-47dd-8cf9-949675911464"},"vehicle_type_id":"4","last_reported":1767993107,"current_range_meters":6000,"station_id":"ce4bhih2rcd13ifvqfs0","pricing_plan_id":"cebpf4jnsgd1na2vs0mg"},{"bike_id":"ed801fdb-7ad2-4093-b19c-f4026c73f075","system_id":"levelo_inurba_marseille","lat":43.29536,"lon":5.38552,"is_reserved":false,"is_disabled":false,"rental_uris":{"android":"levelo://app?vid=ed801fdb-7ad2-4093-b19c-f4026c73f075","ios":"levelo://app?vid=ed801fdb-7ad2-4093-b19c-f4026c73f075"},"vehicle_type_id":"4","last_reported":1767993107,"current_range_meters":6000,"station_id":"ce4bgih2rcd13ifvqba0","pricing_plan_id":"cebpf4jnsgd1na2vs0mg"},{"bike_id":"fd574b71-9bc4-48df-aab3-baa6a2a11192","system_id":"levelo_inurba_marseille","lat":43.25326,"lon":5.42152,"is_reserved":false,"is_disabled":false,"rental_uris":{"android":"levelo://app?vid=fd574b71-9bc4-48df-aab3-baa6a2a11192","ios":"levelo://app?vid=fd574b71-9bc4-48df-aab3-baa6a2a11192"},"vehicle_type_id":"4","last_reported":1767993107,"current_range_meters":6000,"station_id":"st_d2m65c5bi1j21697t3ng","pricing_plan_id":"cebpf4jnsgd1na2vs0mg"},{"bike_id":"e5e20fd7-0788-42ec-ba85-97a384b652bf","system_id":"levelo_inurba_marseille","lat":43.295232,"lon":5.375039,"is_reserved":false,"is_disabled":false,"rental_uris":{"android":"levelo://app?vid=e5e20fd7-0788-42ec-ba85-97a384b652bf","ios":"levelo://app?vid=e5e20fd7-0788-42ec-ba85-97a384b652bf"},"vehicle_type_id":"4","last_reported":1767993107,"current_range_meters":6000,"station_id":"ce4bgkp2rcd13ifvqbmg","pricing_plan_id":"cebpf4jnsgd1na2vs0mg"},{"bike_id":"dfcd32c4-56f4-4b1e-bfe2-85e324ac24fb","system_id":"levelo_inurba_marseille","lat":43.27376,"lon":5.36262,"is_reserved":false,"is_disabled":false,"rental_uris":{"android":"levelo://app?vid=dfcd32c4-56f4-4b1e-bfe2-85e324ac24fb","ios":"levelo://app?vid=dfcd32c4-56f4-4b1e-bfe2-85e324ac24fb"},"vehicle_type_id":"4","last_reported":1767993107,"current_range_meters":6000,"station_id":"ce4bhbh2rcd13ifvqeo0","pricing_plan_id":"cebpf4jnsgd1na2vs0mg"},{"bike_id":"b3ddf6a0-9338-4997-ad5d-9f7f33a7293a","system_id":"levelo_inurba_marseille","lat":43.27373,"lon":5.36258,"is_reserved":false,"is_disabled":false,"rental_uris":{"android":"levelo://app?vid=b3ddf6a0-9338-4997-ad5d-9f7f33a7293a","ios":"levelo://app?vid=b3ddf6a0-9338-4997-ad5d-9f7f33a7293a"},"vehicle_type_id":"4","last_reported":1767993107,"current_range_meters":6000,"station_id":"ce4bhbh2rcd13ifvqeo0","pricing_plan_id":"cebpf4jnsgd1na2vs0mg"},{"bike_id":"262a8fec-bd27-46e9-aad8-6268adcdc681","system_id":"levelo_inurba_marseille","lat":43.212,"lon":5.35082,"is_reserved":false,"is_disabled":false,"rental_uris":{"android":"levelo://app?vid=262a8fec-bd27-46e9-aad8-6268adcdc681","ios":"levelo://app?vid=262a8fec-bd27-46e9-aad8-6268adcdc681"},"vehicle_type_id":"4","last_reported":1767993107,"current_range_meters":6000,"station_id":"st_cvj6sg6p6f1abm77japg","pricing_plan_id":"cebpf4jnsgd1na2vs0mg"},{"bike_id":"ca4c6a60-0f61-4f6d-ac20-4ded5e462329","system_id":"levelo_inurba_marseille","lat":43.29799,"lon":5.37124,"is_reserved":false,"is_disabled":false,"rental_uris":{"android":"levelo://app?vid=ca4c6a60-0f61-4f6d-ac20-4ded5e462329","ios":"levelo://app?vid=ca4c6a60-0f61-4f6d-ac20-4ded5e462329"},"vehicle_type_id":"4","last_reported":1767993107,"current_range_meters":6000,"station_id":"ce4bgop2rcd13ifvqc1g","pricing_plan_id":"cebpf4jnsgd1na2vs0mg"},{"bike_id":"8c29b9d3-5c27-4674-a1ca-758996af3f79","system_id":"levelo_inurba_marseille","lat":43.31062,"lon":5.39323,"is_reserved":false,"is_disabled":false,"rental_uris":{"android":"levelo://app?vid=8c29b9d3-5c27-4674-a1ca-758996af3f79","ios":"levelo://app?vid=8c29b9d3-5c27-4674-a1ca-758996af3f79"},"vehicle_type_id":"4","last_reported":1767993107,"current_range_meters":6000,"station_id":"","pricing_plan_id":"cebpf4jnsgd1na2vs0mg"},{"bike_id":"38f34c0b-018a-4a87-9b2b-2105aec61656","system_id":"levelo_inurba_marseille","lat":43.24177,"lon":5.39723,"is_reserved":false,"is_disabled":false,"rental_uris":{"android":"levelo://app?vid=38f34c0b-018a-4a87-9b2b-2105aec61656","ios":"levelo://app?vid=38f34c0b-018a-4a87-9b2b-2105aec61656"},"vehicle_type_id":"4","last_reported":1767993107,"current_range_meters":6000,"station_id":"ce4bhn12rcd13ifvqgpg","pricing_plan_id":"cebpf4jnsgd1na2vs0mg"},{"bike_id":"f58d6f7b-cbb0-4399-a343-55040a73d9f6","system_id":"levelo_inurba_marseille","lat":43.25314,"lon":5.42105,"is_reserved":false,"is_disabled":false,"rental_uris":{"android":"levelo://app?vid=f58d6f7b-cbb0-4399-a343-55040a73d9f6","ios":"levelo://app?vid=f58d6f7b-cbb0-4399-a343-55040a73d9f6"},"vehicle_type_id":"4","last_reported":1767993107,"current_range_meters":6000,"station_id":"","pricing_plan_id":"cebpf4jnsgd1na2vs0mg"},{"bike_id":"94a0ffb0-3efd-45e1-8229-f2d0303bc622","system_id":"levelo_inurba_marseille","lat":43.26802,"lon":5.40368,"is_reserved":false,"is_disabled":false,"rental_uris":{"android":"levelo://app?vid=94a0ffb0-3efd-45e1-8229-f2d0303bc622","ios":"levelo://app?vid=94a0ffb0-3efd-45e1-8229-f2d0303bc622"},"vehicle_type_id":"4","last_reported":1767993107,"current_range_meters":6000,"station_id":"","pricing_plan_id":"cebpf4jnsgd1na2vs0mg"},{"bike_id":"6dbfc349-1140-4ad1-90c6-b1c5eb8a3808","system_id":"levelo_inurba_marseille","lat":43.30122,"lon":5.39847,"is_reserved":false,"is_disabled":false,"rental_uris":{"android":"levelo://app?vid=6dbfc349-1140-4ad1-90c6-b1c5eb8a3808","ios":"levelo://app?vid=6dbfc349-1140-4ad1-90c6-b1c5eb8a3808"},"vehicle_type_id":"4","last_reported":1767993107,"current_range_meters":6000,"station_id":"ce4bh0h2rcd13ifvqd40","pricing_plan_id":"cebpf4jnsgd1na2vs0mg"},{"bike_id":"fe690c0a-cf85-4b7b-ab9b-e4fc82987e23","system_id":"levelo_inurba_marseille","lat":43.2952,"lon":5.38552,"is_reserved":false,"is_disabled":false,"rental_uris":{"android":"levelo://app?vid=fe690c0a-cf85-4b7b-ab9b-e4fc82987e23","ios":"levelo://app?vid=fe690c0a-cf85-4b7b-ab9b-e4fc82987e23"},"vehicle_type_id":"4","last_reported":1767993107,"current_range_meters":6000,"station_id":"ce4bgih2rcd13ifvqba0","pricing_plan_id":"cebpf4jnsgd1na2vs0mg"},{"bike_id":"29bea5b8-6f9f-469c-a070-d651d77e78f2","system_id":"levelo_inurba_marseille","lat":43.28705,"lon":5.39984,"is_reserved":false,"is_disabled":false,"rental_uris":{"android":"levelo://app?vid=29bea5b8-6f9f-469c-a070-d651d77e78f2","ios":"levelo://app?vid=29bea5b8-6f9f-469c-a070-d651d77e78f2"},"vehicle_type_id":"4","last_reported":1767993107,"current_range_meters":6000,"station_id":"ce4bho92rcd13ifvqh3g","pricing_plan_id":"cebpf4jnsgd1na2vs0mg"},{"bike_id":"d5b11fb8-6192-47fb-aadc-4bb75715f25d","system_id":"levelo_inurba_marseille","lat":43.26952,"lon":5.39835,"is_reserved":false,"is_disabled":false,"rental_uris":{"android":"levelo://app?vid=d5b11fb8-6192-47fb-aadc-4bb75715f25d","ios":"levelo://app?vid=d5b11fb8-6192-47fb-aadc-4bb75715f25d"},"vehicle_type_id":"4","last_reported":1767993107,"current_range_meters":6000,"station_id":"","pricing_plan_id":"cebpf4jnsgd1na2vs0mg"},{"bike_id":"04742994-af96-4c6b-b407-de45538bd09b","system_id":"levelo_inurba_marseille","lat":43.28248,"lon":5.43042,"is_reserved":false,"is_disabled":false,"rental_uris":{"android":"levelo://app?vid=04742994-af96-4c6b-b407-de45538bd09b","ios":"levelo://app?vid=04742994-af96-4c6b-b407-de45538bd09b"},"vehicle_type_id":"4","last_reported":1767993107,"current_range_meters":6000,"station_id":"","pricing_plan_id":"cebpf4jnsgd1na2vs0mg"},{"bike_id":"d495d3f4-e1c4-435d-99af-12f3f7a2674e","system_id":"levelo_inurba_marseille","lat":43.24174,"lon":5.36396,"is_reserved":false,"is_disabled":false,"rental_uris":{"android":"levelo://app?vid=d495d3f4-e1c4-435d-99af-12f3f7a2674e","ios":"levelo://app?vid=d495d3f4-e1c4-435d-99af-12f3f7a2674e"},"vehicle_type_id":"4","last_reported":1767993107,"current_range_meters":6000,"station_id":"cpo36qri1sfpv3e86is0","pricing_plan_id":"cebpf4jnsgd1na2vs0mg"},{"bike_id":"d62b1dd7-04ea-48f5-a204-d6921ceaf13e","system_id":"levelo_inurba_marseille","lat":43.24169,"lon":5.36389,"is_reserved":false,"is_disabled":false,"rental_uris":{"android":"levelo://app?vid=d62b1dd7-04ea-48f5-a204-d6921ceaf13e","ios":"levelo://app?vid=d62b1dd7-04ea-48f5-a204-d6921ceaf13e"},"vehicle_type_id":"4","last_reported":1767993107,"current_range_meters":6000,"station_id":"cpo36qri1sfpv3e86is0","pricing_plan_id":"cebpf4jnsgd1na2vs0mg"},{"bike_id":"1b660a72-d44a-422a-8b10-f9f280267de1","system_id":"levelo_inurba_marseille","lat":43.29533,"lon":5.3904,"is_reserved":false,"is_disabled":false,"rental_uris":{"android":"levelo://app?vid=1b660a72-d44a-422a-8b10-f9f280267de1","ios":"levelo://app?vid=1b660a72-d44a-422a-8b10-f9f280267de1"},"vehicle_type_id":"4","last_reported":1767993107,"current_range_meters":6000,"station_id":"ce4bh3p2rcd13ifvqdp0","pricing_plan_id":"cebpf4jnsgd1na2vs0mg"},{"bike_id":"7d50baf1-e702-4bc4-8ad1-ca576e44cfe3","system_id":"levelo_inurba_marseille","lat":43.24664,"lon":5.43107,"is_reserved":false,"is_disabled":false,"rental_uris":{"android":"levelo://app?vid=7d50baf1-e702-4bc4-8ad1-ca576e44cfe3","ios":"levelo://app?vid=7d50baf1-e702-4bc4-8ad1-ca576e44cfe3"},"vehicle_type_id":"4","last_reported":1767993107,"current_range_meters":6000,"station_id":"st_d2m6c4gdas8pm72e190g","pricing_plan_id":"cebpf4jnsgd1na2vs0mg"},{"bike_id":"e48a0a1d-139d-4eae-9bc8-4eb881e00720","system_id":"levelo_inurba_marseille","lat":43.32358,"lon":5.36751,"is_reserved":false,"is_disabled":false,"rental_uris":{"android":"levelo://app?vid=e48a0a1d-139d-4eae-9bc8-4eb881e00720","ios":"levelo://app?vid=e48a0a1d-139d-4eae-9bc8-4eb881e00720"},"vehicle_type_id":"4","last_reported":1767993107,"current_range_meters":6000,"station_id":"ce4bhsh2rcd13ifvqi2g","pricing_plan_id":"cebpf4jnsgd1na2vs0mg"},{"bike_id":"0300afac-912a-4bda-b7af-7e061ba01547","system_id":"levelo_inurba_marseille","lat":43.2967,"lon":5.37603,"is_reserved":false,"is_disabled":false,"rental_uris":{"android":"levelo://app?vid=0300afac-912a-4bda-b7af-7e061ba01547","ios":"levelo://app?vid=0300afac-912a-4bda-b7af-7e061ba01547"},"vehicle_type_id":"4","last_reported":1767993107,"current_range_meters":6000,"station_id":"","pricing_plan_id":"cebpf4jnsgd1na2vs0mg"},{"bike_id":"e7022c50-cbc5-4ded-859a-805b8f65913b","system_id":"levelo_inurba_marseille","lat":43.29761,"lon":5.37082,"is_reserved":false,"is_disabled":false,"rental_uris":{"android":"levelo://app?vid=e7022c50-cbc5-4ded-859a-805b8f65913b","ios":"levelo://app?vid=e7022c50-cbc5-4ded-859a-805b8f65913b"},"vehicle_type_id":"4","last_reported":1767993107,"current_range_meters":6000,"station_id":"ce4bgop2rcd13ifvqc1g","pricing_plan_id":"cebpf4jnsgd1na2vs0mg"},{"bike_id":"569b0032-d7de-4ef5-ac08-24b2ac42db20","system_id":"levelo_inurba_marseille","lat":43.26537,"lon":5.373,"is_reserved":false,"is_disabled":false,"rental_uris":{"android":"levelo://app?vid=569b0032-d7de-4ef5-ac08-24b2ac42db20","ios":"levelo://app?vid=569b0032-d7de-4ef5-ac08-24b2ac42db20"},"vehicle_type_id":"4","last_reported":1767993107,"current_range_meters":6400,"station_id":"ce4bhg12rcd13ifvqf70","pricing_plan_id":"cebpf4jnsgd1na2vs0mg"},{"bike_id":"3f7468ab-5944-415e-ae52-0d12060acb9e","system_id":"levelo_inurba_marseille","lat":43.28944,"lon":5.39624,"is_reserved":false,"is_disabled":true,"rental_uris":{"android":"levelo://app?vid=3f7468ab-5944-415e-ae52-0d12060acb9e","ios":"levelo://app?vid=3f7468ab-5944-415e-ae52-0d12060acb9e"},"vehicle_type_id":"4","last_reported":1767993107,"current_range_meters":6400,"station_id":"ce4bh3h2rcd13ifvqdn0","pricing_plan_id":"cebpf4jnsgd1na2vs0mg"},{"bike_id":"e75e2c3e-d799-431c-b611-47c8636c7eba","system_id":"levelo_inurba_marseille","lat":43.30957,"lon":5.38615,"is_reserved":false,"is_disabled":false,"rental_uris":{"android":"levelo://app?vid=e75e2c3e-d799-431c-b611-47c8636c7eba","ios":"levelo://app?vid=e75e2c3e-d799-431c-b611-47c8636c7eba"},"vehicle_type_id":"4","last_reported":1767993107,"current_range_meters":6400,"station_id":"","pricing_plan_id":"cebpf4jnsgd1na2vs0mg"},{"bike_id":"c8e24aea-453f-4d30-9492-339a817afb22","system_id":"levelo_inurba_marseille","lat":43.24405,"lon":5.37067,"is_reserved":false,"is_disabled":false,"rental_uris":{"android":"levelo://app?vid=c8e24aea-453f-4d30-9492-339a817afb22","ios":"levelo://app?vid=c8e24aea-453f-4d30-9492-339a817afb22"},"vehicle_type_id":"4","last_reported":1767993107,"current_range_meters":6400,"station_id":"ce4bhhh2rcd13ifvqfk0","pricing_plan_id":"cebpf4jnsgd1na2vs0mg"},{"bike_id":"bd78d29c-c760-450d-bc73-3e8bb1aa3e1f","system_id":"levelo_inurba_marseille","lat":43.32363,"lon":5.36764,"is_reserved":false,"is_disabled":false,"rental_uris":{"android":"levelo://app?vid=bd78d29c-c760-450d-bc73-3e8bb1aa3e1f","ios":"levelo://app?vid=bd78d29c-c760-450d-bc73-3e8bb1aa3e1f"},"vehicle_type_id":"4","last_reported":1767993107,"current_range_meters":6400,"station_id":"ce4bhsh2rcd13ifvqi2g","pricing_plan_id":"cebpf4jnsgd1na2vs0mg"},{"bike_id":"4f64ca07-eb14-46ad-896c-685625799ada","system_id":"levelo_inurba_marseille","lat":43.30792,"lon":5.37649,"is_reserved":false,"is_disabled":false,"rental_uris":{"android":"levelo://app?vid=4f64ca07-eb14-46ad-896c-685625799ada","ios":"levelo://app?vid=4f64ca07-eb14-46ad-896c-685625799ada"},"vehicle_type_id":"4","last_reported":1767993107,"current_range_meters":6400,"station_id":"ce4bgv92rcd13ifvqcq0","pricing_plan_id":"cebpf4jnsgd1na2vs0mg"},{"bike_id":"b64e452a-bec0-47a7-9fd3-b6c2486866f5","system_id":"levelo_inurba_marseille","lat":43.284748,"lon":5.484034,"is_reserved":false,"is_disabled":false,"rental_uris":{"android":"levelo://app?vid=b64e452a-bec0-47a7-9fd3-b6c2486866f5","ios":"levelo://app?vid=b64e452a-bec0-47a7-9fd3-b6c2486866f5"},"vehicle_type_id":"4","last_reported":1767993107,"current_range_meters":6400,"station_id":"","pricing_plan_id":"cebpf4jnsgd1na2vs0mg"},{"bike_id":"ff4d3f0c-f4ca-4e9d-a96d-386990436f7f","system_id":"levelo_inurba_marseille","lat":43.323427,"lon":5.367403,"is_reserved":false,"is_disabled":false,"rental_uris":{"android":"levelo://app?vid=ff4d3f0c-f4ca-4e9d-a96d-386990436f7f","ios":"levelo://app?vid=ff4d3f0c-f4ca-4e9d-a96d-386990436f7f"},"vehicle_type_id":"4","last_reported":1767993107,"current_range_meters":6400,"station_id":"ce4bhsh2rcd13ifvqi2g","pricing_plan_id":"cebpf4jnsgd1na2vs0mg"},{"bike_id":"ed27761f-ddf8-4ca6-ad7f-042a477fd7ea","system_id":"levelo_inurba_marseille","lat":43.29554,"lon":5.3738,"is_reserved":false,"is_disabled":false,"rental_uris":{"android":"levelo://app?vid=ed27761f-ddf8-4ca6-ad7f-042a477fd7ea","ios":"levelo://app?vid=ed27761f-ddf8-4ca6-ad7f-042a477fd7ea"},"vehicle_type_id":"4","last_reported":1767993107,"current_range_meters":6400,"station_id":"","pricing_plan_id":"cebpf4jnsgd1na2vs0mg"},{"bike_id":"acf9b465-5657-433f-abd2-b0a7dddb60bc","system_id":"levelo_inurba_marseille","lat":43.265468,"lon":5.372943,"is_reserved":false,"is_disabled":false,"rental_uris":{"android":"levelo://app?vid=acf9b465-5657-433f-abd2-b0a7dddb60bc","ios":"levelo://app?vid=acf9b465-5657-433f-abd2-b0a7dddb60bc"},"vehicle_type_id":"4","last_reported":1767993107,"current_range_meters":6400,"station_id":"ce4bhg12rcd13ifvqf70","pricing_plan_id":"cebpf4jnsgd1na2vs0mg"},{"bike_id":"6fad9ca1-61fd-4cab-8c8e-75dda08e921f","system_id":"levelo_inurba_marseille","lat":43.319275,"lon":5.373438,"is_reserved":false,"is_disabled":false,"rental_uris":{"android":"levelo://app?vid=6fad9ca1-61fd-4cab-8c8e-75dda08e921f","ios":"levelo://app?vid=6fad9ca1-61fd-4cab-8c8e-75dda08e921f"},"vehicle_type_id":"4","last_reported":1767993107,"current_range_meters":6400,"station_id":"","pricing_plan_id":"cebpf4jnsgd1na2vs0mg"},{"bike_id":"f9749ec0-eba7-4656-b68f-433e8b495eef","system_id":"levelo_inurba_marseille","lat":43.29266,"lon":5.38441,"is_reserved":false,"is_disabled":false,"rental_uris":{"android":"levelo://app?vid=f9749ec0-eba7-4656-b68f-433e8b495eef","ios":"levelo://app?vid=f9749ec0-eba7-4656-b68f-433e8b495eef"},"vehicle_type_id":"4","last_reported":1767993107,"current_range_meters":6400,"station_id":"ce4bh692rcd13ifvqea0","pricing_plan_id":"cebpf4jnsgd1na2vs0mg"},{"bike_id":"3b0c044b-cff7-4737-b3af-017df77671fe","system_id":"levelo_inurba_marseille","lat":43.28,"lon":5.41683,"is_reserved":false,"is_disabled":false,"rental_uris":{"android":"levelo://app?vid=3b0c044b-cff7-4737-b3af-017df77671fe","ios":"levelo://app?vid=3b0c044b-cff7-4737-b3af-017df77671fe"},"vehicle_type_id":"4","last_reported":1767993107,"current_range_meters":6400,"station_id":"ce4bho12rcd13ifvqh1g","pricing_plan_id":"cebpf4jnsgd1na2vs0mg"},{"bike_id":"67b9dd9e-bb9f-4fe5-95f7-5392f2e13e32","system_id":"levelo_inurba_marseille","lat":43.29038,"lon":5.38653,"is_reserved":false,"is_disabled":false,"rental_uris":{"android":"levelo://app?vid=67b9dd9e-bb9f-4fe5-95f7-5392f2e13e32","ios":"levelo://app?vid=67b9dd9e-bb9f-4fe5-95f7-5392f2e13e32"},"vehicle_type_id":"4","last_reported":1767993107,"current_range_meters":6400,"station_id":"ce4bh4p2rcd13ifvqe0g","pricing_plan_id":"cebpf4jnsgd1na2vs0mg"},{"bike_id":"7a59dc88-c855-4639-92cb-3517efabcf0b","system_id":"levelo_inurba_marseille","lat":43.237837,"lon":5.366369,"is_reserved":false,"is_disabled":false,"rental_uris":{"android":"levelo://app?vid=7a59dc88-c855-4639-92cb-3517efabcf0b","ios":"levelo://app?vid=7a59dc88-c855-4639-92cb-3517efabcf0b"},"vehicle_type_id":"4","last_reported":1767993107,"current_range_meters":6400,"station_id":"st_d3nk18o9ro0c73en2l3g","pricing_plan_id":"cebpf4jnsgd1na2vs0mg"},{"bike_id":"93ce2607-a763-4d17-a9c2-6cad6a0bf4ef","system_id":"levelo_inurba_marseille","lat":43.28704,"lon":5.38676,"is_reserved":false,"is_disabled":false,"rental_uris":{"android":"levelo://app?vid=93ce2607-a763-4d17-a9c2-6cad6a0bf4ef","ios":"levelo://app?vid=93ce2607-a763-4d17-a9c2-6cad6a0bf4ef"},"vehicle_type_id":"4","last_reported":1767993107,"current_range_meters":6400,"station_id":"ce4bh492rcd13ifvqdug","pricing_plan_id":"cebpf4jnsgd1na2vs0mg"},{"bike_id":"f08d5d3a-2412-48f0-a52c-2312e03d3d5e","system_id":"levelo_inurba_marseille","lat":43.28153,"lon":5.42655,"is_reserved":false,"is_disabled":false,"rental_uris":{"android":"levelo://app?vid=f08d5d3a-2412-48f0-a52c-2312e03d3d5e","ios":"levelo://app?vid=f08d5d3a-2412-48f0-a52c-2312e03d3d5e"},"vehicle_type_id":"4","last_reported":1767993107,"current_range_meters":6400,"station_id":"ce4bhnh2rcd13ifvqgug","pricing_plan_id":"cebpf4jnsgd1na2vs0mg"},{"bike_id":"7556ec87-ee82-453f-8a43-79b64208618a","system_id":"levelo_inurba_marseille","lat":43.21199,"lon":5.35063,"is_reserved":false,"is_disabled":false,"rental_uris":{"android":"levelo://app?vid=7556ec87-ee82-453f-8a43-79b64208618a","ios":"levelo://app?vid=7556ec87-ee82-453f-8a43-79b64208618a"},"vehicle_type_id":"4","last_reported":1767993107,"current_range_meters":6400,"station_id":"st_cvj6sg6p6f1abm77japg","pricing_plan_id":"cebpf4jnsgd1na2vs0mg"},{"bike_id":"d0d265a1-c3bd-4d94-b629-d97e8755c4d9","system_id":"levelo_inurba_marseille","lat":43.27174,"lon":5.41,"is_reserved":false,"is_disabled":false,"rental_uris":{"android":"levelo://app?vid=d0d265a1-c3bd-4d94-b629-d97e8755c4d9","ios":"levelo://app?vid=d0d265a1-c3bd-4d94-b629-d97e8755c4d9"},"vehicle_type_id":"4","last_reported":1767993107,"current_range_meters":6400,"station_id":"ce4bhl12rcd13ifvqgf0","pricing_plan_id":"cebpf4jnsgd1na2vs0mg"},{"bike_id":"8b697a24-51a2-452a-93c9-5c0c040134d0","system_id":"levelo_inurba_marseille","lat":43.32234,"lon":5.39422,"is_reserved":false,"is_disabled":false,"rental_uris":{"android":"levelo://app?vid=8b697a24-51a2-452a-93c9-5c0c040134d0","ios":"levelo://app?vid=8b697a24-51a2-452a-93c9-5c0c040134d0"},"vehicle_type_id":"4","last_reported":1767993107,"current_range_meters":6400,"station_id":"","pricing_plan_id":"cebpf4jnsgd1na2vs0mg"},{"bike_id":"07429402-0d1d-4ec3-8e1e-7f0c93177e43","system_id":"levelo_inurba_marseille","lat":43.24816,"lon":5.37453,"is_reserved":false,"is_disabled":false,"rental_uris":{"android":"levelo://app?vid=07429402-0d1d-4ec3-8e1e-7f0c93177e43","ios":"levelo://app?vid=07429402-0d1d-4ec3-8e1e-7f0c93177e43"},"vehicle_type_id":"4","last_reported":1767993107,"current_range_meters":6400,"station_id":"ce4bhgh2rcd13ifvqfb0","pricing_plan_id":"cebpf4jnsgd1na2vs0mg"},{"bike_id":"d849dd67-6c6c-49ff-8890-cba8f9d66595","system_id":"levelo_inurba_marseille","lat":43.24812,"lon":5.37463,"is_reserved":false,"is_disabled":false,"rental_uris":{"android":"levelo://app?vid=d849dd67-6c6c-49ff-8890-cba8f9d66595","ios":"levelo://app?vid=d849dd67-6c6c-49ff-8890-cba8f9d66595"},"vehicle_type_id":"4","last_reported":1767993107,"current_range_meters":6400,"station_id":"ce4bhgh2rcd13ifvqfb0","pricing_plan_id":"cebpf4jnsgd1na2vs0mg"},{"bike_id":"f223966a-e2d1-4fed-bcd9-65f6310fb516","system_id":"levelo_inurba_marseille","lat":43.276804,"lon":5.388922,"is_reserved":false,"is_disabled":true,"rental_uris":{"android":"levelo://app?vid=f223966a-e2d1-4fed-bcd9-65f6310fb516","ios":"levelo://app?vid=f223966a-e2d1-4fed-bcd9-65f6310fb516"},"vehicle_type_id":"4","last_reported":1767993107,"current_range_meters":6400,"station_id":"ce4bhi12rcd13ifvqfo0","pricing_plan_id":"cebpf4jnsgd1na2vs0mg"},{"bike_id":"84acd35f-eff0-4eb4-9fef-a2e6695dc9e6","system_id":"levelo_inurba_marseille","lat":43.29243,"lon":5.35809,"is_reserved":false,"is_disabled":false,"rental_uris":{"android":"levelo://app?vid=84acd35f-eff0-4eb4-9fef-a2e6695dc9e6","ios":"levelo://app?vid=84acd35f-eff0-4eb4-9fef-a2e6695dc9e6"},"vehicle_type_id":"4","last_reported":1767993107,"current_range_meters":6400,"station_id":"ce4bhb12rcd13ifvqel0","pricing_plan_id":"cebpf4jnsgd1na2vs0mg"},{"bike_id":"d1caacd0-8003-4042-b3e9-013bba5913ca","system_id":"levelo_inurba_marseille","lat":43.28,"lon":5.40016,"is_reserved":false,"is_disabled":false,"rental_uris":{"android":"levelo://app?vid=d1caacd0-8003-4042-b3e9-013bba5913ca","ios":"levelo://app?vid=d1caacd0-8003-4042-b3e9-013bba5913ca"},"vehicle_type_id":"4","last_reported":1767993107,"current_range_meters":6800,"station_id":"ce4bho92rcd13ifvqh4g","pricing_plan_id":"cebpf4jnsgd1na2vs0mg"},{"bike_id":"a45d1de9-3319-4f05-8330-0e81554cf06e","system_id":"levelo_inurba_marseille","lat":43.29961,"lon":5.38688,"is_reserved":false,"is_disabled":false,"rental_uris":{"android":"levelo://app?vid=a45d1de9-3319-4f05-8330-0e81554cf06e","ios":"levelo://app?vid=a45d1de9-3319-4f05-8330-0e81554cf06e"},"vehicle_type_id":"4","last_reported":1767993107,"current_range_meters":6800,"station_id":"","pricing_plan_id":"cebpf4jnsgd1na2vs0mg"},{"bike_id":"b01b28d2-3f19-4003-9ec3-2602e6f718f6","system_id":"levelo_inurba_marseille","lat":43.30488,"lon":5.37613,"is_reserved":false,"is_disabled":false,"rental_uris":{"android":"levelo://app?vid=b01b28d2-3f19-4003-9ec3-2602e6f718f6","ios":"levelo://app?vid=b01b28d2-3f19-4003-9ec3-2602e6f718f6"},"vehicle_type_id":"4","last_reported":1767993107,"current_range_meters":6800,"station_id":"","pricing_plan_id":"cebpf4jnsgd1na2vs0mg"},{"bike_id":"2f148a40-08c3-4821-bb26-bd90d7a0c233","system_id":"levelo_inurba_marseille","lat":43.243962,"lon":5.370747,"is_reserved":false,"is_disabled":false,"rental_uris":{"android":"levelo://app?vid=2f148a40-08c3-4821-bb26-bd90d7a0c233","ios":"levelo://app?vid=2f148a40-08c3-4821-bb26-bd90d7a0c233"},"vehicle_type_id":"4","last_reported":1767993107,"current_range_meters":6800,"station_id":"ce4bhhh2rcd13ifvqfk0","pricing_plan_id":"cebpf4jnsgd1na2vs0mg"},{"bike_id":"d0c5aa26-d77a-4047-bf56-c6c68bc7105d","system_id":"levelo_inurba_marseille","lat":43.3211,"lon":5.36796,"is_reserved":false,"is_disabled":false,"rental_uris":{"android":"levelo://app?vid=d0c5aa26-d77a-4047-bf56-c6c68bc7105d","ios":"levelo://app?vid=d0c5aa26-d77a-4047-bf56-c6c68bc7105d"},"vehicle_type_id":"4","last_reported":1767993107,"current_range_meters":6800,"station_id":"ce4bhrh2rcd13ifvqhug","pricing_plan_id":"cebpf4jnsgd1na2vs0mg"},{"bike_id":"bcdcce23-1ed6-4e0d-b5ed-7d68653991e5","system_id":"levelo_inurba_marseille","lat":43.29171,"lon":5.37155,"is_reserved":false,"is_disabled":false,"rental_uris":{"android":"levelo://app?vid=bcdcce23-1ed6-4e0d-b5ed-7d68653991e5","ios":"levelo://app?vid=bcdcce23-1ed6-4e0d-b5ed-7d68653991e5"},"vehicle_type_id":"4","last_reported":1767993107,"current_range_meters":6800,"station_id":"ce4bha92rcd13ifvqeh0","pricing_plan_id":"cebpf4jnsgd1na2vs0mg"},{"bike_id":"33690f55-67a3-419c-8e3e-a0684288f031","system_id":"levelo_inurba_marseille","lat":43.314575,"lon":5.370742,"is_reserved":false,"is_disabled":false,"rental_uris":{"android":"levelo://app?vid=33690f55-67a3-419c-8e3e-a0684288f031","ios":"levelo://app?vid=33690f55-67a3-419c-8e3e-a0684288f031"},"vehicle_type_id":"4","last_reported":1767993107,"current_range_meters":6800,"station_id":"ce4bgt92rcd13ifvqcg0","pricing_plan_id":"cebpf4jnsgd1na2vs0mg"},{"bike_id":"edf9ef2b-78e7-402e-b2e7-1f5952a3485d","system_id":"levelo_inurba_marseille","lat":43.255,"lon":5.37628,"is_reserved":false,"is_disabled":false,"rental_uris":{"android":"levelo://app?vid=edf9ef2b-78e7-402e-b2e7-1f5952a3485d","ios":"levelo://app?vid=edf9ef2b-78e7-402e-b2e7-1f5952a3485d"},"vehicle_type_id":"4","last_reported":1767993107,"current_range_meters":6800,"station_id":"ce4bhh12rcd13ifvqff0","pricing_plan_id":"cebpf4jnsgd1na2vs0mg"},{"bike_id":"24fd1209-d399-4ee0-89bd-9c6e7402ed28","system_id":"levelo_inurba_marseille","lat":43.28042,"lon":5.36946,"is_reserved":false,"is_disabled":false,"rental_uris":{"android":"levelo://app?vid=24fd1209-d399-4ee0-89bd-9c6e7402ed28","ios":"levelo://app?vid=24fd1209-d399-4ee0-89bd-9c6e7402ed28"},"vehicle_type_id":"4","last_reported":1767993107,"current_range_meters":6800,"station_id":"ce4bha12rcd13ifvqef0","pricing_plan_id":"cebpf4jnsgd1na2vs0mg"},{"bike_id":"d336d32f-a9ab-4eb1-9637-d3fa585ead55","system_id":"levelo_inurba_marseille","lat":43.29497,"lon":5.43296,"is_reserved":false,"is_disabled":false,"rental_uris":{"android":"levelo://app?vid=d336d32f-a9ab-4eb1-9637-d3fa585ead55","ios":"levelo://app?vid=d336d32f-a9ab-4eb1-9637-d3fa585ead55"},"vehicle_type_id":"4","last_reported":1767993107,"current_range_meters":6800,"station_id":"st_d3j5ugp08ojc73fj9d10","pricing_plan_id":"cebpf4jnsgd1na2vs0mg"},{"bike_id":"813744c2-32d8-4783-8fd8-cb01e5ee70e2","system_id":"levelo_inurba_marseille","lat":43.3029,"lon":5.37277,"is_reserved":false,"is_disabled":false,"rental_uris":{"android":"levelo://app?vid=813744c2-32d8-4783-8fd8-cb01e5ee70e2","ios":"levelo://app?vid=813744c2-32d8-4783-8fd8-cb01e5ee70e2"},"vehicle_type_id":"4","last_reported":1767993107,"current_range_meters":6800,"station_id":"","pricing_plan_id":"cebpf4jnsgd1na2vs0mg"},{"bike_id":"803b75a8-1115-4454-b3d0-9468a98fc0c6","system_id":"levelo_inurba_marseille","lat":43.2949,"lon":5.40928,"is_reserved":false,"is_disabled":false,"rental_uris":{"android":"levelo://app?vid=803b75a8-1115-4454-b3d0-9468a98fc0c6","ios":"levelo://app?vid=803b75a8-1115-4454-b3d0-9468a98fc0c6"},"vehicle_type_id":"4","last_reported":1767993107,"current_range_meters":6800,"station_id":"","pricing_plan_id":"cebpf4jnsgd1na2vs0mg"},{"bike_id":"7b122468-a21e-4032-904d-147eb0f3f6d4","system_id":"levelo_inurba_marseille","lat":43.331444,"lon":5.381721,"is_reserved":false,"is_disabled":false,"rental_uris":{"android":"levelo://app?vid=7b122468-a21e-4032-904d-147eb0f3f6d4","ios":"levelo://app?vid=7b122468-a21e-4032-904d-147eb0f3f6d4"},"vehicle_type_id":"4","last_reported":1767993107,"current_range_meters":6800,"station_id":"","pricing_plan_id":"cebpf4jnsgd1na2vs0mg"},{"bike_id":"2416829d-3f10-4954-bbb3-bc994a74f29a","system_id":"levelo_inurba_marseille","lat":43.25582,"lon":5.38203,"is_reserved":false,"is_disabled":false,"rental_uris":{"android":"levelo://app?vid=2416829d-3f10-4954-bbb3-bc994a74f29a","ios":"levelo://app?vid=2416829d-3f10-4954-bbb3-bc994a74f29a"},"vehicle_type_id":"4","last_reported":1767993107,"current_range_meters":6800,"station_id":"","pricing_plan_id":"cebpf4jnsgd1na2vs0mg"},{"bike_id":"b8a91720-e359-4195-9b28-7e14cf12c559","system_id":"levelo_inurba_marseille","lat":43.29008,"lon":5.38625,"is_reserved":false,"is_disabled":false,"rental_uris":{"android":"levelo://app?vid=b8a91720-e359-4195-9b28-7e14cf12c559","ios":"levelo://app?vid=b8a91720-e359-4195-9b28-7e14cf12c559"},"vehicle_type_id":"4","last_reported":1767993107,"current_range_meters":6800,"station_id":"ce4bh4p2rcd13ifvqe0g","pricing_plan_id":"cebpf4jnsgd1na2vs0mg"},{"bike_id":"0545e863-d76c-4ff3-8e82-b5fc48f3c2f0","system_id":"levelo_inurba_marseille","lat":43.28702,"lon":5.37383,"is_reserved":false,"is_disabled":false,"rental_uris":{"android":"levelo://app?vid=0545e863-d76c-4ff3-8e82-b5fc48f3c2f0","ios":"levelo://app?vid=0545e863-d76c-4ff3-8e82-b5fc48f3c2f0"},"vehicle_type_id":"4","last_reported":1767993107,"current_range_meters":6800,"station_id":"ce4bh3p2rcd13ifvqdq0","pricing_plan_id":"cebpf4jnsgd1na2vs0mg"},{"bike_id":"2687e069-c941-4e95-9a4d-e57e5033df93","system_id":"levelo_inurba_marseille","lat":43.24567,"lon":5.39522,"is_reserved":false,"is_disabled":false,"rental_uris":{"android":"levelo://app?vid=2687e069-c941-4e95-9a4d-e57e5033df93","ios":"levelo://app?vid=2687e069-c941-4e95-9a4d-e57e5033df93"},"vehicle_type_id":"4","last_reported":1767993107,"current_range_meters":6800,"station_id":"ce4bhlp2rcd13ifvqgjg","pricing_plan_id":"cebpf4jnsgd1na2vs0mg"},{"bike_id":"85264b74-5b04-4dbe-94c6-abdbdfeafcf0","system_id":"levelo_inurba_marseille","lat":43.28476,"lon":5.48397,"is_reserved":false,"is_disabled":false,"rental_uris":{"android":"levelo://app?vid=85264b74-5b04-4dbe-94c6-abdbdfeafcf0","ios":"levelo://app?vid=85264b74-5b04-4dbe-94c6-abdbdfeafcf0"},"vehicle_type_id":"4","last_reported":1767993107,"current_range_meters":6800,"station_id":"","pricing_plan_id":"cebpf4jnsgd1na2vs0mg"},{"bike_id":"c2fe1391-a7e3-4e41-aa91-4e42f88a58d2","system_id":"levelo_inurba_marseille","lat":43.29556,"lon":5.42261,"is_reserved":false,"is_disabled":false,"rental_uris":{"android":"levelo://app?vid=c2fe1391-a7e3-4e41-aa91-4e42f88a58d2","ios":"levelo://app?vid=c2fe1391-a7e3-4e41-aa91-4e42f88a58d2"},"vehicle_type_id":"4","last_reported":1767993107,"current_range_meters":6800,"station_id":"ce4bhph2rcd13ifvqhdg","pricing_plan_id":"cebpf4jnsgd1na2vs0mg"},{"bike_id":"44ba5636-cada-4aed-81b4-84b346c45e10","system_id":"levelo_inurba_marseille","lat":43.25628,"lon":5.38313,"is_reserved":false,"is_disabled":false,"rental_uris":{"android":"levelo://app?vid=44ba5636-cada-4aed-81b4-84b346c45e10","ios":"levelo://app?vid=44ba5636-cada-4aed-81b4-84b346c45e10"},"vehicle_type_id":"4","last_reported":1767993107,"current_range_meters":6800,"station_id":"","pricing_plan_id":"cebpf4jnsgd1na2vs0mg"},{"bike_id":"e1e1aebe-83f1-41a1-b955-d73772c7e400","system_id":"levelo_inurba_marseille","lat":43.29536,"lon":5.38536,"is_reserved":false,"is_disabled":false,"rental_uris":{"android":"levelo://app?vid=e1e1aebe-83f1-41a1-b955-d73772c7e400","ios":"levelo://app?vid=e1e1aebe-83f1-41a1-b955-d73772c7e400"},"vehicle_type_id":"4","last_reported":1767993107,"current_range_meters":6800,"station_id":"ce4bgih2rcd13ifvqba0","pricing_plan_id":"cebpf4jnsgd1na2vs0mg"},{"bike_id":"0935d703-0722-43f5-8a0f-b367087ad244","system_id":"levelo_inurba_marseille","lat":43.29716,"lon":5.37688,"is_reserved":false,"is_disabled":false,"rental_uris":{"android":"levelo://app?vid=0935d703-0722-43f5-8a0f-b367087ad244","ios":"levelo://app?vid=0935d703-0722-43f5-8a0f-b367087ad244"},"vehicle_type_id":"4","last_reported":1767993107,"current_range_meters":7200,"station_id":"ce4bgkh2rcd13ifvqbl0","pricing_plan_id":"cebpf4jnsgd1na2vs0mg"},{"bike_id":"cc6a42bd-dd7c-4c64-b69f-e5073a2adae2","system_id":"levelo_inurba_marseille","lat":43.21761,"lon":5.34605,"is_reserved":false,"is_disabled":false,"rental_uris":{"android":"levelo://app?vid=cc6a42bd-dd7c-4c64-b69f-e5073a2adae2","ios":"levelo://app?vid=cc6a42bd-dd7c-4c64-b69f-e5073a2adae2"},"vehicle_type_id":"4","last_reported":1767993107,"current_range_meters":7200,"station_id":"st_cvj6r9ubvosntc0bgbag","pricing_plan_id":"cebpf4jnsgd1na2vs0mg"},{"bike_id":"f7df1521-8a91-4b2d-b31b-894fbd8f101a","system_id":"levelo_inurba_marseille","lat":43.32102,"lon":5.36794,"is_reserved":false,"is_disabled":false,"rental_uris":{"android":"levelo://app?vid=f7df1521-8a91-4b2d-b31b-894fbd8f101a","ios":"levelo://app?vid=f7df1521-8a91-4b2d-b31b-894fbd8f101a"},"vehicle_type_id":"4","last_reported":1767993107,"current_range_meters":7200,"station_id":"ce4bhrh2rcd13ifvqhug","pricing_plan_id":"cebpf4jnsgd1na2vs0mg"},{"bike_id":"55fcea33-e7aa-4a56-8ac1-e90451a3f1d3","system_id":"levelo_inurba_marseille","lat":43.29154,"lon":5.35803,"is_reserved":false,"is_disabled":false,"rental_uris":{"android":"levelo://app?vid=55fcea33-e7aa-4a56-8ac1-e90451a3f1d3","ios":"levelo://app?vid=55fcea33-e7aa-4a56-8ac1-e90451a3f1d3"},"vehicle_type_id":"4","last_reported":1767993107,"current_range_meters":7200,"station_id":"","pricing_plan_id":"cebpf4jnsgd1na2vs0mg"},{"bike_id":"8c964bb5-03eb-4efd-9bbd-d8092da3d8ad","system_id":"levelo_inurba_marseille","lat":43.269396,"lon":5.402696,"is_reserved":false,"is_disabled":false,"rental_uris":{"android":"levelo://app?vid=8c964bb5-03eb-4efd-9bbd-d8092da3d8ad","ios":"levelo://app?vid=8c964bb5-03eb-4efd-9bbd-d8092da3d8ad"},"vehicle_type_id":"4","last_reported":1767993107,"current_range_meters":7200,"station_id":"cjm6bp8fraef2m0cb0m0","pricing_plan_id":"cebpf4jnsgd1na2vs0mg"},{"bike_id":"2a8ed17c-7b37-4a12-a72e-ddd6d37fc4f0","system_id":"levelo_inurba_marseille","lat":43.29513,"lon":5.40067,"is_reserved":false,"is_disabled":true,"rental_uris":{"android":"levelo://app?vid=2a8ed17c-7b37-4a12-a72e-ddd6d37fc4f0","ios":"levelo://app?vid=2a8ed17c-7b37-4a12-a72e-ddd6d37fc4f0"},"vehicle_type_id":"4","last_reported":1767993107,"current_range_meters":7200,"station_id":"","pricing_plan_id":"cebpf4jnsgd1na2vs0mg"},{"bike_id":"865555d8-70a3-48c4-b89b-4cd7680516d4","system_id":"levelo_inurba_marseille","lat":43.23197,"lon":5.35552,"is_reserved":false,"is_disabled":false,"rental_uris":{"android":"levelo://app?vid=865555d8-70a3-48c4-b89b-4cd7680516d4","ios":"levelo://app?vid=865555d8-70a3-48c4-b89b-4cd7680516d4"},"vehicle_type_id":"4","last_reported":1767993107,"current_range_meters":7200,"station_id":"ce4bhu92rcd13ifvqi70","pricing_plan_id":"cebpf4jnsgd1na2vs0mg"},{"bike_id":"791edebb-2b4f-4141-8cb6-d2d1e1b4fb81","system_id":"levelo_inurba_marseille","lat":43.303596,"lon":5.418829,"is_reserved":false,"is_disabled":false,"rental_uris":{"android":"levelo://app?vid=791edebb-2b4f-4141-8cb6-d2d1e1b4fb81","ios":"levelo://app?vid=791edebb-2b4f-4141-8cb6-d2d1e1b4fb81"},"vehicle_type_id":"4","last_reported":1767993107,"current_range_meters":7200,"station_id":"ce4bhop2rcd13ifvqh7g","pricing_plan_id":"cebpf4jnsgd1na2vs0mg"},{"bike_id":"4750dde3-1068-4d1c-91ff-e24a2c661d15","system_id":"levelo_inurba_marseille","lat":43.30119,"lon":5.43112,"is_reserved":false,"is_disabled":false,"rental_uris":{"android":"levelo://app?vid=4750dde3-1068-4d1c-91ff-e24a2c661d15","ios":"levelo://app?vid=4750dde3-1068-4d1c-91ff-e24a2c661d15"},"vehicle_type_id":"4","last_reported":1767993107,"current_range_meters":7200,"station_id":"st_d3js3co5814s73ftftug","pricing_plan_id":"cebpf4jnsgd1na2vs0mg"},{"bike_id":"2e4bd346-2ef6-4ed8-9714-fdcc0b54b9d0","system_id":"levelo_inurba_marseille","lat":43.24815,"lon":5.37449,"is_reserved":false,"is_disabled":false,"rental_uris":{"android":"levelo://app?vid=2e4bd346-2ef6-4ed8-9714-fdcc0b54b9d0","ios":"levelo://app?vid=2e4bd346-2ef6-4ed8-9714-fdcc0b54b9d0"},"vehicle_type_id":"4","last_reported":1767993107,"current_range_meters":7200,"station_id":"ce4bhgh2rcd13ifvqfb0","pricing_plan_id":"cebpf4jnsgd1na2vs0mg"},{"bike_id":"d32539fa-bfff-4120-a1e2-27ed4b09d7e1","system_id":"levelo_inurba_marseille","lat":43.29081,"lon":5.37174,"is_reserved":false,"is_disabled":false,"rental_uris":{"android":"levelo://app?vid=d32539fa-bfff-4120-a1e2-27ed4b09d7e1","ios":"levelo://app?vid=d32539fa-bfff-4120-a1e2-27ed4b09d7e1"},"vehicle_type_id":"4","last_reported":1767993107,"current_range_meters":7200,"station_id":"ce4bh5p2rcd13ifvqe4g","pricing_plan_id":"cebpf4jnsgd1na2vs0mg"},{"bike_id":"853263ca-9164-4425-83ed-bd96c0a9b45a","system_id":"levelo_inurba_marseille","lat":43.327256,"lon":5.392532,"is_reserved":false,"is_disabled":false,"rental_uris":{"android":"levelo://app?vid=853263ca-9164-4425-83ed-bd96c0a9b45a","ios":"levelo://app?vid=853263ca-9164-4425-83ed-bd96c0a9b45a"},"vehicle_type_id":"4","last_reported":1767993107,"current_range_meters":7200,"station_id":"","pricing_plan_id":"cebpf4jnsgd1na2vs0mg"},{"bike_id":"eb6bac7c-ea47-4981-b38d-8116727e3c2f","system_id":"levelo_inurba_marseille","lat":43.27803,"lon":5.407212,"is_reserved":false,"is_disabled":false,"rental_uris":{"android":"levelo://app?vid=eb6bac7c-ea47-4981-b38d-8116727e3c2f","ios":"levelo://app?vid=eb6bac7c-ea47-4981-b38d-8116727e3c2f"},"vehicle_type_id":"4","last_reported":1767993107,"current_range_meters":7200,"station_id":"ce4bhnh2rcd13ifvqgtg","pricing_plan_id":"cebpf4jnsgd1na2vs0mg"},{"bike_id":"51e5a046-3ee4-41e3-a454-4f197c6501de","system_id":"levelo_inurba_marseille","lat":43.28688,"lon":5.38666,"is_reserved":false,"is_disabled":false,"rental_uris":{"android":"levelo://app?vid=51e5a046-3ee4-41e3-a454-4f197c6501de","ios":"levelo://app?vid=51e5a046-3ee4-41e3-a454-4f197c6501de"},"vehicle_type_id":"4","last_reported":1767993107,"current_range_meters":7200,"station_id":"ce4bh492rcd13ifvqdug","pricing_plan_id":"cebpf4jnsgd1na2vs0mg"},{"bike_id":"19da6a2e-bfc1-4575-9688-508e069740dc","system_id":"levelo_inurba_marseille","lat":43.29528,"lon":5.38542,"is_reserved":false,"is_disabled":false,"rental_uris":{"android":"levelo://app?vid=19da6a2e-bfc1-4575-9688-508e069740dc","ios":"levelo://app?vid=19da6a2e-bfc1-4575-9688-508e069740dc"},"vehicle_type_id":"4","last_reported":1767993107,"current_range_meters":7200,"station_id":"ce4bgih2rcd13ifvqba0","pricing_plan_id":"cebpf4jnsgd1na2vs0mg"},{"bike_id":"a6587fc2-d977-4e48-9cf2-37447cd6f5ac","system_id":"levelo_inurba_marseille","lat":43.24172,"lon":5.36338,"is_reserved":false,"is_disabled":false,"rental_uris":{"android":"levelo://app?vid=a6587fc2-d977-4e48-9cf2-37447cd6f5ac","ios":"levelo://app?vid=a6587fc2-d977-4e48-9cf2-37447cd6f5ac"},"vehicle_type_id":"4","last_reported":1767993107,"current_range_meters":7200,"station_id":"cpo36qri1sfpv3e86is0","pricing_plan_id":"cebpf4jnsgd1na2vs0mg"},{"bike_id":"1d2c7b1f-1aad-4b6d-b60a-356c53479d92","system_id":"levelo_inurba_marseille","lat":43.292561,"lon":5.384488,"is_reserved":false,"is_disabled":false,"rental_uris":{"android":"levelo://app?vid=1d2c7b1f-1aad-4b6d-b60a-356c53479d92","ios":"levelo://app?vid=1d2c7b1f-1aad-4b6d-b60a-356c53479d92"},"vehicle_type_id":"4","last_reported":1767993107,"current_range_meters":7200,"station_id":"ce4bh692rcd13ifvqea0","pricing_plan_id":"cebpf4jnsgd1na2vs0mg"},{"bike_id":"81215cde-4e71-4cdc-9680-de9e0429ab9a","system_id":"levelo_inurba_marseille","lat":43.27819,"lon":5.40721,"is_reserved":false,"is_disabled":false,"rental_uris":{"android":"levelo://app?vid=81215cde-4e71-4cdc-9680-de9e0429ab9a","ios":"levelo://app?vid=81215cde-4e71-4cdc-9680-de9e0429ab9a"},"vehicle_type_id":"4","last_reported":1767993107,"current_range_meters":7200,"station_id":"ce4bhnh2rcd13ifvqgtg","pricing_plan_id":"cebpf4jnsgd1na2vs0mg"},{"bike_id":"271e9008-09ad-4888-9eb5-ba917a1e4dd6","system_id":"levelo_inurba_marseille","lat":43.25831,"lon":5.39443,"is_reserved":false,"is_disabled":false,"rental_uris":{"android":"levelo://app?vid=271e9008-09ad-4888-9eb5-ba917a1e4dd6","ios":"levelo://app?vid=271e9008-09ad-4888-9eb5-ba917a1e4dd6"},"vehicle_type_id":"4","last_reported":1767993107,"current_range_meters":7200,"station_id":"ce4bhip2rcd13ifvqft0","pricing_plan_id":"cebpf4jnsgd1na2vs0mg"},{"bike_id":"b12ca0e7-8533-4b98-ab27-672424d83fff","system_id":"levelo_inurba_marseille","lat":43.28344,"lon":5.38051,"is_reserved":false,"is_disabled":false,"rental_uris":{"android":"levelo://app?vid=b12ca0e7-8533-4b98-ab27-672424d83fff","ios":"levelo://app?vid=b12ca0e7-8533-4b98-ab27-672424d83fff"},"vehicle_type_id":"4","last_reported":1767993107,"current_range_meters":7200,"station_id":"ce4bh412rcd13ifvqdr0","pricing_plan_id":"cebpf4jnsgd1na2vs0mg"},{"bike_id":"8c9c7d2f-2964-4558-96e9-0e1ea8fcd3c7","system_id":"levelo_inurba_marseille","lat":43.22559,"lon":5.41659,"is_reserved":false,"is_disabled":false,"rental_uris":{"android":"levelo://app?vid=8c9c7d2f-2964-4558-96e9-0e1ea8fcd3c7","ios":"levelo://app?vid=8c9c7d2f-2964-4558-96e9-0e1ea8fcd3c7"},"vehicle_type_id":"4","last_reported":1767993107,"current_range_meters":7200,"station_id":"st_d2o4gvlbi1j2169b742g","pricing_plan_id":"cebpf4jnsgd1na2vs0mg"},{"bike_id":"d2e2418d-c3ed-4fd0-88de-90fe98564ba8","system_id":"levelo_inurba_marseille","lat":43.3209,"lon":5.36774,"is_reserved":false,"is_disabled":false,"rental_uris":{"android":"levelo://app?vid=d2e2418d-c3ed-4fd0-88de-90fe98564ba8","ios":"levelo://app?vid=d2e2418d-c3ed-4fd0-88de-90fe98564ba8"},"vehicle_type_id":"4","last_reported":1767993107,"current_range_meters":7200,"station_id":"ce4bhrh2rcd13ifvqhug","pricing_plan_id":"cebpf4jnsgd1na2vs0mg"},{"bike_id":"3fa4c789-d4e1-44ca-a4d2-c557d8b915ec","system_id":"levelo_inurba_marseille","lat":43.28935,"lon":5.36624,"is_reserved":false,"is_disabled":false,"rental_uris":{"android":"levelo://app?vid=3fa4c789-d4e1-44ca-a4d2-c557d8b915ec","ios":"levelo://app?vid=3fa4c789-d4e1-44ca-a4d2-c557d8b915ec"},"vehicle_type_id":"4","last_reported":1767993107,"current_range_meters":7200,"station_id":"ce4bhap2rcd13ifvqek0","pricing_plan_id":"cebpf4jnsgd1na2vs0mg"},{"bike_id":"7cbc58d9-0948-42d3-9c13-9a83fe5d83b6","system_id":"levelo_inurba_marseille","lat":43.28978,"lon":5.3864,"is_reserved":false,"is_disabled":false,"rental_uris":{"android":"levelo://app?vid=7cbc58d9-0948-42d3-9c13-9a83fe5d83b6","ios":"levelo://app?vid=7cbc58d9-0948-42d3-9c13-9a83fe5d83b6"},"vehicle_type_id":"4","last_reported":1767993107,"current_range_meters":7200,"station_id":"","pricing_plan_id":"cebpf4jnsgd1na2vs0mg"},{"bike_id":"7099d7a9-21a8-4796-b21b-e0186c366b42","system_id":"levelo_inurba_marseille","lat":43.2572,"lon":5.41111,"is_reserved":false,"is_disabled":false,"rental_uris":{"android":"levelo://app?vid=7099d7a9-21a8-4796-b21b-e0186c366b42","ios":"levelo://app?vid=7099d7a9-21a8-4796-b21b-e0186c366b42"},"vehicle_type_id":"4","last_reported":1767993107,"current_range_meters":7200,"station_id":"ce4bhkp2rcd13ifvqgd0","pricing_plan_id":"cebpf4jnsgd1na2vs0mg"},{"bike_id":"72c4e195-225f-406f-ba7b-fb6834e7650b","system_id":"levelo_inurba_marseille","lat":43.31568,"lon":5.36891,"is_reserved":false,"is_disabled":false,"rental_uris":{"android":"levelo://app?vid=72c4e195-225f-406f-ba7b-fb6834e7650b","ios":"levelo://app?vid=72c4e195-225f-406f-ba7b-fb6834e7650b"},"vehicle_type_id":"4","last_reported":1767993107,"current_range_meters":7200,"station_id":"","pricing_plan_id":"cebpf4jnsgd1na2vs0mg"},{"bike_id":"f582e2e5-a25e-4250-97d6-4e6a824e9461","system_id":"levelo_inurba_marseille","lat":43.3059,"lon":5.36732,"is_reserved":false,"is_disabled":false,"rental_uris":{"android":"levelo://app?vid=f582e2e5-a25e-4250-97d6-4e6a824e9461","ios":"levelo://app?vid=f582e2e5-a25e-4250-97d6-4e6a824e9461"},"vehicle_type_id":"4","last_reported":1767993107,"current_range_meters":7200,"station_id":"","pricing_plan_id":"cebpf4jnsgd1na2vs0mg"},{"bike_id":"3784f2bf-f44f-44f4-a8be-e3b125ce0193","system_id":"levelo_inurba_marseille","lat":43.27108,"lon":5.40507,"is_reserved":false,"is_disabled":false,"rental_uris":{"android":"levelo://app?vid=3784f2bf-f44f-44f4-a8be-e3b125ce0193","ios":"levelo://app?vid=3784f2bf-f44f-44f4-a8be-e3b125ce0193"},"vehicle_type_id":"4","last_reported":1767993107,"current_range_meters":7200,"station_id":"","pricing_plan_id":"cebpf4jnsgd1na2vs0mg"},{"bike_id":"9be47716-b6c4-4f6e-b3d9-238d6399366b","system_id":"levelo_inurba_marseille","lat":43.31402,"lon":5.40497,"is_reserved":false,"is_disabled":false,"rental_uris":{"android":"levelo://app?vid=9be47716-b6c4-4f6e-b3d9-238d6399366b","ios":"levelo://app?vid=9be47716-b6c4-4f6e-b3d9-238d6399366b"},"vehicle_type_id":"4","last_reported":1767993107,"current_range_meters":7200,"station_id":"","pricing_plan_id":"cebpf4jnsgd1na2vs0mg"},{"bike_id":"e288dd09-a719-4af9-97ac-ef72cf8ca56d","system_id":"levelo_inurba_marseille","lat":43.249486,"lon":5.405022,"is_reserved":false,"is_disabled":false,"rental_uris":{"android":"levelo://app?vid=e288dd09-a719-4af9-97ac-ef72cf8ca56d","ios":"levelo://app?vid=e288dd09-a719-4af9-97ac-ef72cf8ca56d"},"vehicle_type_id":"4","last_reported":1767993107,"current_range_meters":7200,"station_id":"st_d2ngiaodas8pm72gd1h0","pricing_plan_id":"cebpf4jnsgd1na2vs0mg"},{"bike_id":"07b95c16-bf86-4f94-81e2-8fb4105dff8c","system_id":"levelo_inurba_marseille","lat":43.29256,"lon":5.38434,"is_reserved":false,"is_disabled":false,"rental_uris":{"android":"levelo://app?vid=07b95c16-bf86-4f94-81e2-8fb4105dff8c","ios":"levelo://app?vid=07b95c16-bf86-4f94-81e2-8fb4105dff8c"},"vehicle_type_id":"4","last_reported":1767993107,"current_range_meters":7200,"station_id":"ce4bh692rcd13ifvqea0","pricing_plan_id":"cebpf4jnsgd1na2vs0mg"},{"bike_id":"30e7f41a-5c10-4e1c-aeed-da83a0262221","system_id":"levelo_inurba_marseille","lat":43.27374,"lon":5.36235,"is_reserved":false,"is_disabled":false,"rental_uris":{"android":"levelo://app?vid=30e7f41a-5c10-4e1c-aeed-da83a0262221","ios":"levelo://app?vid=30e7f41a-5c10-4e1c-aeed-da83a0262221"},"vehicle_type_id":"4","last_reported":1767993107,"current_range_meters":7200,"station_id":"ce4bhbh2rcd13ifvqeo0","pricing_plan_id":"cebpf4jnsgd1na2vs0mg"},{"bike_id":"a9fccba9-b754-4ee7-accb-83ed7cce913f","system_id":"levelo_inurba_marseille","lat":43.23163,"lon":5.43716,"is_reserved":false,"is_disabled":false,"rental_uris":{"android":"levelo://app?vid=a9fccba9-b754-4ee7-accb-83ed7cce913f","ios":"levelo://app?vid=a9fccba9-b754-4ee7-accb-83ed7cce913f"},"vehicle_type_id":"4","last_reported":1767993107,"current_range_meters":8000,"station_id":"ce4bhmp2rcd13ifvqgog","pricing_plan_id":"cebpf4jnsgd1na2vs0mg"},{"bike_id":"0bca4600-a0a4-4d60-86f1-561a8e89bf99","system_id":"levelo_inurba_marseille","lat":43.307649,"lon":5.367839,"is_reserved":false,"is_disabled":false,"rental_uris":{"android":"levelo://app?vid=0bca4600-a0a4-4d60-86f1-561a8e89bf99","ios":"levelo://app?vid=0bca4600-a0a4-4d60-86f1-561a8e89bf99"},"vehicle_type_id":"4","last_reported":1767993107,"current_range_meters":8000,"station_id":"ce4bgn92rcd13ifvqbvg","pricing_plan_id":"cebpf4jnsgd1na2vs0mg"},{"bike_id":"f4049db7-b663-4b74-9659-1609ed0f1a6e","system_id":"levelo_inurba_marseille","lat":43.31325,"lon":5.39698,"is_reserved":false,"is_disabled":false,"rental_uris":{"android":"levelo://app?vid=f4049db7-b663-4b74-9659-1609ed0f1a6e","ios":"levelo://app?vid=f4049db7-b663-4b74-9659-1609ed0f1a6e"},"vehicle_type_id":"4","last_reported":1767993107,"current_range_meters":8000,"station_id":"ce4bgvp2rcd13ifvqcu0","pricing_plan_id":"cebpf4jnsgd1na2vs0mg"},{"bike_id":"939c67ce-6377-4aee-8e6c-8ad0908b5630","system_id":"levelo_inurba_marseille","lat":43.25337,"lon":5.42183,"is_reserved":false,"is_disabled":false,"rental_uris":{"android":"levelo://app?vid=939c67ce-6377-4aee-8e6c-8ad0908b5630","ios":"levelo://app?vid=939c67ce-6377-4aee-8e6c-8ad0908b5630"},"vehicle_type_id":"4","last_reported":1767993107,"current_range_meters":8000,"station_id":"st_d2m65c5bi1j21697t3ng","pricing_plan_id":"cebpf4jnsgd1na2vs0mg"},{"bike_id":"76be208d-1c48-440b-b830-1e599a1a2370","system_id":"levelo_inurba_marseille","lat":43.26381,"lon":5.4108,"is_reserved":false,"is_disabled":false,"rental_uris":{"android":"levelo://app?vid=76be208d-1c48-440b-b830-1e599a1a2370","ios":"levelo://app?vid=76be208d-1c48-440b-b830-1e599a1a2370"},"vehicle_type_id":"4","last_reported":1767993107,"current_range_meters":8000,"station_id":"st_d4e5ca6na9uc73bfl5fg","pricing_plan_id":"cebpf4jnsgd1na2vs0mg"},{"bike_id":"5b6cc84f-cd6a-4b03-81fc-76f2cab24601","system_id":"levelo_inurba_marseille","lat":43.32359,"lon":5.36723,"is_reserved":false,"is_disabled":false,"rental_uris":{"android":"levelo://app?vid=5b6cc84f-cd6a-4b03-81fc-76f2cab24601","ios":"levelo://app?vid=5b6cc84f-cd6a-4b03-81fc-76f2cab24601"},"vehicle_type_id":"4","last_reported":1767993107,"current_range_meters":8000,"station_id":"ce4bhsh2rcd13ifvqi2g","pricing_plan_id":"cebpf4jnsgd1na2vs0mg"},{"bike_id":"8f138434-00e6-4b29-8b46-6b8a31350fba","system_id":"levelo_inurba_marseille","lat":43.28218,"lon":5.39042,"is_reserved":false,"is_disabled":false,"rental_uris":{"android":"levelo://app?vid=8f138434-00e6-4b29-8b46-6b8a31350fba","ios":"levelo://app?vid=8f138434-00e6-4b29-8b46-6b8a31350fba"},"vehicle_type_id":"4","last_reported":1767993107,"current_range_meters":8000,"station_id":"ce4bhn92rcd13ifvqgsg","pricing_plan_id":"cebpf4jnsgd1na2vs0mg"},{"bike_id":"93c544c6-fd6c-4012-a925-97bba7760217","system_id":"levelo_inurba_marseille","lat":43.30589,"lon":5.39347,"is_reserved":false,"is_disabled":false,"rental_uris":{"android":"levelo://app?vid=93c544c6-fd6c-4012-a925-97bba7760217","ios":"levelo://app?vid=93c544c6-fd6c-4012-a925-97bba7760217"},"vehicle_type_id":"4","last_reported":1767993107,"current_range_meters":8000,"station_id":"ce4bh0p2rcd13ifvqd80","pricing_plan_id":"cebpf4jnsgd1na2vs0mg"},{"bike_id":"23d25c2f-1713-44f4-812e-c08229251eed","system_id":"levelo_inurba_marseille","lat":43.24396,"lon":5.37071,"is_reserved":false,"is_disabled":false,"rental_uris":{"android":"levelo://app?vid=23d25c2f-1713-44f4-812e-c08229251eed","ios":"levelo://app?vid=23d25c2f-1713-44f4-812e-c08229251eed"},"vehicle_type_id":"4","last_reported":1767993107,"current_range_meters":8000,"station_id":"ce4bhhh2rcd13ifvqfk0","pricing_plan_id":"cebpf4jnsgd1na2vs0mg"},{"bike_id":"d2cf1e62-75c6-42cf-9f19-434edfc598d6","system_id":"levelo_inurba_marseille","lat":43.30941,"lon":5.39077,"is_reserved":false,"is_disabled":false,"rental_uris":{"android":"levelo://app?vid=d2cf1e62-75c6-42cf-9f19-434edfc598d6","ios":"levelo://app?vid=d2cf1e62-75c6-42cf-9f19-434edfc598d6"},"vehicle_type_id":"4","last_reported":1767993107,"current_range_meters":8000,"station_id":"ce4bgup2rcd13ifvqco0","pricing_plan_id":"cebpf4jnsgd1na2vs0mg"},{"bike_id":"ba2c17c1-c497-488b-ae00-e96360117923","system_id":"levelo_inurba_marseille","lat":43.298738,"lon":5.375641,"is_reserved":false,"is_disabled":false,"rental_uris":{"android":"levelo://app?vid=ba2c17c1-c497-488b-ae00-e96360117923","ios":"levelo://app?vid=ba2c17c1-c497-488b-ae00-e96360117923"},"vehicle_type_id":"4","last_reported":1767993107,"current_range_meters":8000,"station_id":"","pricing_plan_id":"cebpf4jnsgd1na2vs0mg"},{"bike_id":"bef98ff8-e15d-45ba-812b-84a58c5c1af3","system_id":"levelo_inurba_marseille","lat":43.258209,"lon":5.394337,"is_reserved":false,"is_disabled":false,"rental_uris":{"android":"levelo://app?vid=bef98ff8-e15d-45ba-812b-84a58c5c1af3","ios":"levelo://app?vid=bef98ff8-e15d-45ba-812b-84a58c5c1af3"},