{"last_updated":1743448111,"ttl":60,"version":"2.2","data":{"bikes":[{"bike_id":"dfd98939-7a16-4181-8e8d-9eb9709e6c98","system_id":"levelo_inurba_marseille","lat":43.29268,"lon":5.37631,"is_reserved":false,"is_disabled":false,"rental_uris":{"android":"levelo://app?vid=dfd98939-7a16-4181-8e8d-9eb9709e6c98","ios":"levelo://app?vid=dfd98939-7a16-4181-8e8d-9eb9709e6c98"},"vehicle_type_id":"4","last_reported":1743448111,"current_range_meters":2800,"station_id":"ce4bgi12rcd13ifvqb80","pricing_plan_id":"cebpf4jnsgd1na2vs0mg"},{"bike_id":"ab2e896a-7a97-407d-804a-359f8cda47c6","system_id":"levelo_inurba_marseille","lat":43.29045,"lon":5.37564,"is_reserved":false,"is_disabled":false,"rental_uris":{"android":"levelo://app?vid=ab2e896a-7a97-407d-804a-359f8cda47c6","ios":"levelo://app?vid=ab2e896a-7a97-407d-804a-359f8cda47c6"},"vehicle_type_id":"4","last_reported":1743448111,"current_range_meters":2800,"station_id":"ce4bh692rcd13ifvqe90","pricing_plan_id":"cebpf4jnsgd1na2vs0mg"},{"bike_id":"d8ab105e-668e-4bc3-9b36-35b6cecf61d4","system_id":"levelo_inurba_marseille","lat":43.28428,"lon":5.34999,"is_reserved":false,"is_disabled":false,"rental_uris":{"android":"levelo://app?vid=d8ab105e-668e-4bc3-9b36-35b6cecf61d4","ios":"levelo://app?vid=d8ab105e-668e-4bc3-9b36-35b6cecf61d4"},"vehicle_type_id":"4","last_reported":1743448111,"current_range_meters":2800,"station_id":"ce4bhbh2rcd13ifvqepg","pricing_plan_id":"cebpf4jnsgd1na2vs0mg"},{"bike_id":"d0ed36b4-3c5a-4da6-8fb4-955c321dd03a","system_id":"levelo_inurba_marseille","lat":43.27555,"lon":5.41028,"is_reserved":false,"is_disabled":false,"rental_uris":{"android":"levelo://app?vid=d0ed36b4-3c5a-4da6-8fb4-955c321dd03a","ios":"levelo://app?vid=d0ed36b4-3c5a-4da6-8fb4-955c321dd03a"},"vehicle_type_id":"4","last_reported":1743448111,"current_range_meters":3200,"station_id":"","pricing_plan_id":"cebpf4jnsgd1na2vs0mg"},{"bike_id":"42bc7b23-0e2f-4d72-b583-40bcdabb28c7","system_id":"levelo_inurba_marseille","lat":43.29543,"lon":5.3738,"is_reserved":false,"is_disabled":true,"rental_uris":{"android":"levelo://app?vid=42bc7b23-0e2f-4d72-b583-40bcdabb28c7","ios":"levelo://app?vid=42bc7b23-0e2f-4d72-b583-40bcdabb28c7"},"vehicle_type_id":"4","last_reported":1743448111,"current_range_meters":3200,"station_id":"","pricing_plan_id":"cebpf4jnsgd1na2vs0mg"},{"bike_id":"2966a752-b6ba-4b32-99e6-47ec0fcdeb61","system_id":"levelo_inurba_marseille","lat":43.298,"lon":5.38095,"is_reserved":false,"is_disabled":false,"rental_uris":{"android":"levelo://app?vid=2966a752-b6ba-4b32-99e6-47ec0fcdeb61","ios":"levelo://app?vid=2966a752-b6ba-4b32-99e6-47ec0fcdeb61"},"vehicle_type_id":"4","last_reported":1743448111,"current_range_meters":3200,"station_id":"ce4bgip2rcd13ifvqbb0","pricing_plan_id":"cebpf4jnsgd1na2vs0mg"},{"bike_id":"780b32cd-b857-4142-8bb2-55fa6c73371a","system_id":"levelo_inurba_marseille","lat":43.28669,"lon":5.3635,"is_reserved":false,"is_disabled":false,"rental_uris":{"android":"levelo://app?vid=780b32cd-b857-4142-8bb2-55fa6c73371a","ios":"levelo://app?vid=780b32cd-b857-4142-8bb2-55fa6c73371a"},"vehicle_type_id":"4","last_reported":1743448111,"current_range_meters":3200,"station_id":"ce4bhah2rcd13ifvqej0","pricing_plan_id":"cebpf4jnsgd1na2vs0mg"},{"bike_id":"7df078ab-3bc9-4542-99d7-34b2a3b03915","system_id":"levelo_inurba_marseille","lat":43.297852,"lon":5.3811,"is_reserved":false,"is_disabled":false,"rental_uris":{"android":"levelo://app?vid=7df078ab-3bc9-4542-99d7-34b2a3b03915","ios":"levelo://app?vid=7df078ab-3bc9-4542-99d7-34b2a3b03915"},"vehicle_type_id":"4","last_reported":1743448111,"current_range_meters":3200,"station_id":"ce4bhb12rcd13ifvqel0","pricing_plan_id":"cebpf4jnsgd1na2vs0mg"},{"bike_id":"bb5d9c93-ccd9-4f76-a7ad-c6f4fb302336","system_id":"levelo_inurba_marseille","lat":43.29302,"lon":5.37195,"is_reserved":false,"is_disabled":false,"rental_uris":{"android":"levelo://app?vid=bb5d9c93-ccd9-4f76-a7ad-c6f4fb302336","ios":"levelo://app?vid=bb5d9c93-ccd9-4f76-a7ad-c6f4fb302336"},"vehicle_type_id":"4","last_reported":1743448111,"current_range_meters":3200,"station_id":"ce4bgh92rcd13ifvqb40","pricing_plan_id":"cebpf4jnsgd1na2vs0mg"},{"bike_id":"439ca09a-78aa-49c9-88b0-123bb4316250","system_id":"levelo_inurba_marseille","lat":43.29269,"lon":5.38456,"is_reserved":false,"is_disabled":false,"rental_uris":{"android":"levelo://app?vid=439ca09a-78aa-49c9-88b0-123bb4316250","ios":"levelo://app?vid=439ca09a-78aa-49c9-88b0-123bb4316250"},"vehicle_type_id":"4","last_reported":1743448111,"current_range_meters":3200,"station_id":"ce4bh692rcd13ifvqea0","pricing_plan_id":"cebpf4jnsgd1na2vs0mg"},{"bike_id":"b943469e-9937-4aec-a9f9-2e6567875b8c","system_id":"levelo_inurba_marseille","lat":43.296223,"lon":5.37419,"is_reserved":false,"is_disabled":false,"rental_uris":{"android":"levelo://app?vid=b943469e-9937-4aec-a9f9-2e6567875b8c","ios":"levelo://app?vid=b943469e-9937-4aec-a9f9-2e6567875b8c"},"vehicle_type_id":"4","last_reported":1743448111,"current_range_meters":3200,"station_id":"ce4bgr92rcd13ifvqc7g","pricing_plan_id":"cebpf4jnsgd1na2vs0mg"},{"bike_id":"c35d5d78-896c-4b93-8a87-2b77d763ee34","system_id":"levelo_inurba_marseille","lat":43.30218,"lon":5.39475,"is_reserved":false,"is_disabled":false,"rental_uris":{"android":"levelo://app?vid=c35d5d78-896c-4b93-8a87-2b77d763ee34","ios":"levelo://app?vid=c35d5d78-896c-4b93-8a87-2b77d763ee34"},"vehicle_type_id":"4","last_reported":1743448111,"current_range_meters":3600,"station_id":"ce4bh0p2rcd13ifvqd70","pricing_plan_id":"cebpf4jnsgd1na2vs0mg"},{"bike_id":"248029c6-2454-473a-9b69-0f66c750cc08","system_id":"levelo_inurba_marseille","lat":43.25092,"lon":5.39535,"is_reserved":false,"is_disabled":false,"rental_uris":{"android":"levelo://app?vid=248029c6-2454-473a-9b69-0f66c750cc08","ios":"levelo://app?vid=248029c6-2454-473a-9b69-0f66c750cc08"},"vehicle_type_id":"4","last_reported":1743448111,"current_range_meters":3600,"station_id":"ce4bhm12rcd13ifvqgkg","pricing_plan_id":"cebpf4jnsgd1na2vs0mg"},{"bike_id":"a76c6e3c-8e9f-4c5d-8b35-56113571ae05","system_id":"levelo_inurba_marseille","lat":43.28416,"lon":5.34998,"is_reserved":false,"is_disabled":false,"rental_uris":{"android":"levelo://app?vid=a76c6e3c-8e9f-4c5d-8b35-56113571ae05","ios":"levelo://app?vid=a76c6e3c-8e9f-4c5d-8b35-56113571ae05"},"vehicle_type_id":"4","last_reported":1743448111,"current_range_meters":3600,"station_id":"ce4bhbh2rcd13ifvqepg","pricing_plan_id":"cebpf4jnsgd1na2vs0mg"},{"bike_id":"2ccf564a-729e-4e8e-bcd6-b64c7a019b6b","system_id":"levelo_inurba_marseille","lat":43.2862,"lon":5.37084,"is_reserved":false,"is_disabled":false,"rental_uris":{"android":"levelo://app?vid=2ccf564a-729e-4e8e-bcd6-b64c7a019b6b","ios":"levelo://app?vid=2ccf564a-729e-4e8e-bcd6-b64c7a019b6b"},"vehicle_type_id":"4","last_reported":1743448111,"current_range_meters":3600,"station_id":"ce4bht12rcd13ifvqi60","pricing_plan_id":"cebpf4jnsgd1na2vs0mg"},{"bike_id":"76674e6a-a34d-4e2a-b667-45effdef4e11","system_id":"levelo_inurba_marseille","lat":43.29038,"lon":5.37568,"is_reserved":false,"is_disabled":false,"rental_uris":{"android":"levelo://app?vid=76674e6a-a34d-4e2a-b667-45effdef4e11","ios":"levelo://app?vid=76674e6a-a34d-4e2a-b667-45effdef4e11"},"vehicle_type_id":"4","last_reported":1743448111,"current_range_meters":3200,"station_id":"ce4bh692rcd13ifvqe90","pricing_plan_id":"cebpf4jnsgd1na2vs0mg"},{"bike_id":"81d8601d-bb5e-49c4-ab50-350873d71453","system_id":"levelo_inurba_marseille","lat":43.30248,"lon":5.40084,"is_reserved":false,"is_disabled":false,"rental_uris":{"android":"levelo://app?vid=81d8601d-bb5e-49c4-ab50-350873d71453","ios":"levelo://app?vid=81d8601d-bb5e-49c4-ab50-350873d71453"},"vehicle_type_id":"4","last_reported":1743448111,"current_range_meters":3600,"station_id":"ce4bgvh2rcd13ifvqcs0","pricing_plan_id":"cebpf4jnsgd1na2vs0mg"},{"bike_id":"384b53be-0dd1-4ff6-96b3-76e22c52ec3c","system_id":"levelo_inurba_marseille","lat":43.27686,"lon":5.41879,"is_reserved":false,"is_disabled":false,"rental_uris":{"android":"levelo://app?vid=384b53be-0dd1-4ff6-96b3-76e22c52ec3c","ios":"levelo://app?vid=384b53be-0dd1-4ff6-96b3-76e22c52ec3c"},"vehicle_type_id":"4","last_reported":1743448111,"current_range_meters":3600,"station_id":"","pricing_plan_id":"cebpf4jnsgd1na2vs0mg"},{"bike_id":"6b9851a8-adcc-4863-a0b2-301b3f8e588b","system_id":"levelo_inurba_marseille","lat":43.31492,"lon":5.37315,"is_reserved":false,"is_disabled":false,"rental_uris":{"android":"levelo://app?vid=6b9851a8-adcc-4863-a0b2-301b3f8e588b","ios":"levelo://app?vid=6b9851a8-adcc-4863-a0b2-301b3f8e588b"},"vehicle_type_id":"4","last_reported":1743448111,"current_range_meters":4000,"station_id":"ce4bgt12rcd13ifvqcd0","pricing_plan_id":"cebpf4jnsgd1na2vs0mg"},{"bike_id":"705688a2-7a69-46a3-9b69-49e6e5eb1615","system_id":"levelo_inurba_marseille","lat":43.27951,"lon":5.41049,"is_reserved":false,"is_disabled":false,"rental_uris":{"android":"levelo://app?vid=705688a2-7a69-46a3-9b69-49e6e5eb1615","ios":"levelo://app?vid=705688a2-7a69-46a3-9b69-49e6e5eb1615"},"vehicle_type_id":"4","last_reported":1743448111,"current_range_meters":4000,"station_id":"ce4bhnp2rcd13ifvqh0g","pricing_plan_id":"cebpf4jnsgd1na2vs0mg"},{"bike_id":"961ccc4e-5600-4f15-8499-7936cfa27861","system_id":"levelo_inurba_marseille","lat":43.30944,"lon":5.37335,"is_reserved":false,"is_disabled":false,"rental_uris":{"android":"levelo://app?vid=961ccc4e-5600-4f15-8499-7936cfa27861","ios":"levelo://app?vid=961ccc4e-5600-4f15-8499-7936cfa27861"},"vehicle_type_id":"4","last_reported":1743448111,"current_range_meters":4000,"station_id":"","pricing_plan_id":"cebpf4jnsgd1na2vs0mg"},{"bike_id":"fa2efd37-8205-49c9-a52f-d8fe52b828ff","system_id":"levelo_inurba_marseille","lat":43.30807,"lon":5.38155,"is_reserved":false,"is_disabled":false,"rental_uris":{"android":"levelo://app?vid=fa2efd37-8205-49c9-a52f-d8fe52b828ff","ios":"levelo://app?vid=fa2efd37-8205-49c9-a52f-d8fe52b828ff"},"vehicle_type_id":"4","last_reported":1743448111,"current_range_meters":3600,"station_id":"ce4bgt12rcd13ifvqce0","pricing_plan_id":"cebpf4jnsgd1na2vs0mg"},{"bike_id":"802a6ab0-e3ab-41f9-958e-787ba8708fca","system_id":"levelo_inurba_marseille","lat":43.28668,"lon":5.36342,"is_reserved":false,"is_disabled":false,"rental_uris":{"android":"levelo://app?vid=802a6ab0-e3ab-41f9-958e-787ba8708fca","ios":"levelo://app?vid=802a6ab0-e3ab-41f9-958e-787ba8708fca"},"vehicle_type_id":"4","last_reported":1743448111,"current_range_meters":4400,"station_id":"ce4bhah2rcd13ifvqej0","pricing_plan_id":"cebpf4jnsgd1na2vs0mg"},{"bike_id":"76d4ed16-8625-4a14-a5f1-d28ac2574c13","system_id":"levelo_inurba_marseille","lat":43.24533,"lon":5.39523,"is_reserved":false,"is_disabled":false,"rental_uris":{"android":"levelo://app?vid=76d4ed16-8625-4a14-a5f1-d28ac2574c13","ios":"levelo://app?vid=76d4ed16-8625-4a14-a5f1-d28ac2574c13"},"vehicle_type_id":"4","last_reported":1743448111,"current_range_meters":4400,"station_id":"ce4bhlp2rcd13ifvqgjg","pricing_plan_id":"cebpf4jnsgd1na2vs0mg"},{"bike_id":"3b8b5fcf-ba11-4a94-a416-2c8fbad336ed","system_id":"levelo_inurba_marseille","lat":43.299,"lon":5.38911,"is_reserved":false,"is_disabled":false,"rental_uris":{"android":"levelo://app?vid=3b8b5fcf-ba11-4a94-a416-2c8fbad336ed","ios":"levelo://app?vid=3b8b5fcf-ba11-4a94-a416-2c8fbad336ed"},"vehicle_type_id":"4","last_reported":1743448111,"current_range_meters":4400,"station_id":"ce4bh392rcd13ifvqdl0","pricing_plan_id":"cebpf4jnsgd1na2vs0mg"},{"bike_id":"4ab4d092-34c3-4332-9093-832dcb49c7fd","system_id":"levelo_inurba_marseille","lat":43.31345,"lon":5.37288,"is_reserved":false,"is_disabled":false,"rental_uris":{"android":"levelo://app?vid=4ab4d092-34c3-4332-9093-832dcb49c7fd","ios":"levelo://app?vid=4ab4d092-34c3-4332-9093-832dcb49c7fd"},"vehicle_type_id":"4","last_reported":1743448111,"current_range_meters":4400,"station_id":"","pricing_plan_id":"cebpf4jnsgd1na2vs0mg"},{"bike_id":"c7de85c8-23de-438b-aff3-a28ddd73d774","system_id":"levelo_inurba_marseille","lat":43.2796,"lon":5.41043,"is_reserved":false,"is_disabled":false,"rental_uris":{"android":"levelo://app?vid=c7de85c8-23de-438b-aff3-a28ddd73d774","ios":"levelo://app?vid=c7de85c8-23de-438b-aff3-a28ddd73d774"},"vehicle_type_id":"4","last_reported":1743448111,"current_range_meters":4400,"station_id":"ce4bhnp2rcd13ifvqh0g","pricing_plan_id":"cebpf4jnsgd1na2vs0mg"},{"bike_id":"05be2b73-fee3-4e3c-9c51-02571281b8c6","system_id":"levelo_inurba_marseille","lat":43.27966,"lon":5.41049,"is_reserved":false,"is_disabled":false,"rental_uris":{"android":"levelo://app?vid=05be2b73-fee3-4e3c-9c51-02571281b8c6","ios":"levelo://app?vid=05be2b73-fee3-4e3c-9c51-02571281b8c6"},"vehicle_type_id":"4","last_reported":1743448111,"current_range_meters":4400,"station_id":"ce4bhnp2rcd13ifvqh0g","pricing_plan_id":"cebpf4jnsgd1na2vs0mg"},{"bike_id":"7cd9a46d-968e-41dd-ba98-c3cf2d6dfbe5","system_id":"levelo_inurba_marseille","lat":43.28465,"lon":5.359,"is_reserved":false,"is_disabled":false,"rental_uris":{"android":"levelo://app?vid=7cd9a46d-968e-41dd-ba98-c3cf2d6dfbe5","ios":"levelo://app?vid=7cd9a46d-968e-41dd-ba98-c3cf2d6dfbe5"},"vehicle_type_id":"4","last_reported":1743448111,"current_range_meters":4400,"station_id":"ce4bhah2rcd13ifvqei0","pricing_plan_id":"cebpf4jnsgd1na2vs0mg"},{"bike_id":"35a0bc23-3944-454c-8e5d-730541c8b664","system_id":"levelo_inurba_marseille","lat":43.26198,"lon":5.37459,"is_reserved":false,"is_disabled":true,"rental_uris":{"android":"levelo://app?vid=35a0bc23-3944-454c-8e5d-730541c8b664","ios":"levelo://app?vid=35a0bc23-3944-454c-8e5d-730541c8b664"},"vehicle_type_id":"4","last_reported":1743448111,"current_range_meters":4400,"station_id":"ce4bhgp2rcd13ifvqfc0","pricing_plan_id":"cebpf4jnsgd1na2vs0mg"},{"bike_id":"e4ccc5ea-a9b6-4d16-acbb-a39a100ec511","system_id":"levelo_inurba_marseille","lat":43.28103,"lon":5.3784,"is_reserved":false,"is_disabled":false,"rental_uris":{"android":"levelo://app?vid=e4ccc5ea-a9b6-4d16-acbb-a39a100ec511","ios":"levelo://app?vid=e4ccc5ea-a9b6-4d16-acbb-a39a100ec511"},"vehicle_type_id":"4","last_reported":1743448111,"current_range_meters":4000,"station_id":"ce4bha12rcd13ifvqee0","pricing_plan_id":"cebpf4jnsgd1na2vs0mg"},{"bike_id":"c8773754-83af-4af0-a909-23dd3af40fc3","system_id":"levelo_inurba_marseille","lat":43.27823,"lon":5.4072,"is_reserved":false,"is_disabled":false,"rental_uris":{"android":"levelo://app?vid=c8773754-83af-4af0-a909-23dd3af40fc3","ios":"levelo://app?vid=c8773754-83af-4af0-a909-23dd3af40fc3"},"vehicle_type_id":"4","last_reported":1743448111,"current_range_meters":4400,"station_id":"ce4bhnh2rcd13ifvqgtg","pricing_plan_id":"cebpf4jnsgd1na2vs0mg"},{"bike_id":"efcddc12-70a5-4a6a-9af7-e71665f5834c","system_id":"levelo_inurba_marseille","lat":43.299417,"lon":5.401578,"is_reserved":false,"is_disabled":false,"rental_uris":{"android":"levelo://app?vid=efcddc12-70a5-4a6a-9af7-e71665f5834c","ios":"levelo://app?vid=efcddc12-70a5-4a6a-9af7-e71665f5834c"},"vehicle_type_id":"4","last_reported":1743448111,"current_range_meters":4800,"station_id":"ce4bh0h2rcd13ifvqd40","pricing_plan_id":"cebpf4jnsgd1na2vs0mg"},{"bike_id":"f9f0b684-b633-4be2-a0ec-7e867c3f379e","system_id":"levelo_inurba_marseille","lat":43.2836,"lon":5.38093,"is_reserved":false,"is_disabled":false,"rental_uris":{"android":"levelo://app?vid=f9f0b684-b633-4be2-a0ec-7e867c3f379e","ios":"levelo://app?vid=f9f0b684-b633-4be2-a0ec-7e867c3f379e"},"vehicle_type_id":"4","last_reported":1743448111,"current_range_meters":4800,"station_id":"ce4bh412rcd13ifvqdr0","pricing_plan_id":"cebpf4jnsgd1na2vs0mg"},{"bike_id":"b9d5c53b-f86b-4cc3-b5c0-6bf109218aad","system_id":"levelo_inurba_marseille","lat":43.29205,"lon":5.39322,"is_reserved":false,"is_disabled":false,"rental_uris":{"android":"levelo://app?vid=b9d5c53b-f86b-4cc3-b5c0-6bf109218aad","ios":"levelo://app?vid=b9d5c53b-f86b-4cc3-b5c0-6bf109218aad"},"vehicle_type_id":"4","last_reported":1743448111,"current_range_meters":5600,"station_id":"ce4bh192rcd13ifvqdd0","pricing_plan_id":"cebpf4jnsgd1na2vs0mg"},{"bike_id":"82d8e203-da64-466b-9b1d-e9f0a9bfebfe","system_id":"levelo_inurba_marseille","lat":43.32535,"lon":5.41458,"is_reserved":false,"is_disabled":true,"rental_uris":{"android":"levelo://app?vid=82d8e203-da64-466b-9b1d-e9f0a9bfebfe","ios":"levelo://app?vid=82d8e203-da64-466b-9b1d-e9f0a9bfebfe"},"vehicle_type_id":"4","last_reported":1743448111,"current_range_meters":5600,"station_id":"ce4bhq12rcd13ifvqhhg","pricing_plan_id":"cebpf4jnsgd1na2vs0mg"},{"bike_id":"1115aca5-6e9e-4faf-b9a7-ceadf7eb4ba5","system_id":"levelo_inurba_marseille","lat":43.28729,"lon":5.37936,"is_reserved":false,"is_disabled":false,"rental_uris":{"android":"levelo://app?vid=1115aca5-6e9e-4faf-b9a7-ceadf7eb4ba5","ios":"levelo://app?vid=1115aca5-6e9e-4faf-b9a7-ceadf7eb4ba5"},"vehicle_type_id":"4","last_reported":1743448111,"current_range_meters":5600,"station_id":"ce4bh9p2rcd13ifvqec0","pricing_plan_id":"cebpf4jnsgd1na2vs0mg"},{"bike_id":"79bd9a53-3ca7-4ce0-9b1a-8574164d6639","system_id":"levelo_inurba_marseille","lat":43.28418,"lon":5.374983,"is_reserved":false,"is_disabled":false,"rental_uris":{"android":"levelo://app?vid=79bd9a53-3ca7-4ce0-9b1a-8574164d6639","ios":"levelo://app?vid=79bd9a53-3ca7-4ce0-9b1a-8574164d6639"},"vehicle_type_id":"4","last_reported":1743448111,"current_range_meters":5600,"station_id":"ce4bh412rcd13ifvqds0","pricing_plan_id":"cebpf4jnsgd1na2vs0mg"},{"bike_id":"e23bb2fc-f1f9-4f20-a1d3-52be4266d7e2","system_id":"levelo_inurba_marseille","lat":43.29434,"lon":5.38572,"is_reserved":false,"is_disabled":false,"rental_uris":{"android":"levelo://app?vid=e23bb2fc-f1f9-4f20-a1d3-52be4266d7e2","ios":"levelo://app?vid=e23bb2fc-f1f9-4f20-a1d3-52be4266d7e2"},"vehicle_type_id":"4","last_reported":1743448111,"current_range_meters":5600,"station_id":"","pricing_plan_id":"cebpf4jnsgd1na2vs0mg"},{"bike_id":"0b75bd5e-79dc-4337-ae3a-11229fb0a60f","system_id":"levelo_inurba_marseille","lat":43.29282,"lon":5.36847,"is_reserved":false,"is_disabled":false,"rental_uris":{"android":"levelo://app?vid=0b75bd5e-79dc-4337-ae3a-11229fb0a60f","ios":"levelo://app?vid=0b75bd5e-79dc-4337-ae3a-11229fb0a60f"},"vehicle_type_id":"4","last_reported":1743448111,"current_range_meters":5600,"station_id":"ce4bhbp2rcd13ifvqesg","pricing_plan_id":"cebpf4jnsgd1na2vs0mg"},{"bike_id":"75d56f98-6c75-4a8c-a312-88f4710b478a","system_id":"levelo_inurba_marseille","lat":43.2927,"lon":5.37622,"is_reserved":false,"is_disabled":true,"rental_uris":{"android":"levelo://app?vid=75d56f98-6c75-4a8c-a312-88f4710b478a","ios":"levelo://app?vid=75d56f98-6c75-4a8c-a312-88f4710b478a"},"vehicle_type_id":"4","last_reported":1743448111,"current_range_meters":5600,"station_id":"ce4bgi12rcd13ifvqb80","pricing_plan_id":"cebpf4jnsgd1na2vs0mg"},{"bike_id":"d1379a4b-7d1c-4a20-9b6a-00a7778584be","system_id":"levelo_inurba_marseille","lat":43.26077,"lon":5.39382,"is_reserved":false,"is_disabled":false,"rental_uris":{"android":"levelo://app?vid=d1379a4b-7d1c-4a20-9b6a-00a7778584be","ios":"levelo://app?vid=d1379a4b-7d1c-4a20-9b6a-00a7778584be"},"vehicle_type_id":"4","last_reported":1743448111,"current_range_meters":5600,"station_id":"ce4bhh92rcd13ifvqfj0","pricing_plan_id":"cebpf4jnsgd1na2vs0mg"},{"bike_id":"c4500860-8491-4315-a913-174de2c1f9f0","system_id":"levelo_inurba_marseille","lat":43.28476,"lon":5.3843,"is_reserved":false,"is_disabled":false,"rental_uris":{"android":"levelo://app?vid=c4500860-8491-4315-a913-174de2c1f9f0","ios":"levelo://app?vid=c4500860-8491-4315-a913-174de2c1f9f0"},"vehicle_type_id":"4","last_reported":1743448111,"current_range_meters":5600,"station_id":"ce4bh512rcd13ifvqe3g","pricing_plan_id":"cebpf4jnsgd1na2vs0mg"},{"bike_id":"6c2d60b4-6f9e-498b-b0f2-383ff310805d","system_id":"levelo_inurba_marseille","lat":43.28435,"lon":5.35011,"is_reserved":false,"is_disabled":false,"rental_uris":{"android":"levelo://app?vid=6c2d60b4-6f9e-498b-b0f2-383ff310805d","ios":"levelo://app?vid=6c2d60b4-6f9e-498b-b0f2-383ff310805d"},"vehicle_type_id":"4","last_reported":1743448111,"current_range_meters":5600,"station_id":"ce4bhbh2rcd13ifvqepg","pricing_plan_id":"cebpf4jnsgd1na2vs0mg"},{"bike_id":"0bc6c1fa-dbbc-4d9c-b446-5ba81359bad0","system_id":"levelo_inurba_marseille","lat":43.28839,"lon":5.35861,"is_reserved":false,"is_disabled":false,"rental_uris":{"android":"levelo://app?vid=0bc6c1fa-dbbc-4d9c-b446-5ba81359bad0","ios":"levelo://app?vid=0bc6c1fa-dbbc-4d9c-b446-5ba81359bad0"},"vehicle_type_id":"4","last_reported":1743448111,"current_range_meters":6000,"station_id":"ce4bhb12rcd13ifvqem0","pricing_plan_id":"cebpf4jnsgd1na2vs0mg"},{"bike_id":"56c2ff9b-e9ba-4917-b243-df8ca9f4e6ca","system_id":"levelo_inurba_marseille","lat":43.290283,"lon":5.386519,"is_reserved":false,"is_disabled":false,"rental_uris":{"android":"levelo://app?vid=56c2ff9b-e9ba-4917-b243-df8ca9f4e6ca","ios":"levelo://app?vid=56c2ff9b-e9ba-4917-b243-df8ca9f4e6ca"},"vehicle_type_id":"4","last_reported":1743448111,"current_range_meters":6000,"station_id":"ce4bh4p2rcd13ifvqe0g","pricing_plan_id":"cebpf4jnsgd1na2vs0mg"},{"bike_id":"30648811-66be-4992-89ee-3ef07295c9dd","system_id":"levelo_inurba_marseille","lat":43.29532,"lon":5.38547,"is_reserved":false,"is_disabled":false,"rental_uris":{"android":"levelo://app?vid=30648811-66be-4992-89ee-3ef07295c9dd","ios":"levelo://app?vid=30648811-66be-4992-89ee-3ef07295c9dd"},"vehicle_type_id":"4","last_reported":1743448111,"current_range_meters":6000,"station_id":"ce4bgih2rcd13ifvqba0","pricing_plan_id":"cebpf4jnsgd1na2vs0mg"},{"bike_id":"99ce6f91-8324-4da1-9ae4-7b9385121933","system_id":"levelo_inurba_marseille","lat":43.27815,"lon":5.40721,"is_reserved":false,"is_disabled":false,"rental_uris":{"android":"levelo://app?vid=99ce6f91-8324-4da1-9ae4-7b9385121933","ios":"levelo://app?vid=99ce6f91-8324-4da1-9ae4-7b9385121933"},"vehicle_type_id":"4","last_reported":1743448111,"current_range_meters":6000,"station_id":"ce4bhnh2rcd13ifvqgtg","pricing_plan_id":"cebpf4jnsgd1na2vs0mg"},{"bike_id":"0909e6e7-119a-43a8-b285-33eb860b8051","system_id":"levelo_inurba_marseille","lat":43.30255,"lon":5.40087,"is_reserved":false,"is_disabled":false,"rental_uris":{"android":"levelo://app?vid=0909e6e7-119a-43a8-b285-33eb860b8051","ios":"levelo://app?vid=0909e6e7-119a-43a8-b285-33eb860b8051"},"vehicle_type_id":"4","last_reported":1743448111,"current_range_meters":6000,"station_id":"ce4bgvh2rcd13ifvqcs0","pricing_plan_id":"cebpf4jnsgd1na2vs0mg"},{"bike_id":"7baa1542-eda9-4c27-bb82-1e6d0a9e6c1a","system_id":"levelo_inurba_marseille","lat":43.287999,"lon":5.360855,"is_reserved":false,"is_disabled":false,"rental_uris":{"android":"levelo://app?vid=7baa1542-eda9-4c27-bb82-1e6d0a9e6c1a","ios":"levelo://app?vid=7baa1542-eda9-4c27-bb82-1e6d0a9e6c1a"},"vehicle_type_id":"4","last_reported":1743448111,"current_range_meters":6000,"station_id":"","pricing_plan_id":"cebpf4jnsgd1na2vs0mg"},{"bike_id":"568541d9-8433-4503-8762-aba95f8cd4cc","system_id":"levelo_inurba_marseille","lat":43.28424,"lon":5.34989,"is_reserved":false,"is_disabled":false,"rental_uris":{"android":"levelo://app?vid=568541d9-8433-4503-8762-aba95f8cd4cc","ios":"levelo://app?vid=568541d9-8433-4503-8762-aba95f8cd4cc"},"vehicle_type_id":"4","last_reported":1743448111,"current_range_meters":6400,"station_id":"ce4bhbh2rcd13ifvqepg","pricing_plan_id":"cebpf4jnsgd1na2vs0mg"},{"bike_id":"a26dca06-eab3-4af0-be0a-b3479bd6f5cc","system_id":"levelo_inurba_marseille","lat":43.2942,"lon":5.38625,"is_reserved":false,"is_disabled":false,"rental_uris":{"android":"levelo://app?vid=a26dca06-eab3-4af0-be0a-b3479bd6f5cc","ios":"levelo://app?vid=a26dca06-eab3-4af0-be0a-b3479bd6f5cc"},"vehicle_type_id":"4","last_reported":1743448111,"current_range_meters":6400,"station_id":"ce4bh2h2rcd13ifvqdh0","pricing_plan_id":"cebpf4jnsgd1na2vs0mg"},{"bike_id":"74f7eb96-293c-4e69-9762-8579f859cecd","system_id":"levelo_inurba_marseille","lat":43.275,"lon":5.42456,"is_reserved":false,"is_disabled":false,"rental_uris":{"android":"levelo://app?vid=74f7eb96-293c-4e69-9762-8579f859cecd","ios":"levelo://app?vid=74f7eb96-293c-4e69-9762-8579f859cecd"},"vehicle_type_id":"4","last_reported":1743448111,"current_range_meters":6400,"station_id":"ce4bhn92rcd13ifvqgrg","pricing_plan_id":"cebpf4jnsgd1na2vs0mg"},{"bike_id":"5cb79fbb-77fd-4094-b2ac-552c3e45fb01","system_id":"levelo_inurba_marseille","lat":43.28424,"lon":5.34978,"is_reserved":false,"is_disabled":false,"rental_uris":{"android":"levelo://app?vid=5cb79fbb-77fd-4094-b2ac-552c3e45fb01","ios":"levelo://app?vid=5cb79fbb-77fd-4094-b2ac-552c3e45fb01"},"vehicle_type_id":"4","last_reported":1743448111,"current_range_meters":6400,"station_id":"ce4bhbh2rcd13ifvqepg","pricing_plan_id":"cebpf4jnsgd1na2vs0mg"},{"bike_id":"494a860b-8b3a-4bd4-9b1e-87c92aaff5d1","system_id":"levelo_inurba_marseille","lat":43.26613,"lon":5.39034,"is_reserved":false,"is_disabled":false,"rental_uris":{"android":"levelo://app?vid=494a860b-8b3a-4bd4-9b1e-87c92aaff5d1","ios":"levelo://app?vid=494a860b-8b3a-4bd4-9b1e-87c92aaff5d1"},"vehicle_type_id":"4","last_reported":1743448111,"current_range_meters":6400,"station_id":"ce4bhe12rcd13ifvqf30","pricing_plan_id":"cebpf4jnsgd1na2vs0mg"},{"bike_id":"db2c9aa7-05c4-4c1a-a9a4-75916933535c","system_id":"levelo_inurba_marseille","lat":43.27847,"lon":5.39213,"is_reserved":false,"is_disabled":false,"rental_uris":{"android":"levelo://app?vid=db2c9aa7-05c4-4c1a-a9a4-75916933535c","ios":"levelo://app?vid=db2c9aa7-05c4-4c1a-a9a4-75916933535c"},"vehicle_type_id":"4","last_reported":1743448111,"current_range_meters":6400,"station_id":"ce4bhjp2rcd13ifvqga0","pricing_plan_id":"cebpf4jnsgd1na2vs0mg"},{"bike_id":"85fad29d-07fa-4834-92ea-a24165516ebf","system_id":"levelo_inurba_marseille","lat":43.23065,"lon":5.355,"is_reserved":false,"is_disabled":false,"rental_uris":{"android":"levelo://app?vid=85fad29d-07fa-4834-92ea-a24165516ebf","ios":"levelo://app?vid=85fad29d-07fa-4834-92ea-a24165516ebf"},"vehicle_type_id":"4","last_reported":1743448111,"current_range_meters":6400,"station_id":"cpo3342slgdg3j2ifvpg","pricing_plan_id":"cebpf4jnsgd1na2vs0mg"},{"bike_id":"22cdc40d-189c-487e-af1b-7619d9d52c4e","system_id":"levelo_inurba_marseille","lat":43.29633,"lon":5.40598,"is_reserved":false,"is_disabled":false,"rental_uris":{"android":"levelo://app?vid=22cdc40d-189c-487e-af1b-7619d9d52c4e","ios":"levelo://app?vid=22cdc40d-189c-487e-af1b-7619d9d52c4e"},"vehicle_type_id":"4","last_reported":1743448111,"current_range_meters":6400,"station_id":"ce4bh0h2rcd13ifvqd60","pricing_plan_id":"cebpf4jnsgd1na2vs0mg"},{"bike_id":"1810d16b-fe4d-4c20-9dfc-eec2ae21bc80","system_id":"levelo_inurba_marseille","lat":43.27214,"lon":5.39182,"is_reserved":false,"is_disabled":false,"rental_uris":{"android":"levelo://app?vid=1810d16b-fe4d-4c20-9dfc-eec2ae21bc80","ios":"levelo://app?vid=1810d16b-fe4d-4c20-9dfc-eec2ae21bc80"},"vehicle_type_id":"4","last_reported":1743448111,"current_range_meters":6400,"station_id":"ce4bhhp2rcd13ifvqfm0","pricing_plan_id":"cebpf4jnsgd1na2vs0mg"},{"bike_id":"e386a555-7b1e-46b0-94aa-574d318a5119","system_id":"levelo_inurba_marseille","lat":43.31233,"lon":5.36887,"is_reserved":false,"is_disabled":false,"rental_uris":{"android":"levelo://app?vid=e386a555-7b1e-46b0-94aa-574d318a5119","ios":"levelo://app?vid=e386a555-7b1e-46b0-94aa-574d318a5119"},"vehicle_type_id":"4","last_reported":1743448111,"current_range_meters":6400,"station_id":"ce4bgl92rcd13ifvqbq0","pricing_plan_id":"cebpf4jnsgd1na2vs0mg"},{"bike_id":"11f495eb-961f-46bd-9e8d-26d82a9369cf","system_id":"levelo_inurba_marseille","lat":43.31343,"lon":5.36721,"is_reserved":false,"is_disabled":false,"rental_uris":{"android":"levelo://app?vid=11f495eb-961f-46bd-9e8d-26d82a9369cf","ios":"levelo://app?vid=11f495eb-961f-46bd-9e8d-26d82a9369cf"},"vehicle_type_id":"4","last_reported":1743448111,"current_range_meters":6400,"station_id":"ce4bgr92rcd13ifvqc6g","pricing_plan_id":"cebpf4jnsgd1na2vs0mg"},{"bike_id":"1544ce89-914d-451b-9de5-5c0a798db09d","system_id":"levelo_inurba_marseille","lat":43.22942,"lon":5.35392,"is_reserved":false,"is_disabled":false,"rental_uris":{"android":"levelo://app?vid=1544ce89-914d-451b-9de5-5c0a798db09d","ios":"levelo://app?vid=1544ce89-914d-451b-9de5-5c0a798db09d"},"vehicle_type_id":"4","last_reported":1743448111,"current_range_meters":6400,"station_id":"cpo3532slgdg3j2ikp40","pricing_plan_id":"cebpf4jnsgd1na2vs0mg"},{"bike_id":"c8993f9a-32c4-4de7-aa8f-d307097df90a","system_id":"levelo_inurba_marseille","lat":43.30251,"lon":5.40062,"is_reserved":false,"is_disabled":false,"rental_uris":{"android":"levelo://app?vid=c8993f9a-32c4-4de7-aa8f-d307097df90a","ios":"levelo://app?vid=c8993f9a-32c4-4de7-aa8f-d307097df90a"},"vehicle_type_id":"4","last_reported":1743448111,"current_range_meters":6400,"station_id":"ce4bgvh2rcd13ifvqcs0","pricing_plan_id":"cebpf4jnsgd1na2vs0mg"},{"bike_id":"a4fc165d-f97c-46ac-924a-bd691a2aa50e","system_id":"levelo_inurba_marseille","lat":43.31369,"lon":5.36729,"is_reserved":false,"is_disabled":false,"rental_uris":{"android":"levelo://app?vid=a4fc165d-f97c-46ac-924a-bd691a2aa50e","ios":"levelo://app?vid=a4fc165d-f97c-46ac-924a-bd691a2aa50e"},"vehicle_type_id":"4","last_reported":1743448111,"current_range_meters":6800,"station_id":"ce4bgr92rcd13ifvqc6g","pricing_plan_id":"cebpf4jnsgd1na2vs0mg"},{"bike_id":"0c5488fe-064e-40c9-952b-18b04ad42e45","system_id":"levelo_inurba_marseille","lat":43.25739,"lon":5.41112,"is_reserved":false,"is_disabled":false,"rental_uris":{"android":"levelo://app?vid=0c5488fe-064e-40c9-952b-18b04ad42e45","ios":"levelo://app?vid=0c5488fe-064e-40c9-952b-18b04ad42e45"},"vehicle_type_id":"4","last_reported":1743448111,"current_range_meters":6800,"station_id":"ce4bhkp2rcd13ifvqgd0","pricing_plan_id":"cebpf4jnsgd1na2vs0mg"},{"bike_id":"2b27a278-12db-4035-b2e0-cbc8c96b1c49","system_id":"levelo_inurba_marseille","lat":43.286922,"lon":5.39984,"is_reserved":false,"is_disabled":false,"rental_uris":{"android":"levelo://app?vid=2b27a278-12db-4035-b2e0-cbc8c96b1c49","ios":"levelo://app?vid=2b27a278-12db-4035-b2e0-cbc8c96b1c49"},"vehicle_type_id":"4","last_reported":1743448111,"current_range_meters":6800,"station_id":"ce4bho92rcd13ifvqh3g","pricing_plan_id":"cebpf4jnsgd1na2vs0mg"},{"bike_id":"2d3ddf82-fb7a-4286-b25a-457905416bb5","system_id":"levelo_inurba_marseille","lat":43.27837,"lon":5.39211,"is_reserved":false,"is_disabled":false,"rental_uris":{"android":"levelo://app?vid=2d3ddf82-fb7a-4286-b25a-457905416bb5","ios":"levelo://app?vid=2d3ddf82-fb7a-4286-b25a-457905416bb5"},"vehicle_type_id":"4","last_reported":1743448111,"current_range_meters":6800,"station_id":"ce4bhjp2rcd13ifvqga0","pricing_plan_id":"cebpf4jnsgd1na2vs0mg"},{"bike_id":"f8aceccd-55ff-4545-a122-e24603e2c7f6","system_id":"levelo_inurba_marseille","lat":43.27904,"lon":5.38016,"is_reserved":false,"is_disabled":false,"rental_uris":{"android":"levelo://app?vid=f8aceccd-55ff-4545-a122-e24603e2c7f6","ios":"levelo://app?vid=f8aceccd-55ff-4545-a122-e24603e2c7f6"},"vehicle_type_id":"4","last_reported":1743448111,"current_range_meters":3200,"station_id":"ce4bhf92rcd13ifvqf50","pricing_plan_id":"cebpf4jnsgd1na2vs0mg"},{"bike_id":"f32b7e19-3a41-42de-9074-6e93da166b0e","system_id":"levelo_inurba_marseille","lat":43.29883,"lon":5.38918,"is_reserved":false,"is_disabled":false,"rental_uris":{"android":"levelo://app?vid=f32b7e19-3a41-42de-9074-6e93da166b0e","ios":"levelo://app?vid=f32b7e19-3a41-42de-9074-6e93da166b0e"},"vehicle_type_id":"4","last_reported":1743448111,"current_range_meters":6800,"station_id":"ce4bh392rcd13ifvqdl0","pricing_plan_id":"cebpf4jnsgd1na2vs0mg"},{"bike_id":"d6702032-1f3d-47ae-9536-6a30fc4c6c7b","system_id":"levelo_inurba_marseille","lat":43.28664,"lon":5.36359,"is_reserved":false,"is_disabled":false,"rental_uris":{"android":"levelo://app?vid=d6702032-1f3d-47ae-9536-6a30fc4c6c7b","ios":"levelo://app?vid=d6702032-1f3d-47ae-9536-6a30fc4c6c7b"},"vehicle_type_id":"4","last_reported":1743448111,"current_range_meters":6800,"station_id":"ce4bhah2rcd13ifvqej0","pricing_plan_id":"cebpf4jnsgd1na2vs0mg"},{"bike_id":"28c2eb6b-4030-4260-adbf-941740a74c34","system_id":"levelo_inurba_marseille","lat":43.30124,"lon":5.39865,"is_reserved":false,"is_disabled":false,"rental_uris":{"android":"levelo://app?vid=28c2eb6b-4030-4260-adbf-941740a74c34","ios":"levelo://app?vid=28c2eb6b-4030-4260-adbf-941740a74c34"},"vehicle_type_id":"4","last_reported":1743448111,"current_range_meters":6800,"station_id":"ce4bh0h2rcd13ifvqd40","pricing_plan_id":"cebpf4jnsgd1na2vs0mg"},{"bike_id":"8473788b-58cc-4ffe-99f0-630d463f852d","system_id":"levelo_inurba_marseille","lat":43.23189,"lon":5.3999,"is_reserved":false,"is_disabled":false,"rental_uris":{"android":"levelo://app?vid=8473788b-58cc-4ffe-99f0-630d463f852d","ios":"levelo://app?vid=8473788b-58cc-4ffe-99f0-630d463f852d"},"vehicle_type_id":"4","last_reported":1743448111,"current_range_meters":6800,"station_id":"ce4bhn12rcd13ifvqgqg","pricing_plan_id":"cebpf4jnsgd1na2vs0mg"},{"bike_id":"6062a337-35b1-4804-9f55-f711eee820c6","system_id":"levelo_inurba_marseille","lat":43.28907,"lon":5.36623,"is_reserved":false,"is_disabled":false,"rental_uris":{"android":"levelo://app?vid=6062a337-35b1-4804-9f55-f711eee820c6","ios":"levelo://app?vid=6062a337-35b1-4804-9f55-f711eee820c6"},"vehicle_type_id":"4","last_reported":1743448111,"current_range_meters":6800,"station_id":"ce4bhap2rcd13ifvqek0","pricing_plan_id":"cebpf4jnsgd1na2vs0mg"},{"bike_id":"00d61976-17e0-440b-8586-301c5d1b91c1","system_id":"levelo_inurba_marseille","lat":43.292643,"lon":5.384315,"is_reserved":false,"is_disabled":true,"rental_uris":{"android":"levelo://app?vid=00d61976-17e0-440b-8586-301c5d1b91c1","ios":"levelo://app?vid=00d61976-17e0-440b-8586-301c5d1b91c1"},"vehicle_type_id":"4","last_reported":1743448111,"current_range_meters":7200,"station_id":"","pricing_plan_id":"cebpf4jnsgd1na2vs0mg"},{"bike_id":"6f6bceb3-06a9-44d0-afc9-1dc055d19c19","system_id":"levelo_inurba_marseille","lat":43.25734,"lon":5.41128,"is_reserved":false,"is_disabled":false,"rental_uris":{"android":"levelo://app?vid=6f6bceb3-06a9-44d0-afc9-1dc055d19c19","ios":"levelo://app?vid=6f6bceb3-06a9-44d0-afc9-1dc055d19c19"},"vehicle_type_id":"4","last_reported":1743448111,"current_range_meters":7200,"station_id":"ce4bhkp2rcd13ifvqgd0","pricing_plan_id":"cebpf4jnsgd1na2vs0mg"},{"bike_id":"6165c5e1-15f4-4779-ba2f-91df8ba3f8c0","system_id":"levelo_inurba_marseille","lat":43.28931,"lon":5.4299,"is_reserved":false,"is_disabled":false,"rental_uris":{"android":"levelo://app?vid=6165c5e1-15f4-4779-ba2f-91df8ba3f8c0","ios":"levelo://app?vid=6165c5e1-15f4-4779-ba2f-91df8ba3f8c0"},"vehicle_type_id":"4","last_reported":1743448111,"current_range_meters":7200,"station_id":"","pricing_plan_id":"cebpf4jnsgd1na2vs0mg"},{"bike_id":"1da808a6-36fb-434e-b2cb-2df77d77936e","system_id":"levelo_inurba_marseille","lat":43.27392,"lon":5.36267,"is_reserved":false,"is_disabled":false,"rental_uris":{"android":"levelo://app?vid=1da808a6-36fb-434e-b2cb-2df77d77936e","ios":"levelo://app?vid=1da808a6-36fb-434e-b2cb-2df77d77936e"},"vehicle_type_id":"4","last_reported":1743448111,"current_range_meters":7200,"station_id":"ce4bhbh2rcd13ifvqeo0","pricing_plan_id":"cebpf4jnsgd1na2vs0mg"},{"bike_id":"7bf19f0f-ccb7-4e2d-8151-5b3b43d672b1","system_id":"levelo_inurba_marseille","lat":43.26037,"lon":5.41749,"is_reserved":false,"is_disabled":false,"rental_uris":{"android":"levelo://app?vid=7bf19f0f-ccb7-4e2d-8151-5b3b43d672b1","ios":"levelo://app?vid=7bf19f0f-ccb7-4e2d-8151-5b3b43d672b1"},"vehicle_type_id":"4","last_reported":1743448111,"current_range_meters":7200,"station_id":"","pricing_plan_id":"cebpf4jnsgd1na2vs0mg"},{"bike_id":"751173ad-b36c-4255-8e32-22ad235c0bf9","system_id":"levelo_inurba_marseille","lat":43.23963,"lon":5.36646,"is_reserved":false,"is_disabled":false,"rental_uris":{"android":"levelo://app?vid=751173ad-b36c-4255-8e32-22ad235c0bf9","ios":"levelo://app?vid=751173ad-b36c-4255-8e32-22ad235c0bf9"},"vehicle_type_id":"4","last_reported":1743448111,"current_range_meters":6800,"station_id":"ce4bhi12rcd13ifvqfp0","pricing_plan_id":"cebpf4jnsgd1na2vs0mg"},{"bike_id":"1b415863-e5af-4389-aed9-b4accf06ec94","system_id":"levelo_inurba_marseille","lat":43.29787,"lon":5.40401,"is_reserved":false,"is_disabled":false,"rental_uris":{"android":"levelo://app?vid=1b415863-e5af-4389-aed9-b4accf06ec94","ios":"levelo://app?vid=1b415863-e5af-4389-aed9-b4accf06ec94"},"vehicle_type_id":"4","last_reported":1743448111,"current_range_meters":7200,"station_id":"ce4bh112rcd13ifvqd90","pricing_plan_id":"cebpf4jnsgd1na2vs0mg"},{"bike_id":"8e0f188a-8f68-4829-a88d-fbce617bb8e5","system_id":"levelo_inurba_marseille","lat":43.28438,"lon":5.35001,"is_reserved":false,"is_disabled":false,"rental_uris":{"android":"levelo://app?vid=8e0f188a-8f68-4829-a88d-fbce617bb8e5","ios":"levelo://app?vid=8e0f188a-8f68-4829-a88d-fbce617bb8e5"},"vehicle_type_id":"4","last_reported":1743448111,"current_range_meters":7200,"station_id":"ce4bhbh2rcd13ifvqepg","pricing_plan_id":"cebpf4jnsgd1na2vs0mg"},{"bike_id":"99d055d7-9012-4bd5-ad15-1482d25b2f4d","system_id":"levelo_inurba_marseille","lat":43.30254,"lon":5.40051,"is_reserved":false,"is_disabled":false,"rental_uris":{"android":"levelo://app?vid=99d055d7-9012-4bd5-ad15-1482d25b2f4d","ios":"levelo://app?vid=99d055d7-9012-4bd5-ad15-1482d25b2f4d"},"vehicle_type_id":"4","last_reported":1743448111,"current_range_meters":7200,"station_id":"ce4bgvh2rcd13ifvqcs0","pricing_plan_id":"cebpf4jnsgd1na2vs0mg"},{"bike_id":"fe4aa107-7235-4db1-863e-82362841add7","system_id":"levelo_inurba_marseille","lat":43.2873,"lon":5.36093,"is_reserved":false,"is_disabled":false,"rental_uris":{"android":"levelo://app?vid=fe4aa107-7235-4db1-863e-82362841add7","ios":"levelo://app?vid=fe4aa107-7235-4db1-863e-82362841add7"},"vehicle_type_id":"4","last_reported":1743448111,"current_range_meters":6800,"station_id":"cki0cbj6b192h4jlfktg","pricing_plan_id":"cebpf4jnsgd1na2vs0mg"},{"bike_id":"98e9e043-0694-4ee2-86f8-2f735dfd7edb","system_id":"levelo_inurba_marseille","lat":43.29096,"lon":5.3813,"is_reserved":false,"is_disabled":false,"rental_uris":{"android":"levelo://app?vid=98e9e043-0694-4ee2-86f8-2f735dfd7edb","ios":"levelo://app?vid=98e9e043-0694-4ee2-86f8-2f735dfd7edb"},"vehicle_type_id":"4","last_reported":1743448111,"current_range_meters":7200,"station_id":"ce4bh512rcd13ifvqe2g","pricing_plan_id":"cebpf4jnsgd1na2vs0mg"},{"bike_id":"18eac285-bdca-4d56-9b4b-418187d65c89","system_id":"levelo_inurba_marseille","lat":43.28107,"lon":5.37842,"is_reserved":false,"is_disabled":false,"rental_uris":{"android":"levelo://app?vid=18eac285-bdca-4d56-9b4b-418187d65c89","ios":"levelo://app?vid=18eac285-bdca-4d56-9b4b-418187d65c89"},"vehicle_type_id":"4","last_reported":1743448111,"current_range_meters":7200,"station_id":"ce4bha12rcd13ifvqee0","pricing_plan_id":"cebpf4jnsgd1na2vs0mg"},{"bike_id":"eb2cf3c0-31cf-4194-b222-00299873048c","system_id":"levelo_inurba_marseille","lat":43.28494,"lon":5.38575,"is_reserved":false,"is_disabled":false,"rental_uris":{"android":"levelo://app?vid=eb2cf3c0-31cf-4194-b222-00299873048c","ios":"levelo://app?vid=eb2cf3c0-31cf-4194-b222-00299873048c"},"vehicle_type_id":"4","last_reported":1743448111,"current_range_meters":8000,"station_id":"ce4bh8p2rcd13ifvqeb0","pricing_plan_id":"cebpf4jnsgd1na2vs0mg"},{"bike_id":"407b633a-987e-4722-b77a-993eaa06a6b7","system_id":"levelo_inurba_marseille","lat":43.31576,"lon":5.38831,"is_reserved":false,"is_disabled":false,"rental_uris":{"android":"levelo://app?vid=407b633a-987e-4722-b77a-993eaa06a6b7","ios":"levelo://app?vid=407b633a-987e-4722-b77a-993eaa06a6b7"},"vehicle_type_id":"4","last_reported":1743448111,"current_range_meters":8000,"station_id":"","pricing_plan_id":"cebpf4jnsgd1na2vs0mg"},{"bike_id":"ea48211e-59b4-4275-ada3-6a0a91430088","system_id":"levelo_inurba_marseille","lat":43.29809,"lon":5.3809,"is_reserved":false,"is_disabled":false,"rental_uris":{"android":"levelo://app?vid=ea48211e-59b4-4275-ada3-6a0a91430088","ios":"levelo://app?vid=ea48211e-59b4-4275-ada3-6a0a91430088"},"vehicle_type_id":"4","last_reported":1743448111,"current_range_meters":8000,"station_id":"ce4bgip2rcd13ifvqbb0","pricing_plan_id":"cebpf4jnsgd1na2vs0mg"},{"bike_id":"de86025c-0f4b-4867-ad47-49b9c66220c5","system_id":"levelo_inurba_marseille","lat":43.28576,"lon":5.39495,"is_reserved":false,"is_disabled":false,"rental_uris":{"android":"levelo://app?vid=de86025c-0f4b-4867-ad47-49b9c66220c5","ios":"levelo://app?vid=de86025c-0f4b-4867-ad47-49b9c66220c5"},"vehicle_type_id":"4","last_reported":1743448111,"current_range_meters":8000,"station_id":"ce4bh292rcd13ifvqdg0","pricing_plan_id":"cebpf4jnsgd1na2vs0mg"},{"bike_id":"e51d913b-a7ac-49b8-a95e-5df68f1d3dff","system_id":"levelo_inurba_marseille","lat":43.290378,"lon":5.377947,"is_reserved":false,"is_disabled":false,"rental_uris":{"android":"levelo://app?vid=e51d913b-a7ac-49b8-a95e-5df68f1d3dff","ios":"levelo://app?vid=e51d913b-a7ac-49b8-a95e-5df68f1d3dff"},"vehicle_type_id":"4","last_reported":1743448111,"current_range_meters":7200,"station_id":"ce4bhh92rcd13ifvqfi0","pricing_plan_id":"cebpf4jnsgd1na2vs0mg"},{"bike_id":"3e6f399e-ea99-4bee-bf19-68240615b5e1","system_id":"levelo_inurba_marseille","lat":43.290315,"lon":5.386594,"is_reserved":false,"is_disabled":true,"rental_uris":{"android":"levelo://app?vid=3e6f399e-ea99-4bee-bf19-68240615b5e1","ios":"levelo://app?vid=3e6f399e-ea99-4bee-bf19-68240615b5e1"},"vehicle_type_id":"4","last_reported":1743448111,"current_range_meters":8000,"station_id":"ce4bh4p2rcd13ifvqe0g","pricing_plan_id":"cebpf4jnsgd1na2vs0mg"},{"bike_id":"65823365-32b2-4c2c-8f12-1e8b73f91efd","system_id":"levelo_inurba_marseille","lat":43.2846,"lon":5.35927,"is_reserved":false,"is_disabled":false,"rental_uris":{"android":"levelo://app?vid=65823365-32b2-4c2c-8f12-1e8b73f91efd","ios":"levelo://app?vid=65823365-32b2-4c2c-8f12-1e8b73f91efd"},"vehicle_type_id":"4","last_reported":1743448111,"current_range_meters":8000,"station_id":"ce4bhah2rcd13ifvqei0","pricing_plan_id":"cebpf4jnsgd1na2vs0mg"},{"bike_id":"81d8c813-d6bf-4abc-ae95-d07553708c15","system_id":"levelo_inurba_marseille","lat":43.28352,"lon":5.38629,"is_reserved":false,"is_disabled":false,"rental_uris":{"android":"levelo://app?vid=81d8c813-d6bf-4abc-ae95-d07553708c15","ios":"levelo://app?vid=81d8c813-d6bf-4abc-ae95-d07553708c15"},"vehicle_type_id":"4","last_reported":1743448111,"current_range_meters":8000,"station_id":"ce4bh492rcd13ifvqdvg","pricing_plan_id":"cebpf4jnsgd1na2vs0mg"},{"bike_id":"9a2af466-2aa8-49f7-bfd5-fc815a2aa07c","system_id":"levelo_inurba_marseille","lat":43.30676,"lon":5.40091,"is_reserved":false,"is_disabled":true,"rental_uris":{"android":"levelo://app?vid=9a2af466-2aa8-49f7-bfd5-fc815a2aa07c","ios":"levelo://app?vid=9a2af466-2aa8-49f7-bfd5-fc815a2aa07c"},"vehicle_type_id":"4","last_reported":1743448111,"current_range_meters":8000,"station_id":"ce4bh112rcd13ifvqda0","pricing_plan_id":"cebpf4jnsgd1na2vs0mg"},{"bike_id":"970d4a28-2e4b-453e-912d-59e6f284b811","system_id":"levelo_inurba_marseille","lat":43.323651,"lon":5.389034,"is_reserved":false,"is_disabled":true,"rental_uris":{"android":"levelo://app?vid=970d4a28-2e4b-453e-912d-59e6f284b811","ios":"levelo://app?vid=970d4a28-2e4b-453e-912d-59e6f284b811"},"vehicle_type_id":"4","last_reported":1743448111,"current_range_meters":8400,"station_id":"ce4bhqp2rcd13ifvqhog","pricing_plan_id":"cebpf4jnsgd1na2vs0mg"},{"bike_id":"2916612a-5078-4965-9bfe-4fd8b7a4a522","system_id":"levelo_inurba_marseille","lat":43.27372,"lon":5.36271,"is_reserved":false,"is_disabled":false,"rental_uris":{"android":"levelo://app?vid=2916612a-5078-4965-9bfe-4fd8b7a4a522","ios":"levelo://app?vid=2916612a-5078-4965-9bfe-4fd8b7a4a522"},"vehicle_type_id":"4","last_reported":1743448111,"current_range_meters":8400,"station_id":"ce4bhbh2rcd13ifvqeo0","pricing_plan_id":"cebpf4jnsgd1na2vs0mg"},{"bike_id":"6b7f2b11-03ac-4a0c-9fb1-71dc0bbdd506","system_id":"levelo_inurba_marseille","lat":43.31996,"lon":5.38151,"is_reserved":false,"is_disabled":false,"rental_uris":{"android":"levelo://app?vid=6b7f2b11-03ac-4a0c-9fb1-71dc0bbdd506","ios":"levelo://app?vid=6b7f2b11-03ac-4a0c-9fb1-71dc0bbdd506"},"vehicle_type_id":"4","last_reported":1743448111,"current_range_meters":8400,"station_id":"ce4bhr12rcd13ifvqhpg","pricing_plan_id":"cebpf4jnsgd1na2vs0mg"},{"bike_id":"bce291d0-e087-4ee9-b5e4-2b5f6c18f5d8","system_id":"levelo_inurba_marseille","lat":43.27052,"lon":5.40268,"is_reserved":false,"is_disabled":false,"rental_uris":{"android":"levelo://app?vid=bce291d0-e087-4ee9-b5e4-2b5f6c18f5d8","ios":"levelo://app?vid=bce291d0-e087-4ee9-b5e4-2b5f6c18f5d8"},"vehicle_type_id":"4","last_reported":1743448111,"current_range_meters":8400,"station_id":"ce4bhk92rcd13ifvqgc0","pricing_plan_id":"cebpf4jnsgd1na2vs0mg"},{"bike_id":"b3e97410-c1b2-4369-b878-0aa5bbd817bc","system_id":"levelo_inurba_marseille","lat":43.28475,"lon":5.35884,"is_reserved":false,"is_disabled":true,"rental_uris":{"android":"levelo://app?vid=b3e97410-c1b2-4369-b878-0aa5bbd817bc","ios":"levelo://app?vid=b3e97410-c1b2-4369-b878-0aa5bbd817bc"},"vehicle_type_id":"4","last_reported":1743448111,"current_range_meters":8400,"station_id":"ce4bhah2rcd13ifvqei0","pricing_plan_id":"cebpf4jnsgd1na2vs0mg"},{"bike_id":"fea7ab93-0f90-49e8-b915-eb27838a4f0f","system_id":"levelo_inurba_marseille","lat":43.33034,"lon":5.39049,"is_reserved":false,"is_disabled":false,"rental_uris":{"android":"levelo://app?vid=fea7ab93-0f90-49e8-b915-eb27838a4f0f","ios":"levelo://app?vid=fea7ab93-0f90-49e8-b915-eb27838a4f0f"},"vehicle_type_id":"4","last_reported":1743448111,"current_range_meters":8400,"station_id":"ce4bhr92rcd13ifvqhrg","pricing_plan_id":"cebpf4jnsgd1na2vs0mg"},{"bike_id":"df415a3d-11c6-4565-bb11-2bce054ad4de","system_id":"levelo_inurba_marseille","lat":43.28684,"lon":5.38668,"is_reserved":false,"is_disabled":false,"rental_uris":{"android":"levelo://app?vid=df415a3d-11c6-4565-bb11-2bce054ad4de","ios":"levelo://app?vid=df415a3d-11c6-4565-bb11-2bce054ad4de"},"vehicle_type_id":"4","last_reported":1743448111,"current_range_meters":8400,"station_id":"ce4bh492rcd13ifvqdug","pricing_plan_id":"cebpf4jnsgd1na2vs0mg"},{"bike_id":"2a7c2371-e75a-4e41-8901-ca7fec621d02","system_id":"levelo_inurba_marseille","lat":43.30804,"lon":5.43534,"is_reserved":false,"is_disabled":false,"rental_uris":{"android":"levelo://app?vid=2a7c2371-e75a-4e41-8901-ca7fec621d02","ios":"levelo://app?vid=2a7c2371-e75a-4e41-8901-ca7fec621d02"},"vehicle_type_id":"4","last_reported":1743448111,"current_range_meters":8400,"station_id":"ce4bhph2rcd13ifvqheg","pricing_plan_id":"cebpf4jnsgd1na2vs0mg"},{"bike_id":"6dad0ab5-2bad-48e4-855e-751e9b84dfbb","system_id":"levelo_inurba_marseille","lat":43.26494,"lon":5.39545,"is_reserved":false,"is_disabled":false,"rental_uris":{"android":"levelo://app?vid=6dad0ab5-2bad-48e4-855e-751e9b84dfbb","ios":"levelo://app?vid=6dad0ab5-2bad-48e4-855e-751e9b84dfbb"},"vehicle_type_id":"4","last_reported":1743448111,"current_range_meters":8400,"station_id":"ce4bhi12rcd13ifvqfq0","pricing_plan_id":"cebpf4jnsgd1na2vs0mg"},{"bike_id":"eaf4239a-b6a0-496e-bc14-b9651308855e","system_id":"levelo_inurba_marseille","lat":43.27954,"lon":5.410368,"is_reserved":false,"is_disabled":false,"rental_uris":{"android":"levelo://app?vid=eaf4239a-b6a0-496e-bc14-b9651308855e","ios":"levelo://app?vid=eaf4239a-b6a0-496e-bc14-b9651308855e"},"vehicle_type_id":"4","last_reported":1743448111,"current_range_meters":8400,"station_id":"ce4bgrp2rcd13ifvqc9g","pricing_plan_id":"cebpf4jnsgd1na2vs0mg"},{"bike_id":"2544b345-63c9-4d9b-be2f-ada0aa65f9cf","system_id":"levelo_inurba_marseille","lat":43.2293,"lon":5.35379,"is_reserved":false,"is_disabled":false,"rental_uris":{"android":"levelo://app?vid=2544b345-63c9-4d9b-be2f-ada0aa65f9cf","ios":"levelo://app?vid=2544b345-63c9-4d9b-be2f-ada0aa65f9cf"},"vehicle_type_id":"4","last_reported":1743448111,"current_range_meters":8400,"station_id":"cpo3532slgdg3j2ikp40","pricing_plan_id":"cebpf4jnsgd1na2vs0mg"},{"bike_id":"cf1f2c03-f850-4d1b-a61f-a8f68ffbe580","system_id":"levelo_inurba_marseille","lat":43.2811,"lon":5.37844,"is_reserved":false,"is_disabled":false,"rental_uris":{"android":"levelo://app?vid=cf1f2c03-f850-4d1b-a61f-a8f68ffbe580","ios":"levelo://app?vid=cf1f2c03-f850-4d1b-a61f-a8f68ffbe580"},"vehicle_type_id":"4","last_reported":1743448111,"current_range_meters":8400,"station_id":"ce4bha12rcd13ifvqee0","pricing_plan_id":"cebpf4jnsgd1na2vs0mg"},{"bike_id":"0df2ad59-b328-4cf6-9221-a550543a3aa3","system_id":"levelo_inurba_marseille","lat":43.300779,"lon":5.386779,"is_reserved":false,"is_disabled":false,"rental_uris":{"android":"levelo://app?vid=0df2ad59-b328-4cf6-9221-a550543a3aa3","ios":"levelo://app?vid=0df2ad59-b328-4cf6-9221-a550543a3aa3"},"vehicle_type_id":"4","last_reported":1743448111,"current_range_meters":8400,"station_id":"ce4bh0h2rcd13ifvqd40","pricing_plan_id":"cebpf4jnsgd1na2vs0mg"},{"bike_id":"a59cd0d4-bf3a-4098-b5ff-c6f25497fe37","system_id":"levelo_inurba_marseille","lat":43.30649,"lon":5.40104,"is_reserved":false,"is_disabled":false,"rental_uris":{"android":"levelo://app?vid=a59cd0d4-bf3a-4098-b5ff-c6f25497fe37","ios":"levelo://app?vid=a59cd0d4-bf3a-4098-b5ff-c6f25497fe37"},"vehicle_type_id":"4","last_reported":1743448111,"current_range_meters":8400,"station_id":"ce4bh112rcd13ifvqda0","pricing_plan_id":"cebpf4jnsgd1na2vs0mg"},{"bike_id":"121010d1-d0ea-475b-97a6-f9054736109c","system_id":"levelo_inurba_marseille","lat":43.23185,"lon":5.39978,"is_reserved":false,"is_disabled":false,"rental_uris":{"android":"levelo://app?vid=121010d1-d0ea-475b-97a6-f9054736109c","ios":"levelo://app?vid=121010d1-d0ea-475b-97a6-f9054736109c"},"vehicle_type_id":"4","last_reported":1743448111,"current_range_meters":8800,"station_id":"ce4bhn12rcd13ifvqgqg","pricing_plan_id":"cebpf4jnsgd1na2vs0mg"},{"bike_id":"49810080-90c1-49b4-921f-dc96b27343ff","system_id":"levelo_inurba_marseille","lat":43.26139,"lon":5.41488,"is_reserved":false,"is_disabled":false,"rental_uris":{"android":"levelo://app?vid=49810080-90c1-49b4-921f-dc96b27343ff","ios":"levelo://app?vid=49810080-90c1-49b4-921f-dc96b27343ff"},"vehicle_type_id":"4","last_reported":1743448111,"current_range_meters":8800,"station_id":"","pricing_plan_id":"cebpf4jnsgd1na2vs0mg"},{"bike_id":"20f5d5b6-da1b-4ad8-8de5-42887a69d068","system_id":"levelo_inurba_marseille","lat":43.29022,"lon":5.35616,"is_reserved":false,"is_disabled":true,"rental_uris":{"android":"levelo://app?vid=20f5d5b6-da1b-4ad8-8de5-42887a69d068","ios":"levelo://app?vid=20f5d5b6-da1b-4ad8-8de5-42887a69d068"},"vehicle_type_id":"4","last_reported":1743448111,"current_range_meters":8800,"station_id":"ce4bhb92rcd13ifvqen0","pricing_plan_id":"cebpf4jnsgd1na2vs0mg"},{"bike_id":"6794ae83-daba-4611-956d-2c9dffa4f52f","system_id":"levelo_inurba_marseille","lat":43.30302,"lon":5.39216,"is_reserved":false,"is_disabled":false,"rental_uris":{"android":"levelo://app?vid=6794ae83-daba-4611-956d-2c9dffa4f52f","ios":"levelo://app?vid=6794ae83-daba-4611-956d-2c9dffa4f52f"},"vehicle_type_id":"4","last_reported":1743448111,"current_range_meters":8800,"station_id":"ce4bgkh2rcd13ifvqbk0","pricing_plan_id":"cebpf4jnsgd1na2vs0mg"},{"bike_id":"05480bc7-5a2c-4f73-8dae-d429df43442c","system_id":"levelo_inurba_marseille","lat":43.28715,"lon":5.37401,"is_reserved":false,"is_disabled":false,"rental_uris":{"android":"levelo://app?vid=05480bc7-5a2c-4f73-8dae-d429df43442c","ios":"levelo://app?vid=05480bc7-5a2c-4f73-8dae-d429df43442c"},"vehicle_type_id":"4","last_reported":1743448111,"current_range_meters":8800,"station_id":"ce4bh3p2rcd13ifvqdq0","pricing_plan_id":"cebpf4jnsgd1na2vs0mg"},{"bike_id":"44db82ce-b275-4e27-87d3-c219b4b05dc8","system_id":"levelo_inurba_marseille","lat":43.32124,"lon":5.36794,"is_reserved":false,"is_disabled":false,"rental_uris":{"android":"levelo://app?vid=44db82ce-b275-4e27-87d3-c219b4b05dc8","ios":"levelo://app?vid=44db82ce-b275-4e27-87d3-c219b4b05dc8"},"vehicle_type_id":"4","last_reported":1743448111,"current_range_meters":8800,"station_id":"ce4bhrh2rcd13ifvqhug","pricing_plan_id":"cebpf4jnsgd1na2vs0mg"},{"bike_id":"f50dd1be-9ee4-480d-920f-0721f0997798","system_id":"levelo_inurba_marseille","lat":43.23202,"lon":5.39996,"is_reserved":false,"is_disabled":false,"rental_uris":{"android":"levelo://app?vid=f50dd1be-9ee4-480d-920f-0721f0997798","ios":"levelo://app?vid=f50dd1be-9ee4-480d-920f-0721f0997798"},"vehicle_type_id":"4","last_reported":1743448111,"current_range_meters":8800,"station_id":"ce4bhn12rcd13ifvqgqg","pricing_plan_id":"cebpf4jnsgd1na2vs0mg"},{"bike_id":"2bf31f9f-c5c0-434c-ab3b-b017d7dc966d","system_id":"levelo_inurba_marseille","lat":43.23062,"lon":5.3549,"is_reserved":false,"is_disabled":false,"rental_uris":{"android":"levelo://app?vid=2bf31f9f-c5c0-434c-ab3b-b017d7dc966d","ios":"levelo://app?vid=2bf31f9f-c5c0-434c-ab3b-b017d7dc966d"},"vehicle_type_id":"4","last_reported":1743448111,"current_range_meters":8800,"station_id":"cpo3342slgdg3j2ifvpg","pricing_plan_id":"cebpf4jnsgd1na2vs0mg"},{"bike_id":"e71afe54-d58d-47fa-a109-28f94f1c7bfd","system_id":"levelo_inurba_marseille","lat":43.31344,"lon":5.36725,"is_reserved":false,"is_disabled":false,"rental_uris":{"android":"levelo://app?vid=e71afe54-d58d-47fa-a109-28f94f1c7bfd","ios":"levelo://app?vid=e71afe54-d58d-47fa-a109-28f94f1c7bfd"},"vehicle_type_id":"4","last_reported":1743448111,"current_range_meters":11200,"station_id":"ce4bgr92rcd13ifvqc6g","pricing_plan_id":"cebpf4jnsgd1na2vs0mg"},{"bike_id":"ab3717f3-b435-42f8-98d9-8703f94c52c3","system_id":"levelo_inurba_marseille","lat":43.28412,"lon":5.37525,"is_reserved":false,"is_disabled":false,"rental_uris":{"android":"levelo://app?vid=ab3717f3-b435-42f8-98d9-8703f94c52c3","ios":"levelo://app?vid=ab3717f3-b435-42f8-98d9-8703f94c52c3"},"vehicle_type_id":"4","last_reported":1743448111,"current_range_meters":8800,"station_id":"ce4bh412rcd13ifvqds0","pricing_plan_id":"cebpf4jnsgd1na2vs0mg"},{"bike_id":"672d4500-3325-45a5-9b08-ac625495a4fb","system_id":"levelo_inurba_marseille","lat":43.28331,"lon":5.38101,"is_reserved":false,"is_disabled":true,"rental_uris":{"android":"levelo://app?vid=672d4500-3325-45a5-9b08-ac625495a4fb","ios":"levelo://app?vid=672d4500-3325-45a5-9b08-ac625495a4fb"},"vehicle_type_id":"4","last_reported":1743448111,"current_range_meters":8800,"station_id":"ce4bh412rcd13ifvqdr0","pricing_plan_id":"cebpf4jnsgd1na2vs0mg"},{"bike_id":"23d7f7d6-3282-4730-82ac-a1482713dd7a","system_id":"levelo_inurba_marseille","lat":43.2942,"lon":5.38631,"is_reserved":false,"is_disabled":false,"rental_uris":{"android":"levelo://app?vid=23d7f7d6-3282-4730-82ac-a1482713dd7a","ios":"levelo://app?vid=23d7f7d6-3282-4730-82ac-a1482713dd7a"},"vehicle_type_id":"4","last_reported":1743448111,"current_range_meters":8800,"station_id":"ce4bh2h2rcd13ifvqdh0","pricing_plan_id":"cebpf4jnsgd1na2vs0mg"},{"bike_id":"fff55aea-8407-433c-961d-4a1a54ceba85","system_id":"levelo_inurba_marseille","lat":43.312172,"lon":5.368882,"is_reserved":false,"is_disabled":false,"rental_uris":{"android":"levelo://app?vid=fff55aea-8407-433c-961d-4a1a54ceba85","ios":"levelo://app?vid=fff55aea-8407-433c-961d-4a1a54ceba85"},"vehicle_type_id":"4","last_reported":1743448111,"current_range_meters":8800,"station_id":"ce4bgl92rcd13ifvqbq0","pricing_plan_id":"cebpf4jnsgd1na2vs0mg"},{"bike_id":"d2f2ddd5-8dd4-436f-ba30-fd70dfe59da3","system_id":"levelo_inurba_marseille","lat":43.32102,"lon":5.36753,"is_reserved":false,"is_disabled":false,"rental_uris":{"android":"levelo://app?vid=d2f2ddd5-8dd4-436f-ba30-fd70dfe59da3","ios":"levelo://app?vid=d2f2ddd5-8dd4-436f-ba30-fd70dfe59da3"},"vehicle_type_id":"4","last_reported":1743448111,"current_range_meters":9200,"station_id":"ce4bhrh2rcd13ifvqhug","pricing_plan_id":"cebpf4jnsgd1na2vs0mg"},{"bike_id":"0400ffa6-89e1-4882-8861-6c3459e29fba","system_id":"levelo_inurba_marseille","lat":43.294859,"lon":5.390438,"is_reserved":false,"is_disabled":false,"rental_uris":{"android":"levelo://app?vid=0400ffa6-89e1-4882-8861-6c3459e29fba","ios":"levelo://app?vid=0400ffa6-89e1-4882-8861-6c3459e29fba"},"vehicle_type_id":"4","last_reported":1743448111,"current_range_meters":9200,"station_id":"ce4bh3p2rcd13ifvqdp0","pricing_plan_id":"cebpf4jnsgd1na2vs0mg"},{"bike_id":"e05eadd8-8b4e-4e63-87fd-b6c49a0a374a","system_id":"levelo_inurba_marseille","lat":43.30666,"lon":5.401,"is_reserved":false,"is_disabled":false,"rental_uris":{"android":"levelo://app?vid=e05eadd8-8b4e-4e63-87fd-b6c49a0a374a","ios":"levelo://app?vid=e05eadd8-8b4e-4e63-87fd-b6c49a0a374a"},"vehicle_type_id":"4","last_reported":1743448111,"current_range_meters":9200,"station_id":"ce4bh112rcd13ifvqda0","pricing_plan_id":"cebpf4jnsgd1na2vs0mg"},{"bike_id":"05cce8b5-e04d-46f0-83d1-107eef27d8ef","system_id":"levelo_inurba_marseille","lat":43.32283,"lon":5.38282,"is_reserved":false,"is_disabled":false,"rental_uris":{"android":"levelo://app?vid=05cce8b5-e04d-46f0-83d1-107eef27d8ef","ios":"levelo://app?vid=05cce8b5-e04d-46f0-83d1-107eef27d8ef"},"vehicle_type_id":"4","last_reported":1743448111,"current_range_meters":9200,"station_id":"ce4bhr12rcd13ifvqhqg","pricing_plan_id":"cebpf4jnsgd1na2vs0mg"},{"bike_id":"23a2997f-acca-44d1-a72c-cccdd94a796c","system_id":"levelo_inurba_marseille","lat":43.30938,"lon":5.40144,"is_reserved":false,"is_disabled":true,"rental_uris":{"android":"levelo://app?vid=23a2997f-acca-44d1-a72c-cccdd94a796c","ios":"levelo://app?vid=23a2997f-acca-44d1-a72c-cccdd94a796c"},"vehicle_type_id":"4","last_reported":1743448111,"current_range_meters":9200,"station_id":"ce4bgvp2rcd13ifvqct0","pricing_plan_id":"cebpf4jnsgd1na2vs0mg"},{"bike_id":"5203ccbe-ce3c-4351-a8e9-f9ee5ad38a9c","system_id":"levelo_inurba_marseille","lat":43.2322,"lon":5.40015,"is_reserved":false,"is_disabled":false,"rental_uris":{"android":"levelo://app?vid=5203ccbe-ce3c-4351-a8e9-f9ee5ad38a9c","ios":"levelo://app?vid=5203ccbe-ce3c-4351-a8e9-f9ee5ad38a9c"},"vehicle_type_id":"4","last_reported":1743448111,"current_range_meters":9200,"station_id":"ce4bhn12rcd13ifvqgqg","pricing_plan_id":"cebpf4jnsgd1na2vs0mg"},{"bike_id":"dcc7e36c-7f77-4301-a336-7c94a786dc1d","system_id":"levelo_inurba_marseille","lat":43.30265,"lon":5.40071,"is_reserved":false,"is_disabled":false,"rental_uris":{"android":"levelo://app?vid=dcc7e36c-7f77-4301-a336-7c94a786dc1d","ios":"levelo://app?vid=dcc7e36c-7f77-4301-a336-7c94a786dc1d"},"vehicle_type_id":"4","last_reported":1743448111,"current_range_meters":9200,"station_id":"ce4bgvh2rcd13ifvqcs0","pricing_plan_id":"cebpf4jnsgd1na2vs0mg"},{"bike_id":"0f8f638f-6c59-4dfb-ab4f-882d40e453aa","system_id":"levelo_inurba_marseille","lat":43.29271,"lon":5.42756,"is_reserved":false,"is_disabled":false,"rental_uris":{"android":"levelo://app?vid=0f8f638f-6c59-4dfb-ab4f-882d40e453aa","ios":"levelo://app?vid=0f8f638f-6c59-4dfb-ab4f-882d40e453aa"},"vehicle_type_id":"4","last_reported":1743448111,"current_range_meters":9200,"station_id":"","pricing_plan_id":"cebpf4jnsgd1na2vs0mg"},{"bike_id":"d454fb38-9af5-424b-9ef1-00b2a0e91c70","system_id":"levelo_inurba_marseille","lat":43.22941,"lon":5.35397,"is_reserved":false,"is_disabled":false,"rental_uris":{"android":"levelo://app?vid=d454fb38-9af5-424b-9ef1-00b2a0e91c70","ios":"levelo://app?vid=d454fb38-9af5-424b-9ef1-00b2a0e91c70"},"vehicle_type_id":"4","last_reported":1743448111,"current_range_meters":9200,"station_id":"cpo3532slgdg3j2ikp40","pricing_plan_id":"cebpf4jnsgd1na2vs0mg"},{"bike_id":"5aec9c6d-5a51-41a0-a4bf-50707d0bd2f1","system_id":"levelo_inurba_marseille","lat":43.28936,"lon":5.38404,"is_reserved":false,"is_disabled":false,"rental_uris":{"android":"levelo://app?vid=5aec9c6d-5a51-41a0-a4bf-50707d0bd2f1","ios":"levelo://app?vid=5aec9c6d-5a51-41a0-a4bf-50707d0bd2f1"},"vehicle_type_id":"4","last_reported":1743448111,"current_range_meters":9200,"station_id":"ce4bh612rcd13ifvqe6g","pricing_plan_id":"cebpf4jnsgd1na2vs0mg"},{"bike_id":"81dd399d-4106-41b7-ba18-371b943d676e","system_id":"levelo_inurba_marseille","lat":43.2512,"lon":5.40323,"is_reserved":false,"is_disabled":false,"rental_uris":{"android":"levelo://app?vid=81dd399d-4106-41b7-ba18-371b943d676e","ios":"levelo://app?vid=81dd399d-4106-41b7-ba18-371b943d676e"},"vehicle_type_id":"4","last_reported":1743448111,"current_range_meters":9200,"station_id":"ce4bhlh2rcd13ifvqgig","pricing_plan_id":"cebpf4jnsgd1na2vs0mg"},{"bike_id":"8559af5b-cbdf-442a-bec0-04f5cd1928f7","system_id":"levelo_inurba_marseille","lat":43.31233,"lon":5.36874,"is_reserved":false,"is_disabled":false,"rental_uris":{"android":"levelo://app?vid=8559af5b-cbdf-442a-bec0-04f5cd1928f7","ios":"levelo://app?vid=8559af5b-cbdf-442a-bec0-04f5cd1928f7"},"vehicle_type_id":"4","last_reported":1743448111,"current_range_meters":9200,"station_id":"ce4bgl92rcd13ifvqbq0","pricing_plan_id":"cebpf4jnsgd1na2vs0mg"},{"bike_id":"3808b535-b342-4b09-97d9-6a2a6014eb92","system_id":"levelo_inurba_marseille","lat":43.29193,"lon":5.3933,"is_reserved":false,"is_disabled":false,"rental_uris":{"android":"levelo://app?vid=3808b535-b342-4b09-97d9-6a2a6014eb92","ios":"levelo://app?vid=3808b535-b342-4b09-97d9-6a2a6014eb92"},"vehicle_type_id":"4","last_reported":1743448111,"current_range_meters":9200,"station_id":"ce4bh192rcd13ifvqdd0","pricing_plan_id":"cebpf4jnsgd1na2vs0mg"},{"bike_id":"bacbf95e-f15b-4132-a085-26e8d8719c70","system_id":"levelo_inurba_marseille","lat":43.2944,"lon":5.39757,"is_reserved":false,"is_disabled":false,"rental_uris":{"android":"levelo://app?vid=bacbf95e-f15b-4132-a085-26e8d8719c70","ios":"levelo://app?vid=bacbf95e-f15b-4132-a085-26e8d8719c70"},"vehicle_type_id":"4","last_reported":1743448111,"current_range_meters":9200,"station_id":"ce4bh3h2rcd13ifvqdo0","pricing_plan_id":"cebpf4jnsgd1na2vs0mg"},{"bike_id":"4d07e447-0935-4bb9-ba31-b94ea6059d1b","system_id":"levelo_inurba_marseille","lat":43.28723,"lon":5.37943,"is_reserved":false,"is_disabled":false,"rental_uris":{"android":"levelo://app?vid=4d07e447-0935-4bb9-ba31-b94ea6059d1b","ios":"levelo://app?vid=4d07e447-0935-4bb9-ba31-b94ea6059d1b"},"vehicle_type_id":"4","last_reported":1743448111,"current_range_meters":9600,"station_id":"ce4bh9p2rcd13ifvqec0","pricing_plan_id":"cebpf4jnsgd1na2vs0mg"},{"bike_id":"b42d6901-bca6-436c-b3b0-94aec0afc9b4","system_id":"levelo_inurba_marseille","lat":43.2894,"lon":5.36634,"is_reserved":false,"is_disabled":false,"rental_uris":{"android":"levelo://app?vid=b42d6901-bca6-436c-b3b0-94aec0afc9b4","ios":"levelo://app?vid=b42d6901-bca6-436c-b3b0-94aec0afc9b4"},"vehicle_type_id":"4","last_reported":1743448111,"current_range_meters":9600,"station_id":"ce4bhap2rcd13ifvqek0","pricing_plan_id":"cebpf4jnsgd1na2vs0mg"},{"bike_id":"b78e6632-ee1c-4653-858b-6f3b10aefef2","system_id":"levelo_inurba_marseille","lat":43.30141,"lon":5.39883,"is_reserved":false,"is_disabled":true,"rental_uris":{"android":"levelo://app?vid=b78e6632-ee1c-4653-858b-6f3b10aefef2","ios":"levelo://app?vid=b78e6632-ee1c-4653-858b-6f3b10aefef2"},"vehicle_type_id":"4","last_reported":1743448111,"current_range_meters":9600,"station_id":"ce4bh0h2rcd13ifvqd40","pricing_plan_id":"cebpf4jnsgd1na2vs0mg"},{"bike_id":"48a92154-663a-446a-9512-27942b3fae6e","system_id":"levelo_inurba_marseille","lat":43.3133,"lon":5.39716,"is_reserved":false,"is_disabled":false,"rental_uris":{"android":"levelo://app?vid=48a92154-663a-446a-9512-27942b3fae6e","ios":"levelo://app?vid=48a92154-663a-446a-9512-27942b3fae6e"},"vehicle_type_id":"4","last_reported":1743448111,"current_range_meters":9600,"station_id":"ce4bgvp2rcd13ifvqcu0","pricing_plan_id":"cebpf4jnsgd1na2vs0mg"},{"bike_id":"77c9a1a5-f9ac-487d-ada6-6ea13bdb89ff","system_id":"levelo_inurba_marseille","lat":43.28725,"lon":5.361,"is_reserved":false,"is_disabled":false,"rental_uris":{"android":"levelo://app?vid=77c9a1a5-f9ac-487d-ada6-6ea13bdb89ff","ios":"levelo://app?vid=77c9a1a5-f9ac-487d-ada6-6ea13bdb89ff"},"vehicle_type_id":"4","last_reported":1743448111,"current_range_meters":9600,"station_id":"cki0cbj6b192h4jlfktg","pricing_plan_id":"cebpf4jnsgd1na2vs0mg"},{"bike_id":"9604c7a3-5386-450b-9e5f-c8b5596956df","system_id":"levelo_inurba_marseille","lat":43.292,"lon":5.3933,"is_reserved":false,"is_disabled":false,"rental_uris":{"android":"levelo://app?vid=9604c7a3-5386-450b-9e5f-c8b5596956df","ios":"levelo://app?vid=9604c7a3-5386-450b-9e5f-c8b5596956df"},"vehicle_type_id":"4","last_reported":1743448111,"current_range_meters":9600,"station_id":"ce4bh192rcd13ifvqdd0","pricing_plan_id":"cebpf4jnsgd1na2vs0mg"},{"bike_id":"2726bfdb-4638-4364-9f4e-00c2e4c7a44d","system_id":"levelo_inurba_marseille","lat":43.32024,"lon":5.36632,"is_reserved":false,"is_disabled":false,"rental_uris":{"android":"levelo://app?vid=2726bfdb-4638-4364-9f4e-00c2e4c7a44d","ios":"levelo://app?vid=2726bfdb-4638-4364-9f4e-00c2e4c7a44d"},"vehicle_type_id":"4","last_reported":1743448111,"current_range_meters":9600,"station_id":"","pricing_plan_id":"cebpf4jnsgd1na2vs0mg"},{"bike_id":"75eb16ac-b755-478d-bfb5-2e22abc751f6","system_id":"levelo_inurba_marseille","lat":43.29639,"lon":5.37175,"is_reserved":false,"is_disabled":true,"rental_uris":{"android":"levelo://app?vid=75eb16ac-b755-478d-bfb5-2e22abc751f6","ios":"levelo://app?vid=75eb16ac-b755-478d-bfb5-2e22abc751f6"},"vehicle_type_id":"4","last_reported":1743448111,"current_range_meters":9600,"station_id":"ce4bgnh2rcd13ifvqc0g","pricing_plan_id":"cebpf4jnsgd1na2vs0mg"},{"bike_id":"28e6a159-c88c-4315-9183-0195aa12b4a5","system_id":"levelo_inurba_marseille","lat":43.28711,"lon":5.37934,"is_reserved":false,"is_disabled":false,"rental_uris":{"android":"levelo://app?vid=28e6a159-c88c-4315-9183-0195aa12b4a5","ios":"levelo://app?vid=28e6a159-c88c-4315-9183-0195aa12b4a5"},"vehicle_type_id":"4","last_reported":1743448111,"current_range_meters":9600,"station_id":"ce4bh9p2rcd13ifvqec0","pricing_plan_id":"cebpf4jnsgd1na2vs0mg"},{"bike_id":"14daaec9-25e8-47f5-8046-194786a6eaae","system_id":"levelo_inurba_marseille","lat":43.309113,"lon":5.371689,"is_reserved":false,"is_disabled":false,"rental_uris":{"android":"levelo://app?vid=14daaec9-25e8-47f5-8046-194786a6eaae","ios":"levelo://app?vid=14daaec9-25e8-47f5-8046-194786a6eaae"},"vehicle_type_id":"4","last_reported":1743448111,"current_range_meters":9200,"station_id":"ce4bho12rcd13ifvqh1g","pricing_plan_id":"cebpf4jnsgd1na2vs0mg"},{"bike_id":"1cab80ba-7d21-4c99-b655-f6746fa14239","system_id":"levelo_inurba_marseille","lat":43.28012,"lon":5.40042,"is_reserved":false,"is_disabled":false,"rental_uris":{"android":"levelo://app?vid=1cab80ba-7d21-4c99-b655-f6746fa14239","ios":"levelo://app?vid=1cab80ba-7d21-4c99-b655-f6746fa14239"},"vehicle_type_id":"4","last_reported":1743448111,"current_range_meters":9600,"station_id":"ce4bho92rcd13ifvqh4g","pricing_plan_id":"cebpf4jnsgd1na2vs0mg"},{"bike_id":"fc609f72-9d5a-4e92-acf6-5af49d87b821","system_id":"levelo_inurba_marseille","lat":43.28001,"lon":5.40023,"is_reserved":false,"is_disabled":false,"rental_uris":{"android":"levelo://app?vid=fc609f72-9d5a-4e92-acf6-5af49d87b821","ios":"levelo://app?vid=fc609f72-9d5a-4e92-acf6-5af49d87b821"},"vehicle_type_id":"4","last_reported":1743448111,"current_range_meters":9600,"station_id":"ce4bho92rcd13ifvqh4g","pricing_plan_id":"cebpf4jnsgd1na2vs0mg"},{"bike_id":"e10b7737-44d5-43e4-b2d0-d4297600f867","system_id":"levelo_inurba_marseille","lat":43.33887,"lon":5.39134,"is_reserved":false,"is_disabled":false,"rental_uris":{"android":"levelo://app?vid=e10b7737-44d5-43e4-b2d0-d4297600f867","ios":"levelo://app?vid=e10b7737-44d5-43e4-b2d0-d4297600f867"},"vehicle_type_id":"4","last_reported":1743448111,"current_range_meters":9600,"station_id":"","pricing_plan_id":"cebpf4jnsgd1na2vs0mg"},{"bike_id":"278a572e-c3f1-410c-a7c4-1fe23200e33e","system_id":"levelo_inurba_marseille","lat":43.30269,"lon":5.4006,"is_reserved":false,"is_disabled":false,"rental_uris":{"android":"levelo://app?vid=278a572e-c3f1-410c-a7c4-1fe23200e33e","ios":"levelo://app?vid=278a572e-c3f1-410c-a7c4-1fe23200e33e"},"vehicle_type_id":"4","last_reported":1743448111,"current_range_meters":9600,"station_id":"ce4bgvh2rcd13ifvqcs0","pricing_plan_id":"cebpf4jnsgd1na2vs0mg"},{"bike_id":"a320e425-0a83-4725-9404-20371646520c","system_id":"levelo_inurba_marseille","lat":43.30802,"lon":5.3815,"is_reserved":false,"is_disabled":false,"rental_uris":{"android":"levelo://app?vid=a320e425-0a83-4725-9404-20371646520c","ios":"levelo://app?vid=a320e425-0a83-4725-9404-20371646520c"},"vehicle_type_id":"4","last_reported":1743448111,"current_range_meters":10000,"station_id":"ce4bgt12rcd13ifvqce0","pricing_plan_id":"cebpf4jnsgd1na2vs0mg"},{"bike_id":"668c01cb-7bea-48c9-8f15-6bcc0c19c832","system_id":"levelo_inurba_marseille","lat":43.26218,"lon":5.37908,"is_reserved":false,"is_disabled":true,"rental_uris":{"android":"levelo://app?vid=668c01cb-7bea-48c9-8f15-6bcc0c19c832","ios":"levelo://app?vid=668c01cb-7bea-48c9-8f15-6bcc0c19c832"},"vehicle_type_id":"4","last_reported":1743448111,"current_range_meters":10800,"station_id":"ce4bhjp2rcd13ifvqg90","pricing_plan_id":"cebpf4jnsgd1na2vs0mg"},{"bike_id":"7f7cad7c-2d43-48cf-b13b-373ca6667b4e","system_id":"levelo_inurba_marseille","lat":43.29269,"lon":5.38447,"is_reserved":false,"is_disabled":false,"rental_uris":{"android":"levelo://app?vid=7f7cad7c-2d43-48cf-b13b-373ca6667b4e","ios":"levelo://app?vid=7f7cad7c-2d43-48cf-b13b-373ca6667b4e"},"vehicle_type_id":"4","last_reported":1743448111,"current_range_meters":10000,"station_id":"ce4bh692rcd13ifvqea0","pricing_plan_id":"cebpf4jnsgd1na2vs0mg"},{"bike_id":"ee39cf2b-d533-4f9c-ba2d-f7994af3c1b0","system_id":"levelo_inurba_marseille","lat":43.30591,"lon":5.39363,"is_reserved":false,"is_disabled":false,"rental_uris":{"android":"levelo://app?vid=ee39cf2b-d533-4f9c-ba2d-f7994af3c1b0","ios":"levelo://app?vid=ee39cf2b-d533-4f9c-ba2d-f7994af3c1b0"},"vehicle_type_id":"4","last_reported":1743448111,"current_range_meters":10000,"station_id":"ce4bh0p2rcd13ifvqd80","pricing_plan_id":"cebpf4jnsgd1na2vs0mg"},{"bike_id":"0e5cf204-cc2e-4385-8d19-42195cfe1d22","system_id":"levelo_inurba_marseille","lat":43.30654,"lon":5.40075,"is_reserved":false,"is_disabled":false,"rental_uris":{"android":"levelo://app?vid=0e5cf204-cc2e-4385-8d19-42195cfe1d22","ios":"levelo://app?vid=0e5cf204-cc2e-4385-8d19-42195cfe1d22"},"vehicle_type_id":"4","last_reported":1743448111,"current_range_meters":10000,"station_id":"ce4bh112rcd13ifvqda0","pricing_plan_id":"cebpf4jnsgd1na2vs0mg"},{"bike_id":"35524beb-a397-4721-8ba0-56294beb481b","system_id":"levelo_inurba_marseille","lat":43.30908,"lon":5.38061,"is_reserved":false,"is_disabled":false,"rental_uris":{"android":"levelo://app?vid=35524beb-a397-4721-8ba0-56294beb481b","ios":"levelo://app?vid=35524beb-a397-4721-8ba0-56294beb481b"},"vehicle_type_id":"4","last_reported":1743448111,"current_range_meters":9600,"station_id":"ce4bhs12rcd13ifvqhvg","pricing_plan_id":"cebpf4jnsgd1na2vs0mg"},{"bike_id":"64ea5635-a4de-4249-bcdf-cb8d12a751b8","system_id":"levelo_inurba_marseille","lat":43.29196,"lon":5.39341,"is_reserved":false,"is_disabled":false,"rental_uris":{"android":"levelo://app?vid=64ea5635-a4de-4249-bcdf-cb8d12a751b8","ios":"levelo://app?vid=64ea5635-a4de-4249-bcdf-cb8d12a751b8"},"vehicle_type_id":"4","last_reported":1743448111,"current_range_meters":10000,"station_id":"ce4bh192rcd13ifvqdd0","pricing_plan_id":"cebpf4jnsgd1na2vs0mg"},{"bike_id":"390573df-8b65-49a5-93a9-5eeddd9b77c3","system_id":"levelo_inurba_marseille","lat":43.28671,"lon":5.3867,"is_reserved":false,"is_disabled":false,"rental_uris":{"android":"levelo://app?vid=390573df-8b65-49a5-93a9-5eeddd9b77c3","ios":"levelo://app?vid=390573df-8b65-49a5-93a9-5eeddd9b77c3"},"vehicle_type_id":"4","last_reported":1743448111,"current_range_meters":10000,"station_id":"ce4bh492rcd13ifvqdug","pricing_plan_id":"cebpf4jnsgd1na2vs0mg"},{"bike_id":"8f31826f-a8a5-49f8-acda-319d3c76811a","system_id":"levelo_inurba_marseille","lat":43.258203,"lon":5.394358,"is_reserved":false,"is_disabled":false,"rental_uris":{"android":"levelo://app?vid=8f31826f-a8a5-49f8-acda-319d3c76811a","ios":"levelo://app?vid=8f31826f-a8a5-49f8-acda-319d3c76811a"},"vehicle_type_id":"4","last_reported":1743448111,"current_range_meters":9600,"station_id":"ce4bh4p2rcd13ifvqe0g","pricing_plan_id":"cebpf4jnsgd1na2vs0mg"},{"bike_id":"e1892c40-ae37-45d4-bf2c-99665a9e5e63","system_id":"levelo_inurba_marseille","lat":43.22954,"lon":5.35396,"is_reserved":false,"is_disabled":false,"rental_uris":{"android":"levelo://app?vid=e1892c40-ae37-45d4-bf2c-99665a9e5e63","ios":"levelo://app?vid=e1892c40-ae37-45d4-bf2c-99665a9e5e63"},"vehicle_type_id":"4","last_reported":1743448111,"current_range_meters":10000,"station_id":"cpo3532slgdg3j2ikp40","pricing_plan_id":"cebpf4jnsgd1na2vs0mg"},{"bike_id":"722b18b3-c8a7-4fa7-88f6-bead613f090f","system_id":"levelo_inurba_marseille","lat":43.32281,"lon":5.38289,"is_reserved":false,"is_disabled":false,"rental_uris":{"android":"levelo://app?vid=722b18b3-c8a7-4fa7-88f6-bead613f090f","ios":"levelo://app?vid=722b18b3-c8a7-4fa7-88f6-bead613f090f"},"vehicle_type_id":"4","last_reported":1743448111,"current_range_meters":10000,"station_id":"ce4bhr12rcd13ifvqhqg","pricing_plan_id":"cebpf4jnsgd1na2vs0mg"},{"bike_id":"1b4c1539-82ac-4b6d-8452-7cbabe24450d","system_id":"levelo_inurba_marseille","lat":43.28383,"lon":5.38652,"is_reserved":false,"is_disabled":false,"rental_uris":{"android":"levelo://app?vid=1b4c1539-82ac-4b6d-8452-7cbabe24450d","ios":"levelo://app?vid=1b4c1539-82ac-4b6d-8452-7cbabe24450d"},"vehicle_type_id":"4","last_reported":1743448111,"current_range_meters":10000,"station_id":"ce4bh492rcd13ifvqdvg","pricing_plan_id":"cebpf4jnsgd1na2vs0mg"},{"bike_id":"53455174-dd40-4291-b684-2c9bcaec009e","system_id":"levelo_inurba_marseille","lat":43.28004,"lon":5.4168,"is_reserved":false,"is_disabled":false,"rental_uris":{"android":"levelo://app?vid=53455174-dd40-4291-b684-2c9bcaec009e","ios":"levelo://app?vid=53455174-dd40-4291-b684-2c9bcaec009e"},"vehicle_type_id":"4","last_reported":1743448111,"current_range_meters":10000,"station_id":"ce4bho12rcd13ifvqh1g","pricing_plan_id":"cebpf4jnsgd1na2vs0mg"},{"bike_id":"3198c4c4-4491-43c0-9352-1889fd972130","system_id":"levelo_inurba_marseille","lat":43.24082,"lon":5.37717,"is_reserved":false,"is_disabled":false,"rental_uris":{"android":"levelo://app?vid=3198c4c4-4491-43c0-9352-1889fd972130","ios":"levelo://app?vid=3198c4c4-4491-43c0-9352-1889fd972130"},"vehicle_type_id":"4","last_reported":1743448111,"current_range_meters":10000,"station_id":"ce4bhnp2rcd13ifvqgvg","pricing_plan_id":"cebpf4jnsgd1na2vs0mg"},{"bike_id":"293e0a1c-a568-42cd-a5b1-2ea4789b5a36","system_id":"levelo_inurba_marseille","lat":43.26573,"lon":5.39005,"is_reserved":false,"is_disabled":false,"rental_uris":{"android":"levelo://app?vid=293e0a1c-a568-42cd-a5b1-2ea4789b5a36","ios":"levelo://app?vid=293e0a1c-a568-42cd-a5b1-2ea4789b5a36"},"vehicle_type_id":"4","last_reported":1743448111,"current_range_meters":10800,"station_id":"ce4bhe12rcd13ifvqf30","pricing_plan_id":"cebpf4jnsgd1na2vs0mg"},{"bike_id":"397156ba-a229-438d-859c-42be5a8ad922","system_id":"levelo_inurba_marseille","lat":43.24652,"lon":5.3817,"is_reserved":false,"is_disabled":false,"rental_uris":{"android":"levelo://app?vid=397156ba-a229-438d-859c-42be5a8ad922","ios":"levelo://app?vid=397156ba-a229-438d-859c-42be5a8ad922"},"vehicle_type_id":"4","last_reported":1743448111,"current_range_meters":10800,"station_id":"ce4bhih2rcd13ifvqfr0","pricing_plan_id":"cebpf4jnsgd1na2vs0mg"},{"bike_id":"44d8ac9f-60c5-4488-9dad-75b4ac1b7f53","system_id":"levelo_inurba_marseille","lat":43.25451,"lon":5.37663,"is_reserved":false,"is_disabled":false,"rental_uris":{"android":"levelo://app?vid=44d8ac9f-60c5-4488-9dad-75b4ac1b7f53","ios":"levelo://app?vid=44d8ac9f-60c5-4488-9dad-75b4ac1b7f53"},"vehicle_type_id":"4","last_reported":1743448111,"current_range_meters":10800,"station_id":"ce4bh512rcd13ifvqe2g","pricing_plan_id":"cebpf4jnsgd1na2vs0mg"},{"bike_id":"e664c24c-d524-431a-88e3-2336a75dbc15","system_id":"levelo_inurba_marseille","lat":43.29103,"lon":5.38176,"is_reserved":false,"is_disabled":false,"rental_uris":{"android":"levelo://app?vid=e664c24c-d524-431a-88e3-2336a75dbc15","ios":"levelo://app?vid=e664c24c-d524-431a-88e3-2336a75dbc15"},"vehicle_type_id":"4","last_reported":1743448111,"current_range_meters":10800,"station_id":"ce4bh512rcd13ifvqe2g","pricing_plan_id":"cebpf4jnsgd1na2vs0mg"},{"bike_id":"5028caf8-9fe8-4330-a71b-6befc97a1c62","system_id":"levelo_inurba_marseille","lat":43.2742,"lon":5.39427,"is_reserved":false,"is_disabled":false,"rental_uris":{"android":"levelo://app?vid=5028caf8-9fe8-4330-a71b-6befc97a1c62","ios":"levelo://app?vid=5028caf8-9fe8-4330-a71b-6befc97a1c62"},"vehicle_type_id":"4","last_reported":1743448111,"current_range_meters":10800,"station_id":"ce4bhdp2rcd13ifvqf20","pricing_plan_id":"cebpf4jnsgd1na2vs0mg"},{"bike_id":"70b1412a-5466-45ee-b0f6-f4bf77f2d89c","system_id":"levelo_inurba_marseille","lat":43.31995,"lon":5.38151,"is_reserved":false,"is_disabled":false,"rental_uris":{"android":"levelo://app?vid=70b1412a-5466-45ee-b0f6-f4bf77f2d89c","ios":"levelo://app?vid=70b1412a-5466-45ee-b0f6-f4bf77f2d89c"},"vehicle_type_id":"4","last_reported":1743448111,"current_range_meters":9200,"station_id":"ce4bhr12rcd13ifvqhpg","pricing_plan_id":"cebpf4jnsgd1na2vs0mg"},{"bike_id":"e3ed6a7b-116d-4bce-98f8-0c4519635233","system_id":"levelo_inurba_marseille","lat":43.3199,"lon":5.37425,"is_reserved":false,"is_disabled":false,"rental_uris":{"android":"levelo://app?vid=e3ed6a7b-116d-4bce-98f8-0c4519635233","ios":"levelo://app?vid=e3ed6a7b-116d-4bce-98f8-0c4519635233"},"vehicle_type_id":"4","last_reported":1743448111,"current_range_meters":10800,"station_id":"","pricing_plan_id":"cebpf4jnsgd1na2vs0mg"},{"bike_id":"60f3c81c-d1a3-4b58-98c9-504f8a0ffc50","system_id":"levelo_inurba_marseille","lat":43.2981,"lon":5.39347,"is_reserved":false,"is_disabled":false,"rental_uris":{"android":"levelo://app?vid=60f3c81c-d1a3-4b58-98c9-504f8a0ffc50","ios":"levelo://app?vid=60f3c81c-d1a3-4b58-98c9-504f8a0ffc50"},"vehicle_type_id":"4","last_reported":1743448111,"current_range_meters":10800,"station_id":"chh1huq6cuj3fo74tm60","pricing_plan_id":"cebpf4jnsgd1na2vs0mg"},{"bike_id":"245e9df6-164a-4c1e-a233-2a59357be7ec","system_id":"levelo_inurba_marseille","lat":43.29624,"lon":5.37153,"is_reserved":false,"is_disabled":false,"rental_uris":{"android":"levelo://app?vid=245e9df6-164a-4c1e-a233-2a59357be7ec","ios":"levelo://app?vid=245e9df6-164a-4c1e-a233-2a59357be7ec"},"vehicle_type_id":"4","last_reported":1743448111,"current_range_meters":11200,"station_id":"ce4bgnh2rcd13ifvqc0g","pricing_plan_id":"cebpf4jnsgd1na2vs0mg"},{"bike_id":"43f8654a-8747-45e9-856c-919f120f6896","system_id":"levelo_inurba_marseille","lat":43.29312,"lon":5.38461,"is_reserved":false,"is_disabled":false,"rental_uris":{"android":"levelo://app?vid=43f8654a-8747-45e9-856c-919f120f6896","ios":"levelo://app?vid=43f8654a-8747-45e9-856c-919f120f6896"},"vehicle_type_id":"4","last_reported":1743448111,"current_range_meters":11200,"station_id":"","pricing_plan_id":"cebpf4jnsgd1na2vs0mg"},{"bike_id":"f8065109-dde0-42cf-b5dc-e68a977cad31","system_id":"levelo_inurba_marseille","lat":43.28618,"lon":5.35105,"is_reserved":false,"is_disabled":false,"rental_uris":{"android":"levelo://app?vid=f8065109-dde0-42cf-b5dc-e68a977cad31","ios":"levelo://app?vid=f8065109-dde0-42cf-b5dc-e68a977cad31"},"vehicle_type_id":"4","last_reported":1743448111,"current_range_meters":11200,"station_id":"ce4bhch2rcd13ifvqeug","pricing_plan_id":"cebpf4jnsgd1na2vs0mg"},{"bike_id":"32786654-e0a5-4ead-8bb5-f56016b6a3a0","system_id":"levelo_inurba_marseille","lat":43.26057,"lon":5.39374,"is_reserved":false,"is_disabled":false,"rental_uris":{"android":"levelo://app?vid=32786654-e0a5-4ead-8bb5-f56016b6a3a0","ios":"levelo://app?vid=32786654-e0a5-4ead-8bb5-f56016b6a3a0"},"vehicle_type_id":"4","last_reported":1743448111,"current_range_meters":11200,"station_id":"ce4bhh92rcd13ifvqfj0","pricing_plan_id":"cebpf4jnsgd1na2vs0mg"},{"bike_id":"6aa71fc3-0f56-4d91-a9aa-81ee30f1255f","system_id":"levelo_inurba_marseille","lat":43.296631,"lon":5.389351,"is_reserved":false,"is_disabled":false,"rental_uris":{"android":"levelo://app?vid=6aa71fc3-0f56-4d91-a9aa-81ee30f1255f","ios":"levelo://app?vid=6aa71fc3-0f56-4d91-a9aa-81ee30f1255f"},"vehicle_type_id":"4","last_reported":1743448111,"current_range_meters":10800,"station_id":"ce4bhq12rcd13ifvqhig","pricing_plan_id":"cebpf4jnsgd1na2vs0mg"},{"bike_id":"585c22ae-f046-4e3e-853a-588c48a822b4","system_id":"levelo_inurba_marseille","lat":43.29532,"lon":5.38562,"is_reserved":false,"is_disabled":false,"rental_uris":{"android":"levelo://app?vid=585c22ae-f046-4e3e-853a-588c48a822b4","ios":"levelo://app?vid=585c22ae-f046-4e3e-853a-588c48a822b4"},"vehicle_type_id":"4","last_reported":1743448111,"current_range_meters":11200,"station_id":"ce4bgih2rcd13ifvqba0","pricing_plan_id":"cebpf4jnsgd1na2vs0mg"},{"bike_id":"fc5e5a8e-f564-4781-8119-693080e50e91","system_id":"levelo_inurba_marseille","lat":43.28703,"lon":5.39993,"is_reserved":false,"is_disabled":false,"rental_uris":{"android":"levelo://app?vid=fc5e5a8e-f564-4781-8119-693080e50e91","ios":"levelo://app?vid=fc5e5a8e-f564-4781-8119-693080e50e91"},"vehicle_type_id":"4","last_reported":1743448111,"current_range_meters":11200,"station_id":"ce4bho92rcd13ifvqh3g","pricing_plan_id":"cebpf4jnsgd1na2vs0mg"},{"bike_id":"1aeacb1e-a7a1-429c-99cb-0404ca56da8b","system_id":"levelo_inurba_marseille","lat":43.29426,"lon":5.3862,"is_reserved":false,"is_disabled":false,"rental_uris":{"android":"levelo://app?vid=1aeacb1e-a7a1-429c-99cb-0404ca56da8b","ios":"levelo://app?vid=1aeacb1e-a7a1-429c-99cb-0404ca56da8b"},"vehicle_type_id":"4","last_reported":1743448111,"current_range_meters":11200,"station_id":"ce4bh2h2rcd13ifvqdh0","pricing_plan_id":"cebpf4jnsgd1na2vs0mg"},{"bike_id":"dd5834db-80d4-4525-b320-ec0cb2d16194","system_id":"levelo_inurba_marseille","lat":43.29045,"lon":5.37566,"is_reserved":false,"is_disabled":false,"rental_uris":{"android":"levelo://app?vid=dd5834db-80d4-4525-b320-ec0cb2d16194","ios":"levelo://app?vid=dd5834db-80d4-4525-b320-ec0cb2d16194"},"vehicle_type_id":"4","last_reported":1743448111,"current_range_meters":11200,"station_id":"ce4bh692rcd13ifvqe90","pricing_plan_id":"cebpf4jnsgd1na2vs0mg"},{"bike_id":"60c2db6c-a579-4a7e-9283-d36804f103fc","system_id":"levelo_inurba_marseille","lat":43.295624,"lon":5.375036,"is_reserved":false,"is_disabled":false,"rental_uris":{"android":"levelo://app?vid=60c2db6c-a579-4a7e-9283-d36804f103fc","ios":"levelo://app?vid=60c2db6c-a579-4a7e-9283-d36804f103fc"},"vehicle_type_id":"4","last_reported":1743448111,"current_range_meters":11600,"station_id":"ce4bh0h2rcd13ifvqd50","pricing_plan_id":"cebpf4jnsgd1na2vs0mg"},{"bike_id":"5dd8068c-188e-4c65-aa6d-ba0aebf91972","system_id":"levelo_inurba_marseille","lat":43.28854,"lon":5.39332,"is_reserved":false,"is_disabled":false,"rental_uris":{"android":"levelo://app?vid=5dd8068c-188e-4c65-aa6d-ba0aebf91972","ios":"levelo://app?vid=5dd8068c-188e-4c65-aa6d-ba0aebf91972"},"vehicle_type_id":"4","last_reported":1743448111,"current_range_meters":11600,"station_id":"ce4bh2p2rcd13ifvqdi0","pricing_plan_id":"cebpf4jnsgd1na2vs0mg"},{"bike_id":"bc2731c5-d1f1-4f43-bf16-ed3324b6f121","system_id":"levelo_inurba_marseille","lat":43.27973,"lon":5.41064,"is_reserved":false,"is_disabled":true,"rental_uris":{"android":"levelo://app?vid=bc2731c5-d1f1-4f43-bf16-ed3324b6f121","ios":"levelo://app?vid=bc2731c5-d1f1-4f43-bf16-ed3324b6f121"},"vehicle_type_id":"4","last_reported":1743448111,"current_range_meters":11600,"station_id":"ce4bhnp2rcd13ifvqh0g","pricing_plan_id":"cebpf4jnsgd1na2vs0mg"},{"bike_id":"92965aee-9710-4f32-a1eb-71f668b078b0","system_id":"levelo_inurba_marseille","lat":43.28119,"lon":5.39641,"is_reserved":false,"is_disabled":false,"rental_uris":{"android":"levelo://app?vid=92965aee-9710-4f32-a1eb-71f668b078b0","ios":"levelo://app?vid=92965aee-9710-4f32-a1eb-71f668b078b0"},"vehicle_type_id":"4","last_reported":1743448111,"current_range_meters":11600,"station_id":"ce4bho12rcd13ifvqh2g","pricing_plan_id":"cebpf4jnsgd1na2vs0mg"},{"bike_id":"b608855d-4db6-4537-ad42-2ce8a35d8326","system_id":"levelo_inurba_marseille","lat":43.28421,"lon":5.35001,"is_reserved":false,"is_disabled":false,"rental_uris":{"android":"levelo://app?vid=b608855d-4db6-4537-ad42-2ce8a35d8326","ios":"levelo://app?vid=b608855d-4db6-4537-ad42-2ce8a35d8326"},"vehicle_type_id":"4","last_reported":1743448111,"current_range_meters":12000,"station_id":"ce4bhbh2rcd13ifvqepg","pricing_plan_id":"cebpf4jnsgd1na2vs0mg"},{"bike_id":"faff734e-4dd0-4af7-b0b0-82ffa4ac47c7","system_id":"levelo_inurba_marseille","lat":43.30122,"lon":5.39854,"is_reserved":false,"is_disabled":false,"rental_uris":{"android":"levelo://app?vid=faff734e-4dd0-4af7-b0b0-82ffa4ac47c7","ios":"levelo://app?vid=faff734e-4dd0-4af7-b0b0-82ffa4ac47c7"},"vehicle_type_id":"4","last_reported":1743448111,"current_range_meters":12000,"station_id":"ce4bh0h2rcd13ifvqd40","pricing_plan_id":"cebpf4jnsgd1na2vs0mg"},{"bike_id":"5e8b440b-b094-4019-ac54-063bf794cc3b","system_id":"levelo_inurba_marseille","lat":43.28218,"lon":5.42676,"is_reserved":false,"is_disabled":false,"rental_uris":{"android":"levelo://app?vid=5e8b440b-b094-4019-ac54-063bf794cc3b","ios":"levelo://app?vid=5e8b440b-b094-4019-ac54-063bf794cc3b"},"vehicle_type_id":"4","last_reported":1743448111,"current_range_meters":12000,"station_id":"","pricing_plan_id":"cebpf4jnsgd1na2vs0mg"},{"bike_id":"5e3e154d-81f7-454f-823c-b78370a0c23d","system_id":"levelo_inurba_marseille","lat":43.28853,"lon":5.3931,"is_reserved":false,"is_disabled":false,"rental_uris":{"android":"levelo://app?vid=5e3e154d-81f7-454f-823c-b78370a0c23d","ios":"levelo://app?vid=5e3e154d-81f7-454f-823c-b78370a0c23d"},"vehicle_type_id":"4","last_reported":1743448111,"current_range_meters":12000,"station_id":"ce4bh2p2rcd13ifvqdi0","pricing_plan_id":"cebpf4jnsgd1na2vs0mg"},{"bike_id":"c9bd637b-43ac-4a64-968e-26036745ac7f","system_id":"levelo_inurba_marseille","lat":43.29804,"lon":5.39333,"is_reserved":false,"is_disabled":false,"rental_uris":{"android":"levelo://app?vid=c9bd637b-43ac-4a64-968e-26036745ac7f","ios":"levelo://app?vid=c9bd637b-43ac-4a64-968e-26036745ac7f"},"vehicle_type_id":"4","last_reported":1743448111,"current_range_meters":12000,"station_id":"chh1huq6cuj3fo74tm60","pricing_plan_id":"cebpf4jnsgd1na2vs0mg"},{"bike_id":"7a894edd-a4a4-40de-8b70-ca9fb3d5e3fd","system_id":"levelo_inurba_marseille","lat":43.31112,"lon":5.42458,"is_reserved":false,"is_disabled":false,"rental_uris":{"android":"levelo://app?vid=7a894edd-a4a4-40de-8b70-ca9fb3d5e3fd","ios":"levelo://app?vid=7a894edd-a4a4-40de-8b70-ca9fb3d5e3fd"},"vehicle_type_id":"4","last_reported":1743448111,"current_range_meters":12400,"station_id":"ce4bhp92rcd13ifvqhag","pricing_plan_id":"cebpf4jnsgd1na2vs0mg"},{"bike_id":"0914ad22-1fec-4406-869e-d3bfdec7e113","system_id":"levelo_inurba_marseille","lat":43.28625,"lon":5.35088,"is_reserved":false,"is_disabled":false,"rental_uris":{"android":"levelo://app?vid=0914ad22-1fec-4406-869e-d3bfdec7e113","ios":"levelo://app?vid=0914ad22-1fec-4406-869e-d3bfdec7e113"},"vehicle_type_id":"4","last_reported":1743448111,"current_range_meters":12400,"station_id":"ce4bhch2rcd13ifvqeug","pricing_plan_id":"cebpf4jnsgd1na2vs0mg"},{"bike_id":"cc9f2f22-428d-43f4-88fa-84d844928722","system_id":"levelo_inurba_marseille","lat":43.284592,"lon":5.374732,"is_reserved":false,"is_disabled":false,"rental_uris":{"android":"levelo://app?vid=cc9f2f22-428d-43f4-88fa-84d844928722","ios":"levelo://app?vid=cc9f2f22-428d-43f4-88fa-84d844928722"},"vehicle_type_id":"4","last_reported":1743448111,"current_range_meters":12400,"station_id":"","pricing_plan_id":"cebpf4jnsgd1na2vs0mg"},{"bike_id":"423a1286-677b-4207-b068-1c03de793d79","system_id":"levelo_inurba_marseille","lat":43.28706,"lon":5.37403,"is_reserved":false,"is_disabled":false,"rental_uris":{"android":"levelo://app?vid=423a1286-677b-4207-b068-1c03de793d79","ios":"levelo://app?vid=423a1286-677b-4207-b068-1c03de793d79"},"vehicle_type_id":"4","last_reported":1743448111,"current_range_meters":12400,"station_id":"ce4bh3p2rcd13ifvqdq0","pricing_plan_id":"cebpf4jnsgd1na2vs0mg"},{"bike_id":"889e8f06-b0b9-4806-9a8b-7b9bd4a83ae6","system_id":"levelo_inurba_marseille","lat":43.28732,"lon":5.36083,"is_reserved":false,"is_disabled":false,"rental_uris":{"android":"levelo://app?vid=889e8f06-b0b9-4806-9a8b-7b9bd4a83ae6","ios":"levelo://app?vid=889e8f06-b0b9-4806-9a8b-7b9bd4a83ae6"},"vehicle_type_id":"4","last_reported":1743448111,"current_range_meters":12400,"station_id":"cki0cbj6b192h4jlfktg","pricing_plan_id":"cebpf4jnsgd1na2vs0mg"},{"bike_id":"635fa4e5-3319-4339-be01-32edd514a421","system_id":"levelo_inurba_marseille","lat":43.28937,"lon":5.384,"is_reserved":false,"is_disabled":false,"rental_uris":{"android":"levelo://app?vid=635fa4e5-3319-4339-be01-32edd514a421","ios":"levelo://app?vid=635fa4e5-3319-4339-be01-32edd514a421"},"vehicle_type_id":"4","last_reported":1743448111,"current_range_meters":12400,"station_id":"ce4bh612rcd13ifvqe6g","pricing_plan_id":"cebpf4jnsgd1na2vs0mg"},{"bike_id":"87304c8a-53f6-45f9-98cc-415e4d7a95a5","system_id":"levelo_inurba_marseille","lat":43.23196,"lon":5.3999,"is_reserved":false,"is_disabled":false,"rental_uris":{"android":"levelo://app?vid=87304c8a-53f6-45f9-98cc-415e4d7a95a5","ios":"levelo://app?vid=87304c8a-53f6-45f9-98cc-415e4d7a95a5"},"vehicle_type_id":"4","last_reported":1743448111,"current_range_meters":12400,"station_id":"ce4bhn12rcd13ifvqgqg","pricing_plan_id":"cebpf4jnsgd1na2vs0mg"},{"bike_id":"42552092-da81-4fe2-8067-ece3460a4c92","system_id":"levelo_inurba_marseille","lat":43.29905,"lon":5.38162,"is_reserved":false,"is_disabled":false,"rental_uris":{"android":"levelo://app?vid=42552092-da81-4fe2-8067-ece3460a4c92","ios":"levelo://app?vid=42552092-da81-4fe2-8067-ece3460a4c92"},"vehicle_type_id":"4","last_reported":1743448111,"current_range_meters":12800,"station_id":"ce4bgj12rcd13ifvqbc0","pricing_plan_id":"cebpf4jnsgd1na2vs0mg"},{"bike_id":"9d0e716c-9ec0-47d7-a8a1-894b5e59b274","system_id":"levelo_inurba_marseille","lat":43.297387,"lon":5.381138,"is_reserved":false,"is_disabled":false,"rental_uris":{"android":"levelo://app?vid=9d0e716c-9ec0-47d7-a8a1-894b5e59b274","ios":"levelo://app?vid=9d0e716c-9ec0-47d7-a8a1-894b5e59b274"},"vehicle_type_id":"4","last_reported":1743448111,"current_range_meters":12800,"station_id":"ce4bh0p2rcd13ifvqd80","pricing_plan_id":"cebpf4jnsgd1na2vs0mg"},{"bike_id":"befa9da7-37fd-4616-9758-7d30a24e0104","system_id":"levelo_inurba_marseille","lat":43.24653,"lon":5.38905,"is_reserved":false,"is_disabled":false,"rental_uris":{"android":"levelo://app?vid=befa9da7-37fd-4616-9758-7d30a24e0104","ios":"levelo://app?vid=befa9da7-37fd-4616-9758-7d30a24e0104"},"vehicle_type_id":"4","last_reported":1743448111,"current_range_meters":12800,"station_id":"ce4bhg12rcd13ifvqf60","pricing_plan_id":"cebpf4jnsgd1na2vs0mg"},{"bike_id":"863454b9-1d60-4491-8463-708b1906440e","system_id":"levelo_inurba_marseille","lat":43.27849,"lon":5.39219,"is_reserved":false,"is_disabled":false,"rental_uris":{"android":"levelo://app?vid=863454b9-1d60-4491-8463-708b1906440e","ios":"levelo://app?vid=863454b9-1d60-4491-8463-708b1906440e"},"vehicle_type_id":"4","last_reported":1743448111,"current_range_meters":12800,"station_id":"ce4bhjp2rcd13ifvqga0","pricing_plan_id":"cebpf4jnsgd1na2vs0mg"},{"bike_id":"35460d34-8ea1-4d1d-bf4b-3c37492b1367","system_id":"levelo_inurba_marseille","lat":43.284353,"lon":5.35006,"is_reserved":false,"is_disabled":false,"rental_uris":{"android":"levelo://app?vid=35460d34-8ea1-4d1d-bf4b-3c37492b1367","ios":"levelo://app?vid=35460d34-8ea1-4d1d-bf4b-3c37492b1367"},"vehicle_type_id":"4","last_reported":1743448111,"current_range_meters":12800,"station_id":"ce4bhbh2rcd13ifvqepg","pricing_plan_id":"cebpf4jnsgd1na2vs0mg"},{"bike_id":"a84bd434-85c3-4450-9ec8-fb19cb565dee","system_id":"levelo_inurba_marseille","lat":43.29243,"lon":5.40909,"is_reserved":false,"is_disabled":false,"rental_uris":{"android":"levelo://app?vid=a84bd434-85c3-4450-9ec8-fb19cb565dee","ios":"levelo://app?vid=a84bd434-85c3-4450-9ec8-fb19cb565dee"},"vehicle_type_id":"4","last_reported":1743448111,"current_range_meters":12800,"station_id":"ce4bh192rcd13ifvqdc0","pricing_plan_id":"cebpf4jnsgd1na2vs0mg"},{"bike_id":"03d4b723-6122-4830-a115-f79089dfa1ad","system_id":"levelo_inurba_marseille","lat":43.30431,"lon":5.39757,"is_reserved":false,"is_disabled":false,"rental_uris":{"android":"levelo://app?vid=03d4b723-6122-4830-a115-f79089dfa1ad","ios":"levelo://app?vid=03d4b723-6122-4830-a115-f79089dfa1ad"},"vehicle_type_id":"4","last_reported":1743448111,"current_range_meters":12800,"station_id":"ce4bh092rcd13ifvqd20","pricing_plan_id":"cebpf4jnsgd1na2vs0mg"},{"bike_id":"e8a75bd9-f259-49f6-979a-26dd47f7e629","system_id":"levelo_inurba_marseille","lat":43.30136,"lon":5.39862,"is_reserved":false,"is_disabled":false,"rental_uris":{"android":"levelo://app?vid=e8a75bd9-f259-49f6-979a-26dd47f7e629","ios":"levelo://app?vid=e8a75bd9-f259-49f6-979a-26dd47f7e629"},"vehicle_type_id":"4","last_reported":1743448111,"current_range_meters":12800,"station_id":"ce4bh0h2rcd13ifvqd40","pricing_plan_id":"cebpf4jnsgd1na2vs0mg"},{"bike_id":"c53e0b04-ccee-433f-b384-1e1a990e1413","system_id":"levelo_inurba_marseille","lat":43.29018,"lon":5.38134,"is_reserved":false,"is_disabled":false,"rental_uris":{"android":"levelo://app?vid=c53e0b04-ccee-433f-b384-1e1a990e1413","ios":"levelo://app?vid=c53e0b04-ccee-433f-b384-1e1a990e1413"},"vehicle_type_id":"4","last_reported":1743448111,"current_range_meters":12800,"station_id":"ce4bh4p2rcd13ifvqe1g","pricing_plan_id":"cebpf4jnsgd1na2vs0mg"},{"bike_id":"8a654a85-a99c-4c6e-a379-a2e4f0243ef8","system_id":"levelo_inurba_marseille","lat":43.25118,"lon":5.40321,"is_reserved":false,"is_disabled":false,"rental_uris":{"android":"levelo://app?vid=8a654a85-a99c-4c6e-a379-a2e4f0243ef8","ios":"levelo://app?vid=8a654a85-a99c-4c6e-a379-a2e4f0243ef8"},"vehicle_type_id":"4","last_reported":1743448111,"current_range_meters":13600,"station_id":"ce4bhlh2rcd13ifvqgig","pricing_plan_id":"cebpf4jnsgd1na2vs0mg"},{"bike_id":"3313a9d9-efd7-40c0-93be-ca6354b79529","system_id":"levelo_inurba_marseille","lat":43.28658,"lon":5.36342,"is_reserved":false,"is_disabled":false,"rental_uris":{"android":"levelo://app?vid=3313a9d9-efd7-40c0-93be-ca6354b79529","ios":"levelo://app?vid=3313a9d9-efd7-40c0-93be-ca6354b79529"},"vehicle_type_id":"4","last_reported":1743448111,"current_range_meters":13600,"station_id":"ce4bhah2rcd13ifvqej0","pricing_plan_id":"cebpf4jnsgd1na2vs0mg"},{"bike_id":"a3482089-c6e3-41b6-b1fc-6997eb8a6422","system_id":"levelo_inurba_marseille","lat":43.29194,"lon":5.35811,"is_reserved":false,"is_disabled":false,"rental_uris":{"android":"levelo://app?vid=a3482089-c6e3-41b6-b1fc-6997eb8a6422","ios":"levelo://app?vid=a3482089-c6e3-41b6-b1fc-6997eb8a6422"},"vehicle_type_id":"4","last_reported":1743448111,"current_range_meters":13600,"station_id":"ce4bhb12rcd13ifvqel0","pricing_plan_id":"cebpf4jnsgd1na2vs0mg"},{"bike_id":"4d2f5fe4-3b25-4e13-a779-6112f195a428","system_id":"levelo_inurba_marseille","lat":43.27919,"lon":5.38029,"is_reserved":false,"is_disabled":false,"rental_uris":{"android":"levelo://app?vid=4d2f5fe4-3b25-4e13-a779-6112f195a428","ios":"levelo://app?vid=4d2f5fe4-3b25-4e13-a779-6112f195a428"},"vehicle_type_id":"4","last_reported":1743448111,"current_range_meters":14000,"station_id":"ce4bhf92rcd13ifvqf50","pricing_plan_id":"cebpf4jnsgd1na2vs0mg"},{"bike_id":"4d1ef574-507a-4fec-a6d9-b5b49b8c445e","system_id":"levelo_inurba_marseille","lat":43.292731,"lon":5.368445,"is_reserved":false,"is_disabled":true,"rental_uris":{"android":"levelo://app?vid=4d1ef574-507a-4fec-a6d9-b5b49b8c445e","ios":"levelo://app?vid=4d1ef574-507a-4fec-a6d9-b5b49b8c445e"},"vehicle_type_id":"4","last_reported":1743448111,"current_range_meters":14000,"station_id":"ce4bhbp2rcd13ifvqesg","pricing_plan_id":"cebpf4jnsgd1na2vs0mg"},{"bike_id":"83bfef97-4284-4dc1-b959-c0e528adfc19","system_id":"levelo_inurba_marseille","lat":43.29271,"lon":5.38452,"is_reserved":false,"is_disabled":false,"rental_uris":{"android":"levelo://app?vid=83bfef97-4284-4dc1-b959-c0e528adfc19","ios":"levelo://app?vid=83bfef97-4284-4dc1-b959-c0e528adfc19"},"vehicle_type_id":"4","last_reported":1743448111,"current_range_meters":14000,"station_id":"ce4bh692rcd13ifvqea0","pricing_plan_id":"cebpf4jnsgd1na2vs0mg"},{"bike_id":"60eca919-db37-4adc-a895-159baf0b5d95","system_id":"levelo_inurba_marseille","lat":43.3013,"lon":5.3985,"is_reserved":false,"is_disabled":false,"rental_uris":{"android":"levelo://app?vid=60eca919-db37-4adc-a895-159baf0b5d95","ios":"levelo://app?vid=60eca919-db37-4adc-a895-159baf0b5d95"},"vehicle_type_id":"4","last_reported":1743448111,"current_range_meters":14000,"station_id":"ce4bh0h2rcd13ifvqd40","pricing_plan_id":"cebpf4jnsgd1na2vs0mg"},{"bike_id":"550d33ab-087f-463a-9121-7a7312237d19","system_id":"levelo_inurba_marseille","lat":43.28696,"lon":5.37396,"is_reserved":false,"is_disabled":false,"rental_uris":{"android":"levelo://app?vid=550d33ab-087f-463a-9121-7a7312237d19","ios":"levelo://app?vid=550d33ab-087f-463a-9121-7a7312237d19"},"vehicle_type_id":"4","last_reported":1743448111,"current_range_meters":14000,"station_id":"ce4bh3p2rcd13ifvqdq0","pricing_plan_id":"cebpf4jnsgd1na2vs0mg"},{"bike_id":"9b249475-210b-48f8-9763-52ad6f4d780a","system_id":"levelo_inurba_marseille","lat":43.29627,"lon":5.37767,"is_reserved":false,"is_disabled":false,"rental_uris":{"android":"levelo://app?vid=9b249475-210b-48f8-9763-52ad6f4d780a","ios":"levelo://app?vid=9b249475-210b-48f8-9763-52ad6f4d780a"},"vehicle_type_id":"4","last_reported":1743448111,"current_range_meters":14000,"station_id":"ce4bgi92rcd13ifvqb90","pricing_plan_id":"cebpf4jnsgd1na2vs0mg"},{"bike_id":"cb498222-04a9-49a2-b1bc-ee92bc43346b","system_id":"levelo_inurba_marseille","lat":43.28685,"lon":5.38676,"is_reserved":false,"is_disabled":false,"rental_uris":{"android":"levelo://app?vid=cb498222-04a9-49a2-b1bc-ee92bc43346b","ios":"levelo://app?vid=cb498222-04a9-49a2-b1bc-ee92bc43346b"},"vehicle_type_id":"4","last_reported":1743448111,"current_range_meters":13600,"station_id":"ce4bh492rcd13ifvqdug","pricing_plan_id":"cebpf4jnsgd1na2vs0mg"},{"bike_id":"d4fdbed9-2d6f-4ae0-886d-d15d5e4ffb17","system_id":"levelo_inurba_marseille","lat":43.28928,"lon":5.36644,"is_reserved":false,"is_disabled":false,"rental_uris":{"android":"levelo://app?vid=d4fdbed9-2d6f-4ae0-886d-d15d5e4ffb17","ios":"levelo://app?vid=d4fdbed9-2d6f-4ae0-886d-d15d5e4ffb17"},"vehicle_type_id":"4","last_reported":1743448111,"current_range_meters":14000,"station_id":"ce4bhap2rcd13ifvqek0","pricing_plan_id":"cebpf4jnsgd1na2vs0mg"},{"bike_id":"2aca8fdc-6fa7-448c-b273-d3f7e66dc316","system_id":"levelo_inurba_marseille","lat":43.28679,"lon":5.36351,"is_reserved":false,"is_disabled":false,"rental_uris":{"android":"levelo://app?vid=2aca8fdc-6fa7-448c-b273-d3f7e66dc316","ios":"levelo://app?vid=2aca8fdc-6fa7-448c-b273-d3f7e66dc316"},"vehicle_type_id":"4","last_reported":1743448111,"current_range_meters":13600,"station_id":"ce4bhah2rcd13ifvqej0","pricing_plan_id":"cebpf4jnsgd1na2vs0mg"},{"bike_id":"9f26f6b4-6f8c-41bd-9823-94cef41b22be","system_id":"levelo_inurba_marseille","lat":43.232,"lon":5.40001,"is_reserved":false,"is_disabled":false,"rental_uris":{"android":"levelo://app?vid=9f26f6b4-6f8c-41bd-9823-94cef41b22be","ios":"levelo://app?vid=9f26f6b4-6f8c-41bd-9823-94cef41b22be"},"vehicle_type_id":"4","last_reported":1743448111,"current_range_meters":14400,"station_id":"ce4bhn12rcd13ifvqgqg","pricing_plan_id":"cebpf4jnsgd1na2vs0mg"},{"bike_id":"2c567be4-626d-4614-8796-6c92d09d2fa1","system_id":"levelo_inurba_marseille","lat":43.28921,"lon":5.37132,"is_reserved":false,"is_disabled":false,"rental_uris":{"android":"levelo://app?vid=2c567be4-626d-4614-8796-6c92d09d2fa1","ios":"levelo://app?vid=2c567be4-626d-4614-8796-6c92d09d2fa1"},"vehicle_type_id":"4","last_reported":1743448111,"current_range_meters":14800,"station_id":"","pricing_plan_id":"cebpf4jnsgd1na2vs0mg"},{"bike_id":"cda1fb86-7d87-452e-8a50-ccc495d0a850","system_id":"levelo_inurba_marseille","lat":43.2795,"lon":5.41045,"is_reserved":false,"is_disabled":false,"rental_uris":{"android":"levelo://app?vid=cda1fb86-7d87-452e-8a50-ccc495d0a850","ios":"levelo://app?vid=cda1fb86-7d87-452e-8a50-ccc495d0a850"},