{"last_updated":1748707875,"ttl":60,"version":"2.2","data":{"bikes":[{"bike_id":"55d42eeb-6b71-4987-a0f2-3d758b10d43e","system_id":"levelo_inurba_marseille","lat":43.33771,"lon":5.37424,"is_reserved":false,"is_disabled":true,"rental_uris":{"android":"levelo://app?vid=55d42eeb-6b71-4987-a0f2-3d758b10d43e","ios":"levelo://app?vid=55d42eeb-6b71-4987-a0f2-3d758b10d43e"},"vehicle_type_id":"4","last_reported":1748707875,"current_range_meters":0,"station_id":"","pricing_plan_id":"cebpf4jnsgd1na2vs0mg"},{"bike_id":"b7fe4621-b706-42f0-9085-4811142f84e8","system_id":"levelo_inurba_marseille","lat":43.337499,"lon":5.374469,"is_reserved":false,"is_disabled":true,"rental_uris":{"android":"levelo://app?vid=b7fe4621-b706-42f0-9085-4811142f84e8","ios":"levelo://app?vid=b7fe4621-b706-42f0-9085-4811142f84e8"},"vehicle_type_id":"4","last_reported":1748707875,"current_range_meters":0,"station_id":"","pricing_plan_id":"cebpf4jnsgd1na2vs0mg"},{"bike_id":"ad402f0f-3192-410c-afac-8cf064a40c6d","system_id":"levelo_inurba_marseille","lat":43.337444,"lon":5.374475,"is_reserved":false,"is_disabled":true,"rental_uris":{"android":"levelo://app?vid=ad402f0f-3192-410c-afac-8cf064a40c6d","ios":"levelo://app?vid=ad402f0f-3192-410c-afac-8cf064a40c6d"},"vehicle_type_id":"4","last_reported":1748707875,"current_range_meters":0,"station_id":"","pricing_plan_id":"cebpf4jnsgd1na2vs0mg"},{"bike_id":"4e483317-2b83-4cd8-b3e9-e34602288985","system_id":"levelo_inurba_marseille","lat":43.29639,"lon":5.38087,"is_reserved":false,"is_disabled":true,"rental_uris":{"android":"levelo://app?vid=4e483317-2b83-4cd8-b3e9-e34602288985","ios":"levelo://app?vid=4e483317-2b83-4cd8-b3e9-e34602288985"},"vehicle_type_id":"4","last_reported":1748707875,"current_range_meters":0,"station_id":"","pricing_plan_id":"cebpf4jnsgd1na2vs0mg"},{"bike_id":"e8d8ddad-17f0-4297-b743-7c17818146e6","system_id":"levelo_inurba_marseille","lat":43.28214,"lon":5.42985,"is_reserved":false,"is_disabled":true,"rental_uris":{"android":"levelo://app?vid=e8d8ddad-17f0-4297-b743-7c17818146e6","ios":"levelo://app?vid=e8d8ddad-17f0-4297-b743-7c17818146e6"},"vehicle_type_id":"4","last_reported":1748707875,"current_range_meters":0,"station_id":"","pricing_plan_id":"cebpf4jnsgd1na2vs0mg"},{"bike_id":"01638869-3647-4ba4-88c0-3e9eff3ed6e6","system_id":"levelo_inurba_marseille","lat":43.26203,"lon":5.37335,"is_reserved":false,"is_disabled":true,"rental_uris":{"android":"levelo://app?vid=01638869-3647-4ba4-88c0-3e9eff3ed6e6","ios":"levelo://app?vid=01638869-3647-4ba4-88c0-3e9eff3ed6e6"},"vehicle_type_id":"4","last_reported":1748707875,"current_range_meters":0,"station_id":"","pricing_plan_id":"cebpf4jnsgd1na2vs0mg"},{"bike_id":"769ef632-e97c-42ec-bf26-71e63598c862","system_id":"levelo_inurba_marseille","lat":43.33347,"lon":5.36692,"is_reserved":false,"is_disabled":true,"rental_uris":{"android":"levelo://app?vid=769ef632-e97c-42ec-bf26-71e63598c862","ios":"levelo://app?vid=769ef632-e97c-42ec-bf26-71e63598c862"},"vehicle_type_id":"4","last_reported":1748707875,"current_range_meters":0,"station_id":"","pricing_plan_id":"cebpf4jnsgd1na2vs0mg"},{"bike_id":"8bbf8c88-cca9-40df-ae8f-2a74edb75f00","system_id":"levelo_inurba_marseille","lat":43.362677,"lon":5.306417,"is_reserved":false,"is_disabled":true,"rental_uris":{"android":"levelo://app?vid=8bbf8c88-cca9-40df-ae8f-2a74edb75f00","ios":"levelo://app?vid=8bbf8c88-cca9-40df-ae8f-2a74edb75f00"},"vehicle_type_id":"4","last_reported":1748707875,"current_range_meters":0,"station_id":"","pricing_plan_id":"cebpf4jnsgd1na2vs0mg"},{"bike_id":"f1b5ad7f-24cf-41d5-8cf0-5aadc9e72540","system_id":"levelo_inurba_marseille","lat":43.299622,"lon":5.38485,"is_reserved":false,"is_disabled":true,"rental_uris":{"android":"levelo://app?vid=f1b5ad7f-24cf-41d5-8cf0-5aadc9e72540","ios":"levelo://app?vid=f1b5ad7f-24cf-41d5-8cf0-5aadc9e72540"},"vehicle_type_id":"4","last_reported":1748707875,"current_range_meters":0,"station_id":"ce4bgj92rcd13ifvqbd0","pricing_plan_id":"cebpf4jnsgd1na2vs0mg"},{"bike_id":"cfd4e663-fca0-4ee9-a324-83d9d4257647","system_id":"levelo_inurba_marseille","lat":43.31219,"lon":5.3686,"is_reserved":false,"is_disabled":true,"rental_uris":{"android":"levelo://app?vid=cfd4e663-fca0-4ee9-a324-83d9d4257647","ios":"levelo://app?vid=cfd4e663-fca0-4ee9-a324-83d9d4257647"},"vehicle_type_id":"4","last_reported":1748707875,"current_range_meters":0,"station_id":"ce4bgl92rcd13ifvqbq0","pricing_plan_id":"cebpf4jnsgd1na2vs0mg"},{"bike_id":"316bfb02-f837-4b5e-b4cf-fa652ed35b51","system_id":"levelo_inurba_marseille","lat":43.29032,"lon":5.38648,"is_reserved":false,"is_disabled":true,"rental_uris":{"android":"levelo://app?vid=316bfb02-f837-4b5e-b4cf-fa652ed35b51","ios":"levelo://app?vid=316bfb02-f837-4b5e-b4cf-fa652ed35b51"},"vehicle_type_id":"4","last_reported":1748707875,"current_range_meters":0,"station_id":"ce4bh4p2rcd13ifvqe0g","pricing_plan_id":"cebpf4jnsgd1na2vs0mg"},{"bike_id":"1c901a2c-c729-4da5-9fae-613fde601d69","system_id":"levelo_inurba_marseille","lat":43.29024,"lon":5.38649,"is_reserved":false,"is_disabled":true,"rental_uris":{"android":"levelo://app?vid=1c901a2c-c729-4da5-9fae-613fde601d69","ios":"levelo://app?vid=1c901a2c-c729-4da5-9fae-613fde601d69"},"vehicle_type_id":"4","last_reported":1748707875,"current_range_meters":0,"station_id":"ce4bh4p2rcd13ifvqe0g","pricing_plan_id":"cebpf4jnsgd1na2vs0mg"},{"bike_id":"97afbb3c-f865-4acb-aeca-14786cd51bab","system_id":"levelo_inurba_marseille","lat":43.27386,"lon":5.36263,"is_reserved":false,"is_disabled":true,"rental_uris":{"android":"levelo://app?vid=97afbb3c-f865-4acb-aeca-14786cd51bab","ios":"levelo://app?vid=97afbb3c-f865-4acb-aeca-14786cd51bab"},"vehicle_type_id":"4","last_reported":1748707875,"current_range_meters":0,"station_id":"ce4bhbh2rcd13ifvqeo0","pricing_plan_id":"cebpf4jnsgd1na2vs0mg"},{"bike_id":"13f4dd1e-0a07-4623-9f44-e66d1e9b6d12","system_id":"levelo_inurba_marseille","lat":43.27381,"lon":5.36268,"is_reserved":false,"is_disabled":true,"rental_uris":{"android":"levelo://app?vid=13f4dd1e-0a07-4623-9f44-e66d1e9b6d12","ios":"levelo://app?vid=13f4dd1e-0a07-4623-9f44-e66d1e9b6d12"},"vehicle_type_id":"4","last_reported":1748707875,"current_range_meters":0,"station_id":"ce4bhbh2rcd13ifvqeo0","pricing_plan_id":"cebpf4jnsgd1na2vs0mg"},{"bike_id":"6fa671cb-bde9-43e7-b0d3-c18a95eb0ddd","system_id":"levelo_inurba_marseille","lat":43.273793,"lon":5.36251,"is_reserved":false,"is_disabled":true,"rental_uris":{"android":"levelo://app?vid=6fa671cb-bde9-43e7-b0d3-c18a95eb0ddd","ios":"levelo://app?vid=6fa671cb-bde9-43e7-b0d3-c18a95eb0ddd"},"vehicle_type_id":"4","last_reported":1748707875,"current_range_meters":0,"station_id":"ce4bhbh2rcd13ifvqeo0","pricing_plan_id":"cebpf4jnsgd1na2vs0mg"},{"bike_id":"ea89d73a-5af3-41dc-9dde-05f7f34fd7c5","system_id":"levelo_inurba_marseille","lat":43.28947,"lon":5.36396,"is_reserved":false,"is_disabled":true,"rental_uris":{"android":"levelo://app?vid=ea89d73a-5af3-41dc-9dde-05f7f34fd7c5","ios":"levelo://app?vid=ea89d73a-5af3-41dc-9dde-05f7f34fd7c5"},"vehicle_type_id":"4","last_reported":1748707875,"current_range_meters":0,"station_id":"ce4bhc92rcd13ifvqetg","pricing_plan_id":"cebpf4jnsgd1na2vs0mg"},{"bike_id":"e334d2fd-e0df-44d8-ad11-a4d6292fa960","system_id":"levelo_inurba_marseille","lat":43.276677,"lon":5.38883,"is_reserved":false,"is_disabled":true,"rental_uris":{"android":"levelo://app?vid=e334d2fd-e0df-44d8-ad11-a4d6292fa960","ios":"levelo://app?vid=e334d2fd-e0df-44d8-ad11-a4d6292fa960"},"vehicle_type_id":"4","last_reported":1748707875,"current_range_meters":0,"station_id":"ce4bhi12rcd13ifvqfo0","pricing_plan_id":"cebpf4jnsgd1na2vs0mg"},{"bike_id":"fcce821d-932a-443b-b700-dd62f4fdeae2","system_id":"levelo_inurba_marseille","lat":43.23139,"lon":5.43707,"is_reserved":false,"is_disabled":true,"rental_uris":{"android":"levelo://app?vid=fcce821d-932a-443b-b700-dd62f4fdeae2","ios":"levelo://app?vid=fcce821d-932a-443b-b700-dd62f4fdeae2"},"vehicle_type_id":"4","last_reported":1748707875,"current_range_meters":0,"station_id":"ce4bhmp2rcd13ifvqgog","pricing_plan_id":"cebpf4jnsgd1na2vs0mg"},{"bike_id":"d0b33df1-8293-40c8-90d9-5ed64095220e","system_id":"levelo_inurba_marseille","lat":43.231471,"lon":5.437117,"is_reserved":false,"is_disabled":true,"rental_uris":{"android":"levelo://app?vid=d0b33df1-8293-40c8-90d9-5ed64095220e","ios":"levelo://app?vid=d0b33df1-8293-40c8-90d9-5ed64095220e"},"vehicle_type_id":"4","last_reported":1748707875,"current_range_meters":0,"station_id":"ce4bhmp2rcd13ifvqgog","pricing_plan_id":"cebpf4jnsgd1na2vs0mg"},{"bike_id":"485d79d7-7ecd-4d4c-8e36-a665463ad66c","system_id":"levelo_inurba_marseille","lat":43.32537,"lon":5.414207,"is_reserved":false,"is_disabled":true,"rental_uris":{"android":"levelo://app?vid=485d79d7-7ecd-4d4c-8e36-a665463ad66c","ios":"levelo://app?vid=485d79d7-7ecd-4d4c-8e36-a665463ad66c"},"vehicle_type_id":"4","last_reported":1748707875,"current_range_meters":0,"station_id":"ce4bhq12rcd13ifvqhhg","pricing_plan_id":"cebpf4jnsgd1na2vs0mg"},{"bike_id":"c29b34f4-cff8-4f00-b66f-dcd5649a7131","system_id":"levelo_inurba_marseille","lat":43.21213,"lon":5.35069,"is_reserved":false,"is_disabled":true,"rental_uris":{"android":"levelo://app?vid=c29b34f4-cff8-4f00-b66f-dcd5649a7131","ios":"levelo://app?vid=c29b34f4-cff8-4f00-b66f-dcd5649a7131"},"vehicle_type_id":"4","last_reported":1748707875,"current_range_meters":0,"station_id":"st_cvj6sg6p6f1abm77japg","pricing_plan_id":"cebpf4jnsgd1na2vs0mg"},{"bike_id":"d28aeaad-f5f2-4c4f-a0cd-6b7231965959","system_id":"levelo_inurba_marseille","lat":43.33004,"lon":5.39023,"is_reserved":false,"is_disabled":true,"rental_uris":{"android":"levelo://app?vid=d28aeaad-f5f2-4c4f-a0cd-6b7231965959","ios":"levelo://app?vid=d28aeaad-f5f2-4c4f-a0cd-6b7231965959"},"vehicle_type_id":"4","last_reported":1748707875,"current_range_meters":400,"station_id":"ce4bhr92rcd13ifvqhrg","pricing_plan_id":"cebpf4jnsgd1na2vs0mg"},{"bike_id":"02e28f77-7bf9-474c-b3e0-4842394045df","system_id":"levelo_inurba_marseille","lat":43.30303,"lon":5.36891,"is_reserved":false,"is_disabled":true,"rental_uris":{"android":"levelo://app?vid=02e28f77-7bf9-474c-b3e0-4842394045df","ios":"levelo://app?vid=02e28f77-7bf9-474c-b3e0-4842394045df"},"vehicle_type_id":"4","last_reported":1748707875,"current_range_meters":800,"station_id":"ce4bgqh2rcd13ifvqc5g","pricing_plan_id":"cebpf4jnsgd1na2vs0mg"},{"bike_id":"125e8e95-0e91-4977-a5bb-236f13e2c520","system_id":"levelo_inurba_marseille","lat":43.22539,"lon":5.34777,"is_reserved":false,"is_disabled":true,"rental_uris":{"android":"levelo://app?vid=125e8e95-0e91-4977-a5bb-236f13e2c520","ios":"levelo://app?vid=125e8e95-0e91-4977-a5bb-236f13e2c520"},"vehicle_type_id":"4","last_reported":1748707875,"current_range_meters":800,"station_id":"st_cvj5dfep6f1abm77gieg","pricing_plan_id":"cebpf4jnsgd1na2vs0mg"},{"bike_id":"296f082f-afc2-4f90-abf0-47a5ed618f3c","system_id":"levelo_inurba_marseille","lat":43.30584,"lon":5.39359,"is_reserved":false,"is_disabled":true,"rental_uris":{"android":"levelo://app?vid=296f082f-afc2-4f90-abf0-47a5ed618f3c","ios":"levelo://app?vid=296f082f-afc2-4f90-abf0-47a5ed618f3c"},"vehicle_type_id":"4","last_reported":1748707875,"current_range_meters":1200,"station_id":"ce4bh0p2rcd13ifvqd80","pricing_plan_id":"cebpf4jnsgd1na2vs0mg"},{"bike_id":"898c0cdc-4373-4a9a-9434-91acbe32698e","system_id":"levelo_inurba_marseille","lat":43.27373,"lon":5.36259,"is_reserved":false,"is_disabled":true,"rental_uris":{"android":"levelo://app?vid=898c0cdc-4373-4a9a-9434-91acbe32698e","ios":"levelo://app?vid=898c0cdc-4373-4a9a-9434-91acbe32698e"},"vehicle_type_id":"4","last_reported":1748707875,"current_range_meters":1200,"station_id":"ce4bhbh2rcd13ifvqeo0","pricing_plan_id":"cebpf4jnsgd1na2vs0mg"},{"bike_id":"4b716df1-4c2c-48ae-ac61-7be4e04c653a","system_id":"levelo_inurba_marseille","lat":43.26201,"lon":5.37926,"is_reserved":false,"is_disabled":true,"rental_uris":{"android":"levelo://app?vid=4b716df1-4c2c-48ae-ac61-7be4e04c653a","ios":"levelo://app?vid=4b716df1-4c2c-48ae-ac61-7be4e04c653a"},"vehicle_type_id":"4","last_reported":1748707875,"current_range_meters":1200,"station_id":"ce4bhjp2rcd13ifvqg90","pricing_plan_id":"cebpf4jnsgd1na2vs0mg"},{"bike_id":"2ce96e40-78f7-4de2-be39-5f5ac6866445","system_id":"levelo_inurba_marseille","lat":43.25108,"lon":5.4032,"is_reserved":false,"is_disabled":true,"rental_uris":{"android":"levelo://app?vid=2ce96e40-78f7-4de2-be39-5f5ac6866445","ios":"levelo://app?vid=2ce96e40-78f7-4de2-be39-5f5ac6866445"},"vehicle_type_id":"4","last_reported":1748707875,"current_range_meters":1200,"station_id":"ce4bhlh2rcd13ifvqgig","pricing_plan_id":"cebpf4jnsgd1na2vs0mg"},{"bike_id":"123c3a75-ff96-4a53-ae24-f55c0cd72036","system_id":"levelo_inurba_marseille","lat":43.29304,"lon":5.37177,"is_reserved":false,"is_disabled":true,"rental_uris":{"android":"levelo://app?vid=123c3a75-ff96-4a53-ae24-f55c0cd72036","ios":"levelo://app?vid=123c3a75-ff96-4a53-ae24-f55c0cd72036"},"vehicle_type_id":"4","last_reported":1748707875,"current_range_meters":1600,"station_id":"ce4bgh92rcd13ifvqb40","pricing_plan_id":"cebpf4jnsgd1na2vs0mg"},{"bike_id":"e1a5741d-6f8a-4e60-aa31-397e40c0bc20","system_id":"levelo_inurba_marseille","lat":43.27323,"lon":5.39093,"is_reserved":false,"is_disabled":true,"rental_uris":{"android":"levelo://app?vid=e1a5741d-6f8a-4e60-aa31-397e40c0bc20","ios":"levelo://app?vid=e1a5741d-6f8a-4e60-aa31-397e40c0bc20"},"vehicle_type_id":"4","last_reported":1748707875,"current_range_meters":1600,"station_id":"ce4bhgp2rcd13ifvqfe0","pricing_plan_id":"cebpf4jnsgd1na2vs0mg"},{"bike_id":"db037e85-9b0e-4b42-a7f6-6d6d4ea59739","system_id":"levelo_inurba_marseille","lat":43.27233,"lon":5.39176,"is_reserved":false,"is_disabled":true,"rental_uris":{"android":"levelo://app?vid=db037e85-9b0e-4b42-a7f6-6d6d4ea59739","ios":"levelo://app?vid=db037e85-9b0e-4b42-a7f6-6d6d4ea59739"},"vehicle_type_id":"4","last_reported":1748707875,"current_range_meters":1600,"station_id":"ce4bhhp2rcd13ifvqfm0","pricing_plan_id":"cebpf4jnsgd1na2vs0mg"},{"bike_id":"f24a8aa8-6985-4adb-8379-e7b2531c7106","system_id":"levelo_inurba_marseille","lat":43.27072,"lon":5.42285,"is_reserved":false,"is_disabled":true,"rental_uris":{"android":"levelo://app?vid=f24a8aa8-6985-4adb-8379-e7b2531c7106","ios":"levelo://app?vid=f24a8aa8-6985-4adb-8379-e7b2531c7106"},"vehicle_type_id":"4","last_reported":1748707875,"current_range_meters":1600,"station_id":"ce4bhk92rcd13ifvqgb0","pricing_plan_id":"cebpf4jnsgd1na2vs0mg"},{"bike_id":"95113c2a-a354-4327-8417-f93e6b53e9cb","system_id":"levelo_inurba_marseille","lat":43.25113,"lon":5.40313,"is_reserved":false,"is_disabled":true,"rental_uris":{"android":"levelo://app?vid=95113c2a-a354-4327-8417-f93e6b53e9cb","ios":"levelo://app?vid=95113c2a-a354-4327-8417-f93e6b53e9cb"},"vehicle_type_id":"4","last_reported":1748707875,"current_range_meters":1600,"station_id":"ce4bhlh2rcd13ifvqgig","pricing_plan_id":"cebpf4jnsgd1na2vs0mg"},{"bike_id":"e380ba23-d310-42cc-910f-0ec680ab5674","system_id":"levelo_inurba_marseille","lat":43.23158,"lon":5.43693,"is_reserved":false,"is_disabled":true,"rental_uris":{"android":"levelo://app?vid=e380ba23-d310-42cc-910f-0ec680ab5674","ios":"levelo://app?vid=e380ba23-d310-42cc-910f-0ec680ab5674"},"vehicle_type_id":"4","last_reported":1748707875,"current_range_meters":1600,"station_id":"ce4bhmp2rcd13ifvqgog","pricing_plan_id":"cebpf4jnsgd1na2vs0mg"},{"bike_id":"55080048-1445-433c-8653-9f436d843131","system_id":"levelo_inurba_marseille","lat":43.2849,"lon":5.36922,"is_reserved":false,"is_disabled":true,"rental_uris":{"android":"levelo://app?vid=55080048-1445-433c-8653-9f436d843131","ios":"levelo://app?vid=55080048-1445-433c-8653-9f436d843131"},"vehicle_type_id":"4","last_reported":1748707875,"current_range_meters":2000,"station_id":"","pricing_plan_id":"cebpf4jnsgd1na2vs0mg"},{"bike_id":"36240f0a-66a2-43ec-8330-1f3a9d08cc7e","system_id":"levelo_inurba_marseille","lat":43.23905,"lon":5.36261,"is_reserved":false,"is_disabled":true,"rental_uris":{"android":"levelo://app?vid=36240f0a-66a2-43ec-8330-1f3a9d08cc7e","ios":"levelo://app?vid=36240f0a-66a2-43ec-8330-1f3a9d08cc7e"},"vehicle_type_id":"4","last_reported":1748707875,"current_range_meters":2000,"station_id":"","pricing_plan_id":"cebpf4jnsgd1na2vs0mg"},{"bike_id":"4606a288-c4b4-467c-bdcc-a9515d68faf4","system_id":"levelo_inurba_marseille","lat":43.27198,"lon":5.39009,"is_reserved":false,"is_disabled":true,"rental_uris":{"android":"levelo://app?vid=4606a288-c4b4-467c-bdcc-a9515d68faf4","ios":"levelo://app?vid=4606a288-c4b4-467c-bdcc-a9515d68faf4"},"vehicle_type_id":"4","last_reported":1748707875,"current_range_meters":2000,"station_id":"","pricing_plan_id":"cebpf4jnsgd1na2vs0mg"},{"bike_id":"e6796c01-65a6-4efa-b7cf-8831ddbef7d1","system_id":"levelo_inurba_marseille","lat":43.29784,"lon":5.38103,"is_reserved":false,"is_disabled":true,"rental_uris":{"android":"levelo://app?vid=e6796c01-65a6-4efa-b7cf-8831ddbef7d1","ios":"levelo://app?vid=e6796c01-65a6-4efa-b7cf-8831ddbef7d1"},"vehicle_type_id":"4","last_reported":1748707875,"current_range_meters":2000,"station_id":"ce4bgip2rcd13ifvqbb0","pricing_plan_id":"cebpf4jnsgd1na2vs0mg"},{"bike_id":"5a52a0e5-1b29-4b86-92bc-dbdcd279caf7","system_id":"levelo_inurba_marseille","lat":43.29362,"lon":5.37832,"is_reserved":false,"is_disabled":true,"rental_uris":{"android":"levelo://app?vid=5a52a0e5-1b29-4b86-92bc-dbdcd279caf7","ios":"levelo://app?vid=5a52a0e5-1b29-4b86-92bc-dbdcd279caf7"},"vehicle_type_id":"4","last_reported":1748707875,"current_range_meters":2000,"station_id":"ce4bgjh2rcd13ifvqbf0","pricing_plan_id":"cebpf4jnsgd1na2vs0mg"},{"bike_id":"b13003b0-88e1-4cb0-ac43-7f34914e50a5","system_id":"levelo_inurba_marseille","lat":43.28267,"lon":5.35067,"is_reserved":false,"is_disabled":true,"rental_uris":{"android":"levelo://app?vid=b13003b0-88e1-4cb0-ac43-7f34914e50a5","ios":"levelo://app?vid=b13003b0-88e1-4cb0-ac43-7f34914e50a5"},"vehicle_type_id":"4","last_reported":1748707875,"current_range_meters":2000,"station_id":"ce4bhbp2rcd13ifvqerg","pricing_plan_id":"cebpf4jnsgd1na2vs0mg"},{"bike_id":"635d5b57-be2b-479d-acf7-6a4e1732e910","system_id":"levelo_inurba_marseille","lat":43.258293,"lon":5.3943,"is_reserved":false,"is_disabled":true,"rental_uris":{"android":"levelo://app?vid=635d5b57-be2b-479d-acf7-6a4e1732e910","ios":"levelo://app?vid=635d5b57-be2b-479d-acf7-6a4e1732e910"},"vehicle_type_id":"4","last_reported":1748707875,"current_range_meters":2000,"station_id":"ce4bhip2rcd13ifvqft0","pricing_plan_id":"cebpf4jnsgd1na2vs0mg"},{"bike_id":"8d6876a5-b0af-46de-88a8-fd6fdb8ed5fe","system_id":"levelo_inurba_marseille","lat":43.30425,"lon":5.38886,"is_reserved":false,"is_disabled":false,"rental_uris":{"android":"levelo://app?vid=8d6876a5-b0af-46de-88a8-fd6fdb8ed5fe","ios":"levelo://app?vid=8d6876a5-b0af-46de-88a8-fd6fdb8ed5fe"},"vehicle_type_id":"4","last_reported":1748707875,"current_range_meters":2800,"station_id":"ce4bgk12rcd13ifvqbi0","pricing_plan_id":"cebpf4jnsgd1na2vs0mg"},{"bike_id":"2a757f29-0939-4680-a702-3cc66653b139","system_id":"levelo_inurba_marseille","lat":43.30534,"lon":5.36532,"is_reserved":false,"is_disabled":false,"rental_uris":{"android":"levelo://app?vid=2a757f29-0939-4680-a702-3cc66653b139","ios":"levelo://app?vid=2a757f29-0939-4680-a702-3cc66653b139"},"vehicle_type_id":"4","last_reported":1748707875,"current_range_meters":3200,"station_id":"ce4bgs12rcd13ifvqcag","pricing_plan_id":"cebpf4jnsgd1na2vs0mg"},{"bike_id":"fa468a59-49ac-43c5-b0dd-1221c74374ac","system_id":"levelo_inurba_marseille","lat":43.30949,"lon":5.39021,"is_reserved":false,"is_disabled":false,"rental_uris":{"android":"levelo://app?vid=fa468a59-49ac-43c5-b0dd-1221c74374ac","ios":"levelo://app?vid=fa468a59-49ac-43c5-b0dd-1221c74374ac"},"vehicle_type_id":"4","last_reported":1748707875,"current_range_meters":3200,"station_id":"ce4bgup2rcd13ifvqco0","pricing_plan_id":"cebpf4jnsgd1na2vs0mg"},{"bike_id":"eb6571e9-ab95-4ac8-a3dc-dae9c1956628","system_id":"levelo_inurba_marseille","lat":43.27373,"lon":5.3626,"is_reserved":false,"is_disabled":false,"rental_uris":{"android":"levelo://app?vid=eb6571e9-ab95-4ac8-a3dc-dae9c1956628","ios":"levelo://app?vid=eb6571e9-ab95-4ac8-a3dc-dae9c1956628"},"vehicle_type_id":"4","last_reported":1748707875,"current_range_meters":3200,"station_id":"ce4bhbh2rcd13ifvqeo0","pricing_plan_id":"cebpf4jnsgd1na2vs0mg"},{"bike_id":"c7a84731-ba36-4aee-a1f1-2a525bb2d59d","system_id":"levelo_inurba_marseille","lat":43.26549,"lon":5.39055,"is_reserved":false,"is_disabled":false,"rental_uris":{"android":"levelo://app?vid=c7a84731-ba36-4aee-a1f1-2a525bb2d59d","ios":"levelo://app?vid=c7a84731-ba36-4aee-a1f1-2a525bb2d59d"},"vehicle_type_id":"4","last_reported":1748707875,"current_range_meters":3200,"station_id":"ce4bhe12rcd13ifvqf30","pricing_plan_id":"cebpf4jnsgd1na2vs0mg"},{"bike_id":"03e9edb9-00bd-429b-9164-55df439c0cd0","system_id":"levelo_inurba_marseille","lat":43.25832,"lon":5.39439,"is_reserved":false,"is_disabled":false,"rental_uris":{"android":"levelo://app?vid=03e9edb9-00bd-429b-9164-55df439c0cd0","ios":"levelo://app?vid=03e9edb9-00bd-429b-9164-55df439c0cd0"},"vehicle_type_id":"4","last_reported":1748707875,"current_range_meters":3200,"station_id":"ce4bhip2rcd13ifvqft0","pricing_plan_id":"cebpf4jnsgd1na2vs0mg"},{"bike_id":"ab223370-2f50-42e6-87bb-d0041ce4d97a","system_id":"levelo_inurba_marseille","lat":43.28361,"lon":5.38636,"is_reserved":false,"is_disabled":false,"rental_uris":{"android":"levelo://app?vid=ab223370-2f50-42e6-87bb-d0041ce4d97a","ios":"levelo://app?vid=ab223370-2f50-42e6-87bb-d0041ce4d97a"},"vehicle_type_id":"4","last_reported":1748707875,"current_range_meters":3600,"station_id":"ce4bh492rcd13ifvqdvg","pricing_plan_id":"cebpf4jnsgd1na2vs0mg"},{"bike_id":"5df6f8da-aca2-4b36-aef0-1e45a6a4c4f1","system_id":"levelo_inurba_marseille","lat":43.27376,"lon":5.36251,"is_reserved":false,"is_disabled":false,"rental_uris":{"android":"levelo://app?vid=5df6f8da-aca2-4b36-aef0-1e45a6a4c4f1","ios":"levelo://app?vid=5df6f8da-aca2-4b36-aef0-1e45a6a4c4f1"},"vehicle_type_id":"4","last_reported":1748707875,"current_range_meters":3600,"station_id":"ce4bhbh2rcd13ifvqeo0","pricing_plan_id":"cebpf4jnsgd1na2vs0mg"},{"bike_id":"7958d1d4-85dd-41d3-a824-8aeeac493ea6","system_id":"levelo_inurba_marseille","lat":43.27969,"lon":5.38737,"is_reserved":false,"is_disabled":false,"rental_uris":{"android":"levelo://app?vid=7958d1d4-85dd-41d3-a824-8aeeac493ea6","ios":"levelo://app?vid=7958d1d4-85dd-41d3-a824-8aeeac493ea6"},"vehicle_type_id":"4","last_reported":1748707875,"current_range_meters":3600,"station_id":"ce4bhg12rcd13ifvqf80","pricing_plan_id":"cebpf4jnsgd1na2vs0mg"},{"bike_id":"41eafede-17fa-4bd9-a763-139cd0d10a2d","system_id":"levelo_inurba_marseille","lat":43.32288,"lon":5.3827,"is_reserved":false,"is_disabled":false,"rental_uris":{"android":"levelo://app?vid=41eafede-17fa-4bd9-a763-139cd0d10a2d","ios":"levelo://app?vid=41eafede-17fa-4bd9-a763-139cd0d10a2d"},"vehicle_type_id":"4","last_reported":1748707875,"current_range_meters":3600,"station_id":"ce4bhr12rcd13ifvqhqg","pricing_plan_id":"cebpf4jnsgd1na2vs0mg"},{"bike_id":"6d44a0cb-59ff-4573-94e1-84390e3533f8","system_id":"levelo_inurba_marseille","lat":43.2657,"lon":5.39031,"is_reserved":false,"is_disabled":false,"rental_uris":{"android":"levelo://app?vid=6d44a0cb-59ff-4573-94e1-84390e3533f8","ios":"levelo://app?vid=6d44a0cb-59ff-4573-94e1-84390e3533f8"},"vehicle_type_id":"4","last_reported":1748707875,"current_range_meters":4000,"station_id":"ce4bhe12rcd13ifvqf30","pricing_plan_id":"cebpf4jnsgd1na2vs0mg"},{"bike_id":"5d9bfca0-badb-482b-a7ff-673b54b5838e","system_id":"levelo_inurba_marseille","lat":43.27839,"lon":5.39211,"is_reserved":false,"is_disabled":false,"rental_uris":{"android":"levelo://app?vid=5d9bfca0-badb-482b-a7ff-673b54b5838e","ios":"levelo://app?vid=5d9bfca0-badb-482b-a7ff-673b54b5838e"},"vehicle_type_id":"4","last_reported":1748707875,"current_range_meters":4000,"station_id":"ce4bhjp2rcd13ifvqga0","pricing_plan_id":"cebpf4jnsgd1na2vs0mg"},{"bike_id":"1618c79e-f118-464c-b471-c34534364ba4","system_id":"levelo_inurba_marseille","lat":43.27172,"lon":5.40994,"is_reserved":false,"is_disabled":false,"rental_uris":{"android":"levelo://app?vid=1618c79e-f118-464c-b471-c34534364ba4","ios":"levelo://app?vid=1618c79e-f118-464c-b471-c34534364ba4"},"vehicle_type_id":"4","last_reported":1748707875,"current_range_meters":4000,"station_id":"ce4bhl12rcd13ifvqgf0","pricing_plan_id":"cebpf4jnsgd1na2vs0mg"},{"bike_id":"7e2836c0-ba8d-45a0-95fe-cc804da27d6d","system_id":"levelo_inurba_marseille","lat":43.24174,"lon":5.3639,"is_reserved":false,"is_disabled":false,"rental_uris":{"android":"levelo://app?vid=7e2836c0-ba8d-45a0-95fe-cc804da27d6d","ios":"levelo://app?vid=7e2836c0-ba8d-45a0-95fe-cc804da27d6d"},"vehicle_type_id":"4","last_reported":1748707875,"current_range_meters":4400,"station_id":"cpo36qri1sfpv3e86is0","pricing_plan_id":"cebpf4jnsgd1na2vs0mg"},{"bike_id":"b2486566-fe19-4403-9251-0786283a7f37","system_id":"levelo_inurba_marseille","lat":43.24167,"lon":5.36403,"is_reserved":false,"is_disabled":false,"rental_uris":{"android":"levelo://app?vid=b2486566-fe19-4403-9251-0786283a7f37","ios":"levelo://app?vid=b2486566-fe19-4403-9251-0786283a7f37"},"vehicle_type_id":"4","last_reported":1748707875,"current_range_meters":4400,"station_id":"cpo36qri1sfpv3e86is0","pricing_plan_id":"cebpf4jnsgd1na2vs0mg"},{"bike_id":"a6ea0808-d99f-44a4-961f-30f299c333fa","system_id":"levelo_inurba_marseille","lat":43.265688,"lon":5.390151,"is_reserved":false,"is_disabled":false,"rental_uris":{"android":"levelo://app?vid=a6ea0808-d99f-44a4-961f-30f299c333fa","ios":"levelo://app?vid=a6ea0808-d99f-44a4-961f-30f299c333fa"},"vehicle_type_id":"4","last_reported":1748707875,"current_range_meters":4800,"station_id":"ce4bhe12rcd13ifvqf30","pricing_plan_id":"cebpf4jnsgd1na2vs0mg"},{"bike_id":"59305e8c-435a-45c6-bfdc-6c2884389d1f","system_id":"levelo_inurba_marseille","lat":43.27917,"lon":5.3958,"is_reserved":false,"is_disabled":false,"rental_uris":{"android":"levelo://app?vid=59305e8c-435a-45c6-bfdc-6c2884389d1f","ios":"levelo://app?vid=59305e8c-435a-45c6-bfdc-6c2884389d1f"},"vehicle_type_id":"4","last_reported":1748707875,"current_range_meters":4800,"station_id":"ce4bhf92rcd13ifvqf40","pricing_plan_id":"cebpf4jnsgd1na2vs0mg"},{"bike_id":"0514caed-caa8-4442-8d6d-69f2f89d7ed9","system_id":"levelo_inurba_marseille","lat":43.27071,"lon":5.40253,"is_reserved":false,"is_disabled":false,"rental_uris":{"android":"levelo://app?vid=0514caed-caa8-4442-8d6d-69f2f89d7ed9","ios":"levelo://app?vid=0514caed-caa8-4442-8d6d-69f2f89d7ed9"},"vehicle_type_id":"4","last_reported":1748707875,"current_range_meters":4800,"station_id":"ce4bhk92rcd13ifvqgc0","pricing_plan_id":"cebpf4jnsgd1na2vs0mg"},{"bike_id":"f80006c7-2f10-4ba5-bb7c-2b0507fde45f","system_id":"levelo_inurba_marseille","lat":43.23064,"lon":5.3553,"is_reserved":false,"is_disabled":false,"rental_uris":{"android":"levelo://app?vid=f80006c7-2f10-4ba5-bb7c-2b0507fde45f","ios":"levelo://app?vid=f80006c7-2f10-4ba5-bb7c-2b0507fde45f"},"vehicle_type_id":"4","last_reported":1748707875,"current_range_meters":4800,"station_id":"cpo3342slgdg3j2ifvpg","pricing_plan_id":"cebpf4jnsgd1na2vs0mg"},{"bike_id":"11b25746-1b46-422b-b73b-1a007e7ee3c8","system_id":"levelo_inurba_marseille","lat":43.27809,"lon":5.40705,"is_reserved":false,"is_disabled":false,"rental_uris":{"android":"levelo://app?vid=11b25746-1b46-422b-b73b-1a007e7ee3c8","ios":"levelo://app?vid=11b25746-1b46-422b-b73b-1a007e7ee3c8"},"vehicle_type_id":"4","last_reported":1748707875,"current_range_meters":5600,"station_id":"ce4bhnh2rcd13ifvqgtg","pricing_plan_id":"cebpf4jnsgd1na2vs0mg"},{"bike_id":"44e08eca-cf1d-4d37-93cb-f1d96dd0f13b","system_id":"levelo_inurba_marseille","lat":43.265686,"lon":5.403472,"is_reserved":false,"is_disabled":false,"rental_uris":{"android":"levelo://app?vid=44e08eca-cf1d-4d37-93cb-f1d96dd0f13b","ios":"levelo://app?vid=44e08eca-cf1d-4d37-93cb-f1d96dd0f13b"},"vehicle_type_id":"4","last_reported":1748707875,"current_range_meters":6000,"station_id":"","pricing_plan_id":"cebpf4jnsgd1na2vs0mg"},{"bike_id":"43533a7f-72ec-4ec7-bd39-ed825dad9c95","system_id":"levelo_inurba_marseille","lat":43.297164,"lon":5.380059,"is_reserved":false,"is_disabled":false,"rental_uris":{"android":"levelo://app?vid=43533a7f-72ec-4ec7-bd39-ed825dad9c95","ios":"levelo://app?vid=43533a7f-72ec-4ec7-bd39-ed825dad9c95"},"vehicle_type_id":"4","last_reported":1748707875,"current_range_meters":6000,"station_id":"ce4bgh92rcd13ifvqb50","pricing_plan_id":"cebpf4jnsgd1na2vs0mg"},{"bike_id":"d581af6a-4532-45a5-8bbe-93fb6e8df149","system_id":"levelo_inurba_marseille","lat":43.26563,"lon":5.39013,"is_reserved":false,"is_disabled":false,"rental_uris":{"android":"levelo://app?vid=d581af6a-4532-45a5-8bbe-93fb6e8df149","ios":"levelo://app?vid=d581af6a-4532-45a5-8bbe-93fb6e8df149"},"vehicle_type_id":"4","last_reported":1748707875,"current_range_meters":6000,"station_id":"ce4bhe12rcd13ifvqf30","pricing_plan_id":"cebpf4jnsgd1na2vs0mg"},{"bike_id":"4b61aa40-181f-47d2-a1be-bf3bd68b59f0","system_id":"levelo_inurba_marseille","lat":43.27918,"lon":5.39582,"is_reserved":false,"is_disabled":false,"rental_uris":{"android":"levelo://app?vid=4b61aa40-181f-47d2-a1be-bf3bd68b59f0","ios":"levelo://app?vid=4b61aa40-181f-47d2-a1be-bf3bd68b59f0"},"vehicle_type_id":"4","last_reported":1748707875,"current_range_meters":6000,"station_id":"ce4bhf92rcd13ifvqf40","pricing_plan_id":"cebpf4jnsgd1na2vs0mg"},{"bike_id":"3994eba4-4643-4603-8c4a-a9c325da8092","system_id":"levelo_inurba_marseille","lat":43.24072,"lon":5.37779,"is_reserved":false,"is_disabled":false,"rental_uris":{"android":"levelo://app?vid=3994eba4-4643-4603-8c4a-a9c325da8092","ios":"levelo://app?vid=3994eba4-4643-4603-8c4a-a9c325da8092"},"vehicle_type_id":"4","last_reported":1748707875,"current_range_meters":6000,"station_id":"ce4bhnp2rcd13ifvqgvg","pricing_plan_id":"cebpf4jnsgd1na2vs0mg"},{"bike_id":"990df701-79a7-41ec-b963-3693dc590a87","system_id":"levelo_inurba_marseille","lat":43.30153,"lon":5.37909,"is_reserved":false,"is_disabled":false,"rental_uris":{"android":"levelo://app?vid=990df701-79a7-41ec-b963-3693dc590a87","ios":"levelo://app?vid=990df701-79a7-41ec-b963-3693dc590a87"},"vehicle_type_id":"4","last_reported":1748707875,"current_range_meters":6400,"station_id":"","pricing_plan_id":"cebpf4jnsgd1na2vs0mg"},{"bike_id":"f64c9c9b-8d41-437e-8087-f5d185693065","system_id":"levelo_inurba_marseille","lat":43.29037,"lon":5.39963,"is_reserved":false,"is_disabled":false,"rental_uris":{"android":"levelo://app?vid=f64c9c9b-8d41-437e-8087-f5d185693065","ios":"levelo://app?vid=f64c9c9b-8d41-437e-8087-f5d185693065"},"vehicle_type_id":"4","last_reported":1748707875,"current_range_meters":6400,"station_id":"ce4bh392rcd13ifvqdm0","pricing_plan_id":"cebpf4jnsgd1na2vs0mg"},{"bike_id":"46950156-2911-4ef2-8225-00a2c367410a","system_id":"levelo_inurba_marseille","lat":43.29001,"lon":5.35621,"is_reserved":false,"is_disabled":false,"rental_uris":{"android":"levelo://app?vid=46950156-2911-4ef2-8225-00a2c367410a","ios":"levelo://app?vid=46950156-2911-4ef2-8225-00a2c367410a"},"vehicle_type_id":"4","last_reported":1748707875,"current_range_meters":6400,"station_id":"ce4bhb92rcd13ifvqen0","pricing_plan_id":"cebpf4jnsgd1na2vs0mg"},{"bike_id":"7560b666-856a-496b-adc8-786949133a24","system_id":"levelo_inurba_marseille","lat":43.27374,"lon":5.36263,"is_reserved":false,"is_disabled":false,"rental_uris":{"android":"levelo://app?vid=7560b666-856a-496b-adc8-786949133a24","ios":"levelo://app?vid=7560b666-856a-496b-adc8-786949133a24"},"vehicle_type_id":"4","last_reported":1748707875,"current_range_meters":6400,"station_id":"ce4bhbh2rcd13ifvqeo0","pricing_plan_id":"cebpf4jnsgd1na2vs0mg"},{"bike_id":"89f02a28-a13c-4ddd-9d49-a9be859ab726","system_id":"levelo_inurba_marseille","lat":43.29223,"lon":5.36059,"is_reserved":false,"is_disabled":false,"rental_uris":{"android":"levelo://app?vid=89f02a28-a13c-4ddd-9d49-a9be859ab726","ios":"levelo://app?vid=89f02a28-a13c-4ddd-9d49-a9be859ab726"},"vehicle_type_id":"4","last_reported":1748707875,"current_range_meters":6400,"station_id":"ce4bhbh2rcd13ifvqeqg","pricing_plan_id":"cebpf4jnsgd1na2vs0mg"},{"bike_id":"f5f64fe6-e75b-4412-8ae5-4c6ffa965e31","system_id":"levelo_inurba_marseille","lat":43.27886,"lon":5.38011,"is_reserved":false,"is_disabled":false,"rental_uris":{"android":"levelo://app?vid=f5f64fe6-e75b-4412-8ae5-4c6ffa965e31","ios":"levelo://app?vid=f5f64fe6-e75b-4412-8ae5-4c6ffa965e31"},"vehicle_type_id":"4","last_reported":1748707875,"current_range_meters":6400,"station_id":"ce4bhf92rcd13ifvqf50","pricing_plan_id":"cebpf4jnsgd1na2vs0mg"},{"bike_id":"89ec8cb2-b783-400b-81f3-1b63b75e7ca9","system_id":"levelo_inurba_marseille","lat":43.26211,"lon":5.37452,"is_reserved":false,"is_disabled":false,"rental_uris":{"android":"levelo://app?vid=89ec8cb2-b783-400b-81f3-1b63b75e7ca9","ios":"levelo://app?vid=89ec8cb2-b783-400b-81f3-1b63b75e7ca9"},"vehicle_type_id":"4","last_reported":1748707875,"current_range_meters":6400,"station_id":"ce4bhgp2rcd13ifvqfc0","pricing_plan_id":"cebpf4jnsgd1na2vs0mg"},{"bike_id":"676bbc3a-b42d-4fc6-92c7-16ecd47c7ec5","system_id":"levelo_inurba_marseille","lat":43.28724,"lon":5.36077,"is_reserved":false,"is_disabled":false,"rental_uris":{"android":"levelo://app?vid=676bbc3a-b42d-4fc6-92c7-16ecd47c7ec5","ios":"levelo://app?vid=676bbc3a-b42d-4fc6-92c7-16ecd47c7ec5"},"vehicle_type_id":"4","last_reported":1748707875,"current_range_meters":6400,"station_id":"cki0cbj6b192h4jlfktg","pricing_plan_id":"cebpf4jnsgd1na2vs0mg"},{"bike_id":"b3c2dacf-36f5-42e1-95f1-5afde6cecacf","system_id":"levelo_inurba_marseille","lat":43.24163,"lon":5.36398,"is_reserved":false,"is_disabled":false,"rental_uris":{"android":"levelo://app?vid=b3c2dacf-36f5-42e1-95f1-5afde6cecacf","ios":"levelo://app?vid=b3c2dacf-36f5-42e1-95f1-5afde6cecacf"},"vehicle_type_id":"4","last_reported":1748707875,"current_range_meters":6400,"station_id":"cpo36qri1sfpv3e86is0","pricing_plan_id":"cebpf4jnsgd1na2vs0mg"},{"bike_id":"7243d7c8-02f5-4392-89cf-8c360e846d55","system_id":"levelo_inurba_marseille","lat":43.2528,"lon":5.37827,"is_reserved":false,"is_disabled":false,"rental_uris":{"android":"levelo://app?vid=7243d7c8-02f5-4392-89cf-8c360e846d55","ios":"levelo://app?vid=7243d7c8-02f5-4392-89cf-8c360e846d55"},"vehicle_type_id":"4","last_reported":1748707875,"current_range_meters":6800,"station_id":"","pricing_plan_id":"cebpf4jnsgd1na2vs0mg"},{"bike_id":"e4cbcda3-da3f-41ff-9c3c-9bce39af3117","system_id":"levelo_inurba_marseille","lat":43.30458,"lon":5.37904,"is_reserved":false,"is_disabled":false,"rental_uris":{"android":"levelo://app?vid=e4cbcda3-da3f-41ff-9c3c-9bce39af3117","ios":"levelo://app?vid=e4cbcda3-da3f-41ff-9c3c-9bce39af3117"},"vehicle_type_id":"4","last_reported":1748707875,"current_range_meters":6800,"station_id":"ce4bgup2rcd13ifvqcn0","pricing_plan_id":"cebpf4jnsgd1na2vs0mg"},{"bike_id":"3feffd94-b1f8-4904-a4cf-e5629abe4092","system_id":"levelo_inurba_marseille","lat":43.25912,"lon":5.4089,"is_reserved":false,"is_disabled":false,"rental_uris":{"android":"levelo://app?vid=3feffd94-b1f8-4904-a4cf-e5629abe4092","ios":"levelo://app?vid=3feffd94-b1f8-4904-a4cf-e5629abe4092"},"vehicle_type_id":"4","last_reported":1748707875,"current_range_meters":6800,"station_id":"ce4bhm92rcd13ifvqglg","pricing_plan_id":"cebpf4jnsgd1na2vs0mg"},{"bike_id":"82ce820a-c4c6-4ac7-9b7f-30fa70c9c3f3","system_id":"levelo_inurba_marseille","lat":43.278145,"lon":5.407077,"is_reserved":false,"is_disabled":false,"rental_uris":{"android":"levelo://app?vid=82ce820a-c4c6-4ac7-9b7f-30fa70c9c3f3","ios":"levelo://app?vid=82ce820a-c4c6-4ac7-9b7f-30fa70c9c3f3"},"vehicle_type_id":"4","last_reported":1748707875,"current_range_meters":6800,"station_id":"ce4bhnh2rcd13ifvqgtg","pricing_plan_id":"cebpf4jnsgd1na2vs0mg"},{"bike_id":"a882f5db-172f-4f11-bf66-7e2c36364bb7","system_id":"levelo_inurba_marseille","lat":43.29545,"lon":5.42284,"is_reserved":false,"is_disabled":false,"rental_uris":{"android":"levelo://app?vid=a882f5db-172f-4f11-bf66-7e2c36364bb7","ios":"levelo://app?vid=a882f5db-172f-4f11-bf66-7e2c36364bb7"},"vehicle_type_id":"4","last_reported":1748707875,"current_range_meters":6800,"station_id":"ce4bhph2rcd13ifvqhdg","pricing_plan_id":"cebpf4jnsgd1na2vs0mg"},{"bike_id":"742ea022-7ec3-403b-ab76-b027020c7592","system_id":"levelo_inurba_marseille","lat":43.319885,"lon":5.38045,"is_reserved":false,"is_disabled":false,"rental_uris":{"android":"levelo://app?vid=742ea022-7ec3-403b-ab76-b027020c7592","ios":"levelo://app?vid=742ea022-7ec3-403b-ab76-b027020c7592"},"vehicle_type_id":"4","last_reported":1748707875,"current_range_meters":6800,"station_id":"ce4bhr12rcd13ifvqhqg","pricing_plan_id":"cebpf4jnsgd1na2vs0mg"},{"bike_id":"4805c951-6484-4059-a668-9e3bc978342f","system_id":"levelo_inurba_marseille","lat":43.26792,"lon":5.40275,"is_reserved":false,"is_disabled":false,"rental_uris":{"android":"levelo://app?vid=4805c951-6484-4059-a668-9e3bc978342f","ios":"levelo://app?vid=4805c951-6484-4059-a668-9e3bc978342f"},"vehicle_type_id":"4","last_reported":1748707875,"current_range_meters":6800,"station_id":"ce501612rcd8frsf0b60","pricing_plan_id":"cebpf4jnsgd1na2vs0mg"},{"bike_id":"9c190484-62c6-451c-ae8b-a522b601ead4","system_id":"levelo_inurba_marseille","lat":43.297852,"lon":5.393418,"is_reserved":false,"is_disabled":false,"rental_uris":{"android":"levelo://app?vid=9c190484-62c6-451c-ae8b-a522b601ead4","ios":"levelo://app?vid=9c190484-62c6-451c-ae8b-a522b601ead4"},"vehicle_type_id":"4","last_reported":1748707875,"current_range_meters":6800,"station_id":"chh1huq6cuj3fo74tm60","pricing_plan_id":"cebpf4jnsgd1na2vs0mg"},{"bike_id":"4d0c6496-3437-4303-a6d4-99c44150f234","system_id":"levelo_inurba_marseille","lat":43.23063,"lon":5.35494,"is_reserved":false,"is_disabled":false,"rental_uris":{"android":"levelo://app?vid=4d0c6496-3437-4303-a6d4-99c44150f234","ios":"levelo://app?vid=4d0c6496-3437-4303-a6d4-99c44150f234"},"vehicle_type_id":"4","last_reported":1748707875,"current_range_meters":6800,"station_id":"cpo3342slgdg3j2ifvpg","pricing_plan_id":"cebpf4jnsgd1na2vs0mg"},{"bike_id":"17244023-e7ce-47db-98e8-21120bde4f61","system_id":"levelo_inurba_marseille","lat":43.23063,"lon":5.35492,"is_reserved":false,"is_disabled":false,"rental_uris":{"android":"levelo://app?vid=17244023-e7ce-47db-98e8-21120bde4f61","ios":"levelo://app?vid=17244023-e7ce-47db-98e8-21120bde4f61"},"vehicle_type_id":"4","last_reported":1748707875,"current_range_meters":6800,"station_id":"cpo3342slgdg3j2ifvpg","pricing_plan_id":"cebpf4jnsgd1na2vs0mg"},{"bike_id":"4c81c36c-f8e4-4272-8b2d-1af054268477","system_id":"levelo_inurba_marseille","lat":43.25858,"lon":5.39896,"is_reserved":false,"is_disabled":false,"rental_uris":{"android":"levelo://app?vid=4c81c36c-f8e4-4272-8b2d-1af054268477","ios":"levelo://app?vid=4c81c36c-f8e4-4272-8b2d-1af054268477"},"vehicle_type_id":"4","last_reported":1748707875,"current_range_meters":7200,"station_id":"ce4bhl92rcd13ifvqghg","pricing_plan_id":"cebpf4jnsgd1na2vs0mg"},{"bike_id":"f114cddd-b530-4e18-bffd-fbee3bac4dac","system_id":"levelo_inurba_marseille","lat":43.32287,"lon":5.38277,"is_reserved":false,"is_disabled":false,"rental_uris":{"android":"levelo://app?vid=f114cddd-b530-4e18-bffd-fbee3bac4dac","ios":"levelo://app?vid=f114cddd-b530-4e18-bffd-fbee3bac4dac"},"vehicle_type_id":"4","last_reported":1748707875,"current_range_meters":7200,"station_id":"ce4bhr12rcd13ifvqhqg","pricing_plan_id":"cebpf4jnsgd1na2vs0mg"},{"bike_id":"b8ec7d69-13b5-4170-b74f-8755a64880aa","system_id":"levelo_inurba_marseille","lat":43.290023,"lon":5.366974,"is_reserved":false,"is_disabled":false,"rental_uris":{"android":"levelo://app?vid=b8ec7d69-13b5-4170-b74f-8755a64880aa","ios":"levelo://app?vid=b8ec7d69-13b5-4170-b74f-8755a64880aa"},"vehicle_type_id":"4","last_reported":1748707875,"current_range_meters":8000,"station_id":"ce4bhap2rcd13ifvqek0","pricing_plan_id":"cebpf4jnsgd1na2vs0mg"},{"bike_id":"c9e39e98-013b-4ec5-b67c-56f3c97783f3","system_id":"levelo_inurba_marseille","lat":43.27382,"lon":5.3626,"is_reserved":false,"is_disabled":false,"rental_uris":{"android":"levelo://app?vid=c9e39e98-013b-4ec5-b67c-56f3c97783f3","ios":"levelo://app?vid=c9e39e98-013b-4ec5-b67c-56f3c97783f3"},"vehicle_type_id":"4","last_reported":1748707875,"current_range_meters":8000,"station_id":"ce4bhbh2rcd13ifvqeo0","pricing_plan_id":"cebpf4jnsgd1na2vs0mg"},{"bike_id":"8984bd92-149e-4f42-a838-edad57e14b45","system_id":"levelo_inurba_marseille","lat":43.24998,"lon":5.38923,"is_reserved":false,"is_disabled":false,"rental_uris":{"android":"levelo://app?vid=8984bd92-149e-4f42-a838-edad57e14b45","ios":"levelo://app?vid=8984bd92-149e-4f42-a838-edad57e14b45"},"vehicle_type_id":"4","last_reported":1748707875,"current_range_meters":8000,"station_id":"ce4bhgp2rcd13ifvqfd0","pricing_plan_id":"cebpf4jnsgd1na2vs0mg"},{"bike_id":"ed990a1a-f015-4ec7-b75a-1b45cf28e97d","system_id":"levelo_inurba_marseille","lat":43.24544,"lon":5.39526,"is_reserved":false,"is_disabled":false,"rental_uris":{"android":"levelo://app?vid=ed990a1a-f015-4ec7-b75a-1b45cf28e97d","ios":"levelo://app?vid=ed990a1a-f015-4ec7-b75a-1b45cf28e97d"},"vehicle_type_id":"4","last_reported":1748707875,"current_range_meters":8000,"station_id":"ce4bhlp2rcd13ifvqgjg","pricing_plan_id":"cebpf4jnsgd1na2vs0mg"},{"bike_id":"01a0c52e-afba-4073-9f3c-4cfc4d0702bb","system_id":"levelo_inurba_marseille","lat":43.23151,"lon":5.4372,"is_reserved":false,"is_disabled":false,"rental_uris":{"android":"levelo://app?vid=01a0c52e-afba-4073-9f3c-4cfc4d0702bb","ios":"levelo://app?vid=01a0c52e-afba-4073-9f3c-4cfc4d0702bb"},"vehicle_type_id":"4","last_reported":1748707875,"current_range_meters":8000,"station_id":"ce4bhmp2rcd13ifvqgog","pricing_plan_id":"cebpf4jnsgd1na2vs0mg"},{"bike_id":"ce53dd18-03e1-4c75-805e-ceaf7e2b08c2","system_id":"levelo_inurba_marseille","lat":43.28076,"lon":5.39649,"is_reserved":false,"is_disabled":false,"rental_uris":{"android":"levelo://app?vid=ce53dd18-03e1-4c75-805e-ceaf7e2b08c2","ios":"levelo://app?vid=ce53dd18-03e1-4c75-805e-ceaf7e2b08c2"},"vehicle_type_id":"4","last_reported":1748707875,"current_range_meters":8000,"station_id":"ce4bho12rcd13ifvqh2g","pricing_plan_id":"cebpf4jnsgd1na2vs0mg"},{"bike_id":"a2f7e7ee-954e-4d9d-8e07-85a84aca6666","system_id":"levelo_inurba_marseille","lat":43.22926,"lon":5.35378,"is_reserved":false,"is_disabled":false,"rental_uris":{"android":"levelo://app?vid=a2f7e7ee-954e-4d9d-8e07-85a84aca6666","ios":"levelo://app?vid=a2f7e7ee-954e-4d9d-8e07-85a84aca6666"},"vehicle_type_id":"4","last_reported":1748707875,"current_range_meters":8000,"station_id":"cpo3532slgdg3j2ikp40","pricing_plan_id":"cebpf4jnsgd1na2vs0mg"},{"bike_id":"d16f5222-3d1e-4d65-a992-1bc93f719178","system_id":"levelo_inurba_marseille","lat":43.303291,"lon":5.365891,"is_reserved":false,"is_disabled":false,"rental_uris":{"android":"levelo://app?vid=d16f5222-3d1e-4d65-a992-1bc93f719178","ios":"levelo://app?vid=d16f5222-3d1e-4d65-a992-1bc93f719178"},"vehicle_type_id":"4","last_reported":1748707875,"current_range_meters":8400,"station_id":"","pricing_plan_id":"cebpf4jnsgd1na2vs0mg"},{"bike_id":"bff6a8d6-50bf-48c2-adc2-78cd9bf83946","system_id":"levelo_inurba_marseille","lat":43.31121,"lon":5.37755,"is_reserved":false,"is_disabled":false,"rental_uris":{"android":"levelo://app?vid=bff6a8d6-50bf-48c2-adc2-78cd9bf83946","ios":"levelo://app?vid=bff6a8d6-50bf-48c2-adc2-78cd9bf83946"},"vehicle_type_id":"4","last_reported":1748707875,"current_range_meters":8400,"station_id":"ce4bgt92rcd13ifvqcg0","pricing_plan_id":"cebpf4jnsgd1na2vs0mg"},{"bike_id":"4a4055e5-a66a-4260-80b4-a09e7d5ca739","system_id":"levelo_inurba_marseille","lat":43.25719,"lon":5.41115,"is_reserved":false,"is_disabled":false,"rental_uris":{"android":"levelo://app?vid=4a4055e5-a66a-4260-80b4-a09e7d5ca739","ios":"levelo://app?vid=4a4055e5-a66a-4260-80b4-a09e7d5ca739"},"vehicle_type_id":"4","last_reported":1748707875,"current_range_meters":8400,"station_id":"ce4bhkp2rcd13ifvqgd0","pricing_plan_id":"cebpf4jnsgd1na2vs0mg"},{"bike_id":"662af0d9-b4f1-4513-bbd2-fd65be6229e5","system_id":"levelo_inurba_marseille","lat":43.259318,"lon":5.409064,"is_reserved":false,"is_disabled":false,"rental_uris":{"android":"levelo://app?vid=662af0d9-b4f1-4513-bbd2-fd65be6229e5","ios":"levelo://app?vid=662af0d9-b4f1-4513-bbd2-fd65be6229e5"},"vehicle_type_id":"4","last_reported":1748707875,"current_range_meters":8400,"station_id":"ce4bhm92rcd13ifvqglg","pricing_plan_id":"cebpf4jnsgd1na2vs0mg"},{"bike_id":"d02ba7d2-914d-425a-8b2a-f1259e1c2fbf","system_id":"levelo_inurba_marseille","lat":43.26244,"lon":5.40497,"is_reserved":false,"is_disabled":false,"rental_uris":{"android":"levelo://app?vid=d02ba7d2-914d-425a-8b2a-f1259e1c2fbf","ios":"levelo://app?vid=d02ba7d2-914d-425a-8b2a-f1259e1c2fbf"},"vehicle_type_id":"4","last_reported":1748707875,"current_range_meters":8400,"station_id":"ce4bhmh2rcd13ifvqgmg","pricing_plan_id":"cebpf4jnsgd1na2vs0mg"},{"bike_id":"471fccc4-e0a0-45c9-96ca-25361ad546a7","system_id":"levelo_inurba_marseille","lat":43.21772,"lon":5.34602,"is_reserved":false,"is_disabled":false,"rental_uris":{"android":"levelo://app?vid=471fccc4-e0a0-45c9-96ca-25361ad546a7","ios":"levelo://app?vid=471fccc4-e0a0-45c9-96ca-25361ad546a7"},"vehicle_type_id":"4","last_reported":1748707875,"current_range_meters":8400,"station_id":"st_cvj6r9ubvosntc0bgbag","pricing_plan_id":"cebpf4jnsgd1na2vs0mg"},{"bike_id":"e8c5824f-b2bf-4803-ad59-537164032e73","system_id":"levelo_inurba_marseille","lat":43.29392,"lon":5.37795,"is_reserved":false,"is_disabled":false,"rental_uris":{"android":"levelo://app?vid=e8c5824f-b2bf-4803-ad59-537164032e73","ios":"levelo://app?vid=e8c5824f-b2bf-4803-ad59-537164032e73"},"vehicle_type_id":"4","last_reported":1748707875,"current_range_meters":8800,"station_id":"ce4bgjh2rcd13ifvqbf0","pricing_plan_id":"cebpf4jnsgd1na2vs0mg"},{"bike_id":"e06bb481-4fb7-415e-a146-77c35a3c8720","system_id":"levelo_inurba_marseille","lat":43.26779,"lon":5.39412,"is_reserved":false,"is_disabled":false,"rental_uris":{"android":"levelo://app?vid=e06bb481-4fb7-415e-a146-77c35a3c8720","ios":"levelo://app?vid=e06bb481-4fb7-415e-a146-77c35a3c8720"},"vehicle_type_id":"4","last_reported":1748707875,"current_range_meters":8800,"station_id":"ce4bhh12rcd13ifvqfg0","pricing_plan_id":"cebpf4jnsgd1na2vs0mg"},{"bike_id":"2791f9f3-21a8-4064-a733-da2b4bbefe64","system_id":"levelo_inurba_marseille","lat":43.23965,"lon":5.36632,"is_reserved":false,"is_disabled":false,"rental_uris":{"android":"levelo://app?vid=2791f9f3-21a8-4064-a733-da2b4bbefe64","ios":"levelo://app?vid=2791f9f3-21a8-4064-a733-da2b4bbefe64"},"vehicle_type_id":"4","last_reported":1748707875,"current_range_meters":8800,"station_id":"ce4bhi12rcd13ifvqfp0","pricing_plan_id":"cebpf4jnsgd1na2vs0mg"},{"bike_id":"f7fbb18b-c428-4b9e-9ad2-4bbdf1a371ac","system_id":"levelo_inurba_marseille","lat":43.24541,"lon":5.39519,"is_reserved":false,"is_disabled":false,"rental_uris":{"android":"levelo://app?vid=f7fbb18b-c428-4b9e-9ad2-4bbdf1a371ac","ios":"levelo://app?vid=f7fbb18b-c428-4b9e-9ad2-4bbdf1a371ac"},"vehicle_type_id":"4","last_reported":1748707875,"current_range_meters":8800,"station_id":"ce4bhlp2rcd13ifvqgjg","pricing_plan_id":"cebpf4jnsgd1na2vs0mg"},{"bike_id":"0a2b91ea-6331-415b-86a7-8da1ba311ed2","system_id":"levelo_inurba_marseille","lat":43.27813,"lon":5.40712,"is_reserved":false,"is_disabled":false,"rental_uris":{"android":"levelo://app?vid=0a2b91ea-6331-415b-86a7-8da1ba311ed2","ios":"levelo://app?vid=0a2b91ea-6331-415b-86a7-8da1ba311ed2"},"vehicle_type_id":"4","last_reported":1748707875,"current_range_meters":8800,"station_id":"ce4bhnh2rcd13ifvqgtg","pricing_plan_id":"cebpf4jnsgd1na2vs0mg"},{"bike_id":"5fd59298-192d-40db-858b-df19a4c48c53","system_id":"levelo_inurba_marseille","lat":43.27809,"lon":5.4071,"is_reserved":false,"is_disabled":false,"rental_uris":{"android":"levelo://app?vid=5fd59298-192d-40db-858b-df19a4c48c53","ios":"levelo://app?vid=5fd59298-192d-40db-858b-df19a4c48c53"},"vehicle_type_id":"4","last_reported":1748707875,"current_range_meters":8800,"station_id":"ce4bhnh2rcd13ifvqgtg","pricing_plan_id":"cebpf4jnsgd1na2vs0mg"},{"bike_id":"611ecb41-369a-4d13-8259-8e9e6a3da4b4","system_id":"levelo_inurba_marseille","lat":43.26807,"lon":5.40261,"is_reserved":false,"is_disabled":false,"rental_uris":{"android":"levelo://app?vid=611ecb41-369a-4d13-8259-8e9e6a3da4b4","ios":"levelo://app?vid=611ecb41-369a-4d13-8259-8e9e6a3da4b4"},"vehicle_type_id":"4","last_reported":1748707875,"current_range_meters":8800,"station_id":"ce501612rcd8frsf0b60","pricing_plan_id":"cebpf4jnsgd1na2vs0mg"},{"bike_id":"3e3892b7-2798-4201-9288-2319a692c27c","system_id":"levelo_inurba_marseille","lat":43.23058,"lon":5.3549,"is_reserved":false,"is_disabled":false,"rental_uris":{"android":"levelo://app?vid=3e3892b7-2798-4201-9288-2319a692c27c","ios":"levelo://app?vid=3e3892b7-2798-4201-9288-2319a692c27c"},"vehicle_type_id":"4","last_reported":1748707875,"current_range_meters":8800,"station_id":"cpo3342slgdg3j2ifvpg","pricing_plan_id":"cebpf4jnsgd1na2vs0mg"},{"bike_id":"a672e2ce-ff65-491a-baf8-b5fcce4f4059","system_id":"levelo_inurba_marseille","lat":43.31712,"lon":5.38996,"is_reserved":false,"is_disabled":false,"rental_uris":{"android":"levelo://app?vid=a672e2ce-ff65-491a-baf8-b5fcce4f4059","ios":"levelo://app?vid=a672e2ce-ff65-491a-baf8-b5fcce4f4059"},"vehicle_type_id":"4","last_reported":1748707875,"current_range_meters":9200,"station_id":"","pricing_plan_id":"cebpf4jnsgd1na2vs0mg"},{"bike_id":"059b88a5-6692-4755-a53c-88d22182dbf4","system_id":"levelo_inurba_marseille","lat":43.299144,"lon":5.363351,"is_reserved":false,"is_disabled":false,"rental_uris":{"android":"levelo://app?vid=059b88a5-6692-4755-a53c-88d22182dbf4","ios":"levelo://app?vid=059b88a5-6692-4755-a53c-88d22182dbf4"},"vehicle_type_id":"4","last_reported":1748707875,"current_range_meters":9200,"station_id":"ce4bgpp2rcd13ifvqc3g","pricing_plan_id":"cebpf4jnsgd1na2vs0mg"},{"bike_id":"ebc31be9-7e4b-45dd-a802-eab2c5096989","system_id":"levelo_inurba_marseille","lat":43.31074,"lon":5.38354,"is_reserved":false,"is_disabled":false,"rental_uris":{"android":"levelo://app?vid=ebc31be9-7e4b-45dd-a802-eab2c5096989","ios":"levelo://app?vid=ebc31be9-7e4b-45dd-a802-eab2c5096989"},"vehicle_type_id":"4","last_reported":1748707875,"current_range_meters":9200,"station_id":"ce4bgv92rcd13ifvqcr0","pricing_plan_id":"cebpf4jnsgd1na2vs0mg"},{"bike_id":"af68a0df-05ea-42bb-8878-367e4cf20bbb","system_id":"levelo_inurba_marseille","lat":43.31324,"lon":5.39697,"is_reserved":false,"is_disabled":false,"rental_uris":{"android":"levelo://app?vid=af68a0df-05ea-42bb-8878-367e4cf20bbb","ios":"levelo://app?vid=af68a0df-05ea-42bb-8878-367e4cf20bbb"},"vehicle_type_id":"4","last_reported":1748707875,"current_range_meters":9200,"station_id":"ce4bgvp2rcd13ifvqcu0","pricing_plan_id":"cebpf4jnsgd1na2vs0mg"},{"bike_id":"71fac23b-746d-431d-a01d-3a89c9453350","system_id":"levelo_inurba_marseille","lat":43.29198,"lon":5.39325,"is_reserved":false,"is_disabled":false,"rental_uris":{"android":"levelo://app?vid=71fac23b-746d-431d-a01d-3a89c9453350","ios":"levelo://app?vid=71fac23b-746d-431d-a01d-3a89c9453350"},"vehicle_type_id":"4","last_reported":1748707875,"current_range_meters":9200,"station_id":"ce4bh192rcd13ifvqdd0","pricing_plan_id":"cebpf4jnsgd1na2vs0mg"},{"bike_id":"66510c02-e642-40e2-bbe0-ce3374f77b8e","system_id":"levelo_inurba_marseille","lat":43.29021,"lon":5.38131,"is_reserved":false,"is_disabled":false,"rental_uris":{"android":"levelo://app?vid=66510c02-e642-40e2-bbe0-ce3374f77b8e","ios":"levelo://app?vid=66510c02-e642-40e2-bbe0-ce3374f77b8e"},"vehicle_type_id":"4","last_reported":1748707875,"current_range_meters":9200,"station_id":"ce4bh4p2rcd13ifvqe1g","pricing_plan_id":"cebpf4jnsgd1na2vs0mg"},{"bike_id":"ca27e01b-9829-4b3d-aba2-ae571050248b","system_id":"levelo_inurba_marseille","lat":43.27372,"lon":5.36258,"is_reserved":false,"is_disabled":false,"rental_uris":{"android":"levelo://app?vid=ca27e01b-9829-4b3d-aba2-ae571050248b","ios":"levelo://app?vid=ca27e01b-9829-4b3d-aba2-ae571050248b"},"vehicle_type_id":"4","last_reported":1748707875,"current_range_meters":9200,"station_id":"ce4bhbh2rcd13ifvqeo0","pricing_plan_id":"cebpf4jnsgd1na2vs0mg"},{"bike_id":"e62a208c-23d3-4f22-bdab-aa660ac5353a","system_id":"levelo_inurba_marseille","lat":43.26214,"lon":5.3792,"is_reserved":false,"is_disabled":false,"rental_uris":{"android":"levelo://app?vid=e62a208c-23d3-4f22-bdab-aa660ac5353a","ios":"levelo://app?vid=e62a208c-23d3-4f22-bdab-aa660ac5353a"},"vehicle_type_id":"4","last_reported":1748707875,"current_range_meters":9200,"station_id":"ce4bhjp2rcd13ifvqg90","pricing_plan_id":"cebpf4jnsgd1na2vs0mg"},{"bike_id":"f0012670-04e8-44ad-ae17-5630e3d7eeb8","system_id":"levelo_inurba_marseille","lat":43.23191,"lon":5.39993,"is_reserved":false,"is_disabled":false,"rental_uris":{"android":"levelo://app?vid=f0012670-04e8-44ad-ae17-5630e3d7eeb8","ios":"levelo://app?vid=f0012670-04e8-44ad-ae17-5630e3d7eeb8"},"vehicle_type_id":"4","last_reported":1748707875,"current_range_meters":9200,"station_id":"ce4bhn12rcd13ifvqgqg","pricing_plan_id":"cebpf4jnsgd1na2vs0mg"},{"bike_id":"7a9aa3ce-61d3-42ca-8daa-e3d734a41c89","system_id":"levelo_inurba_marseille","lat":43.231954,"lon":5.355473,"is_reserved":false,"is_disabled":false,"rental_uris":{"android":"levelo://app?vid=7a9aa3ce-61d3-42ca-8daa-e3d734a41c89","ios":"levelo://app?vid=7a9aa3ce-61d3-42ca-8daa-e3d734a41c89"},"vehicle_type_id":"4","last_reported":1748707875,"current_range_meters":9200,"station_id":"ce4bhu92rcd13ifvqi70","pricing_plan_id":"cebpf4jnsgd1na2vs0mg"},{"bike_id":"8d48119e-760e-4c00-b401-59af0a322afa","system_id":"levelo_inurba_marseille","lat":43.25658,"lon":5.40875,"is_reserved":false,"is_disabled":false,"rental_uris":{"android":"levelo://app?vid=8d48119e-760e-4c00-b401-59af0a322afa","ios":"levelo://app?vid=8d48119e-760e-4c00-b401-59af0a322afa"},"vehicle_type_id":"4","last_reported":1748707875,"current_range_meters":9600,"station_id":"","pricing_plan_id":"cebpf4jnsgd1na2vs0mg"},{"bike_id":"8b3b3bb3-d759-4139-ba32-82ff9dfe5b17","system_id":"levelo_inurba_marseille","lat":43.29058,"lon":5.37149,"is_reserved":false,"is_disabled":false,"rental_uris":{"android":"levelo://app?vid=8b3b3bb3-d759-4139-ba32-82ff9dfe5b17","ios":"levelo://app?vid=8b3b3bb3-d759-4139-ba32-82ff9dfe5b17"},"vehicle_type_id":"4","last_reported":1748707875,"current_range_meters":9600,"station_id":"ce4bh5p2rcd13ifvqe4g","pricing_plan_id":"cebpf4jnsgd1na2vs0mg"},{"bike_id":"40d4f79e-dc8e-4432-97f7-947d74aa4d70","system_id":"levelo_inurba_marseille","lat":43.2841,"lon":5.34995,"is_reserved":false,"is_disabled":false,"rental_uris":{"android":"levelo://app?vid=40d4f79e-dc8e-4432-97f7-947d74aa4d70","ios":"levelo://app?vid=40d4f79e-dc8e-4432-97f7-947d74aa4d70"},"vehicle_type_id":"4","last_reported":1748707875,"current_range_meters":9600,"station_id":"ce4bhbh2rcd13ifvqepg","pricing_plan_id":"cebpf4jnsgd1na2vs0mg"},{"bike_id":"79639c6f-946c-4065-9a6b-c3714d281b65","system_id":"levelo_inurba_marseille","lat":43.27812,"lon":5.40713,"is_reserved":false,"is_disabled":false,"rental_uris":{"android":"levelo://app?vid=79639c6f-946c-4065-9a6b-c3714d281b65","ios":"levelo://app?vid=79639c6f-946c-4065-9a6b-c3714d281b65"},"vehicle_type_id":"4","last_reported":1748707875,"current_range_meters":9600,"station_id":"ce4bhnh2rcd13ifvqgtg","pricing_plan_id":"cebpf4jnsgd1na2vs0mg"},{"bike_id":"6e0fbed4-cb97-4861-9c22-9a4790a7fe29","system_id":"levelo_inurba_marseille","lat":43.3171,"lon":5.43708,"is_reserved":false,"is_disabled":false,"rental_uris":{"android":"levelo://app?vid=6e0fbed4-cb97-4861-9c22-9a4790a7fe29","ios":"levelo://app?vid=6e0fbed4-cb97-4861-9c22-9a4790a7fe29"},"vehicle_type_id":"4","last_reported":1748707875,"current_range_meters":9600,"station_id":"ce4bhp92rcd13ifvqhcg","pricing_plan_id":"cebpf4jnsgd1na2vs0mg"},{"bike_id":"5e80019e-6fce-4b59-8bb3-c2fd7cfcdf11","system_id":"levelo_inurba_marseille","lat":43.23195,"lon":5.35553,"is_reserved":false,"is_disabled":false,"rental_uris":{"android":"levelo://app?vid=5e80019e-6fce-4b59-8bb3-c2fd7cfcdf11","ios":"levelo://app?vid=5e80019e-6fce-4b59-8bb3-c2fd7cfcdf11"},"vehicle_type_id":"4","last_reported":1748707875,"current_range_meters":9600,"station_id":"ce4bhu92rcd13ifvqi70","pricing_plan_id":"cebpf4jnsgd1na2vs0mg"},{"bike_id":"90661731-e0ab-494e-b197-0ad194ea14f4","system_id":"levelo_inurba_marseille","lat":43.269067,"lon":5.40284,"is_reserved":false,"is_disabled":false,"rental_uris":{"android":"levelo://app?vid=90661731-e0ab-494e-b197-0ad194ea14f4","ios":"levelo://app?vid=90661731-e0ab-494e-b197-0ad194ea14f4"},"vehicle_type_id":"4","last_reported":1748707875,"current_range_meters":10000,"station_id":"","pricing_plan_id":"cebpf4jnsgd1na2vs0mg"},{"bike_id":"b4e37ba1-6d68-4b26-95f1-da182f892736","system_id":"levelo_inurba_marseille","lat":43.2893,"lon":5.36396,"is_reserved":false,"is_disabled":false,"rental_uris":{"android":"levelo://app?vid=b4e37ba1-6d68-4b26-95f1-da182f892736","ios":"levelo://app?vid=b4e37ba1-6d68-4b26-95f1-da182f892736"},"vehicle_type_id":"4","last_reported":1748707875,"current_range_meters":10000,"station_id":"","pricing_plan_id":"cebpf4jnsgd1na2vs0mg"},{"bike_id":"716ada69-eccb-47d1-9fae-b671b0b30ca1","system_id":"levelo_inurba_marseille","lat":43.30558,"lon":5.3655,"is_reserved":false,"is_disabled":false,"rental_uris":{"android":"levelo://app?vid=716ada69-eccb-47d1-9fae-b671b0b30ca1","ios":"levelo://app?vid=716ada69-eccb-47d1-9fae-b671b0b30ca1"},"vehicle_type_id":"4","last_reported":1748707875,"current_range_meters":10000,"station_id":"ce4bgs12rcd13ifvqcag","pricing_plan_id":"cebpf4jnsgd1na2vs0mg"},{"bike_id":"b8368e22-1057-47b4-a588-c49593d55ce5","system_id":"levelo_inurba_marseille","lat":43.30946,"lon":5.39043,"is_reserved":false,"is_disabled":false,"rental_uris":{"android":"levelo://app?vid=b8368e22-1057-47b4-a588-c49593d55ce5","ios":"levelo://app?vid=b8368e22-1057-47b4-a588-c49593d55ce5"},"vehicle_type_id":"4","last_reported":1748707875,"current_range_meters":10000,"station_id":"ce4bgup2rcd13ifvqco0","pricing_plan_id":"cebpf4jnsgd1na2vs0mg"},{"bike_id":"b18036e4-cdbb-441f-a4f1-99c9cdbece34","system_id":"levelo_inurba_marseille","lat":43.29499,"lon":5.39061,"is_reserved":false,"is_disabled":false,"rental_uris":{"android":"levelo://app?vid=b18036e4-cdbb-441f-a4f1-99c9cdbece34","ios":"levelo://app?vid=b18036e4-cdbb-441f-a4f1-99c9cdbece34"},"vehicle_type_id":"4","last_reported":1748707875,"current_range_meters":10000,"station_id":"ce4bh3p2rcd13ifvqdp0","pricing_plan_id":"cebpf4jnsgd1na2vs0mg"},{"bike_id":"9c35a4e5-0c2c-4fd2-91a9-0fbeab4c095f","system_id":"levelo_inurba_marseille","lat":43.27376,"lon":5.36258,"is_reserved":false,"is_disabled":false,"rental_uris":{"android":"levelo://app?vid=9c35a4e5-0c2c-4fd2-91a9-0fbeab4c095f","ios":"levelo://app?vid=9c35a4e5-0c2c-4fd2-91a9-0fbeab4c095f"},"vehicle_type_id":"4","last_reported":1748707875,"current_range_meters":10000,"station_id":"ce4bhbh2rcd13ifvqeo0","pricing_plan_id":"cebpf4jnsgd1na2vs0mg"},{"bike_id":"e1498da1-60f1-412c-bc86-31407ba046e5","system_id":"levelo_inurba_marseille","lat":43.28404,"lon":5.34993,"is_reserved":false,"is_disabled":false,"rental_uris":{"android":"levelo://app?vid=e1498da1-60f1-412c-bc86-31407ba046e5","ios":"levelo://app?vid=e1498da1-60f1-412c-bc86-31407ba046e5"},"vehicle_type_id":"4","last_reported":1748707875,"current_range_meters":10000,"station_id":"ce4bhbh2rcd13ifvqepg","pricing_plan_id":"cebpf4jnsgd1na2vs0mg"},{"bike_id":"392a68ac-fff4-45ac-8bf1-87ec938f1cf5","system_id":"levelo_inurba_marseille","lat":43.232007,"lon":5.355454,"is_reserved":false,"is_disabled":false,"rental_uris":{"android":"levelo://app?vid=392a68ac-fff4-45ac-8bf1-87ec938f1cf5","ios":"levelo://app?vid=392a68ac-fff4-45ac-8bf1-87ec938f1cf5"},"vehicle_type_id":"4","last_reported":1748707875,"current_range_meters":10000,"station_id":"ce4bhu92rcd13ifvqi70","pricing_plan_id":"cebpf4jnsgd1na2vs0mg"},{"bike_id":"a14d8e40-c994-4f1c-b643-8a3b58a2eb79","system_id":"levelo_inurba_marseille","lat":43.29199,"lon":5.37227,"is_reserved":false,"is_disabled":false,"rental_uris":{"android":"levelo://app?vid=a14d8e40-c994-4f1c-b643-8a3b58a2eb79","ios":"levelo://app?vid=a14d8e40-c994-4f1c-b643-8a3b58a2eb79"},"vehicle_type_id":"4","last_reported":1748707875,"current_range_meters":10800,"station_id":"","pricing_plan_id":"cebpf4jnsgd1na2vs0mg"},{"bike_id":"16956ecc-ed47-44a5-bf64-7ac7c0de85fa","system_id":"levelo_inurba_marseille","lat":43.31901,"lon":5.36525,"is_reserved":false,"is_disabled":false,"rental_uris":{"android":"levelo://app?vid=16956ecc-ed47-44a5-bf64-7ac7c0de85fa","ios":"levelo://app?vid=16956ecc-ed47-44a5-bf64-7ac7c0de85fa"},"vehicle_type_id":"4","last_reported":1748707875,"current_range_meters":10800,"station_id":"","pricing_plan_id":"cebpf4jnsgd1na2vs0mg"},{"bike_id":"4d5adf57-9d9f-49d9-bf88-53dcc8f940a5","system_id":"levelo_inurba_marseille","lat":43.30941,"lon":5.40146,"is_reserved":false,"is_disabled":false,"rental_uris":{"android":"levelo://app?vid=4d5adf57-9d9f-49d9-bf88-53dcc8f940a5","ios":"levelo://app?vid=4d5adf57-9d9f-49d9-bf88-53dcc8f940a5"},"vehicle_type_id":"4","last_reported":1748707875,"current_range_meters":10800,"station_id":"ce4bgvp2rcd13ifvqct0","pricing_plan_id":"cebpf4jnsgd1na2vs0mg"},{"bike_id":"e6598bae-9d9c-4bb6-a2a5-e7ce0f43f685","system_id":"levelo_inurba_marseille","lat":43.29532,"lon":5.39392,"is_reserved":false,"is_disabled":false,"rental_uris":{"android":"levelo://app?vid=e6598bae-9d9c-4bb6-a2a5-e7ce0f43f685","ios":"levelo://app?vid=e6598bae-9d9c-4bb6-a2a5-e7ce0f43f685"},"vehicle_type_id":"4","last_reported":1748707875,"current_range_meters":10800,"station_id":"ce4bh292rcd13ifvqdf0","pricing_plan_id":"cebpf4jnsgd1na2vs0mg"},{"bike_id":"4aaed535-6bbf-4279-a910-819b27cf22cb","system_id":"levelo_inurba_marseille","lat":43.29038,"lon":5.39969,"is_reserved":false,"is_disabled":false,"rental_uris":{"android":"levelo://app?vid=4aaed535-6bbf-4279-a910-819b27cf22cb","ios":"levelo://app?vid=4aaed535-6bbf-4279-a910-819b27cf22cb"},"vehicle_type_id":"4","last_reported":1748707875,"current_range_meters":10800,"station_id":"ce4bh392rcd13ifvqdm0","pricing_plan_id":"cebpf4jnsgd1na2vs0mg"},{"bike_id":"b28abc00-7db7-4211-9853-5715e0eeb4ff","system_id":"levelo_inurba_marseille","lat":43.27057,"lon":5.40262,"is_reserved":false,"is_disabled":false,"rental_uris":{"android":"levelo://app?vid=b28abc00-7db7-4211-9853-5715e0eeb4ff","ios":"levelo://app?vid=b28abc00-7db7-4211-9853-5715e0eeb4ff"},"vehicle_type_id":"4","last_reported":1748707875,"current_range_meters":10800,"station_id":"ce4bhk92rcd13ifvqgc0","pricing_plan_id":"cebpf4jnsgd1na2vs0mg"},{"bike_id":"f4e49996-ce0c-42e7-9a15-35b5f4497b3e","system_id":"levelo_inurba_marseille","lat":43.32285,"lon":5.38275,"is_reserved":false,"is_disabled":false,"rental_uris":{"android":"levelo://app?vid=f4e49996-ce0c-42e7-9a15-35b5f4497b3e","ios":"levelo://app?vid=f4e49996-ce0c-42e7-9a15-35b5f4497b3e"},"vehicle_type_id":"4","last_reported":1748707875,"current_range_meters":10800,"station_id":"ce4bhr12rcd13ifvqhqg","pricing_plan_id":"cebpf4jnsgd1na2vs0mg"},{"bike_id":"965f07d7-e957-45ef-953c-8871a1c8c78d","system_id":"levelo_inurba_marseille","lat":43.23203,"lon":5.35581,"is_reserved":false,"is_disabled":false,"rental_uris":{"android":"levelo://app?vid=965f07d7-e957-45ef-953c-8871a1c8c78d","ios":"levelo://app?vid=965f07d7-e957-45ef-953c-8871a1c8c78d"},"vehicle_type_id":"4","last_reported":1748707875,"current_range_meters":10800,"station_id":"ce4bhu92rcd13ifvqi70","pricing_plan_id":"cebpf4jnsgd1na2vs0mg"},{"bike_id":"368cd435-3da2-44e9-9905-40ff18249573","system_id":"levelo_inurba_marseille","lat":43.22926,"lon":5.35375,"is_reserved":false,"is_disabled":false,"rental_uris":{"android":"levelo://app?vid=368cd435-3da2-44e9-9905-40ff18249573","ios":"levelo://app?vid=368cd435-3da2-44e9-9905-40ff18249573"},"vehicle_type_id":"4","last_reported":1748707875,"current_range_meters":11200,"station_id":"","pricing_plan_id":"cebpf4jnsgd1na2vs0mg"},{"bike_id":"8c45a7ff-67ec-47dc-a6d9-99eb15a52d15","system_id":"levelo_inurba_marseille","lat":43.30945,"lon":5.39036,"is_reserved":false,"is_disabled":false,"rental_uris":{"android":"levelo://app?vid=8c45a7ff-67ec-47dc-a6d9-99eb15a52d15","ios":"levelo://app?vid=8c45a7ff-67ec-47dc-a6d9-99eb15a52d15"},"vehicle_type_id":"4","last_reported":1748707875,"current_range_meters":11200,"station_id":"ce4bgup2rcd13ifvqco0","pricing_plan_id":"cebpf4jnsgd1na2vs0mg"},{"bike_id":"d2c655d4-e408-4f55-a6ed-747e95c58640","system_id":"levelo_inurba_marseille","lat":43.26197,"lon":5.37462,"is_reserved":false,"is_disabled":false,"rental_uris":{"android":"levelo://app?vid=d2c655d4-e408-4f55-a6ed-747e95c58640","ios":"levelo://app?vid=d2c655d4-e408-4f55-a6ed-747e95c58640"},"vehicle_type_id":"4","last_reported":1748707875,"current_range_meters":11200,"station_id":"ce4bhgp2rcd13ifvqfc0","pricing_plan_id":"cebpf4jnsgd1na2vs0mg"},{"bike_id":"7a2a1331-39d3-4970-ab27-3b8dab135599","system_id":"levelo_inurba_marseille","lat":43.26204,"lon":5.37929,"is_reserved":false,"is_disabled":false,"rental_uris":{"android":"levelo://app?vid=7a2a1331-39d3-4970-ab27-3b8dab135599","ios":"levelo://app?vid=7a2a1331-39d3-4970-ab27-3b8dab135599"},"vehicle_type_id":"4","last_reported":1748707875,"current_range_meters":11200,"station_id":"ce4bhjp2rcd13ifvqg90","pricing_plan_id":"cebpf4jnsgd1na2vs0mg"},{"bike_id":"a7bc0857-ba13-43fa-9be2-c26b232e5a26","system_id":"levelo_inurba_marseille","lat":43.25941,"lon":5.40865,"is_reserved":false,"is_disabled":false,"rental_uris":{"android":"levelo://app?vid=a7bc0857-ba13-43fa-9be2-c26b232e5a26","ios":"levelo://app?vid=a7bc0857-ba13-43fa-9be2-c26b232e5a26"},"vehicle_type_id":"4","last_reported":1748707875,"current_range_meters":11200,"station_id":"ce4bhm92rcd13ifvqglg","pricing_plan_id":"cebpf4jnsgd1na2vs0mg"},{"bike_id":"76a945ba-9ba8-414f-963a-73e1a106e0fc","system_id":"levelo_inurba_marseille","lat":43.26235,"lon":5.40446,"is_reserved":false,"is_disabled":false,"rental_uris":{"android":"levelo://app?vid=76a945ba-9ba8-414f-963a-73e1a106e0fc","ios":"levelo://app?vid=76a945ba-9ba8-414f-963a-73e1a106e0fc"},"vehicle_type_id":"4","last_reported":1748707875,"current_range_meters":11200,"station_id":"ce4bhmh2rcd13ifvqgmg","pricing_plan_id":"cebpf4jnsgd1na2vs0mg"},{"bike_id":"88156d05-def4-4b36-a01c-bf5f823d7052","system_id":"levelo_inurba_marseille","lat":43.269423,"lon":5.402957,"is_reserved":false,"is_disabled":false,"rental_uris":{"android":"levelo://app?vid=88156d05-def4-4b36-a01c-bf5f823d7052","ios":"levelo://app?vid=88156d05-def4-4b36-a01c-bf5f823d7052"},"vehicle_type_id":"4","last_reported":1748707875,"current_range_meters":11200,"station_id":"cjm6bp8fraef2m0cb0m0","pricing_plan_id":"cebpf4jnsgd1na2vs0mg"},{"bike_id":"ce8fe27d-212f-40a5-8b3f-f2b55e454691","system_id":"levelo_inurba_marseille","lat":43.24166,"lon":5.36393,"is_reserved":false,"is_disabled":false,"rental_uris":{"android":"levelo://app?vid=ce8fe27d-212f-40a5-8b3f-f2b55e454691","ios":"levelo://app?vid=ce8fe27d-212f-40a5-8b3f-f2b55e454691"},"vehicle_type_id":"4","last_reported":1748707875,"current_range_meters":11200,"station_id":"cpo36qri1sfpv3e86is0","pricing_plan_id":"cebpf4jnsgd1na2vs0mg"},{"bike_id":"7f08a69a-2d5b-48e6-8e97-32333e7c1f12","system_id":"levelo_inurba_marseille","lat":43.25462,"lon":5.37545,"is_reserved":false,"is_disabled":false,"rental_uris":{"android":"levelo://app?vid=7f08a69a-2d5b-48e6-8e97-32333e7c1f12","ios":"levelo://app?vid=7f08a69a-2d5b-48e6-8e97-32333e7c1f12"},"vehicle_type_id":"4","last_reported":1748707875,"current_range_meters":12000,"station_id":"","pricing_plan_id":"cebpf4jnsgd1na2vs0mg"},{"bike_id":"94f63bd5-bb97-4605-bdcf-194cf7f3e9f9","system_id":"levelo_inurba_marseille","lat":43.29271,"lon":5.36843,"is_reserved":false,"is_disabled":false,"rental_uris":{"android":"levelo://app?vid=94f63bd5-bb97-4605-bdcf-194cf7f3e9f9","ios":"levelo://app?vid=94f63bd5-bb97-4605-bdcf-194cf7f3e9f9"},"vehicle_type_id":"4","last_reported":1748707875,"current_range_meters":12000,"station_id":"ce4bhbp2rcd13ifvqesg","pricing_plan_id":"cebpf4jnsgd1na2vs0mg"},{"bike_id":"957751ef-9797-4095-ab82-82131fee651d","system_id":"levelo_inurba_marseille","lat":43.31225,"lon":5.3687,"is_reserved":false,"is_disabled":false,"rental_uris":{"android":"levelo://app?vid=957751ef-9797-4095-ab82-82131fee651d","ios":"levelo://app?vid=957751ef-9797-4095-ab82-82131fee651d"},"vehicle_type_id":"4","last_reported":1748707875,"current_range_meters":12400,"station_id":"ce4bgl92rcd13ifvqbq0","pricing_plan_id":"cebpf4jnsgd1na2vs0mg"},{"bike_id":"4b9463a2-2bf7-4bea-8839-8e26f9adc0af","system_id":"levelo_inurba_marseille","lat":43.27961,"lon":5.38721,"is_reserved":false,"is_disabled":false,"rental_uris":{"android":"levelo://app?vid=4b9463a2-2bf7-4bea-8839-8e26f9adc0af","ios":"levelo://app?vid=4b9463a2-2bf7-4bea-8839-8e26f9adc0af"},"vehicle_type_id":"4","last_reported":1748707875,"current_range_meters":12400,"station_id":"ce4bhg12rcd13ifvqf80","pricing_plan_id":"cebpf4jnsgd1na2vs0mg"},{"bike_id":"e6bf0c37-d2a0-4cf7-bda5-bdec7e2a1f23","system_id":"levelo_inurba_marseille","lat":43.32285,"lon":5.38279,"is_reserved":false,"is_disabled":false,"rental_uris":{"android":"levelo://app?vid=e6bf0c37-d2a0-4cf7-bda5-bdec7e2a1f23","ios":"levelo://app?vid=e6bf0c37-d2a0-4cf7-bda5-bdec7e2a1f23"},"vehicle_type_id":"4","last_reported":1748707875,"current_range_meters":12400,"station_id":"ce4bhr12rcd13ifvqhqg","pricing_plan_id":"cebpf4jnsgd1na2vs0mg"},{"bike_id":"b4a389d7-474d-4a9d-8dec-223a88612b5c","system_id":"levelo_inurba_marseille","lat":43.24991,"lon":5.37947,"is_reserved":false,"is_disabled":false,"rental_uris":{"android":"levelo://app?vid=b4a389d7-474d-4a9d-8dec-223a88612b5c","ios":"levelo://app?vid=b4a389d7-474d-4a9d-8dec-223a88612b5c"},"vehicle_type_id":"4","last_reported":1748707875,"current_range_meters":12800,"station_id":"","pricing_plan_id":"cebpf4jnsgd1na2vs0mg"},{"bike_id":"8f0300e4-899f-4e13-b8a7-90f137ab1640","system_id":"levelo_inurba_marseille","lat":43.27059,"lon":5.39306,"is_reserved":false,"is_disabled":false,"rental_uris":{"android":"levelo://app?vid=8f0300e4-899f-4e13-b8a7-90f137ab1640","ios":"levelo://app?vid=8f0300e4-899f-4e13-b8a7-90f137ab1640"},"vehicle_type_id":"4","last_reported":1748707875,"current_range_meters":12800,"station_id":"","pricing_plan_id":"cebpf4jnsgd1na2vs0mg"},{"bike_id":"14036455-f919-44f7-8d5e-0b2e84f48674","system_id":"levelo_inurba_marseille","lat":43.309261,"lon":5.403928,"is_reserved":false,"is_disabled":false,"rental_uris":{"android":"levelo://app?vid=14036455-f919-44f7-8d5e-0b2e84f48674","ios":"levelo://app?vid=14036455-f919-44f7-8d5e-0b2e84f48674"},"vehicle_type_id":"4","last_reported":1748707875,"current_range_meters":12800,"station_id":"","pricing_plan_id":"cebpf4jnsgd1na2vs0mg"},{"bike_id":"b1879598-d223-4e1a-9eb2-48abae489331","system_id":"levelo_inurba_marseille","lat":43.27947,"lon":5.41049,"is_reserved":false,"is_disabled":false,"rental_uris":{"android":"levelo://app?vid=b1879598-d223-4e1a-9eb2-48abae489331","ios":"levelo://app?vid=b1879598-d223-4e1a-9eb2-48abae489331"},"vehicle_type_id":"4","last_reported":1748707875,"current_range_meters":12800,"station_id":"ce4bhnp2rcd13ifvqh0g","pricing_plan_id":"cebpf4jnsgd1na2vs0mg"},{"bike_id":"e57e8256-abb4-45db-9e2c-03399c534d7c","system_id":"levelo_inurba_marseille","lat":43.28038,"lon":5.36943,"is_reserved":false,"is_disabled":false,"rental_uris":{"android":"levelo://app?vid=e57e8256-abb4-45db-9e2c-03399c534d7c","ios":"levelo://app?vid=e57e8256-abb4-45db-9e2c-03399c534d7c"},"vehicle_type_id":"4","last_reported":1748707875,"current_range_meters":13600,"station_id":"ce4bha12rcd13ifvqef0","pricing_plan_id":"cebpf4jnsgd1na2vs0mg"},{"bike_id":"2dac5e17-977f-4b85-9fd9-b18b1c7cc10d","system_id":"levelo_inurba_marseille","lat":43.28721,"lon":5.37938,"is_reserved":false,"is_disabled":false,"rental_uris":{"android":"levelo://app?vid=2dac5e17-977f-4b85-9fd9-b18b1c7cc10d","ios":"levelo://app?vid=2dac5e17-977f-4b85-9fd9-b18b1c7cc10d"},"vehicle_type_id":"4","last_reported":1748707875,"current_range_meters":14000,"station_id":"ce4bh9p2rcd13ifvqec0","pricing_plan_id":"cebpf4jnsgd1na2vs0mg"},{"bike_id":"c8e92bac-4f99-4fd0-8c75-14b61177e7eb","system_id":"levelo_inurba_marseille","lat":43.2667,"lon":5.38245,"is_reserved":false,"is_disabled":false,"rental_uris":{"android":"levelo://app?vid=c8e92bac-4f99-4fd0-8c75-14b61177e7eb","ios":"levelo://app?vid=c8e92bac-4f99-4fd0-8c75-14b61177e7eb"},"vehicle_type_id":"4","last_reported":1748707875,"current_range_meters":14000,"station_id":"ce4bhg92rcd13ifvqf90","pricing_plan_id":"cebpf4jnsgd1na2vs0mg"},{"bike_id":"44d47a6d-00dd-47ec-9145-85f3a2d65064","system_id":"levelo_inurba_marseille","lat":43.26032,"lon":5.37554,"is_reserved":false,"is_disabled":false,"rental_uris":{"android":"levelo://app?vid=44d47a6d-00dd-47ec-9145-85f3a2d65064","ios":"levelo://app?vid=44d47a6d-00dd-47ec-9145-85f3a2d65064"},"vehicle_type_id":"4","last_reported":1748707875,"current_range_meters":14000,"station_id":"ce4bhgh2rcd13ifvqfa0","pricing_plan_id":"cebpf4jnsgd1na2vs0mg"},{"bike_id":"6ed55149-3885-4d79-9258-92dd0e6edb38","system_id":"levelo_inurba_marseille","lat":43.24661,"lon":5.38165,"is_reserved":false,"is_disabled":false,"rental_uris":{"android":"levelo://app?vid=6ed55149-3885-4d79-9258-92dd0e6edb38","ios":"levelo://app?vid=6ed55149-3885-4d79-9258-92dd0e6edb38"},"vehicle_type_id":"4","last_reported":1748707875,"current_range_meters":14000,"station_id":"ce4bhih2rcd13ifvqfr0","pricing_plan_id":"cebpf4jnsgd1na2vs0mg"},{"bike_id":"933d6a19-e214-4632-86b6-7ae5429f8198","system_id":"levelo_inurba_marseille","lat":43.2587,"lon":5.39896,"is_reserved":false,"is_disabled":false,"rental_uris":{"android":"levelo://app?vid=933d6a19-e214-4632-86b6-7ae5429f8198","ios":"levelo://app?vid=933d6a19-e214-4632-86b6-7ae5429f8198"},"vehicle_type_id":"4","last_reported":1748707875,"current_range_meters":14000,"station_id":"ce4bhl92rcd13ifvqghg","pricing_plan_id":"cebpf4jnsgd1na2vs0mg"},{"bike_id":"d94ad4e9-ef56-400a-81a8-14ac56c6093e","system_id":"levelo_inurba_marseille","lat":43.21747,"lon":5.34629,"is_reserved":false,"is_disabled":false,"rental_uris":{"android":"levelo://app?vid=d94ad4e9-ef56-400a-81a8-14ac56c6093e","ios":"levelo://app?vid=d94ad4e9-ef56-400a-81a8-14ac56c6093e"},"vehicle_type_id":"4","last_reported":1748707875,"current_range_meters":14000,"station_id":"st_cvj6r9ubvosntc0bgbag","pricing_plan_id":"cebpf4jnsgd1na2vs0mg"},{"bike_id":"ad1963ea-5722-48c9-8405-06965a9690f0","system_id":"levelo_inurba_marseille","lat":43.29192,"lon":5.35802,"is_reserved":false,"is_disabled":false,"rental_uris":{"android":"levelo://app?vid=ad1963ea-5722-48c9-8405-06965a9690f0","ios":"levelo://app?vid=ad1963ea-5722-48c9-8405-06965a9690f0"},"vehicle_type_id":"4","last_reported":1748707875,"current_range_meters":14400,"station_id":"ce4bhb12rcd13ifvqel0","pricing_plan_id":"cebpf4jnsgd1na2vs0mg"},{"bike_id":"da9af484-7d4a-4c2c-a691-577c78579174","system_id":"levelo_inurba_marseille","lat":43.28271,"lon":5.35061,"is_reserved":false,"is_disabled":false,"rental_uris":{"android":"levelo://app?vid=da9af484-7d4a-4c2c-a691-577c78579174","ios":"levelo://app?vid=da9af484-7d4a-4c2c-a691-577c78579174"},"vehicle_type_id":"4","last_reported":1748707875,"current_range_meters":14400,"station_id":"ce4bhbp2rcd13ifvqerg","pricing_plan_id":"cebpf4jnsgd1na2vs0mg"},{"bike_id":"298fbd09-84f3-460e-bdd5-72fde19aa2fe","system_id":"levelo_inurba_marseille","lat":43.2557,"lon":5.38202,"is_reserved":false,"is_disabled":false,"rental_uris":{"android":"levelo://app?vid=298fbd09-84f3-460e-bdd5-72fde19aa2fe","ios":"levelo://app?vid=298fbd09-84f3-460e-bdd5-72fde19aa2fe"},"vehicle_type_id":"4","last_reported":1748707875,"current_range_meters":14400,"station_id":"ce4bhih2rcd13ifvqfs0","pricing_plan_id":"cebpf4jnsgd1na2vs0mg"},{"bike_id":"5a3be0fa-0605-475b-bb82-cae4c12c7b45","system_id":"levelo_inurba_marseille","lat":43.27832,"lon":5.39208,"is_reserved":false,"is_disabled":false,"rental_uris":{"android":"levelo://app?vid=5a3be0fa-0605-475b-bb82-cae4c12c7b45","ios":"levelo://app?vid=5a3be0fa-0605-475b-bb82-cae4c12c7b45"},"vehicle_type_id":"4","last_reported":1748707875,"current_range_meters":14400,"station_id":"ce4bhjp2rcd13ifvqga0","pricing_plan_id":"cebpf4jnsgd1na2vs0mg"},{"bike_id":"9d8cee6d-2b73-408f-93de-72b2b1a1ef56","system_id":"levelo_inurba_marseille","lat":43.30194,"lon":5.36618,"is_reserved":false,"is_disabled":false,"rental_uris":{"android":"levelo://app?vid=9d8cee6d-2b73-408f-93de-72b2b1a1ef56","ios":"levelo://app?vid=9d8cee6d-2b73-408f-93de-72b2b1a1ef56"},"vehicle_type_id":"4","last_reported":1748707875,"current_range_meters":14800,"station_id":"ce4bgrh2rcd13ifvqc8g","pricing_plan_id":"cebpf4jnsgd1na2vs0mg"},{"bike_id":"d6705d53-8d5c-4980-9a08-0aa00130d2b0","system_id":"levelo_inurba_marseille","lat":43.28614,"lon":5.35104,"is_reserved":false,"is_disabled":false,"rental_uris":{"android":"levelo://app?vid=d6705d53-8d5c-4980-9a08-0aa00130d2b0","ios":"levelo://app?vid=d6705d53-8d5c-4980-9a08-0aa00130d2b0"},"vehicle_type_id":"4","last_reported":1748707875,"current_range_meters":14800,"station_id":"ce4bhch2rcd13ifvqeug","pricing_plan_id":"cebpf4jnsgd1na2vs0mg"},{"bike_id":"792b8862-e581-44be-8ddc-645d1733b829","system_id":"levelo_inurba_marseille","lat":43.28634,"lon":5.37098,"is_reserved":false,"is_disabled":false,"rental_uris":{"android":"levelo://app?vid=792b8862-e581-44be-8ddc-645d1733b829","ios":"levelo://app?vid=792b8862-e581-44be-8ddc-645d1733b829"},"vehicle_type_id":"4","last_reported":1748707875,"current_range_meters":15200,"station_id":"ce4bht12rcd13ifvqi60","pricing_plan_id":"cebpf4jnsgd1na2vs0mg"},{"bike_id":"9a189ee8-27ed-444b-b171-f705371af28f","system_id":"levelo_inurba_marseille","lat":43.28263,"lon":5.3493,"is_reserved":false,"is_disabled":false,"rental_uris":{"android":"levelo://app?vid=9a189ee8-27ed-444b-b171-f705371af28f","ios":"levelo://app?vid=9a189ee8-27ed-444b-b171-f705371af28f"},"vehicle_type_id":"4","last_reported":1748707875,"current_range_meters":16000,"station_id":"","pricing_plan_id":"cebpf4jnsgd1na2vs0mg"},{"bike_id":"d95a8927-9413-4ee6-b8dd-9b96d5af8d5e","system_id":"levelo_inurba_marseille","lat":43.28363,"lon":5.35031,"is_reserved":false,"is_disabled":false,"rental_uris":{"android":"levelo://app?vid=d95a8927-9413-4ee6-b8dd-9b96d5af8d5e","ios":"levelo://app?vid=d95a8927-9413-4ee6-b8dd-9b96d5af8d5e"},"vehicle_type_id":"4","last_reported":1748707875,"current_range_meters":16000,"station_id":"","pricing_plan_id":"cebpf4jnsgd1na2vs0mg"},{"bike_id":"e210be7e-07b8-44d3-ae09-6702f28e2ae8","system_id":"levelo_inurba_marseille","lat":43.2513,"lon":5.39356,"is_reserved":false,"is_disabled":false,"rental_uris":{"android":"levelo://app?vid=e210be7e-07b8-44d3-ae09-6702f28e2ae8","ios":"levelo://app?vid=e210be7e-07b8-44d3-ae09-6702f28e2ae8"},"vehicle_type_id":"4","last_reported":1748707875,"current_range_meters":16000,"station_id":"","pricing_plan_id":"cebpf4jnsgd1na2vs0mg"},{"bike_id":"9a54888c-962c-4a31-9566-bdbc36327ea3","system_id":"levelo_inurba_marseille","lat":43.30551,"lon":5.36547,"is_reserved":false,"is_disabled":false,"rental_uris":{"android":"levelo://app?vid=9a54888c-962c-4a31-9566-bdbc36327ea3","ios":"levelo://app?vid=9a54888c-962c-4a31-9566-bdbc36327ea3"},"vehicle_type_id":"4","last_reported":1748707875,"current_range_meters":16000,"station_id":"ce4bgs12rcd13ifvqcag","pricing_plan_id":"cebpf4jnsgd1na2vs0mg"},{"bike_id":"f228bee7-95ee-40d7-be69-c5efaf08d734","system_id":"levelo_inurba_marseille","lat":43.29412,"lon":5.38627,"is_reserved":false,"is_disabled":false,"rental_uris":{"android":"levelo://app?vid=f228bee7-95ee-40d7-be69-c5efaf08d734","ios":"levelo://app?vid=f228bee7-95ee-40d7-be69-c5efaf08d734"},"vehicle_type_id":"4","last_reported":1748707875,"current_range_meters":16000,"station_id":"ce4bh2h2rcd13ifvqdh0","pricing_plan_id":"cebpf4jnsgd1na2vs0mg"},{"bike_id":"2a3079ca-fca3-41a0-9873-b63b6c6ce1ad","system_id":"levelo_inurba_marseille","lat":43.28724,"lon":5.37939,"is_reserved":false,"is_disabled":false,"rental_uris":{"android":"levelo://app?vid=2a3079ca-fca3-41a0-9873-b63b6c6ce1ad","ios":"levelo://app?vid=2a3079ca-fca3-41a0-9873-b63b6c6ce1ad"},"vehicle_type_id":"4","last_reported":1748707875,"current_range_meters":16000,"station_id":"ce4bh9p2rcd13ifvqec0","pricing_plan_id":"cebpf4jnsgd1na2vs0mg"},{"bike_id":"410ef4e6-e6c8-4b6e-b701-f1ce0f4f2e9e","system_id":"levelo_inurba_marseille","lat":43.284096,"lon":5.349929,"is_reserved":false,"is_disabled":false,"rental_uris":{"android":"levelo://app?vid=410ef4e6-e6c8-4b6e-b701-f1ce0f4f2e9e","ios":"levelo://app?vid=410ef4e6-e6c8-4b6e-b701-f1ce0f4f2e9e"},"vehicle_type_id":"4","last_reported":1748707875,"current_range_meters":16000,"station_id":"ce4bhbh2rcd13ifvqepg","pricing_plan_id":"cebpf4jnsgd1na2vs0mg"},{"bike_id":"76fca690-1ceb-40a6-b2ab-3ae26d990ca9","system_id":"levelo_inurba_marseille","lat":43.28633,"lon":5.35095,"is_reserved":false,"is_disabled":false,"rental_uris":{"android":"levelo://app?vid=76fca690-1ceb-40a6-b2ab-3ae26d990ca9","ios":"levelo://app?vid=76fca690-1ceb-40a6-b2ab-3ae26d990ca9"},"vehicle_type_id":"4","last_reported":1748707875,"current_range_meters":16000,"station_id":"ce4bhch2rcd13ifvqeug","pricing_plan_id":"cebpf4jnsgd1na2vs0mg"},{"bike_id":"43a23579-e807-4f75-ba6b-fb4dcd8da0df","system_id":"levelo_inurba_marseille","lat":43.26217,"lon":5.37429,"is_reserved":false,"is_disabled":false,"rental_uris":{"android":"levelo://app?vid=43a23579-e807-4f75-ba6b-fb4dcd8da0df","ios":"levelo://app?vid=43a23579-e807-4f75-ba6b-fb4dcd8da0df"},"vehicle_type_id":"4","last_reported":1748707875,"current_range_meters":16000,"station_id":"ce4bhgp2rcd13ifvqfc0","pricing_plan_id":"cebpf4jnsgd1na2vs0mg"},{"bike_id":"b71d1fe9-d476-4f01-9e8e-fddb60df05ee","system_id":"levelo_inurba_marseille","lat":43.26956,"lon":5.38627,"is_reserved":false,"is_disabled":false,"rental_uris":{"android":"levelo://app?vid=b71d1fe9-d476-4f01-9e8e-fddb60df05ee","ios":"levelo://app?vid=b71d1fe9-d476-4f01-9e8e-fddb60df05ee"},"vehicle_type_id":"4","last_reported":1748707875,"current_range_meters":16000,"station_id":"ce4bhh92rcd13ifvqfh0","pricing_plan_id":"cebpf4jnsgd1na2vs0mg"},{"bike_id":"1d4c308a-3bd9-45f9-b273-125b02cf5593","system_id":"levelo_inurba_marseille","lat":43.27193,"lon":5.40991,"is_reserved":false,"is_disabled":false,"rental_uris":{"android":"levelo://app?vid=1d4c308a-3bd9-45f9-b273-125b02cf5593","ios":"levelo://app?vid=1d4c308a-3bd9-45f9-b273-125b02cf5593"},"vehicle_type_id":"4","last_reported":1748707875,"current_range_meters":16000,"station_id":"ce4bhl12rcd13ifvqgf0","pricing_plan_id":"cebpf4jnsgd1na2vs0mg"},{"bike_id":"740ed209-b5ad-426f-b900-542a97bce272","system_id":"levelo_inurba_marseille","lat":43.2314,"lon":5.43732,"is_reserved":false,"is_disabled":false,"rental_uris":{"android":"levelo://app?vid=740ed209-b5ad-426f-b900-542a97bce272","ios":"levelo://app?vid=740ed209-b5ad-426f-b900-542a97bce272"},"vehicle_type_id":"4","last_reported":1748707875,"current_range_meters":16000,"station_id":"ce4bhmp2rcd13ifvqgog","pricing_plan_id":"cebpf4jnsgd1na2vs0mg"},{"bike_id":"0d62cf02-42a4-4898-ad07-d4609ca90b8a","system_id":"levelo_inurba_marseille","lat":43.32477,"lon":5.36562,"is_reserved":false,"is_disabled":false,"rental_uris":{"android":"levelo://app?vid=0d62cf02-42a4-4898-ad07-d4609ca90b8a","ios":"levelo://app?vid=0d62cf02-42a4-4898-ad07-d4609ca90b8a"},"vehicle_type_id":"4","last_reported":1748707875,"current_range_meters":16000,"station_id":"ce4bhs12rcd13ifvqhvg","pricing_plan_id":"cebpf4jnsgd1na2vs0mg"},{"bike_id":"4634b1a0-27fb-4f28-89df-b2b50c9cbade","system_id":"levelo_inurba_marseille","lat":43.28616,"lon":5.37085,"is_reserved":false,"is_disabled":false,"rental_uris":{"android":"levelo://app?vid=4634b1a0-27fb-4f28-89df-b2b50c9cbade","ios":"levelo://app?vid=4634b1a0-27fb-4f28-89df-b2b50c9cbade"},"vehicle_type_id":"4","last_reported":1748707875,"current_range_meters":16000,"station_id":"ce4bht12rcd13ifvqi60","pricing_plan_id":"cebpf4jnsgd1na2vs0mg"},{"bike_id":"b7911b41-d164-45aa-8851-a26dc5030f16","system_id":"levelo_inurba_marseille","lat":43.26231,"lon":5.37455,"is_reserved":false,"is_disabled":false,"rental_uris":{"android":"levelo://app?vid=b7911b41-d164-45aa-8851-a26dc5030f16","ios":"levelo://app?vid=b7911b41-d164-45aa-8851-a26dc5030f16"},"vehicle_type_id":"4","last_reported":1748707875,"current_range_meters":16400,"station_id":"","pricing_plan_id":"cebpf4jnsgd1na2vs0mg"},{"bike_id":"59cc9f64-369b-40a4-aef4-571b231df862","system_id":"levelo_inurba_marseille","lat":43.28117,"lon":5.35181,"is_reserved":false,"is_disabled":false,"rental_uris":{"android":"levelo://app?vid=59cc9f64-369b-40a4-aef4-571b231df862","ios":"levelo://app?vid=59cc9f64-369b-40a4-aef4-571b231df862"},"vehicle_type_id":"4","last_reported":1748707875,"current_range_meters":16400,"station_id":"","pricing_plan_id":"cebpf4jnsgd1na2vs0mg"},{"bike_id":"da3081f2-efd4-4f3e-a571-f633a7caaf0e","system_id":"levelo_inurba_marseille","lat":43.29961,"lon":5.37166,"is_reserved":false,"is_disabled":false,"rental_uris":{"android":"levelo://app?vid=da3081f2-efd4-4f3e-a571-f633a7caaf0e","ios":"levelo://app?vid=da3081f2-efd4-4f3e-a571-f633a7caaf0e"},"vehicle_type_id":"4","last_reported":1748707875,"current_range_meters":16400,"station_id":"ce4bgr92rcd13ifvqc7g","pricing_plan_id":"cebpf4jnsgd1na2vs0mg"},{"bike_id":"974a254a-2c0c-4684-b07a-b80fe9833e83","system_id":"levelo_inurba_marseille","lat":43.284075,"lon":5.349784,"is_reserved":false,"is_disabled":false,"rental_uris":{"android":"levelo://app?vid=974a254a-2c0c-4684-b07a-b80fe9833e83","ios":"levelo://app?vid=974a254a-2c0c-4684-b07a-b80fe9833e83"},"vehicle_type_id":"4","last_reported":1748707875,"current_range_meters":16400,"station_id":"ce4bhbh2rcd13ifvqepg","pricing_plan_id":"cebpf4jnsgd1na2vs0mg"},{"bike_id":"a202821e-842c-4ad8-a402-9a94950adada","system_id":"levelo_inurba_marseille","lat":43.24799,"lon":5.37465,"is_reserved":false,"is_disabled":false,"rental_uris":{"android":"levelo://app?vid=a202821e-842c-4ad8-a402-9a94950adada","ios":"levelo://app?vid=a202821e-842c-4ad8-a402-9a94950adada"},"vehicle_type_id":"4","last_reported":1748707875,"current_range_meters":16400,"station_id":"ce4bhgh2rcd13ifvqfb0","pricing_plan_id":"cebpf4jnsgd1na2vs0mg"},{"bike_id":"568ddf8e-969b-47a6-a0f8-abdb5dc78c59","system_id":"levelo_inurba_marseille","lat":43.255,"lon":5.37648,"is_reserved":false,"is_disabled":false,"rental_uris":{"android":"levelo://app?vid=568ddf8e-969b-47a6-a0f8-abdb5dc78c59","ios":"levelo://app?vid=568ddf8e-969b-47a6-a0f8-abdb5dc78c59"},"vehicle_type_id":"4","last_reported":1748707875,"current_range_meters":16400,"station_id":"ce4bhh12rcd13ifvqff0","pricing_plan_id":"cebpf4jnsgd1na2vs0mg"},{"bike_id":"04d9466d-772b-4411-a821-e01cfcd178ce","system_id":"levelo_inurba_marseille","lat":43.24171,"lon":5.36449,"is_reserved":false,"is_disabled":false,"rental_uris":{"android":"levelo://app?vid=04d9466d-772b-4411-a821-e01cfcd178ce","ios":"levelo://app?vid=04d9466d-772b-4411-a821-e01cfcd178ce"},"vehicle_type_id":"4","last_reported":1748707875,"current_range_meters":16400,"station_id":"cpo36qri1sfpv3e86is0","pricing_plan_id":"cebpf4jnsgd1na2vs0mg"},{"bike_id":"4d9035a1-4135-4911-9f5a-65e8a1a4939f","system_id":"levelo_inurba_marseille","lat":43.21752,"lon":5.34587,"is_reserved":false,"is_disabled":false,"rental_uris":{"android":"levelo://app?vid=4d9035a1-4135-4911-9f5a-65e8a1a4939f","ios":"levelo://app?vid=4d9035a1-4135-4911-9f5a-65e8a1a4939f"},"vehicle_type_id":"4","last_reported":1748707875,"current_range_meters":16400,"station_id":"st_cvj6r9ubvosntc0bgbag","pricing_plan_id":"cebpf4jnsgd1na2vs0mg"},{"bike_id":"f5a90625-b7e8-48a8-90c6-777efe255a32","system_id":"levelo_inurba_marseille","lat":43.251,"lon":5.409658,"is_reserved":false,"is_disabled":false,"rental_uris":{"android":"levelo://app?vid=f5a90625-b7e8-48a8-90c6-777efe255a32","ios":"levelo://app?vid=f5a90625-b7e8-48a8-90c6-777efe255a32"},"vehicle_type_id":"4","last_reported":1748707875,"current_range_meters":16800,"station_id":"","pricing_plan_id":"cebpf4jnsgd1na2vs0mg"},{"bike_id":"d6b65ca1-5946-40a8-999e-319f6a13856b","system_id":"levelo_inurba_marseille","lat":43.298682,"lon":5.397301,"is_reserved":false,"is_disabled":false,"rental_uris":{"android":"levelo://app?vid=d6b65ca1-5946-40a8-999e-319f6a13856b","ios":"levelo://app?vid=d6b65ca1-5946-40a8-999e-319f6a13856b"},"vehicle_type_id":"4","last_reported":1748707875,"current_range_meters":16800,"station_id":"ce4bh0h2rcd13ifvqd50","pricing_plan_id":"cebpf4jnsgd1na2vs0mg"},{"bike_id":"5b8d6edf-9af9-4363-b7a3-3ee16f784353","system_id":"levelo_inurba_marseille","lat":43.26213,"lon":5.3744,"is_reserved":false,"is_disabled":false,"rental_uris":{"android":"levelo://app?vid=5b8d6edf-9af9-4363-b7a3-3ee16f784353","ios":"levelo://app?vid=5b8d6edf-9af9-4363-b7a3-3ee16f784353"},"vehicle_type_id":"4","last_reported":1748707875,"current_range_meters":16800,"station_id":"ce4bhgp2rcd13ifvqfc0","pricing_plan_id":"cebpf4jnsgd1na2vs0mg"},{"bike_id":"77520d45-03bf-4b26-9f9b-8ac6c162ce6b","system_id":"levelo_inurba_marseille","lat":43.243571,"lon":5.411407,"is_reserved":false,"is_disabled":false,"rental_uris":{"android":"levelo://app?vid=77520d45-03bf-4b26-9f9b-8ac6c162ce6b","ios":"levelo://app?vid=77520d45-03bf-4b26-9f9b-8ac6c162ce6b"},"vehicle_type_id":"4","last_reported":1748707875,"current_range_meters":17200,"station_id":"","pricing_plan_id":"cebpf4jnsgd1na2vs0mg"},{"bike_id":"97b2bdc4-a610-4fbc-b2e0-ce13d06047e1","system_id":"levelo_inurba_marseille","lat":43.27375,"lon":5.36267,"is_reserved":false,"is_disabled":false,"rental_uris":{"android":"levelo://app?vid=97b2bdc4-a610-4fbc-b2e0-ce13d06047e1","ios":"levelo://app?vid=97b2bdc4-a610-4fbc-b2e0-ce13d06047e1"},"vehicle_type_id":"4","last_reported":1748707875,"current_range_meters":17200,"station_id":"ce4bhbh2rcd13ifvqeo0","pricing_plan_id":"cebpf4jnsgd1na2vs0mg"},{"bike_id":"62b02994-5210-426a-980f-6cb47507004d","system_id":"levelo_inurba_marseille","lat":43.29216,"lon":5.36064,"is_reserved":false,"is_disabled":false,"rental_uris":{"android":"levelo://app?vid=62b02994-5210-426a-980f-6cb47507004d","ios":"levelo://app?vid=62b02994-5210-426a-980f-6cb47507004d"},"vehicle_type_id":"4","last_reported":1748707875,"current_range_meters":17200,"station_id":"ce4bhbh2rcd13ifvqeqg","pricing_plan_id":"cebpf4jnsgd1na2vs0mg"},{"bike_id":"f048f390-3699-463c-a6b6-a0f580b6ed75","system_id":"levelo_inurba_marseille","lat":43.27563,"lon":5.38422,"is_reserved":false,"is_disabled":false,"rental_uris":{"android":"levelo://app?vid=f048f390-3699-463c-a6b6-a0f580b6ed75","ios":"levelo://app?vid=f048f390-3699-463c-a6b6-a0f580b6ed75"},"vehicle_type_id":"4","last_reported":1748707875,"current_range_meters":17200,"station_id":"ce4bhh92rcd13ifvqfi0","pricing_plan_id":"cebpf4jnsgd1na2vs0mg"},{"bike_id":"52138315-f13b-4871-ab78-9e5155a1008c","system_id":"levelo_inurba_marseille","lat":43.322865,"lon":5.382675,"is_reserved":false,"is_disabled":false,"rental_uris":{"android":"levelo://app?vid=52138315-f13b-4871-ab78-9e5155a1008c","ios":"levelo://app?vid=52138315-f13b-4871-ab78-9e5155a1008c"},"vehicle_type_id":"4","last_reported":1748707875,"current_range_meters":17200,"station_id":"ce4bhr12rcd13ifvqhqg","pricing_plan_id":"cebpf4jnsgd1na2vs0mg"},{"bike_id":"c11e3dad-e316-45e3-911e-2505c64d0c9f","system_id":"levelo_inurba_marseille","lat":43.285828,"lon":5.394948,"is_reserved":false,"is_disabled":false,"rental_uris":{"android":"levelo://app?vid=c11e3dad-e316-45e3-911e-2505c64d0c9f","ios":"levelo://app?vid=c11e3dad-e316-45e3-911e-2505c64d0c9f"},"vehicle_type_id":"4","last_reported":1748707875,"current_range_meters":17600,"station_id":"ce4bh292rcd13ifvqdg0","pricing_plan_id":"cebpf4jnsgd1na2vs0mg"},{"bike_id":"6cc16d1a-be60-44ba-af22-e7aab7eb4a2d","system_id":"levelo_inurba_marseille","lat":43.29038,"lon":5.3755,"is_reserved":false,"is_disabled":false,"rental_uris":{"android":"levelo://app?vid=6cc16d1a-be60-44ba-af22-e7aab7eb4a2d","ios":"levelo://app?vid=6cc16d1a-be60-44ba-af22-e7aab7eb4a2d"},"vehicle_type_id":"4","last_reported":1748707875,"current_range_meters":17600,"station_id":"ce4bh692rcd13ifvqe90","pricing_plan_id":"cebpf4jnsgd1na2vs0mg"},{"bike_id":"9a24228a-3234-461f-a3a2-5828a390c2fa","system_id":"levelo_inurba_marseille","lat":43.27381,"lon":5.36262,"is_reserved":false,"is_disabled":false,"rental_uris":{"android":"levelo://app?vid=9a24228a-3234-461f-a3a2-5828a390c2fa","ios":"levelo://app?vid=9a24228a-3234-461f-a3a2-5828a390c2fa"},"vehicle_type_id":"4","last_reported":1748707875,"current_range_meters":17600,"station_id":"ce4bhbh2rcd13ifvqeo0","pricing_plan_id":"cebpf4jnsgd1na2vs0mg"},{"bike_id":"d2b7ed0f-00c4-44cb-9c8b-27130018fa89","system_id":"levelo_inurba_marseille","lat":43.28614,"lon":5.35112,"is_reserved":false,"is_disabled":false,"rental_uris":{"android":"levelo://app?vid=d2b7ed0f-00c4-44cb-9c8b-27130018fa89","ios":"levelo://app?vid=d2b7ed0f-00c4-44cb-9c8b-27130018fa89"},"vehicle_type_id":"4","last_reported":1748707875,"current_range_meters":17600,"station_id":"ce4bhch2rcd13ifvqeug","pricing_plan_id":"cebpf4jnsgd1na2vs0mg"},{"bike_id":"7144b4c0-b1fb-4550-b97a-1b71cf7b2646","system_id":"levelo_inurba_marseille","lat":43.255,"lon":5.37649,"is_reserved":false,"is_disabled":false,"rental_uris":{"android":"levelo://app?vid=7144b4c0-b1fb-4550-b97a-1b71cf7b2646","ios":"levelo://app?vid=7144b4c0-b1fb-4550-b97a-1b71cf7b2646"},"vehicle_type_id":"4","last_reported":1748707875,"current_range_meters":17600,"station_id":"ce4bhh12rcd13ifvqff0","pricing_plan_id":"cebpf4jnsgd1na2vs0mg"},{"bike_id":"4041e62e-6981-42c0-9cf8-93c3eaefa37a","system_id":"levelo_inurba_marseille","lat":43.26774,"lon":5.39418,"is_reserved":false,"is_disabled":false,"rental_uris":{"android":"levelo://app?vid=4041e62e-6981-42c0-9cf8-93c3eaefa37a","ios":"levelo://app?vid=4041e62e-6981-42c0-9cf8-93c3eaefa37a"},"vehicle_type_id":"4","last_reported":1748707875,"current_range_meters":17600,"station_id":"ce4bhh12rcd13ifvqfg0","pricing_plan_id":"cebpf4jnsgd1na2vs0mg"},{"bike_id":"56a82e03-2118-4920-8b59-3795928c0c5d","system_id":"levelo_inurba_marseille","lat":43.27842,"lon":5.40704,"is_reserved":false,"is_disabled":false,"rental_uris":{"android":"levelo://app?vid=56a82e03-2118-4920-8b59-3795928c0c5d","ios":"levelo://app?vid=56a82e03-2118-4920-8b59-3795928c0c5d"},"vehicle_type_id":"4","last_reported":1748707875,"current_range_meters":17600,"station_id":"ce4bhnh2rcd13ifvqgtg","pricing_plan_id":"cebpf4jnsgd1na2vs0mg"},{"bike_id":"f4431ae7-57a2-44b7-b0f4-0bd0d29a42ab","system_id":"levelo_inurba_marseille","lat":43.269407,"lon":5.402844,"is_reserved":false,"is_disabled":false,"rental_uris":{"android":"levelo://app?vid=f4431ae7-57a2-44b7-b0f4-0bd0d29a42ab","ios":"levelo://app?vid=f4431ae7-57a2-44b7-b0f4-0bd0d29a42ab"},"vehicle_type_id":"4","last_reported":1748707875,"current_range_meters":17600,"station_id":"cjm6bp8fraef2m0cb0m0","pricing_plan_id":"cebpf4jnsgd1na2vs0mg"},{"bike_id":"2f650bb1-6027-4191-83d2-16315820a0a7","system_id":"levelo_inurba_marseille","lat":43.299811,"lon":5.373565,"is_reserved":false,"is_disabled":false,"rental_uris":{"android":"levelo://app?vid=2f650bb1-6027-4191-83d2-16315820a0a7","ios":"levelo://app?vid=2f650bb1-6027-4191-83d2-16315820a0a7"},"vehicle_type_id":"4","last_reported":1748707875,"current_range_meters":18000,"station_id":"","pricing_plan_id":"cebpf4jnsgd1na2vs0mg"},{"bike_id":"edf637b9-92fd-46c7-9477-825412856041","system_id":"levelo_inurba_marseille","lat":43.284147,"lon":5.375148,"is_reserved":false,"is_disabled":false,"rental_uris":{"android":"levelo://app?vid=edf637b9-92fd-46c7-9477-825412856041","ios":"levelo://app?vid=edf637b9-92fd-46c7-9477-825412856041"},"vehicle_type_id":"4","last_reported":1748707875,"current_range_meters":18000,"station_id":"ce4bh412rcd13ifvqds0","pricing_plan_id":"cebpf4jnsgd1na2vs0mg"},{"bike_id":"6b9e140f-0fd4-4010-a41a-af1f88b44121","system_id":"levelo_inurba_marseille","lat":43.25863,"lon":5.39906,"is_reserved":false,"is_disabled":false,"rental_uris":{"android":"levelo://app?vid=6b9e140f-0fd4-4010-a41a-af1f88b44121","ios":"levelo://app?vid=6b9e140f-0fd4-4010-a41a-af1f88b44121"},"vehicle_type_id":"4","last_reported":1748707875,"current_range_meters":18000,"station_id":"ce4bhl92rcd13ifvqghg","pricing_plan_id":"cebpf4jnsgd1na2vs0mg"},{"bike_id":"bc877be3-5f8a-4edd-93fb-7ded77b60fe2","system_id":"levelo_inurba_marseille","lat":43.29841,"lon":5.36274,"is_reserved":false,"is_disabled":false,"rental_uris":{"android":"levelo://app?vid=bc877be3-5f8a-4edd-93fb-7ded77b60fe2","ios":"levelo://app?vid=bc877be3-5f8a-4edd-93fb-7ded77b60fe2"},"vehicle_type_id":"4","last_reported":1748707875,"current_range_meters":18800,"station_id":"ce4bgpp2rcd13ifvqc3g","pricing_plan_id":"cebpf4jnsgd1na2vs0mg"},{"bike_id":"4d8b67f5-4563-4177-9fad-cc7f4451a30c","system_id":"levelo_inurba_marseille","lat":43.30541,"lon":5.3656,"is_reserved":false,"is_disabled":false,"rental_uris":{"android":"levelo://app?vid=4d8b67f5-4563-4177-9fad-cc7f4451a30c","ios":"levelo://app?vid=4d8b67f5-4563-4177-9fad-cc7f4451a30c"},"vehicle_type_id":"4","last_reported":1748707875,"current_range_meters":18800,"station_id":"ce4bgs12rcd13ifvqcag","pricing_plan_id":"cebpf4jnsgd1na2vs0mg"},{"bike_id":"c41700a2-2a83-43cc-a6e6-a4c0c86cb7dd","system_id":"levelo_inurba_marseille","lat":43.27373,"lon":5.36258,"is_reserved":false,"is_disabled":false,"rental_uris":{"android":"levelo://app?vid=c41700a2-2a83-43cc-a6e6-a4c0c86cb7dd","ios":"levelo://app?vid=c41700a2-2a83-43cc-a6e6-a4c0c86cb7dd"},"vehicle_type_id":"4","last_reported":1748707875,"current_range_meters":18800,"station_id":"ce4bhbh2rcd13ifvqeo0","pricing_plan_id":"cebpf4jnsgd1na2vs0mg"},{"bike_id":"8a63f44d-87ef-4928-9353-750452262748","system_id":"levelo_inurba_marseille","lat":43.27916,"lon":5.39619,"is_reserved":false,"is_disabled":false,"rental_uris":{"android":"levelo://app?vid=8a63f44d-87ef-4928-9353-750452262748","ios":"levelo://app?vid=8a63f44d-87ef-4928-9353-750452262748"},"vehicle_type_id":"4","last_reported":1748707875,"current_range_meters":18800,"station_id":"ce4bhf92rcd13ifvqf40","pricing_plan_id":"cebpf4jnsgd1na2vs0mg"},{"bike_id":"3925241f-015c-4fdf-852d-ce7708033682","system_id":"levelo_inurba_marseille","lat":43.30695,"lon":5.37343,"is_reserved":false,"is_disabled":false,"rental_uris":{"android":"levelo://app?vid=3925241f-015c-4fdf-852d-ce7708033682","ios":"levelo://app?vid=3925241f-015c-4fdf-852d-ce7708033682"},"vehicle_type_id":"4","last_reported":1748707875,"current_range_meters":19200,"station_id":"","pricing_plan_id":"cebpf4jnsgd1na2vs0mg"},{"bike_id":"e02a2da3-7dfa-4069-b87e-24a9a27d1b10","system_id":"levelo_inurba_marseille","lat":43.2841,"lon":5.34993,"is_reserved":false,"is_disabled":false,"rental_uris":{"android":"levelo://app?vid=e02a2da3-7dfa-4069-b87e-24a9a27d1b10","ios":"levelo://app?vid=e02a2da3-7dfa-4069-b87e-24a9a27d1b10"},"vehicle_type_id":"4","last_reported":1748707875,"current_range_meters":19200,"station_id":"ce4bhbh2rcd13ifvqepg","pricing_plan_id":"cebpf4jnsgd1na2vs0mg"},{"bike_id":"0d16d57b-579e-43fb-98e8-357eb7f781f7","system_id":"levelo_inurba_marseille","lat":43.25103,"lon":5.40323,"is_reserved":false,"is_disabled":false,"rental_uris":{"android":"levelo://app?vid=0d16d57b-579e-43fb-98e8-357eb7f781f7","ios":"levelo://app?vid=0d16d57b-579e-43fb-98e8-357eb7f781f7"},"vehicle_type_id":"4","last_reported":1748707875,"current_range_meters":19200,"station_id":"ce4bhlh2rcd13ifvqgig","pricing_plan_id":"cebpf4jnsgd1na2vs0mg"},{"bike_id":"b535935b-0655-422f-aa9d-3c9dea0870e3","system_id":"levelo_inurba_marseille","lat":43.218,"lon":5.34583,"is_reserved":false,"is_disabled":false,"rental_uris":{"android":"levelo://app?vid=b535935b-0655-422f-aa9d-3c9dea0870e3","ios":"levelo://app?vid=b535935b-0655-422f-aa9d-3c9dea0870e3"},"vehicle_type_id":"4","last_reported":1748707875,"current_range_meters":19600,"station_id":"","pricing_plan_id":"cebpf4jnsgd1na2vs0mg"},{"bike_id":"01d51a3b-bd36-4bae-b70d-feca5edf1a87","system_id":"levelo_inurba_marseille","lat":43.28108,"lon":5.39855,"is_reserved":false,"is_disabled":false,"rental_uris":{"android":"levelo://app?vid=01d51a3b-bd36-4bae-b70d-feca5edf1a87","ios":"levelo://app?vid=01d51a3b-bd36-4bae-b70d-feca5edf1a87"},