{"last_updated":1730110234,"ttl":60,"version":"2.2","data":{"bikes":[{"bike_id":"17a2755b-a6ea-427e-9540-a2fa27710355","system_id":"levelo_inurba_marseille","lat":43.30542,"lon":5.36527,"is_reserved":false,"is_disabled":false,"rental_uris":{"android":"levelo://app?vid=17a2755b-a6ea-427e-9540-a2fa27710355","ios":"levelo://app?vid=17a2755b-a6ea-427e-9540-a2fa27710355"},"vehicle_type_id":"4","last_reported":1730110234,"current_range_meters":36400,"station_id":"ce4bgs12rcd13ifvqcag","pricing_plan_id":"cebpf4jnsgd1na2vs0mg"},{"bike_id":"30ac8208-0164-4c83-8338-46b743c119ec","system_id":"levelo_inurba_marseille","lat":43.28941,"lon":5.39623,"is_reserved":false,"is_disabled":false,"rental_uris":{"android":"levelo://app?vid=30ac8208-0164-4c83-8338-46b743c119ec","ios":"levelo://app?vid=30ac8208-0164-4c83-8338-46b743c119ec"},"vehicle_type_id":"4","last_reported":1730110234,"current_range_meters":22400,"station_id":"ce4bh3h2rcd13ifvqdn0","pricing_plan_id":"cebpf4jnsgd1na2vs0mg"},{"bike_id":"20f5ef21-1b7a-4887-b730-d77554d6c81d","system_id":"levelo_inurba_marseille","lat":43.33756,"lon":5.37448,"is_reserved":false,"is_disabled":false,"rental_uris":{"android":"levelo://app?vid=20f5ef21-1b7a-4887-b730-d77554d6c81d","ios":"levelo://app?vid=20f5ef21-1b7a-4887-b730-d77554d6c81d"},"vehicle_type_id":"4","last_reported":1730110234,"current_range_meters":36800,"station_id":"","pricing_plan_id":"cebpf4jnsgd1na2vs0mg"},{"bike_id":"6cd46184-ccd4-41a7-92e5-9f321ea4dee8","system_id":"levelo_inurba_marseille","lat":43.24081,"lon":5.37745,"is_reserved":false,"is_disabled":false,"rental_uris":{"android":"levelo://app?vid=6cd46184-ccd4-41a7-92e5-9f321ea4dee8","ios":"levelo://app?vid=6cd46184-ccd4-41a7-92e5-9f321ea4dee8"},"vehicle_type_id":"4","last_reported":1730110234,"current_range_meters":38000,"station_id":"ce4bhnp2rcd13ifvqgvg","pricing_plan_id":"cebpf4jnsgd1na2vs0mg"},{"bike_id":"c1ac75a9-9e75-40e8-830b-a685c6bfffb3","system_id":"levelo_inurba_marseille","lat":43.2984,"lon":5.36266,"is_reserved":false,"is_disabled":false,"rental_uris":{"android":"levelo://app?vid=c1ac75a9-9e75-40e8-830b-a685c6bfffb3","ios":"levelo://app?vid=c1ac75a9-9e75-40e8-830b-a685c6bfffb3"},"vehicle_type_id":"4","last_reported":1730110234,"current_range_meters":38400,"station_id":"ce4bgpp2rcd13ifvqc3g","pricing_plan_id":"cebpf4jnsgd1na2vs0mg"},{"bike_id":"90b09f7c-4665-4372-8e70-8220f506b4de","system_id":"levelo_inurba_marseille","lat":43.25724,"lon":5.41102,"is_reserved":false,"is_disabled":false,"rental_uris":{"android":"levelo://app?vid=90b09f7c-4665-4372-8e70-8220f506b4de","ios":"levelo://app?vid=90b09f7c-4665-4372-8e70-8220f506b4de"},"vehicle_type_id":"4","last_reported":1730110234,"current_range_meters":8400,"station_id":"ce4bhkp2rcd13ifvqgd0","pricing_plan_id":"cebpf4jnsgd1na2vs0mg"},{"bike_id":"7501dbaf-a35e-4bd2-9151-59352e5a8638","system_id":"levelo_inurba_marseille","lat":43.23152,"lon":5.43701,"is_reserved":false,"is_disabled":false,"rental_uris":{"android":"levelo://app?vid=7501dbaf-a35e-4bd2-9151-59352e5a8638","ios":"levelo://app?vid=7501dbaf-a35e-4bd2-9151-59352e5a8638"},"vehicle_type_id":"4","last_reported":1730110234,"current_range_meters":9600,"station_id":"ce4bhmp2rcd13ifvqgog","pricing_plan_id":"cebpf4jnsgd1na2vs0mg"},{"bike_id":"a8652586-bac3-4066-8349-87b461f05426","system_id":"levelo_inurba_marseille","lat":43.30304,"lon":5.36904,"is_reserved":false,"is_disabled":false,"rental_uris":{"android":"levelo://app?vid=a8652586-bac3-4066-8349-87b461f05426","ios":"levelo://app?vid=a8652586-bac3-4066-8349-87b461f05426"},"vehicle_type_id":"4","last_reported":1730110234,"current_range_meters":36000,"station_id":"ce4bgqh2rcd13ifvqc5g","pricing_plan_id":"cebpf4jnsgd1na2vs0mg"},{"bike_id":"a9baa0c0-5cf2-4ea6-83ef-70fd4819b4f5","system_id":"levelo_inurba_marseille","lat":43.3015,"lon":5.38075,"is_reserved":false,"is_disabled":false,"rental_uris":{"android":"levelo://app?vid=a9baa0c0-5cf2-4ea6-83ef-70fd4819b4f5","ios":"levelo://app?vid=a9baa0c0-5cf2-4ea6-83ef-70fd4819b4f5"},"vehicle_type_id":"4","last_reported":1730110234,"current_range_meters":33200,"station_id":"ce4bgjp2rcd13ifvqbh0","pricing_plan_id":"cebpf4jnsgd1na2vs0mg"},{"bike_id":"0417c2c0-a8fa-4e85-94c8-8f98d5bb5512","system_id":"levelo_inurba_marseille","lat":43.24809,"lon":5.37455,"is_reserved":false,"is_disabled":false,"rental_uris":{"android":"levelo://app?vid=0417c2c0-a8fa-4e85-94c8-8f98d5bb5512","ios":"levelo://app?vid=0417c2c0-a8fa-4e85-94c8-8f98d5bb5512"},"vehicle_type_id":"4","last_reported":1730110234,"current_range_meters":36800,"station_id":"ce4bhgh2rcd13ifvqfb0","pricing_plan_id":"cebpf4jnsgd1na2vs0mg"},{"bike_id":"caaf6c9d-68dc-481e-a164-3922d391756a","system_id":"levelo_inurba_marseille","lat":43.311197,"lon":5.377902,"is_reserved":false,"is_disabled":false,"rental_uris":{"android":"levelo://app?vid=caaf6c9d-68dc-481e-a164-3922d391756a","ios":"levelo://app?vid=caaf6c9d-68dc-481e-a164-3922d391756a"},"vehicle_type_id":"4","last_reported":1730110234,"current_range_meters":12800,"station_id":"ce4bgt92rcd13ifvqcg0","pricing_plan_id":"cebpf4jnsgd1na2vs0mg"},{"bike_id":"cdd349f7-2427-4c64-987d-c871691fd8ac","system_id":"levelo_inurba_marseille","lat":43.33606,"lon":5.41002,"is_reserved":false,"is_disabled":false,"rental_uris":{"android":"levelo://app?vid=cdd349f7-2427-4c64-987d-c871691fd8ac","ios":"levelo://app?vid=cdd349f7-2427-4c64-987d-c871691fd8ac"},"vehicle_type_id":"4","last_reported":1730110234,"current_range_meters":29600,"station_id":"ce4bhqh2rcd13ifvqhmg","pricing_plan_id":"cebpf4jnsgd1na2vs0mg"},{"bike_id":"165632c2-bf24-4ddf-9b0c-1ac1684518ef","system_id":"levelo_inurba_marseille","lat":43.31353,"lon":5.36697,"is_reserved":false,"is_disabled":false,"rental_uris":{"android":"levelo://app?vid=165632c2-bf24-4ddf-9b0c-1ac1684518ef","ios":"levelo://app?vid=165632c2-bf24-4ddf-9b0c-1ac1684518ef"},"vehicle_type_id":"4","last_reported":1730110234,"current_range_meters":24000,"station_id":"ce4bgr92rcd13ifvqc6g","pricing_plan_id":"cebpf4jnsgd1na2vs0mg"},{"bike_id":"76a28f5b-ab00-4d04-a1f7-c957914a592c","system_id":"levelo_inurba_marseille","lat":43.27206,"lon":5.39189,"is_reserved":false,"is_disabled":false,"rental_uris":{"android":"levelo://app?vid=76a28f5b-ab00-4d04-a1f7-c957914a592c","ios":"levelo://app?vid=76a28f5b-ab00-4d04-a1f7-c957914a592c"},"vehicle_type_id":"4","last_reported":1730110234,"current_range_meters":38800,"station_id":"ce4bhhp2rcd13ifvqfm0","pricing_plan_id":"cebpf4jnsgd1na2vs0mg"},{"bike_id":"334d0fc8-f3b9-402d-af15-e53d341c66dc","system_id":"levelo_inurba_marseille","lat":43.29034,"lon":5.39966,"is_reserved":false,"is_disabled":false,"rental_uris":{"android":"levelo://app?vid=334d0fc8-f3b9-402d-af15-e53d341c66dc","ios":"levelo://app?vid=334d0fc8-f3b9-402d-af15-e53d341c66dc"},"vehicle_type_id":"4","last_reported":1730110234,"current_range_meters":36000,"station_id":"ce4bh392rcd13ifvqdm0","pricing_plan_id":"cebpf4jnsgd1na2vs0mg"},{"bike_id":"9a96df8b-c717-47d1-8afa-55d78e019a81","system_id":"levelo_inurba_marseille","lat":43.29898,"lon":5.43667,"is_reserved":false,"is_disabled":false,"rental_uris":{"android":"levelo://app?vid=9a96df8b-c717-47d1-8afa-55d78e019a81","ios":"levelo://app?vid=9a96df8b-c717-47d1-8afa-55d78e019a81"},"vehicle_type_id":"4","last_reported":1730110234,"current_range_meters":9200,"station_id":"ce4bhpp2rcd13ifvqhfg","pricing_plan_id":"cebpf4jnsgd1na2vs0mg"},{"bike_id":"6932c530-201c-4220-8821-2b76deed5b19","system_id":"levelo_inurba_marseille","lat":43.27816,"lon":5.40717,"is_reserved":false,"is_disabled":false,"rental_uris":{"android":"levelo://app?vid=6932c530-201c-4220-8821-2b76deed5b19","ios":"levelo://app?vid=6932c530-201c-4220-8821-2b76deed5b19"},"vehicle_type_id":"4","last_reported":1730110234,"current_range_meters":38000,"station_id":"ce4bhnh2rcd13ifvqgtg","pricing_plan_id":"cebpf4jnsgd1na2vs0mg"},{"bike_id":"0e19225e-52a0-4685-8ee2-3aa1b2c19d4a","system_id":"levelo_inurba_marseille","lat":43.30192,"lon":5.36616,"is_reserved":false,"is_disabled":false,"rental_uris":{"android":"levelo://app?vid=0e19225e-52a0-4685-8ee2-3aa1b2c19d4a","ios":"levelo://app?vid=0e19225e-52a0-4685-8ee2-3aa1b2c19d4a"},"vehicle_type_id":"4","last_reported":1730110234,"current_range_meters":37600,"station_id":"ce4bgrh2rcd13ifvqc8g","pricing_plan_id":"cebpf4jnsgd1na2vs0mg"},{"bike_id":"7c5d9e63-7c01-42f6-b487-1279c2072d94","system_id":"levelo_inurba_marseille","lat":43.29973,"lon":5.3717,"is_reserved":false,"is_disabled":false,"rental_uris":{"android":"levelo://app?vid=7c5d9e63-7c01-42f6-b487-1279c2072d94","ios":"levelo://app?vid=7c5d9e63-7c01-42f6-b487-1279c2072d94"},"vehicle_type_id":"4","last_reported":1730110234,"current_range_meters":37600,"station_id":"ce4bgr92rcd13ifvqc7g","pricing_plan_id":"cebpf4jnsgd1na2vs0mg"},{"bike_id":"c0710a3f-9259-48fc-8baf-5f373be38096","system_id":"levelo_inurba_marseille","lat":43.3059,"lon":5.3721,"is_reserved":false,"is_disabled":false,"rental_uris":{"android":"levelo://app?vid=c0710a3f-9259-48fc-8baf-5f373be38096","ios":"levelo://app?vid=c0710a3f-9259-48fc-8baf-5f373be38096"},"vehicle_type_id":"4","last_reported":1730110234,"current_range_meters":38400,"station_id":"ce4bgqh2rcd13ifvqc4g","pricing_plan_id":"cebpf4jnsgd1na2vs0mg"},{"bike_id":"eb74aa32-c49d-4202-bac3-91a96c4d4783","system_id":"levelo_inurba_marseille","lat":43.30462,"lon":5.37904,"is_reserved":false,"is_disabled":false,"rental_uris":{"android":"levelo://app?vid=eb74aa32-c49d-4202-bac3-91a96c4d4783","ios":"levelo://app?vid=eb74aa32-c49d-4202-bac3-91a96c4d4783"},"vehicle_type_id":"4","last_reported":1730110234,"current_range_meters":38800,"station_id":"ce4bgup2rcd13ifvqcn0","pricing_plan_id":"cebpf4jnsgd1na2vs0mg"},{"bike_id":"84e374c4-fc62-498f-bc8b-cb0b8a3e0a0c","system_id":"levelo_inurba_marseille","lat":43.25726,"lon":5.41103,"is_reserved":false,"is_disabled":false,"rental_uris":{"android":"levelo://app?vid=84e374c4-fc62-498f-bc8b-cb0b8a3e0a0c","ios":"levelo://app?vid=84e374c4-fc62-498f-bc8b-cb0b8a3e0a0c"},"vehicle_type_id":"4","last_reported":1730110234,"current_range_meters":38400,"station_id":"ce4bhkp2rcd13ifvqgd0","pricing_plan_id":"cebpf4jnsgd1na2vs0mg"},{"bike_id":"fca4de4b-4cc2-4fad-9ba2-58c0350dc750","system_id":"levelo_inurba_marseille","lat":43.30284,"lon":5.37699,"is_reserved":false,"is_disabled":false,"rental_uris":{"android":"levelo://app?vid=fca4de4b-4cc2-4fad-9ba2-58c0350dc750","ios":"levelo://app?vid=fca4de4b-4cc2-4fad-9ba2-58c0350dc750"},"vehicle_type_id":"4","last_reported":1730110234,"current_range_meters":38800,"station_id":"ce4bguh2rcd13ifvqcj0","pricing_plan_id":"cebpf4jnsgd1na2vs0mg"},{"bike_id":"43d0e605-d43e-4ca0-959d-be7df73f1abd","system_id":"levelo_inurba_marseille","lat":43.31374,"lon":5.38493,"is_reserved":false,"is_disabled":false,"rental_uris":{"android":"levelo://app?vid=43d0e605-d43e-4ca0-959d-be7df73f1abd","ios":"levelo://app?vid=43d0e605-d43e-4ca0-959d-be7df73f1abd"},"vehicle_type_id":"4","last_reported":1730110234,"current_range_meters":32400,"station_id":"ce4bgt92rcd13ifvqcf0","pricing_plan_id":"cebpf4jnsgd1na2vs0mg"},{"bike_id":"f40dc663-547c-48b6-a0a8-5f565621f019","system_id":"levelo_inurba_marseille","lat":43.30461,"lon":5.37903,"is_reserved":false,"is_disabled":false,"rental_uris":{"android":"levelo://app?vid=f40dc663-547c-48b6-a0a8-5f565621f019","ios":"levelo://app?vid=f40dc663-547c-48b6-a0a8-5f565621f019"},"vehicle_type_id":"4","last_reported":1730110234,"current_range_meters":2000,"station_id":"ce4bgup2rcd13ifvqcn0","pricing_plan_id":"cebpf4jnsgd1na2vs0mg"},{"bike_id":"04be2868-2aab-4e6c-8872-303c9381e9e2","system_id":"levelo_inurba_marseille","lat":43.30055,"lon":5.401,"is_reserved":false,"is_disabled":false,"rental_uris":{"android":"levelo://app?vid=04be2868-2aab-4e6c-8872-303c9381e9e2","ios":"levelo://app?vid=04be2868-2aab-4e6c-8872-303c9381e9e2"},"vehicle_type_id":"4","last_reported":1730110234,"current_range_meters":9200,"station_id":"ce4bh112rcd13ifvqd90","pricing_plan_id":"cebpf4jnsgd1na2vs0mg"},{"bike_id":"03237880-6e63-4c61-b142-c87deaa8f3a7","system_id":"levelo_inurba_marseille","lat":43.29262,"lon":5.38438,"is_reserved":false,"is_disabled":false,"rental_uris":{"android":"levelo://app?vid=03237880-6e63-4c61-b142-c87deaa8f3a7","ios":"levelo://app?vid=03237880-6e63-4c61-b142-c87deaa8f3a7"},"vehicle_type_id":"4","last_reported":1730110234,"current_range_meters":36000,"station_id":"ce4bh692rcd13ifvqea0","pricing_plan_id":"cebpf4jnsgd1na2vs0mg"},{"bike_id":"2ab6a876-b383-42be-8174-3b09d00c2764","system_id":"levelo_inurba_marseille","lat":43.22925,"lon":5.35375,"is_reserved":false,"is_disabled":false,"rental_uris":{"android":"levelo://app?vid=2ab6a876-b383-42be-8174-3b09d00c2764","ios":"levelo://app?vid=2ab6a876-b383-42be-8174-3b09d00c2764"},"vehicle_type_id":"4","last_reported":1730110234,"current_range_meters":36800,"station_id":"cpo3532slgdg3j2ikp40","pricing_plan_id":"cebpf4jnsgd1na2vs0mg"},{"bike_id":"61da5b52-ac74-461a-95d5-143a6b50af3a","system_id":"levelo_inurba_marseille","lat":43.28429,"lon":5.34991,"is_reserved":false,"is_disabled":false,"rental_uris":{"android":"levelo://app?vid=61da5b52-ac74-461a-95d5-143a6b50af3a","ios":"levelo://app?vid=61da5b52-ac74-461a-95d5-143a6b50af3a"},"vehicle_type_id":"4","last_reported":1730110234,"current_range_meters":38000,"station_id":"ce4bhbh2rcd13ifvqepg","pricing_plan_id":"cebpf4jnsgd1na2vs0mg"},{"bike_id":"c06fca11-d9ce-434c-b6b9-1f270f4699a8","system_id":"levelo_inurba_marseille","lat":43.26682,"lon":5.38263,"is_reserved":false,"is_disabled":false,"rental_uris":{"android":"levelo://app?vid=c06fca11-d9ce-434c-b6b9-1f270f4699a8","ios":"levelo://app?vid=c06fca11-d9ce-434c-b6b9-1f270f4699a8"},"vehicle_type_id":"4","last_reported":1730110234,"current_range_meters":16800,"station_id":"ce4bhg92rcd13ifvqf90","pricing_plan_id":"cebpf4jnsgd1na2vs0mg"},{"bike_id":"e9d2627b-0323-4f6a-bb61-f8fed2e2d6e2","system_id":"levelo_inurba_marseille","lat":43.24177,"lon":5.39708,"is_reserved":false,"is_disabled":false,"rental_uris":{"android":"levelo://app?vid=e9d2627b-0323-4f6a-bb61-f8fed2e2d6e2","ios":"levelo://app?vid=e9d2627b-0323-4f6a-bb61-f8fed2e2d6e2"},"vehicle_type_id":"4","last_reported":1730110234,"current_range_meters":9200,"station_id":"ce4bhn12rcd13ifvqgpg","pricing_plan_id":"cebpf4jnsgd1na2vs0mg"},{"bike_id":"711ea989-9bbd-4a86-a947-8e287449186f","system_id":"levelo_inurba_marseille","lat":43.22922,"lon":5.35377,"is_reserved":false,"is_disabled":false,"rental_uris":{"android":"levelo://app?vid=711ea989-9bbd-4a86-a947-8e287449186f","ios":"levelo://app?vid=711ea989-9bbd-4a86-a947-8e287449186f"},"vehicle_type_id":"4","last_reported":1730110234,"current_range_meters":37600,"station_id":"cpo3532slgdg3j2ikp40","pricing_plan_id":"cebpf4jnsgd1na2vs0mg"},{"bike_id":"61a1bce5-85ff-4616-81ad-ba2298f323a4","system_id":"levelo_inurba_marseille","lat":43.2679,"lon":5.39414,"is_reserved":false,"is_disabled":false,"rental_uris":{"android":"levelo://app?vid=61a1bce5-85ff-4616-81ad-ba2298f323a4","ios":"levelo://app?vid=61a1bce5-85ff-4616-81ad-ba2298f323a4"},"vehicle_type_id":"4","last_reported":1730110234,"current_range_meters":14800,"station_id":"ce4bhh12rcd13ifvqfg0","pricing_plan_id":"cebpf4jnsgd1na2vs0mg"},{"bike_id":"27f39214-437b-402f-ba70-e8fd46f4e41b","system_id":"levelo_inurba_marseille","lat":43.2851,"lon":5.36876,"is_reserved":false,"is_disabled":false,"rental_uris":{"android":"levelo://app?vid=27f39214-437b-402f-ba70-e8fd46f4e41b","ios":"levelo://app?vid=27f39214-437b-402f-ba70-e8fd46f4e41b"},"vehicle_type_id":"4","last_reported":1730110234,"current_range_meters":14400,"station_id":"","pricing_plan_id":"cebpf4jnsgd1na2vs0mg"},{"bike_id":"af0b632b-9752-4189-81f0-0625bb8de146","system_id":"levelo_inurba_marseille","lat":43.28704,"lon":5.3998,"is_reserved":false,"is_disabled":false,"rental_uris":{"android":"levelo://app?vid=af0b632b-9752-4189-81f0-0625bb8de146","ios":"levelo://app?vid=af0b632b-9752-4189-81f0-0625bb8de146"},"vehicle_type_id":"4","last_reported":1730110234,"current_range_meters":36400,"station_id":"ce4bho92rcd13ifvqh3g","pricing_plan_id":"cebpf4jnsgd1na2vs0mg"},{"bike_id":"d1dacee6-8f47-4ca5-823b-a2ea6c3413e8","system_id":"levelo_inurba_marseille","lat":43.23193,"lon":5.35553,"is_reserved":false,"is_disabled":false,"rental_uris":{"android":"levelo://app?vid=d1dacee6-8f47-4ca5-823b-a2ea6c3413e8","ios":"levelo://app?vid=d1dacee6-8f47-4ca5-823b-a2ea6c3413e8"},"vehicle_type_id":"4","last_reported":1730110234,"current_range_meters":36400,"station_id":"ce4bhu92rcd13ifvqi70","pricing_plan_id":"cebpf4jnsgd1na2vs0mg"},{"bike_id":"561e7897-666d-4c6a-b870-a1267ef5d6a4","system_id":"levelo_inurba_marseille","lat":43.29579,"lon":5.37517,"is_reserved":false,"is_disabled":false,"rental_uris":{"android":"levelo://app?vid=561e7897-666d-4c6a-b870-a1267ef5d6a4","ios":"levelo://app?vid=561e7897-666d-4c6a-b870-a1267ef5d6a4"},"vehicle_type_id":"4","last_reported":1730110234,"current_range_meters":36800,"station_id":"ce4bgh92rcd13ifvqb50","pricing_plan_id":"cebpf4jnsgd1na2vs0mg"},{"bike_id":"c098f11d-d79d-4077-ac98-74d9579435b8","system_id":"levelo_inurba_marseille","lat":43.2315,"lon":5.43714,"is_reserved":false,"is_disabled":false,"rental_uris":{"android":"levelo://app?vid=c098f11d-d79d-4077-ac98-74d9579435b8","ios":"levelo://app?vid=c098f11d-d79d-4077-ac98-74d9579435b8"},"vehicle_type_id":"4","last_reported":1730110234,"current_range_meters":5600,"station_id":"ce4bhmp2rcd13ifvqgog","pricing_plan_id":"cebpf4jnsgd1na2vs0mg"},{"bike_id":"e31383f6-7994-4a0d-b10e-612e63f6ef44","system_id":"levelo_inurba_marseille","lat":43.29284,"lon":5.4012,"is_reserved":false,"is_disabled":false,"rental_uris":{"android":"levelo://app?vid=e31383f6-7994-4a0d-b10e-612e63f6ef44","ios":"levelo://app?vid=e31383f6-7994-4a0d-b10e-612e63f6ef44"},"vehicle_type_id":"4","last_reported":1730110234,"current_range_meters":39200,"station_id":"ce4bh312rcd13ifvqdk0","pricing_plan_id":"cebpf4jnsgd1na2vs0mg"},{"bike_id":"062c37a5-8c98-4262-a368-0baffa13b81a","system_id":"levelo_inurba_marseille","lat":43.2955,"lon":5.42287,"is_reserved":false,"is_disabled":false,"rental_uris":{"android":"levelo://app?vid=062c37a5-8c98-4262-a368-0baffa13b81a","ios":"levelo://app?vid=062c37a5-8c98-4262-a368-0baffa13b81a"},"vehicle_type_id":"4","last_reported":1730110234,"current_range_meters":18000,"station_id":"ce4bhph2rcd13ifvqhdg","pricing_plan_id":"cebpf4jnsgd1na2vs0mg"},{"bike_id":"af5db991-9eda-4a3b-8073-673671384abf","system_id":"levelo_inurba_marseille","lat":43.30952,"lon":5.39041,"is_reserved":false,"is_disabled":false,"rental_uris":{"android":"levelo://app?vid=af5db991-9eda-4a3b-8073-673671384abf","ios":"levelo://app?vid=af5db991-9eda-4a3b-8073-673671384abf"},"vehicle_type_id":"4","last_reported":1730110234,"current_range_meters":14400,"station_id":"ce4bgup2rcd13ifvqco0","pricing_plan_id":"cebpf4jnsgd1na2vs0mg"},{"bike_id":"8aaeb9b5-794f-423c-8c0a-bb1786925967","system_id":"levelo_inurba_marseille","lat":43.29267,"lon":5.3685,"is_reserved":false,"is_disabled":false,"rental_uris":{"android":"levelo://app?vid=8aaeb9b5-794f-423c-8c0a-bb1786925967","ios":"levelo://app?vid=8aaeb9b5-794f-423c-8c0a-bb1786925967"},"vehicle_type_id":"4","last_reported":1730110234,"current_range_meters":32000,"station_id":"ce4bhbp2rcd13ifvqesg","pricing_plan_id":"cebpf4jnsgd1na2vs0mg"},{"bike_id":"f166fcae-cd80-4a8e-9519-64e16d8dd52c","system_id":"levelo_inurba_marseille","lat":43.309116,"lon":5.368523,"is_reserved":false,"is_disabled":false,"rental_uris":{"android":"levelo://app?vid=f166fcae-cd80-4a8e-9519-64e16d8dd52c","ios":"levelo://app?vid=f166fcae-cd80-4a8e-9519-64e16d8dd52c"},"vehicle_type_id":"4","last_reported":1730110234,"current_range_meters":28400,"station_id":"ce4bgn92rcd13ifvqbvg","pricing_plan_id":"cebpf4jnsgd1na2vs0mg"},{"bike_id":"b953eceb-3ed9-4394-8d28-9bc7a648a5cb","system_id":"levelo_inurba_marseille","lat":43.23145,"lon":5.43714,"is_reserved":false,"is_disabled":false,"rental_uris":{"android":"levelo://app?vid=b953eceb-3ed9-4394-8d28-9bc7a648a5cb","ios":"levelo://app?vid=b953eceb-3ed9-4394-8d28-9bc7a648a5cb"},"vehicle_type_id":"4","last_reported":1730110234,"current_range_meters":14400,"station_id":"ce4bhmp2rcd13ifvqgog","pricing_plan_id":"cebpf4jnsgd1na2vs0mg"},{"bike_id":"662cd550-d576-4dfb-836b-d4a09502c2bc","system_id":"levelo_inurba_marseille","lat":43.31066,"lon":5.38355,"is_reserved":false,"is_disabled":false,"rental_uris":{"android":"levelo://app?vid=662cd550-d576-4dfb-836b-d4a09502c2bc","ios":"levelo://app?vid=662cd550-d576-4dfb-836b-d4a09502c2bc"},"vehicle_type_id":"4","last_reported":1730110234,"current_range_meters":37600,"station_id":"ce4bgv92rcd13ifvqcr0","pricing_plan_id":"cebpf4jnsgd1na2vs0mg"},{"bike_id":"6875a1a6-32b9-4783-93f5-84a3a0c85f67","system_id":"levelo_inurba_marseille","lat":43.23066,"lon":5.35491,"is_reserved":false,"is_disabled":false,"rental_uris":{"android":"levelo://app?vid=6875a1a6-32b9-4783-93f5-84a3a0c85f67","ios":"levelo://app?vid=6875a1a6-32b9-4783-93f5-84a3a0c85f67"},"vehicle_type_id":"4","last_reported":1730110234,"current_range_meters":20000,"station_id":"cpo3342slgdg3j2ifvpg","pricing_plan_id":"cebpf4jnsgd1na2vs0mg"},{"bike_id":"94d6eccc-b6d9-4b50-b069-cf8bef7cfe2b","system_id":"levelo_inurba_marseille","lat":43.29918,"lon":5.37479,"is_reserved":false,"is_disabled":false,"rental_uris":{"android":"levelo://app?vid=94d6eccc-b6d9-4b50-b069-cf8bef7cfe2b","ios":"levelo://app?vid=94d6eccc-b6d9-4b50-b069-cf8bef7cfe2b"},"vehicle_type_id":"4","last_reported":1730110234,"current_range_meters":36000,"station_id":"ce4bgjh2rcd13ifvqbg0","pricing_plan_id":"cebpf4jnsgd1na2vs0mg"},{"bike_id":"6ffa87f7-fad5-4335-94a1-9d751fef8e07","system_id":"levelo_inurba_marseille","lat":43.26805,"lon":5.40268,"is_reserved":false,"is_disabled":false,"rental_uris":{"android":"levelo://app?vid=6ffa87f7-fad5-4335-94a1-9d751fef8e07","ios":"levelo://app?vid=6ffa87f7-fad5-4335-94a1-9d751fef8e07"},"vehicle_type_id":"4","last_reported":1730110234,"current_range_meters":28800,"station_id":"ce501612rcd8frsf0b60","pricing_plan_id":"cebpf4jnsgd1na2vs0mg"},{"bike_id":"45a47d87-2976-4b53-91fe-c7b95f0bb792","system_id":"levelo_inurba_marseille","lat":43.28152,"lon":5.42643,"is_reserved":false,"is_disabled":false,"rental_uris":{"android":"levelo://app?vid=45a47d87-2976-4b53-91fe-c7b95f0bb792","ios":"levelo://app?vid=45a47d87-2976-4b53-91fe-c7b95f0bb792"},"vehicle_type_id":"4","last_reported":1730110234,"current_range_meters":28400,"station_id":"ce4bhnh2rcd13ifvqgug","pricing_plan_id":"cebpf4jnsgd1na2vs0mg"},{"bike_id":"e89036ab-06cb-459b-91f1-830ff3435de6","system_id":"levelo_inurba_marseille","lat":43.23196,"lon":5.35549,"is_reserved":false,"is_disabled":false,"rental_uris":{"android":"levelo://app?vid=e89036ab-06cb-459b-91f1-830ff3435de6","ios":"levelo://app?vid=e89036ab-06cb-459b-91f1-830ff3435de6"},"vehicle_type_id":"4","last_reported":1730110234,"current_range_meters":37600,"station_id":"ce4bhu92rcd13ifvqi70","pricing_plan_id":"cebpf4jnsgd1na2vs0mg"},{"bike_id":"e87e30e7-8b4d-4a32-a4ca-07a0dd9f1ac4","system_id":"levelo_inurba_marseille","lat":43.30943,"lon":5.40144,"is_reserved":false,"is_disabled":false,"rental_uris":{"android":"levelo://app?vid=e87e30e7-8b4d-4a32-a4ca-07a0dd9f1ac4","ios":"levelo://app?vid=e87e30e7-8b4d-4a32-a4ca-07a0dd9f1ac4"},"vehicle_type_id":"4","last_reported":1730110234,"current_range_meters":38000,"station_id":"ce4bgvp2rcd13ifvqct0","pricing_plan_id":"cebpf4jnsgd1na2vs0mg"},{"bike_id":"b1d55027-2f8a-47e1-9245-9ac2ee1613ea","system_id":"levelo_inurba_marseille","lat":43.30893,"lon":5.37196,"is_reserved":false,"is_disabled":false,"rental_uris":{"android":"levelo://app?vid=b1d55027-2f8a-47e1-9245-9ac2ee1613ea","ios":"levelo://app?vid=b1d55027-2f8a-47e1-9245-9ac2ee1613ea"},"vehicle_type_id":"4","last_reported":1730110234,"current_range_meters":20000,"station_id":"ce4bguh2rcd13ifvqckg","pricing_plan_id":"cebpf4jnsgd1na2vs0mg"},{"bike_id":"e7643966-1d67-4e1a-9d97-5a321bf7224e","system_id":"levelo_inurba_marseille","lat":43.33767,"lon":5.37442,"is_reserved":false,"is_disabled":false,"rental_uris":{"android":"levelo://app?vid=e7643966-1d67-4e1a-9d97-5a321bf7224e","ios":"levelo://app?vid=e7643966-1d67-4e1a-9d97-5a321bf7224e"},"vehicle_type_id":"4","last_reported":1730110234,"current_range_meters":34800,"station_id":"","pricing_plan_id":"cebpf4jnsgd1na2vs0mg"},{"bike_id":"7fe76d9c-88a1-4c85-8e5f-9f86d7557849","system_id":"levelo_inurba_marseille","lat":43.23129,"lon":5.43701,"is_reserved":false,"is_disabled":false,"rental_uris":{"android":"levelo://app?vid=7fe76d9c-88a1-4c85-8e5f-9f86d7557849","ios":"levelo://app?vid=7fe76d9c-88a1-4c85-8e5f-9f86d7557849"},"vehicle_type_id":"4","last_reported":1730110234,"current_range_meters":21600,"station_id":"ce4bhmp2rcd13ifvqgog","pricing_plan_id":"cebpf4jnsgd1na2vs0mg"},{"bike_id":"5d013205-968f-46f0-8cb2-f55d13ad5ff4","system_id":"levelo_inurba_marseille","lat":43.32475,"lon":5.36573,"is_reserved":false,"is_disabled":false,"rental_uris":{"android":"levelo://app?vid=5d013205-968f-46f0-8cb2-f55d13ad5ff4","ios":"levelo://app?vid=5d013205-968f-46f0-8cb2-f55d13ad5ff4"},"vehicle_type_id":"4","last_reported":1730110234,"current_range_meters":37600,"station_id":"ce4bhs12rcd13ifvqhvg","pricing_plan_id":"cebpf4jnsgd1na2vs0mg"},{"bike_id":"4aee1b18-b4c8-4ec8-a58f-6833accd77f8","system_id":"levelo_inurba_marseille","lat":43.2418,"lon":5.39717,"is_reserved":false,"is_disabled":false,"rental_uris":{"android":"levelo://app?vid=4aee1b18-b4c8-4ec8-a58f-6833accd77f8","ios":"levelo://app?vid=4aee1b18-b4c8-4ec8-a58f-6833accd77f8"},"vehicle_type_id":"4","last_reported":1730110234,"current_range_meters":18000,"station_id":"ce4bhn12rcd13ifvqgpg","pricing_plan_id":"cebpf4jnsgd1na2vs0mg"},{"bike_id":"84025638-7bd9-4363-8dd5-d0c493e669fe","system_id":"levelo_inurba_marseille","lat":43.29276,"lon":5.36842,"is_reserved":false,"is_disabled":false,"rental_uris":{"android":"levelo://app?vid=84025638-7bd9-4363-8dd5-d0c493e669fe","ios":"levelo://app?vid=84025638-7bd9-4363-8dd5-d0c493e669fe"},"vehicle_type_id":"4","last_reported":1730110234,"current_range_meters":24000,"station_id":"ce4bhbp2rcd13ifvqesg","pricing_plan_id":"cebpf4jnsgd1na2vs0mg"},{"bike_id":"249312aa-f724-4478-a9eb-4212b8545ed7","system_id":"levelo_inurba_marseille","lat":43.2958,"lon":5.37528,"is_reserved":false,"is_disabled":false,"rental_uris":{"android":"levelo://app?vid=249312aa-f724-4478-a9eb-4212b8545ed7","ios":"levelo://app?vid=249312aa-f724-4478-a9eb-4212b8545ed7"},"vehicle_type_id":"4","last_reported":1730110234,"current_range_meters":25600,"station_id":"ce4bgh92rcd13ifvqb50","pricing_plan_id":"cebpf4jnsgd1na2vs0mg"},{"bike_id":"c9f299e7-44b3-4adc-a93d-769d4eadb8bd","system_id":"levelo_inurba_marseille","lat":43.23151,"lon":5.43727,"is_reserved":false,"is_disabled":false,"rental_uris":{"android":"levelo://app?vid=c9f299e7-44b3-4adc-a93d-769d4eadb8bd","ios":"levelo://app?vid=c9f299e7-44b3-4adc-a93d-769d4eadb8bd"},"vehicle_type_id":"4","last_reported":1730110234,"current_range_meters":34800,"station_id":"ce4bhmp2rcd13ifvqgog","pricing_plan_id":"cebpf4jnsgd1na2vs0mg"},{"bike_id":"30e2439f-78bb-4e63-8109-d1b84dd72319","system_id":"levelo_inurba_marseille","lat":43.30892,"lon":5.37186,"is_reserved":false,"is_disabled":false,"rental_uris":{"android":"levelo://app?vid=30e2439f-78bb-4e63-8109-d1b84dd72319","ios":"levelo://app?vid=30e2439f-78bb-4e63-8109-d1b84dd72319"},"vehicle_type_id":"4","last_reported":1730110234,"current_range_meters":24800,"station_id":"ce4bguh2rcd13ifvqckg","pricing_plan_id":"cebpf4jnsgd1na2vs0mg"},{"bike_id":"8b1435f2-e9dd-44c1-a5f6-f4cfccf31c9f","system_id":"levelo_inurba_marseille","lat":43.33117,"lon":5.38212,"is_reserved":false,"is_disabled":false,"rental_uris":{"android":"levelo://app?vid=8b1435f2-e9dd-44c1-a5f6-f4cfccf31c9f","ios":"levelo://app?vid=8b1435f2-e9dd-44c1-a5f6-f4cfccf31c9f"},"vehicle_type_id":"4","last_reported":1730110234,"current_range_meters":30000,"station_id":"","pricing_plan_id":"cebpf4jnsgd1na2vs0mg"},{"bike_id":"1959dbd9-0ee0-478d-a3dc-b3a0dfb37df2","system_id":"levelo_inurba_marseille","lat":43.30539,"lon":5.36531,"is_reserved":false,"is_disabled":false,"rental_uris":{"android":"levelo://app?vid=1959dbd9-0ee0-478d-a3dc-b3a0dfb37df2","ios":"levelo://app?vid=1959dbd9-0ee0-478d-a3dc-b3a0dfb37df2"},"vehicle_type_id":"4","last_reported":1730110234,"current_range_meters":35600,"station_id":"ce4bgs12rcd13ifvqcag","pricing_plan_id":"cebpf4jnsgd1na2vs0mg"},{"bike_id":"ac54c711-9c7f-4346-b1bd-7b0862fab3bb","system_id":"levelo_inurba_marseille","lat":43.30961,"lon":5.39039,"is_reserved":false,"is_disabled":false,"rental_uris":{"android":"levelo://app?vid=ac54c711-9c7f-4346-b1bd-7b0862fab3bb","ios":"levelo://app?vid=ac54c711-9c7f-4346-b1bd-7b0862fab3bb"},"vehicle_type_id":"4","last_reported":1730110234,"current_range_meters":14800,"station_id":"ce4bgup2rcd13ifvqco0","pricing_plan_id":"cebpf4jnsgd1na2vs0mg"},{"bike_id":"821232e0-1cf3-4ea2-9619-da0a287f623c","system_id":"levelo_inurba_marseille","lat":43.31713,"lon":5.43706,"is_reserved":false,"is_disabled":false,"rental_uris":{"android":"levelo://app?vid=821232e0-1cf3-4ea2-9619-da0a287f623c","ios":"levelo://app?vid=821232e0-1cf3-4ea2-9619-da0a287f623c"},"vehicle_type_id":"4","last_reported":1730110234,"current_range_meters":34800,"station_id":"ce4bhp92rcd13ifvqhcg","pricing_plan_id":"cebpf4jnsgd1na2vs0mg"},{"bike_id":"ef915c69-a746-473b-bdc6-ca2cdbe5bac9","system_id":"levelo_inurba_marseille","lat":43.32284,"lon":5.38279,"is_reserved":false,"is_disabled":false,"rental_uris":{"android":"levelo://app?vid=ef915c69-a746-473b-bdc6-ca2cdbe5bac9","ios":"levelo://app?vid=ef915c69-a746-473b-bdc6-ca2cdbe5bac9"},"vehicle_type_id":"4","last_reported":1730110234,"current_range_meters":39200,"station_id":"ce4bhr12rcd13ifvqhqg","pricing_plan_id":"cebpf4jnsgd1na2vs0mg"},{"bike_id":"6e4158cd-dbb8-468e-827a-350a592e6481","system_id":"levelo_inurba_marseille","lat":43.3014,"lon":5.37422,"is_reserved":false,"is_disabled":false,"rental_uris":{"android":"levelo://app?vid=6e4158cd-dbb8-468e-827a-350a592e6481","ios":"levelo://app?vid=6e4158cd-dbb8-468e-827a-350a592e6481"},"vehicle_type_id":"4","last_reported":1730110234,"current_range_meters":24400,"station_id":"ce4bgs92rcd13ifvqcc0","pricing_plan_id":"cebpf4jnsgd1na2vs0mg"},{"bike_id":"cd8988cf-34e0-4cd8-92c1-67d3cd8c964e","system_id":"levelo_inurba_marseille","lat":43.2396,"lon":5.36627,"is_reserved":false,"is_disabled":false,"rental_uris":{"android":"levelo://app?vid=cd8988cf-34e0-4cd8-92c1-67d3cd8c964e","ios":"levelo://app?vid=cd8988cf-34e0-4cd8-92c1-67d3cd8c964e"},"vehicle_type_id":"4","last_reported":1730110234,"current_range_meters":10800,"station_id":"ce4bhi12rcd13ifvqfp0","pricing_plan_id":"cebpf4jnsgd1na2vs0mg"},{"bike_id":"24c053cc-373c-4d62-8b09-84a4d2361cd9","system_id":"levelo_inurba_marseille","lat":43.31345,"lon":5.367,"is_reserved":false,"is_disabled":false,"rental_uris":{"android":"levelo://app?vid=24c053cc-373c-4d62-8b09-84a4d2361cd9","ios":"levelo://app?vid=24c053cc-373c-4d62-8b09-84a4d2361cd9"},"vehicle_type_id":"4","last_reported":1730110234,"current_range_meters":38800,"station_id":"ce4bgr92rcd13ifvqc6g","pricing_plan_id":"cebpf4jnsgd1na2vs0mg"},{"bike_id":"1b9bf462-0f74-47dd-87bf-5f5ca803ccff","system_id":"levelo_inurba_marseille","lat":43.26806,"lon":5.40271,"is_reserved":false,"is_disabled":false,"rental_uris":{"android":"levelo://app?vid=1b9bf462-0f74-47dd-87bf-5f5ca803ccff","ios":"levelo://app?vid=1b9bf462-0f74-47dd-87bf-5f5ca803ccff"},"vehicle_type_id":"4","last_reported":1730110234,"current_range_meters":38000,"station_id":"ce501612rcd8frsf0b60","pricing_plan_id":"cebpf4jnsgd1na2vs0mg"},{"bike_id":"ed359f0a-e127-4b75-a938-306e58651b29","system_id":"levelo_inurba_marseille","lat":43.30285,"lon":5.37694,"is_reserved":false,"is_disabled":false,"rental_uris":{"android":"levelo://app?vid=ed359f0a-e127-4b75-a938-306e58651b29","ios":"levelo://app?vid=ed359f0a-e127-4b75-a938-306e58651b29"},"vehicle_type_id":"4","last_reported":1730110234,"current_range_meters":24800,"station_id":"ce4bguh2rcd13ifvqcj0","pricing_plan_id":"cebpf4jnsgd1na2vs0mg"},{"bike_id":"c259bf6b-2a32-45bd-889b-a3fa583c8867","system_id":"levelo_inurba_marseille","lat":43.29276,"lon":5.36848,"is_reserved":false,"is_disabled":false,"rental_uris":{"android":"levelo://app?vid=c259bf6b-2a32-45bd-889b-a3fa583c8867","ios":"levelo://app?vid=c259bf6b-2a32-45bd-889b-a3fa583c8867"},"vehicle_type_id":"4","last_reported":1730110234,"current_range_meters":28400,"station_id":"ce4bhbp2rcd13ifvqesg","pricing_plan_id":"cebpf4jnsgd1na2vs0mg"},{"bike_id":"bea43885-0856-455e-ac3f-50e3c52f4d9e","system_id":"levelo_inurba_marseille","lat":43.25106,"lon":5.40318,"is_reserved":false,"is_disabled":false,"rental_uris":{"android":"levelo://app?vid=bea43885-0856-455e-ac3f-50e3c52f4d9e","ios":"levelo://app?vid=bea43885-0856-455e-ac3f-50e3c52f4d9e"},"vehicle_type_id":"4","last_reported":1730110234,"current_range_meters":37600,"station_id":"ce4bhlh2rcd13ifvqgig","pricing_plan_id":"cebpf4jnsgd1na2vs0mg"},{"bike_id":"b863e791-dd48-46a4-b638-14ddd3ae6e32","system_id":"levelo_inurba_marseille","lat":43.32342,"lon":5.40618,"is_reserved":false,"is_disabled":false,"rental_uris":{"android":"levelo://app?vid=b863e791-dd48-46a4-b638-14ddd3ae6e32","ios":"levelo://app?vid=b863e791-dd48-46a4-b638-14ddd3ae6e32"},"vehicle_type_id":"4","last_reported":1730110234,"current_range_meters":11200,"station_id":"ce4bhq92rcd13ifvqhjg","pricing_plan_id":"cebpf4jnsgd1na2vs0mg"},{"bike_id":"aacb3cb6-ebb2-4c9a-9d59-1efc9a1b694e","system_id":"levelo_inurba_marseille","lat":43.25103,"lon":5.40323,"is_reserved":false,"is_disabled":false,"rental_uris":{"android":"levelo://app?vid=aacb3cb6-ebb2-4c9a-9d59-1efc9a1b694e","ios":"levelo://app?vid=aacb3cb6-ebb2-4c9a-9d59-1efc9a1b694e"},"vehicle_type_id":"4","last_reported":1730110234,"current_range_meters":8800,"station_id":"ce4bhlh2rcd13ifvqgig","pricing_plan_id":"cebpf4jnsgd1na2vs0mg"},{"bike_id":"dbf1144f-f94e-4f54-9ae3-678a78da553e","system_id":"levelo_inurba_marseille","lat":43.337444,"lon":5.374475,"is_reserved":false,"is_disabled":false,"rental_uris":{"android":"levelo://app?vid=dbf1144f-f94e-4f54-9ae3-678a78da553e","ios":"levelo://app?vid=dbf1144f-f94e-4f54-9ae3-678a78da553e"},"vehicle_type_id":"4","last_reported":1730110234,"current_range_meters":37600,"station_id":"ce4bhb92rcd13ifvqen0","pricing_plan_id":"cebpf4jnsgd1na2vs0mg"},{"bike_id":"fe0f4ad9-8221-48ed-be5d-c64547a2f47a","system_id":"levelo_inurba_marseille","lat":43.28635,"lon":5.38349,"is_reserved":false,"is_disabled":false,"rental_uris":{"android":"levelo://app?vid=fe0f4ad9-8221-48ed-be5d-c64547a2f47a","ios":"levelo://app?vid=fe0f4ad9-8221-48ed-be5d-c64547a2f47a"},"vehicle_type_id":"4","last_reported":1730110234,"current_range_meters":22800,"station_id":"ce4bh4p2rcd13ifvqe1g","pricing_plan_id":"cebpf4jnsgd1na2vs0mg"},{"bike_id":"9adafdd8-3240-48a9-a8cf-b77695dc96b2","system_id":"levelo_inurba_marseille","lat":43.32371,"lon":5.38876,"is_reserved":false,"is_disabled":false,"rental_uris":{"android":"levelo://app?vid=9adafdd8-3240-48a9-a8cf-b77695dc96b2","ios":"levelo://app?vid=9adafdd8-3240-48a9-a8cf-b77695dc96b2"},"vehicle_type_id":"4","last_reported":1730110234,"current_range_meters":38000,"station_id":"ce4bhqp2rcd13ifvqhog","pricing_plan_id":"cebpf4jnsgd1na2vs0mg"},{"bike_id":"8d66ba2e-e771-4c67-99ad-ef2d113002e3","system_id":"levelo_inurba_marseille","lat":43.25082,"lon":5.39517,"is_reserved":false,"is_disabled":false,"rental_uris":{"android":"levelo://app?vid=8d66ba2e-e771-4c67-99ad-ef2d113002e3","ios":"levelo://app?vid=8d66ba2e-e771-4c67-99ad-ef2d113002e3"},"vehicle_type_id":"4","last_reported":1730110234,"current_range_meters":38800,"station_id":"ce4bhm12rcd13ifvqgkg","pricing_plan_id":"cebpf4jnsgd1na2vs0mg"},{"bike_id":"ed91038f-89c8-49dd-8794-c72c4cab0a51","system_id":"levelo_inurba_marseille","lat":43.30305,"lon":5.39215,"is_reserved":false,"is_disabled":false,"rental_uris":{"android":"levelo://app?vid=ed91038f-89c8-49dd-8794-c72c4cab0a51","ios":"levelo://app?vid=ed91038f-89c8-49dd-8794-c72c4cab0a51"},"vehicle_type_id":"4","last_reported":1730110234,"current_range_meters":38800,"station_id":"ce4bgkh2rcd13ifvqbk0","pricing_plan_id":"cebpf4jnsgd1na2vs0mg"},{"bike_id":"4bda86c9-b34d-4721-ad08-018609cf8dc2","system_id":"levelo_inurba_marseille","lat":43.29303,"lon":5.37179,"is_reserved":false,"is_disabled":false,"rental_uris":{"android":"levelo://app?vid=4bda86c9-b34d-4721-ad08-018609cf8dc2","ios":"levelo://app?vid=4bda86c9-b34d-4721-ad08-018609cf8dc2"},"vehicle_type_id":"4","last_reported":1730110234,"current_range_meters":38800,"station_id":"ce4bgh92rcd13ifvqb40","pricing_plan_id":"cebpf4jnsgd1na2vs0mg"},{"bike_id":"8d2ef424-a5a8-454f-8a85-bd382fed8ac4","system_id":"levelo_inurba_marseille","lat":43.30556,"lon":5.36536,"is_reserved":false,"is_disabled":false,"rental_uris":{"android":"levelo://app?vid=8d2ef424-a5a8-454f-8a85-bd382fed8ac4","ios":"levelo://app?vid=8d2ef424-a5a8-454f-8a85-bd382fed8ac4"},"vehicle_type_id":"4","last_reported":1730110234,"current_range_meters":27200,"station_id":"ce4bgs12rcd13ifvqcag","pricing_plan_id":"cebpf4jnsgd1na2vs0mg"},{"bike_id":"b8e13f61-7a01-4802-ab99-1fc57e8e466f","system_id":"levelo_inurba_marseille","lat":43.25596,"lon":5.38222,"is_reserved":false,"is_disabled":false,"rental_uris":{"android":"levelo://app?vid=b8e13f61-7a01-4802-ab99-1fc57e8e466f","ios":"levelo://app?vid=b8e13f61-7a01-4802-ab99-1fc57e8e466f"},"vehicle_type_id":"4","last_reported":1730110234,"current_range_meters":35600,"station_id":"ce4bhih2rcd13ifvqfs0","pricing_plan_id":"cebpf4jnsgd1na2vs0mg"},{"bike_id":"c8713419-a835-43b9-ac75-b05adb95bea9","system_id":"levelo_inurba_marseille","lat":43.29553,"lon":5.42286,"is_reserved":false,"is_disabled":false,"rental_uris":{"android":"levelo://app?vid=c8713419-a835-43b9-ac75-b05adb95bea9","ios":"levelo://app?vid=c8713419-a835-43b9-ac75-b05adb95bea9"},"vehicle_type_id":"4","last_reported":1730110234,"current_range_meters":38800,"station_id":"ce4bhph2rcd13ifvqhdg","pricing_plan_id":"cebpf4jnsgd1na2vs0mg"},{"bike_id":"612cf43d-6624-4c64-a8a8-1bf41fca40e0","system_id":"levelo_inurba_marseille","lat":43.30554,"lon":5.36699,"is_reserved":false,"is_disabled":false,"rental_uris":{"android":"levelo://app?vid=612cf43d-6624-4c64-a8a8-1bf41fca40e0","ios":"levelo://app?vid=612cf43d-6624-4c64-a8a8-1bf41fca40e0"},"vehicle_type_id":"4","last_reported":1730110234,"current_range_meters":37600,"station_id":"","pricing_plan_id":"cebpf4jnsgd1na2vs0mg"},{"bike_id":"ef4c3fc5-30a2-4016-a8cb-6ce788a189fc","system_id":"levelo_inurba_marseille","lat":43.29325,"lon":5.37028,"is_reserved":false,"is_disabled":false,"rental_uris":{"android":"levelo://app?vid=ef4c3fc5-30a2-4016-a8cb-6ce788a189fc","ios":"levelo://app?vid=ef4c3fc5-30a2-4016-a8cb-6ce788a189fc"},"vehicle_type_id":"4","last_reported":1730110234,"current_range_meters":12800,"station_id":"","pricing_plan_id":"cebpf4jnsgd1na2vs0mg"},{"bike_id":"8a0edeac-7e09-4162-bf09-059f81e6ac94","system_id":"levelo_inurba_marseille","lat":43.27178,"lon":5.40994,"is_reserved":false,"is_disabled":false,"rental_uris":{"android":"levelo://app?vid=8a0edeac-7e09-4162-bf09-059f81e6ac94","ios":"levelo://app?vid=8a0edeac-7e09-4162-bf09-059f81e6ac94"},"vehicle_type_id":"4","last_reported":1730110234,"current_range_meters":38000,"station_id":"ce4bhl12rcd13ifvqgf0","pricing_plan_id":"cebpf4jnsgd1na2vs0mg"},{"bike_id":"4900819c-eb66-421c-a2fc-e9962e80e0ab","system_id":"levelo_inurba_marseille","lat":43.28929,"lon":5.36404,"is_reserved":false,"is_disabled":false,"rental_uris":{"android":"levelo://app?vid=4900819c-eb66-421c-a2fc-e9962e80e0ab","ios":"levelo://app?vid=4900819c-eb66-421c-a2fc-e9962e80e0ab"},"vehicle_type_id":"4","last_reported":1730110234,"current_range_meters":35200,"station_id":"ce4bhc92rcd13ifvqetg","pricing_plan_id":"cebpf4jnsgd1na2vs0mg"},{"bike_id":"22e69140-bec2-4569-b1a2-bd6ec9c288e5","system_id":"levelo_inurba_marseille","lat":43.2816,"lon":5.42638,"is_reserved":false,"is_disabled":false,"rental_uris":{"android":"levelo://app?vid=22e69140-bec2-4569-b1a2-bd6ec9c288e5","ios":"levelo://app?vid=22e69140-bec2-4569-b1a2-bd6ec9c288e5"},"vehicle_type_id":"4","last_reported":1730110234,"current_range_meters":18800,"station_id":"ce4bhnh2rcd13ifvqgug","pricing_plan_id":"cebpf4jnsgd1na2vs0mg"},{"bike_id":"e113f747-4daa-44f7-a218-9e030daa2565","system_id":"levelo_inurba_marseille","lat":43.32105,"lon":5.36769,"is_reserved":false,"is_disabled":false,"rental_uris":{"android":"levelo://app?vid=e113f747-4daa-44f7-a218-9e030daa2565","ios":"levelo://app?vid=e113f747-4daa-44f7-a218-9e030daa2565"},"vehicle_type_id":"4","last_reported":1730110234,"current_range_meters":22000,"station_id":"ce4bhrh2rcd13ifvqhug","pricing_plan_id":"cebpf4jnsgd1na2vs0mg"},{"bike_id":"5f84fa99-fd4a-4454-bf05-7ee614f1fbe5","system_id":"levelo_inurba_marseille","lat":43.30261,"lon":5.40077,"is_reserved":false,"is_disabled":false,"rental_uris":{"android":"levelo://app?vid=5f84fa99-fd4a-4454-bf05-7ee614f1fbe5","ios":"levelo://app?vid=5f84fa99-fd4a-4454-bf05-7ee614f1fbe5"},"vehicle_type_id":"4","last_reported":1730110234,"current_range_meters":28800,"station_id":"ce4bgvh2rcd13ifvqcs0","pricing_plan_id":"cebpf4jnsgd1na2vs0mg"},{"bike_id":"c83bf92a-895e-4031-90cc-0a4806604b3f","system_id":"levelo_inurba_marseille","lat":43.23054,"lon":5.35491,"is_reserved":false,"is_disabled":false,"rental_uris":{"android":"levelo://app?vid=c83bf92a-895e-4031-90cc-0a4806604b3f","ios":"levelo://app?vid=c83bf92a-895e-4031-90cc-0a4806604b3f"},"vehicle_type_id":"4","last_reported":1730110234,"current_range_meters":37600,"station_id":"cpo3342slgdg3j2ifvpg","pricing_plan_id":"cebpf4jnsgd1na2vs0mg"},{"bike_id":"094a1a05-1375-44eb-b538-5b56a6814d16","system_id":"levelo_inurba_marseille","lat":43.291992,"lon":5.393113,"is_reserved":false,"is_disabled":false,"rental_uris":{"android":"levelo://app?vid=094a1a05-1375-44eb-b538-5b56a6814d16","ios":"levelo://app?vid=094a1a05-1375-44eb-b538-5b56a6814d16"},"vehicle_type_id":"4","last_reported":1730110234,"current_range_meters":28400,"station_id":"ce4bh192rcd13ifvqdd0","pricing_plan_id":"cebpf4jnsgd1na2vs0mg"},{"bike_id":"9fd56fad-5f3d-42b4-b491-7b57b76bc0cf","system_id":"levelo_inurba_marseille","lat":43.27815,"lon":5.40714,"is_reserved":false,"is_disabled":false,"rental_uris":{"android":"levelo://app?vid=9fd56fad-5f3d-42b4-b491-7b57b76bc0cf","ios":"levelo://app?vid=9fd56fad-5f3d-42b4-b491-7b57b76bc0cf"},"vehicle_type_id":"4","last_reported":1730110234,"current_range_meters":17200,"station_id":"ce4bhnh2rcd13ifvqgtg","pricing_plan_id":"cebpf4jnsgd1na2vs0mg"},{"bike_id":"5bdbc303-31da-4c63-9190-d56725549620","system_id":"levelo_inurba_marseille","lat":43.28425,"lon":5.34996,"is_reserved":false,"is_disabled":false,"rental_uris":{"android":"levelo://app?vid=5bdbc303-31da-4c63-9190-d56725549620","ios":"levelo://app?vid=5bdbc303-31da-4c63-9190-d56725549620"},"vehicle_type_id":"4","last_reported":1730110234,"current_range_meters":36800,"station_id":"ce4bhbh2rcd13ifvqepg","pricing_plan_id":"cebpf4jnsgd1na2vs0mg"},{"bike_id":"0f7030f2-2181-4720-b611-0379e68f7e6f","system_id":"levelo_inurba_marseille","lat":43.32342,"lon":5.40613,"is_reserved":false,"is_disabled":false,"rental_uris":{"android":"levelo://app?vid=0f7030f2-2181-4720-b611-0379e68f7e6f","ios":"levelo://app?vid=0f7030f2-2181-4720-b611-0379e68f7e6f"},"vehicle_type_id":"4","last_reported":1730110234,"current_range_meters":28800,"station_id":"ce4bhq92rcd13ifvqhjg","pricing_plan_id":"cebpf4jnsgd1na2vs0mg"},{"bike_id":"46df253e-d9c9-461e-a662-cb95d98f58c0","system_id":"levelo_inurba_marseille","lat":43.23185,"lon":5.3999,"is_reserved":false,"is_disabled":false,"rental_uris":{"android":"levelo://app?vid=46df253e-d9c9-461e-a662-cb95d98f58c0","ios":"levelo://app?vid=46df253e-d9c9-461e-a662-cb95d98f58c0"},"vehicle_type_id":"4","last_reported":1730110234,"current_range_meters":38800,"station_id":"ce4bhn12rcd13ifvqgqg","pricing_plan_id":"cebpf4jnsgd1na2vs0mg"},{"bike_id":"e7fb1530-5328-476e-9ce7-09021e65066a","system_id":"levelo_inurba_marseille","lat":43.32057,"lon":5.4154,"is_reserved":false,"is_disabled":false,"rental_uris":{"android":"levelo://app?vid=e7fb1530-5328-476e-9ce7-09021e65066a","ios":"levelo://app?vid=e7fb1530-5328-476e-9ce7-09021e65066a"},"vehicle_type_id":"4","last_reported":1730110234,"current_range_meters":38800,"station_id":"ce4bhq92rcd13ifvqhkg","pricing_plan_id":"cebpf4jnsgd1na2vs0mg"},{"bike_id":"e93f42e4-ca27-4ae1-ade5-80b77e2287bc","system_id":"levelo_inurba_marseille","lat":43.26207,"lon":5.37925,"is_reserved":false,"is_disabled":false,"rental_uris":{"android":"levelo://app?vid=e93f42e4-ca27-4ae1-ade5-80b77e2287bc","ios":"levelo://app?vid=e93f42e4-ca27-4ae1-ade5-80b77e2287bc"},"vehicle_type_id":"4","last_reported":1730110234,"current_range_meters":33600,"station_id":"ce4bhjp2rcd13ifvqg90","pricing_plan_id":"cebpf4jnsgd1na2vs0mg"},{"bike_id":"5ccd5221-4734-47cd-8333-1cc88b1e9b9e","system_id":"levelo_inurba_marseille","lat":43.31366,"lon":5.38488,"is_reserved":false,"is_disabled":false,"rental_uris":{"android":"levelo://app?vid=5ccd5221-4734-47cd-8333-1cc88b1e9b9e","ios":"levelo://app?vid=5ccd5221-4734-47cd-8333-1cc88b1e9b9e"},"vehicle_type_id":"4","last_reported":1730110234,"current_range_meters":30800,"station_id":"ce4bgt92rcd13ifvqcf0","pricing_plan_id":"cebpf4jnsgd1na2vs0mg"},{"bike_id":"5efa8e3f-c6a4-4af8-89d9-46a9cbf86753","system_id":"levelo_inurba_marseille","lat":43.29011,"lon":5.35616,"is_reserved":false,"is_disabled":false,"rental_uris":{"android":"levelo://app?vid=5efa8e3f-c6a4-4af8-89d9-46a9cbf86753","ios":"levelo://app?vid=5efa8e3f-c6a4-4af8-89d9-46a9cbf86753"},"vehicle_type_id":"4","last_reported":1730110234,"current_range_meters":38400,"station_id":"ce4bhb92rcd13ifvqen0","pricing_plan_id":"cebpf4jnsgd1na2vs0mg"},{"bike_id":"8cee2ff2-020d-457c-ba44-3425bcd9b16a","system_id":"levelo_inurba_marseille","lat":43.29007,"lon":5.35607,"is_reserved":false,"is_disabled":false,"rental_uris":{"android":"levelo://app?vid=8cee2ff2-020d-457c-ba44-3425bcd9b16a","ios":"levelo://app?vid=8cee2ff2-020d-457c-ba44-3425bcd9b16a"},"vehicle_type_id":"4","last_reported":1730110234,"current_range_meters":29600,"station_id":"ce4bhb92rcd13ifvqen0","pricing_plan_id":"cebpf4jnsgd1na2vs0mg"},{"bike_id":"939ef23a-8e9f-47e0-ba95-784e8e1c14b8","system_id":"levelo_inurba_marseille","lat":43.23067,"lon":5.35489,"is_reserved":false,"is_disabled":false,"rental_uris":{"android":"levelo://app?vid=939ef23a-8e9f-47e0-ba95-784e8e1c14b8","ios":"levelo://app?vid=939ef23a-8e9f-47e0-ba95-784e8e1c14b8"},"vehicle_type_id":"4","last_reported":1730110234,"current_range_meters":17200,"station_id":"cpo3342slgdg3j2ifvpg","pricing_plan_id":"cebpf4jnsgd1na2vs0mg"},{"bike_id":"c114e600-5c42-40fd-8b3f-b6c47c8be69a","system_id":"levelo_inurba_marseille","lat":43.23148,"lon":5.43716,"is_reserved":false,"is_disabled":false,"rental_uris":{"android":"levelo://app?vid=c114e600-5c42-40fd-8b3f-b6c47c8be69a","ios":"levelo://app?vid=c114e600-5c42-40fd-8b3f-b6c47c8be69a"},"vehicle_type_id":"4","last_reported":1730110234,"current_range_meters":38800,"station_id":"ce4bhmp2rcd13ifvqgog","pricing_plan_id":"cebpf4jnsgd1na2vs0mg"},{"bike_id":"3e2ed42f-cc34-4ae2-ae48-1e0ce520a073","system_id":"levelo_inurba_marseille","lat":43.26944,"lon":5.40245,"is_reserved":false,"is_disabled":false,"rental_uris":{"android":"levelo://app?vid=3e2ed42f-cc34-4ae2-ae48-1e0ce520a073","ios":"levelo://app?vid=3e2ed42f-cc34-4ae2-ae48-1e0ce520a073"},"vehicle_type_id":"4","last_reported":1730110234,"current_range_meters":38800,"station_id":"cjm6bp8fraef2m0cb0m0","pricing_plan_id":"cebpf4jnsgd1na2vs0mg"},{"bike_id":"a1713c42-9e57-4acb-9d0d-bb5f2ccfd709","system_id":"levelo_inurba_marseille","lat":43.29922,"lon":5.37462,"is_reserved":false,"is_disabled":false,"rental_uris":{"android":"levelo://app?vid=a1713c42-9e57-4acb-9d0d-bb5f2ccfd709","ios":"levelo://app?vid=a1713c42-9e57-4acb-9d0d-bb5f2ccfd709"},"vehicle_type_id":"4","last_reported":1730110234,"current_range_meters":38800,"station_id":"ce4bgjh2rcd13ifvqbg0","pricing_plan_id":"cebpf4jnsgd1na2vs0mg"},{"bike_id":"2b0b2e8e-b379-46a3-8a43-754736e1048e","system_id":"levelo_inurba_marseille","lat":43.30887,"lon":5.37198,"is_reserved":false,"is_disabled":false,"rental_uris":{"android":"levelo://app?vid=2b0b2e8e-b379-46a3-8a43-754736e1048e","ios":"levelo://app?vid=2b0b2e8e-b379-46a3-8a43-754736e1048e"},"vehicle_type_id":"4","last_reported":1730110234,"current_range_meters":9200,"station_id":"ce4bguh2rcd13ifvqckg","pricing_plan_id":"cebpf4jnsgd1na2vs0mg"},{"bike_id":"ba7ff12b-4fb3-47ea-b304-85ab8fca1364","system_id":"levelo_inurba_marseille","lat":43.32289,"lon":5.38272,"is_reserved":false,"is_disabled":false,"rental_uris":{"android":"levelo://app?vid=ba7ff12b-4fb3-47ea-b304-85ab8fca1364","ios":"levelo://app?vid=ba7ff12b-4fb3-47ea-b304-85ab8fca1364"},"vehicle_type_id":"4","last_reported":1730110234,"current_range_meters":39200,"station_id":"ce4bhr12rcd13ifvqhqg","pricing_plan_id":"cebpf4jnsgd1na2vs0mg"},{"bike_id":"277219c2-9cee-454b-a3ad-5d7c1780a706","system_id":"levelo_inurba_marseille","lat":43.29371,"lon":5.3786,"is_reserved":false,"is_disabled":false,"rental_uris":{"android":"levelo://app?vid=277219c2-9cee-454b-a3ad-5d7c1780a706","ios":"levelo://app?vid=277219c2-9cee-454b-a3ad-5d7c1780a706"},"vehicle_type_id":"4","last_reported":1730110234,"current_range_meters":35200,"station_id":"ce4bgjh2rcd13ifvqbf0","pricing_plan_id":"cebpf4jnsgd1na2vs0mg"},{"bike_id":"e25b08b7-745a-4210-bcf7-4e097ebda2a4","system_id":"levelo_inurba_marseille","lat":43.28153,"lon":5.42642,"is_reserved":false,"is_disabled":false,"rental_uris":{"android":"levelo://app?vid=e25b08b7-745a-4210-bcf7-4e097ebda2a4","ios":"levelo://app?vid=e25b08b7-745a-4210-bcf7-4e097ebda2a4"},"vehicle_type_id":"4","last_reported":1730110234,"current_range_meters":20400,"station_id":"ce4bhnh2rcd13ifvqgug","pricing_plan_id":"cebpf4jnsgd1na2vs0mg"},{"bike_id":"f7a50275-88a4-4be4-ac33-5cce1242cfaa","system_id":"levelo_inurba_marseille","lat":43.31722,"lon":5.37744,"is_reserved":false,"is_disabled":false,"rental_uris":{"android":"levelo://app?vid=f7a50275-88a4-4be4-ac33-5cce1242cfaa","ios":"levelo://app?vid=f7a50275-88a4-4be4-ac33-5cce1242cfaa"},"vehicle_type_id":"4","last_reported":1730110234,"current_range_meters":39200,"station_id":"ce4bgth2rcd13ifvqch0","pricing_plan_id":"cebpf4jnsgd1na2vs0mg"},{"bike_id":"c9541529-58ab-4ef5-ab08-78f92de7befe","system_id":"levelo_inurba_marseille","lat":43.30172,"lon":5.37515,"is_reserved":false,"is_disabled":false,"rental_uris":{"android":"levelo://app?vid=c9541529-58ab-4ef5-ab08-78f92de7befe","ios":"levelo://app?vid=c9541529-58ab-4ef5-ab08-78f92de7befe"},"vehicle_type_id":"4","last_reported":1730110234,"current_range_meters":8800,"station_id":"ce4bgs92rcd13ifvqcc0","pricing_plan_id":"cebpf4jnsgd1na2vs0mg"},{"bike_id":"2fa840a4-c474-490f-ad60-4fac3deda4c7","system_id":"levelo_inurba_marseille","lat":43.29277,"lon":5.36835,"is_reserved":false,"is_disabled":false,"rental_uris":{"android":"levelo://app?vid=2fa840a4-c474-490f-ad60-4fac3deda4c7","ios":"levelo://app?vid=2fa840a4-c474-490f-ad60-4fac3deda4c7"},"vehicle_type_id":"4","last_reported":1730110234,"current_range_meters":30000,"station_id":"ce4bhbp2rcd13ifvqesg","pricing_plan_id":"cebpf4jnsgd1na2vs0mg"},{"bike_id":"0e6d7f45-38e9-416c-af7c-70cf58d1daa1","system_id":"levelo_inurba_marseille","lat":43.30459,"lon":5.37896,"is_reserved":false,"is_disabled":false,"rental_uris":{"android":"levelo://app?vid=0e6d7f45-38e9-416c-af7c-70cf58d1daa1","ios":"levelo://app?vid=0e6d7f45-38e9-416c-af7c-70cf58d1daa1"},"vehicle_type_id":"4","last_reported":1730110234,"current_range_meters":38800,"station_id":"ce4bgup2rcd13ifvqcn0","pricing_plan_id":"cebpf4jnsgd1na2vs0mg"},{"bike_id":"86de51d7-7689-4b34-9eeb-07ffaec36dca","system_id":"levelo_inurba_marseille","lat":43.26728,"lon":5.39427,"is_reserved":false,"is_disabled":false,"rental_uris":{"android":"levelo://app?vid=86de51d7-7689-4b34-9eeb-07ffaec36dca","ios":"levelo://app?vid=86de51d7-7689-4b34-9eeb-07ffaec36dca"},"vehicle_type_id":"4","last_reported":1730110234,"current_range_meters":36800,"station_id":"ce4bhdp2rcd13ifvqf20","pricing_plan_id":"cebpf4jnsgd1na2vs0mg"},{"bike_id":"7ca56edd-ab0f-42b5-b290-aff4cb25cb72","system_id":"levelo_inurba_marseille","lat":43.24386,"lon":5.37053,"is_reserved":false,"is_disabled":false,"rental_uris":{"android":"levelo://app?vid=7ca56edd-ab0f-42b5-b290-aff4cb25cb72","ios":"levelo://app?vid=7ca56edd-ab0f-42b5-b290-aff4cb25cb72"},"vehicle_type_id":"4","last_reported":1730110234,"current_range_meters":30000,"station_id":"ce4bhhh2rcd13ifvqfk0","pricing_plan_id":"cebpf4jnsgd1na2vs0mg"},{"bike_id":"24c3453c-534c-45c3-af57-87b77df17206","system_id":"levelo_inurba_marseille","lat":43.337444,"lon":5.374475,"is_reserved":false,"is_disabled":false,"rental_uris":{"android":"levelo://app?vid=24c3453c-534c-45c3-af57-87b77df17206","ios":"levelo://app?vid=24c3453c-534c-45c3-af57-87b77df17206"},"vehicle_type_id":"4","last_reported":1730110234,"current_range_meters":38800,"station_id":"","pricing_plan_id":"cebpf4jnsgd1na2vs0mg"},{"bike_id":"4cf016cf-222a-4af0-b71c-5001d7c7e17d","system_id":"levelo_inurba_marseille","lat":43.25086,"lon":5.3951,"is_reserved":false,"is_disabled":false,"rental_uris":{"android":"levelo://app?vid=4cf016cf-222a-4af0-b71c-5001d7c7e17d","ios":"levelo://app?vid=4cf016cf-222a-4af0-b71c-5001d7c7e17d"},"vehicle_type_id":"4","last_reported":1730110234,"current_range_meters":32000,"station_id":"ce4bhm12rcd13ifvqgkg","pricing_plan_id":"cebpf4jnsgd1na2vs0mg"},{"bike_id":"170813c6-534a-4805-bc5d-cfceac12d6b1","system_id":"levelo_inurba_marseille","lat":43.29921,"lon":5.37472,"is_reserved":false,"is_disabled":false,"rental_uris":{"android":"levelo://app?vid=170813c6-534a-4805-bc5d-cfceac12d6b1","ios":"levelo://app?vid=170813c6-534a-4805-bc5d-cfceac12d6b1"},"vehicle_type_id":"4","last_reported":1730110234,"current_range_meters":16400,"station_id":"ce4bgjh2rcd13ifvqbg0","pricing_plan_id":"cebpf4jnsgd1na2vs0mg"},{"bike_id":"a25b6a83-2d57-4dc8-94af-f08d4dbf848d","system_id":"levelo_inurba_marseille","lat":43.25939,"lon":5.40904,"is_reserved":false,"is_disabled":false,"rental_uris":{"android":"levelo://app?vid=a25b6a83-2d57-4dc8-94af-f08d4dbf848d","ios":"levelo://app?vid=a25b6a83-2d57-4dc8-94af-f08d4dbf848d"},"vehicle_type_id":"4","last_reported":1730110234,"current_range_meters":30800,"station_id":"ce4bhm92rcd13ifvqglg","pricing_plan_id":"cebpf4jnsgd1na2vs0mg"},{"bike_id":"9befed88-9f8c-464c-b07b-093bd97066bb","system_id":"levelo_inurba_marseille","lat":43.29805,"lon":5.37136,"is_reserved":false,"is_disabled":false,"rental_uris":{"android":"levelo://app?vid=9befed88-9f8c-464c-b07b-093bd97066bb","ios":"levelo://app?vid=9befed88-9f8c-464c-b07b-093bd97066bb"},"vehicle_type_id":"4","last_reported":1730110234,"current_range_meters":16000,"station_id":"","pricing_plan_id":"cebpf4jnsgd1na2vs0mg"},{"bike_id":"b65fc977-a179-4ca0-8bfe-12215f62f618","system_id":"levelo_inurba_marseille","lat":43.290344,"lon":5.375618,"is_reserved":false,"is_disabled":false,"rental_uris":{"android":"levelo://app?vid=b65fc977-a179-4ca0-8bfe-12215f62f618","ios":"levelo://app?vid=b65fc977-a179-4ca0-8bfe-12215f62f618"},"vehicle_type_id":"4","last_reported":1730110234,"current_range_meters":22800,"station_id":"ce4bh692rcd13ifvqe90","pricing_plan_id":"cebpf4jnsgd1na2vs0mg"},{"bike_id":"f37e3b02-a49c-4c4e-b112-f9c8c24edf90","system_id":"levelo_inurba_marseille","lat":43.23188,"lon":5.35546,"is_reserved":false,"is_disabled":false,"rental_uris":{"android":"levelo://app?vid=f37e3b02-a49c-4c4e-b112-f9c8c24edf90","ios":"levelo://app?vid=f37e3b02-a49c-4c4e-b112-f9c8c24edf90"},"vehicle_type_id":"4","last_reported":1730110234,"current_range_meters":10000,"station_id":"ce4bhu92rcd13ifvqi70","pricing_plan_id":"cebpf4jnsgd1na2vs0mg"},{"bike_id":"98ccba86-a02d-4bfd-9cb4-d849d3f9f575","system_id":"levelo_inurba_marseille","lat":43.25087,"lon":5.39521,"is_reserved":false,"is_disabled":false,"rental_uris":{"android":"levelo://app?vid=98ccba86-a02d-4bfd-9cb4-d849d3f9f575","ios":"levelo://app?vid=98ccba86-a02d-4bfd-9cb4-d849d3f9f575"},"vehicle_type_id":"4","last_reported":1730110234,"current_range_meters":30800,"station_id":"ce4bhm12rcd13ifvqgkg","pricing_plan_id":"cebpf4jnsgd1na2vs0mg"},{"bike_id":"0681c7df-c6b0-46f5-93c0-114f45cf54c6","system_id":"levelo_inurba_marseille","lat":43.32547,"lon":5.41438,"is_reserved":false,"is_disabled":false,"rental_uris":{"android":"levelo://app?vid=0681c7df-c6b0-46f5-93c0-114f45cf54c6","ios":"levelo://app?vid=0681c7df-c6b0-46f5-93c0-114f45cf54c6"},"vehicle_type_id":"4","last_reported":1730110234,"current_range_meters":37600,"station_id":"ce4bhq12rcd13ifvqhhg","pricing_plan_id":"cebpf4jnsgd1na2vs0mg"},{"bike_id":"45fd3cf8-8ef7-4153-9f92-719140053506","system_id":"levelo_inurba_marseille","lat":43.3229,"lon":5.38266,"is_reserved":false,"is_disabled":false,"rental_uris":{"android":"levelo://app?vid=45fd3cf8-8ef7-4153-9f92-719140053506","ios":"levelo://app?vid=45fd3cf8-8ef7-4153-9f92-719140053506"},"vehicle_type_id":"4","last_reported":1730110234,"current_range_meters":24800,"station_id":"ce4bhr12rcd13ifvqhqg","pricing_plan_id":"cebpf4jnsgd1na2vs0mg"},{"bike_id":"0fc35ec4-d69e-455a-854d-9256f0d5a7e6","system_id":"levelo_inurba_marseille","lat":43.24067,"lon":5.37758,"is_reserved":false,"is_disabled":false,"rental_uris":{"android":"levelo://app?vid=0fc35ec4-d69e-455a-854d-9256f0d5a7e6","ios":"levelo://app?vid=0fc35ec4-d69e-455a-854d-9256f0d5a7e6"},"vehicle_type_id":"4","last_reported":1730110234,"current_range_meters":24000,"station_id":"ce4bhnp2rcd13ifvqgvg","pricing_plan_id":"cebpf4jnsgd1na2vs0mg"},{"bike_id":"2d3f8a40-5e32-4bc9-954b-78d7b1decb30","system_id":"levelo_inurba_marseille","lat":43.28152,"lon":5.42645,"is_reserved":false,"is_disabled":false,"rental_uris":{"android":"levelo://app?vid=2d3f8a40-5e32-4bc9-954b-78d7b1decb30","ios":"levelo://app?vid=2d3f8a40-5e32-4bc9-954b-78d7b1decb30"},"vehicle_type_id":"4","last_reported":1730110234,"current_range_meters":20000,"station_id":"ce4bhnh2rcd13ifvqgug","pricing_plan_id":"cebpf4jnsgd1na2vs0mg"},{"bike_id":"9f501856-31bd-489e-8c68-79174caf584a","system_id":"levelo_inurba_marseille","lat":43.27499,"lon":5.42457,"is_reserved":false,"is_disabled":false,"rental_uris":{"android":"levelo://app?vid=9f501856-31bd-489e-8c68-79174caf584a","ios":"levelo://app?vid=9f501856-31bd-489e-8c68-79174caf584a"},"vehicle_type_id":"4","last_reported":1730110234,"current_range_meters":38000,"station_id":"ce4bhn92rcd13ifvqgrg","pricing_plan_id":"cebpf4jnsgd1na2vs0mg"},{"bike_id":"ee6548eb-7333-4df3-87b1-cc35da120bf2","system_id":"levelo_inurba_marseille","lat":43.30461,"lon":5.37907,"is_reserved":false,"is_disabled":false,"rental_uris":{"android":"levelo://app?vid=ee6548eb-7333-4df3-87b1-cc35da120bf2","ios":"levelo://app?vid=ee6548eb-7333-4df3-87b1-cc35da120bf2"},"vehicle_type_id":"4","last_reported":1730110234,"current_range_meters":26000,"station_id":"ce4bgup2rcd13ifvqcn0","pricing_plan_id":"cebpf4jnsgd1na2vs0mg"},{"bike_id":"cbf683de-7bcc-46aa-8c8e-99509c1a0985","system_id":"levelo_inurba_marseille","lat":43.25939,"lon":5.40894,"is_reserved":false,"is_disabled":false,"rental_uris":{"android":"levelo://app?vid=cbf683de-7bcc-46aa-8c8e-99509c1a0985","ios":"levelo://app?vid=cbf683de-7bcc-46aa-8c8e-99509c1a0985"},"vehicle_type_id":"4","last_reported":1730110234,"current_range_meters":25200,"station_id":"ce4bhm92rcd13ifvqglg","pricing_plan_id":"cebpf4jnsgd1na2vs0mg"},{"bike_id":"bb8e7d17-0c92-493c-b404-117c89baf87d","system_id":"levelo_inurba_marseille","lat":43.30557,"lon":5.36535,"is_reserved":false,"is_disabled":false,"rental_uris":{"android":"levelo://app?vid=bb8e7d17-0c92-493c-b404-117c89baf87d","ios":"levelo://app?vid=bb8e7d17-0c92-493c-b404-117c89baf87d"},"vehicle_type_id":"4","last_reported":1730110234,"current_range_meters":17200,"station_id":"ce4bgs12rcd13ifvqcag","pricing_plan_id":"cebpf4jnsgd1na2vs0mg"},{"bike_id":"e39645c5-87ac-4e87-90ca-e4c6f3ff67ce","system_id":"levelo_inurba_marseille","lat":43.29939,"lon":5.3654,"is_reserved":false,"is_disabled":false,"rental_uris":{"android":"levelo://app?vid=e39645c5-87ac-4e87-90ca-e4c6f3ff67ce","ios":"levelo://app?vid=e39645c5-87ac-4e87-90ca-e4c6f3ff67ce"},"vehicle_type_id":"4","last_reported":1730110234,"current_range_meters":30800,"station_id":"ce4bgm92rcd13ifvqbr0","pricing_plan_id":"cebpf4jnsgd1na2vs0mg"},{"bike_id":"32fccdc4-99de-4661-8b0d-2252307063d4","system_id":"levelo_inurba_marseille","lat":43.26679,"lon":5.38272,"is_reserved":false,"is_disabled":false,"rental_uris":{"android":"levelo://app?vid=32fccdc4-99de-4661-8b0d-2252307063d4","ios":"levelo://app?vid=32fccdc4-99de-4661-8b0d-2252307063d4"},"vehicle_type_id":"4","last_reported":1730110234,"current_range_meters":38000,"station_id":"ce4bhg92rcd13ifvqf90","pricing_plan_id":"cebpf4jnsgd1na2vs0mg"},{"bike_id":"def66fbe-9129-4b94-9aa6-f0a9941a832b","system_id":"levelo_inurba_marseille","lat":43.29179,"lon":5.36907,"is_reserved":false,"is_disabled":false,"rental_uris":{"android":"levelo://app?vid=def66fbe-9129-4b94-9aa6-f0a9941a832b","ios":"levelo://app?vid=def66fbe-9129-4b94-9aa6-f0a9941a832b"},"vehicle_type_id":"4","last_reported":1730110234,"current_range_meters":12000,"station_id":"","pricing_plan_id":"cebpf4jnsgd1na2vs0mg"},{"bike_id":"f3ceeb8f-42c4-458f-a4d0-0ac814d6e04b","system_id":"levelo_inurba_marseille","lat":43.29841,"lon":5.36268,"is_reserved":false,"is_disabled":false,"rental_uris":{"android":"levelo://app?vid=f3ceeb8f-42c4-458f-a4d0-0ac814d6e04b","ios":"levelo://app?vid=f3ceeb8f-42c4-458f-a4d0-0ac814d6e04b"},"vehicle_type_id":"4","last_reported":1730110234,"current_range_meters":17600,"station_id":"ce4bgpp2rcd13ifvqc3g","pricing_plan_id":"cebpf4jnsgd1na2vs0mg"},{"bike_id":"ec1df521-138c-498a-a2f1-b16a51dafd86","system_id":"levelo_inurba_marseille","lat":43.25585,"lon":5.38233,"is_reserved":false,"is_disabled":false,"rental_uris":{"android":"levelo://app?vid=ec1df521-138c-498a-a2f1-b16a51dafd86","ios":"levelo://app?vid=ec1df521-138c-498a-a2f1-b16a51dafd86"},"vehicle_type_id":"4","last_reported":1730110234,"current_range_meters":25200,"station_id":"ce4bhih2rcd13ifvqfs0","pricing_plan_id":"cebpf4jnsgd1na2vs0mg"},{"bike_id":"3e0a9dae-518d-4f9d-b069-809a967efacd","system_id":"levelo_inurba_marseille","lat":43.24184,"lon":5.39719,"is_reserved":false,"is_disabled":false,"rental_uris":{"android":"levelo://app?vid=3e0a9dae-518d-4f9d-b069-809a967efacd","ios":"levelo://app?vid=3e0a9dae-518d-4f9d-b069-809a967efacd"},"vehicle_type_id":"4","last_reported":1730110234,"current_range_meters":36000,"station_id":"ce4bhn12rcd13ifvqgpg","pricing_plan_id":"cebpf4jnsgd1na2vs0mg"},{"bike_id":"e5630466-0af0-4d76-a58b-254eeaf8085b","system_id":"levelo_inurba_marseille","lat":43.29582,"lon":5.36733,"is_reserved":false,"is_disabled":false,"rental_uris":{"android":"levelo://app?vid=e5630466-0af0-4d76-a58b-254eeaf8085b","ios":"levelo://app?vid=e5630466-0af0-4d76-a58b-254eeaf8085b"},"vehicle_type_id":"4","last_reported":1730110234,"current_range_meters":27200,"station_id":"ce4bgph2rcd13ifvqc2g","pricing_plan_id":"cebpf4jnsgd1na2vs0mg"},{"bike_id":"f4f94ebf-25e8-42f9-8a2e-08fc8a18d604","system_id":"levelo_inurba_marseille","lat":43.29637,"lon":5.4059,"is_reserved":false,"is_disabled":false,"rental_uris":{"android":"levelo://app?vid=f4f94ebf-25e8-42f9-8a2e-08fc8a18d604","ios":"levelo://app?vid=f4f94ebf-25e8-42f9-8a2e-08fc8a18d604"},"vehicle_type_id":"4","last_reported":1730110234,"current_range_meters":38000,"station_id":"ce4bh0h2rcd13ifvqd60","pricing_plan_id":"cebpf4jnsgd1na2vs0mg"},{"bike_id":"a08296db-b3f4-4d7c-b368-674ac3a21b1e","system_id":"levelo_inurba_marseille","lat":43.23058,"lon":5.35493,"is_reserved":false,"is_disabled":false,"rental_uris":{"android":"levelo://app?vid=a08296db-b3f4-4d7c-b368-674ac3a21b1e","ios":"levelo://app?vid=a08296db-b3f4-4d7c-b368-674ac3a21b1e"},"vehicle_type_id":"4","last_reported":1730110234,"current_range_meters":36800,"station_id":"cpo3342slgdg3j2ifvpg","pricing_plan_id":"cebpf4jnsgd1na2vs0mg"},{"bike_id":"690c072e-a73e-4066-8311-a3c87a251a7a","system_id":"levelo_inurba_marseille","lat":43.337444,"lon":5.374475,"is_reserved":false,"is_disabled":false,"rental_uris":{"android":"levelo://app?vid=690c072e-a73e-4066-8311-a3c87a251a7a","ios":"levelo://app?vid=690c072e-a73e-4066-8311-a3c87a251a7a"},"vehicle_type_id":"4","last_reported":1730110234,"current_range_meters":9600,"station_id":"ce4bh0h2rcd13ifvqd40","pricing_plan_id":"cebpf4jnsgd1na2vs0mg"},{"bike_id":"973f754c-ca27-4080-b2bd-0b5a4f1a0d62","system_id":"levelo_inurba_marseille","lat":43.33743,"lon":5.37456,"is_reserved":false,"is_disabled":false,"rental_uris":{"android":"levelo://app?vid=973f754c-ca27-4080-b2bd-0b5a4f1a0d62","ios":"levelo://app?vid=973f754c-ca27-4080-b2bd-0b5a4f1a0d62"},"vehicle_type_id":"4","last_reported":1730110234,"current_range_meters":38400,"station_id":"","pricing_plan_id":"cebpf4jnsgd1na2vs0mg"},{"bike_id":"e8b1d499-1fb8-48d9-9f2a-60b4b9923777","system_id":"levelo_inurba_marseille","lat":43.30528,"lon":5.36708,"is_reserved":false,"is_disabled":false,"rental_uris":{"android":"levelo://app?vid=e8b1d499-1fb8-48d9-9f2a-60b4b9923777","ios":"levelo://app?vid=e8b1d499-1fb8-48d9-9f2a-60b4b9923777"},"vehicle_type_id":"4","last_reported":1730110234,"current_range_meters":38000,"station_id":"ce4bgrp2rcd13ifvqc9g","pricing_plan_id":"cebpf4jnsgd1na2vs0mg"},{"bike_id":"149a1ca4-78a0-4b83-b1ec-fd612d11146d","system_id":"levelo_inurba_marseille","lat":43.29018,"lon":5.38623,"is_reserved":false,"is_disabled":false,"rental_uris":{"android":"levelo://app?vid=149a1ca4-78a0-4b83-b1ec-fd612d11146d","ios":"levelo://app?vid=149a1ca4-78a0-4b83-b1ec-fd612d11146d"},"vehicle_type_id":"4","last_reported":1730110234,"current_range_meters":16400,"station_id":"ce4bh4p2rcd13ifvqe0g","pricing_plan_id":"cebpf4jnsgd1na2vs0mg"},{"bike_id":"834781fd-4046-4ea2-b782-0f5cbba5acad","system_id":"levelo_inurba_marseille","lat":43.295471,"lon":5.365017,"is_reserved":false,"is_disabled":false,"rental_uris":{"android":"levelo://app?vid=834781fd-4046-4ea2-b782-0f5cbba5acad","ios":"levelo://app?vid=834781fd-4046-4ea2-b782-0f5cbba5acad"},"vehicle_type_id":"4","last_reported":1730110234,"current_range_meters":22000,"station_id":"ce4bgkp2rcd13ifvqbmg","pricing_plan_id":"cebpf4jnsgd1na2vs0mg"},{"bike_id":"88e952d6-f8c2-479f-9c0b-024d5ffb801c","system_id":"levelo_inurba_marseille","lat":43.28158,"lon":5.42639,"is_reserved":false,"is_disabled":false,"rental_uris":{"android":"levelo://app?vid=88e952d6-f8c2-479f-9c0b-024d5ffb801c","ios":"levelo://app?vid=88e952d6-f8c2-479f-9c0b-024d5ffb801c"},"vehicle_type_id":"4","last_reported":1730110234,"current_range_meters":24800,"station_id":"ce4bhnh2rcd13ifvqgug","pricing_plan_id":"cebpf4jnsgd1na2vs0mg"},{"bike_id":"2a6848c1-d22b-44f2-a324-89f4967e1c2c","system_id":"levelo_inurba_marseille","lat":43.30143,"lon":5.37426,"is_reserved":false,"is_disabled":false,"rental_uris":{"android":"levelo://app?vid=2a6848c1-d22b-44f2-a324-89f4967e1c2c","ios":"levelo://app?vid=2a6848c1-d22b-44f2-a324-89f4967e1c2c"},"vehicle_type_id":"4","last_reported":1730110234,"current_range_meters":28000,"station_id":"ce4bgs92rcd13ifvqcc0","pricing_plan_id":"cebpf4jnsgd1na2vs0mg"},{"bike_id":"3da2b441-84ba-4dd2-867a-0bc4320d98b3","system_id":"levelo_inurba_marseille","lat":43.32293,"lon":5.38251,"is_reserved":false,"is_disabled":false,"rental_uris":{"android":"levelo://app?vid=3da2b441-84ba-4dd2-867a-0bc4320d98b3","ios":"levelo://app?vid=3da2b441-84ba-4dd2-867a-0bc4320d98b3"},"vehicle_type_id":"4","last_reported":1730110234,"current_range_meters":39200,"station_id":"ce4bhr12rcd13ifvqhqg","pricing_plan_id":"cebpf4jnsgd1na2vs0mg"},{"bike_id":"fd78b7a4-7554-48ea-a305-f1b1081e9835","system_id":"levelo_inurba_marseille","lat":43.29987,"lon":5.38484,"is_reserved":false,"is_disabled":false,"rental_uris":{"android":"levelo://app?vid=fd78b7a4-7554-48ea-a305-f1b1081e9835","ios":"levelo://app?vid=fd78b7a4-7554-48ea-a305-f1b1081e9835"},"vehicle_type_id":"4","last_reported":1730110234,"current_range_meters":38000,"station_id":"ce4bgj92rcd13ifvqbd0","pricing_plan_id":"cebpf4jnsgd1na2vs0mg"},{"bike_id":"d42cd8f1-be9f-4587-96dc-fd9d11f4d1a0","system_id":"levelo_inurba_marseille","lat":43.25113,"lon":5.40309,"is_reserved":false,"is_disabled":false,"rental_uris":{"android":"levelo://app?vid=d42cd8f1-be9f-4587-96dc-fd9d11f4d1a0","ios":"levelo://app?vid=d42cd8f1-be9f-4587-96dc-fd9d11f4d1a0"},"vehicle_type_id":"4","last_reported":1730110234,"current_range_meters":22400,"station_id":"ce4bhlh2rcd13ifvqgig","pricing_plan_id":"cebpf4jnsgd1na2vs0mg"},{"bike_id":"2e10531e-9386-411b-ab90-247ac4a58043","system_id":"levelo_inurba_marseille","lat":43.23966,"lon":5.36632,"is_reserved":false,"is_disabled":false,"rental_uris":{"android":"levelo://app?vid=2e10531e-9386-411b-ab90-247ac4a58043","ios":"levelo://app?vid=2e10531e-9386-411b-ab90-247ac4a58043"},"vehicle_type_id":"4","last_reported":1730110234,"current_range_meters":38800,"station_id":"ce4bhi12rcd13ifvqfp0","pricing_plan_id":"cebpf4jnsgd1na2vs0mg"},{"bike_id":"43656d77-6ade-43ab-b1d6-5ebd7441ac45","system_id":"levelo_inurba_marseille","lat":43.30533,"lon":5.36708,"is_reserved":false,"is_disabled":false,"rental_uris":{"android":"levelo://app?vid=43656d77-6ade-43ab-b1d6-5ebd7441ac45","ios":"levelo://app?vid=43656d77-6ade-43ab-b1d6-5ebd7441ac45"},"vehicle_type_id":"4","last_reported":1730110234,"current_range_meters":24000,"station_id":"ce4bgrp2rcd13ifvqc9g","pricing_plan_id":"cebpf4jnsgd1na2vs0mg"},{"bike_id":"6ffc72a5-95ed-4b97-8d3d-ffec63c4e48b","system_id":"levelo_inurba_marseille","lat":43.24808,"lon":5.37452,"is_reserved":false,"is_disabled":false,"rental_uris":{"android":"levelo://app?vid=6ffc72a5-95ed-4b97-8d3d-ffec63c4e48b","ios":"levelo://app?vid=6ffc72a5-95ed-4b97-8d3d-ffec63c4e48b"},"vehicle_type_id":"4","last_reported":1730110234,"current_range_meters":28400,"station_id":"ce4bhgh2rcd13ifvqfb0","pricing_plan_id":"cebpf4jnsgd1na2vs0mg"},{"bike_id":"a8b02078-1126-4402-99ba-1265cfb07eeb","system_id":"levelo_inurba_marseille","lat":43.23974,"lon":5.36611,"is_reserved":false,"is_disabled":false,"rental_uris":{"android":"levelo://app?vid=a8b02078-1126-4402-99ba-1265cfb07eeb","ios":"levelo://app?vid=a8b02078-1126-4402-99ba-1265cfb07eeb"},"vehicle_type_id":"4","last_reported":1730110234,"current_range_meters":36800,"station_id":"ce4bhi12rcd13ifvqfp0","pricing_plan_id":"cebpf4jnsgd1na2vs0mg"},{"bike_id":"46b8b804-1c15-4d62-ba52-cfb64553c788","system_id":"levelo_inurba_marseille","lat":43.23154,"lon":5.43716,"is_reserved":false,"is_disabled":false,"rental_uris":{"android":"levelo://app?vid=46b8b804-1c15-4d62-ba52-cfb64553c788","ios":"levelo://app?vid=46b8b804-1c15-4d62-ba52-cfb64553c788"},"vehicle_type_id":"4","last_reported":1730110234,"current_range_meters":16400,"station_id":"ce4bhmp2rcd13ifvqgog","pricing_plan_id":"cebpf4jnsgd1na2vs0mg"},{"bike_id":"9403ad19-9050-4623-81ae-08b1b66bb37c","system_id":"levelo_inurba_marseille","lat":43.23187,"lon":5.39981,"is_reserved":false,"is_disabled":false,"rental_uris":{"android":"levelo://app?vid=9403ad19-9050-4623-81ae-08b1b66bb37c","ios":"levelo://app?vid=9403ad19-9050-4623-81ae-08b1b66bb37c"},"vehicle_type_id":"4","last_reported":1730110234,"current_range_meters":36800,"station_id":"ce4bhn12rcd13ifvqgqg","pricing_plan_id":"cebpf4jnsgd1na2vs0mg"},{"bike_id":"3031a6d3-2c8d-41a2-bb76-f20d51ee3218","system_id":"levelo_inurba_marseille","lat":43.2695,"lon":5.38632,"is_reserved":false,"is_disabled":false,"rental_uris":{"android":"levelo://app?vid=3031a6d3-2c8d-41a2-bb76-f20d51ee3218","ios":"levelo://app?vid=3031a6d3-2c8d-41a2-bb76-f20d51ee3218"},"vehicle_type_id":"4","last_reported":1730110234,"current_range_meters":38000,"station_id":"ce4bhh92rcd13ifvqfh0","pricing_plan_id":"cebpf4jnsgd1na2vs0mg"},{"bike_id":"a764cfb4-3e3d-4080-9b40-c76c6f394b50","system_id":"levelo_inurba_marseille","lat":43.29553,"lon":5.42277,"is_reserved":false,"is_disabled":false,"rental_uris":{"android":"levelo://app?vid=a764cfb4-3e3d-4080-9b40-c76c6f394b50","ios":"levelo://app?vid=a764cfb4-3e3d-4080-9b40-c76c6f394b50"},"vehicle_type_id":"4","last_reported":1730110234,"current_range_meters":37600,"station_id":"ce4bhph2rcd13ifvqhdg","pricing_plan_id":"cebpf4jnsgd1na2vs0mg"},{"bike_id":"9765da81-e5b2-4b38-aac7-8a13dcd95345","system_id":"levelo_inurba_marseille","lat":43.27424,"lon":5.3941,"is_reserved":false,"is_disabled":false,"rental_uris":{"android":"levelo://app?vid=9765da81-e5b2-4b38-aac7-8a13dcd95345","ios":"levelo://app?vid=9765da81-e5b2-4b38-aac7-8a13dcd95345"},"vehicle_type_id":"4","last_reported":1730110234,"current_range_meters":22000,"station_id":"ce4bhdp2rcd13ifvqf20","pricing_plan_id":"cebpf4jnsgd1na2vs0mg"},{"bike_id":"cd68f1dc-3134-4c22-9fa5-8490da02f071","system_id":"levelo_inurba_marseille","lat":43.23151,"lon":5.43717,"is_reserved":false,"is_disabled":false,"rental_uris":{"android":"levelo://app?vid=cd68f1dc-3134-4c22-9fa5-8490da02f071","ios":"levelo://app?vid=cd68f1dc-3134-4c22-9fa5-8490da02f071"},"vehicle_type_id":"4","last_reported":1730110234,"current_range_meters":10000,"station_id":"ce4bhmp2rcd13ifvqgog","pricing_plan_id":"cebpf4jnsgd1na2vs0mg"},{"bike_id":"59c7fa64-e71e-4850-85b0-84a8ba6e2161","system_id":"levelo_inurba_marseille","lat":43.28616,"lon":5.35099,"is_reserved":false,"is_disabled":false,"rental_uris":{"android":"levelo://app?vid=59c7fa64-e71e-4850-85b0-84a8ba6e2161","ios":"levelo://app?vid=59c7fa64-e71e-4850-85b0-84a8ba6e2161"},"vehicle_type_id":"4","last_reported":1730110234,"current_range_meters":36400,"station_id":"ce4bhch2rcd13ifvqeug","pricing_plan_id":"cebpf4jnsgd1na2vs0mg"},{"bike_id":"9df781dc-a17d-4c43-8d58-f238f2778b8b","system_id":"levelo_inurba_marseille","lat":43.25109,"lon":5.40332,"is_reserved":false,"is_disabled":false,"rental_uris":{"android":"levelo://app?vid=9df781dc-a17d-4c43-8d58-f238f2778b8b","ios":"levelo://app?vid=9df781dc-a17d-4c43-8d58-f238f2778b8b"},"vehicle_type_id":"4","last_reported":1730110234,"current_range_meters":11600,"station_id":"ce4bhlh2rcd13ifvqgig","pricing_plan_id":"cebpf4jnsgd1na2vs0mg"},{"bike_id":"83951415-bd72-4fd4-82c4-ca875a9c879e","system_id":"levelo_inurba_marseille","lat":43.30545,"lon":5.36529,"is_reserved":false,"is_disabled":false,"rental_uris":{"android":"levelo://app?vid=83951415-bd72-4fd4-82c4-ca875a9c879e","ios":"levelo://app?vid=83951415-bd72-4fd4-82c4-ca875a9c879e"},"vehicle_type_id":"4","last_reported":1730110234,"current_range_meters":32000,"station_id":"ce4bgs12rcd13ifvqcag","pricing_plan_id":"cebpf4jnsgd1na2vs0mg"},{"bike_id":"c9905e8d-af86-448a-a01c-a1a93cba75c5","system_id":"levelo_inurba_marseille","lat":43.30147,"lon":5.3808,"is_reserved":false,"is_disabled":false,"rental_uris":{"android":"levelo://app?vid=c9905e8d-af86-448a-a01c-a1a93cba75c5","ios":"levelo://app?vid=c9905e8d-af86-448a-a01c-a1a93cba75c5"},"vehicle_type_id":"4","last_reported":1730110234,"current_range_meters":36800,"station_id":"ce4bgjp2rcd13ifvqbh0","pricing_plan_id":"cebpf4jnsgd1na2vs0mg"},{"bike_id":"dbfaf167-db24-4e87-92c0-4a57e3fe8f99","system_id":"levelo_inurba_marseille","lat":43.26918,"lon":5.40272,"is_reserved":false,"is_disabled":false,"rental_uris":{"android":"levelo://app?vid=dbfaf167-db24-4e87-92c0-4a57e3fe8f99","ios":"levelo://app?vid=dbfaf167-db24-4e87-92c0-4a57e3fe8f99"},"vehicle_type_id":"4","last_reported":1730110234,"current_range_meters":20800,"station_id":"ce501612rcd8frsf0b60","pricing_plan_id":"cebpf4jnsgd1na2vs0mg"},{"bike_id":"c43d76fc-8dd7-430b-af42-f70b3dce699a","system_id":"levelo_inurba_marseille","lat":43.28152,"lon":5.42638,"is_reserved":false,"is_disabled":false,"rental_uris":{"android":"levelo://app?vid=c43d76fc-8dd7-430b-af42-f70b3dce699a","ios":"levelo://app?vid=c43d76fc-8dd7-430b-af42-f70b3dce699a"},"vehicle_type_id":"4","last_reported":1730110234,"current_range_meters":38400,"station_id":"ce4bhnh2rcd13ifvqgug","pricing_plan_id":"cebpf4jnsgd1na2vs0mg"},{"bike_id":"4cd62867-fcb2-4724-b8c6-ec9bc5fd6603","system_id":"levelo_inurba_marseille","lat":43.23194,"lon":5.35554,"is_reserved":false,"is_disabled":false,"rental_uris":{"android":"levelo://app?vid=4cd62867-fcb2-4724-b8c6-ec9bc5fd6603","ios":"levelo://app?vid=4cd62867-fcb2-4724-b8c6-ec9bc5fd6603"},"vehicle_type_id":"4","last_reported":1730110234,"current_range_meters":38800,"station_id":"ce4bhu92rcd13ifvqi70","pricing_plan_id":"cebpf4jnsgd1na2vs0mg"},{"bike_id":"81e500be-3ff6-45b1-af40-237783c8efb0","system_id":"levelo_inurba_marseille","lat":43.27822,"lon":5.40708,"is_reserved":false,"is_disabled":false,"rental_uris":{"android":"levelo://app?vid=81e500be-3ff6-45b1-af40-237783c8efb0","ios":"levelo://app?vid=81e500be-3ff6-45b1-af40-237783c8efb0"},"vehicle_type_id":"4","last_reported":1730110234,"current_range_meters":9200,"station_id":"ce4bhnh2rcd13ifvqgtg","pricing_plan_id":"cebpf4jnsgd1na2vs0mg"},{"bike_id":"5d820ce0-2d55-46e5-b74d-cc75a18e2e27","system_id":"levelo_inurba_marseille","lat":43.27001,"lon":5.39241,"is_reserved":false,"is_disabled":false,"rental_uris":{"android":"levelo://app?vid=5d820ce0-2d55-46e5-b74d-cc75a18e2e27","ios":"levelo://app?vid=5d820ce0-2d55-46e5-b74d-cc75a18e2e27"},"vehicle_type_id":"4","last_reported":1730110234,"current_range_meters":32400,"station_id":"ce4bgh92rcd13ifvqb40","pricing_plan_id":"cebpf4jnsgd1na2vs0mg"},{"bike_id":"40b039ad-0769-4a0e-8ad8-e16a05aa5fd5","system_id":"levelo_inurba_marseille","lat":43.27945,"lon":5.4106,"is_reserved":false,"is_disabled":false,"rental_uris":{"android":"levelo://app?vid=40b039ad-0769-4a0e-8ad8-e16a05aa5fd5","ios":"levelo://app?vid=40b039ad-0769-4a0e-8ad8-e16a05aa5fd5"},"vehicle_type_id":"4","last_reported":1730110234,"current_range_meters":37600,"station_id":"ce4bhnp2rcd13ifvqh0g","pricing_plan_id":"cebpf4jnsgd1na2vs0mg"},{"bike_id":"55433e48-d44e-4b78-92c7-ee7cf1d8fd02","system_id":"levelo_inurba_marseille","lat":43.309,"lon":5.37202,"is_reserved":false,"is_disabled":false,"rental_uris":{"android":"levelo://app?vid=55433e48-d44e-4b78-92c7-ee7cf1d8fd02","ios":"levelo://app?vid=55433e48-d44e-4b78-92c7-ee7cf1d8fd02"},"vehicle_type_id":"4","last_reported":1730110234,"current_range_meters":16800,"station_id":"ce4bguh2rcd13ifvqckg","pricing_plan_id":"cebpf4jnsgd1na2vs0mg"},{"bike_id":"e3f47b80-4d77-4b5e-837f-43a3c11bfd44","system_id":"levelo_inurba_marseille","lat":43.31225,"lon":5.36848,"is_reserved":false,"is_disabled":false,"rental_uris":{"android":"levelo://app?vid=e3f47b80-4d77-4b5e-837f-43a3c11bfd44","ios":"levelo://app?vid=e3f47b80-4d77-4b5e-837f-43a3c11bfd44"},"vehicle_type_id":"4","last_reported":1730110234,"current_range_meters":39200,"station_id":"ce4bgl92rcd13ifvqbq0","pricing_plan_id":"cebpf4jnsgd1na2vs0mg"},{"bike_id":"df18a4d4-051a-4a60-ad8e-e275c817d3a2","system_id":"levelo_inurba_marseille","lat":43.30539,"lon":5.36529,"is_reserved":false,"is_disabled":false,"rental_uris":{"android":"levelo://app?vid=df18a4d4-051a-4a60-ad8e-e275c817d3a2","ios":"levelo://app?vid=df18a4d4-051a-4a60-ad8e-e275c817d3a2"},"vehicle_type_id":"4","last_reported":1730110234,"current_range_meters":34000,"station_id":"ce4bgs12rcd13ifvqcag","pricing_plan_id":"cebpf4jnsgd1na2vs0mg"},{"bike_id":"85954db0-0f95-4cab-bd1b-ba49cde47c67","system_id":"levelo_inurba_marseille","lat":43.31292,"lon":5.38287,"is_reserved":false,"is_disabled":false,"rental_uris":{"android":"levelo://app?vid=85954db0-0f95-4cab-bd1b-ba49cde47c67","ios":"levelo://app?vid=85954db0-0f95-4cab-bd1b-ba49cde47c67"},"vehicle_type_id":"4","last_reported":1730110234,"current_range_meters":16000,"station_id":"","pricing_plan_id":"cebpf4jnsgd1na2vs0mg"},{"bike_id":"facee4a0-47d4-473c-b9ac-b4ee7f18e5bc","system_id":"levelo_inurba_marseille","lat":43.267801,"lon":5.394161,"is_reserved":false,"is_disabled":false,"rental_uris":{"android":"levelo://app?vid=facee4a0-47d4-473c-b9ac-b4ee7f18e5bc","ios":"levelo://app?vid=facee4a0-47d4-473c-b9ac-b4ee7f18e5bc"},"vehicle_type_id":"4","last_reported":1730110234,"current_range_meters":33200,"station_id":"ce4bhh12rcd13ifvqfg0","pricing_plan_id":"cebpf4jnsgd1na2vs0mg"},{"bike_id":"d8d2bd5d-8ed1-4050-b095-4203b2a0e666","system_id":"levelo_inurba_marseille","lat":43.295849,"lon":5.376285,"is_reserved":false,"is_disabled":false,"rental_uris":{"android":"levelo://app?vid=d8d2bd5d-8ed1-4050-b095-4203b2a0e666","ios":"levelo://app?vid=d8d2bd5d-8ed1-4050-b095-4203b2a0e666"},"vehicle_type_id":"4","last_reported":1730110234,"current_range_meters":36800,"station_id":"ce4bgh92rcd13ifvqb50","pricing_plan_id":"cebpf4jnsgd1na2vs0mg"},{"bike_id":"92a9229f-4e73-42bf-9c73-ff4ec7e0d3ca","system_id":"levelo_inurba_marseille","lat":43.303128,"lon":5.368918,"is_reserved":false,"is_disabled":false,"rental_uris":{"android":"levelo://app?vid=92a9229f-4e73-42bf-9c73-ff4ec7e0d3ca","ios":"levelo://app?vid=92a9229f-4e73-42bf-9c73-ff4ec7e0d3ca"},"vehicle_type_id":"4","last_reported":1730110234,"current_range_meters":24800,"station_id":"ce4bgqh2rcd13ifvqc5g","pricing_plan_id":"cebpf4jnsgd1na2vs0mg"},{"bike_id":"f052a045-a9c0-4384-867c-819a10569703","system_id":"levelo_inurba_marseille","lat":43.30947,"lon":5.39029,"is_reserved":false,"is_disabled":false,"rental_uris":{"android":"levelo://app?vid=f052a045-a9c0-4384-867c-819a10569703","ios":"levelo://app?vid=f052a045-a9c0-4384-867c-819a10569703"},"vehicle_type_id":"4","last_reported":1730110234,"current_range_meters":14400,"station_id":"ce4bgup2rcd13ifvqco0","pricing_plan_id":"cebpf4jnsgd1na2vs0mg"},{"bike_id":"adadb5c5-f7d3-4b8a-81d5-3df3051cde40","system_id":"levelo_inurba_marseille","lat":43.30957,"lon":5.39057,"is_reserved":false,"is_disabled":false,"rental_uris":{"android":"levelo://app?vid=adadb5c5-f7d3-4b8a-81d5-3df3051cde40","ios":"levelo://app?vid=adadb5c5-f7d3-4b8a-81d5-3df3051cde40"},"vehicle_type_id":"4","last_reported":1730110234,"current_range_meters":34000,"station_id":"ce4bgup2rcd13ifvqco0","pricing_plan_id":"cebpf4jnsgd1na2vs0mg"},{"bike_id":"628ec5cc-4883-45f3-ab38-563c60e63a3a","system_id":"levelo_inurba_marseille","lat":43.26197,"lon":5.37924,"is_reserved":false,"is_disabled":false,"rental_uris":{"android":"levelo://app?vid=628ec5cc-4883-45f3-ab38-563c60e63a3a","ios":"levelo://app?vid=628ec5cc-4883-45f3-ab38-563c60e63a3a"},"vehicle_type_id":"4","last_reported":1730110234,"current_range_meters":38800,"station_id":"ce4bhjp2rcd13ifvqg90","pricing_plan_id":"cebpf4jnsgd1na2vs0mg"},{"bike_id":"5e8add12-0a2f-4ee0-a948-b3005ed38fe3","system_id":"levelo_inurba_marseille","lat":43.324807,"lon":5.365613,"is_reserved":false,"is_disabled":false,"rental_uris":{"android":"levelo://app?vid=5e8add12-0a2f-4ee0-a948-b3005ed38fe3","ios":"levelo://app?vid=5e8add12-0a2f-4ee0-a948-b3005ed38fe3"},"vehicle_type_id":"4","last_reported":1730110234,"current_range_meters":38800,"station_id":"ce4bhs12rcd13ifvqhvg","pricing_plan_id":"cebpf4jnsgd1na2vs0mg"},{"bike_id":"03f1c2cf-3283-4d4a-8af5-87f7e216c788","system_id":"levelo_inurba_marseille","lat":43.32338,"lon":5.40622,"is_reserved":false,"is_disabled":false,"rental_uris":{"android":"levelo://app?vid=03f1c2cf-3283-4d4a-8af5-87f7e216c788","ios":"levelo://app?vid=03f1c2cf-3283-4d4a-8af5-87f7e216c788"},"vehicle_type_id":"4","last_reported":1730110234,"current_range_meters":22400,"station_id":"ce4bhq92rcd13ifvqhjg","pricing_plan_id":"cebpf4jnsgd1na2vs0mg"},{"bike_id":"dc1db8f0-a45c-4980-84b1-5990614565b3","system_id":"levelo_inurba_marseille","lat":43.30158,"lon":5.38079,"is_reserved":false,"is_disabled":false,"rental_uris":{"android":"levelo://app?vid=dc1db8f0-a45c-4980-84b1-5990614565b3","ios":"levelo://app?vid=dc1db8f0-a45c-4980-84b1-5990614565b3"},"vehicle_type_id":"4","last_reported":1730110234,"current_range_meters":31200,"station_id":"ce4bgjp2rcd13ifvqbh0","pricing_plan_id":"cebpf4jnsgd1na2vs0mg"},{"bike_id":"58c29938-9a66-4cb0-80d8-96474a8212ec","system_id":"levelo_inurba_marseille","lat":43.23145,"lon":5.43715,"is_reserved":false,"is_disabled":false,"rental_uris":{"android":"levelo://app?vid=58c29938-9a66-4cb0-80d8-96474a8212ec","ios":"levelo://app?vid=58c29938-9a66-4cb0-80d8-96474a8212ec"},"vehicle_type_id":"4","last_reported":1730110234,"current_range_meters":22800,"station_id":"ce4bhmp2rcd13ifvqgog","pricing_plan_id":"cebpf4jnsgd1na2vs0mg"},{"bike_id":"4c2e3903-c887-4e34-a947-46b65e50d3bd","system_id":"levelo_inurba_marseille","lat":43.27993,"lon":5.39996,"is_reserved":false,"is_disabled":false,"rental_uris":{"android":"levelo://app?vid=4c2e3903-c887-4e34-a947-46b65e50d3bd","ios":"levelo://app?vid=4c2e3903-c887-4e34-a947-46b65e50d3bd"},"vehicle_type_id":"4","last_reported":1730110234,"current_range_meters":38000,"station_id":"ce4bho92rcd13ifvqh4g","pricing_plan_id":"cebpf4jnsgd1na2vs0mg"},{"bike_id":"d6ca5251-fe14-4d88-a071-2d3567937dda","system_id":"levelo_inurba_marseille","lat":43.26203,"lon":5.3793,"is_reserved":false,"is_disabled":false,"rental_uris":{"android":"levelo://app?vid=d6ca5251-fe14-4d88-a071-2d3567937dda","ios":"levelo://app?vid=d6ca5251-fe14-4d88-a071-2d3567937dda"},"vehicle_type_id":"4","last_reported":1730110234,"current_range_meters":25600,"station_id":"ce4bhjp2rcd13ifvqg90","pricing_plan_id":"cebpf4jnsgd1na2vs0mg"},{"bike_id":"4ef20da9-2cc7-422a-92f0-787ae5a784ab","system_id":"levelo_inurba_marseille","lat":43.25582,"lon":5.38231,"is_reserved":false,"is_disabled":false,"rental_uris":{"android":"levelo://app?vid=4ef20da9-2cc7-422a-92f0-787ae5a784ab","ios":"levelo://app?vid=4ef20da9-2cc7-422a-92f0-787ae5a784ab"},"vehicle_type_id":"4","last_reported":1730110234,"current_range_meters":19200,"station_id":"ce4bhih2rcd13ifvqfs0","pricing_plan_id":"cebpf4jnsgd1na2vs0mg"},{"bike_id":"9c102560-a9bc-4a95-b05a-23506482ce8f","system_id":"levelo_inurba_marseille","lat":43.30958,"lon":5.39035,"is_reserved":false,"is_disabled":false,"rental_uris":{"android":"levelo://app?vid=9c102560-a9bc-4a95-b05a-23506482ce8f","ios":"levelo://app?vid=9c102560-a9bc-4a95-b05a-23506482ce8f"},"vehicle_type_id":"4","last_reported":1730110234,"current_range_meters":18000,"station_id":"ce4bgup2rcd13ifvqco0","pricing_plan_id":"cebpf4jnsgd1na2vs0mg"},{"bike_id":"86e4f3bf-364f-4a4b-a90a-4779569d04df","system_id":"levelo_inurba_marseille","lat":43.29276,"lon":5.3684,"is_reserved":false,"is_disabled":false,"rental_uris":{"android":"levelo://app?vid=86e4f3bf-364f-4a4b-a90a-4779569d04df","ios":"levelo://app?vid=86e4f3bf-364f-4a4b-a90a-4779569d04df"},"vehicle_type_id":"4","last_reported":1730110234,"current_range_meters":36000,"station_id":"ce4bhch2rcd13ifvqeug","pricing_plan_id":"cebpf4jnsgd1na2vs0mg"},{"bike_id":"7ce12e9c-3d07-4c08-92cd-79efc7649da8","system_id":"levelo_inurba_marseille","lat":43.30137,"lon":5.37405,"is_reserved":false,"is_disabled":false,"rental_uris":{"android":"levelo://app?vid=7ce12e9c-3d07-4c08-92cd-79efc7649da8","ios":"levelo://app?vid=7ce12e9c-3d07-4c08-92cd-79efc7649da8"},"vehicle_type_id":"4","last_reported":1730110234,"current_range_meters":36800,"station_id":"ce4bgs92rcd13ifvqcc0","pricing_plan_id":"cebpf4jnsgd1na2vs0mg"},{"bike_id":"a792347a-d158-4403-9c48-1b4e0c6fc790","system_id":"levelo_inurba_marseille","lat":43.27072,"lon":5.42275,"is_reserved":false,"is_disabled":false,"rental_uris":{"android":"levelo://app?vid=a792347a-d158-4403-9c48-1b4e0c6fc790","ios":"levelo://app?vid=a792347a-d158-4403-9c48-1b4e0c6fc790"},"vehicle_type_id":"4","last_reported":1730110234,"current_range_meters":39200,"station_id":"ce4bhk92rcd13ifvqgb0","pricing_plan_id":"cebpf4jnsgd1na2vs0mg"},{"bike_id":"a0dbb1ae-42cd-43fd-9dd1-242de0e9db32","system_id":"levelo_inurba_marseille","lat":43.27907,"lon":5.3801,"is_reserved":false,"is_disabled":false,"rental_uris":{"android":"levelo://app?vid=a0dbb1ae-42cd-43fd-9dd1-242de0e9db32","ios":"levelo://app?vid=a0dbb1ae-42cd-43fd-9dd1-242de0e9db32"},"vehicle_type_id":"4","last_reported":1730110234,"current_range_meters":28400,"station_id":"ce4bhf92rcd13ifvqf50","pricing_plan_id":"cebpf4jnsgd1na2vs0mg"},{"bike_id":"a8c3d82e-c2fe-49cf-933b-be8a59a77910","system_id":"levelo_inurba_marseille","lat":43.32483,"lon":5.36557,"is_reserved":false,"is_disabled":false,"rental_uris":{"android":"levelo://app?vid=a8c3d82e-c2fe-49cf-933b-be8a59a77910","ios":"levelo://app?vid=a8c3d82e-c2fe-49cf-933b-be8a59a77910"},"vehicle_type_id":"4","last_reported":1730110234,"current_range_meters":38400,"station_id":"ce4bhs12rcd13ifvqhvg","pricing_plan_id":"cebpf4jnsgd1na2vs0mg"},{"bike_id":"bac5699a-90f2-44c1-b361-59034522ec1c","system_id":"levelo_inurba_marseille","lat":43.28483,"lon":5.38419,"is_reserved":false,"is_disabled":false,"rental_uris":{"android":"levelo://app?vid=bac5699a-90f2-44c1-b361-59034522ec1c","ios":"levelo://app?vid=bac5699a-90f2-44c1-b361-59034522ec1c"},"vehicle_type_id":"4","last_reported":1730110234,"current_range_meters":32000,"station_id":"ce4bh512rcd13ifvqe3g","pricing_plan_id":"cebpf4jnsgd1na2vs0mg"},{"bike_id":"b497d91c-1f87-4508-b462-50136e06ba9f","system_id":"levelo_inurba_marseille","lat":43.24178,"lon":5.39734,"is_reserved":false,"is_disabled":false,"rental_uris":{"android":"levelo://app?vid=b497d91c-1f87-4508-b462-50136e06ba9f","ios":"levelo://app?vid=b497d91c-1f87-4508-b462-50136e06ba9f"},"vehicle_type_id":"4","last_reported":1730110234,"current_range_meters":32400,"station_id":"ce4bhn12rcd13ifvqgpg","pricing_plan_id":"cebpf4jnsgd1na2vs0mg"},{"bike_id":"e0bf05b6-3eb6-4872-8e8d-82b38f035f72","system_id":"levelo_inurba_marseille","lat":43.23177,"lon":5.39989,"is_reserved":false,"is_disabled":false,"rental_uris":{"android":"levelo://app?vid=e0bf05b6-3eb6-4872-8e8d-82b38f035f72","ios":"levelo://app?vid=e0bf05b6-3eb6-4872-8e8d-82b38f035f72"},"vehicle_type_id":"4","last_reported":1730110234,"current_range_meters":38800,"station_id":"ce4bhn12rcd13ifvqgqg","pricing_plan_id":"cebpf4jnsgd1na2vs0mg"},{"bike_id":"5128d62c-b633-46c6-9b8c-e01c0959a541","system_id":"levelo_inurba_marseille","lat":43.30453,"lon":5.37913,"is_reserved":false,"is_disabled":false,"rental_uris":{"android":"levelo://app?vid=5128d62c-b633-46c6-9b8c-e01c0959a541","ios":"levelo://app?vid=5128d62c-b633-46c6-9b8c-e01c0959a541"},"vehicle_type_id":"4","last_reported":1730110234,"current_range_meters":28400,"station_id":"ce4bhr12rcd13ifvqhqg","pricing_plan_id":"cebpf4jnsgd1na2vs0mg"},{"bike_id":"870759aa-b4f1-410f-8dd7-8cce75f5dcfb","system_id":"levelo_inurba_marseille","lat":43.23149,"lon":5.4372,"is_reserved":false,"is_disabled":false,"rental_uris":{"android":"levelo://app?vid=870759aa-b4f1-410f-8dd7-8cce75f5dcfb","ios":"levelo://app?vid=870759aa-b4f1-410f-8dd7-8cce75f5dcfb"},"vehicle_type_id":"4","last_reported":1730110234,"current_range_meters":38800,"station_id":"ce4bhmp2rcd13ifvqgog","pricing_plan_id":"cebpf4jnsgd1na2vs0mg"},{"bike_id":"8d61c68d-7b6e-43ba-a4c2-a14b90b9c620","system_id":"levelo_inurba_marseille","lat":43.29639,"lon":5.40601,"is_reserved":false,"is_disabled":false,"rental_uris":{"android":"levelo://app?vid=8d61c68d-7b6e-43ba-a4c2-a14b90b9c620","ios":"levelo://app?vid=8d61c68d-7b6e-43ba-a4c2-a14b90b9c620"},"vehicle_type_id":"4","last_reported":1730110234,"current_range_meters":38400,"station_id":"ce4bh0h2rcd13ifvqd60","pricing_plan_id":"cebpf4jnsgd1na2vs0mg"},{"bike_id":"826eb7f4-7b2c-4960-b8f0-1ad2d382103e","system_id":"levelo_inurba_marseille","lat":43.27496,"lon":5.42446,"is_reserved":false,"is_disabled":false,"rental_uris":{"android":"levelo://app?vid=826eb7f4-7b2c-4960-b8f0-1ad2d382103e","ios":"levelo://app?vid=826eb7f4-7b2c-4960-b8f0-1ad2d382103e"},"vehicle_type_id":"4","last_reported":1730110234,"current_range_meters":38000,"station_id":"ce4bhn92rcd13ifvqgrg","pricing_plan_id":"cebpf4jnsgd1na2vs0mg"},{"bike_id":"50ce0bec-2e9e-4ac8-b5c9-d14de4aadef8","system_id":"levelo_inurba_marseille","lat":43.30522,"lon":5.36606,"is_reserved":false,"is_disabled":false,"rental_uris":{"android":"levelo://app?vid=50ce0bec-2e9e-4ac8-b5c9-d14de4aadef8","ios":"levelo://app?vid=50ce0bec-2e9e-4ac8-b5c9-d14de4aadef8"},"vehicle_type_id":"4","last_reported":1730110234,"current_range_meters":38000,"station_id":"ce4bgs12rcd13ifvqcag","pricing_plan_id":"cebpf4jnsgd1na2vs0mg"},{"bike_id":"5790618d-de32-4a58-898a-bfa124a2426f","system_id":"levelo_inurba_marseille","lat":43.24178,"lon":5.39725,"is_reserved":false,"is_disabled":false,"rental_uris":{"android":"levelo://app?vid=5790618d-de32-4a58-898a-bfa124a2426f","ios":"levelo://app?vid=5790618d-de32-4a58-898a-bfa124a2426f"},"vehicle_type_id":"4","last_reported":1730110234,"current_range_meters":29600,"station_id":"ce4bhn12rcd13ifvqgpg","pricing_plan_id":"cebpf4jnsgd1na2vs0mg"},{"bike_id":"089c37ba-3c44-437d-be3a-8dcc8e4e5629","system_id":"levelo_inurba_marseille","lat":43.30553,"lon":5.36532,"is_reserved":false,"is_disabled":false,"rental_uris":{"android":"levelo://app?vid=089c37ba-3c44-437d-be3a-8dcc8e4e5629","ios":"levelo://app?vid=089c37ba-3c44-437d-be3a-8dcc8e4e5629"},"vehicle_type_id":"4","last_reported":1730110234,"current_range_meters":39200,"station_id":"ce4bgs12rcd13ifvqcag","pricing_plan_id":"cebpf4jnsgd1na2vs0mg"},{"bike_id":"052ab8a7-f477-433c-8262-7bfdf9627672","system_id":"levelo_inurba_marseille","lat":43.28427,"lon":5.34977,"is_reserved":false,"is_disabled":false,"rental_uris":{"android":"levelo://app?vid=052ab8a7-f477-433c-8262-7bfdf9627672","ios":"levelo://app?vid=052ab8a7-f477-433c-8262-7bfdf9627672"},"vehicle_type_id":"4","last_reported":1730110234,"current_range_meters":24800,"station_id":"ce4bhbh2rcd13ifvqepg","pricing_plan_id":"cebpf4jnsgd1na2vs0mg"},{"bike_id":"4dcd7956-9706-4e34-9524-b28c92b24994","system_id":"levelo_inurba_marseille","lat":43.30556,"lon":5.36706,"is_reserved":false,"is_disabled":false,"rental_uris":{"android":"levelo://app?vid=4dcd7956-9706-4e34-9524-b28c92b24994","ios":"levelo://app?vid=4dcd7956-9706-4e34-9524-b28c92b24994"},"vehicle_type_id":"4","last_reported":1730110234,"current_range_meters":36800,"station_id":"","pricing_plan_id":"cebpf4jnsgd1na2vs0mg"},{"bike_id":"851e4fe8-ea03-4d53-b1f8-d301ee8046be","system_id":"levelo_inurba_marseille","lat":43.29916,"lon":5.37477,"is_reserved":false,"is_disabled":false,"rental_uris":{"android":"levelo://app?vid=851e4fe8-ea03-4d53-b1f8-d301ee8046be","ios":"levelo://app?vid=851e4fe8-ea03-4d53-b1f8-d301ee8046be"},"vehicle_type_id":"4","last_reported":1730110234,"current_range_meters":25200,"station_id":"ce4bgjh2rcd13ifvqbg0","pricing_plan_id":"cebpf4jnsgd1na2vs0mg"},{"bike_id":"60749919-b1e7-4299-821f-83d2deaf9f68","system_id":"levelo_inurba_marseille","lat":43.29581,"lon":5.36743,"is_reserved":false,"is_disabled":false,"rental_uris":{"android":"levelo://app?vid=60749919-b1e7-4299-821f-83d2deaf9f68","ios":"levelo://app?vid=60749919-b1e7-4299-821f-83d2deaf9f68"},"vehicle_type_id":"4","last_reported":1730110234,"current_range_meters":38800,"station_id":"ce4bgph2rcd13ifvqc2g","pricing_plan_id":"cebpf4jnsgd1na2vs0mg"},{"bike_id":"cd5289ce-9e66-4976-9552-3aa1b0da909c","system_id":"levelo_inurba_marseille","lat":43.32483,"lon":5.3656,"is_reserved":false,"is_disabled":false,"rental_uris":{"android":"levelo://app?vid=cd5289ce-9e66-4976-9552-3aa1b0da909c","ios":"levelo://app?vid=cd5289ce-9e66-4976-9552-3aa1b0da909c"},"vehicle_type_id":"4","last_reported":1730110234,"current_range_meters":6000,"station_id":"ce4bhs12rcd13ifvqhvg","pricing_plan_id":"cebpf4jnsgd1na2vs0mg"},{"bike_id":"8eb18b6f-75a4-49e9-80e8-b6420631b398","system_id":"levelo_inurba_marseille","lat":43.2815,"lon":5.42642,"is_reserved":false,"is_disabled":false,"rental_uris":{"android":"levelo://app?vid=8eb18b6f-75a4-49e9-80e8-b6420631b398","ios":"levelo://app?vid=8eb18b6f-75a4-49e9-80e8-b6420631b398"},"vehicle_type_id":"4","last_reported":1730110234,"current_range_meters":25600,"station_id":"ce4bhnh2rcd13ifvqgug","pricing_plan_id":"cebpf4jnsgd1na2vs0mg"},{"bike_id":"d2cfb8e2-b4f5-493e-9190-4fd91f5e908d","system_id":"levelo_inurba_marseille","lat":43.33767,"lon":5.3747,"is_reserved":false,"is_disabled":false,"rental_uris":{"android":"levelo://app?vid=d2cfb8e2-b4f5-493e-9190-4fd91f5e908d","ios":"levelo://app?vid=d2cfb8e2-b4f5-493e-9190-4fd91f5e908d"},"vehicle_type_id":"4","last_reported":1730110234,"current_range_meters":38800,"station_id":"","pricing_plan_id":"cebpf4jnsgd1na2vs0mg"},{"bike_id":"2c9cd697-74f8-4a74-a83b-515ce4f148d8","system_id":"levelo_inurba_marseille","lat":43.30139,"lon":5.37421,"is_reserved":false,"is_disabled":false,"rental_uris":{"android":"levelo://app?vid=2c9cd697-74f8-4a74-a83b-515ce4f148d8","ios":"levelo://app?vid=2c9cd697-74f8-4a74-a83b-515ce4f148d8"},"vehicle_type_id":"4","last_reported":1730110234,"current_range_meters":38000,"station_id":"ce4bgs92rcd13ifvqcc0","pricing_plan_id":"cebpf4jnsgd1na2vs0mg"},{"bike_id":"26a3aecf-9932-416a-9af7-85d56013d157","system_id":"levelo_inurba_marseille","lat":43.30915,"lon":5.36855,"is_reserved":false,"is_disabled":false,"rental_uris":{"android":"levelo://app?vid=26a3aecf-9932-416a-9af7-85d56013d157","ios":"levelo://app?vid=26a3aecf-9932-416a-9af7-85d56013d157"},"vehicle_type_id":"4","last_reported":1730110234,"current_range_meters":33600,"station_id":"ce4bgn92rcd13ifvqbvg","pricing_plan_id":"cebpf4jnsgd1na2vs0mg"},{"bike_id":"c1f61dd8-17d5-43eb-8731-e9b3ee9ed0fe","system_id":"levelo_inurba_marseille","lat":43.3089,"lon":5.37204,"is_reserved":false,"is_disabled":false,"rental_uris":{"android":"levelo://app?vid=c1f61dd8-17d5-43eb-8731-e9b3ee9ed0fe","ios":"levelo://app?vid=c1f61dd8-17d5-43eb-8731-e9b3ee9ed0fe"},"vehicle_type_id":"4","last_reported":1730110234,"current_range_meters":38800,"station_id":"ce4bguh2rcd13ifvqckg","pricing_plan_id":"cebpf4jnsgd1na2vs0mg"},{"bike_id":"c374f64f-9afa-4a41-86e3-541699c21d24","system_id":"levelo_inurba_marseille","lat":43.30143,"lon":5.37419,"is_reserved":false,"is_disabled":false,"rental_uris":{"android":"levelo://app?vid=c374f64f-9afa-4a41-86e3-541699c21d24","ios":"levelo://app?vid=c374f64f-9afa-4a41-86e3-541699c21d24"},"vehicle_type_id":"4","last_reported":1730110234,"current_range_meters":24800,"station_id":"ce4bgs92rcd13ifvqcc0","pricing_plan_id":"cebpf4jnsgd1na2vs0mg"},{"bike_id":"27b25d53-0d43-45f7-b36c-a08ae52b240c","system_id":"levelo_inurba_marseille","lat":43.23189,"lon":5.39976,"is_reserved":false,"is_disabled":false,"rental_uris":{"android":"levelo://app?vid=27b25d53-0d43-45f7-b36c-a08ae52b240c","ios":"levelo://app?vid=27b25d53-0d43-45f7-b36c-a08ae52b240c"},"vehicle_type_id":"4","last_reported":1730110234,"current_range_meters":38800,"station_id":"ce4bhn12rcd13ifvqgqg","pricing_plan_id":"cebpf4jnsgd1na2vs0mg"},{"bike_id":"4579d89f-2682-4bdc-b183-a395ee683731","system_id":"levelo_inurba_marseille","lat":43.30245,"lon":5.40063,"is_reserved":false,"is_disabled":false,"rental_uris":{"android":"levelo://app?vid=4579d89f-2682-4bdc-b183-a395ee683731","ios":"levelo://app?vid=4579d89f-2682-4bdc-b183-a395ee683731"},"vehicle_type_id":"4","last_reported":1730110234,"current_range_meters":38800,"station_id":"ce4bgvh2rcd13ifvqcs0","pricing_plan_id":"cebpf4jnsgd1na2vs0mg"},{"bike_id":"05ceca47-9d19-4420-8109-7a021ac47842","system_id":"levelo_inurba_marseille","lat":43.28427,"lon":5.34988,"is_reserved":false,"is_disabled":false,"rental_uris":{"android":"levelo://app?vid=05ceca47-9d19-4420-8109-7a021ac47842","ios":"levelo://app?vid=05ceca47-9d19-4420-8109-7a021ac47842"},"vehicle_type_id":"4","last_reported":1730110234,"current_range_meters":28000,"station_id":"ce4bhbh2rcd13ifvqepg","pricing_plan_id":"cebpf4jnsgd1na2vs0mg"},{"bike_id":"d861ca4c-d398-4bdd-b224-5e3e44f0ed68","system_id":"levelo_inurba_marseille","lat":43.28159,"lon":5.42644,"is_reserved":false,"is_disabled":false,"rental_uris":{"android":"levelo://app?vid=d861ca4c-d398-4bdd-b224-5e3e44f0ed68","ios":"levelo://app?vid=d861ca4c-d398-4bdd-b224-5e3e44f0ed68"},"vehicle_type_id":"4","last_reported":1730110234,"current_range_meters":10800,"station_id":"ce4bhnh2rcd13ifvqgug","pricing_plan_id":"cebpf4jnsgd1na2vs0mg"},{"bike_id":"3c3b6497-5a1a-4d37-97f9-86f3ab3bae26","system_id":"levelo_inurba_marseille","lat":43.28106,"lon":5.37831,"is_reserved":false,"is_disabled":false,"rental_uris":{"android":"levelo://app?vid=3c3b6497-5a1a-4d37-97f9-86f3ab3bae26","ios":"levelo://app?vid=3c3b6497-5a1a-4d37-97f9-86f3ab3bae26"},"vehicle_type_id":"4","last_reported":1730110234,"current_range_meters":26800,"station_id":"ce4bha12rcd13ifvqee0","pricing_plan_id":"cebpf4jnsgd1na2vs0mg"},