{"last_updated":1778584216,"ttl":60,"version":"2.2","data":{"bikes":[{"bike_id":"b0fd3368-8b9e-4fef-aae9-f63aecd8fad6","system_id":"levelo_inurba_marseille","lat":43.297712,"lon":5.371123,"is_reserved":false,"is_disabled":false,"rental_uris":{"android":"levelo://app?vid=b0fd3368-8b9e-4fef-aae9-f63aecd8fad6","ios":"levelo://app?vid=b0fd3368-8b9e-4fef-aae9-f63aecd8fad6"},"vehicle_type_id":"4","last_reported":1778584217,"current_range_meters":2800,"station_id":"ce4bgop2rcd13ifvqc1g","pricing_plan_id":"cebpf4jnsgd1na2vs0mg"},{"bike_id":"f38f7a6a-45b5-4a48-a65f-e73100d5b444","system_id":"levelo_inurba_marseille","lat":43.29748,"lon":5.37676,"is_reserved":false,"is_disabled":false,"rental_uris":{"android":"levelo://app?vid=f38f7a6a-45b5-4a48-a65f-e73100d5b444","ios":"levelo://app?vid=f38f7a6a-45b5-4a48-a65f-e73100d5b444"},"vehicle_type_id":"4","last_reported":1778584217,"current_range_meters":2800,"station_id":"ce4bgkh2rcd13ifvqbl0","pricing_plan_id":"cebpf4jnsgd1na2vs0mg"},{"bike_id":"2b799a8e-3038-40d1-86c4-d83e62560643","system_id":"levelo_inurba_marseille","lat":43.25925,"lon":5.40909,"is_reserved":false,"is_disabled":true,"rental_uris":{"android":"levelo://app?vid=2b799a8e-3038-40d1-86c4-d83e62560643","ios":"levelo://app?vid=2b799a8e-3038-40d1-86c4-d83e62560643"},"vehicle_type_id":"4","last_reported":1778584217,"current_range_meters":2800,"station_id":"ce4bhm92rcd13ifvqglg","pricing_plan_id":"cebpf4jnsgd1na2vs0mg"},{"bike_id":"7a23ea6f-297b-452c-97c8-4c8804820654","system_id":"levelo_inurba_marseille","lat":43.28696,"lon":5.46682,"is_reserved":false,"is_disabled":false,"rental_uris":{"android":"levelo://app?vid=7a23ea6f-297b-452c-97c8-4c8804820654","ios":"levelo://app?vid=7a23ea6f-297b-452c-97c8-4c8804820654"},"vehicle_type_id":"4","last_reported":1778584217,"current_range_meters":2800,"station_id":"st_d6tc3vkotcvc738tfjhg","pricing_plan_id":"cebpf4jnsgd1na2vs0mg"},{"bike_id":"82174022-9fbf-4df3-87d0-5337c406c77a","system_id":"levelo_inurba_marseille","lat":43.33724,"lon":5.37442,"is_reserved":false,"is_disabled":false,"rental_uris":{"android":"levelo://app?vid=82174022-9fbf-4df3-87d0-5337c406c77a","ios":"levelo://app?vid=82174022-9fbf-4df3-87d0-5337c406c77a"},"vehicle_type_id":"4","last_reported":1778584217,"current_range_meters":2800,"station_id":"","pricing_plan_id":"cebpf4jnsgd1na2vs0mg"},{"bike_id":"7be55dcd-0a3b-49b6-8275-9d2a646ed9d7","system_id":"levelo_inurba_marseille","lat":43.27677,"lon":5.38864,"is_reserved":false,"is_disabled":true,"rental_uris":{"android":"levelo://app?vid=7be55dcd-0a3b-49b6-8275-9d2a646ed9d7","ios":"levelo://app?vid=7be55dcd-0a3b-49b6-8275-9d2a646ed9d7"},"vehicle_type_id":"4","last_reported":1778584217,"current_range_meters":2800,"station_id":"ce4bhi12rcd13ifvqfo0","pricing_plan_id":"cebpf4jnsgd1na2vs0mg"},{"bike_id":"1d81ec45-140e-45b5-bf31-24870758067c","system_id":"levelo_inurba_marseille","lat":43.30801,"lon":5.38154,"is_reserved":false,"is_disabled":false,"rental_uris":{"android":"levelo://app?vid=1d81ec45-140e-45b5-bf31-24870758067c","ios":"levelo://app?vid=1d81ec45-140e-45b5-bf31-24870758067c"},"vehicle_type_id":"4","last_reported":1778584217,"current_range_meters":2800,"station_id":"ce4bgt12rcd13ifvqce0","pricing_plan_id":"cebpf4jnsgd1na2vs0mg"},{"bike_id":"bd064679-f7e2-4a2b-b4bc-6385933e9d5e","system_id":"levelo_inurba_marseille","lat":43.24085,"lon":5.37718,"is_reserved":false,"is_disabled":true,"rental_uris":{"android":"levelo://app?vid=bd064679-f7e2-4a2b-b4bc-6385933e9d5e","ios":"levelo://app?vid=bd064679-f7e2-4a2b-b4bc-6385933e9d5e"},"vehicle_type_id":"4","last_reported":1778584217,"current_range_meters":2800,"station_id":"ce4bhnp2rcd13ifvqgvg","pricing_plan_id":"cebpf4jnsgd1na2vs0mg"},{"bike_id":"c96d1e7a-b00d-43c9-a119-f6c284b2ef6f","system_id":"levelo_inurba_marseille","lat":43.25926,"lon":5.40887,"is_reserved":false,"is_disabled":true,"rental_uris":{"android":"levelo://app?vid=c96d1e7a-b00d-43c9-a119-f6c284b2ef6f","ios":"levelo://app?vid=c96d1e7a-b00d-43c9-a119-f6c284b2ef6f"},"vehicle_type_id":"4","last_reported":1778584217,"current_range_meters":2800,"station_id":"ce4bhm92rcd13ifvqglg","pricing_plan_id":"cebpf4jnsgd1na2vs0mg"},{"bike_id":"0e187a00-ab07-4a77-a1eb-59f1ec14bd1f","system_id":"levelo_inurba_marseille","lat":43.26372,"lon":5.41077,"is_reserved":false,"is_disabled":false,"rental_uris":{"android":"levelo://app?vid=0e187a00-ab07-4a77-a1eb-59f1ec14bd1f","ios":"levelo://app?vid=0e187a00-ab07-4a77-a1eb-59f1ec14bd1f"},"vehicle_type_id":"4","last_reported":1778584217,"current_range_meters":2800,"station_id":"st_d4e5ca6na9uc73bfl5fg","pricing_plan_id":"cebpf4jnsgd1na2vs0mg"},{"bike_id":"f04c9cad-033b-4671-90a0-c080b107e1f1","system_id":"levelo_inurba_marseille","lat":43.28694,"lon":5.46688,"is_reserved":false,"is_disabled":false,"rental_uris":{"android":"levelo://app?vid=f04c9cad-033b-4671-90a0-c080b107e1f1","ios":"levelo://app?vid=f04c9cad-033b-4671-90a0-c080b107e1f1"},"vehicle_type_id":"4","last_reported":1778584217,"current_range_meters":2800,"station_id":"st_d6tc3vkotcvc738tfjhg","pricing_plan_id":"cebpf4jnsgd1na2vs0mg"},{"bike_id":"9c2561a5-da2c-48d4-bf57-a95e47027f13","system_id":"levelo_inurba_marseille","lat":43.27994,"lon":5.39999,"is_reserved":false,"is_disabled":false,"rental_uris":{"android":"levelo://app?vid=9c2561a5-da2c-48d4-bf57-a95e47027f13","ios":"levelo://app?vid=9c2561a5-da2c-48d4-bf57-a95e47027f13"},"vehicle_type_id":"4","last_reported":1778584217,"current_range_meters":2800,"station_id":"ce4bho92rcd13ifvqh4g","pricing_plan_id":"cebpf4jnsgd1na2vs0mg"},{"bike_id":"d30c1950-ec81-4d2b-bfd5-794d6a4477ea","system_id":"levelo_inurba_marseille","lat":43.29249,"lon":5.37611,"is_reserved":false,"is_disabled":false,"rental_uris":{"android":"levelo://app?vid=d30c1950-ec81-4d2b-bfd5-794d6a4477ea","ios":"levelo://app?vid=d30c1950-ec81-4d2b-bfd5-794d6a4477ea"},"vehicle_type_id":"4","last_reported":1778584217,"current_range_meters":2800,"station_id":"ce4bgi12rcd13ifvqb80","pricing_plan_id":"cebpf4jnsgd1na2vs0mg"},{"bike_id":"2b4428e9-488a-4f93-b1dc-6ad41944794d","system_id":"levelo_inurba_marseille","lat":43.29896,"lon":5.3815,"is_reserved":false,"is_disabled":false,"rental_uris":{"android":"levelo://app?vid=2b4428e9-488a-4f93-b1dc-6ad41944794d","ios":"levelo://app?vid=2b4428e9-488a-4f93-b1dc-6ad41944794d"},"vehicle_type_id":"4","last_reported":1778584217,"current_range_meters":3200,"station_id":"ce4bgj12rcd13ifvqbc0","pricing_plan_id":"cebpf4jnsgd1na2vs0mg"},{"bike_id":"0543cd63-b4dd-44ff-83e5-e2c849645c9d","system_id":"levelo_inurba_marseille","lat":43.28307,"lon":5.351,"is_reserved":false,"is_disabled":false,"rental_uris":{"android":"levelo://app?vid=0543cd63-b4dd-44ff-83e5-e2c849645c9d","ios":"levelo://app?vid=0543cd63-b4dd-44ff-83e5-e2c849645c9d"},"vehicle_type_id":"4","last_reported":1778584217,"current_range_meters":3200,"station_id":"","pricing_plan_id":"cebpf4jnsgd1na2vs0mg"},{"bike_id":"d4d47add-ce6b-4916-9d21-286e76ce430b","system_id":"levelo_inurba_marseille","lat":43.29563,"lon":5.38255,"is_reserved":false,"is_disabled":false,"rental_uris":{"android":"levelo://app?vid=d4d47add-ce6b-4916-9d21-286e76ce430b","ios":"levelo://app?vid=d4d47add-ce6b-4916-9d21-286e76ce430b"},"vehicle_type_id":"4","last_reported":1778584217,"current_range_meters":3200,"station_id":"","pricing_plan_id":"cebpf4jnsgd1na2vs0mg"},{"bike_id":"958ce1b7-db7f-4a81-912d-62ad435ddf58","system_id":"levelo_inurba_marseille","lat":43.24633,"lon":5.3889,"is_reserved":false,"is_disabled":true,"rental_uris":{"android":"levelo://app?vid=958ce1b7-db7f-4a81-912d-62ad435ddf58","ios":"levelo://app?vid=958ce1b7-db7f-4a81-912d-62ad435ddf58"},"vehicle_type_id":"4","last_reported":1778584217,"current_range_meters":3200,"station_id":"ce4bhg12rcd13ifvqf60","pricing_plan_id":"cebpf4jnsgd1na2vs0mg"},{"bike_id":"4562930c-bf5c-41f0-bcb5-70b71347e059","system_id":"levelo_inurba_marseille","lat":43.26943,"lon":5.38656,"is_reserved":false,"is_disabled":true,"rental_uris":{"android":"levelo://app?vid=4562930c-bf5c-41f0-bcb5-70b71347e059","ios":"levelo://app?vid=4562930c-bf5c-41f0-bcb5-70b71347e059"},"vehicle_type_id":"4","last_reported":1778584217,"current_range_meters":3200,"station_id":"ce4bhh92rcd13ifvqfh0","pricing_plan_id":"cebpf4jnsgd1na2vs0mg"},{"bike_id":"486bfadf-acd1-406f-80ca-50a641ab707d","system_id":"levelo_inurba_marseille","lat":43.302995,"lon":5.392086,"is_reserved":false,"is_disabled":false,"rental_uris":{"android":"levelo://app?vid=486bfadf-acd1-406f-80ca-50a641ab707d","ios":"levelo://app?vid=486bfadf-acd1-406f-80ca-50a641ab707d"},"vehicle_type_id":"4","last_reported":1778584217,"current_range_meters":3200,"station_id":"ce4bgkh2rcd13ifvqbk0","pricing_plan_id":"cebpf4jnsgd1na2vs0mg"},{"bike_id":"5ef7dbea-89fe-469a-b5aa-7acab1d76b25","system_id":"levelo_inurba_marseille","lat":43.29487,"lon":5.38641,"is_reserved":false,"is_disabled":false,"rental_uris":{"android":"levelo://app?vid=5ef7dbea-89fe-469a-b5aa-7acab1d76b25","ios":"levelo://app?vid=5ef7dbea-89fe-469a-b5aa-7acab1d76b25"},"vehicle_type_id":"4","last_reported":1778584217,"current_range_meters":3200,"station_id":"","pricing_plan_id":"cebpf4jnsgd1na2vs0mg"},{"bike_id":"278ab637-5efb-4d38-892a-0119aef1e079","system_id":"levelo_inurba_marseille","lat":43.33542,"lon":5.37469,"is_reserved":false,"is_disabled":false,"rental_uris":{"android":"levelo://app?vid=278ab637-5efb-4d38-892a-0119aef1e079","ios":"levelo://app?vid=278ab637-5efb-4d38-892a-0119aef1e079"},"vehicle_type_id":"4","last_reported":1778584217,"current_range_meters":3600,"station_id":"st_d46tts09ee8s73dlu43g","pricing_plan_id":"cebpf4jnsgd1na2vs0mg"},{"bike_id":"59d1c8ca-a1da-4ef6-82e6-cd1ef07f4ded","system_id":"levelo_inurba_marseille","lat":43.2815,"lon":5.4264,"is_reserved":false,"is_disabled":true,"rental_uris":{"android":"levelo://app?vid=59d1c8ca-a1da-4ef6-82e6-cd1ef07f4ded","ios":"levelo://app?vid=59d1c8ca-a1da-4ef6-82e6-cd1ef07f4ded"},"vehicle_type_id":"4","last_reported":1778584217,"current_range_meters":3600,"station_id":"ce4bhnh2rcd13ifvqgug","pricing_plan_id":"cebpf4jnsgd1na2vs0mg"},{"bike_id":"e5040d04-cb96-4a30-a327-da14fb63daa5","system_id":"levelo_inurba_marseille","lat":43.26478,"lon":5.39538,"is_reserved":false,"is_disabled":false,"rental_uris":{"android":"levelo://app?vid=e5040d04-cb96-4a30-a327-da14fb63daa5","ios":"levelo://app?vid=e5040d04-cb96-4a30-a327-da14fb63daa5"},"vehicle_type_id":"4","last_reported":1778584217,"current_range_meters":3600,"station_id":"ce4bhi12rcd13ifvqfq0","pricing_plan_id":"cebpf4jnsgd1na2vs0mg"},{"bike_id":"1cda2a20-a2aa-413c-a4dd-92b6a2a3d744","system_id":"levelo_inurba_marseille","lat":43.2654,"lon":5.37275,"is_reserved":false,"is_disabled":true,"rental_uris":{"android":"levelo://app?vid=1cda2a20-a2aa-413c-a4dd-92b6a2a3d744","ios":"levelo://app?vid=1cda2a20-a2aa-413c-a4dd-92b6a2a3d744"},"vehicle_type_id":"4","last_reported":1778584217,"current_range_meters":3600,"station_id":"ce4bhg12rcd13ifvqf70","pricing_plan_id":"cebpf4jnsgd1na2vs0mg"},{"bike_id":"2c3d88df-c917-4dc8-8cd9-e8997c351686","system_id":"levelo_inurba_marseille","lat":43.29013,"lon":5.35603,"is_reserved":false,"is_disabled":false,"rental_uris":{"android":"levelo://app?vid=2c3d88df-c917-4dc8-8cd9-e8997c351686","ios":"levelo://app?vid=2c3d88df-c917-4dc8-8cd9-e8997c351686"},"vehicle_type_id":"4","last_reported":1778584217,"current_range_meters":3600,"station_id":"ce4bhb92rcd13ifvqen0","pricing_plan_id":"cebpf4jnsgd1na2vs0mg"},{"bike_id":"49d857a6-a8e6-4709-bf83-565b3cb79d8e","system_id":"levelo_inurba_marseille","lat":43.29261,"lon":5.39107,"is_reserved":false,"is_disabled":false,"rental_uris":{"android":"levelo://app?vid=49d857a6-a8e6-4709-bf83-565b3cb79d8e","ios":"levelo://app?vid=49d857a6-a8e6-4709-bf83-565b3cb79d8e"},"vehicle_type_id":"4","last_reported":1778584217,"current_range_meters":3600,"station_id":"","pricing_plan_id":"cebpf4jnsgd1na2vs0mg"},{"bike_id":"506bf8f1-4063-496c-997e-e616c740cb63","system_id":"levelo_inurba_marseille","lat":43.22555,"lon":5.41636,"is_reserved":false,"is_disabled":false,"rental_uris":{"android":"levelo://app?vid=506bf8f1-4063-496c-997e-e616c740cb63","ios":"levelo://app?vid=506bf8f1-4063-496c-997e-e616c740cb63"},"vehicle_type_id":"4","last_reported":1778584217,"current_range_meters":3600,"station_id":"st_d2o4gvlbi1j2169b742g","pricing_plan_id":"cebpf4jnsgd1na2vs0mg"},{"bike_id":"6688ffe8-439f-4cf3-aad3-e5b4dbb05635","system_id":"levelo_inurba_marseille","lat":43.21196,"lon":5.35052,"is_reserved":false,"is_disabled":false,"rental_uris":{"android":"levelo://app?vid=6688ffe8-439f-4cf3-aad3-e5b4dbb05635","ios":"levelo://app?vid=6688ffe8-439f-4cf3-aad3-e5b4dbb05635"},"vehicle_type_id":"4","last_reported":1778584217,"current_range_meters":3600,"station_id":"st_cvj6sg6p6f1abm77japg","pricing_plan_id":"cebpf4jnsgd1na2vs0mg"},{"bike_id":"92451cea-094f-48eb-90c7-ab59f50f048d","system_id":"levelo_inurba_marseille","lat":43.33774,"lon":5.37478,"is_reserved":false,"is_disabled":false,"rental_uris":{"android":"levelo://app?vid=92451cea-094f-48eb-90c7-ab59f50f048d","ios":"levelo://app?vid=92451cea-094f-48eb-90c7-ab59f50f048d"},"vehicle_type_id":"4","last_reported":1778584217,"current_range_meters":4000,"station_id":"st_d46tts09ee8s73dlu43g","pricing_plan_id":"cebpf4jnsgd1na2vs0mg"},{"bike_id":"12610875-47ed-488a-9fe5-2c76e314c432","system_id":"levelo_inurba_marseille","lat":43.29671,"lon":5.36606,"is_reserved":false,"is_disabled":false,"rental_uris":{"android":"levelo://app?vid=12610875-47ed-488a-9fe5-2c76e314c432","ios":"levelo://app?vid=12610875-47ed-488a-9fe5-2c76e314c432"},"vehicle_type_id":"4","last_reported":1778584217,"current_range_meters":4000,"station_id":"ce4bgn12rcd13ifvqbt0","pricing_plan_id":"cebpf4jnsgd1na2vs0mg"},{"bike_id":"66983a47-b821-425f-ad2d-beef691e712e","system_id":"levelo_inurba_marseille","lat":43.24077,"lon":5.37758,"is_reserved":false,"is_disabled":true,"rental_uris":{"android":"levelo://app?vid=66983a47-b821-425f-ad2d-beef691e712e","ios":"levelo://app?vid=66983a47-b821-425f-ad2d-beef691e712e"},"vehicle_type_id":"4","last_reported":1778584217,"current_range_meters":4000,"station_id":"ce4bhnp2rcd13ifvqgvg","pricing_plan_id":"cebpf4jnsgd1na2vs0mg"},{"bike_id":"4129d539-6b33-487c-9889-3a86cab09666","system_id":"levelo_inurba_marseille","lat":43.28936,"lon":5.36417,"is_reserved":false,"is_disabled":false,"rental_uris":{"android":"levelo://app?vid=4129d539-6b33-487c-9889-3a86cab09666","ios":"levelo://app?vid=4129d539-6b33-487c-9889-3a86cab09666"},"vehicle_type_id":"4","last_reported":1778584217,"current_range_meters":4000,"station_id":"ce4bhc92rcd13ifvqetg","pricing_plan_id":"cebpf4jnsgd1na2vs0mg"},{"bike_id":"f13b173d-07df-4d85-862b-5d0a948426ed","system_id":"levelo_inurba_marseille","lat":43.28272,"lon":5.35069,"is_reserved":false,"is_disabled":false,"rental_uris":{"android":"levelo://app?vid=f13b173d-07df-4d85-862b-5d0a948426ed","ios":"levelo://app?vid=f13b173d-07df-4d85-862b-5d0a948426ed"},"vehicle_type_id":"4","last_reported":1778584217,"current_range_meters":4000,"station_id":"ce4bhbp2rcd13ifvqerg","pricing_plan_id":"cebpf4jnsgd1na2vs0mg"},{"bike_id":"36a8230c-721c-4328-a9b6-c5c9ffd75279","system_id":"levelo_inurba_marseille","lat":43.331646,"lon":5.376766,"is_reserved":false,"is_disabled":true,"rental_uris":{"android":"levelo://app?vid=36a8230c-721c-4328-a9b6-c5c9ffd75279","ios":"levelo://app?vid=36a8230c-721c-4328-a9b6-c5c9ffd75279"},"vehicle_type_id":"4","last_reported":1778584217,"current_range_meters":4000,"station_id":"st_d46cu089ee8s73dldbu0","pricing_plan_id":"cebpf4jnsgd1na2vs0mg"},{"bike_id":"c3abcb35-b5a7-4b1a-baa3-4fa4d3751f1c","system_id":"levelo_inurba_marseille","lat":43.24384,"lon":5.37072,"is_reserved":false,"is_disabled":false,"rental_uris":{"android":"levelo://app?vid=c3abcb35-b5a7-4b1a-baa3-4fa4d3751f1c","ios":"levelo://app?vid=c3abcb35-b5a7-4b1a-baa3-4fa4d3751f1c"},"vehicle_type_id":"4","last_reported":1778584217,"current_range_meters":4000,"station_id":"ce4bhhh2rcd13ifvqfk0","pricing_plan_id":"cebpf4jnsgd1na2vs0mg"},{"bike_id":"e3f608e7-bb58-4c91-8dc3-b1b5e763e75e","system_id":"levelo_inurba_marseille","lat":43.27307,"lon":5.3909,"is_reserved":false,"is_disabled":false,"rental_uris":{"android":"levelo://app?vid=e3f608e7-bb58-4c91-8dc3-b1b5e763e75e","ios":"levelo://app?vid=e3f608e7-bb58-4c91-8dc3-b1b5e763e75e"},"vehicle_type_id":"4","last_reported":1778584217,"current_range_meters":4000,"station_id":"ce4bhgp2rcd13ifvqfe0","pricing_plan_id":"cebpf4jnsgd1na2vs0mg"},{"bike_id":"230a4e4e-203d-4420-a198-8e566e53095b","system_id":"levelo_inurba_marseille","lat":43.29184,"lon":5.39325,"is_reserved":false,"is_disabled":false,"rental_uris":{"android":"levelo://app?vid=230a4e4e-203d-4420-a198-8e566e53095b","ios":"levelo://app?vid=230a4e4e-203d-4420-a198-8e566e53095b"},"vehicle_type_id":"4","last_reported":1778584217,"current_range_meters":4000,"station_id":"ce4bh192rcd13ifvqdd0","pricing_plan_id":"cebpf4jnsgd1na2vs0mg"},{"bike_id":"07b30fd1-e131-41c8-8fcb-ed255c5ec415","system_id":"levelo_inurba_marseille","lat":43.29205,"lon":5.42691,"is_reserved":false,"is_disabled":false,"rental_uris":{"android":"levelo://app?vid=07b30fd1-e131-41c8-8fcb-ed255c5ec415","ios":"levelo://app?vid=07b30fd1-e131-41c8-8fcb-ed255c5ec415"},"vehicle_type_id":"4","last_reported":1778584217,"current_range_meters":4000,"station_id":"","pricing_plan_id":"cebpf4jnsgd1na2vs0mg"},{"bike_id":"120cdc14-1fc3-49ca-9d83-9cb214920b9f","system_id":"levelo_inurba_marseille","lat":43.29884,"lon":5.38894,"is_reserved":false,"is_disabled":false,"rental_uris":{"android":"levelo://app?vid=120cdc14-1fc3-49ca-9d83-9cb214920b9f","ios":"levelo://app?vid=120cdc14-1fc3-49ca-9d83-9cb214920b9f"},"vehicle_type_id":"4","last_reported":1778584217,"current_range_meters":4400,"station_id":"ce4bh392rcd13ifvqdl0","pricing_plan_id":"cebpf4jnsgd1na2vs0mg"},{"bike_id":"f0cfecad-9e02-457f-9cd7-926ee2f8035d","system_id":"levelo_inurba_marseille","lat":43.2408,"lon":5.37744,"is_reserved":false,"is_disabled":false,"rental_uris":{"android":"levelo://app?vid=f0cfecad-9e02-457f-9cd7-926ee2f8035d","ios":"levelo://app?vid=f0cfecad-9e02-457f-9cd7-926ee2f8035d"},"vehicle_type_id":"4","last_reported":1778584217,"current_range_meters":4400,"station_id":"ce4bhnp2rcd13ifvqgvg","pricing_plan_id":"cebpf4jnsgd1na2vs0mg"},{"bike_id":"7484d567-8aaf-460b-8095-9fd40c04ba43","system_id":"levelo_inurba_marseille","lat":43.24666,"lon":5.38153,"is_reserved":false,"is_disabled":false,"rental_uris":{"android":"levelo://app?vid=7484d567-8aaf-460b-8095-9fd40c04ba43","ios":"levelo://app?vid=7484d567-8aaf-460b-8095-9fd40c04ba43"},"vehicle_type_id":"4","last_reported":1778584217,"current_range_meters":4400,"station_id":"ce4bhih2rcd13ifvqfr0","pricing_plan_id":"cebpf4jnsgd1na2vs0mg"},{"bike_id":"8375ce23-e2ad-4d2f-892e-5e5e5035aa46","system_id":"levelo_inurba_marseille","lat":43.2862,"lon":5.35105,"is_reserved":false,"is_disabled":false,"rental_uris":{"android":"levelo://app?vid=8375ce23-e2ad-4d2f-892e-5e5e5035aa46","ios":"levelo://app?vid=8375ce23-e2ad-4d2f-892e-5e5e5035aa46"},"vehicle_type_id":"4","last_reported":1778584217,"current_range_meters":4400,"station_id":"ce4bhch2rcd13ifvqeug","pricing_plan_id":"cebpf4jnsgd1na2vs0mg"},{"bike_id":"4b600278-649a-412f-a79d-3b414074a2a0","system_id":"levelo_inurba_marseille","lat":43.26227,"lon":5.40439,"is_reserved":false,"is_disabled":false,"rental_uris":{"android":"levelo://app?vid=4b600278-649a-412f-a79d-3b414074a2a0","ios":"levelo://app?vid=4b600278-649a-412f-a79d-3b414074a2a0"},"vehicle_type_id":"4","last_reported":1778584217,"current_range_meters":4400,"station_id":"ce4bhmh2rcd13ifvqgmg","pricing_plan_id":"cebpf4jnsgd1na2vs0mg"},{"bike_id":"0f19004c-8f50-46f9-a9d9-6bfd8920cac5","system_id":"levelo_inurba_marseille","lat":43.30146,"lon":5.38075,"is_reserved":false,"is_disabled":false,"rental_uris":{"android":"levelo://app?vid=0f19004c-8f50-46f9-a9d9-6bfd8920cac5","ios":"levelo://app?vid=0f19004c-8f50-46f9-a9d9-6bfd8920cac5"},"vehicle_type_id":"4","last_reported":1778584217,"current_range_meters":4400,"station_id":"ce4bgjp2rcd13ifvqbh0","pricing_plan_id":"cebpf4jnsgd1na2vs0mg"},{"bike_id":"54d91a13-5899-47f6-bec9-71223c378664","system_id":"levelo_inurba_marseille","lat":43.2849,"lon":5.48362,"is_reserved":false,"is_disabled":false,"rental_uris":{"android":"levelo://app?vid=54d91a13-5899-47f6-bec9-71223c378664","ios":"levelo://app?vid=54d91a13-5899-47f6-bec9-71223c378664"},"vehicle_type_id":"4","last_reported":1778584217,"current_range_meters":4400,"station_id":"","pricing_plan_id":"cebpf4jnsgd1na2vs0mg"},{"bike_id":"0f53e0ce-114e-4420-896f-7965871864a7","system_id":"levelo_inurba_marseille","lat":43.24665,"lon":5.38154,"is_reserved":false,"is_disabled":false,"rental_uris":{"android":"levelo://app?vid=0f53e0ce-114e-4420-896f-7965871864a7","ios":"levelo://app?vid=0f53e0ce-114e-4420-896f-7965871864a7"},"vehicle_type_id":"4","last_reported":1778584217,"current_range_meters":4800,"station_id":"ce4bhih2rcd13ifvqfr0","pricing_plan_id":"cebpf4jnsgd1na2vs0mg"},{"bike_id":"0b19dc2f-f47e-4191-ac23-8583d8e624bd","system_id":"levelo_inurba_marseille","lat":43.29581,"lon":5.39968,"is_reserved":false,"is_disabled":false,"rental_uris":{"android":"levelo://app?vid=0b19dc2f-f47e-4191-ac23-8583d8e624bd","ios":"levelo://app?vid=0b19dc2f-f47e-4191-ac23-8583d8e624bd"},"vehicle_type_id":"4","last_reported":1778584217,"current_range_meters":4800,"station_id":"ce4bh312rcd13ifvqdj0","pricing_plan_id":"cebpf4jnsgd1na2vs0mg"},{"bike_id":"d5785ec9-6274-44d0-9968-955992c9d661","system_id":"levelo_inurba_marseille","lat":43.2417,"lon":5.36403,"is_reserved":false,"is_disabled":false,"rental_uris":{"android":"levelo://app?vid=d5785ec9-6274-44d0-9968-955992c9d661","ios":"levelo://app?vid=d5785ec9-6274-44d0-9968-955992c9d661"},"vehicle_type_id":"4","last_reported":1778584217,"current_range_meters":4800,"station_id":"cpo36qri1sfpv3e86is0","pricing_plan_id":"cebpf4jnsgd1na2vs0mg"},{"bike_id":"71472d68-a559-4d19-94ef-9e760eb01dd3","system_id":"levelo_inurba_marseille","lat":43.31221,"lon":5.36872,"is_reserved":false,"is_disabled":true,"rental_uris":{"android":"levelo://app?vid=71472d68-a559-4d19-94ef-9e760eb01dd3","ios":"levelo://app?vid=71472d68-a559-4d19-94ef-9e760eb01dd3"},"vehicle_type_id":"4","last_reported":1778584217,"current_range_meters":4800,"station_id":"ce4bgl92rcd13ifvqbq0","pricing_plan_id":"cebpf4jnsgd1na2vs0mg"},{"bike_id":"4e9e9f19-6747-44e6-895b-68838dd6a1c5","system_id":"levelo_inurba_marseille","lat":43.32357,"lon":5.3674,"is_reserved":false,"is_disabled":false,"rental_uris":{"android":"levelo://app?vid=4e9e9f19-6747-44e6-895b-68838dd6a1c5","ios":"levelo://app?vid=4e9e9f19-6747-44e6-895b-68838dd6a1c5"},"vehicle_type_id":"4","last_reported":1778584217,"current_range_meters":4800,"station_id":"ce4bhsh2rcd13ifvqi2g","pricing_plan_id":"cebpf4jnsgd1na2vs0mg"},{"bike_id":"5a1ea2de-417d-4de1-b842-7fe8ee6c04c6","system_id":"levelo_inurba_marseille","lat":43.29049,"lon":5.42426,"is_reserved":false,"is_disabled":false,"rental_uris":{"android":"levelo://app?vid=5a1ea2de-417d-4de1-b842-7fe8ee6c04c6","ios":"levelo://app?vid=5a1ea2de-417d-4de1-b842-7fe8ee6c04c6"},"vehicle_type_id":"4","last_reported":1778584217,"current_range_meters":4800,"station_id":"","pricing_plan_id":"cebpf4jnsgd1na2vs0mg"},{"bike_id":"6af52e6c-38ce-43eb-be53-165455f7b92b","system_id":"levelo_inurba_marseille","lat":43.28428,"lon":5.37516,"is_reserved":false,"is_disabled":false,"rental_uris":{"android":"levelo://app?vid=6af52e6c-38ce-43eb-be53-165455f7b92b","ios":"levelo://app?vid=6af52e6c-38ce-43eb-be53-165455f7b92b"},"vehicle_type_id":"4","last_reported":1778584217,"current_range_meters":4800,"station_id":"ce4bh412rcd13ifvqds0","pricing_plan_id":"cebpf4jnsgd1na2vs0mg"},{"bike_id":"9ec631be-d357-4dea-a511-e39edb2edb25","system_id":"levelo_inurba_marseille","lat":43.3042,"lon":5.39742,"is_reserved":false,"is_disabled":false,"rental_uris":{"android":"levelo://app?vid=9ec631be-d357-4dea-a511-e39edb2edb25","ios":"levelo://app?vid=9ec631be-d357-4dea-a511-e39edb2edb25"},"vehicle_type_id":"4","last_reported":1778584217,"current_range_meters":4800,"station_id":"ce4bh092rcd13ifvqd20","pricing_plan_id":"cebpf4jnsgd1na2vs0mg"},{"bike_id":"63d94166-dc89-46d5-b4d3-595a07629c5c","system_id":"levelo_inurba_marseille","lat":43.32483,"lon":5.38288,"is_reserved":false,"is_disabled":false,"rental_uris":{"android":"levelo://app?vid=63d94166-dc89-46d5-b4d3-595a07629c5c","ios":"levelo://app?vid=63d94166-dc89-46d5-b4d3-595a07629c5c"},"vehicle_type_id":"4","last_reported":1778584217,"current_range_meters":4800,"station_id":"st_d4asgbiv49dc73anf9m0","pricing_plan_id":"cebpf4jnsgd1na2vs0mg"},{"bike_id":"2dcab839-fffc-4e79-b33a-d5c7f531157f","system_id":"levelo_inurba_marseille","lat":43.28789,"lon":5.42422,"is_reserved":false,"is_disabled":false,"rental_uris":{"android":"levelo://app?vid=2dcab839-fffc-4e79-b33a-d5c7f531157f","ios":"levelo://app?vid=2dcab839-fffc-4e79-b33a-d5c7f531157f"},"vehicle_type_id":"4","last_reported":1778584217,"current_range_meters":4800,"station_id":"","pricing_plan_id":"cebpf4jnsgd1na2vs0mg"},{"bike_id":"9a7ced66-54d4-4ca0-bb36-894adc26116a","system_id":"levelo_inurba_marseille","lat":43.30525,"lon":5.36522,"is_reserved":false,"is_disabled":false,"rental_uris":{"android":"levelo://app?vid=9a7ced66-54d4-4ca0-bb36-894adc26116a","ios":"levelo://app?vid=9a7ced66-54d4-4ca0-bb36-894adc26116a"},"vehicle_type_id":"4","last_reported":1778584217,"current_range_meters":4800,"station_id":"","pricing_plan_id":"cebpf4jnsgd1na2vs0mg"},{"bike_id":"6a92efed-33ad-40dc-b486-b9e6483972b2","system_id":"levelo_inurba_marseille","lat":43.26236,"lon":5.38752,"is_reserved":false,"is_disabled":false,"rental_uris":{"android":"levelo://app?vid=6a92efed-33ad-40dc-b486-b9e6483972b2","ios":"levelo://app?vid=6a92efed-33ad-40dc-b486-b9e6483972b2"},"vehicle_type_id":"4","last_reported":1778584217,"current_range_meters":5600,"station_id":"","pricing_plan_id":"cebpf4jnsgd1na2vs0mg"},{"bike_id":"8f87a66e-499f-40d3-81f4-ef3b647adc53","system_id":"levelo_inurba_marseille","lat":43.28187,"lon":5.42638,"is_reserved":false,"is_disabled":false,"rental_uris":{"android":"levelo://app?vid=8f87a66e-499f-40d3-81f4-ef3b647adc53","ios":"levelo://app?vid=8f87a66e-499f-40d3-81f4-ef3b647adc53"},"vehicle_type_id":"4","last_reported":1778584217,"current_range_meters":5600,"station_id":"ce4bhnh2rcd13ifvqgug","pricing_plan_id":"cebpf4jnsgd1na2vs0mg"},{"bike_id":"d903db2b-3c4f-4ebd-adb5-e9d51955ecf8","system_id":"levelo_inurba_marseille","lat":43.27548,"lon":5.35895,"is_reserved":false,"is_disabled":false,"rental_uris":{"android":"levelo://app?vid=d903db2b-3c4f-4ebd-adb5-e9d51955ecf8","ios":"levelo://app?vid=d903db2b-3c4f-4ebd-adb5-e9d51955ecf8"},"vehicle_type_id":"4","last_reported":1778584217,"current_range_meters":5600,"station_id":"","pricing_plan_id":"cebpf4jnsgd1na2vs0mg"},{"bike_id":"bf608530-b991-434d-ac45-a3dafc806da6","system_id":"levelo_inurba_marseille","lat":43.28717,"lon":5.39997,"is_reserved":false,"is_disabled":false,"rental_uris":{"android":"levelo://app?vid=bf608530-b991-434d-ac45-a3dafc806da6","ios":"levelo://app?vid=bf608530-b991-434d-ac45-a3dafc806da6"},"vehicle_type_id":"4","last_reported":1778584217,"current_range_meters":5600,"station_id":"ce4bho92rcd13ifvqh3g","pricing_plan_id":"cebpf4jnsgd1na2vs0mg"},{"bike_id":"dc0a6e21-47dd-44a5-9f73-3b0019341943","system_id":"levelo_inurba_marseille","lat":43.30513,"lon":5.4606,"is_reserved":false,"is_disabled":false,"rental_uris":{"android":"levelo://app?vid=dc0a6e21-47dd-44a5-9f73-3b0019341943","ios":"levelo://app?vid=dc0a6e21-47dd-44a5-9f73-3b0019341943"},"vehicle_type_id":"4","last_reported":1778584217,"current_range_meters":5600,"station_id":"","pricing_plan_id":"cebpf4jnsgd1na2vs0mg"},{"bike_id":"cca293f6-b229-45e1-991c-6ecc77d64812","system_id":"levelo_inurba_marseille","lat":43.28955,"lon":5.36641,"is_reserved":false,"is_disabled":false,"rental_uris":{"android":"levelo://app?vid=cca293f6-b229-45e1-991c-6ecc77d64812","ios":"levelo://app?vid=cca293f6-b229-45e1-991c-6ecc77d64812"},"vehicle_type_id":"4","last_reported":1778584217,"current_range_meters":5600,"station_id":"ce4bhap2rcd13ifvqek0","pricing_plan_id":"cebpf4jnsgd1na2vs0mg"},{"bike_id":"e29f13ba-8f18-4046-9cea-a6d1edec3557","system_id":"levelo_inurba_marseille","lat":43.31886,"lon":5.4095,"is_reserved":false,"is_disabled":false,"rental_uris":{"android":"levelo://app?vid=e29f13ba-8f18-4046-9cea-a6d1edec3557","ios":"levelo://app?vid=e29f13ba-8f18-4046-9cea-a6d1edec3557"},"vehicle_type_id":"4","last_reported":1778584217,"current_range_meters":5600,"station_id":"","pricing_plan_id":"cebpf4jnsgd1na2vs0mg"},{"bike_id":"f0e24786-c210-41ae-977f-12c00f9c5bb8","system_id":"levelo_inurba_marseille","lat":43.31322,"lon":5.39699,"is_reserved":false,"is_disabled":false,"rental_uris":{"android":"levelo://app?vid=f0e24786-c210-41ae-977f-12c00f9c5bb8","ios":"levelo://app?vid=f0e24786-c210-41ae-977f-12c00f9c5bb8"},"vehicle_type_id":"4","last_reported":1778584217,"current_range_meters":5600,"station_id":"ce4bgvp2rcd13ifvqcu0","pricing_plan_id":"cebpf4jnsgd1na2vs0mg"},{"bike_id":"bf3b1348-ad94-420e-9667-10b62c94eb07","system_id":"levelo_inurba_marseille","lat":43.24638,"lon":5.38899,"is_reserved":false,"is_disabled":false,"rental_uris":{"android":"levelo://app?vid=bf3b1348-ad94-420e-9667-10b62c94eb07","ios":"levelo://app?vid=bf3b1348-ad94-420e-9667-10b62c94eb07"},"vehicle_type_id":"4","last_reported":1778584217,"current_range_meters":5600,"station_id":"ce4bhg12rcd13ifvqf60","pricing_plan_id":"cebpf4jnsgd1na2vs0mg"},{"bike_id":"86a5c18b-44f0-46b8-8841-5beaef91b6f4","system_id":"levelo_inurba_marseille","lat":43.27912,"lon":5.39582,"is_reserved":false,"is_disabled":false,"rental_uris":{"android":"levelo://app?vid=86a5c18b-44f0-46b8-8841-5beaef91b6f4","ios":"levelo://app?vid=86a5c18b-44f0-46b8-8841-5beaef91b6f4"},"vehicle_type_id":"4","last_reported":1778584217,"current_range_meters":5600,"station_id":"ce4bhf92rcd13ifvqf40","pricing_plan_id":"cebpf4jnsgd1na2vs0mg"},{"bike_id":"ef08f997-2a49-474b-9ed8-8f4d69df108b","system_id":"levelo_inurba_marseille","lat":43.26564,"lon":5.37301,"is_reserved":false,"is_disabled":false,"rental_uris":{"android":"levelo://app?vid=ef08f997-2a49-474b-9ed8-8f4d69df108b","ios":"levelo://app?vid=ef08f997-2a49-474b-9ed8-8f4d69df108b"},"vehicle_type_id":"4","last_reported":1778584217,"current_range_meters":5600,"station_id":"ce4bhg12rcd13ifvqf70","pricing_plan_id":"cebpf4jnsgd1na2vs0mg"},{"bike_id":"eb3e0cbc-edbc-405b-8bcf-bd2109caf947","system_id":"levelo_inurba_marseille","lat":43.2313,"lon":5.44341,"is_reserved":false,"is_disabled":false,"rental_uris":{"android":"levelo://app?vid=eb3e0cbc-edbc-405b-8bcf-bd2109caf947","ios":"levelo://app?vid=eb3e0cbc-edbc-405b-8bcf-bd2109caf947"},"vehicle_type_id":"4","last_reported":1778584217,"current_range_meters":5600,"station_id":"","pricing_plan_id":"cebpf4jnsgd1na2vs0mg"},{"bike_id":"b3634236-6f12-45a1-a094-29448f646d13","system_id":"levelo_inurba_marseille","lat":43.29599,"lon":5.38096,"is_reserved":false,"is_disabled":false,"rental_uris":{"android":"levelo://app?vid=b3634236-6f12-45a1-a094-29448f646d13","ios":"levelo://app?vid=b3634236-6f12-45a1-a094-29448f646d13"},"vehicle_type_id":"4","last_reported":1778584217,"current_range_meters":5600,"station_id":"ce4bgl12rcd13ifvqbo0","pricing_plan_id":"cebpf4jnsgd1na2vs0mg"},{"bike_id":"0f1807cc-9d93-4021-8b9a-9457f4117b8b","system_id":"levelo_inurba_marseille","lat":43.32136,"lon":5.36782,"is_reserved":false,"is_disabled":false,"rental_uris":{"android":"levelo://app?vid=0f1807cc-9d93-4021-8b9a-9457f4117b8b","ios":"levelo://app?vid=0f1807cc-9d93-4021-8b9a-9457f4117b8b"},"vehicle_type_id":"4","last_reported":1778584217,"current_range_meters":6000,"station_id":"ce4bhrh2rcd13ifvqhug","pricing_plan_id":"cebpf4jnsgd1na2vs0mg"},{"bike_id":"7e021223-aa2b-4b4f-a31f-7890483c30ec","system_id":"levelo_inurba_marseille","lat":43.31226,"lon":5.36854,"is_reserved":false,"is_disabled":false,"rental_uris":{"android":"levelo://app?vid=7e021223-aa2b-4b4f-a31f-7890483c30ec","ios":"levelo://app?vid=7e021223-aa2b-4b4f-a31f-7890483c30ec"},"vehicle_type_id":"4","last_reported":1778584217,"current_range_meters":6000,"station_id":"ce4bgl92rcd13ifvqbq0","pricing_plan_id":"cebpf4jnsgd1na2vs0mg"},{"bike_id":"daa7168a-7e89-4c13-9120-19d3be838e10","system_id":"levelo_inurba_marseille","lat":43.28698,"lon":5.46689,"is_reserved":false,"is_disabled":false,"rental_uris":{"android":"levelo://app?vid=daa7168a-7e89-4c13-9120-19d3be838e10","ios":"levelo://app?vid=daa7168a-7e89-4c13-9120-19d3be838e10"},"vehicle_type_id":"4","last_reported":1778584217,"current_range_meters":6000,"station_id":"st_d6tc3vkotcvc738tfjhg","pricing_plan_id":"cebpf4jnsgd1na2vs0mg"},{"bike_id":"a88ffb8c-9119-46ba-9a45-c3fba92937d3","system_id":"levelo_inurba_marseille","lat":43.302682,"lon":5.400815,"is_reserved":false,"is_disabled":false,"rental_uris":{"android":"levelo://app?vid=a88ffb8c-9119-46ba-9a45-c3fba92937d3","ios":"levelo://app?vid=a88ffb8c-9119-46ba-9a45-c3fba92937d3"},"vehicle_type_id":"4","last_reported":1778584217,"current_range_meters":6000,"station_id":"ce4bgvh2rcd13ifvqcs0","pricing_plan_id":"cebpf4jnsgd1na2vs0mg"},{"bike_id":"819a3868-e86b-4761-85f7-cd647e1f51b3","system_id":"levelo_inurba_marseille","lat":43.21194,"lon":5.35072,"is_reserved":false,"is_disabled":false,"rental_uris":{"android":"levelo://app?vid=819a3868-e86b-4761-85f7-cd647e1f51b3","ios":"levelo://app?vid=819a3868-e86b-4761-85f7-cd647e1f51b3"},"vehicle_type_id":"4","last_reported":1778584217,"current_range_meters":6000,"station_id":"st_cvj6sg6p6f1abm77japg","pricing_plan_id":"cebpf4jnsgd1na2vs0mg"},{"bike_id":"ec356ca0-79ee-4a7c-886e-170471134b26","system_id":"levelo_inurba_marseille","lat":43.2741,"lon":5.39397,"is_reserved":false,"is_disabled":false,"rental_uris":{"android":"levelo://app?vid=ec356ca0-79ee-4a7c-886e-170471134b26","ios":"levelo://app?vid=ec356ca0-79ee-4a7c-886e-170471134b26"},"vehicle_type_id":"4","last_reported":1778584217,"current_range_meters":6000,"station_id":"ce4bhdp2rcd13ifvqf20","pricing_plan_id":"cebpf4jnsgd1na2vs0mg"},{"bike_id":"4c062611-ab9f-47d0-b554-87604f0ef669","system_id":"levelo_inurba_marseille","lat":43.273141,"lon":5.390683,"is_reserved":false,"is_disabled":false,"rental_uris":{"android":"levelo://app?vid=4c062611-ab9f-47d0-b554-87604f0ef669","ios":"levelo://app?vid=4c062611-ab9f-47d0-b554-87604f0ef669"},"vehicle_type_id":"4","last_reported":1778584217,"current_range_meters":6000,"station_id":"ce4bhgp2rcd13ifvqfe0","pricing_plan_id":"cebpf4jnsgd1na2vs0mg"},{"bike_id":"8f93ecf7-5858-4a2e-802e-fd981638f5b6","system_id":"levelo_inurba_marseille","lat":43.29843,"lon":5.36275,"is_reserved":false,"is_disabled":false,"rental_uris":{"android":"levelo://app?vid=8f93ecf7-5858-4a2e-802e-fd981638f5b6","ios":"levelo://app?vid=8f93ecf7-5858-4a2e-802e-fd981638f5b6"},"vehicle_type_id":"4","last_reported":1778584217,"current_range_meters":6000,"station_id":"ce4bgpp2rcd13ifvqc3g","pricing_plan_id":"cebpf4jnsgd1na2vs0mg"},{"bike_id":"d9d8f074-3080-45a8-8031-34067327c088","system_id":"levelo_inurba_marseille","lat":43.27206,"lon":5.39192,"is_reserved":false,"is_disabled":false,"rental_uris":{"android":"levelo://app?vid=d9d8f074-3080-45a8-8031-34067327c088","ios":"levelo://app?vid=d9d8f074-3080-45a8-8031-34067327c088"},"vehicle_type_id":"4","last_reported":1778584217,"current_range_meters":6000,"station_id":"ce4bhhp2rcd13ifvqfm0","pricing_plan_id":"cebpf4jnsgd1na2vs0mg"},{"bike_id":"dba3a41e-5817-4dab-887a-39cfc182c3e4","system_id":"levelo_inurba_marseille","lat":43.23861,"lon":5.36585,"is_reserved":false,"is_disabled":true,"rental_uris":{"android":"levelo://app?vid=dba3a41e-5817-4dab-887a-39cfc182c3e4","ios":"levelo://app?vid=dba3a41e-5817-4dab-887a-39cfc182c3e4"},"vehicle_type_id":"4","last_reported":1778584217,"current_range_meters":6400,"station_id":"","pricing_plan_id":"cebpf4jnsgd1na2vs0mg"},{"bike_id":"17d8926b-3f70-4955-bb5e-0b52af3409be","system_id":"levelo_inurba_marseille","lat":43.3112,"lon":5.36886,"is_reserved":false,"is_disabled":false,"rental_uris":{"android":"levelo://app?vid=17d8926b-3f70-4955-bb5e-0b52af3409be","ios":"levelo://app?vid=17d8926b-3f70-4955-bb5e-0b52af3409be"},"vehicle_type_id":"4","last_reported":1778584217,"current_range_meters":6400,"station_id":"","pricing_plan_id":"cebpf4jnsgd1na2vs0mg"},{"bike_id":"47695ea7-1d52-49dd-9fa5-c42f860b9ae5","system_id":"levelo_inurba_marseille","lat":43.28223,"lon":5.39072,"is_reserved":false,"is_disabled":false,"rental_uris":{"android":"levelo://app?vid=47695ea7-1d52-49dd-9fa5-c42f860b9ae5","ios":"levelo://app?vid=47695ea7-1d52-49dd-9fa5-c42f860b9ae5"},"vehicle_type_id":"4","last_reported":1778584217,"current_range_meters":6400,"station_id":"ce4bhn92rcd13ifvqgsg","pricing_plan_id":"cebpf4jnsgd1na2vs0mg"},{"bike_id":"5dd8f770-069e-4905-8294-c8c99ba55c94","system_id":"levelo_inurba_marseille","lat":43.304359,"lon":5.397488,"is_reserved":false,"is_disabled":false,"rental_uris":{"android":"levelo://app?vid=5dd8f770-069e-4905-8294-c8c99ba55c94","ios":"levelo://app?vid=5dd8f770-069e-4905-8294-c8c99ba55c94"},"vehicle_type_id":"4","last_reported":1778584217,"current_range_meters":6400,"station_id":"ce4bh092rcd13ifvqd20","pricing_plan_id":"cebpf4jnsgd1na2vs0mg"},{"bike_id":"fedc1f81-3edb-4fc0-abc1-bcfc17aa85f5","system_id":"levelo_inurba_marseille","lat":43.29259,"lon":5.36855,"is_reserved":false,"is_disabled":false,"rental_uris":{"android":"levelo://app?vid=fedc1f81-3edb-4fc0-abc1-bcfc17aa85f5","ios":"levelo://app?vid=fedc1f81-3edb-4fc0-abc1-bcfc17aa85f5"},"vehicle_type_id":"4","last_reported":1778584217,"current_range_meters":6400,"station_id":"ce4bhbp2rcd13ifvqesg","pricing_plan_id":"cebpf4jnsgd1na2vs0mg"},{"bike_id":"4965a78c-1ccb-4c9f-afe0-cb443e32bde4","system_id":"levelo_inurba_marseille","lat":43.28604,"lon":5.37065,"is_reserved":false,"is_disabled":false,"rental_uris":{"android":"levelo://app?vid=4965a78c-1ccb-4c9f-afe0-cb443e32bde4","ios":"levelo://app?vid=4965a78c-1ccb-4c9f-afe0-cb443e32bde4"},"vehicle_type_id":"4","last_reported":1778584217,"current_range_meters":6400,"station_id":"ce4bht12rcd13ifvqi60","pricing_plan_id":"cebpf4jnsgd1na2vs0mg"},{"bike_id":"cbd6309b-cdfb-4676-962c-4ea7a4e79217","system_id":"levelo_inurba_marseille","lat":43.29175,"lon":5.35806,"is_reserved":false,"is_disabled":false,"rental_uris":{"android":"levelo://app?vid=cbd6309b-cdfb-4676-962c-4ea7a4e79217","ios":"levelo://app?vid=cbd6309b-cdfb-4676-962c-4ea7a4e79217"},"vehicle_type_id":"4","last_reported":1778584217,"current_range_meters":6400,"station_id":"ce4bhb12rcd13ifvqel0","pricing_plan_id":"cebpf4jnsgd1na2vs0mg"},{"bike_id":"6b202fbb-8f2a-4564-ad29-7dd7b34fa443","system_id":"levelo_inurba_marseille","lat":43.28854,"lon":5.42506,"is_reserved":false,"is_disabled":false,"rental_uris":{"android":"levelo://app?vid=6b202fbb-8f2a-4564-ad29-7dd7b34fa443","ios":"levelo://app?vid=6b202fbb-8f2a-4564-ad29-7dd7b34fa443"},"vehicle_type_id":"4","last_reported":1778584217,"current_range_meters":6400,"station_id":"st_d3b462108ojc7389ooeg","pricing_plan_id":"cebpf4jnsgd1na2vs0mg"},{"bike_id":"65986406-18d8-455e-8884-bda5020463e6","system_id":"levelo_inurba_marseille","lat":43.29009,"lon":5.35622,"is_reserved":false,"is_disabled":false,"rental_uris":{"android":"levelo://app?vid=65986406-18d8-455e-8884-bda5020463e6","ios":"levelo://app?vid=65986406-18d8-455e-8884-bda5020463e6"},"vehicle_type_id":"4","last_reported":1778584217,"current_range_meters":6400,"station_id":"ce4bhb92rcd13ifvqen0","pricing_plan_id":"cebpf4jnsgd1na2vs0mg"},{"bike_id":"b06255ac-6567-4b1e-a1b1-1984eeb2c9e2","system_id":"levelo_inurba_marseille","lat":43.27928,"lon":5.40983,"is_reserved":false,"is_disabled":true,"rental_uris":{"android":"levelo://app?vid=b06255ac-6567-4b1e-a1b1-1984eeb2c9e2","ios":"levelo://app?vid=b06255ac-6567-4b1e-a1b1-1984eeb2c9e2"},"vehicle_type_id":"4","last_reported":1778584217,"current_range_meters":6400,"station_id":"","pricing_plan_id":"cebpf4jnsgd1na2vs0mg"},{"bike_id":"9693f8cd-7cf3-4564-99a5-4edcca392ce0","system_id":"levelo_inurba_marseille","lat":43.29202,"lon":5.39298,"is_reserved":false,"is_disabled":false,"rental_uris":{"android":"levelo://app?vid=9693f8cd-7cf3-4564-99a5-4edcca392ce0","ios":"levelo://app?vid=9693f8cd-7cf3-4564-99a5-4edcca392ce0"},"vehicle_type_id":"4","last_reported":1778584217,"current_range_meters":6400,"station_id":"ce4bh192rcd13ifvqdd0","pricing_plan_id":"cebpf4jnsgd1na2vs0mg"},{"bike_id":"a9feddb6-75e3-4803-af21-ae7907b42033","system_id":"levelo_inurba_marseille","lat":43.2852,"lon":5.38291,"is_reserved":false,"is_disabled":false,"rental_uris":{"android":"levelo://app?vid=a9feddb6-75e3-4803-af21-ae7907b42033","ios":"levelo://app?vid=a9feddb6-75e3-4803-af21-ae7907b42033"},"vehicle_type_id":"4","last_reported":1778584217,"current_range_meters":6800,"station_id":"","pricing_plan_id":"cebpf4jnsgd1na2vs0mg"},{"bike_id":"5a217a9a-35c6-4189-9735-ae3b222b3dcb","system_id":"levelo_inurba_marseille","lat":43.26957,"lon":5.38631,"is_reserved":false,"is_disabled":false,"rental_uris":{"android":"levelo://app?vid=5a217a9a-35c6-4189-9735-ae3b222b3dcb","ios":"levelo://app?vid=5a217a9a-35c6-4189-9735-ae3b222b3dcb"},"vehicle_type_id":"4","last_reported":1778584217,"current_range_meters":6800,"station_id":"ce4bhh92rcd13ifvqfh0","pricing_plan_id":"cebpf4jnsgd1na2vs0mg"},{"bike_id":"0e6d4b56-486f-4728-b003-09b611c4e69e","system_id":"levelo_inurba_marseille","lat":43.28834,"lon":5.3588,"is_reserved":false,"is_disabled":true,"rental_uris":{"android":"levelo://app?vid=0e6d4b56-486f-4728-b003-09b611c4e69e","ios":"levelo://app?vid=0e6d4b56-486f-4728-b003-09b611c4e69e"},"vehicle_type_id":"4","last_reported":1778584217,"current_range_meters":6800,"station_id":"ce4bhb12rcd13ifvqem0","pricing_plan_id":"cebpf4jnsgd1na2vs0mg"},{"bike_id":"e3ff3ea3-0596-4567-9987-270751829ab0","system_id":"levelo_inurba_marseille","lat":43.28396,"lon":5.37513,"is_reserved":false,"is_disabled":false,"rental_uris":{"android":"levelo://app?vid=e3ff3ea3-0596-4567-9987-270751829ab0","ios":"levelo://app?vid=e3ff3ea3-0596-4567-9987-270751829ab0"},"vehicle_type_id":"4","last_reported":1778584217,"current_range_meters":6800,"station_id":"ce4bh412rcd13ifvqds0","pricing_plan_id":"cebpf4jnsgd1na2vs0mg"},{"bike_id":"658fd94b-36a1-48a0-bcda-1b9792123e95","system_id":"levelo_inurba_marseille","lat":43.28222,"lon":5.39081,"is_reserved":false,"is_disabled":false,"rental_uris":{"android":"levelo://app?vid=658fd94b-36a1-48a0-bcda-1b9792123e95","ios":"levelo://app?vid=658fd94b-36a1-48a0-bcda-1b9792123e95"},"vehicle_type_id":"4","last_reported":1778584217,"current_range_meters":6800,"station_id":"ce4bhn92rcd13ifvqgsg","pricing_plan_id":"cebpf4jnsgd1na2vs0mg"},{"bike_id":"f75200eb-c556-489f-9d74-42038266db2e","system_id":"levelo_inurba_marseille","lat":43.29152,"lon":5.3997,"is_reserved":false,"is_disabled":false,"rental_uris":{"android":"levelo://app?vid=f75200eb-c556-489f-9d74-42038266db2e","ios":"levelo://app?vid=f75200eb-c556-489f-9d74-42038266db2e"},"vehicle_type_id":"4","last_reported":1778584217,"current_range_meters":6800,"station_id":"ce4bh392rcd13ifvqdm0","pricing_plan_id":"cebpf4jnsgd1na2vs0mg"},{"bike_id":"207c2587-1b64-4eec-a720-4ddbe5cf407c","system_id":"levelo_inurba_marseille","lat":43.24815,"lon":5.37462,"is_reserved":false,"is_disabled":false,"rental_uris":{"android":"levelo://app?vid=207c2587-1b64-4eec-a720-4ddbe5cf407c","ios":"levelo://app?vid=207c2587-1b64-4eec-a720-4ddbe5cf407c"},"vehicle_type_id":"4","last_reported":1778584217,"current_range_meters":6800,"station_id":"ce4bhgh2rcd13ifvqfb0","pricing_plan_id":"cebpf4jnsgd1na2vs0mg"},{"bike_id":"1dbc1612-3a21-48af-8716-e732ed8c4649","system_id":"levelo_inurba_marseille","lat":43.26374,"lon":5.41052,"is_reserved":false,"is_disabled":false,"rental_uris":{"android":"levelo://app?vid=1dbc1612-3a21-48af-8716-e732ed8c4649","ios":"levelo://app?vid=1dbc1612-3a21-48af-8716-e732ed8c4649"},"vehicle_type_id":"4","last_reported":1778584217,"current_range_meters":6800,"station_id":"st_d4e5ca6na9uc73bfl5fg","pricing_plan_id":"cebpf4jnsgd1na2vs0mg"},{"bike_id":"b3161a44-8073-464f-8e79-ddebc72aa7b1","system_id":"levelo_inurba_marseille","lat":43.28939,"lon":5.36397,"is_reserved":false,"is_disabled":false,"rental_uris":{"android":"levelo://app?vid=b3161a44-8073-464f-8e79-ddebc72aa7b1","ios":"levelo://app?vid=b3161a44-8073-464f-8e79-ddebc72aa7b1"},"vehicle_type_id":"4","last_reported":1778584217,"current_range_meters":6800,"station_id":"ce4bhc92rcd13ifvqetg","pricing_plan_id":"cebpf4jnsgd1na2vs0mg"},{"bike_id":"06ace5d7-3d4b-48bb-9ba8-5a2e1fabdaaf","system_id":"levelo_inurba_marseille","lat":43.337518,"lon":5.374433,"is_reserved":false,"is_disabled":false,"rental_uris":{"android":"levelo://app?vid=06ace5d7-3d4b-48bb-9ba8-5a2e1fabdaaf","ios":"levelo://app?vid=06ace5d7-3d4b-48bb-9ba8-5a2e1fabdaaf"},"vehicle_type_id":"4","last_reported":1778584217,"current_range_meters":6800,"station_id":"","pricing_plan_id":"cebpf4jnsgd1na2vs0mg"},{"bike_id":"bb469821-e5ae-438d-89d1-80116c1cbc03","system_id":"levelo_inurba_marseille","lat":43.29639,"lon":5.406,"is_reserved":false,"is_disabled":false,"rental_uris":{"android":"levelo://app?vid=bb469821-e5ae-438d-89d1-80116c1cbc03","ios":"levelo://app?vid=bb469821-e5ae-438d-89d1-80116c1cbc03"},"vehicle_type_id":"4","last_reported":1778584217,"current_range_meters":6800,"station_id":"ce4bh0h2rcd13ifvqd60","pricing_plan_id":"cebpf4jnsgd1na2vs0mg"},{"bike_id":"8e43356a-6894-4729-8a36-e254d80b24c0","system_id":"levelo_inurba_marseille","lat":43.29134,"lon":5.43262,"is_reserved":false,"is_disabled":false,"rental_uris":{"android":"levelo://app?vid=8e43356a-6894-4729-8a36-e254d80b24c0","ios":"levelo://app?vid=8e43356a-6894-4729-8a36-e254d80b24c0"},"vehicle_type_id":"4","last_reported":1778584217,"current_range_meters":6800,"station_id":"","pricing_plan_id":"cebpf4jnsgd1na2vs0mg"},{"bike_id":"8822872b-a491-4b2c-9590-dd31d95df0ea","system_id":"levelo_inurba_marseille","lat":43.28169,"lon":5.42621,"is_reserved":false,"is_disabled":false,"rental_uris":{"android":"levelo://app?vid=8822872b-a491-4b2c-9590-dd31d95df0ea","ios":"levelo://app?vid=8822872b-a491-4b2c-9590-dd31d95df0ea"},"vehicle_type_id":"4","last_reported":1778584217,"current_range_meters":6800,"station_id":"ce4bhnh2rcd13ifvqgug","pricing_plan_id":"cebpf4jnsgd1na2vs0mg"},{"bike_id":"5b3a49cd-6037-45b0-aba0-1b9c2631eb51","system_id":"levelo_inurba_marseille","lat":43.31931,"lon":5.36814,"is_reserved":false,"is_disabled":false,"rental_uris":{"android":"levelo://app?vid=5b3a49cd-6037-45b0-aba0-1b9c2631eb51","ios":"levelo://app?vid=5b3a49cd-6037-45b0-aba0-1b9c2631eb51"},"vehicle_type_id":"4","last_reported":1778584217,"current_range_meters":6800,"station_id":"st_d6o2h0d0559c73evc1b0","pricing_plan_id":"cebpf4jnsgd1na2vs0mg"},{"bike_id":"4b590070-a877-4bda-a896-9745219cac6f","system_id":"levelo_inurba_marseille","lat":43.29031,"lon":5.42837,"is_reserved":false,"is_disabled":false,"rental_uris":{"android":"levelo://app?vid=4b590070-a877-4bda-a896-9745219cac6f","ios":"levelo://app?vid=4b590070-a877-4bda-a896-9745219cac6f"},"vehicle_type_id":"4","last_reported":1778584217,"current_range_meters":6800,"station_id":"","pricing_plan_id":"cebpf4jnsgd1na2vs0mg"},{"bike_id":"f33a8d80-c143-4db0-b846-e9fa072ee58a","system_id":"levelo_inurba_marseille","lat":43.29657,"lon":5.37614,"is_reserved":false,"is_disabled":false,"rental_uris":{"android":"levelo://app?vid=f33a8d80-c143-4db0-b846-e9fa072ee58a","ios":"levelo://app?vid=f33a8d80-c143-4db0-b846-e9fa072ee58a"},"vehicle_type_id":"4","last_reported":1778584217,"current_range_meters":7200,"station_id":"","pricing_plan_id":"cebpf4jnsgd1na2vs0mg"},{"bike_id":"5364d659-2bce-4dc8-b02e-ea69db54c28a","system_id":"levelo_inurba_marseille","lat":43.2984,"lon":5.37812,"is_reserved":false,"is_disabled":false,"rental_uris":{"android":"levelo://app?vid=5364d659-2bce-4dc8-b02e-ea69db54c28a","ios":"levelo://app?vid=5364d659-2bce-4dc8-b02e-ea69db54c28a"},"vehicle_type_id":"4","last_reported":1778584217,"current_range_meters":7200,"station_id":"","pricing_plan_id":"cebpf4jnsgd1na2vs0mg"},{"bike_id":"d9cdfbb5-8a42-48a0-9e33-769e60ce07ed","system_id":"levelo_inurba_marseille","lat":43.29264,"lon":5.36837,"is_reserved":false,"is_disabled":false,"rental_uris":{"android":"levelo://app?vid=d9cdfbb5-8a42-48a0-9e33-769e60ce07ed","ios":"levelo://app?vid=d9cdfbb5-8a42-48a0-9e33-769e60ce07ed"},"vehicle_type_id":"4","last_reported":1778584217,"current_range_meters":7200,"station_id":"ce4bhbp2rcd13ifvqesg","pricing_plan_id":"cebpf4jnsgd1na2vs0mg"},{"bike_id":"ced8eea2-8ac1-4985-9e29-5d1926a61c09","system_id":"levelo_inurba_marseille","lat":43.28375,"lon":5.37509,"is_reserved":false,"is_disabled":true,"rental_uris":{"android":"levelo://app?vid=ced8eea2-8ac1-4985-9e29-5d1926a61c09","ios":"levelo://app?vid=ced8eea2-8ac1-4985-9e29-5d1926a61c09"},"vehicle_type_id":"4","last_reported":1778584217,"current_range_meters":7200,"station_id":"ce4bh412rcd13ifvqds0","pricing_plan_id":"cebpf4jnsgd1na2vs0mg"},{"bike_id":"3d1b8187-2065-4639-a12e-041af299aefc","system_id":"levelo_inurba_marseille","lat":43.24801,"lon":5.37445,"is_reserved":false,"is_disabled":false,"rental_uris":{"android":"levelo://app?vid=3d1b8187-2065-4639-a12e-041af299aefc","ios":"levelo://app?vid=3d1b8187-2065-4639-a12e-041af299aefc"},"vehicle_type_id":"4","last_reported":1778584217,"current_range_meters":7200,"station_id":"ce4bhgh2rcd13ifvqfb0","pricing_plan_id":"cebpf4jnsgd1na2vs0mg"},{"bike_id":"8567ce13-2c82-4e40-880c-0fe3c17609fe","system_id":"levelo_inurba_marseille","lat":43.29518,"lon":5.41768,"is_reserved":false,"is_disabled":false,"rental_uris":{"android":"levelo://app?vid=8567ce13-2c82-4e40-880c-0fe3c17609fe","ios":"levelo://app?vid=8567ce13-2c82-4e40-880c-0fe3c17609fe"},"vehicle_type_id":"4","last_reported":1778584217,"current_range_meters":7200,"station_id":"","pricing_plan_id":"cebpf4jnsgd1na2vs0mg"},{"bike_id":"8c9f1560-bb64-4fba-86a2-b072bb5cc29a","system_id":"levelo_inurba_marseille","lat":43.27955,"lon":5.41039,"is_reserved":false,"is_disabled":false,"rental_uris":{"android":"levelo://app?vid=8c9f1560-bb64-4fba-86a2-b072bb5cc29a","ios":"levelo://app?vid=8c9f1560-bb64-4fba-86a2-b072bb5cc29a"},"vehicle_type_id":"4","last_reported":1778584217,"current_range_meters":7200,"station_id":"ce4bhnp2rcd13ifvqh0g","pricing_plan_id":"cebpf4jnsgd1na2vs0mg"},{"bike_id":"279c2496-9670-4c61-ab04-35665bfe4d90","system_id":"levelo_inurba_marseille","lat":43.30882,"lon":5.37199,"is_reserved":false,"is_disabled":false,"rental_uris":{"android":"levelo://app?vid=279c2496-9670-4c61-ab04-35665bfe4d90","ios":"levelo://app?vid=279c2496-9670-4c61-ab04-35665bfe4d90"},"vehicle_type_id":"4","last_reported":1778584217,"current_range_meters":7200,"station_id":"ce4bguh2rcd13ifvqckg","pricing_plan_id":"cebpf4jnsgd1na2vs0mg"},{"bike_id":"56aa3777-5c73-49cb-b27f-d7e4ca259c3e","system_id":"levelo_inurba_marseille","lat":43.2509,"lon":5.39502,"is_reserved":false,"is_disabled":false,"rental_uris":{"android":"levelo://app?vid=56aa3777-5c73-49cb-b27f-d7e4ca259c3e","ios":"levelo://app?vid=56aa3777-5c73-49cb-b27f-d7e4ca259c3e"},"vehicle_type_id":"4","last_reported":1778584217,"current_range_meters":7200,"station_id":"ce4bhm12rcd13ifvqgkg","pricing_plan_id":"cebpf4jnsgd1na2vs0mg"},{"bike_id":"e93d63fb-3aac-4d5e-9124-4895f9849bcd","system_id":"levelo_inurba_marseille","lat":43.29936,"lon":5.38631,"is_reserved":false,"is_disabled":false,"rental_uris":{"android":"levelo://app?vid=e93d63fb-3aac-4d5e-9124-4895f9849bcd","ios":"levelo://app?vid=e93d63fb-3aac-4d5e-9124-4895f9849bcd"},"vehicle_type_id":"4","last_reported":1778584217,"current_range_meters":7200,"station_id":"","pricing_plan_id":"cebpf4jnsgd1na2vs0mg"},{"bike_id":"07a9b671-4f11-4201-95b6-67d884bae6f1","system_id":"levelo_inurba_marseille","lat":43.25029,"lon":5.40333,"is_reserved":false,"is_disabled":false,"rental_uris":{"android":"levelo://app?vid=07a9b671-4f11-4201-95b6-67d884bae6f1","ios":"levelo://app?vid=07a9b671-4f11-4201-95b6-67d884bae6f1"},"vehicle_type_id":"4","last_reported":1778584217,"current_range_meters":7200,"station_id":"","pricing_plan_id":"cebpf4jnsgd1na2vs0mg"},{"bike_id":"d58493a2-d835-445a-90a5-a425086573ad","system_id":"levelo_inurba_marseille","lat":43.26767,"lon":5.39383,"is_reserved":false,"is_disabled":false,"rental_uris":{"android":"levelo://app?vid=d58493a2-d835-445a-90a5-a425086573ad","ios":"levelo://app?vid=d58493a2-d835-445a-90a5-a425086573ad"},"vehicle_type_id":"4","last_reported":1778584217,"current_range_meters":8000,"station_id":"ce4bhh12rcd13ifvqfg0","pricing_plan_id":"cebpf4jnsgd1na2vs0mg"},{"bike_id":"7eeaae49-e5ae-480b-aac7-0267ac4b47fd","system_id":"levelo_inurba_marseille","lat":43.25582,"lon":5.38213,"is_reserved":false,"is_disabled":false,"rental_uris":{"android":"levelo://app?vid=7eeaae49-e5ae-480b-aac7-0267ac4b47fd","ios":"levelo://app?vid=7eeaae49-e5ae-480b-aac7-0267ac4b47fd"},"vehicle_type_id":"4","last_reported":1778584217,"current_range_meters":8000,"station_id":"ce4bhih2rcd13ifvqfs0","pricing_plan_id":"cebpf4jnsgd1na2vs0mg"},{"bike_id":"03b1154e-33a1-4233-9fbd-2440fe06648f","system_id":"levelo_inurba_marseille","lat":43.27065,"lon":5.40248,"is_reserved":false,"is_disabled":false,"rental_uris":{"android":"levelo://app?vid=03b1154e-33a1-4233-9fbd-2440fe06648f","ios":"levelo://app?vid=03b1154e-33a1-4233-9fbd-2440fe06648f"},"vehicle_type_id":"4","last_reported":1778584217,"current_range_meters":8000,"station_id":"ce4bhk92rcd13ifvqgc0","pricing_plan_id":"cebpf4jnsgd1na2vs0mg"},{"bike_id":"61042484-dcc3-4e21-b302-39f97578454f","system_id":"levelo_inurba_marseille","lat":43.31253,"lon":5.38057,"is_reserved":false,"is_disabled":true,"rental_uris":{"android":"levelo://app?vid=61042484-dcc3-4e21-b302-39f97578454f","ios":"levelo://app?vid=61042484-dcc3-4e21-b302-39f97578454f"},"vehicle_type_id":"4","last_reported":1778584217,"current_range_meters":8000,"station_id":"","pricing_plan_id":"cebpf4jnsgd1na2vs0mg"},{"bike_id":"8a439fb6-3a39-4b09-8c8e-ef58fa31b19f","system_id":"levelo_inurba_marseille","lat":43.30173,"lon":5.37386,"is_reserved":false,"is_disabled":false,"rental_uris":{"android":"levelo://app?vid=8a439fb6-3a39-4b09-8c8e-ef58fa31b19f","ios":"levelo://app?vid=8a439fb6-3a39-4b09-8c8e-ef58fa31b19f"},"vehicle_type_id":"4","last_reported":1778584217,"current_range_meters":8000,"station_id":"ce4bgs92rcd13ifvqcc0","pricing_plan_id":"cebpf4jnsgd1na2vs0mg"},{"bike_id":"762d6599-7230-4bfb-8f8e-cc5a5797dccd","system_id":"levelo_inurba_marseille","lat":43.31491,"lon":5.37275,"is_reserved":false,"is_disabled":false,"rental_uris":{"android":"levelo://app?vid=762d6599-7230-4bfb-8f8e-cc5a5797dccd","ios":"levelo://app?vid=762d6599-7230-4bfb-8f8e-cc5a5797dccd"},"vehicle_type_id":"4","last_reported":1778584217,"current_range_meters":8000,"station_id":"ce4bgt12rcd13ifvqcd0","pricing_plan_id":"cebpf4jnsgd1na2vs0mg"},{"bike_id":"a4cbb020-25cd-4395-88b1-6332aba218a8","system_id":"levelo_inurba_marseille","lat":43.24074,"lon":5.3776,"is_reserved":false,"is_disabled":false,"rental_uris":{"android":"levelo://app?vid=a4cbb020-25cd-4395-88b1-6332aba218a8","ios":"levelo://app?vid=a4cbb020-25cd-4395-88b1-6332aba218a8"},"vehicle_type_id":"4","last_reported":1778584217,"current_range_meters":8000,"station_id":"ce4bhnp2rcd13ifvqgvg","pricing_plan_id":"cebpf4jnsgd1na2vs0mg"},{"bike_id":"c2e976b4-7573-4ea6-97e0-eb4dbbe39a6b","system_id":"levelo_inurba_marseille","lat":43.27591,"lon":5.39657,"is_reserved":false,"is_disabled":false,"rental_uris":{"android":"levelo://app?vid=c2e976b4-7573-4ea6-97e0-eb4dbbe39a6b","ios":"levelo://app?vid=c2e976b4-7573-4ea6-97e0-eb4dbbe39a6b"},"vehicle_type_id":"4","last_reported":1778584217,"current_range_meters":8000,"station_id":"","pricing_plan_id":"cebpf4jnsgd1na2vs0mg"},{"bike_id":"d35a06ec-59ff-4145-9e17-45c0c55c2c94","system_id":"levelo_inurba_marseille","lat":43.27985,"lon":5.41656,"is_reserved":false,"is_disabled":false,"rental_uris":{"android":"levelo://app?vid=d35a06ec-59ff-4145-9e17-45c0c55c2c94","ios":"levelo://app?vid=d35a06ec-59ff-4145-9e17-45c0c55c2c94"},"vehicle_type_id":"4","last_reported":1778584217,"current_range_meters":8000,"station_id":"ce4bho12rcd13ifvqh1g","pricing_plan_id":"cebpf4jnsgd1na2vs0mg"},{"bike_id":"a4976ee3-2e36-4f55-a589-b619705c73c2","system_id":"levelo_inurba_marseille","lat":43.30448,"lon":5.3791,"is_reserved":false,"is_disabled":false,"rental_uris":{"android":"levelo://app?vid=a4976ee3-2e36-4f55-a589-b619705c73c2","ios":"levelo://app?vid=a4976ee3-2e36-4f55-a589-b619705c73c2"},"vehicle_type_id":"4","last_reported":1778584217,"current_range_meters":8000,"station_id":"ce4bgup2rcd13ifvqcn0","pricing_plan_id":"cebpf4jnsgd1na2vs0mg"},{"bike_id":"1b2c8958-e91f-45f0-b73e-ce7ed72a04f7","system_id":"levelo_inurba_marseille","lat":43.295743,"lon":5.397636,"is_reserved":false,"is_disabled":true,"rental_uris":{"android":"levelo://app?vid=1b2c8958-e91f-45f0-b73e-ce7ed72a04f7","ios":"levelo://app?vid=1b2c8958-e91f-45f0-b73e-ce7ed72a04f7"},"vehicle_type_id":"4","last_reported":1778584217,"current_range_meters":8000,"station_id":"","pricing_plan_id":"cebpf4jnsgd1na2vs0mg"},{"bike_id":"754a5901-99d0-42f1-afb9-4de77728f832","system_id":"levelo_inurba_marseille","lat":43.290915,"lon":5.381303,"is_reserved":false,"is_disabled":false,"rental_uris":{"android":"levelo://app?vid=754a5901-99d0-42f1-afb9-4de77728f832","ios":"levelo://app?vid=754a5901-99d0-42f1-afb9-4de77728f832"},"vehicle_type_id":"4","last_reported":1778584217,"current_range_meters":8000,"station_id":"ce4bh512rcd13ifvqe2g","pricing_plan_id":"cebpf4jnsgd1na2vs0mg"},{"bike_id":"95552473-a32b-49e5-a6c9-92815a2ac96e","system_id":"levelo_inurba_marseille","lat":43.32825,"lon":5.42634,"is_reserved":false,"is_disabled":false,"rental_uris":{"android":"levelo://app?vid=95552473-a32b-49e5-a6c9-92815a2ac96e","ios":"levelo://app?vid=95552473-a32b-49e5-a6c9-92815a2ac96e"},"vehicle_type_id":"4","last_reported":1778584217,"current_range_meters":8000,"station_id":"","pricing_plan_id":"cebpf4jnsgd1na2vs0mg"},{"bike_id":"e3e6a269-338b-482e-8c7f-7dca167d167b","system_id":"levelo_inurba_marseille","lat":43.27527,"lon":5.41575,"is_reserved":false,"is_disabled":true,"rental_uris":{"android":"levelo://app?vid=e3e6a269-338b-482e-8c7f-7dca167d167b","ios":"levelo://app?vid=e3e6a269-338b-482e-8c7f-7dca167d167b"},"vehicle_type_id":"4","last_reported":1778584217,"current_range_meters":8000,"station_id":"st_d6im8g6chgec73a5pndg","pricing_plan_id":"cebpf4jnsgd1na2vs0mg"},{"bike_id":"dd8aae38-0988-41b5-aec3-0c2cb2870c2d","system_id":"levelo_inurba_marseille","lat":43.23889,"lon":5.37447,"is_reserved":false,"is_disabled":false,"rental_uris":{"android":"levelo://app?vid=dd8aae38-0988-41b5-aec3-0c2cb2870c2d","ios":"levelo://app?vid=dd8aae38-0988-41b5-aec3-0c2cb2870c2d"},"vehicle_type_id":"4","last_reported":1778584217,"current_range_meters":8000,"station_id":"st_d6sm7csbq4hs73f8fpjg","pricing_plan_id":"cebpf4jnsgd1na2vs0mg"},{"bike_id":"721b305c-61eb-4e70-9e67-8e4aaeccf41b","system_id":"levelo_inurba_marseille","lat":43.24548,"lon":5.39523,"is_reserved":false,"is_disabled":false,"rental_uris":{"android":"levelo://app?vid=721b305c-61eb-4e70-9e67-8e4aaeccf41b","ios":"levelo://app?vid=721b305c-61eb-4e70-9e67-8e4aaeccf41b"},"vehicle_type_id":"4","last_reported":1778584217,"current_range_meters":8000,"station_id":"ce4bhlp2rcd13ifvqgjg","pricing_plan_id":"cebpf4jnsgd1na2vs0mg"},{"bike_id":"4886c252-2728-4a7b-8055-7bc754291d67","system_id":"levelo_inurba_marseille","lat":43.26183,"lon":5.40391,"is_reserved":false,"is_disabled":false,"rental_uris":{"android":"levelo://app?vid=4886c252-2728-4a7b-8055-7bc754291d67","ios":"levelo://app?vid=4886c252-2728-4a7b-8055-7bc754291d67"},"vehicle_type_id":"4","last_reported":1778584217,"current_range_meters":8400,"station_id":"","pricing_plan_id":"cebpf4jnsgd1na2vs0mg"},{"bike_id":"076b8b25-32f2-44ed-9aec-b4a4ccc49598","system_id":"levelo_inurba_marseille","lat":43.2978,"lon":5.38092,"is_reserved":false,"is_disabled":true,"rental_uris":{"android":"levelo://app?vid=076b8b25-32f2-44ed-9aec-b4a4ccc49598","ios":"levelo://app?vid=076b8b25-32f2-44ed-9aec-b4a4ccc49598"},"vehicle_type_id":"4","last_reported":1778584217,"current_range_meters":8400,"station_id":"ce4bgip2rcd13ifvqbb0","pricing_plan_id":"cebpf4jnsgd1na2vs0mg"},{"bike_id":"b3bb9147-912b-4833-96a1-956896e7474b","system_id":"levelo_inurba_marseille","lat":43.26556,"lon":5.37279,"is_reserved":false,"is_disabled":false,"rental_uris":{"android":"levelo://app?vid=b3bb9147-912b-4833-96a1-956896e7474b","ios":"levelo://app?vid=b3bb9147-912b-4833-96a1-956896e7474b"},"vehicle_type_id":"4","last_reported":1778584217,"current_range_meters":8400,"station_id":"ce4bhg12rcd13ifvqf70","pricing_plan_id":"cebpf4jnsgd1na2vs0mg"},{"bike_id":"0d5a6d54-dad4-453d-9b1a-d94782ee22c6","system_id":"levelo_inurba_marseille","lat":43.32345,"lon":5.36544,"is_reserved":false,"is_disabled":false,"rental_uris":{"android":"levelo://app?vid=0d5a6d54-dad4-453d-9b1a-d94782ee22c6","ios":"levelo://app?vid=0d5a6d54-dad4-453d-9b1a-d94782ee22c6"},"vehicle_type_id":"4","last_reported":1778584217,"current_range_meters":8400,"station_id":"","pricing_plan_id":"cebpf4jnsgd1na2vs0mg"},{"bike_id":"013e8b40-097e-4275-9f50-27618cd0886f","system_id":"levelo_inurba_marseille","lat":43.26947,"lon":5.38636,"is_reserved":false,"is_disabled":false,"rental_uris":{"android":"levelo://app?vid=013e8b40-097e-4275-9f50-27618cd0886f","ios":"levelo://app?vid=013e8b40-097e-4275-9f50-27618cd0886f"},"vehicle_type_id":"4","last_reported":1778584217,"current_range_meters":8400,"station_id":"ce4bhh92rcd13ifvqfh0","pricing_plan_id":"cebpf4jnsgd1na2vs0mg"},{"bike_id":"6489a795-5e35-46fb-ac9c-80a8ffe64d4b","system_id":"levelo_inurba_marseille","lat":43.28258,"lon":5.35059,"is_reserved":false,"is_disabled":false,"rental_uris":{"android":"levelo://app?vid=6489a795-5e35-46fb-ac9c-80a8ffe64d4b","ios":"levelo://app?vid=6489a795-5e35-46fb-ac9c-80a8ffe64d4b"},"vehicle_type_id":"4","last_reported":1778584217,"current_range_meters":8400,"station_id":"ce4bhbp2rcd13ifvqerg","pricing_plan_id":"cebpf4jnsgd1na2vs0mg"},{"bike_id":"77da0299-61ed-4586-ad63-53f57f7af2df","system_id":"levelo_inurba_marseille","lat":43.28153,"lon":5.42649,"is_reserved":false,"is_disabled":false,"rental_uris":{"android":"levelo://app?vid=77da0299-61ed-4586-ad63-53f57f7af2df","ios":"levelo://app?vid=77da0299-61ed-4586-ad63-53f57f7af2df"},"vehicle_type_id":"4","last_reported":1778584217,"current_range_meters":8400,"station_id":"ce4bhnh2rcd13ifvqgug","pricing_plan_id":"cebpf4jnsgd1na2vs0mg"},{"bike_id":"76943fa3-6b31-4a9f-afda-0223c4298d51","system_id":"levelo_inurba_marseille","lat":43.30548,"lon":5.36508,"is_reserved":false,"is_disabled":false,"rental_uris":{"android":"levelo://app?vid=76943fa3-6b31-4a9f-afda-0223c4298d51","ios":"levelo://app?vid=76943fa3-6b31-4a9f-afda-0223c4298d51"},"vehicle_type_id":"4","last_reported":1778584217,"current_range_meters":8400,"station_id":"ce4bgs12rcd13ifvqcag","pricing_plan_id":"cebpf4jnsgd1na2vs0mg"},{"bike_id":"436f1e8e-0b53-497c-9398-11b3c2f49470","system_id":"levelo_inurba_marseille","lat":43.29264,"lon":5.36853,"is_reserved":false,"is_disabled":false,"rental_uris":{"android":"levelo://app?vid=436f1e8e-0b53-497c-9398-11b3c2f49470","ios":"levelo://app?vid=436f1e8e-0b53-497c-9398-11b3c2f49470"},"vehicle_type_id":"4","last_reported":1778584217,"current_range_meters":8400,"station_id":"ce4bhbp2rcd13ifvqesg","pricing_plan_id":"cebpf4jnsgd1na2vs0mg"},{"bike_id":"9e68a1cb-fc99-478b-993a-29acb7f5a20a","system_id":"levelo_inurba_marseille","lat":43.3012,"lon":5.43116,"is_reserved":false,"is_disabled":false,"rental_uris":{"android":"levelo://app?vid=9e68a1cb-fc99-478b-993a-29acb7f5a20a","ios":"levelo://app?vid=9e68a1cb-fc99-478b-993a-29acb7f5a20a"},"vehicle_type_id":"4","last_reported":1778584217,"current_range_meters":8400,"station_id":"st_d3js3co5814s73ftftug","pricing_plan_id":"cebpf4jnsgd1na2vs0mg"},{"bike_id":"fe5898b3-5b3a-4283-9f3c-6e76ee173612","system_id":"levelo_inurba_marseille","lat":43.31355,"lon":5.38494,"is_reserved":false,"is_disabled":false,"rental_uris":{"android":"levelo://app?vid=fe5898b3-5b3a-4283-9f3c-6e76ee173612","ios":"levelo://app?vid=fe5898b3-5b3a-4283-9f3c-6e76ee173612"},"vehicle_type_id":"4","last_reported":1778584217,"current_range_meters":8400,"station_id":"ce4bgt92rcd13ifvqcf0","pricing_plan_id":"cebpf4jnsgd1na2vs0mg"},{"bike_id":"ed07d83a-5616-42c3-9e06-32e9fee57f06","system_id":"levelo_inurba_marseille","lat":43.30719,"lon":5.42435,"is_reserved":false,"is_disabled":false,"rental_uris":{"android":"levelo://app?vid=ed07d83a-5616-42c3-9e06-32e9fee57f06","ios":"levelo://app?vid=ed07d83a-5616-42c3-9e06-32e9fee57f06"},"vehicle_type_id":"4","last_reported":1778584217,"current_range_meters":8400,"station_id":"st_cvj6ca6bvosntc0bfgr0","pricing_plan_id":"cebpf4jnsgd1na2vs0mg"},{"bike_id":"180bfa46-c7fb-43d1-9518-593023755686","system_id":"levelo_inurba_marseille","lat":43.2931,"lon":5.37439,"is_reserved":false,"is_disabled":false,"rental_uris":{"android":"levelo://app?vid=180bfa46-c7fb-43d1-9518-593023755686","ios":"levelo://app?vid=180bfa46-c7fb-43d1-9518-593023755686"},"vehicle_type_id":"4","last_reported":1778584217,"current_range_meters":8400,"station_id":"ce4bgi12rcd13ifvqb70","pricing_plan_id":"cebpf4jnsgd1na2vs0mg"},{"bike_id":"2f82e6c8-9e5a-41e6-aac9-a6c4ce540919","system_id":"levelo_inurba_marseille","lat":43.31258,"lon":5.3683,"is_reserved":false,"is_disabled":false,"rental_uris":{"android":"levelo://app?vid=2f82e6c8-9e5a-41e6-aac9-a6c4ce540919","ios":"levelo://app?vid=2f82e6c8-9e5a-41e6-aac9-a6c4ce540919"},"vehicle_type_id":"4","last_reported":1778584217,"current_range_meters":8400,"station_id":"ce4bgl92rcd13ifvqbq0","pricing_plan_id":"cebpf4jnsgd1na2vs0mg"},{"bike_id":"211cea86-71fd-43ef-9b6e-844e35d10a69","system_id":"levelo_inurba_marseille","lat":43.26183,"lon":5.37442,"is_reserved":false,"is_disabled":true,"rental_uris":{"android":"levelo://app?vid=211cea86-71fd-43ef-9b6e-844e35d10a69","ios":"levelo://app?vid=211cea86-71fd-43ef-9b6e-844e35d10a69"},"vehicle_type_id":"4","last_reported":1778584217,"current_range_meters":8400,"station_id":"ce4bhgp2rcd13ifvqfc0","pricing_plan_id":"cebpf4jnsgd1na2vs0mg"},{"bike_id":"42d38e4a-3e93-49f6-a882-7fc4f294f4b8","system_id":"levelo_inurba_marseille","lat":43.31231,"lon":5.36852,"is_reserved":false,"is_disabled":false,"rental_uris":{"android":"levelo://app?vid=42d38e4a-3e93-49f6-a882-7fc4f294f4b8","ios":"levelo://app?vid=42d38e4a-3e93-49f6-a882-7fc4f294f4b8"},"vehicle_type_id":"4","last_reported":1778584217,"current_range_meters":8400,"station_id":"ce4bgl92rcd13ifvqbq0","pricing_plan_id":"cebpf4jnsgd1na2vs0mg"},{"bike_id":"8ccd406d-406a-4cbb-b5d5-59cdeb1063c7","system_id":"levelo_inurba_marseille","lat":43.30484,"lon":5.3788,"is_reserved":false,"is_disabled":false,"rental_uris":{"android":"levelo://app?vid=8ccd406d-406a-4cbb-b5d5-59cdeb1063c7","ios":"levelo://app?vid=8ccd406d-406a-4cbb-b5d5-59cdeb1063c7"},"vehicle_type_id":"4","last_reported":1778584217,"current_range_meters":8400,"station_id":"ce4bgup2rcd13ifvqcn0","pricing_plan_id":"cebpf4jnsgd1na2vs0mg"},{"bike_id":"cf04080a-7c8b-4158-bc26-df539cc3a91a","system_id":"levelo_inurba_marseille","lat":43.25089,"lon":5.395253,"is_reserved":false,"is_disabled":true,"rental_uris":{"android":"levelo://app?vid=cf04080a-7c8b-4158-bc26-df539cc3a91a","ios":"levelo://app?vid=cf04080a-7c8b-4158-bc26-df539cc3a91a"},"vehicle_type_id":"4","last_reported":1778584217,"current_range_meters":8400,"station_id":"ce4bhm12rcd13ifvqgkg","pricing_plan_id":"cebpf4jnsgd1na2vs0mg"},{"bike_id":"f54914d9-faa3-46cb-b9d9-70355eea0eb6","system_id":"levelo_inurba_marseille","lat":43.30292,"lon":5.36892,"is_reserved":false,"is_disabled":false,"rental_uris":{"android":"levelo://app?vid=f54914d9-faa3-46cb-b9d9-70355eea0eb6","ios":"levelo://app?vid=f54914d9-faa3-46cb-b9d9-70355eea0eb6"},"vehicle_type_id":"4","last_reported":1778584217,"current_range_meters":8400,"station_id":"ce4bgqh2rcd13ifvqc5g","pricing_plan_id":"cebpf4jnsgd1na2vs0mg"},{"bike_id":"65d83527-47d8-4aab-9ee4-aac8372e35a7","system_id":"levelo_inurba_marseille","lat":43.2937,"lon":5.37838,"is_reserved":false,"is_disabled":false,"rental_uris":{"android":"levelo://app?vid=65d83527-47d8-4aab-9ee4-aac8372e35a7","ios":"levelo://app?vid=65d83527-47d8-4aab-9ee4-aac8372e35a7"},"vehicle_type_id":"4","last_reported":1778584217,"current_range_meters":8400,"station_id":"ce4bgjh2rcd13ifvqbf0","pricing_plan_id":"cebpf4jnsgd1na2vs0mg"},{"bike_id":"d0559ab4-0edb-4fb5-a863-d066c38f32c8","system_id":"levelo_inurba_marseille","lat":43.279,"lon":5.38018,"is_reserved":false,"is_disabled":false,"rental_uris":{"android":"levelo://app?vid=d0559ab4-0edb-4fb5-a863-d066c38f32c8","ios":"levelo://app?vid=d0559ab4-0edb-4fb5-a863-d066c38f32c8"},"vehicle_type_id":"4","last_reported":1778584217,"current_range_meters":8400,"station_id":"ce4bhf92rcd13ifvqf50","pricing_plan_id":"cebpf4jnsgd1na2vs0mg"},{"bike_id":"f6918819-752e-4ff8-8629-b218190b0678","system_id":"levelo_inurba_marseille","lat":43.2558,"lon":5.38208,"is_reserved":false,"is_disabled":false,"rental_uris":{"android":"levelo://app?vid=f6918819-752e-4ff8-8629-b218190b0678","ios":"levelo://app?vid=f6918819-752e-4ff8-8629-b218190b0678"},"vehicle_type_id":"4","last_reported":1778584217,"current_range_meters":8400,"station_id":"ce4bhih2rcd13ifvqfs0","pricing_plan_id":"cebpf4jnsgd1na2vs0mg"},{"bike_id":"64b62b18-b814-4dc3-8090-c8c0105a73f8","system_id":"levelo_inurba_marseille","lat":43.299713,"lon":5.37188,"is_reserved":false,"is_disabled":false,"rental_uris":{"android":"levelo://app?vid=64b62b18-b814-4dc3-8090-c8c0105a73f8","ios":"levelo://app?vid=64b62b18-b814-4dc3-8090-c8c0105a73f8"},"vehicle_type_id":"4","last_reported":1778584217,"current_range_meters":8800,"station_id":"ce4bgr92rcd13ifvqc7g","pricing_plan_id":"cebpf4jnsgd1na2vs0mg"},{"bike_id":"8041a9e7-7ab4-4d1b-ace9-fc5ba24c4b93","system_id":"levelo_inurba_marseille","lat":43.22562,"lon":5.41622,"is_reserved":false,"is_disabled":false,"rental_uris":{"android":"levelo://app?vid=8041a9e7-7ab4-4d1b-ace9-fc5ba24c4b93","ios":"levelo://app?vid=8041a9e7-7ab4-4d1b-ace9-fc5ba24c4b93"},"vehicle_type_id":"4","last_reported":1778584217,"current_range_meters":8800,"station_id":"st_d2o4gvlbi1j2169b742g","pricing_plan_id":"cebpf4jnsgd1na2vs0mg"},{"bike_id":"525bb32d-ba96-4f14-8ecc-8d6f5bd34034","system_id":"levelo_inurba_marseille","lat":43.29639,"lon":5.37184,"is_reserved":false,"is_disabled":false,"rental_uris":{"android":"levelo://app?vid=525bb32d-ba96-4f14-8ecc-8d6f5bd34034","ios":"levelo://app?vid=525bb32d-ba96-4f14-8ecc-8d6f5bd34034"},"vehicle_type_id":"4","last_reported":1778584217,"current_range_meters":8800,"station_id":"ce4bgnh2rcd13ifvqc0g","pricing_plan_id":"cebpf4jnsgd1na2vs0mg"},{"bike_id":"96f805b8-ebf4-4eef-94b6-79c43e253f31","system_id":"levelo_inurba_marseille","lat":43.29621,"lon":5.37714,"is_reserved":false,"is_disabled":false,"rental_uris":{"android":"levelo://app?vid=96f805b8-ebf4-4eef-94b6-79c43e253f31","ios":"levelo://app?vid=96f805b8-ebf4-4eef-94b6-79c43e253f31"},"vehicle_type_id":"4","last_reported":1778584217,"current_range_meters":8800,"station_id":"ce4bgi92rcd13ifvqb90","pricing_plan_id":"cebpf4jnsgd1na2vs0mg"},{"bike_id":"4c733966-71e1-46b9-81e1-8d24e59b65ce","system_id":"levelo_inurba_marseille","lat":43.225297,"lon":5.34839,"is_reserved":false,"is_disabled":true,"rental_uris":{"android":"levelo://app?vid=4c733966-71e1-46b9-81e1-8d24e59b65ce","ios":"levelo://app?vid=4c733966-71e1-46b9-81e1-8d24e59b65ce"},"vehicle_type_id":"4","last_reported":1778584217,"current_range_meters":8800,"station_id":"st_cvj5dfep6f1abm77gieg","pricing_plan_id":"cebpf4jnsgd1na2vs0mg"},{"bike_id":"d257960a-edb4-4348-90b0-b5fd8baf1634","system_id":"levelo_inurba_marseille","lat":43.31723,"lon":5.3773,"is_reserved":false,"is_disabled":true,"rental_uris":{"android":"levelo://app?vid=d257960a-edb4-4348-90b0-b5fd8baf1634","ios":"levelo://app?vid=d257960a-edb4-4348-90b0-b5fd8baf1634"},"vehicle_type_id":"4","last_reported":1778584217,"current_range_meters":8800,"station_id":"ce4bgth2rcd13ifvqch0","pricing_plan_id":"cebpf4jnsgd1na2vs0mg"},{"bike_id":"1b1dd76b-a1b6-4d82-a590-795de9aeee25","system_id":"levelo_inurba_marseille","lat":43.287,"lon":5.46687,"is_reserved":false,"is_disabled":false,"rental_uris":{"android":"levelo://app?vid=1b1dd76b-a1b6-4d82-a590-795de9aeee25","ios":"levelo://app?vid=1b1dd76b-a1b6-4d82-a590-795de9aeee25"},"vehicle_type_id":"4","last_reported":1778584217,"current_range_meters":8800,"station_id":"st_d6tc3vkotcvc738tfjhg","pricing_plan_id":"cebpf4jnsgd1na2vs0mg"},{"bike_id":"6ff09bb4-defb-403c-9e4d-283b2187fc90","system_id":"levelo_inurba_marseille","lat":43.24173,"lon":5.39721,"is_reserved":false,"is_disabled":false,"rental_uris":{"android":"levelo://app?vid=6ff09bb4-defb-403c-9e4d-283b2187fc90","ios":"levelo://app?vid=6ff09bb4-defb-403c-9e4d-283b2187fc90"},"vehicle_type_id":"4","last_reported":1778584217,"current_range_meters":8800,"station_id":"ce4bhn12rcd13ifvqgpg","pricing_plan_id":"cebpf4jnsgd1na2vs0mg"},{"bike_id":"c441cb5d-c111-433b-bf8f-3bdb7298ef11","system_id":"levelo_inurba_marseille","lat":43.29583,"lon":5.36741,"is_reserved":false,"is_disabled":false,"rental_uris":{"android":"levelo://app?vid=c441cb5d-c111-433b-bf8f-3bdb7298ef11","ios":"levelo://app?vid=c441cb5d-c111-433b-bf8f-3bdb7298ef11"},"vehicle_type_id":"4","last_reported":1778584217,"current_range_meters":8800,"station_id":"ce4bgph2rcd13ifvqc2g","pricing_plan_id":"cebpf4jnsgd1na2vs0mg"},{"bike_id":"2b5c237b-a062-4473-af89-af69f731105f","system_id":"levelo_inurba_marseille","lat":43.29903,"lon":5.37851,"is_reserved":false,"is_disabled":false,"rental_uris":{"android":"levelo://app?vid=2b5c237b-a062-4473-af89-af69f731105f","ios":"levelo://app?vid=2b5c237b-a062-4473-af89-af69f731105f"},"vehicle_type_id":"4","last_reported":1778584217,"current_range_meters":8800,"station_id":"","pricing_plan_id":"cebpf4jnsgd1na2vs0mg"},{"bike_id":"2978f96a-e193-46cd-81f8-9f46fefbcf17","system_id":"levelo_inurba_marseille","lat":43.28615,"lon":5.35099,"is_reserved":false,"is_disabled":false,"rental_uris":{"android":"levelo://app?vid=2978f96a-e193-46cd-81f8-9f46fefbcf17","ios":"levelo://app?vid=2978f96a-e193-46cd-81f8-9f46fefbcf17"},"vehicle_type_id":"4","last_reported":1778584217,"current_range_meters":8800,"station_id":"ce4bhch2rcd13ifvqeug","pricing_plan_id":"cebpf4jnsgd1na2vs0mg"},{"bike_id":"408f76bf-020f-4630-8b88-57b5ece0a8da","system_id":"levelo_inurba_marseille","lat":43.30523,"lon":5.36524,"is_reserved":false,"is_disabled":false,"rental_uris":{"android":"levelo://app?vid=408f76bf-020f-4630-8b88-57b5ece0a8da","ios":"levelo://app?vid=408f76bf-020f-4630-8b88-57b5ece0a8da"},"vehicle_type_id":"4","last_reported":1778584217,"current_range_meters":8800,"station_id":"","pricing_plan_id":"cebpf4jnsgd1na2vs0mg"},{"bike_id":"e4a18dff-aca4-4f60-ae3a-a2ad8b9e8fec","system_id":"levelo_inurba_marseille","lat":43.30155,"lon":5.3807,"is_reserved":false,"is_disabled":false,"rental_uris":{"android":"levelo://app?vid=e4a18dff-aca4-4f60-ae3a-a2ad8b9e8fec","ios":"levelo://app?vid=e4a18dff-aca4-4f60-ae3a-a2ad8b9e8fec"},"vehicle_type_id":"4","last_reported":1778584217,"current_range_meters":8800,"station_id":"ce4bgjp2rcd13ifvqbh0","pricing_plan_id":"cebpf4jnsgd1na2vs0mg"},{"bike_id":"82c397ea-8433-486b-9a5f-b7e2b76a6e93","system_id":"levelo_inurba_marseille","lat":43.29578,"lon":5.37731,"is_reserved":false,"is_disabled":false,"rental_uris":{"android":"levelo://app?vid=82c397ea-8433-486b-9a5f-b7e2b76a6e93","ios":"levelo://app?vid=82c397ea-8433-486b-9a5f-b7e2b76a6e93"},"vehicle_type_id":"4","last_reported":1778584217,"current_range_meters":8800,"station_id":"","pricing_plan_id":"cebpf4jnsgd1na2vs0mg"},{"bike_id":"7d495a91-4757-4bd7-b72f-ad237a9371f1","system_id":"levelo_inurba_marseille","lat":43.21219,"lon":5.35075,"is_reserved":false,"is_disabled":false,"rental_uris":{"android":"levelo://app?vid=7d495a91-4757-4bd7-b72f-ad237a9371f1","ios":"levelo://app?vid=7d495a91-4757-4bd7-b72f-ad237a9371f1"},"vehicle_type_id":"4","last_reported":1778584217,"current_range_meters":8800,"station_id":"st_cvj6sg6p6f1abm77japg","pricing_plan_id":"cebpf4jnsgd1na2vs0mg"},{"bike_id":"38ba2194-b24f-48f1-8d35-b38961ca2ba5","system_id":"levelo_inurba_marseille","lat":43.30317,"lon":5.36907,"is_reserved":false,"is_disabled":false,"rental_uris":{"android":"levelo://app?vid=38ba2194-b24f-48f1-8d35-b38961ca2ba5","ios":"levelo://app?vid=38ba2194-b24f-48f1-8d35-b38961ca2ba5"},"vehicle_type_id":"4","last_reported":1778584217,"current_range_meters":8800,"station_id":"ce4bgqh2rcd13ifvqc5g","pricing_plan_id":"cebpf4jnsgd1na2vs0mg"},{"bike_id":"eb917853-702b-4eef-9534-d1de982b7fd8","system_id":"levelo_inurba_marseille","lat":43.27676,"lon":5.38878,"is_reserved":false,"is_disabled":false,"rental_uris":{"android":"levelo://app?vid=eb917853-702b-4eef-9534-d1de982b7fd8","ios":"levelo://app?vid=eb917853-702b-4eef-9534-d1de982b7fd8"},"vehicle_type_id":"4","last_reported":1778584217,"current_range_meters":8800,"station_id":"ce4bhi12rcd13ifvqfo0","pricing_plan_id":"cebpf4jnsgd1na2vs0mg"},{"bike_id":"ca5d15a2-4551-47c7-81f7-fd4ddf43d165","system_id":"levelo_inurba_marseille","lat":43.25934,"lon":5.40895,"is_reserved":false,"is_disabled":false,"rental_uris":{"android":"levelo://app?vid=ca5d15a2-4551-47c7-81f7-fd4ddf43d165","ios":"levelo://app?vid=ca5d15a2-4551-47c7-81f7-fd4ddf43d165"},"vehicle_type_id":"4","last_reported":1778584217,"current_range_meters":8800,"station_id":"ce4bhm92rcd13ifvqglg","pricing_plan_id":"cebpf4jnsgd1na2vs0mg"},{"bike_id":"f60b91b9-51c6-4fc1-a195-4fc757f89302","system_id":"levelo_inurba_marseille","lat":43.30568,"lon":5.36697,"is_reserved":false,"is_disabled":false,"rental_uris":{"android":"levelo://app?vid=f60b91b9-51c6-4fc1-a195-4fc757f89302","ios":"levelo://app?vid=f60b91b9-51c6-4fc1-a195-4fc757f89302"},"vehicle_type_id":"4","last_reported":1778584217,"current_range_meters":8800,"station_id":"ce4bgrp2rcd13ifvqc9g","pricing_plan_id":"cebpf4jnsgd1na2vs0mg"},{"bike_id":"b6da4a61-eef8-4590-a30c-5d4218354e88","system_id":"levelo_inurba_marseille","lat":43.28213,"lon":5.35413,"is_reserved":false,"is_disabled":false,"rental_uris":{"android":"levelo://app?vid=b6da4a61-eef8-4590-a30c-5d4218354e88","ios":"levelo://app?vid=b6da4a61-eef8-4590-a30c-5d4218354e88"},"vehicle_type_id":"4","last_reported":1778584217,"current_range_meters":8800,"station_id":"","pricing_plan_id":"cebpf4jnsgd1na2vs0mg"},{"bike_id":"aedbe6df-5b19-49bf-8a42-2e3f0e115f04","system_id":"levelo_inurba_marseille","lat":43.2338,"lon":5.41233,"is_reserved":false,"is_disabled":false,"rental_uris":{"android":"levelo://app?vid=aedbe6df-5b19-49bf-8a42-2e3f0e115f04","ios":"levelo://app?vid=aedbe6df-5b19-49bf-8a42-2e3f0e115f04"},"vehicle_type_id":"4","last_reported":1778584217,"current_range_meters":9200,"station_id":"st_d75pvndhf9lc73cqq3eg","pricing_plan_id":"cebpf4jnsgd1na2vs0mg"},{"bike_id":"5d30d8b2-85ea-4de4-b68c-5146034d4fac","system_id":"levelo_inurba_marseille","lat":43.31206,"lon":5.36853,"is_reserved":false,"is_disabled":false,"rental_uris":{"android":"levelo://app?vid=5d30d8b2-85ea-4de4-b68c-5146034d4fac","ios":"levelo://app?vid=5d30d8b2-85ea-4de4-b68c-5146034d4fac"},"vehicle_type_id":"4","last_reported":1778584217,"current_range_meters":9200,"station_id":"ce4bgl92rcd13ifvqbq0","pricing_plan_id":"cebpf4jnsgd1na2vs0mg"},{"bike_id":"56fe50ff-84fa-4658-bb03-1d4649f8766d","system_id":"levelo_inurba_marseille","lat":43.292732,"lon":5.368372,"is_reserved":false,"is_disabled":false,"rental_uris":{"android":"levelo://app?vid=56fe50ff-84fa-4658-bb03-1d4649f8766d","ios":"levelo://app?vid=56fe50ff-84fa-4658-bb03-1d4649f8766d"},"vehicle_type_id":"4","last_reported":1778584217,"current_range_meters":9200,"station_id":"ce4bhb12rcd13ifvqel0","pricing_plan_id":"cebpf4jnsgd1na2vs0mg"},{"bike_id":"99787607-7697-4e9c-b7e0-4925a3350f26","system_id":"levelo_inurba_marseille","lat":43.2962,"lon":5.37725,"is_reserved":false,"is_disabled":false,"rental_uris":{"android":"levelo://app?vid=99787607-7697-4e9c-b7e0-4925a3350f26","ios":"levelo://app?vid=99787607-7697-4e9c-b7e0-4925a3350f26"},"vehicle_type_id":"4","last_reported":1778584217,"current_range_meters":9200,"station_id":"ce4bgi92rcd13ifvqb90","pricing_plan_id":"cebpf4jnsgd1na2vs0mg"},{"bike_id":"1dec4592-f318-4ccc-9124-479c7e8f7178","system_id":"levelo_inurba_marseille","lat":43.29209,"lon":5.38398,"is_reserved":false,"is_disabled":false,"rental_uris":{"android":"levelo://app?vid=1dec4592-f318-4ccc-9124-479c7e8f7178","ios":"levelo://app?vid=1dec4592-f318-4ccc-9124-479c7e8f7178"},"vehicle_type_id":"4","last_reported":1778584217,"current_range_meters":9200,"station_id":"","pricing_plan_id":"cebpf4jnsgd1na2vs0mg"},{"bike_id":"828f4787-7c0f-47c9-b213-ff60195eaa3e","system_id":"levelo_inurba_marseille","lat":43.29638,"lon":5.4061,"is_reserved":false,"is_disabled":true,"rental_uris":{"android":"levelo://app?vid=828f4787-7c0f-47c9-b213-ff60195eaa3e","ios":"levelo://app?vid=828f4787-7c0f-47c9-b213-ff60195eaa3e"},"vehicle_type_id":"4","last_reported":1778584217,"current_range_meters":9200,"station_id":"ce4bh0h2rcd13ifvqd60","pricing_plan_id":"cebpf4jnsgd1na2vs0mg"},{"bike_id":"4196c41d-8bac-4f59-809d-20c5bacf0921","system_id":"levelo_inurba_marseille","lat":43.28707,"lon":5.46685,"is_reserved":false,"is_disabled":false,"rental_uris":{"android":"levelo://app?vid=4196c41d-8bac-4f59-809d-20c5bacf0921","ios":"levelo://app?vid=4196c41d-8bac-4f59-809d-20c5bacf0921"},"vehicle_type_id":"4","last_reported":1778584217,"current_range_meters":9200,"station_id":"st_d6tc3vkotcvc738tfjhg","pricing_plan_id":"cebpf4jnsgd1na2vs0mg"},{"bike_id":"c57b9d8b-726c-424e-a5d4-cee105e1ed0e","system_id":"levelo_inurba_marseille","lat":43.26197,"lon":5.37926,"is_reserved":false,"is_disabled":false,"rental_uris":{"android":"levelo://app?vid=c57b9d8b-726c-424e-a5d4-cee105e1ed0e","ios":"levelo://app?vid=c57b9d8b-726c-424e-a5d4-cee105e1ed0e"},"vehicle_type_id":"4","last_reported":1778584217,"current_range_meters":9200,"station_id":"ce4bhjp2rcd13ifvqg90","pricing_plan_id":"cebpf4jnsgd1na2vs0mg"},{"bike_id":"ebc86338-c48f-421f-af2d-4d2b13cd32fc","system_id":"levelo_inurba_marseille","lat":43.30491,"lon":5.3789,"is_reserved":false,"is_disabled":false,"rental_uris":{"android":"levelo://app?vid=ebc86338-c48f-421f-af2d-4d2b13cd32fc","ios":"levelo://app?vid=ebc86338-c48f-421f-af2d-4d2b13cd32fc"},"vehicle_type_id":"4","last_reported":1778584217,"current_range_meters":9200,"station_id":"ce4bgup2rcd13ifvqcn0","pricing_plan_id":"cebpf4jnsgd1na2vs0mg"},{"bike_id":"66c05b1d-87a7-4580-a322-0ef49ffa863e","system_id":"levelo_inurba_marseille","lat":43.24048,"lon":5.37749,"is_reserved":false,"is_disabled":false,"rental_uris":{"android":"levelo://app?vid=66c05b1d-87a7-4580-a322-0ef49ffa863e","ios":"levelo://app?vid=66c05b1d-87a7-4580-a322-0ef49ffa863e"},"vehicle_type_id":"4","last_reported":1778584217,"current_range_meters":9200,"station_id":"ce4bhnp2rcd13ifvqgvg","pricing_plan_id":"cebpf4jnsgd1na2vs0mg"},{"bike_id":"908cf990-7a0d-42fa-9fba-f0da4ae84b10","system_id":"levelo_inurba_marseille","lat":43.26573,"lon":5.40302,"is_reserved":false,"is_disabled":false,"rental_uris":{"android":"levelo://app?vid=908cf990-7a0d-42fa-9fba-f0da4ae84b10","ios":"levelo://app?vid=908cf990-7a0d-42fa-9fba-f0da4ae84b10"},"vehicle_type_id":"4","last_reported":1778584217,"current_range_meters":9200,"station_id":"ce4bhmp2rcd13ifvqgng","pricing_plan_id":"cebpf4jnsgd1na2vs0mg"},{"bike_id":"bd2e6dcd-9e24-403c-ab4b-c007d495a20d","system_id":"levelo_inurba_marseille","lat":43.30861,"lon":5.37186,"is_reserved":false,"is_disabled":false,"rental_uris":{"android":"levelo://app?vid=bd2e6dcd-9e24-403c-ab4b-c007d495a20d","ios":"levelo://app?vid=bd2e6dcd-9e24-403c-ab4b-c007d495a20d"},"vehicle_type_id":"4","last_reported":1778584217,"current_range_meters":9200,"station_id":"ce4bguh2rcd13ifvqckg","pricing_plan_id":"cebpf4jnsgd1na2vs0mg"},{"bike_id":"934d4809-4536-441b-aaf1-479c851d3d5a","system_id":"levelo_inurba_marseille","lat":43.31266,"lon":5.40506,"is_reserved":false,"is_disabled":false,"rental_uris":{"android":"levelo://app?vid=934d4809-4536-441b-aaf1-479c851d3d5a","ios":"levelo://app?vid=934d4809-4536-441b-aaf1-479c851d3d5a"},"vehicle_type_id":"4","last_reported":1778584217,"current_range_meters":9200,"station_id":"","pricing_plan_id":"cebpf4jnsgd1na2vs0mg"},{"bike_id":"b432d467-93df-4404-85d8-b0fe42372a10","system_id":"levelo_inurba_marseille","lat":43.2466,"lon":5.38878,"is_reserved":false,"is_disabled":false,"rental_uris":{"android":"levelo://app?vid=b432d467-93df-4404-85d8-b0fe42372a10","ios":"levelo://app?vid=b432d467-93df-4404-85d8-b0fe42372a10"},"vehicle_type_id":"4","last_reported":1778584217,"current_range_meters":9200,"station_id":"ce4bhg12rcd13ifvqf60","pricing_plan_id":"cebpf4jnsgd1na2vs0mg"},{"bike_id":"1da6257b-f1af-4a48-8996-6c5a6ab19545","system_id":"levelo_inurba_marseille","lat":43.24671,"lon":5.38146,"is_reserved":false,"is_disabled":false,"rental_uris":{"android":"levelo://app?vid=1da6257b-f1af-4a48-8996-6c5a6ab19545","ios":"levelo://app?vid=1da6257b-f1af-4a48-8996-6c5a6ab19545"},"vehicle_type_id":"4","last_reported":1778584217,"current_range_meters":9200,"station_id":"ce4bhih2rcd13ifvqfr0","pricing_plan_id":"cebpf4jnsgd1na2vs0mg"},{"bike_id":"91b478ac-c923-4846-825f-80d8f8ad5bd1","system_id":"levelo_inurba_marseille","lat":43.25871,"lon":5.39877,"is_reserved":false,"is_disabled":false,"rental_uris":{"android":"levelo://app?vid=91b478ac-c923-4846-825f-80d8f8ad5bd1","ios":"levelo://app?vid=91b478ac-c923-4846-825f-80d8f8ad5bd1"},"vehicle_type_id":"4","last_reported":1778584217,"current_range_meters":9200,"station_id":"ce4bhl92rcd13ifvqghg","pricing_plan_id":"cebpf4jnsgd1na2vs0mg"},{"bike_id":"18685895-466d-4c2f-a21e-1a8a9b6395c4","system_id":"levelo_inurba_marseille","lat":43.29691,"lon":5.36616,"is_reserved":false,"is_disabled":false,"rental_uris":{"android":"levelo://app?vid=18685895-466d-4c2f-a21e-1a8a9b6395c4","ios":"levelo://app?vid=18685895-466d-4c2f-a21e-1a8a9b6395c4"},"vehicle_type_id":"4","last_reported":1778584217,"current_range_meters":9600,"station_id":"ce4bgn12rcd13ifvqbt0","pricing_plan_id":"cebpf4jnsgd1na2vs0mg"},{"bike_id":"84a9ba30-cabe-4e6b-b433-3b8ce2647c25","system_id":"levelo_inurba_marseille","lat":43.31491,"lon":5.37304,"is_reserved":false,"is_disabled":false,"rental_uris":{"android":"levelo://app?vid=84a9ba30-cabe-4e6b-b433-3b8ce2647c25","ios":"levelo://app?vid=84a9ba30-cabe-4e6b-b433-3b8ce2647c25"},"vehicle_type_id":"4","last_reported":1778584217,"current_range_meters":9600,"station_id":"ce4bgt12rcd13ifvqcd0","pricing_plan_id":"cebpf4jnsgd1na2vs0mg"},{"bike_id":"a712f1e6-3e9f-4d3d-9060-7d05cac60b76","system_id":"levelo_inurba_marseille","lat":43.30149,"lon":5.38075,"is_reserved":false,"is_disabled":false,"rental_uris":{"android":"levelo://app?vid=a712f1e6-3e9f-4d3d-9060-7d05cac60b76","ios":"levelo://app?vid=a712f1e6-3e9f-4d3d-9060-7d05cac60b76"},"vehicle_type_id":"4","last_reported":1778584217,"current_range_meters":9600,"station_id":"ce4bgjp2rcd13ifvqbh0","pricing_plan_id":"cebpf4jnsgd1na2vs0mg"},{"bike_id":"19e877fd-e015-4a86-8008-1a0d333eea65","system_id":"levelo_inurba_marseille","lat":43.33542,"lon":5.37466,"is_reserved":false,"is_disabled":false,"rental_uris":{"android":"levelo://app?vid=19e877fd-e015-4a86-8008-1a0d333eea65","ios":"levelo://app?vid=19e877fd-e015-4a86-8008-1a0d333eea65"},"vehicle_type_id":"4","last_reported":1778584217,"current_range_meters":9600,"station_id":"st_d46tts09ee8s73dlu43g","pricing_plan_id":"cebpf4jnsgd1na2vs0mg"},{"bike_id":"39ffdda9-68c0-4585-afb4-2c2bb5ee0d1a","system_id":"levelo_inurba_marseille","lat":43.336,"lon":5.40976,"is_reserved":false,"is_disabled":false,"rental_uris":{"android":"levelo://app?vid=39ffdda9-68c0-4585-afb4-2c2bb5ee0d1a","ios":"levelo://app?vid=39ffdda9-68c0-4585-afb4-2c2bb5ee0d1a"},"vehicle_type_id":"4","last_reported":1778584217,"current_range_meters":9600,"station_id":"ce4bhqh2rcd13ifvqhmg","pricing_plan_id":"cebpf4jnsgd1na2vs0mg"},{"bike_id":"44769a63-2434-4160-917d-9d5801eaf9ed","system_id":"levelo_inurba_marseille","lat":43.23964,"lon":5.36628,"is_reserved":false,"is_disabled":false,"rental_uris":{"android":"levelo://app?vid=44769a63-2434-4160-917d-9d5801eaf9ed","ios":"levelo://app?vid=44769a63-2434-4160-917d-9d5801eaf9ed"},"vehicle_type_id":"4","last_reported":1778584217,"current_range_meters":9600,"station_id":"ce4bhi12rcd13ifvqfp0","pricing_plan_id":"cebpf4jnsgd1na2vs0mg"},{"bike_id":"11565589-532d-43f0-b350-537b340c7399","system_id":"levelo_inurba_marseille","lat":43.24634,"lon":5.4315,"is_reserved":false,"is_disabled":false,"rental_uris":{"android":"levelo://app?vid=11565589-532d-43f0-b350-537b340c7399","ios":"levelo://app?vid=11565589-532d-43f0-b350-537b340c7399"},"vehicle_type_id":"4","last_reported":1778584217,"current_range_meters":9600,"station_id":"st_d2m6c4gdas8pm72e190g","pricing_plan_id":"cebpf4jnsgd1na2vs0mg"},{"bike_id":"a4d945d4-1963-4ebe-ac62-54ee257867f3","system_id":"levelo_inurba_marseille","lat":43.33547,"lon":5.37448,"is_reserved":false,"is_disabled":false,"rental_uris":{"android":"levelo://app?vid=a4d945d4-1963-4ebe-ac62-54ee257867f3","ios":"levelo://app?vid=a4d945d4-1963-4ebe-ac62-54ee257867f3"},"vehicle_type_id":"4","last_reported":1778584217,"current_range_meters":9600,"station_id":"st_d46tts09ee8s73dlu43g","pricing_plan_id":"cebpf4jnsgd1na2vs0mg"},{"bike_id":"4de0c2d5-c0c9-4d40-8239-76a019b8f4fc","system_id":"levelo_inurba_marseille","lat":43.28984,"lon":5.35598,"is_reserved":false,"is_disabled":false,"rental_uris":{"android":"levelo://app?vid=4de0c2d5-c0c9-4d40-8239-76a019b8f4fc","ios":"levelo://app?vid=4de0c2d5-c0c9-4d40-8239-76a019b8f4fc"},"vehicle_type_id":"4","last_reported":1778584217,"current_range_meters":9600,"station_id":"ce4bhb92rcd13ifvqen0","pricing_plan_id":"cebpf4jnsgd1na2vs0mg"},{"bike_id":"4aa462a1-cff9-4fae-932d-2fae2b2d96b2","system_id":"levelo_inurba_marseille","lat":43.28687,"lon":5.37377,"is_reserved":false,"is_disabled":false,"rental_uris":{"android":"levelo://app?vid=4aa462a1-cff9-4fae-932d-2fae2b2d96b2","ios":"levelo://app?vid=4aa462a1-cff9-4fae-932d-2fae2b2d96b2"},"vehicle_type_id":"4","last_reported":1778584217,"current_range_meters":9600,"station_id":"ce4bh3p2rcd13ifvqdq0","pricing_plan_id":"cebpf4jnsgd1na2vs0mg"},{"bike_id":"cfc10aff-f0aa-48c9-bea9-f395c0ea1318","system_id":"levelo_inurba_marseille","lat":43.3027,"lon":5.37701,"is_reserved":false,"is_disabled":false,"rental_uris":{"android":"levelo://app?vid=cfc10aff-f0aa-48c9-bea9-f395c0ea1318","ios":"levelo://app?vid=cfc10aff-f0aa-48c9-bea9-f395c0ea1318"},"vehicle_type_id":"4","last_reported":1778584217,"current_range_meters":9600,"station_id":"ce4bguh2rcd13ifvqcj0","pricing_plan_id":"cebpf4jnsgd1na2vs0mg"},{"bike_id":"c4ce2d09-f5d0-4264-ab20-75fb3f2579f0","system_id":"levelo_inurba_marseille","lat":43.298679,"lon":5.39731,"is_reserved":false,"is_disabled":false,"rental_uris":{"android":"levelo://app?vid=c4ce2d09-f5d0-4264-ab20-75fb3f2579f0","ios":"levelo://app?vid=c4ce2d09-f5d0-4264-ab20-75fb3f2579f0"},"vehicle_type_id":"4","last_reported":1778584217,"current_range_meters":9600,"station_id":"ce4bh0h2rcd13ifvqd50","pricing_plan_id":"cebpf4jnsgd1na2vs0mg"},{"bike_id":"12d8531b-50be-4a1a-bbec-c75f1effe2c9","system_id":"levelo_inurba_marseille","lat":43.30128,"lon":5.37426,"is_reserved":false,"is_disabled":false,"rental_uris":{"android":"levelo://app?vid=12d8531b-50be-4a1a-bbec-c75f1effe2c9","ios":"levelo://app?vid=12d8531b-50be-4a1a-bbec-c75f1effe2c9"},"vehicle_type_id":"4","last_reported":1778584217,"current_range_meters":9600,"station_id":"ce4bgs92rcd13ifvqcc0","pricing_plan_id":"cebpf4jnsgd1na2vs0mg"},{"bike_id":"00f9e8e9-a796-4063-972a-6a13a52bcfd2","system_id":"levelo_inurba_marseille","lat":43.28661,"lon":5.36257,"is_reserved":false,"is_disabled":false,"rental_uris":{"android":"levelo://app?vid=00f9e8e9-a796-4063-972a-6a13a52bcfd2","ios":"levelo://app?vid=00f9e8e9-a796-4063-972a-6a13a52bcfd2"},"vehicle_type_id":"4","last_reported":1778584217,"current_range_meters":9600,"station_id":"","pricing_plan_id":"cebpf4jnsgd1na2vs0mg"},{"bike_id":"0ad9f56c-0cb1-4ddd-bfff-c7b211f4a077","system_id":"levelo_inurba_marseille","lat":43.23458,"lon":5.37217,"is_reserved":false,"is_disabled":false,"rental_uris":{"android":"levelo://app?vid=0ad9f56c-0cb1-4ddd-bfff-c7b211f4a077","ios":"levelo://app?vid=0ad9f56c-0cb1-4ddd-bfff-c7b211f4a077"},"vehicle_type_id":"4","last_reported":1778584217,"current_range_meters":9600,"station_id":"","pricing_plan_id":"cebpf4jnsgd1na2vs0mg"},{"bike_id":"cab236ef-e0d3-4744-88dd-8507babeda93","system_id":"levelo_inurba_marseille","lat":43.24638,"lon":5.38903,"is_reserved":false,"is_disabled":false,"rental_uris":{"android":"levelo://app?vid=cab236ef-e0d3-4744-88dd-8507babeda93","ios":"levelo://app?vid=cab236ef-e0d3-4744-88dd-8507babeda93"},"vehicle_type_id":"4","last_reported":1778584217,"current_range_meters":9600,"station_id":"ce4bhg12rcd13ifvqf60","pricing_plan_id":"cebpf4jnsgd1na2vs0mg"},{"bike_id":"fe80382e-20f8-4b17-a5ee-ff26f51bc185","system_id":"levelo_inurba_marseille","lat":43.250989,"lon":5.395129,"is_reserved":false,"is_disabled":false,"rental_uris":{"android":"levelo://app?vid=fe80382e-20f8-4b17-a5ee-ff26f51bc185","ios":"levelo://app?vid=fe80382e-20f8-4b17-a5ee-ff26f51bc185"},"vehicle_type_id":"4","last_reported":1778584217,"current_range_meters":9600,"station_id":"ce4bhm12rcd13ifvqgkg","pricing_plan_id":"cebpf4jnsgd1na2vs0mg"},{"bike_id":"f0eb65b1-4204-436b-b310-35a979fa6a26","system_id":"levelo_inurba_marseille","lat":43.30153,"lon":5.38086,"is_reserved":false,"is_disabled":false,"rental_uris":{"android":"levelo://app?vid=f0eb65b1-4204-436b-b310-35a979fa6a26","ios":"levelo://app?vid=f0eb65b1-4204-436b-b310-35a979fa6a26"},"vehicle_type_id":"4","last_reported":1778584217,"current_range_meters":10000,"station_id":"ce4bgjp2rcd13ifvqbh0","pricing_plan_id":"cebpf4jnsgd1na2vs0mg"},{"bike_id":"918d9e54-7d22-4a09-9927-da9b974263c5","system_id":"levelo_inurba_marseille","lat":43.30167,"lon":5.38063,"is_reserved":false,"is_disabled":false,"rental_uris":{"android":"levelo://app?vid=918d9e54-7d22-4a09-9927-da9b974263c5","ios":"levelo://app?vid=918d9e54-7d22-4a09-9927-da9b974263c5"},"vehicle_type_id":"4","last_reported":1778584217,"current_range_meters":10000,"station_id":"ce4bgjp2rcd13ifvqbh0","pricing_plan_id":"cebpf4jnsgd1na2vs0mg"},{"bike_id":"930812e8-7364-47c0-a3e4-9a1113dfa476","system_id":"levelo_inurba_marseille","lat":43.23189,"lon":5.35555,"is_reserved":false,"is_disabled":false,"rental_uris":{"android":"levelo://app?vid=930812e8-7364-47c0-a3e4-9a1113dfa476","ios":"levelo://app?vid=930812e8-7364-47c0-a3e4-9a1113dfa476"},"vehicle_type_id":"4","last_reported":1778584217,"current_range_meters":10000,"station_id":"ce4bhu92rcd13ifvqi70","pricing_plan_id":"cebpf4jnsgd1na2vs0mg"},{"bike_id":"724c3109-9403-4396-a9bb-67861590bb25","system_id":"levelo_inurba_marseille","lat":43.32475,"lon":5.38283,"is_reserved":false,"is_disabled":false,"rental_uris":{"android":"levelo://app?vid=724c3109-9403-4396-a9bb-67861590bb25","ios":"levelo://app?vid=724c3109-9403-4396-a9bb-67861590bb25"},"vehicle_type_id":"4","last_reported":1778584217,"current_range_meters":10000,"station_id":"st_d4asgbiv49dc73anf9m0","pricing_plan_id":"cebpf4jnsgd1na2vs0mg"},{"bike_id":"1602c824-ae5a-4f68-ae9a-a09d00daa24b","system_id":"levelo_inurba_marseille","lat":43.2255,"lon":5.34869,"is_reserved":false,"is_disabled":true,"rental_uris":{"android":"levelo://app?vid=1602c824-ae5a-4f68-ae9a-a09d00daa24b","ios":"levelo://app?vid=1602c824-ae5a-4f68-ae9a-a09d00daa24b"},"vehicle_type_id":"4","last_reported":1778584217,"current_range_meters":10000,"station_id":"st_cvj5dfep6f1abm77gieg","pricing_plan_id":"cebpf4jnsgd1na2vs0mg"},{"bike_id":"2aaf8d3d-dddc-4659-85e7-34b3b97fa5bc","system_id":"levelo_inurba_marseille","lat":43.21195,"lon":5.35066,"is_reserved":false,"is_disabled":false,"rental_uris":{"android":"levelo://app?vid=2aaf8d3d-dddc-4659-85e7-34b3b97fa5bc","ios":"levelo://app?vid=2aaf8d3d-dddc-4659-85e7-34b3b97fa5bc"},"vehicle_type_id":"4","last_reported":1778584217,"current_range_meters":10000,"station_id":"st_cvj6sg6p6f1abm77japg","pricing_plan_id":"cebpf4jnsgd1na2vs0mg"},{"bike_id":"badc5408-efbf-4d71-a93c-ec4f6d2da24e","system_id":"levelo_inurba_marseille","lat":43.26677,"lon":5.38264,"is_reserved":false,"is_disabled":false,"rental_uris":{"android":"levelo://app?vid=badc5408-efbf-4d71-a93c-ec4f6d2da24e","ios":"levelo://app?vid=badc5408-efbf-4d71-a93c-ec4f6d2da24e"},"vehicle_type_id":"4","last_reported":1778584217,"current_range_meters":10000,"station_id":"ce4bhg92rcd13ifvqf90","pricing_plan_id":"cebpf4jnsgd1na2vs0mg"},{"bike_id":"638f0fd9-8092-4d8b-9b9b-e7a2a736b653","system_id":"levelo_inurba_marseille","lat":43.27497,"lon":5.41559,"is_reserved":false,"is_disabled":true,"rental_uris":{"android":"levelo://app?vid=638f0fd9-8092-4d8b-9b9b-e7a2a736b653","ios":"levelo://app?vid=638f0fd9-8092-4d8b-9b9b-e7a2a736b653"},"vehicle_type_id":"4","last_reported":1778584217,"current_range_meters":10000,"station_id":"st_d6im8g6chgec73a5pndg","pricing_plan_id":"cebpf4jnsgd1na2vs0mg"},{"bike_id":"cd3bf1fa-127b-48f3-b4b1-cec37ebb83c9","system_id":"levelo_inurba_marseille","lat":43.2379,"lon":5.36628,"is_reserved":false,"is_disabled":false,"rental_uris":{"android":"levelo://app?vid=cd3bf1fa-127b-48f3-b4b1-cec37ebb83c9","ios":"levelo://app?vid=cd3bf1fa-127b-48f3-b4b1-cec37ebb83c9"},"vehicle_type_id":"4","last_reported":1778584217,"current_range_meters":10000,"station_id":"st_d3nk18o9ro0c73en2l3g","pricing_plan_id":"cebpf4jnsgd1na2vs0mg"},{"bike_id":"20314922-3f23-4635-ad85-7d3e6c54db85","system_id":"levelo_inurba_marseille","lat":43.26569,"lon":5.40321,"is_reserved":false,"is_disabled":false,"rental_uris":{"android":"levelo://app?vid=20314922-3f23-4635-ad85-7d3e6c54db85","ios":"levelo://app?vid=20314922-3f23-4635-ad85-7d3e6c54db85"},"vehicle_type_id":"4","last_reported":1778584217,"current_range_meters":10000,"station_id":"ce4bhmp2rcd13ifvqgng","pricing_plan_id":"cebpf4jnsgd1na2vs0mg"},{"bike_id":"3c22f9a5-8a44-475a-9359-3f9ee5dfd965","system_id":"levelo_inurba_marseille","lat":43.24175,"lon":5.39725,"is_reserved":false,"is_disabled":false,"rental_uris":{"android":"levelo://app?vid=3c22f9a5-8a44-475a-9359-3f9ee5dfd965","ios":"levelo://app?vid=3c22f9a5-8a44-475a-9359-3f9ee5dfd965"},"vehicle_type_id":"4","last_reported":1778584217,"current_range_meters":10000,"station_id":"ce4bhn12rcd13ifvqgpg","pricing_plan_id":"cebpf4jnsgd1na2vs0mg"},{"bike_id":"36bc7082-3064-4714-b88f-822bb62b3edd","system_id":"levelo_inurba_marseille","lat":43.28277,"lon":5.35063,"is_reserved":false,"is_disabled":false,"rental_uris":{"android":"levelo://app?vid=36bc7082-3064-4714-b88f-822bb62b3edd","ios":"levelo://app?vid=36bc7082-3064-4714-b88f-822bb62b3edd"},"vehicle_type_id":"4","last_reported":1778584217,"current_range_meters":10000,"station_id":"ce4bhbp2rcd13ifvqerg","pricing_plan_id":"cebpf4jnsgd1na2vs0mg"},{"bike_id":"54c98ec6-7f1d-4812-a112-2ada89db0b04","system_id":"levelo_inurba_marseille","lat":43.27308,"lon":5.39016,"is_reserved":false,"is_disabled":true,"rental_uris":{"android":"levelo://app?vid=54c98ec6-7f1d-4812-a112-2ada89db0b04","ios":"levelo://app?vid=54c98ec6-7f1d-4812-a112-2ada89db0b04"},"vehicle_type_id":"4","last_reported":1778584217,"current_range_meters":10000,"station_id":"ce4bhgp2rcd13ifvqfe0","pricing_plan_id":"cebpf4jnsgd1na2vs0mg"},{"bike_id":"a1712b82-cc22-43eb-b0ac-411cedbf5a60","system_id":"levelo_inurba_marseille","lat":43.27239,"lon":5.39201,"is_reserved":false,"is_disabled":false,"rental_uris":{"android":"levelo://app?vid=a1712b82-cc22-43eb-b0ac-411cedbf5a60","ios":"levelo://app?vid=a1712b82-cc22-43eb-b0ac-411cedbf5a60"},"vehicle_type_id":"4","last_reported":1778584217,"current_range_meters":10000,"station_id":"ce4bhhp2rcd13ifvqfm0","pricing_plan_id":"cebpf4jnsgd1na2vs0mg"},{"bike_id":"c100e699-42c5-4d39-952f-3333e9883ee4","system_id":"levelo_inurba_marseille","lat":43.28225,"lon":5.35074,"is_reserved":false,"is_disabled":false,"rental_uris":{"android":"levelo://app?vid=c100e699-42c5-4d39-952f-3333e9883ee4","ios":"levelo://app?vid=c100e699-42c5-4d39-952f-3333e9883ee4"},