{"last_updated":1728072600,"ttl":60,"version":"2.2","data":{"bikes":[{"bike_id":"1421632e-2514-4f77-8b77-5ebabfb17b49","system_id":"levelo_inurba_marseille","lat":43.27828,"lon":5.39213,"is_reserved":false,"is_disabled":false,"rental_uris":{"android":"levelo://app?vid=1421632e-2514-4f77-8b77-5ebabfb17b49","ios":"levelo://app?vid=1421632e-2514-4f77-8b77-5ebabfb17b49"},"vehicle_type_id":"4","last_reported":1728072600,"current_range_meters":38400,"station_id":"ce4bhjp2rcd13ifvqga0","pricing_plan_id":"cebpf4jnsgd1na2vs0mg"},{"bike_id":"32c0e6c2-0d6b-461c-aed9-d808223de12f","system_id":"levelo_inurba_marseille","lat":43.297112,"lon":5.378439,"is_reserved":false,"is_disabled":false,"rental_uris":{"android":"levelo://app?vid=32c0e6c2-0d6b-461c-aed9-d808223de12f","ios":"levelo://app?vid=32c0e6c2-0d6b-461c-aed9-d808223de12f"},"vehicle_type_id":"4","last_reported":1728072600,"current_range_meters":17200,"station_id":"ce4bgip2rcd13ifvqbb0","pricing_plan_id":"cebpf4jnsgd1na2vs0mg"},{"bike_id":"fc4cd310-d92c-4df7-a20f-bde8894c63db","system_id":"levelo_inurba_marseille","lat":43.25116,"lon":5.40331,"is_reserved":false,"is_disabled":false,"rental_uris":{"android":"levelo://app?vid=fc4cd310-d92c-4df7-a20f-bde8894c63db","ios":"levelo://app?vid=fc4cd310-d92c-4df7-a20f-bde8894c63db"},"vehicle_type_id":"4","last_reported":1728072600,"current_range_meters":6000,"station_id":"ce4bhlh2rcd13ifvqgig","pricing_plan_id":"cebpf4jnsgd1na2vs0mg"},{"bike_id":"365b5fac-18b9-49f5-acdd-bfa40c0e78a1","system_id":"levelo_inurba_marseille","lat":43.29418,"lon":5.38623,"is_reserved":false,"is_disabled":false,"rental_uris":{"android":"levelo://app?vid=365b5fac-18b9-49f5-acdd-bfa40c0e78a1","ios":"levelo://app?vid=365b5fac-18b9-49f5-acdd-bfa40c0e78a1"},"vehicle_type_id":"4","last_reported":1728072600,"current_range_meters":4000,"station_id":"ce4bh2h2rcd13ifvqdh0","pricing_plan_id":"cebpf4jnsgd1na2vs0mg"},{"bike_id":"0ab31a2b-100e-46ba-8518-e3de7fc7122e","system_id":"levelo_inurba_marseille","lat":43.33748,"lon":5.37449,"is_reserved":false,"is_disabled":false,"rental_uris":{"android":"levelo://app?vid=0ab31a2b-100e-46ba-8518-e3de7fc7122e","ios":"levelo://app?vid=0ab31a2b-100e-46ba-8518-e3de7fc7122e"},"vehicle_type_id":"4","last_reported":1728072600,"current_range_meters":36000,"station_id":"","pricing_plan_id":"cebpf4jnsgd1na2vs0mg"},{"bike_id":"b81a95a6-23bc-4be8-b1e8-619044ffcb37","system_id":"levelo_inurba_marseille","lat":43.26805,"lon":5.40274,"is_reserved":false,"is_disabled":false,"rental_uris":{"android":"levelo://app?vid=b81a95a6-23bc-4be8-b1e8-619044ffcb37","ios":"levelo://app?vid=b81a95a6-23bc-4be8-b1e8-619044ffcb37"},"vehicle_type_id":"4","last_reported":1728072600,"current_range_meters":22800,"station_id":"ce501612rcd8frsf0b60","pricing_plan_id":"cebpf4jnsgd1na2vs0mg"},{"bike_id":"756088e4-bd38-4606-aa6f-cbbf1461af00","system_id":"levelo_inurba_marseille","lat":43.22936,"lon":5.35378,"is_reserved":false,"is_disabled":false,"rental_uris":{"android":"levelo://app?vid=756088e4-bd38-4606-aa6f-cbbf1461af00","ios":"levelo://app?vid=756088e4-bd38-4606-aa6f-cbbf1461af00"},"vehicle_type_id":"4","last_reported":1728072600,"current_range_meters":11200,"station_id":"cpo3532slgdg3j2ikp40","pricing_plan_id":"cebpf4jnsgd1na2vs0mg"},{"bike_id":"9d98ae51-d73c-42df-b4e2-8cf7d228306f","system_id":"levelo_inurba_marseille","lat":43.29271,"lon":5.38442,"is_reserved":false,"is_disabled":false,"rental_uris":{"android":"levelo://app?vid=9d98ae51-d73c-42df-b4e2-8cf7d228306f","ios":"levelo://app?vid=9d98ae51-d73c-42df-b4e2-8cf7d228306f"},"vehicle_type_id":"4","last_reported":1728072600,"current_range_meters":11200,"station_id":"ce4bh692rcd13ifvqea0","pricing_plan_id":"cebpf4jnsgd1na2vs0mg"},{"bike_id":"c03e49f8-a938-4f51-8fce-b885053138db","system_id":"levelo_inurba_marseille","lat":43.23964,"lon":5.36632,"is_reserved":false,"is_disabled":false,"rental_uris":{"android":"levelo://app?vid=c03e49f8-a938-4f51-8fce-b885053138db","ios":"levelo://app?vid=c03e49f8-a938-4f51-8fce-b885053138db"},"vehicle_type_id":"4","last_reported":1728072600,"current_range_meters":30800,"station_id":"ce4bhi12rcd13ifvqfp0","pricing_plan_id":"cebpf4jnsgd1na2vs0mg"},{"bike_id":"9e14c540-407b-468d-804c-2aca9b88e243","system_id":"levelo_inurba_marseille","lat":43.30795,"lon":5.38166,"is_reserved":false,"is_disabled":false,"rental_uris":{"android":"levelo://app?vid=9e14c540-407b-468d-804c-2aca9b88e243","ios":"levelo://app?vid=9e14c540-407b-468d-804c-2aca9b88e243"},"vehicle_type_id":"4","last_reported":1728072600,"current_range_meters":1600,"station_id":"ce4bgt12rcd13ifvqce0","pricing_plan_id":"cebpf4jnsgd1na2vs0mg"},{"bike_id":"37042c1b-99f0-4379-a7d0-0b6867cdb669","system_id":"levelo_inurba_marseille","lat":43.23181,"lon":5.39981,"is_reserved":false,"is_disabled":false,"rental_uris":{"android":"levelo://app?vid=37042c1b-99f0-4379-a7d0-0b6867cdb669","ios":"levelo://app?vid=37042c1b-99f0-4379-a7d0-0b6867cdb669"},"vehicle_type_id":"4","last_reported":1728072600,"current_range_meters":8800,"station_id":"ce4bhn12rcd13ifvqgqg","pricing_plan_id":"cebpf4jnsgd1na2vs0mg"},{"bike_id":"b1e1b5c6-ad1a-454f-878f-f1b0798776c8","system_id":"levelo_inurba_marseille","lat":43.2782,"lon":5.3921,"is_reserved":false,"is_disabled":false,"rental_uris":{"android":"levelo://app?vid=b1e1b5c6-ad1a-454f-878f-f1b0798776c8","ios":"levelo://app?vid=b1e1b5c6-ad1a-454f-878f-f1b0798776c8"},"vehicle_type_id":"4","last_reported":1728072600,"current_range_meters":23200,"station_id":"ce4bhjp2rcd13ifvqga0","pricing_plan_id":"cebpf4jnsgd1na2vs0mg"},{"bike_id":"d983aaf9-861f-473f-b198-cf08e31cd0ce","system_id":"levelo_inurba_marseille","lat":43.2866,"lon":5.3636,"is_reserved":false,"is_disabled":false,"rental_uris":{"android":"levelo://app?vid=d983aaf9-861f-473f-b198-cf08e31cd0ce","ios":"levelo://app?vid=d983aaf9-861f-473f-b198-cf08e31cd0ce"},"vehicle_type_id":"4","last_reported":1728072600,"current_range_meters":22800,"station_id":"ce4bhah2rcd13ifvqej0","pricing_plan_id":"cebpf4jnsgd1na2vs0mg"},{"bike_id":"5d4b69ce-b612-4ed4-b50e-6aac8aab730c","system_id":"levelo_inurba_marseille","lat":43.26688,"lon":5.3827,"is_reserved":false,"is_disabled":false,"rental_uris":{"android":"levelo://app?vid=5d4b69ce-b612-4ed4-b50e-6aac8aab730c","ios":"levelo://app?vid=5d4b69ce-b612-4ed4-b50e-6aac8aab730c"},"vehicle_type_id":"4","last_reported":1728072600,"current_range_meters":10000,"station_id":"ce4bhg92rcd13ifvqf90","pricing_plan_id":"cebpf4jnsgd1na2vs0mg"},{"bike_id":"3db4d519-fb29-4a54-b6e0-e6ce1f6a9390","system_id":"levelo_inurba_marseille","lat":43.29531,"lon":5.38544,"is_reserved":false,"is_disabled":false,"rental_uris":{"android":"levelo://app?vid=3db4d519-fb29-4a54-b6e0-e6ce1f6a9390","ios":"levelo://app?vid=3db4d519-fb29-4a54-b6e0-e6ce1f6a9390"},"vehicle_type_id":"4","last_reported":1728072600,"current_range_meters":32800,"station_id":"ce4bgih2rcd13ifvqba0","pricing_plan_id":"cebpf4jnsgd1na2vs0mg"},{"bike_id":"846fabba-8f65-46ac-89c0-005c533e0f0a","system_id":"levelo_inurba_marseille","lat":43.2901,"lon":5.35619,"is_reserved":false,"is_disabled":false,"rental_uris":{"android":"levelo://app?vid=846fabba-8f65-46ac-89c0-005c533e0f0a","ios":"levelo://app?vid=846fabba-8f65-46ac-89c0-005c533e0f0a"},"vehicle_type_id":"4","last_reported":1728072600,"current_range_meters":28000,"station_id":"ce4bhb92rcd13ifvqen0","pricing_plan_id":"cebpf4jnsgd1na2vs0mg"},{"bike_id":"53d26f8a-59e3-4094-bf35-ae6b2bb5e8d2","system_id":"levelo_inurba_marseille","lat":43.26203,"lon":5.37935,"is_reserved":false,"is_disabled":false,"rental_uris":{"android":"levelo://app?vid=53d26f8a-59e3-4094-bf35-ae6b2bb5e8d2","ios":"levelo://app?vid=53d26f8a-59e3-4094-bf35-ae6b2bb5e8d2"},"vehicle_type_id":"4","last_reported":1728072600,"current_range_meters":23200,"station_id":"ce4bhjp2rcd13ifvqg90","pricing_plan_id":"cebpf4jnsgd1na2vs0mg"},{"bike_id":"1fd30415-2cb8-437a-803c-caf2cd514903","system_id":"levelo_inurba_marseille","lat":43.31275,"lon":5.40163,"is_reserved":false,"is_disabled":false,"rental_uris":{"android":"levelo://app?vid=1fd30415-2cb8-437a-803c-caf2cd514903","ios":"levelo://app?vid=1fd30415-2cb8-437a-803c-caf2cd514903"},"vehicle_type_id":"4","last_reported":1728072600,"current_range_meters":17200,"station_id":"ce4bh092rcd13ifvqd30","pricing_plan_id":"cebpf4jnsgd1na2vs0mg"},{"bike_id":"c5a4dd42-b53d-477c-bc32-60931f8e2a43","system_id":"levelo_inurba_marseille","lat":43.2909,"lon":5.38137,"is_reserved":false,"is_disabled":false,"rental_uris":{"android":"levelo://app?vid=c5a4dd42-b53d-477c-bc32-60931f8e2a43","ios":"levelo://app?vid=c5a4dd42-b53d-477c-bc32-60931f8e2a43"},"vehicle_type_id":"4","last_reported":1728072600,"current_range_meters":13600,"station_id":"ce4bh512rcd13ifvqe2g","pricing_plan_id":"cebpf4jnsgd1na2vs0mg"},{"bike_id":"698f546c-05d2-43f4-b70a-b47e896e3d23","system_id":"levelo_inurba_marseille","lat":43.29908,"lon":5.37481,"is_reserved":false,"is_disabled":false,"rental_uris":{"android":"levelo://app?vid=698f546c-05d2-43f4-b70a-b47e896e3d23","ios":"levelo://app?vid=698f546c-05d2-43f4-b70a-b47e896e3d23"},"vehicle_type_id":"4","last_reported":1728072600,"current_range_meters":35600,"station_id":"ce4bgjh2rcd13ifvqbg0","pricing_plan_id":"cebpf4jnsgd1na2vs0mg"},{"bike_id":"5257bc58-7f86-4691-bfd8-4409f576b50a","system_id":"levelo_inurba_marseille","lat":43.295746,"lon":5.375692,"is_reserved":false,"is_disabled":false,"rental_uris":{"android":"levelo://app?vid=5257bc58-7f86-4691-bfd8-4409f576b50a","ios":"levelo://app?vid=5257bc58-7f86-4691-bfd8-4409f576b50a"},"vehicle_type_id":"4","last_reported":1728072600,"current_range_meters":36000,"station_id":"","pricing_plan_id":"cebpf4jnsgd1na2vs0mg"},{"bike_id":"775e89ca-7b7b-4cd8-ba56-7a5434f63cbe","system_id":"levelo_inurba_marseille","lat":43.30789,"lon":5.37649,"is_reserved":false,"is_disabled":false,"rental_uris":{"android":"levelo://app?vid=775e89ca-7b7b-4cd8-ba56-7a5434f63cbe","ios":"levelo://app?vid=775e89ca-7b7b-4cd8-ba56-7a5434f63cbe"},"vehicle_type_id":"4","last_reported":1728072600,"current_range_meters":16800,"station_id":"ce4bgv92rcd13ifvqcq0","pricing_plan_id":"cebpf4jnsgd1na2vs0mg"},{"bike_id":"2ee470a2-f6fc-41c4-9ed0-be15e787887a","system_id":"levelo_inurba_marseille","lat":43.23964,"lon":5.36636,"is_reserved":false,"is_disabled":false,"rental_uris":{"android":"levelo://app?vid=2ee470a2-f6fc-41c4-9ed0-be15e787887a","ios":"levelo://app?vid=2ee470a2-f6fc-41c4-9ed0-be15e787887a"},"vehicle_type_id":"4","last_reported":1728072600,"current_range_meters":14000,"station_id":"ce4bhi12rcd13ifvqfp0","pricing_plan_id":"cebpf4jnsgd1na2vs0mg"},{"bike_id":"0e45a684-b6c0-4191-99be-0ab722eb4871","system_id":"levelo_inurba_marseille","lat":43.31267,"lon":5.40168,"is_reserved":false,"is_disabled":false,"rental_uris":{"android":"levelo://app?vid=0e45a684-b6c0-4191-99be-0ab722eb4871","ios":"levelo://app?vid=0e45a684-b6c0-4191-99be-0ab722eb4871"},"vehicle_type_id":"4","last_reported":1728072600,"current_range_meters":38400,"station_id":"ce4bh092rcd13ifvqd30","pricing_plan_id":"cebpf4jnsgd1na2vs0mg"},{"bike_id":"7556a3ec-2acf-4062-9163-4bbac5977bc3","system_id":"levelo_inurba_marseille","lat":43.31122,"lon":5.3776,"is_reserved":false,"is_disabled":false,"rental_uris":{"android":"levelo://app?vid=7556a3ec-2acf-4062-9163-4bbac5977bc3","ios":"levelo://app?vid=7556a3ec-2acf-4062-9163-4bbac5977bc3"},"vehicle_type_id":"4","last_reported":1728072600,"current_range_meters":39200,"station_id":"ce4bgt92rcd13ifvqcg0","pricing_plan_id":"cebpf4jnsgd1na2vs0mg"},{"bike_id":"e6b2df58-b4a0-4aec-933d-a62e42f34d34","system_id":"levelo_inurba_marseille","lat":43.337237,"lon":5.391979,"is_reserved":false,"is_disabled":false,"rental_uris":{"android":"levelo://app?vid=e6b2df58-b4a0-4aec-933d-a62e42f34d34","ios":"levelo://app?vid=e6b2df58-b4a0-4aec-933d-a62e42f34d34"},"vehicle_type_id":"4","last_reported":1728072600,"current_range_meters":17600,"station_id":"ce4bhr92rcd13ifvqhsg","pricing_plan_id":"cebpf4jnsgd1na2vs0mg"},{"bike_id":"445b3126-2656-47b3-82b8-be21a8d0e2fa","system_id":"levelo_inurba_marseille","lat":43.29805,"lon":5.40403,"is_reserved":false,"is_disabled":false,"rental_uris":{"android":"levelo://app?vid=445b3126-2656-47b3-82b8-be21a8d0e2fa","ios":"levelo://app?vid=445b3126-2656-47b3-82b8-be21a8d0e2fa"},"vehicle_type_id":"4","last_reported":1728072600,"current_range_meters":38800,"station_id":"ce4bh112rcd13ifvqd90","pricing_plan_id":"cebpf4jnsgd1na2vs0mg"},{"bike_id":"ab836cb4-e0bb-46b6-9e8f-e964ae7b24c0","system_id":"levelo_inurba_marseille","lat":43.30642,"lon":5.40104,"is_reserved":false,"is_disabled":false,"rental_uris":{"android":"levelo://app?vid=ab836cb4-e0bb-46b6-9e8f-e964ae7b24c0","ios":"levelo://app?vid=ab836cb4-e0bb-46b6-9e8f-e964ae7b24c0"},"vehicle_type_id":"4","last_reported":1728072600,"current_range_meters":30800,"station_id":"ce4bh112rcd13ifvqda0","pricing_plan_id":"cebpf4jnsgd1na2vs0mg"},{"bike_id":"d77938b7-ff1e-465c-a8b9-4b07085a5cc9","system_id":"levelo_inurba_marseille","lat":43.2307,"lon":5.35496,"is_reserved":false,"is_disabled":false,"rental_uris":{"android":"levelo://app?vid=d77938b7-ff1e-465c-a8b9-4b07085a5cc9","ios":"levelo://app?vid=d77938b7-ff1e-465c-a8b9-4b07085a5cc9"},"vehicle_type_id":"4","last_reported":1728072600,"current_range_meters":17600,"station_id":"cpo3342slgdg3j2ifvpg","pricing_plan_id":"cebpf4jnsgd1na2vs0mg"},{"bike_id":"852457a1-813f-46b8-bb13-232384e208e9","system_id":"levelo_inurba_marseille","lat":43.33763,"lon":5.37438,"is_reserved":false,"is_disabled":false,"rental_uris":{"android":"levelo://app?vid=852457a1-813f-46b8-bb13-232384e208e9","ios":"levelo://app?vid=852457a1-813f-46b8-bb13-232384e208e9"},"vehicle_type_id":"4","last_reported":1728072600,"current_range_meters":36800,"station_id":"","pricing_plan_id":"cebpf4jnsgd1na2vs0mg"},{"bike_id":"d039477b-084e-4144-ad4a-3dc6b03871ba","system_id":"levelo_inurba_marseille","lat":43.290363,"lon":5.375614,"is_reserved":false,"is_disabled":false,"rental_uris":{"android":"levelo://app?vid=d039477b-084e-4144-ad4a-3dc6b03871ba","ios":"levelo://app?vid=d039477b-084e-4144-ad4a-3dc6b03871ba"},"vehicle_type_id":"4","last_reported":1728072600,"current_range_meters":26800,"station_id":"ce4bh692rcd13ifvqe90","pricing_plan_id":"cebpf4jnsgd1na2vs0mg"},{"bike_id":"566a9cf0-f209-4c9f-9e1e-a43a024de395","system_id":"levelo_inurba_marseille","lat":43.27382,"lon":5.36264,"is_reserved":false,"is_disabled":false,"rental_uris":{"android":"levelo://app?vid=566a9cf0-f209-4c9f-9e1e-a43a024de395","ios":"levelo://app?vid=566a9cf0-f209-4c9f-9e1e-a43a024de395"},"vehicle_type_id":"4","last_reported":1728072600,"current_range_meters":24800,"station_id":"ce4bhbh2rcd13ifvqeo0","pricing_plan_id":"cebpf4jnsgd1na2vs0mg"},{"bike_id":"54d09a39-e79d-434c-8a05-a8f2660c6a94","system_id":"levelo_inurba_marseille","lat":43.299,"lon":5.43668,"is_reserved":false,"is_disabled":false,"rental_uris":{"android":"levelo://app?vid=54d09a39-e79d-434c-8a05-a8f2660c6a94","ios":"levelo://app?vid=54d09a39-e79d-434c-8a05-a8f2660c6a94"},"vehicle_type_id":"4","last_reported":1728072600,"current_range_meters":14800,"station_id":"ce4bhpp2rcd13ifvqhfg","pricing_plan_id":"cebpf4jnsgd1na2vs0mg"},{"bike_id":"4feb69cb-1c29-4b9d-9751-e5140721883e","system_id":"levelo_inurba_marseille","lat":43.29874,"lon":5.39652,"is_reserved":false,"is_disabled":false,"rental_uris":{"android":"levelo://app?vid=4feb69cb-1c29-4b9d-9751-e5140721883e","ios":"levelo://app?vid=4feb69cb-1c29-4b9d-9751-e5140721883e"},"vehicle_type_id":"4","last_reported":1728072600,"current_range_meters":38000,"station_id":"ce4bh0h2rcd13ifvqd50","pricing_plan_id":"cebpf4jnsgd1na2vs0mg"},{"bike_id":"6acf263d-6277-47a9-a98b-35b7f7dea564","system_id":"levelo_inurba_marseille","lat":43.32651,"lon":5.40998,"is_reserved":false,"is_disabled":false,"rental_uris":{"android":"levelo://app?vid=6acf263d-6277-47a9-a98b-35b7f7dea564","ios":"levelo://app?vid=6acf263d-6277-47a9-a98b-35b7f7dea564"},"vehicle_type_id":"4","last_reported":1728072600,"current_range_meters":13600,"station_id":"ce4bhpp2rcd13ifvqhgg","pricing_plan_id":"cebpf4jnsgd1na2vs0mg"},{"bike_id":"967c0fd4-5f64-4043-a558-03c32ef88558","system_id":"levelo_inurba_marseille","lat":43.26682,"lon":5.38265,"is_reserved":false,"is_disabled":false,"rental_uris":{"android":"levelo://app?vid=967c0fd4-5f64-4043-a558-03c32ef88558","ios":"levelo://app?vid=967c0fd4-5f64-4043-a558-03c32ef88558"},"vehicle_type_id":"4","last_reported":1728072600,"current_range_meters":32000,"station_id":"ce4bhg92rcd13ifvqf90","pricing_plan_id":"cebpf4jnsgd1na2vs0mg"},{"bike_id":"100326a3-91ba-4a23-bde7-ae389c763c24","system_id":"levelo_inurba_marseille","lat":43.28073,"lon":5.39664,"is_reserved":false,"is_disabled":false,"rental_uris":{"android":"levelo://app?vid=100326a3-91ba-4a23-bde7-ae389c763c24","ios":"levelo://app?vid=100326a3-91ba-4a23-bde7-ae389c763c24"},"vehicle_type_id":"4","last_reported":1728072600,"current_range_meters":7200,"station_id":"ce4bho12rcd13ifvqh2g","pricing_plan_id":"cebpf4jnsgd1na2vs0mg"},{"bike_id":"a2757abc-4224-428a-a673-690954ea5d2d","system_id":"levelo_inurba_marseille","lat":43.25006,"lon":5.38197,"is_reserved":false,"is_disabled":false,"rental_uris":{"android":"levelo://app?vid=a2757abc-4224-428a-a673-690954ea5d2d","ios":"levelo://app?vid=a2757abc-4224-428a-a673-690954ea5d2d"},"vehicle_type_id":"4","last_reported":1728072600,"current_range_meters":24800,"station_id":"","pricing_plan_id":"cebpf4jnsgd1na2vs0mg"},{"bike_id":"49462b5e-5147-4afc-8565-eb9ead5b9476","system_id":"levelo_inurba_marseille","lat":43.29534,"lon":5.37504,"is_reserved":false,"is_disabled":false,"rental_uris":{"android":"levelo://app?vid=49462b5e-5147-4afc-8565-eb9ead5b9476","ios":"levelo://app?vid=49462b5e-5147-4afc-8565-eb9ead5b9476"},"vehicle_type_id":"4","last_reported":1728072600,"current_range_meters":38800,"station_id":"ce4bgkp2rcd13ifvqbmg","pricing_plan_id":"cebpf4jnsgd1na2vs0mg"},{"bike_id":"3ab35772-ab98-4e0e-bb77-b34f7802889b","system_id":"levelo_inurba_marseille","lat":43.25118,"lon":5.40319,"is_reserved":false,"is_disabled":false,"rental_uris":{"android":"levelo://app?vid=3ab35772-ab98-4e0e-bb77-b34f7802889b","ios":"levelo://app?vid=3ab35772-ab98-4e0e-bb77-b34f7802889b"},"vehicle_type_id":"4","last_reported":1728072600,"current_range_meters":31200,"station_id":"ce4bhlh2rcd13ifvqgig","pricing_plan_id":"cebpf4jnsgd1na2vs0mg"},{"bike_id":"a4721277-157e-42b9-87f0-290a3d401919","system_id":"levelo_inurba_marseille","lat":43.2594,"lon":5.40904,"is_reserved":false,"is_disabled":false,"rental_uris":{"android":"levelo://app?vid=a4721277-157e-42b9-87f0-290a3d401919","ios":"levelo://app?vid=a4721277-157e-42b9-87f0-290a3d401919"},"vehicle_type_id":"4","last_reported":1728072600,"current_range_meters":38800,"station_id":"ce4bhm92rcd13ifvqglg","pricing_plan_id":"cebpf4jnsgd1na2vs0mg"},{"bike_id":"11bd8eff-131d-4cb4-aef3-d69449464264","system_id":"levelo_inurba_marseille","lat":43.29787,"lon":5.3934,"is_reserved":false,"is_disabled":false,"rental_uris":{"android":"levelo://app?vid=11bd8eff-131d-4cb4-aef3-d69449464264","ios":"levelo://app?vid=11bd8eff-131d-4cb4-aef3-d69449464264"},"vehicle_type_id":"4","last_reported":1728072600,"current_range_meters":8800,"station_id":"chh1huq6cuj3fo74tm60","pricing_plan_id":"cebpf4jnsgd1na2vs0mg"},{"bike_id":"c6e6f6cf-c9b2-4d89-a487-0cded3e2cdd6","system_id":"levelo_inurba_marseille","lat":43.26681,"lon":5.38278,"is_reserved":false,"is_disabled":false,"rental_uris":{"android":"levelo://app?vid=c6e6f6cf-c9b2-4d89-a487-0cded3e2cdd6","ios":"levelo://app?vid=c6e6f6cf-c9b2-4d89-a487-0cded3e2cdd6"},"vehicle_type_id":"4","last_reported":1728072600,"current_range_meters":28400,"station_id":"ce4bhg92rcd13ifvqf90","pricing_plan_id":"cebpf4jnsgd1na2vs0mg"},{"bike_id":"2b308a79-ebea-47bc-9d28-3ef9dfaf0c12","system_id":"levelo_inurba_marseille","lat":43.30904,"lon":5.36852,"is_reserved":false,"is_disabled":false,"rental_uris":{"android":"levelo://app?vid=2b308a79-ebea-47bc-9d28-3ef9dfaf0c12","ios":"levelo://app?vid=2b308a79-ebea-47bc-9d28-3ef9dfaf0c12"},"vehicle_type_id":"4","last_reported":1728072600,"current_range_meters":38800,"station_id":"ce4bgn92rcd13ifvqbvg","pricing_plan_id":"cebpf4jnsgd1na2vs0mg"},{"bike_id":"bf214ee5-bcc3-48ed-b2c5-a945b0468078","system_id":"levelo_inurba_marseille","lat":43.24647,"lon":5.38891,"is_reserved":false,"is_disabled":false,"rental_uris":{"android":"levelo://app?vid=bf214ee5-bcc3-48ed-b2c5-a945b0468078","ios":"levelo://app?vid=bf214ee5-bcc3-48ed-b2c5-a945b0468078"},"vehicle_type_id":"4","last_reported":1728072600,"current_range_meters":8000,"station_id":"ce4bhg12rcd13ifvqf60","pricing_plan_id":"cebpf4jnsgd1na2vs0mg"},{"bike_id":"e7b10fe3-c027-49ef-a3fa-74cc42ac4c4c","system_id":"levelo_inurba_marseille","lat":43.28411,"lon":5.37512,"is_reserved":false,"is_disabled":false,"rental_uris":{"android":"levelo://app?vid=e7b10fe3-c027-49ef-a3fa-74cc42ac4c4c","ios":"levelo://app?vid=e7b10fe3-c027-49ef-a3fa-74cc42ac4c4c"},"vehicle_type_id":"4","last_reported":1728072600,"current_range_meters":25200,"station_id":"ce4bh412rcd13ifvqds0","pricing_plan_id":"cebpf4jnsgd1na2vs0mg"},{"bike_id":"6102bacc-0bb3-4c79-854a-2d4ec81b21c1","system_id":"levelo_inurba_marseille","lat":43.31719,"lon":5.42407,"is_reserved":false,"is_disabled":false,"rental_uris":{"android":"levelo://app?vid=6102bacc-0bb3-4c79-854a-2d4ec81b21c1","ios":"levelo://app?vid=6102bacc-0bb3-4c79-854a-2d4ec81b21c1"},"vehicle_type_id":"4","last_reported":1728072600,"current_range_meters":39200,"station_id":"ce4bhp92rcd13ifvqhbg","pricing_plan_id":"cebpf4jnsgd1na2vs0mg"},{"bike_id":"affbf6bf-55f3-40a1-aa86-4246658ea5b2","system_id":"levelo_inurba_marseille","lat":43.29826,"lon":5.40406,"is_reserved":false,"is_disabled":false,"rental_uris":{"android":"levelo://app?vid=affbf6bf-55f3-40a1-aa86-4246658ea5b2","ios":"levelo://app?vid=affbf6bf-55f3-40a1-aa86-4246658ea5b2"},"vehicle_type_id":"4","last_reported":1728072600,"current_range_meters":38800,"station_id":"ce4bh112rcd13ifvqd90","pricing_plan_id":"cebpf4jnsgd1na2vs0mg"},{"bike_id":"6f9ea692-b854-4466-8783-f86828c11080","system_id":"levelo_inurba_marseille","lat":43.32535,"lon":5.41462,"is_reserved":false,"is_disabled":false,"rental_uris":{"android":"levelo://app?vid=6f9ea692-b854-4466-8783-f86828c11080","ios":"levelo://app?vid=6f9ea692-b854-4466-8783-f86828c11080"},"vehicle_type_id":"4","last_reported":1728072600,"current_range_meters":38800,"station_id":"ce4bhq12rcd13ifvqhhg","pricing_plan_id":"cebpf4jnsgd1na2vs0mg"},{"bike_id":"cd0dd400-29ce-421b-a4b6-3a3deaf9c90c","system_id":"levelo_inurba_marseille","lat":43.27495,"lon":5.42449,"is_reserved":false,"is_disabled":false,"rental_uris":{"android":"levelo://app?vid=cd0dd400-29ce-421b-a4b6-3a3deaf9c90c","ios":"levelo://app?vid=cd0dd400-29ce-421b-a4b6-3a3deaf9c90c"},"vehicle_type_id":"4","last_reported":1728072600,"current_range_meters":5600,"station_id":"ce4bhn92rcd13ifvqgrg","pricing_plan_id":"cebpf4jnsgd1na2vs0mg"},{"bike_id":"5cc6b9f0-131e-4463-856b-007d56367ae1","system_id":"levelo_inurba_marseille","lat":43.28153,"lon":5.42642,"is_reserved":false,"is_disabled":false,"rental_uris":{"android":"levelo://app?vid=5cc6b9f0-131e-4463-856b-007d56367ae1","ios":"levelo://app?vid=5cc6b9f0-131e-4463-856b-007d56367ae1"},"vehicle_type_id":"4","last_reported":1728072600,"current_range_meters":35200,"station_id":"ce4bhnh2rcd13ifvqgug","pricing_plan_id":"cebpf4jnsgd1na2vs0mg"},{"bike_id":"e76dc3b1-b555-4d34-b606-b7a0364700bd","system_id":"levelo_inurba_marseille","lat":43.29553,"lon":5.42288,"is_reserved":false,"is_disabled":false,"rental_uris":{"android":"levelo://app?vid=e76dc3b1-b555-4d34-b606-b7a0364700bd","ios":"levelo://app?vid=e76dc3b1-b555-4d34-b606-b7a0364700bd"},"vehicle_type_id":"4","last_reported":1728072600,"current_range_meters":35600,"station_id":"ce4bhph2rcd13ifvqhdg","pricing_plan_id":"cebpf4jnsgd1na2vs0mg"},{"bike_id":"f4167552-90e2-4ada-99ab-287c0e8e2745","system_id":"levelo_inurba_marseille","lat":43.29563,"lon":5.39976,"is_reserved":false,"is_disabled":false,"rental_uris":{"android":"levelo://app?vid=f4167552-90e2-4ada-99ab-287c0e8e2745","ios":"levelo://app?vid=f4167552-90e2-4ada-99ab-287c0e8e2745"},"vehicle_type_id":"4","last_reported":1728072600,"current_range_meters":8000,"station_id":"ce4bh312rcd13ifvqdj0","pricing_plan_id":"cebpf4jnsgd1na2vs0mg"},{"bike_id":"d2a7da54-4950-4642-b30f-bfd1a73ed501","system_id":"levelo_inurba_marseille","lat":43.2953,"lon":5.38555,"is_reserved":false,"is_disabled":false,"rental_uris":{"android":"levelo://app?vid=d2a7da54-4950-4642-b30f-bfd1a73ed501","ios":"levelo://app?vid=d2a7da54-4950-4642-b30f-bfd1a73ed501"},"vehicle_type_id":"4","last_reported":1728072600,"current_range_meters":30000,"station_id":"ce4bgih2rcd13ifvqba0","pricing_plan_id":"cebpf4jnsgd1na2vs0mg"},{"bike_id":"0bc4da86-c871-4c42-9afa-cbea77a620ca","system_id":"levelo_inurba_marseille","lat":43.281464,"lon":5.368991,"is_reserved":false,"is_disabled":false,"rental_uris":{"android":"levelo://app?vid=0bc4da86-c871-4c42-9afa-cbea77a620ca","ios":"levelo://app?vid=0bc4da86-c871-4c42-9afa-cbea77a620ca"},"vehicle_type_id":"4","last_reported":1728072600,"current_range_meters":33600,"station_id":"ce4bha12rcd13ifvqef0","pricing_plan_id":"cebpf4jnsgd1na2vs0mg"},{"bike_id":"e08c062f-61a2-493a-875d-6e296e2965d6","system_id":"levelo_inurba_marseille","lat":43.33754,"lon":5.37456,"is_reserved":false,"is_disabled":false,"rental_uris":{"android":"levelo://app?vid=e08c062f-61a2-493a-875d-6e296e2965d6","ios":"levelo://app?vid=e08c062f-61a2-493a-875d-6e296e2965d6"},"vehicle_type_id":"4","last_reported":1728072600,"current_range_meters":32800,"station_id":"","pricing_plan_id":"cebpf4jnsgd1na2vs0mg"},{"bike_id":"767b5572-7a96-45fd-9ea6-1b05056115f2","system_id":"levelo_inurba_marseille","lat":43.33023,"lon":5.39037,"is_reserved":false,"is_disabled":false,"rental_uris":{"android":"levelo://app?vid=767b5572-7a96-45fd-9ea6-1b05056115f2","ios":"levelo://app?vid=767b5572-7a96-45fd-9ea6-1b05056115f2"},"vehicle_type_id":"4","last_reported":1728072600,"current_range_meters":35600,"station_id":"ce4bhr92rcd13ifvqhrg","pricing_plan_id":"cebpf4jnsgd1na2vs0mg"},{"bike_id":"b871d3e1-c5d5-4d1f-8267-43a325f41cf2","system_id":"levelo_inurba_marseille","lat":43.25085,"lon":5.39525,"is_reserved":false,"is_disabled":false,"rental_uris":{"android":"levelo://app?vid=b871d3e1-c5d5-4d1f-8267-43a325f41cf2","ios":"levelo://app?vid=b871d3e1-c5d5-4d1f-8267-43a325f41cf2"},"vehicle_type_id":"4","last_reported":1728072600,"current_range_meters":38800,"station_id":"ce4bhm12rcd13ifvqgkg","pricing_plan_id":"cebpf4jnsgd1na2vs0mg"},{"bike_id":"74f1008a-2df1-4e28-a788-b63e1b328743","system_id":"levelo_inurba_marseille","lat":43.2958,"lon":5.36749,"is_reserved":false,"is_disabled":false,"rental_uris":{"android":"levelo://app?vid=74f1008a-2df1-4e28-a788-b63e1b328743","ios":"levelo://app?vid=74f1008a-2df1-4e28-a788-b63e1b328743"},"vehicle_type_id":"4","last_reported":1728072600,"current_range_meters":36400,"station_id":"ce4bgph2rcd13ifvqc2g","pricing_plan_id":"cebpf4jnsgd1na2vs0mg"},{"bike_id":"fea49b89-1414-4f4f-9ca7-842214a26870","system_id":"levelo_inurba_marseille","lat":43.32285,"lon":5.38276,"is_reserved":false,"is_disabled":false,"rental_uris":{"android":"levelo://app?vid=fea49b89-1414-4f4f-9ca7-842214a26870","ios":"levelo://app?vid=fea49b89-1414-4f4f-9ca7-842214a26870"},"vehicle_type_id":"4","last_reported":1728072600,"current_range_meters":6800,"station_id":"ce4bhr12rcd13ifvqhqg","pricing_plan_id":"cebpf4jnsgd1na2vs0mg"},{"bike_id":"fcfb42de-cde1-4ec3-8e89-f197fdfcc1a8","system_id":"levelo_inurba_marseille","lat":43.23959,"lon":5.36641,"is_reserved":false,"is_disabled":false,"rental_uris":{"android":"levelo://app?vid=fcfb42de-cde1-4ec3-8e89-f197fdfcc1a8","ios":"levelo://app?vid=fcfb42de-cde1-4ec3-8e89-f197fdfcc1a8"},"vehicle_type_id":"4","last_reported":1728072600,"current_range_meters":22000,"station_id":"ce4bhi12rcd13ifvqfp0","pricing_plan_id":"cebpf4jnsgd1na2vs0mg"},{"bike_id":"633d2344-d99e-4174-b6fb-920c3267e701","system_id":"levelo_inurba_marseille","lat":43.33724,"lon":5.39184,"is_reserved":false,"is_disabled":false,"rental_uris":{"android":"levelo://app?vid=633d2344-d99e-4174-b6fb-920c3267e701","ios":"levelo://app?vid=633d2344-d99e-4174-b6fb-920c3267e701"},"vehicle_type_id":"4","last_reported":1728072600,"current_range_meters":27600,"station_id":"ce4bhr92rcd13ifvqhsg","pricing_plan_id":"cebpf4jnsgd1na2vs0mg"},{"bike_id":"1430cd6d-6908-47a1-b334-5c4a178bcdf7","system_id":"levelo_inurba_marseille","lat":43.25115,"lon":5.40319,"is_reserved":false,"is_disabled":false,"rental_uris":{"android":"levelo://app?vid=1430cd6d-6908-47a1-b334-5c4a178bcdf7","ios":"levelo://app?vid=1430cd6d-6908-47a1-b334-5c4a178bcdf7"},"vehicle_type_id":"4","last_reported":1728072600,"current_range_meters":28000,"station_id":"ce4bhlh2rcd13ifvqgig","pricing_plan_id":"cebpf4jnsgd1na2vs0mg"},{"bike_id":"fd872ba7-9877-4e67-9269-d8995abba644","system_id":"levelo_inurba_marseille","lat":43.22936,"lon":5.35378,"is_reserved":false,"is_disabled":false,"rental_uris":{"android":"levelo://app?vid=fd872ba7-9877-4e67-9269-d8995abba644","ios":"levelo://app?vid=fd872ba7-9877-4e67-9269-d8995abba644"},"vehicle_type_id":"4","last_reported":1728072600,"current_range_meters":18800,"station_id":"cpo3532slgdg3j2ikp40","pricing_plan_id":"cebpf4jnsgd1na2vs0mg"},{"bike_id":"fe069c0c-ab7e-4066-b369-24f70f595c37","system_id":"levelo_inurba_marseille","lat":43.32482,"lon":5.36565,"is_reserved":false,"is_disabled":false,"rental_uris":{"android":"levelo://app?vid=fe069c0c-ab7e-4066-b369-24f70f595c37","ios":"levelo://app?vid=fe069c0c-ab7e-4066-b369-24f70f595c37"},"vehicle_type_id":"4","last_reported":1728072600,"current_range_meters":16400,"station_id":"ce4bhs12rcd13ifvqhvg","pricing_plan_id":"cebpf4jnsgd1na2vs0mg"},{"bike_id":"1efab8ac-404f-4187-b5bb-736f509ea539","system_id":"levelo_inurba_marseille","lat":43.29415,"lon":5.38612,"is_reserved":false,"is_disabled":false,"rental_uris":{"android":"levelo://app?vid=1efab8ac-404f-4187-b5bb-736f509ea539","ios":"levelo://app?vid=1efab8ac-404f-4187-b5bb-736f509ea539"},"vehicle_type_id":"4","last_reported":1728072600,"current_range_meters":28000,"station_id":"ce4bh2h2rcd13ifvqdh0","pricing_plan_id":"cebpf4jnsgd1na2vs0mg"},{"bike_id":"ab441782-6e8c-4393-9223-0ec9003287fc","system_id":"levelo_inurba_marseille","lat":43.29541,"lon":5.38547,"is_reserved":false,"is_disabled":false,"rental_uris":{"android":"levelo://app?vid=ab441782-6e8c-4393-9223-0ec9003287fc","ios":"levelo://app?vid=ab441782-6e8c-4393-9223-0ec9003287fc"},"vehicle_type_id":"4","last_reported":1728072600,"current_range_meters":17600,"station_id":"ce4bgih2rcd13ifvqba0","pricing_plan_id":"cebpf4jnsgd1na2vs0mg"},{"bike_id":"32329acd-86ce-4481-a1a0-d2828f8cef2d","system_id":"levelo_inurba_marseille","lat":43.26937,"lon":5.40254,"is_reserved":false,"is_disabled":false,"rental_uris":{"android":"levelo://app?vid=32329acd-86ce-4481-a1a0-d2828f8cef2d","ios":"levelo://app?vid=32329acd-86ce-4481-a1a0-d2828f8cef2d"},"vehicle_type_id":"4","last_reported":1728072600,"current_range_meters":3200,"station_id":"cjm6bp8fraef2m0cb0m0","pricing_plan_id":"cebpf4jnsgd1na2vs0mg"},{"bike_id":"02287b3e-a2e5-4db9-badc-4f46622493bb","system_id":"levelo_inurba_marseille","lat":43.27073,"lon":5.4228,"is_reserved":false,"is_disabled":false,"rental_uris":{"android":"levelo://app?vid=02287b3e-a2e5-4db9-badc-4f46622493bb","ios":"levelo://app?vid=02287b3e-a2e5-4db9-badc-4f46622493bb"},"vehicle_type_id":"4","last_reported":1728072600,"current_range_meters":32000,"station_id":"ce4bhk92rcd13ifvqgb0","pricing_plan_id":"cebpf4jnsgd1na2vs0mg"},{"bike_id":"1d04d4e5-7aec-4c8b-a316-948428337fed","system_id":"levelo_inurba_marseille","lat":43.303038,"lon":5.368961,"is_reserved":false,"is_disabled":false,"rental_uris":{"android":"levelo://app?vid=1d04d4e5-7aec-4c8b-a316-948428337fed","ios":"levelo://app?vid=1d04d4e5-7aec-4c8b-a316-948428337fed"},"vehicle_type_id":"4","last_reported":1728072600,"current_range_meters":38800,"station_id":"ce4bgqh2rcd13ifvqc5g","pricing_plan_id":"cebpf4jnsgd1na2vs0mg"},{"bike_id":"a135f049-9c2b-42f9-9f38-8395a679f178","system_id":"levelo_inurba_marseille","lat":43.29099,"lon":5.38133,"is_reserved":false,"is_disabled":false,"rental_uris":{"android":"levelo://app?vid=a135f049-9c2b-42f9-9f38-8395a679f178","ios":"levelo://app?vid=a135f049-9c2b-42f9-9f38-8395a679f178"},"vehicle_type_id":"4","last_reported":1728072600,"current_range_meters":38800,"station_id":"ce4bh512rcd13ifvqe2g","pricing_plan_id":"cebpf4jnsgd1na2vs0mg"},{"bike_id":"796f7bf9-e0c7-4ea3-b96f-9594e19b892e","system_id":"levelo_inurba_marseille","lat":43.24648,"lon":5.38893,"is_reserved":false,"is_disabled":false,"rental_uris":{"android":"levelo://app?vid=796f7bf9-e0c7-4ea3-b96f-9594e19b892e","ios":"levelo://app?vid=796f7bf9-e0c7-4ea3-b96f-9594e19b892e"},"vehicle_type_id":"4","last_reported":1728072600,"current_range_meters":38800,"station_id":"ce4bhg12rcd13ifvqf60","pricing_plan_id":"cebpf4jnsgd1na2vs0mg"},{"bike_id":"e04e5431-207d-4263-8b72-762e4c4878e5","system_id":"levelo_inurba_marseille","lat":43.23059,"lon":5.35492,"is_reserved":false,"is_disabled":false,"rental_uris":{"android":"levelo://app?vid=e04e5431-207d-4263-8b72-762e4c4878e5","ios":"levelo://app?vid=e04e5431-207d-4263-8b72-762e4c4878e5"},"vehicle_type_id":"4","last_reported":1728072600,"current_range_meters":36000,"station_id":"cpo3342slgdg3j2ifvpg","pricing_plan_id":"cebpf4jnsgd1na2vs0mg"},{"bike_id":"1a5410ba-9fbb-4266-a0fe-2364c4d5e366","system_id":"levelo_inurba_marseille","lat":43.31358,"lon":5.36715,"is_reserved":false,"is_disabled":false,"rental_uris":{"android":"levelo://app?vid=1a5410ba-9fbb-4266-a0fe-2364c4d5e366","ios":"levelo://app?vid=1a5410ba-9fbb-4266-a0fe-2364c4d5e366"},"vehicle_type_id":"4","last_reported":1728072600,"current_range_meters":20000,"station_id":"ce4bgr92rcd13ifvqc6g","pricing_plan_id":"cebpf4jnsgd1na2vs0mg"},{"bike_id":"50e6aeb8-7e25-4c09-9781-24c9f5d23dff","system_id":"levelo_inurba_marseille","lat":43.33757,"lon":5.37448,"is_reserved":false,"is_disabled":false,"rental_uris":{"android":"levelo://app?vid=50e6aeb8-7e25-4c09-9781-24c9f5d23dff","ios":"levelo://app?vid=50e6aeb8-7e25-4c09-9781-24c9f5d23dff"},"vehicle_type_id":"4","last_reported":1728072600,"current_range_meters":30800,"station_id":"","pricing_plan_id":"cebpf4jnsgd1na2vs0mg"},{"bike_id":"862c64b5-e4b6-4bf4-9a2e-4b28cae36b53","system_id":"levelo_inurba_marseille","lat":43.31364,"lon":5.38489,"is_reserved":false,"is_disabled":false,"rental_uris":{"android":"levelo://app?vid=862c64b5-e4b6-4bf4-9a2e-4b28cae36b53","ios":"levelo://app?vid=862c64b5-e4b6-4bf4-9a2e-4b28cae36b53"},"vehicle_type_id":"4","last_reported":1728072600,"current_range_meters":8800,"station_id":"ce4bgt92rcd13ifvqcf0","pricing_plan_id":"cebpf4jnsgd1na2vs0mg"},{"bike_id":"db6d3114-5e27-4869-bbbf-86348f43961f","system_id":"levelo_inurba_marseille","lat":43.29559,"lon":5.42288,"is_reserved":false,"is_disabled":false,"rental_uris":{"android":"levelo://app?vid=db6d3114-5e27-4869-bbbf-86348f43961f","ios":"levelo://app?vid=db6d3114-5e27-4869-bbbf-86348f43961f"},"vehicle_type_id":"4","last_reported":1728072600,"current_range_meters":6800,"station_id":"ce4bhph2rcd13ifvqhdg","pricing_plan_id":"cebpf4jnsgd1na2vs0mg"},{"bike_id":"a1f7ae0e-09cb-4b4c-9297-ebbba3662b49","system_id":"levelo_inurba_marseille","lat":43.2954,"lon":5.38548,"is_reserved":false,"is_disabled":false,"rental_uris":{"android":"levelo://app?vid=a1f7ae0e-09cb-4b4c-9297-ebbba3662b49","ios":"levelo://app?vid=a1f7ae0e-09cb-4b4c-9297-ebbba3662b49"},"vehicle_type_id":"4","last_reported":1728072600,"current_range_meters":6800,"station_id":"ce4bgih2rcd13ifvqba0","pricing_plan_id":"cebpf4jnsgd1na2vs0mg"},{"bike_id":"9845b0f3-24a9-4d2c-8f55-379ededb3afa","system_id":"levelo_inurba_marseille","lat":43.29414,"lon":5.38619,"is_reserved":false,"is_disabled":false,"rental_uris":{"android":"levelo://app?vid=9845b0f3-24a9-4d2c-8f55-379ededb3afa","ios":"levelo://app?vid=9845b0f3-24a9-4d2c-8f55-379ededb3afa"},"vehicle_type_id":"4","last_reported":1728072600,"current_range_meters":30000,"station_id":"ce4bh2h2rcd13ifvqdh0","pricing_plan_id":"cebpf4jnsgd1na2vs0mg"},{"bike_id":"75443178-b983-4bac-a2f5-0e9fc0797029","system_id":"levelo_inurba_marseille","lat":43.28364,"lon":5.38636,"is_reserved":false,"is_disabled":false,"rental_uris":{"android":"levelo://app?vid=75443178-b983-4bac-a2f5-0e9fc0797029","ios":"levelo://app?vid=75443178-b983-4bac-a2f5-0e9fc0797029"},"vehicle_type_id":"4","last_reported":1728072600,"current_range_meters":5600,"station_id":"ce4bh492rcd13ifvqdvg","pricing_plan_id":"cebpf4jnsgd1na2vs0mg"},{"bike_id":"dd8af227-7efe-455f-9239-378f0f66b55c","system_id":"levelo_inurba_marseille","lat":43.2953,"lon":5.38539,"is_reserved":false,"is_disabled":false,"rental_uris":{"android":"levelo://app?vid=dd8af227-7efe-455f-9239-378f0f66b55c","ios":"levelo://app?vid=dd8af227-7efe-455f-9239-378f0f66b55c"},"vehicle_type_id":"4","last_reported":1728072600,"current_range_meters":6000,"station_id":"ce4bgih2rcd13ifvqba0","pricing_plan_id":"cebpf4jnsgd1na2vs0mg"},{"bike_id":"5e1711f2-b69a-4519-a1a7-4df70bf22665","system_id":"levelo_inurba_marseille","lat":43.29537,"lon":5.3854,"is_reserved":false,"is_disabled":false,"rental_uris":{"android":"levelo://app?vid=5e1711f2-b69a-4519-a1a7-4df70bf22665","ios":"levelo://app?vid=5e1711f2-b69a-4519-a1a7-4df70bf22665"},"vehicle_type_id":"4","last_reported":1728072600,"current_range_meters":16000,"station_id":"ce4bgih2rcd13ifvqba0","pricing_plan_id":"cebpf4jnsgd1na2vs0mg"},{"bike_id":"b584844b-e824-414f-84f1-452bb5be4b4d","system_id":"levelo_inurba_marseille","lat":43.28186,"lon":5.385882,"is_reserved":false,"is_disabled":false,"rental_uris":{"android":"levelo://app?vid=b584844b-e824-414f-84f1-452bb5be4b4d","ios":"levelo://app?vid=b584844b-e824-414f-84f1-452bb5be4b4d"},"vehicle_type_id":"4","last_reported":1728072600,"current_range_meters":12000,"station_id":"ce4bhgp2rcd13ifvqfe0","pricing_plan_id":"cebpf4jnsgd1na2vs0mg"},{"bike_id":"89ac448c-cfa9-410b-a8d8-511f903f5091","system_id":"levelo_inurba_marseille","lat":43.30441,"lon":5.39718,"is_reserved":false,"is_disabled":false,"rental_uris":{"android":"levelo://app?vid=89ac448c-cfa9-410b-a8d8-511f903f5091","ios":"levelo://app?vid=89ac448c-cfa9-410b-a8d8-511f903f5091"},"vehicle_type_id":"4","last_reported":1728072600,"current_range_meters":3600,"station_id":"ce4bh092rcd13ifvqd20","pricing_plan_id":"cebpf4jnsgd1na2vs0mg"},{"bike_id":"492bceb0-ddf5-4620-bc5a-53e0fe3b8125","system_id":"levelo_inurba_marseille","lat":43.29615,"lon":5.37734,"is_reserved":false,"is_disabled":false,"rental_uris":{"android":"levelo://app?vid=492bceb0-ddf5-4620-bc5a-53e0fe3b8125","ios":"levelo://app?vid=492bceb0-ddf5-4620-bc5a-53e0fe3b8125"},"vehicle_type_id":"4","last_reported":1728072600,"current_range_meters":32800,"station_id":"ce4bgi92rcd13ifvqb90","pricing_plan_id":"cebpf4jnsgd1na2vs0mg"},{"bike_id":"c0dda05b-d0d4-4cdd-8d83-d15aa9dc5e91","system_id":"levelo_inurba_marseille","lat":43.29571,"lon":5.3996,"is_reserved":false,"is_disabled":false,"rental_uris":{"android":"levelo://app?vid=c0dda05b-d0d4-4cdd-8d83-d15aa9dc5e91","ios":"levelo://app?vid=c0dda05b-d0d4-4cdd-8d83-d15aa9dc5e91"},"vehicle_type_id":"4","last_reported":1728072600,"current_range_meters":19600,"station_id":"ce4bh312rcd13ifvqdj0","pricing_plan_id":"cebpf4jnsgd1na2vs0mg"},{"bike_id":"6b9d3ecf-bc0a-4fb2-a128-558d9eb67471","system_id":"levelo_inurba_marseille","lat":43.2678,"lon":5.39421,"is_reserved":false,"is_disabled":false,"rental_uris":{"android":"levelo://app?vid=6b9d3ecf-bc0a-4fb2-a128-558d9eb67471","ios":"levelo://app?vid=6b9d3ecf-bc0a-4fb2-a128-558d9eb67471"},"vehicle_type_id":"4","last_reported":1728072600,"current_range_meters":32400,"station_id":"ce4bhh12rcd13ifvqfg0","pricing_plan_id":"cebpf4jnsgd1na2vs0mg"},{"bike_id":"4aafc00b-60e8-4338-b8bb-5c0857c8fb75","system_id":"levelo_inurba_marseille","lat":43.29804,"lon":5.38122,"is_reserved":false,"is_disabled":false,"rental_uris":{"android":"levelo://app?vid=4aafc00b-60e8-4338-b8bb-5c0857c8fb75","ios":"levelo://app?vid=4aafc00b-60e8-4338-b8bb-5c0857c8fb75"},"vehicle_type_id":"4","last_reported":1728072600,"current_range_meters":14400,"station_id":"ce4bgip2rcd13ifvqbb0","pricing_plan_id":"cebpf4jnsgd1na2vs0mg"},{"bike_id":"79a5b585-7a89-44b0-bf6f-5fb8747224f1","system_id":"levelo_inurba_marseille","lat":43.27994,"lon":5.41664,"is_reserved":false,"is_disabled":false,"rental_uris":{"android":"levelo://app?vid=79a5b585-7a89-44b0-bf6f-5fb8747224f1","ios":"levelo://app?vid=79a5b585-7a89-44b0-bf6f-5fb8747224f1"},"vehicle_type_id":"4","last_reported":1728072600,"current_range_meters":25200,"station_id":"ce4bho12rcd13ifvqh1g","pricing_plan_id":"cebpf4jnsgd1na2vs0mg"},{"bike_id":"3718708b-3a0d-4630-add0-02e5351b3007","system_id":"levelo_inurba_marseille","lat":43.29787,"lon":5.39342,"is_reserved":false,"is_disabled":false,"rental_uris":{"android":"levelo://app?vid=3718708b-3a0d-4630-add0-02e5351b3007","ios":"levelo://app?vid=3718708b-3a0d-4630-add0-02e5351b3007"},"vehicle_type_id":"4","last_reported":1728072600,"current_range_meters":35200,"station_id":"chh1huq6cuj3fo74tm60","pricing_plan_id":"cebpf4jnsgd1na2vs0mg"},{"bike_id":"bb5f5452-4b9b-417d-b148-b396a874f3d9","system_id":"levelo_inurba_marseille","lat":43.33745,"lon":5.37449,"is_reserved":false,"is_disabled":false,"rental_uris":{"android":"levelo://app?vid=bb5f5452-4b9b-417d-b148-b396a874f3d9","ios":"levelo://app?vid=bb5f5452-4b9b-417d-b148-b396a874f3d9"},"vehicle_type_id":"4","last_reported":1728072600,"current_range_meters":35600,"station_id":"","pricing_plan_id":"cebpf4jnsgd1na2vs0mg"},{"bike_id":"3843d70f-2ba2-46c8-893c-77d4c227ea9d","system_id":"levelo_inurba_marseille","lat":43.26552,"lon":5.3729,"is_reserved":false,"is_disabled":false,"rental_uris":{"android":"levelo://app?vid=3843d70f-2ba2-46c8-893c-77d4c227ea9d","ios":"levelo://app?vid=3843d70f-2ba2-46c8-893c-77d4c227ea9d"},"vehicle_type_id":"4","last_reported":1728072600,"current_range_meters":38800,"station_id":"ce4bhg12rcd13ifvqf70","pricing_plan_id":"cebpf4jnsgd1na2vs0mg"},{"bike_id":"d7a0298f-5c2b-438d-ab05-5d6a7ac83160","system_id":"levelo_inurba_marseille","lat":43.30804,"lon":5.43527,"is_reserved":false,"is_disabled":false,"rental_uris":{"android":"levelo://app?vid=d7a0298f-5c2b-438d-ab05-5d6a7ac83160","ios":"levelo://app?vid=d7a0298f-5c2b-438d-ab05-5d6a7ac83160"},"vehicle_type_id":"4","last_reported":1728072600,"current_range_meters":38800,"station_id":"ce4bhph2rcd13ifvqheg","pricing_plan_id":"cebpf4jnsgd1na2vs0mg"},{"bike_id":"20e605e1-f023-4b59-b3e5-1a38152c69fd","system_id":"levelo_inurba_marseille","lat":43.23188,"lon":5.39987,"is_reserved":false,"is_disabled":false,"rental_uris":{"android":"levelo://app?vid=20e605e1-f023-4b59-b3e5-1a38152c69fd","ios":"levelo://app?vid=20e605e1-f023-4b59-b3e5-1a38152c69fd"},"vehicle_type_id":"4","last_reported":1728072600,"current_range_meters":2800,"station_id":"ce4bhn12rcd13ifvqgqg","pricing_plan_id":"cebpf4jnsgd1na2vs0mg"},{"bike_id":"bef112e6-30fe-4308-b6e7-4d5cc9514c56","system_id":"levelo_inurba_marseille","lat":43.31894,"lon":5.40734,"is_reserved":false,"is_disabled":false,"rental_uris":{"android":"levelo://app?vid=bef112e6-30fe-4308-b6e7-4d5cc9514c56","ios":"levelo://app?vid=bef112e6-30fe-4308-b6e7-4d5cc9514c56"},"vehicle_type_id":"4","last_reported":1728072600,"current_range_meters":37600,"station_id":"ce4bhq12rcd13ifvqhig","pricing_plan_id":"cebpf4jnsgd1na2vs0mg"},{"bike_id":"43fc5487-6973-4fc7-a12f-6a97ffe8a3ce","system_id":"levelo_inurba_marseille","lat":43.2511,"lon":5.40328,"is_reserved":false,"is_disabled":false,"rental_uris":{"android":"levelo://app?vid=43fc5487-6973-4fc7-a12f-6a97ffe8a3ce","ios":"levelo://app?vid=43fc5487-6973-4fc7-a12f-6a97ffe8a3ce"},"vehicle_type_id":"4","last_reported":1728072600,"current_range_meters":38800,"station_id":"ce4bhlh2rcd13ifvqgig","pricing_plan_id":"cebpf4jnsgd1na2vs0mg"},{"bike_id":"04c2aa47-0bdb-4e21-87de-39f77f4f4003","system_id":"levelo_inurba_marseille","lat":43.292994,"lon":5.374612,"is_reserved":false,"is_disabled":false,"rental_uris":{"android":"levelo://app?vid=04c2aa47-0bdb-4e21-87de-39f77f4f4003","ios":"levelo://app?vid=04c2aa47-0bdb-4e21-87de-39f77f4f4003"},"vehicle_type_id":"4","last_reported":1728072600,"current_range_meters":28000,"station_id":"ce4bgi12rcd13ifvqb70","pricing_plan_id":"cebpf4jnsgd1na2vs0mg"},{"bike_id":"eaa0bd85-d0f0-428b-a6b8-53f53b3927f3","system_id":"levelo_inurba_marseille","lat":43.27498,"lon":5.42447,"is_reserved":false,"is_disabled":false,"rental_uris":{"android":"levelo://app?vid=eaa0bd85-d0f0-428b-a6b8-53f53b3927f3","ios":"levelo://app?vid=eaa0bd85-d0f0-428b-a6b8-53f53b3927f3"},"vehicle_type_id":"4","last_reported":1728072600,"current_range_meters":30000,"station_id":"ce4bhn92rcd13ifvqgrg","pricing_plan_id":"cebpf4jnsgd1na2vs0mg"},{"bike_id":"219df1b6-9d69-46f8-bdd5-caa50ce674cf","system_id":"levelo_inurba_marseille","lat":43.255493,"lon":5.37674,"is_reserved":false,"is_disabled":false,"rental_uris":{"android":"levelo://app?vid=219df1b6-9d69-46f8-bdd5-caa50ce674cf","ios":"levelo://app?vid=219df1b6-9d69-46f8-bdd5-caa50ce674cf"},"vehicle_type_id":"4","last_reported":1728072600,"current_range_meters":20000,"station_id":"","pricing_plan_id":"cebpf4jnsgd1na2vs0mg"},{"bike_id":"24c93b7a-ce3a-44d6-abe9-911c0547bcc7","system_id":"levelo_inurba_marseille","lat":43.25498,"lon":5.37653,"is_reserved":false,"is_disabled":false,"rental_uris":{"android":"levelo://app?vid=24c93b7a-ce3a-44d6-abe9-911c0547bcc7","ios":"levelo://app?vid=24c93b7a-ce3a-44d6-abe9-911c0547bcc7"},"vehicle_type_id":"4","last_reported":1728072600,"current_range_meters":36400,"station_id":"ce4bhh12rcd13ifvqff0","pricing_plan_id":"cebpf4jnsgd1na2vs0mg"},{"bike_id":"24288944-0101-44b2-8f05-dfa33a293120","system_id":"levelo_inurba_marseille","lat":43.3136,"lon":5.38498,"is_reserved":false,"is_disabled":false,"rental_uris":{"android":"levelo://app?vid=24288944-0101-44b2-8f05-dfa33a293120","ios":"levelo://app?vid=24288944-0101-44b2-8f05-dfa33a293120"},"vehicle_type_id":"4","last_reported":1728072600,"current_range_meters":37600,"station_id":"ce4bgt92rcd13ifvqcf0","pricing_plan_id":"cebpf4jnsgd1na2vs0mg"},{"bike_id":"6a4b0bea-a36c-4e34-8edb-b3ea3c6da77f","system_id":"levelo_inurba_marseille","lat":43.25117,"lon":5.4032,"is_reserved":false,"is_disabled":false,"rental_uris":{"android":"levelo://app?vid=6a4b0bea-a36c-4e34-8edb-b3ea3c6da77f","ios":"levelo://app?vid=6a4b0bea-a36c-4e34-8edb-b3ea3c6da77f"},"vehicle_type_id":"4","last_reported":1728072600,"current_range_meters":21600,"station_id":"ce4bhlh2rcd13ifvqgig","pricing_plan_id":"cebpf4jnsgd1na2vs0mg"},{"bike_id":"62180979-d16d-4f79-9a14-d210457fcfcf","system_id":"levelo_inurba_marseille","lat":43.30139,"lon":5.38789,"is_reserved":false,"is_disabled":false,"rental_uris":{"android":"levelo://app?vid=62180979-d16d-4f79-9a14-d210457fcfcf","ios":"levelo://app?vid=62180979-d16d-4f79-9a14-d210457fcfcf"},"vehicle_type_id":"4","last_reported":1728072600,"current_range_meters":38800,"station_id":"ce4bghh2rcd13ifvqb60","pricing_plan_id":"cebpf4jnsgd1na2vs0mg"},{"bike_id":"149df3d4-2bac-4b47-b0b0-caa020d5e1f5","system_id":"levelo_inurba_marseille","lat":43.2293,"lon":5.35379,"is_reserved":false,"is_disabled":false,"rental_uris":{"android":"levelo://app?vid=149df3d4-2bac-4b47-b0b0-caa020d5e1f5","ios":"levelo://app?vid=149df3d4-2bac-4b47-b0b0-caa020d5e1f5"},"vehicle_type_id":"4","last_reported":1728072600,"current_range_meters":19200,"station_id":"cpo3532slgdg3j2ikp40","pricing_plan_id":"cebpf4jnsgd1na2vs0mg"},{"bike_id":"323f5121-082a-40ee-9620-2f6bbfc9f091","system_id":"levelo_inurba_marseille","lat":43.27006,"lon":5.402,"is_reserved":false,"is_disabled":false,"rental_uris":{"android":"levelo://app?vid=323f5121-082a-40ee-9620-2f6bbfc9f091","ios":"levelo://app?vid=323f5121-082a-40ee-9620-2f6bbfc9f091"},"vehicle_type_id":"4","last_reported":1728072600,"current_range_meters":10000,"station_id":"","pricing_plan_id":"cebpf4jnsgd1na2vs0mg"},{"bike_id":"4860def7-e1c9-4f41-b3bb-cd540a792012","system_id":"levelo_inurba_marseille","lat":43.27903,"lon":5.38008,"is_reserved":false,"is_disabled":false,"rental_uris":{"android":"levelo://app?vid=4860def7-e1c9-4f41-b3bb-cd540a792012","ios":"levelo://app?vid=4860def7-e1c9-4f41-b3bb-cd540a792012"},"vehicle_type_id":"4","last_reported":1728072600,"current_range_meters":35200,"station_id":"ce4bhf92rcd13ifvqf50","pricing_plan_id":"cebpf4jnsgd1na2vs0mg"},{"bike_id":"77c59eab-5250-44c4-be86-099c0defe9c4","system_id":"levelo_inurba_marseille","lat":43.33752,"lon":5.37452,"is_reserved":false,"is_disabled":false,"rental_uris":{"android":"levelo://app?vid=77c59eab-5250-44c4-be86-099c0defe9c4","ios":"levelo://app?vid=77c59eab-5250-44c4-be86-099c0defe9c4"},"vehicle_type_id":"4","last_reported":1728072600,"current_range_meters":29600,"station_id":"","pricing_plan_id":"cebpf4jnsgd1na2vs0mg"},{"bike_id":"ada7479d-2eb9-4779-a791-8f453fccb20e","system_id":"levelo_inurba_marseille","lat":43.26189,"lon":5.37452,"is_reserved":false,"is_disabled":false,"rental_uris":{"android":"levelo://app?vid=ada7479d-2eb9-4779-a791-8f453fccb20e","ios":"levelo://app?vid=ada7479d-2eb9-4779-a791-8f453fccb20e"},"vehicle_type_id":"4","last_reported":1728072600,"current_range_meters":31200,"station_id":"ce4bhgp2rcd13ifvqfc0","pricing_plan_id":"cebpf4jnsgd1na2vs0mg"},{"bike_id":"655c7a70-a9e9-4bdb-90df-3dd326718d46","system_id":"levelo_inurba_marseille","lat":43.24665,"lon":5.38163,"is_reserved":false,"is_disabled":false,"rental_uris":{"android":"levelo://app?vid=655c7a70-a9e9-4bdb-90df-3dd326718d46","ios":"levelo://app?vid=655c7a70-a9e9-4bdb-90df-3dd326718d46"},"vehicle_type_id":"4","last_reported":1728072600,"current_range_meters":24800,"station_id":"ce4bhih2rcd13ifvqfr0","pricing_plan_id":"cebpf4jnsgd1na2vs0mg"},{"bike_id":"6e4404fe-9f2c-4094-b7ac-6438d3421190","system_id":"levelo_inurba_marseille","lat":43.25827,"lon":5.39436,"is_reserved":false,"is_disabled":false,"rental_uris":{"android":"levelo://app?vid=6e4404fe-9f2c-4094-b7ac-6438d3421190","ios":"levelo://app?vid=6e4404fe-9f2c-4094-b7ac-6438d3421190"},"vehicle_type_id":"4","last_reported":1728072600,"current_range_meters":39200,"station_id":"ce4bhip2rcd13ifvqft0","pricing_plan_id":"cebpf4jnsgd1na2vs0mg"},{"bike_id":"84b07b81-8a90-4e9c-96ec-461a75726f5b","system_id":"levelo_inurba_marseille","lat":43.32004,"lon":5.38168,"is_reserved":false,"is_disabled":false,"rental_uris":{"android":"levelo://app?vid=84b07b81-8a90-4e9c-96ec-461a75726f5b","ios":"levelo://app?vid=84b07b81-8a90-4e9c-96ec-461a75726f5b"},"vehicle_type_id":"4","last_reported":1728072600,"current_range_meters":9200,"station_id":"ce4bhr12rcd13ifvqhpg","pricing_plan_id":"cebpf4jnsgd1na2vs0mg"},{"bike_id":"6d443548-bf4d-419c-8bcd-80cd1554d1f1","system_id":"levelo_inurba_marseille","lat":43.29276,"lon":5.3845,"is_reserved":false,"is_disabled":false,"rental_uris":{"android":"levelo://app?vid=6d443548-bf4d-419c-8bcd-80cd1554d1f1","ios":"levelo://app?vid=6d443548-bf4d-419c-8bcd-80cd1554d1f1"},"vehicle_type_id":"4","last_reported":1728072600,"current_range_meters":24800,"station_id":"ce4bh692rcd13ifvqea0","pricing_plan_id":"cebpf4jnsgd1na2vs0mg"},{"bike_id":"66abda2b-1382-4853-b1f1-dd71ae8ab888","system_id":"levelo_inurba_marseille","lat":43.30799,"lon":5.38165,"is_reserved":false,"is_disabled":false,"rental_uris":{"android":"levelo://app?vid=66abda2b-1382-4853-b1f1-dd71ae8ab888","ios":"levelo://app?vid=66abda2b-1382-4853-b1f1-dd71ae8ab888"},"vehicle_type_id":"4","last_reported":1728072600,"current_range_meters":38800,"station_id":"ce4bgt12rcd13ifvqce0","pricing_plan_id":"cebpf4jnsgd1na2vs0mg"},{"bike_id":"08c244ed-e07e-4fa4-9ab9-4f9f2e438852","system_id":"levelo_inurba_marseille","lat":43.28673,"lon":5.38678,"is_reserved":false,"is_disabled":false,"rental_uris":{"android":"levelo://app?vid=08c244ed-e07e-4fa4-9ab9-4f9f2e438852","ios":"levelo://app?vid=08c244ed-e07e-4fa4-9ab9-4f9f2e438852"},"vehicle_type_id":"4","last_reported":1728072600,"current_range_meters":18000,"station_id":"ce4bh9p2rcd13ifvqed0","pricing_plan_id":"cebpf4jnsgd1na2vs0mg"},{"bike_id":"32ceac28-dacd-4d4c-9c55-d75f7e6d1aa1","system_id":"levelo_inurba_marseille","lat":43.30802,"lon":5.43519,"is_reserved":false,"is_disabled":false,"rental_uris":{"android":"levelo://app?vid=32ceac28-dacd-4d4c-9c55-d75f7e6d1aa1","ios":"levelo://app?vid=32ceac28-dacd-4d4c-9c55-d75f7e6d1aa1"},"vehicle_type_id":"4","last_reported":1728072600,"current_range_meters":13600,"station_id":"ce4bhph2rcd13ifvqheg","pricing_plan_id":"cebpf4jnsgd1na2vs0mg"},{"bike_id":"4d41a0cb-534e-450f-8a11-96b61cd62597","system_id":"levelo_inurba_marseille","lat":43.26194,"lon":5.37454,"is_reserved":false,"is_disabled":false,"rental_uris":{"android":"levelo://app?vid=4d41a0cb-534e-450f-8a11-96b61cd62597","ios":"levelo://app?vid=4d41a0cb-534e-450f-8a11-96b61cd62597"},"vehicle_type_id":"4","last_reported":1728072600,"current_range_meters":36800,"station_id":"ce4bhgp2rcd13ifvqfc0","pricing_plan_id":"cebpf4jnsgd1na2vs0mg"},{"bike_id":"21edab2f-4875-426e-9a19-beb4ae893db0","system_id":"levelo_inurba_marseille","lat":43.29034,"lon":5.38659,"is_reserved":false,"is_disabled":false,"rental_uris":{"android":"levelo://app?vid=21edab2f-4875-426e-9a19-beb4ae893db0","ios":"levelo://app?vid=21edab2f-4875-426e-9a19-beb4ae893db0"},"vehicle_type_id":"4","last_reported":1728072600,"current_range_meters":36800,"station_id":"ce4bh4p2rcd13ifvqe0g","pricing_plan_id":"cebpf4jnsgd1na2vs0mg"},{"bike_id":"b417a8d0-1fac-4a2b-9294-35cea48e57c1","system_id":"levelo_inurba_marseille","lat":43.33026,"lon":5.3905,"is_reserved":false,"is_disabled":false,"rental_uris":{"android":"levelo://app?vid=b417a8d0-1fac-4a2b-9294-35cea48e57c1","ios":"levelo://app?vid=b417a8d0-1fac-4a2b-9294-35cea48e57c1"},"vehicle_type_id":"4","last_reported":1728072600,"current_range_meters":30000,"station_id":"ce4bhr92rcd13ifvqhrg","pricing_plan_id":"cebpf4jnsgd1na2vs0mg"},{"bike_id":"a02a935a-10a8-46de-bf61-e6f06b368e7d","system_id":"levelo_inurba_marseille","lat":43.29553,"lon":5.42293,"is_reserved":false,"is_disabled":false,"rental_uris":{"android":"levelo://app?vid=a02a935a-10a8-46de-bf61-e6f06b368e7d","ios":"levelo://app?vid=a02a935a-10a8-46de-bf61-e6f06b368e7d"},"vehicle_type_id":"4","last_reported":1728072600,"current_range_meters":10000,"station_id":"ce4bhph2rcd13ifvqhdg","pricing_plan_id":"cebpf4jnsgd1na2vs0mg"},{"bike_id":"d217497d-1510-4778-9b96-28eea513fd88","system_id":"levelo_inurba_marseille","lat":43.24662,"lon":5.3817,"is_reserved":false,"is_disabled":false,"rental_uris":{"android":"levelo://app?vid=d217497d-1510-4778-9b96-28eea513fd88","ios":"levelo://app?vid=d217497d-1510-4778-9b96-28eea513fd88"},"vehicle_type_id":"4","last_reported":1728072600,"current_range_meters":25200,"station_id":"ce4bhih2rcd13ifvqfr0","pricing_plan_id":"cebpf4jnsgd1na2vs0mg"},{"bike_id":"cb7aa4ae-8608-4d39-8fb7-1b3f7a22f4a5","system_id":"levelo_inurba_marseille","lat":43.31325,"lon":5.39691,"is_reserved":false,"is_disabled":false,"rental_uris":{"android":"levelo://app?vid=cb7aa4ae-8608-4d39-8fb7-1b3f7a22f4a5","ios":"levelo://app?vid=cb7aa4ae-8608-4d39-8fb7-1b3f7a22f4a5"},"vehicle_type_id":"4","last_reported":1728072600,"current_range_meters":30000,"station_id":"ce4bgvp2rcd13ifvqcu0","pricing_plan_id":"cebpf4jnsgd1na2vs0mg"},{"bike_id":"5c12f08e-8334-4216-9455-56199ba65354","system_id":"levelo_inurba_marseille","lat":43.25827,"lon":5.39436,"is_reserved":false,"is_disabled":false,"rental_uris":{"android":"levelo://app?vid=5c12f08e-8334-4216-9455-56199ba65354","ios":"levelo://app?vid=5c12f08e-8334-4216-9455-56199ba65354"},"vehicle_type_id":"4","last_reported":1728072600,"current_range_meters":16400,"station_id":"ce4bhip2rcd13ifvqft0","pricing_plan_id":"cebpf4jnsgd1na2vs0mg"},{"bike_id":"b8df0572-5d57-4f49-a05c-3f120a3ea036","system_id":"levelo_inurba_marseille","lat":43.26493,"lon":5.39544,"is_reserved":false,"is_disabled":false,"rental_uris":{"android":"levelo://app?vid=b8df0572-5d57-4f49-a05c-3f120a3ea036","ios":"levelo://app?vid=b8df0572-5d57-4f49-a05c-3f120a3ea036"},"vehicle_type_id":"4","last_reported":1728072600,"current_range_meters":9600,"station_id":"ce4bhi12rcd13ifvqfq0","pricing_plan_id":"cebpf4jnsgd1na2vs0mg"},{"bike_id":"d9513a24-3235-43a7-b9a5-1c5cfe37603f","system_id":"levelo_inurba_marseille","lat":43.23056,"lon":5.35493,"is_reserved":false,"is_disabled":false,"rental_uris":{"android":"levelo://app?vid=d9513a24-3235-43a7-b9a5-1c5cfe37603f","ios":"levelo://app?vid=d9513a24-3235-43a7-b9a5-1c5cfe37603f"},"vehicle_type_id":"4","last_reported":1728072600,"current_range_meters":24400,"station_id":"cpo3342slgdg3j2ifvpg","pricing_plan_id":"cebpf4jnsgd1na2vs0mg"},{"bike_id":"009d6d0e-c1a8-4ddc-b330-ebf04e9c45b9","system_id":"levelo_inurba_marseille","lat":43.29892,"lon":5.43667,"is_reserved":false,"is_disabled":false,"rental_uris":{"android":"levelo://app?vid=009d6d0e-c1a8-4ddc-b330-ebf04e9c45b9","ios":"levelo://app?vid=009d6d0e-c1a8-4ddc-b330-ebf04e9c45b9"},"vehicle_type_id":"4","last_reported":1728072600,"current_range_meters":25200,"station_id":"ce4bhpp2rcd13ifvqhfg","pricing_plan_id":"cebpf4jnsgd1na2vs0mg"},{"bike_id":"231a12a4-e444-437d-972f-c12dbcb39f0c","system_id":"levelo_inurba_marseille","lat":43.297058,"lon":5.366084,"is_reserved":false,"is_disabled":false,"rental_uris":{"android":"levelo://app?vid=231a12a4-e444-437d-972f-c12dbcb39f0c","ios":"levelo://app?vid=231a12a4-e444-437d-972f-c12dbcb39f0c"},"vehicle_type_id":"4","last_reported":1728072600,"current_range_meters":4400,"station_id":"ce4bgn12rcd13ifvqbt0","pricing_plan_id":"cebpf4jnsgd1na2vs0mg"},{"bike_id":"e09c7bda-7fef-48d4-bc85-337ec635a254","system_id":"levelo_inurba_marseille","lat":43.28609,"lon":5.35104,"is_reserved":false,"is_disabled":false,"rental_uris":{"android":"levelo://app?vid=e09c7bda-7fef-48d4-bc85-337ec635a254","ios":"levelo://app?vid=e09c7bda-7fef-48d4-bc85-337ec635a254"},"vehicle_type_id":"4","last_reported":1728072600,"current_range_meters":6400,"station_id":"ce4bhch2rcd13ifvqeug","pricing_plan_id":"cebpf4jnsgd1na2vs0mg"},{"bike_id":"17d80bb1-20d0-41c5-b2e6-e515fef17c05","system_id":"levelo_inurba_marseille","lat":43.31311,"lon":5.386106,"is_reserved":false,"is_disabled":false,"rental_uris":{"android":"levelo://app?vid=17d80bb1-20d0-41c5-b2e6-e515fef17c05","ios":"levelo://app?vid=17d80bb1-20d0-41c5-b2e6-e515fef17c05"},"vehicle_type_id":"4","last_reported":1728072600,"current_range_meters":37600,"station_id":"ce4bhr12rcd13ifvqhqg","pricing_plan_id":"cebpf4jnsgd1na2vs0mg"},{"bike_id":"4e0c83a2-b0c3-4894-8559-e509681998d3","system_id":"levelo_inurba_marseille","lat":43.31119,"lon":5.3833,"is_reserved":false,"is_disabled":false,"rental_uris":{"android":"levelo://app?vid=4e0c83a2-b0c3-4894-8559-e509681998d3","ios":"levelo://app?vid=4e0c83a2-b0c3-4894-8559-e509681998d3"},"vehicle_type_id":"4","last_reported":1728072600,"current_range_meters":20400,"station_id":"ce4bgv92rcd13ifvqcr0","pricing_plan_id":"cebpf4jnsgd1na2vs0mg"},{"bike_id":"c2f21302-0bda-4485-a5df-98d1ef9f2991","system_id":"levelo_inurba_marseille","lat":43.23942,"lon":5.38289,"is_reserved":false,"is_disabled":false,"rental_uris":{"android":"levelo://app?vid=c2f21302-0bda-4485-a5df-98d1ef9f2991","ios":"levelo://app?vid=c2f21302-0bda-4485-a5df-98d1ef9f2991"},"vehicle_type_id":"4","last_reported":1728072600,"current_range_meters":10800,"station_id":"","pricing_plan_id":"cebpf4jnsgd1na2vs0mg"},{"bike_id":"87a30d5e-1ec7-447d-99d7-3da8e78b7557","system_id":"levelo_inurba_marseille","lat":43.28925,"lon":5.3841,"is_reserved":false,"is_disabled":false,"rental_uris":{"android":"levelo://app?vid=87a30d5e-1ec7-447d-99d7-3da8e78b7557","ios":"levelo://app?vid=87a30d5e-1ec7-447d-99d7-3da8e78b7557"},"vehicle_type_id":"4","last_reported":1728072600,"current_range_meters":17600,"station_id":"ce4bh612rcd13ifvqe6g","pricing_plan_id":"cebpf4jnsgd1na2vs0mg"},{"bike_id":"c606b102-fea7-4f28-9c0a-70d284453f0e","system_id":"levelo_inurba_marseille","lat":43.27915,"lon":5.39589,"is_reserved":false,"is_disabled":false,"rental_uris":{"android":"levelo://app?vid=c606b102-fea7-4f28-9c0a-70d284453f0e","ios":"levelo://app?vid=c606b102-fea7-4f28-9c0a-70d284453f0e"},"vehicle_type_id":"4","last_reported":1728072600,"current_range_meters":18000,"station_id":"ce4bhf92rcd13ifvqf40","pricing_plan_id":"cebpf4jnsgd1na2vs0mg"},{"bike_id":"00f30922-f634-41fe-a3b4-a4b4bea87a92","system_id":"levelo_inurba_marseille","lat":43.28611,"lon":5.35106,"is_reserved":false,"is_disabled":false,"rental_uris":{"android":"levelo://app?vid=00f30922-f634-41fe-a3b4-a4b4bea87a92","ios":"levelo://app?vid=00f30922-f634-41fe-a3b4-a4b4bea87a92"},"vehicle_type_id":"4","last_reported":1728072600,"current_range_meters":29600,"station_id":"ce4bhch2rcd13ifvqeug","pricing_plan_id":"cebpf4jnsgd1na2vs0mg"},{"bike_id":"745956e2-85a4-4e28-8a9f-f9dc9abb062e","system_id":"levelo_inurba_marseille","lat":43.28789,"lon":5.37363,"is_reserved":false,"is_disabled":false,"rental_uris":{"android":"levelo://app?vid=745956e2-85a4-4e28-8a9f-f9dc9abb062e","ios":"levelo://app?vid=745956e2-85a4-4e28-8a9f-f9dc9abb062e"},"vehicle_type_id":"4","last_reported":1728072600,"current_range_meters":36000,"station_id":"","pricing_plan_id":"cebpf4jnsgd1na2vs0mg"},{"bike_id":"4e5012d3-097e-4752-930f-fc706eefd5c7","system_id":"levelo_inurba_marseille","lat":43.26951,"lon":5.40252,"is_reserved":false,"is_disabled":false,"rental_uris":{"android":"levelo://app?vid=4e5012d3-097e-4752-930f-fc706eefd5c7","ios":"levelo://app?vid=4e5012d3-097e-4752-930f-fc706eefd5c7"},"vehicle_type_id":"4","last_reported":1728072600,"current_range_meters":8000,"station_id":"cjm6bp8fraef2m0cb0m0","pricing_plan_id":"cebpf4jnsgd1na2vs0mg"},{"bike_id":"aa6ea80f-d3cc-43e6-a69f-38faa11735ba","system_id":"levelo_inurba_marseille","lat":43.23963,"lon":5.36629,"is_reserved":false,"is_disabled":false,"rental_uris":{"android":"levelo://app?vid=aa6ea80f-d3cc-43e6-a69f-38faa11735ba","ios":"levelo://app?vid=aa6ea80f-d3cc-43e6-a69f-38faa11735ba"},"vehicle_type_id":"4","last_reported":1728072600,"current_range_meters":28000,"station_id":"ce4bhi12rcd13ifvqfp0","pricing_plan_id":"cebpf4jnsgd1na2vs0mg"},{"bike_id":"aa5001f8-40e0-4c83-bfed-eb0a81941210","system_id":"levelo_inurba_marseille","lat":43.31083,"lon":5.42432,"is_reserved":false,"is_disabled":false,"rental_uris":{"android":"levelo://app?vid=aa5001f8-40e0-4c83-bfed-eb0a81941210","ios":"levelo://app?vid=aa5001f8-40e0-4c83-bfed-eb0a81941210"},"vehicle_type_id":"4","last_reported":1728072600,"current_range_meters":14800,"station_id":"ce4bhp92rcd13ifvqhag","pricing_plan_id":"cebpf4jnsgd1na2vs0mg"},{"bike_id":"d50ef1d5-0d0a-4e68-8023-6aa4219e430b","system_id":"levelo_inurba_marseille","lat":43.31163,"lon":5.3872,"is_reserved":false,"is_disabled":false,"rental_uris":{"android":"levelo://app?vid=d50ef1d5-0d0a-4e68-8023-6aa4219e430b","ios":"levelo://app?vid=d50ef1d5-0d0a-4e68-8023-6aa4219e430b"},"vehicle_type_id":"4","last_reported":1728072600,"current_range_meters":38400,"station_id":"ce4bgv12rcd13ifvqcp0","pricing_plan_id":"cebpf4jnsgd1na2vs0mg"},{"bike_id":"e2e815c2-794c-4449-b805-3fd2c780c476","system_id":"levelo_inurba_marseille","lat":43.30095,"lon":5.39082,"is_reserved":false,"is_disabled":false,"rental_uris":{"android":"levelo://app?vid=e2e815c2-794c-4449-b805-3fd2c780c476","ios":"levelo://app?vid=e2e815c2-794c-4449-b805-3fd2c780c476"},"vehicle_type_id":"4","last_reported":1728072600,"current_range_meters":22400,"station_id":"ce4bh192rcd13ifvqdb0","pricing_plan_id":"cebpf4jnsgd1na2vs0mg"},{"bike_id":"d054fab0-6a9a-4a13-8a72-8f548595cf1c","system_id":"levelo_inurba_marseille","lat":43.31528,"lon":5.38038,"is_reserved":false,"is_disabled":false,"rental_uris":{"android":"levelo://app?vid=d054fab0-6a9a-4a13-8a72-8f548595cf1c","ios":"levelo://app?vid=d054fab0-6a9a-4a13-8a72-8f548595cf1c"},"vehicle_type_id":"4","last_reported":1728072600,"current_range_meters":36800,"station_id":"ce4bhsp2rcd13ifvqi50","pricing_plan_id":"cebpf4jnsgd1na2vs0mg"},{"bike_id":"16cbabb1-d88a-439c-b3ad-2da2b25e5c6a","system_id":"levelo_inurba_marseille","lat":43.293319,"lon":5.371633,"is_reserved":false,"is_disabled":false,"rental_uris":{"android":"levelo://app?vid=16cbabb1-d88a-439c-b3ad-2da2b25e5c6a","ios":"levelo://app?vid=16cbabb1-d88a-439c-b3ad-2da2b25e5c6a"},"vehicle_type_id":"4","last_reported":1728072600,"current_range_meters":8800,"station_id":"ce4bgh92rcd13ifvqb40","pricing_plan_id":"cebpf4jnsgd1na2vs0mg"},{"bike_id":"93c83491-bc61-4ae9-a66b-8fe5e992b316","system_id":"levelo_inurba_marseille","lat":43.30643,"lon":5.40097,"is_reserved":false,"is_disabled":false,"rental_uris":{"android":"levelo://app?vid=93c83491-bc61-4ae9-a66b-8fe5e992b316","ios":"levelo://app?vid=93c83491-bc61-4ae9-a66b-8fe5e992b316"},"vehicle_type_id":"4","last_reported":1728072600,"current_range_meters":6800,"station_id":"ce4bh112rcd13ifvqda0","pricing_plan_id":"cebpf4jnsgd1na2vs0mg"},{"bike_id":"6ec0edcc-d686-4e42-9485-cce5f6d9de72","system_id":"levelo_inurba_marseille","lat":43.29524,"lon":5.38551,"is_reserved":false,"is_disabled":false,"rental_uris":{"android":"levelo://app?vid=6ec0edcc-d686-4e42-9485-cce5f6d9de72","ios":"levelo://app?vid=6ec0edcc-d686-4e42-9485-cce5f6d9de72"},"vehicle_type_id":"4","last_reported":1728072600,"current_range_meters":6400,"station_id":"ce4bgih2rcd13ifvqba0","pricing_plan_id":"cebpf4jnsgd1na2vs0mg"},{"bike_id":"ed4aa36f-2130-4721-b127-a9963153fa74","system_id":"levelo_inurba_marseille","lat":43.28709,"lon":5.37388,"is_reserved":false,"is_disabled":false,"rental_uris":{"android":"levelo://app?vid=ed4aa36f-2130-4721-b127-a9963153fa74","ios":"levelo://app?vid=ed4aa36f-2130-4721-b127-a9963153fa74"},"vehicle_type_id":"4","last_reported":1728072600,"current_range_meters":22800,"station_id":"ce4bh3p2rcd13ifvqdq0","pricing_plan_id":"cebpf4jnsgd1na2vs0mg"},{"bike_id":"6c90d0a4-89c4-4712-924a-8a8dcaddcd8f","system_id":"levelo_inurba_marseille","lat":43.33093,"lon":5.39997,"is_reserved":false,"is_disabled":false,"rental_uris":{"android":"levelo://app?vid=6c90d0a4-89c4-4712-924a-8a8dcaddcd8f","ios":"levelo://app?vid=6c90d0a4-89c4-4712-924a-8a8dcaddcd8f"},"vehicle_type_id":"4","last_reported":1728072600,"current_range_meters":9200,"station_id":"","pricing_plan_id":"cebpf4jnsgd1na2vs0mg"},{"bike_id":"cdb928aa-73a0-485b-9139-b965dc67fbe3","system_id":"levelo_inurba_marseille","lat":43.31071,"lon":5.40079,"is_reserved":false,"is_disabled":false,"rental_uris":{"android":"levelo://app?vid=cdb928aa-73a0-485b-9139-b965dc67fbe3","ios":"levelo://app?vid=cdb928aa-73a0-485b-9139-b965dc67fbe3"},"vehicle_type_id":"4","last_reported":1728072600,"current_range_meters":4400,"station_id":"","pricing_plan_id":"cebpf4jnsgd1na2vs0mg"},{"bike_id":"965c86df-f8dc-4f78-ab78-4a47f7b1c352","system_id":"levelo_inurba_marseille","lat":43.28471,"lon":5.38421,"is_reserved":false,"is_disabled":false,"rental_uris":{"android":"levelo://app?vid=965c86df-f8dc-4f78-ab78-4a47f7b1c352","ios":"levelo://app?vid=965c86df-f8dc-4f78-ab78-4a47f7b1c352"},"vehicle_type_id":"4","last_reported":1728072600,"current_range_meters":37600,"station_id":"ce4bh512rcd13ifvqe3g","pricing_plan_id":"cebpf4jnsgd1na2vs0mg"},{"bike_id":"bdefae95-7cc5-4880-bfcb-b1af39586be0","system_id":"levelo_inurba_marseille","lat":43.32664,"lon":5.40985,"is_reserved":false,"is_disabled":false,"rental_uris":{"android":"levelo://app?vid=bdefae95-7cc5-4880-bfcb-b1af39586be0","ios":"levelo://app?vid=bdefae95-7cc5-4880-bfcb-b1af39586be0"},"vehicle_type_id":"4","last_reported":1728072600,"current_range_meters":38800,"station_id":"ce4bhpp2rcd13ifvqhgg","pricing_plan_id":"cebpf4jnsgd1na2vs0mg"},{"bike_id":"9bad6486-1814-4e1a-8a5d-f6397411bffa","system_id":"levelo_inurba_marseille","lat":43.28921,"lon":5.38403,"is_reserved":false,"is_disabled":false,"rental_uris":{"android":"levelo://app?vid=9bad6486-1814-4e1a-8a5d-f6397411bffa","ios":"levelo://app?vid=9bad6486-1814-4e1a-8a5d-f6397411bffa"},"vehicle_type_id":"4","last_reported":1728072600,"current_range_meters":39200,"station_id":"ce4bh612rcd13ifvqe6g","pricing_plan_id":"cebpf4jnsgd1na2vs0mg"},{"bike_id":"8321147a-6bd0-4160-a9c2-8e06c5d8f120","system_id":"levelo_inurba_marseille","lat":43.30593,"lon":5.37223,"is_reserved":false,"is_disabled":false,"rental_uris":{"android":"levelo://app?vid=8321147a-6bd0-4160-a9c2-8e06c5d8f120","ios":"levelo://app?vid=8321147a-6bd0-4160-a9c2-8e06c5d8f120"},"vehicle_type_id":"4","last_reported":1728072600,"current_range_meters":38800,"station_id":"ce4bgqh2rcd13ifvqc4g","pricing_plan_id":"cebpf4jnsgd1na2vs0mg"},{"bike_id":"2a206c44-b64c-4776-a157-6fccdeea62ba","system_id":"levelo_inurba_marseille","lat":43.25583,"lon":5.38232,"is_reserved":false,"is_disabled":false,"rental_uris":{"android":"levelo://app?vid=2a206c44-b64c-4776-a157-6fccdeea62ba","ios":"levelo://app?vid=2a206c44-b64c-4776-a157-6fccdeea62ba"},"vehicle_type_id":"4","last_reported":1728072600,"current_range_meters":28400,"station_id":"ce4bhih2rcd13ifvqfs0","pricing_plan_id":"cebpf4jnsgd1na2vs0mg"},{"bike_id":"255f6170-a5c5-4f1d-84ce-ca5e0f150909","system_id":"levelo_inurba_marseille","lat":43.29024,"lon":5.38652,"is_reserved":false,"is_disabled":false,"rental_uris":{"android":"levelo://app?vid=255f6170-a5c5-4f1d-84ce-ca5e0f150909","ios":"levelo://app?vid=255f6170-a5c5-4f1d-84ce-ca5e0f150909"},"vehicle_type_id":"4","last_reported":1728072600,"current_range_meters":12400,"station_id":"ce4bh4p2rcd13ifvqe0g","pricing_plan_id":"cebpf4jnsgd1na2vs0mg"},{"bike_id":"11155909-ff90-4c56-961f-2f56e1af3363","system_id":"levelo_inurba_marseille","lat":43.295746,"lon":5.367476,"is_reserved":false,"is_disabled":false,"rental_uris":{"android":"levelo://app?vid=11155909-ff90-4c56-961f-2f56e1af3363","ios":"levelo://app?vid=11155909-ff90-4c56-961f-2f56e1af3363"},"vehicle_type_id":"4","last_reported":1728072600,"current_range_meters":38000,"station_id":"ce4bgph2rcd13ifvqc2g","pricing_plan_id":"cebpf4jnsgd1na2vs0mg"},{"bike_id":"cdb243f3-5b68-4e77-8dda-ea53737515c1","system_id":"levelo_inurba_marseille","lat":43.29278,"lon":5.38448,"is_reserved":false,"is_disabled":false,"rental_uris":{"android":"levelo://app?vid=cdb243f3-5b68-4e77-8dda-ea53737515c1","ios":"levelo://app?vid=cdb243f3-5b68-4e77-8dda-ea53737515c1"},"vehicle_type_id":"4","last_reported":1728072600,"current_range_meters":9200,"station_id":"ce4bh692rcd13ifvqea0","pricing_plan_id":"cebpf4jnsgd1na2vs0mg"},{"bike_id":"1e9e701f-fb8e-430e-be7f-54907f1b9076","system_id":"levelo_inurba_marseille","lat":43.33023,"lon":5.39043,"is_reserved":false,"is_disabled":false,"rental_uris":{"android":"levelo://app?vid=1e9e701f-fb8e-430e-be7f-54907f1b9076","ios":"levelo://app?vid=1e9e701f-fb8e-430e-be7f-54907f1b9076"},"vehicle_type_id":"4","last_reported":1728072600,"current_range_meters":22400,"station_id":"ce4bhr92rcd13ifvqhrg","pricing_plan_id":"cebpf4jnsgd1na2vs0mg"},{"bike_id":"26f290bb-1447-4f43-ab6d-1590e2a06a4b","system_id":"levelo_inurba_marseille","lat":43.31436,"lon":5.37387,"is_reserved":false,"is_disabled":false,"rental_uris":{"android":"levelo://app?vid=26f290bb-1447-4f43-ab6d-1590e2a06a4b","ios":"levelo://app?vid=26f290bb-1447-4f43-ab6d-1590e2a06a4b"},"vehicle_type_id":"4","last_reported":1728072600,"current_range_meters":37600,"station_id":"ce4bgt12rcd13ifvqcd0","pricing_plan_id":"cebpf4jnsgd1na2vs0mg"},{"bike_id":"07f4d93b-46ee-4309-a8cd-b9c597d625ba","system_id":"levelo_inurba_marseille","lat":43.29514,"lon":5.37505,"is_reserved":false,"is_disabled":false,"rental_uris":{"android":"levelo://app?vid=07f4d93b-46ee-4309-a8cd-b9c597d625ba","ios":"levelo://app?vid=07f4d93b-46ee-4309-a8cd-b9c597d625ba"},"vehicle_type_id":"4","last_reported":1728072600,"current_range_meters":38000,"station_id":"ce4bgkp2rcd13ifvqbmg","pricing_plan_id":"cebpf4jnsgd1na2vs0mg"},{"bike_id":"e0a07a08-8ace-4a01-b000-9c812c1d132e","system_id":"levelo_inurba_marseille","lat":43.31531,"lon":5.38045,"is_reserved":false,"is_disabled":false,"rental_uris":{"android":"levelo://app?vid=e0a07a08-8ace-4a01-b000-9c812c1d132e","ios":"levelo://app?vid=e0a07a08-8ace-4a01-b000-9c812c1d132e"},"vehicle_type_id":"4","last_reported":1728072600,"current_range_meters":8400,"station_id":"ce4bhsp2rcd13ifvqi50","pricing_plan_id":"cebpf4jnsgd1na2vs0mg"},{"bike_id":"3ffda276-5c7e-43d0-96f1-074ab15b1554","system_id":"levelo_inurba_marseille","lat":43.28658,"lon":5.383292,"is_reserved":false,"is_disabled":false,"rental_uris":{"android":"levelo://app?vid=3ffda276-5c7e-43d0-96f1-074ab15b1554","ios":"levelo://app?vid=3ffda276-5c7e-43d0-96f1-074ab15b1554"},"vehicle_type_id":"4","last_reported":1728072600,"current_range_meters":36400,"station_id":"ce4bho12rcd13ifvqh2g","pricing_plan_id":"cebpf4jnsgd1na2vs0mg"},{"bike_id":"e2b62f7b-f163-4ce0-a035-e5fe5a9f421d","system_id":"levelo_inurba_marseille","lat":43.28027,"lon":5.36951,"is_reserved":false,"is_disabled":false,"rental_uris":{"android":"levelo://app?vid=e2b62f7b-f163-4ce0-a035-e5fe5a9f421d","ios":"levelo://app?vid=e2b62f7b-f163-4ce0-a035-e5fe5a9f421d"},"vehicle_type_id":"4","last_reported":1728072600,"current_range_meters":10800,"station_id":"ce4bha12rcd13ifvqef0","pricing_plan_id":"cebpf4jnsgd1na2vs0mg"},{"bike_id":"dd24d85e-c480-463f-b378-7cfa312ddf07","system_id":"levelo_inurba_marseille","lat":43.29414,"lon":5.38622,"is_reserved":false,"is_disabled":false,"rental_uris":{"android":"levelo://app?vid=dd24d85e-c480-463f-b378-7cfa312ddf07","ios":"levelo://app?vid=dd24d85e-c480-463f-b378-7cfa312ddf07"},"vehicle_type_id":"4","last_reported":1728072600,"current_range_meters":23200,"station_id":"ce4bh2h2rcd13ifvqdh0","pricing_plan_id":"cebpf4jnsgd1na2vs0mg"},{"bike_id":"65f29791-5d3c-4f1f-836d-96e0baf2a2d6","system_id":"levelo_inurba_marseille","lat":43.31083,"lon":5.42437,"is_reserved":false,"is_disabled":false,"rental_uris":{"android":"levelo://app?vid=65f29791-5d3c-4f1f-836d-96e0baf2a2d6","ios":"levelo://app?vid=65f29791-5d3c-4f1f-836d-96e0baf2a2d6"},"vehicle_type_id":"4","last_reported":1728072600,"current_range_meters":30400,"station_id":"ce4bhp92rcd13ifvqhag","pricing_plan_id":"cebpf4jnsgd1na2vs0mg"},{"bike_id":"5b0a6d7f-c426-454a-82ad-28e2608bee63","system_id":"levelo_inurba_marseille","lat":43.3229,"lon":5.38662,"is_reserved":false,"is_disabled":false,"rental_uris":{"android":"levelo://app?vid=5b0a6d7f-c426-454a-82ad-28e2608bee63","ios":"levelo://app?vid=5b0a6d7f-c426-454a-82ad-28e2608bee63"},"vehicle_type_id":"4","last_reported":1728072600,"current_range_meters":24800,"station_id":"","pricing_plan_id":"cebpf4jnsgd1na2vs0mg"},{"bike_id":"336ae060-3f19-40ce-87ee-f00c19cbdcca","system_id":"levelo_inurba_marseille","lat":43.27582,"lon":5.38414,"is_reserved":false,"is_disabled":false,"rental_uris":{"android":"levelo://app?vid=336ae060-3f19-40ce-87ee-f00c19cbdcca","ios":"levelo://app?vid=336ae060-3f19-40ce-87ee-f00c19cbdcca"},"vehicle_type_id":"4","last_reported":1728072600,"current_range_meters":37600,"station_id":"ce4bhh92rcd13ifvqfi0","pricing_plan_id":"cebpf4jnsgd1na2vs0mg"},{"bike_id":"936a4b51-a13a-41f1-8e42-b66f8235459c","system_id":"levelo_inurba_marseille","lat":43.27896,"lon":5.38013,"is_reserved":false,"is_disabled":false,"rental_uris":{"android":"levelo://app?vid=936a4b51-a13a-41f1-8e42-b66f8235459c","ios":"levelo://app?vid=936a4b51-a13a-41f1-8e42-b66f8235459c"},"vehicle_type_id":"4","last_reported":1728072600,"current_range_meters":16000,"station_id":"ce4bhf92rcd13ifvqf50","pricing_plan_id":"cebpf4jnsgd1na2vs0mg"},{"bike_id":"19c2c618-2c07-48c7-a973-23612d81f7df","system_id":"levelo_inurba_marseille","lat":43.25832,"lon":5.39426,"is_reserved":false,"is_disabled":false,"rental_uris":{"android":"levelo://app?vid=19c2c618-2c07-48c7-a973-23612d81f7df","ios":"levelo://app?vid=19c2c618-2c07-48c7-a973-23612d81f7df"},"vehicle_type_id":"4","last_reported":1728072600,"current_range_meters":38800,"station_id":"ce4bhip2rcd13ifvqft0","pricing_plan_id":"cebpf4jnsgd1na2vs0mg"},{"bike_id":"666bc129-da48-43b6-859c-bfc1c5948593","system_id":"levelo_inurba_marseille","lat":43.31646,"lon":5.38314,"is_reserved":false,"is_disabled":false,"rental_uris":{"android":"levelo://app?vid=666bc129-da48-43b6-859c-bfc1c5948593","ios":"levelo://app?vid=666bc129-da48-43b6-859c-bfc1c5948593"},"vehicle_type_id":"4","last_reported":1728072600,"current_range_meters":32000,"station_id":"","pricing_plan_id":"cebpf4jnsgd1na2vs0mg"},{"bike_id":"a131239d-04d9-45bc-97b2-d714d534c712","system_id":"levelo_inurba_marseille","lat":43.31272,"lon":5.4017,"is_reserved":false,"is_disabled":false,"rental_uris":{"android":"levelo://app?vid=a131239d-04d9-45bc-97b2-d714d534c712","ios":"levelo://app?vid=a131239d-04d9-45bc-97b2-d714d534c712"},"vehicle_type_id":"4","last_reported":1728072600,"current_range_meters":6000,"station_id":"ce4bh092rcd13ifvqd30","pricing_plan_id":"cebpf4jnsgd1na2vs0mg"},{"bike_id":"e9c699ae-329b-418f-8554-c0d151f9551c","system_id":"levelo_inurba_marseille","lat":43.30875,"lon":5.39648,"is_reserved":false,"is_disabled":false,"rental_uris":{"android":"levelo://app?vid=e9c699ae-329b-418f-8554-c0d151f9551c","ios":"levelo://app?vid=e9c699ae-329b-418f-8554-c0d151f9551c"},"vehicle_type_id":"4","last_reported":1728072600,"current_range_meters":10800,"station_id":"ce4bh012rcd13ifvqcv0","pricing_plan_id":"cebpf4jnsgd1na2vs0mg"},{"bike_id":"73f9ebab-bf61-4991-b2e5-05aed5203d4c","system_id":"levelo_inurba_marseille","lat":43.28077,"lon":5.39661,"is_reserved":false,"is_disabled":false,"rental_uris":{"android":"levelo://app?vid=73f9ebab-bf61-4991-b2e5-05aed5203d4c","ios":"levelo://app?vid=73f9ebab-bf61-4991-b2e5-05aed5203d4c"},"vehicle_type_id":"4","last_reported":1728072600,"current_range_meters":4000,"station_id":"ce4bho12rcd13ifvqh2g","pricing_plan_id":"cebpf4jnsgd1na2vs0mg"},{"bike_id":"e3a55123-dd31-4c6a-9a44-7e5a51c0f0eb","system_id":"levelo_inurba_marseille","lat":43.25115,"lon":5.40318,"is_reserved":false,"is_disabled":false,"rental_uris":{"android":"levelo://app?vid=e3a55123-dd31-4c6a-9a44-7e5a51c0f0eb","ios":"levelo://app?vid=e3a55123-dd31-4c6a-9a44-7e5a51c0f0eb"},"vehicle_type_id":"4","last_reported":1728072600,"current_range_meters":8000,"station_id":"ce4bhlh2rcd13ifvqgig","pricing_plan_id":"cebpf4jnsgd1na2vs0mg"},{"bike_id":"b6a817d8-5787-46a3-898e-0b46c75fc481","system_id":"levelo_inurba_marseille","lat":43.32965,"lon":5.40344,"is_reserved":false,"is_disabled":false,"rental_uris":{"android":"levelo://app?vid=b6a817d8-5787-46a3-898e-0b46c75fc481","ios":"levelo://app?vid=b6a817d8-5787-46a3-898e-0b46c75fc481"},"vehicle_type_id":"4","last_reported":1728072600,"current_range_meters":9200,"station_id":"","pricing_plan_id":"cebpf4jnsgd1na2vs0mg"},{"bike_id":"305e0d64-bc02-4a22-9224-63a7dfafab8a","system_id":"levelo_inurba_marseille","lat":43.30593,"lon":5.3936,"is_reserved":false,"is_disabled":false,"rental_uris":{"android":"levelo://app?vid=305e0d64-bc02-4a22-9224-63a7dfafab8a","ios":"levelo://app?vid=305e0d64-bc02-4a22-9224-63a7dfafab8a"},"vehicle_type_id":"4","last_reported":1728072600,"current_range_meters":34000,"station_id":"ce4bh0p2rcd13ifvqd80","pricing_plan_id":"cebpf4jnsgd1na2vs0mg"},{"bike_id":"2729bd97-3161-4cc0-8ce5-2fbaf332608d","system_id":"levelo_inurba_marseille","lat":43.24544,"lon":5.39523,"is_reserved":false,"is_disabled":false,"rental_uris":{"android":"levelo://app?vid=2729bd97-3161-4cc0-8ce5-2fbaf332608d","ios":"levelo://app?vid=2729bd97-3161-4cc0-8ce5-2fbaf332608d"},"vehicle_type_id":"4","last_reported":1728072600,"current_range_meters":1600,"station_id":"ce4bhlp2rcd13ifvqgjg","pricing_plan_id":"cebpf4jnsgd1na2vs0mg"},{"bike_id":"64bd957e-b978-44cb-a85c-928d627d24ec","system_id":"levelo_inurba_marseille","lat":43.35424,"lon":5.35869,"is_reserved":false,"is_disabled":false,"rental_uris":{"android":"levelo://app?vid=64bd957e-b978-44cb-a85c-928d627d24ec","ios":"levelo://app?vid=64bd957e-b978-44cb-a85c-928d627d24ec"},"vehicle_type_id":"4","last_reported":1728072600,"current_range_meters":10800,"station_id":"","pricing_plan_id":"cebpf4jnsgd1na2vs0mg"},{"bike_id":"69dbc4a2-6bac-4c49-87cd-3d9605ef5ea9","system_id":"levelo_inurba_marseille","lat":43.32958,"lon":5.39976,"is_reserved":false,"is_disabled":false,"rental_uris":{"android":"levelo://app?vid=69dbc4a2-6bac-4c49-87cd-3d9605ef5ea9","ios":"levelo://app?vid=69dbc4a2-6bac-4c49-87cd-3d9605ef5ea9"},"vehicle_type_id":"4","last_reported":1728072600,"current_range_meters":25600,"station_id":"","pricing_plan_id":"cebpf4jnsgd1na2vs0mg"},{"bike_id":"0818cb9d-3c4a-4ce8-8696-a1a96c49d275","system_id":"levelo_inurba_marseille","lat":43.32477,"lon":5.36562,"is_reserved":false,"is_disabled":false,"rental_uris":{"android":"levelo://app?vid=0818cb9d-3c4a-4ce8-8696-a1a96c49d275","ios":"levelo://app?vid=0818cb9d-3c4a-4ce8-8696-a1a96c49d275"},"vehicle_type_id":"4","last_reported":1728072600,"current_range_meters":24400,"station_id":"ce4bhs12rcd13ifvqhvg","pricing_plan_id":"cebpf4jnsgd1na2vs0mg"},{"bike_id":"4a79b7f5-df06-47d9-894a-c23c245e5186","system_id":"levelo_inurba_marseille","lat":43.29562,"lon":5.42283,"is_reserved":false,"is_disabled":false,"rental_uris":{"android":"levelo://app?vid=4a79b7f5-df06-47d9-894a-c23c245e5186","ios":"levelo://app?vid=4a79b7f5-df06-47d9-894a-c23c245e5186"},"vehicle_type_id":"4","last_reported":1728072600,"current_range_meters":6400,"station_id":"ce4bhph2rcd13ifvqhdg","pricing_plan_id":"cebpf4jnsgd1na2vs0mg"},{"bike_id":"32242c56-871c-43e9-886b-ffb4c5d66c0e","system_id":"levelo_inurba_marseille","lat":43.25932,"lon":5.40915,"is_reserved":false,"is_disabled":false,"rental_uris":{"android":"levelo://app?vid=32242c56-871c-43e9-886b-ffb4c5d66c0e","ios":"levelo://app?vid=32242c56-871c-43e9-886b-ffb4c5d66c0e"},"vehicle_type_id":"4","last_reported":1728072600,"current_range_meters":16000,"station_id":"ce4bhm92rcd13ifvqglg","pricing_plan_id":"cebpf4jnsgd1na2vs0mg"},{"bike_id":"f43a4892-c720-4054-a74b-d896b9116c2e","system_id":"levelo_inurba_marseille","lat":43.26684,"lon":5.3827,"is_reserved":false,"is_disabled":false,"rental_uris":{"android":"levelo://app?vid=f43a4892-c720-4054-a74b-d896b9116c2e","ios":"levelo://app?vid=f43a4892-c720-4054-a74b-d896b9116c2e"},"vehicle_type_id":"4","last_reported":1728072600,"current_range_meters":39200,"station_id":"ce4bhg92rcd13ifvqf90","pricing_plan_id":"cebpf4jnsgd1na2vs0mg"},{"bike_id":"1d41a8fc-3387-4daa-9f1c-70bac4334487","system_id":"levelo_inurba_marseille","lat":43.27999,"lon":5.40017,"is_reserved":false,"is_disabled":false,"rental_uris":{"android":"levelo://app?vid=1d41a8fc-3387-4daa-9f1c-70bac4334487","ios":"levelo://app?vid=1d41a8fc-3387-4daa-9f1c-70bac4334487"},"vehicle_type_id":"4","last_reported":1728072600,"current_range_meters":11200,"station_id":"ce4bho92rcd13ifvqh4g","pricing_plan_id":"cebpf4jnsgd1na2vs0mg"},{"bike_id":"539d5c80-36c9-4189-a1ed-70516f0346c4","system_id":"levelo_inurba_marseille","lat":43.28244,"lon":5.35085,"is_reserved":false,"is_disabled":false,"rental_uris":{"android":"levelo://app?vid=539d5c80-36c9-4189-a1ed-70516f0346c4","ios":"levelo://app?vid=539d5c80-36c9-4189-a1ed-70516f0346c4"},"vehicle_type_id":"4","last_reported":1728072600,"current_range_meters":32000,"station_id":"ce4bhbp2rcd13ifvqerg","pricing_plan_id":"cebpf4jnsgd1na2vs0mg"},{"bike_id":"d69e74a9-2d68-4e88-b3dc-8243b25b3157","system_id":"levelo_inurba_marseille","lat":43.25113,"lon":5.40321,"is_reserved":false,"is_disabled":false,"rental_uris":{"android":"levelo://app?vid=d69e74a9-2d68-4e88-b3dc-8243b25b3157","ios":"levelo://app?vid=d69e74a9-2d68-4e88-b3dc-8243b25b3157"},"vehicle_type_id":"4","last_reported":1728072600,"current_range_meters":5600,"station_id":"ce4bhlh2rcd13ifvqgig","pricing_plan_id":"cebpf4jnsgd1na2vs0mg"},{"bike_id":"6e8a8204-2666-489a-af77-253cf08964d1","system_id":"levelo_inurba_marseille","lat":43.293028,"lon":5.374515,"is_reserved":false,"is_disabled":false,"rental_uris":{"android":"levelo://app?vid=6e8a8204-2666-489a-af77-253cf08964d1","ios":"levelo://app?vid=6e8a8204-2666-489a-af77-253cf08964d1"},"vehicle_type_id":"4","last_reported":1728072600,"current_range_meters":3600,"station_id":"ce4bgi12rcd13ifvqb70","pricing_plan_id":"cebpf4jnsgd1na2vs0mg"},{"bike_id":"6d679b6b-38e0-4f37-8caf-d0dfb3677fc5","system_id":"levelo_inurba_marseille","lat":43.2293,"lon":5.35381,"is_reserved":false,"is_disabled":false,"rental_uris":{"android":"levelo://app?vid=6d679b6b-38e0-4f37-8caf-d0dfb3677fc5","ios":"levelo://app?vid=6d679b6b-38e0-4f37-8caf-d0dfb3677fc5"},"vehicle_type_id":"4","last_reported":1728072600,"current_range_meters":17200,"station_id":"cpo3532slgdg3j2ikp40","pricing_plan_id":"cebpf4jnsgd1na2vs0mg"},{"bike_id":"3f287340-4558-46e9-8e34-e97c67eb1148","system_id":"levelo_inurba_marseille","lat":43.25496,"lon":5.3765,"is_reserved":false,"is_disabled":false,"rental_uris":{"android":"levelo://app?vid=3f287340-4558-46e9-8e34-e97c67eb1148","ios":"levelo://app?vid=3f287340-4558-46e9-8e34-e97c67eb1148"},"vehicle_type_id":"4","last_reported":1728072600,"current_range_meters":30000,"station_id":"ce4bhh12rcd13ifvqff0","pricing_plan_id":"cebpf4jnsgd1na2vs0mg"},{"bike_id":"620ecb99-2034-46c7-a6ed-71125fdb8103","system_id":"levelo_inurba_marseille","lat":43.26556,"lon":5.39013,"is_reserved":false,"is_disabled":false,"rental_uris":{"android":"levelo://app?vid=620ecb99-2034-46c7-a6ed-71125fdb8103","ios":"levelo://app?vid=620ecb99-2034-46c7-a6ed-71125fdb8103"},"vehicle_type_id":"4","last_reported":1728072600,"current_range_meters":35600,"station_id":"ce4bhe12rcd13ifvqf30","pricing_plan_id":"cebpf4jnsgd1na2vs0mg"},{"bike_id":"d6ea2af3-e907-47d3-a99e-646a79cd5745","system_id":"levelo_inurba_marseille","lat":43.26797,"lon":5.39412,"is_reserved":false,"is_disabled":false,"rental_uris":{"android":"levelo://app?vid=d6ea2af3-e907-47d3-a99e-646a79cd5745","ios":"levelo://app?vid=d6ea2af3-e907-47d3-a99e-646a79cd5745"},"vehicle_type_id":"4","last_reported":1728072600,"current_range_meters":32800,"station_id":"ce4bhh12rcd13ifvqfg0","pricing_plan_id":"cebpf4jnsgd1na2vs0mg"},{"bike_id":"4c32df2e-0e2b-4ae3-8812-a30df3b372bc","system_id":"levelo_inurba_marseille","lat":43.28857,"lon":5.39308,"is_reserved":false,"is_disabled":false,"rental_uris":{"android":"levelo://app?vid=4c32df2e-0e2b-4ae3-8812-a30df3b372bc","ios":"levelo://app?vid=4c32df2e-0e2b-4ae3-8812-a30df3b372bc"},"vehicle_type_id":"4","last_reported":1728072600,"current_range_meters":3600,"station_id":"ce4bh2p2rcd13ifvqdi0","pricing_plan_id":"cebpf4jnsgd1na2vs0mg"},{"bike_id":"42715632-e225-47f3-813c-9451f24e5700","system_id":"levelo_inurba_marseille","lat":43.23187,"lon":5.35556,"is_reserved":false,"is_disabled":false,"rental_uris":{"android":"levelo://app?vid=42715632-e225-47f3-813c-9451f24e5700","ios":"levelo://app?vid=42715632-e225-47f3-813c-9451f24e5700"},"vehicle_type_id":"4","last_reported":1728072600,"current_range_meters":11600,"station_id":"ce4bhu92rcd13ifvqi70","pricing_plan_id":"cebpf4jnsgd1na2vs0mg"},{"bike_id":"1544a62c-d77b-48ed-bac4-75ba00a4f909","system_id":"levelo_inurba_marseille","lat":43.265573,"lon":5.372819,"is_reserved":false,"is_disabled":false,"rental_uris":{"android":"levelo://app?vid=1544a62c-d77b-48ed-bac4-75ba00a4f909","ios":"levelo://app?vid=1544a62c-d77b-48ed-bac4-75ba00a4f909"},"vehicle_type_id":"4","last_reported":1728072600,"current_range_meters":34800,"station_id":"ce4bhg12rcd13ifvqf70","pricing_plan_id":"cebpf4jnsgd1na2vs0mg"},{"bike_id":"ed0afaed-f916-4854-994b-95ae46c87002","system_id":"levelo_inurba_marseille","lat":43.24672,"lon":5.38158,"is_reserved":false,"is_disabled":false,"rental_uris":{"android":"levelo://app?vid=ed0afaed-f916-4854-994b-95ae46c87002","ios":"levelo://app?vid=ed0afaed-f916-4854-994b-95ae46c87002"},"vehicle_type_id":"4","last_reported":1728072600,"current_range_meters":3200,"station_id":"ce4bhih2rcd13ifvqfr0","pricing_plan_id":"cebpf4jnsgd1na2vs0mg"},{"bike_id":"9c6ceacf-46aa-4972-8a1c-69fbeaf93293","system_id":"levelo_inurba_marseille","lat":43.31753,"lon":5.39019,"is_reserved":false,"is_disabled":false,"rental_uris":{"android":"levelo://app?vid=9c6ceacf-46aa-4972-8a1c-69fbeaf93293","ios":"levelo://app?vid=9c6ceacf-46aa-4972-8a1c-69fbeaf93293"},"vehicle_type_id":"4","last_reported":1728072600,"current_range_meters":10000,"station_id":"ce4bhqp2rcd13ifvqhng","pricing_plan_id":"cebpf4jnsgd1na2vs0mg"},{"bike_id":"a8840e42-0de3-4c7e-aef7-8e7beeca81f8","system_id":"levelo_inurba_marseille","lat":43.26488,"lon":5.39551,"is_reserved":false,"is_disabled":false,"rental_uris":{"android":"levelo://app?vid=a8840e42-0de3-4c7e-aef7-8e7beeca81f8","ios":"levelo://app?vid=a8840e42-0de3-4c7e-aef7-8e7beeca81f8"},"vehicle_type_id":"4","last_reported":1728072600,"current_range_meters":35600,"station_id":"ce4bhi12rcd13ifvqfq0","pricing_plan_id":"cebpf4jnsgd1na2vs0mg"},{"bike_id":"b718e0ae-79ba-4f42-b758-43edf35c6e4c","system_id":"levelo_inurba_marseille","lat":43.2797,"lon":5.38742,"is_reserved":false,"is_disabled":false,"rental_uris":{"android":"levelo://app?vid=b718e0ae-79ba-4f42-b758-43edf35c6e4c","ios":"levelo://app?vid=b718e0ae-79ba-4f42-b758-43edf35c6e4c"},"vehicle_type_id":"4","last_reported":1728072600,"current_range_meters":38000,"station_id":"ce4bhg12rcd13ifvqf80","pricing_plan_id":"cebpf4jnsgd1na2vs0mg"},{"bike_id":"b4823bd5-ee5e-44db-8629-6e8e7182b7a4","system_id":"levelo_inurba_marseille","lat":43.26944,"lon":5.4025,"is_reserved":false,"is_disabled":false,"rental_uris":{"android":"levelo://app?vid=b4823bd5-ee5e-44db-8629-6e8e7182b7a4","ios":"levelo://app?vid=b4823bd5-ee5e-44db-8629-6e8e7182b7a4"},"vehicle_type_id":"4","last_reported":1728072600,"current_range_meters":13600,"station_id":"cjm6bp8fraef2m0cb0m0","pricing_plan_id":"cebpf4jnsgd1na2vs0mg"},{"bike_id":"469e9ba0-4176-4e8e-bbf3-5cfc3b8b8199","system_id":"levelo_inurba_marseille","lat":43.26567,"lon":5.39023,"is_reserved":false,"is_disabled":false,"rental_uris":{"android":"levelo://app?vid=469e9ba0-4176-4e8e-bbf3-5cfc3b8b8199","ios":"levelo://app?vid=469e9ba0-4176-4e8e-bbf3-5cfc3b8b8199"},"vehicle_type_id":"4","last_reported":1728072600,"current_range_meters":31200,"station_id":"ce4bhe12rcd13ifvqf30","pricing_plan_id":"cebpf4jnsgd1na2vs0mg"},{"bike_id":"073a9324-28d7-46bb-93ef-72d00d89911c","system_id":"levelo_inurba_marseille","lat":43.29603,"lon":5.37723,"is_reserved":false,"is_disabled":false,"rental_uris":{"android":"levelo://app?vid=073a9324-28d7-46bb-93ef-72d00d89911c","ios":"levelo://app?vid=073a9324-28d7-46bb-93ef-72d00d89911c"},"vehicle_type_id":"4","last_reported":1728072600,"current_range_meters":16000,"station_id":"ce4bgi92rcd13ifvqb90","pricing_plan_id":"cebpf4jnsgd1na2vs0mg"},{"bike_id":"ef02172e-5457-4419-be74-909494a7fa96","system_id":"levelo_inurba_marseille","lat":43.27839,"lon":5.39203,"is_reserved":false,"is_disabled":false,"rental_uris":{"android":"levelo://app?vid=ef02172e-5457-4419-be74-909494a7fa96","ios":"levelo://app?vid=ef02172e-5457-4419-be74-909494a7fa96"},"vehicle_type_id":"4","last_reported":1728072600,"current_range_meters":35600,"station_id":"ce4bhjp2rcd13ifvqga0","pricing_plan_id":"cebpf4jnsgd1na2vs0mg"},{"bike_id":"7141f598-ca7d-4427-9337-017db0ab278c","system_id":"levelo_inurba_marseille","lat":43.2702,"lon":5.40295,"is_reserved":false,"is_disabled":false,"rental_uris":{"android":"levelo://app?vid=7141f598-ca7d-4427-9337-017db0ab278c","ios":"levelo://app?vid=7141f598-ca7d-4427-9337-017db0ab278c"},"vehicle_type_id":"4","last_reported":1728072600,"current_range_meters":3200,"station_id":"ce4bhk92rcd13ifvqgc0","pricing_plan_id":"cebpf4jnsgd1na2vs0mg"},{"bike_id":"79c2c732-6c62-4bd9-96a7-1e2da37e28ea","system_id":"levelo_inurba_marseille","lat":43.269443,"lon":5.402517,"is_reserved":false,"is_disabled":false,"rental_uris":{"android":"levelo://app?vid=79c2c732-6c62-4bd9-96a7-1e2da37e28ea","ios":"levelo://app?vid=79c2c732-6c62-4bd9-96a7-1e2da37e28ea"},"vehicle_type_id":"4","last_reported":1728072600,"current_range_meters":10000,"station_id":"cjm6bp8fraef2m0cb0m0","pricing_plan_id":"cebpf4jnsgd1na2vs0mg"},{"bike_id":"3fcada9b-94d2-4f2c-b11e-57358f7bc56c","system_id":"levelo_inurba_marseille","lat":43.31167,"lon":5.38711,"is_reserved":false,"is_disabled":false,"rental_uris":{"android":"levelo://app?vid=3fcada9b-94d2-4f2c-b11e-57358f7bc56c","ios":"levelo://app?vid=3fcada9b-94d2-4f2c-b11e-57358f7bc56c"},"vehicle_type_id":"4","last_reported":1728072600,"current_range_meters":12800,"station_id":"ce4bgv12rcd13ifvqcp0","pricing_plan_id":"cebpf4jnsgd1na2vs0mg"},{"bike_id":"1ceba4f5-d4bb-49bb-8007-62cb04a18e32","system_id":"levelo_inurba_marseille","lat":43.26485,"lon":5.39556,"is_reserved":false,"is_disabled":false,"rental_uris":{"android":"levelo://app?vid=1ceba4f5-d4bb-49bb-8007-62cb04a18e32","ios":"levelo://app?vid=1ceba4f5-d4bb-49bb-8007-62cb04a18e32"},"vehicle_type_id":"4","last_reported":1728072600,"current_range_meters":28800,"station_id":"ce4bhi12rcd13ifvqfq0","pricing_plan_id":"cebpf4jnsgd1na2vs0mg"},{"bike_id":"71eb3b61-0df7-4421-a87b-a4cbd888baf4","system_id":"levelo_inurba_marseille","lat":43.26557,"lon":5.39011,"is_reserved":false,"is_disabled":false,"rental_uris":{"android":"levelo://app?vid=71eb3b61-0df7-4421-a87b-a4cbd888baf4","ios":"levelo://app?vid=71eb3b61-0df7-4421-a87b-a4cbd888baf4"},"vehicle_type_id":"4","last_reported":1728072600,"current_range_meters":31200,"station_id":"ce4bhe12rcd13ifvqf30","pricing_plan_id":"cebpf4jnsgd1na2vs0mg"},{"bike_id":"0519b0b2-48ff-4d20-b53e-1739af57cbb6","system_id":"levelo_inurba_marseille","lat":43.2953,"lon":5.39393,"is_reserved":false,"is_disabled":false,"rental_uris":{"android":"levelo://app?vid=0519b0b2-48ff-4d20-b53e-1739af57cbb6","ios":"levelo://app?vid=0519b0b2-48ff-4d20-b53e-1739af57cbb6"},"vehicle_type_id":"4","last_reported":1728072600,"current_range_meters":22000,"station_id":"ce4bh292rcd13ifvqdf0","pricing_plan_id":"cebpf4jnsgd1na2vs0mg"},{"bike_id":"a37d203d-ce9f-4b9b-ae3b-23145709bc8a","system_id":"levelo_inurba_marseille","lat":43.29539,"lon":5.38546,"is_reserved":false,"is_disabled":false,"rental_uris":{"android":"levelo://app?vid=a37d203d-ce9f-4b9b-ae3b-23145709bc8a","ios":"levelo://app?vid=a37d203d-ce9f-4b9b-ae3b-23145709bc8a"},"vehicle_type_id":"4","last_reported":1728072600,"current_range_meters":6400,"station_id":"ce4bgih2rcd13ifvqba0","pricing_plan_id":"cebpf4jnsgd1na2vs0mg"},{"bike_id":"44004f1e-4d2b-4e9a-b6b3-1d31be9eaf2f","system_id":"levelo_inurba_marseille","lat":43.29293,"lon":5.37462,"is_reserved":false,"is_disabled":false,"rental_uris":{"android":"levelo://app?vid=44004f1e-4d2b-4e9a-b6b3-1d31be9eaf2f","ios":"levelo://app?vid=44004f1e-4d2b-4e9a-b6b3-1d31be9eaf2f"},"vehicle_type_id":"4","last_reported":1728072600,"current_range_meters":31200,"station_id":"ce4bgi12rcd13ifvqb70","pricing_plan_id":"cebpf4jnsgd1na2vs0mg"},{"bike_id":"ef7d0ca9-5149-422c-a30c-942f03260d77","system_id":"levelo_inurba_marseille","lat":43.296051,"lon":5.376568,"is_reserved":false,"is_disabled":false,"rental_uris":{"android":"levelo://app?vid=ef7d0ca9-5149-422c-a30c-942f03260d77","ios":"levelo://app?vid=ef7d0ca9-5149-422c-a30c-942f03260d77"},"vehicle_type_id":"4","last_reported":1728072600,"current_range_meters":9600,"station_id":"ce4bgh92rcd13ifvqb50","pricing_plan_id":"cebpf4jnsgd1na2vs0mg"},{"bike_id":"f791d285-e796-472d-a2e8-a373dd52bfca","system_id":"levelo_inurba_marseille","lat":43.25084,"lon":5.39525,"is_reserved":false,"is_disabled":false,"rental_uris":{"android":"levelo://app?vid=f791d285-e796-472d-a2e8-a373dd52bfca","ios":"levelo://app?vid=f791d285-e796-472d-a2e8-a373dd52bfca"},"vehicle_type_id":"4","last_reported":1728072600,"current_range_meters":38800,"station_id":"ce4bhm12rcd13ifvqgkg","pricing_plan_id":"cebpf4jnsgd1na2vs0mg"},{"bike_id":"e315600c-3ff8-4893-abe5-0c310d48465d","system_id":"levelo_inurba_marseille","lat":43.33769,"lon":5.37435,"is_reserved":false,"is_disabled":false,"rental_uris":{"android":"levelo://app?vid=e315600c-3ff8-4893-abe5-0c310d48465d","ios":"levelo://app?vid=e315600c-3ff8-4893-abe5-0c310d48465d"},"vehicle_type_id":"4","last_reported":1728072600,"current_range_meters":36800,"station_id":"","pricing_plan_id":"cebpf4jnsgd1na2vs0mg"},{"bike_id":"b791cdb0-446b-400c-9f6d-a092c514a36e","system_id":"levelo_inurba_marseille","lat":43.26201,"lon":5.3793,"is_reserved":false,"is_disabled":false,"rental_uris":{"android":"levelo://app?vid=b791cdb0-446b-400c-9f6d-a092c514a36e","ios":"levelo://app?vid=b791cdb0-446b-400c-9f6d-a092c514a36e"},"vehicle_type_id":"4","last_reported":1728072600,"current_range_meters":36400,"station_id":"ce4bhjp2rcd13ifvqg90","pricing_plan_id":"cebpf4jnsgd1na2vs0mg"},{"bike_id":"c3b6f2a9-0f40-4b3c-a8dd-f566325d16a7","system_id":"levelo_inurba_marseille","lat":43.286067,"lon":5.350919,"is_reserved":false,"is_disabled":false,"rental_uris":{"android":"levelo://app?vid=c3b6f2a9-0f40-4b3c-a8dd-f566325d16a7","ios":"levelo://app?vid=c3b6f2a9-0f40-4b3c-a8dd-f566325d16a7"},"vehicle_type_id":"4","last_reported":1728072600,"current_range_meters":28800,"station_id":"ce4bhch2rcd13ifvqeug","pricing_plan_id":"cebpf4jnsgd1na2vs0mg"},{"bike_id":"664cba4c-be2f-44db-9aef-d90d92b1a437","system_id":"levelo_inurba_marseille","lat":43.29369,"lon":5.37855,"is_reserved":false,"is_disabled":false,"rental_uris":{"android":"levelo://app?vid=664cba4c-be2f-44db-9aef-d90d92b1a437","ios":"levelo://app?vid=664cba4c-be2f-44db-9aef-d90d92b1a437"},"vehicle_type_id":"4","last_reported":1728072600,"current_range_meters":29600,"station_id":"ce4bgjh2rcd13ifvqbf0","pricing_plan_id":"cebpf4jnsgd1na2vs0mg"},{"bike_id":"41971d72-4217-4805-b13f-df3a7e636d3d","system_id":"levelo_inurba_marseille","lat":43.29267,"lon":5.38443,"is_reserved":false,"is_disabled":false,"rental_uris":{"android":"levelo://app?vid=41971d72-4217-4805-b13f-df3a7e636d3d","ios":"levelo://app?vid=41971d72-4217-4805-b13f-df3a7e636d3d"},"vehicle_type_id":"4","last_reported":1728072600,"current_range_meters":38800,"station_id":"ce4bh692rcd13ifvqea0","pricing_plan_id":"cebpf4jnsgd1na2vs0mg"},{"bike_id":"27723f96-4adc-4620-b4bb-362667e7be8d","system_id":"levelo_inurba_marseille","lat":43.27943,"lon":5.41039,"is_reserved":false,"is_disabled":false,"rental_uris":{"android":"levelo://app?vid=27723f96-4adc-4620-b4bb-362667e7be8d","ios":"levelo://app?vid=27723f96-4adc-4620-b4bb-362667e7be8d"},"vehicle_type_id":"4","last_reported":1728072600,"current_range_meters":8400,"station_id":"ce4bhnp2rcd13ifvqh0g","pricing_plan_id":"cebpf4jnsgd1na2vs0mg"},{"bike_id":"0125b840-2a50-4aad-afec-ea2211d7e78e","system_id":"levelo_inurba_marseille","lat":43.2583,"lon":5.39434,"is_reserved":false,"is_disabled":false,"rental_uris":{"android":"levelo://app?vid=0125b840-2a50-4aad-afec-ea2211d7e78e","ios":"levelo://app?vid=0125b840-2a50-4aad-afec-ea2211d7e78e"},"vehicle_type_id":"4","last_reported":1728072600,"current_range_meters":38800,"station_id":"ce4bhip2rcd13ifvqft0","pricing_plan_id":"cebpf4jnsgd1na2vs0mg"},{"bike_id":"314b21c1-4eab-41fd-8e0d-f57fdd119404","system_id":"levelo_inurba_marseille","lat":43.30541,"lon":5.38429,"is_reserved":false,"is_disabled":false,"rental_uris":{"android":"levelo://app?vid=314b21c1-4eab-41fd-8e0d-f57fdd119404","ios":"levelo://app?vid=314b21c1-4eab-41fd-8e0d-f57fdd119404"},"vehicle_type_id":"4","last_reported":1728072600,"current_range_meters":19200,"station_id":"ce4bgg92rcd13ifvqb30","pricing_plan_id":"cebpf4jnsgd1na2vs0mg"},{"bike_id":"740aa9b1-bf7f-495f-b4b6-8c44676bc674","system_id":"levelo_inurba_marseille","lat":43.33752,"lon":5.37443,"is_reserved":false,"is_disabled":false,"rental_uris":{"android":"levelo://app?vid=740aa9b1-bf7f-495f-b4b6-8c44676bc674","ios":"levelo://app?vid=740aa9b1-bf7f-495f-b4b6-8c44676bc674"},"vehicle_type_id":"4","last_reported":1728072600,"current_range_meters":6800,"station_id":"","pricing_plan_id":"cebpf4jnsgd1na2vs0mg"},{"bike_id":"c1a33bf3-8da2-4bb5-9ed6-1336e6b315b7","system_id":"levelo_inurba_marseille","lat":43.25112,"lon":5.4032,"is_reserved":false,"is_disabled":false,"rental_uris":{"android":"levelo://app?vid=c1a33bf3-8da2-4bb5-9ed6-1336e6b315b7","ios":"levelo://app?vid=c1a33bf3-8da2-4bb5-9ed6-1336e6b315b7"},"vehicle_type_id":"4","last_reported":1728072600,"current_range_meters":38800,"station_id":"ce4bhlh2rcd13ifvqgig","pricing_plan_id":"cebpf4jnsgd1na2vs0mg"},{"bike_id":"a1375b13-42c5-4e0a-9a82-5fdaab9473fb","system_id":"levelo_inurba_marseille","lat":43.29259,"lon":5.38438,"is_reserved":false,"is_disabled":false,"rental_uris":{"android":"levelo://app?vid=a1375b13-42c5-4e0a-9a82-5fdaab9473fb","ios":"levelo://app?vid=a1375b13-42c5-4e0a-9a82-5fdaab9473fb"},