{"last_updated":1727072040,"ttl":30,"version":"2.2","data":{"bikes":[{"bike_id":"f5c238ac-7405-44c2-9675-f88338a58a7a","system_id":"levelo_inurba_marseille","lat":43.30469,"lon":5.37914,"is_reserved":false,"is_disabled":false,"rental_uris":{"android":"levelo://app?vid=f5c238ac-7405-44c2-9675-f88338a58a7a","ios":"levelo://app?vid=f5c238ac-7405-44c2-9675-f88338a58a7a"},"vehicle_type_id":"4","last_reported":1727072041,"current_range_meters":32000,"station_id":"ce4bgup2rcd13ifvqcn0","pricing_plan_id":"cebpf4jnsgd1na2vs0mg"},{"bike_id":"fd84f170-c075-4570-a556-c5e617e29406","system_id":"levelo_inurba_marseille","lat":43.28274,"lon":5.40892,"is_reserved":false,"is_disabled":false,"rental_uris":{"android":"levelo://app?vid=fd84f170-c075-4570-a556-c5e617e29406","ios":"levelo://app?vid=fd84f170-c075-4570-a556-c5e617e29406"},"vehicle_type_id":"4","last_reported":1727072041,"current_range_meters":12400,"station_id":"","pricing_plan_id":"cebpf4jnsgd1na2vs0mg"},{"bike_id":"aff0c6cb-554e-4b16-8e39-06587389be86","system_id":"levelo_inurba_marseille","lat":43.30462,"lon":5.37907,"is_reserved":false,"is_disabled":false,"rental_uris":{"android":"levelo://app?vid=aff0c6cb-554e-4b16-8e39-06587389be86","ios":"levelo://app?vid=aff0c6cb-554e-4b16-8e39-06587389be86"},"vehicle_type_id":"4","last_reported":1727072041,"current_range_meters":36400,"station_id":"ce4bgup2rcd13ifvqcn0","pricing_plan_id":"cebpf4jnsgd1na2vs0mg"},{"bike_id":"c3092ca8-ae64-4d17-8b92-19e1ce991720","system_id":"levelo_inurba_marseille","lat":43.26063,"lon":5.39393,"is_reserved":false,"is_disabled":false,"rental_uris":{"android":"levelo://app?vid=c3092ca8-ae64-4d17-8b92-19e1ce991720","ios":"levelo://app?vid=c3092ca8-ae64-4d17-8b92-19e1ce991720"},"vehicle_type_id":"4","last_reported":1727072041,"current_range_meters":29600,"station_id":"ce4bhh92rcd13ifvqfj0","pricing_plan_id":"cebpf4jnsgd1na2vs0mg"},{"bike_id":"d7ac5f77-1333-4b77-afc8-a0ac1683b9c1","system_id":"levelo_inurba_marseille","lat":43.30601,"lon":5.37215,"is_reserved":false,"is_disabled":false,"rental_uris":{"android":"levelo://app?vid=d7ac5f77-1333-4b77-afc8-a0ac1683b9c1","ios":"levelo://app?vid=d7ac5f77-1333-4b77-afc8-a0ac1683b9c1"},"vehicle_type_id":"4","last_reported":1727072041,"current_range_meters":39200,"station_id":"ce4bgqh2rcd13ifvqc4g","pricing_plan_id":"cebpf4jnsgd1na2vs0mg"},{"bike_id":"38f086e7-87b9-4687-8d85-72b03bf6fe03","system_id":"levelo_inurba_marseille","lat":43.30456,"lon":5.37906,"is_reserved":false,"is_disabled":false,"rental_uris":{"android":"levelo://app?vid=38f086e7-87b9-4687-8d85-72b03bf6fe03","ios":"levelo://app?vid=38f086e7-87b9-4687-8d85-72b03bf6fe03"},"vehicle_type_id":"4","last_reported":1727072041,"current_range_meters":30400,"station_id":"","pricing_plan_id":"cebpf4jnsgd1na2vs0mg"},{"bike_id":"b01a99de-0cd7-44ca-a0fe-4bca85edf27b","system_id":"levelo_inurba_marseille","lat":43.27955,"lon":5.4105,"is_reserved":false,"is_disabled":false,"rental_uris":{"android":"levelo://app?vid=b01a99de-0cd7-44ca-a0fe-4bca85edf27b","ios":"levelo://app?vid=b01a99de-0cd7-44ca-a0fe-4bca85edf27b"},"vehicle_type_id":"4","last_reported":1727072041,"current_range_meters":38400,"station_id":"ce4bhnp2rcd13ifvqh0g","pricing_plan_id":"cebpf4jnsgd1na2vs0mg"},{"bike_id":"184b35f6-f4a6-413f-818e-4fcb736211a1","system_id":"levelo_inurba_marseille","lat":43.32655,"lon":5.4099,"is_reserved":false,"is_disabled":false,"rental_uris":{"android":"levelo://app?vid=184b35f6-f4a6-413f-818e-4fcb736211a1","ios":"levelo://app?vid=184b35f6-f4a6-413f-818e-4fcb736211a1"},"vehicle_type_id":"4","last_reported":1727072041,"current_range_meters":28400,"station_id":"ce4bhpp2rcd13ifvqhgg","pricing_plan_id":"cebpf4jnsgd1na2vs0mg"},{"bike_id":"fb4371d4-3374-4bf6-9431-cd7f455a29c7","system_id":"levelo_inurba_marseille","lat":43.337444,"lon":5.374475,"is_reserved":false,"is_disabled":false,"rental_uris":{"android":"levelo://app?vid=fb4371d4-3374-4bf6-9431-cd7f455a29c7","ios":"levelo://app?vid=fb4371d4-3374-4bf6-9431-cd7f455a29c7"},"vehicle_type_id":"4","last_reported":1727072041,"current_range_meters":33200,"station_id":"","pricing_plan_id":"cebpf4jnsgd1na2vs0mg"},{"bike_id":"c372fc44-9398-40b0-8da7-8b88536db4e7","system_id":"levelo_inurba_marseille","lat":43.29917,"lon":5.38143,"is_reserved":false,"is_disabled":false,"rental_uris":{"android":"levelo://app?vid=c372fc44-9398-40b0-8da7-8b88536db4e7","ios":"levelo://app?vid=c372fc44-9398-40b0-8da7-8b88536db4e7"},"vehicle_type_id":"4","last_reported":1727072041,"current_range_meters":37600,"station_id":"ce4bgj12rcd13ifvqbc0","pricing_plan_id":"cebpf4jnsgd1na2vs0mg"},{"bike_id":"036ab996-f6bf-4c60-9b33-c9580ef44614","system_id":"levelo_inurba_marseille","lat":43.3236,"lon":5.38878,"is_reserved":false,"is_disabled":false,"rental_uris":{"android":"levelo://app?vid=036ab996-f6bf-4c60-9b33-c9580ef44614","ios":"levelo://app?vid=036ab996-f6bf-4c60-9b33-c9580ef44614"},"vehicle_type_id":"4","last_reported":1727072041,"current_range_meters":33200,"station_id":"ce4bhqp2rcd13ifvqhog","pricing_plan_id":"cebpf4jnsgd1na2vs0mg"},{"bike_id":"adbcb13b-1d6e-44b3-b317-bd8e6ba5c8c5","system_id":"levelo_inurba_marseille","lat":43.31708,"lon":5.3775,"is_reserved":false,"is_disabled":false,"rental_uris":{"android":"levelo://app?vid=adbcb13b-1d6e-44b3-b317-bd8e6ba5c8c5","ios":"levelo://app?vid=adbcb13b-1d6e-44b3-b317-bd8e6ba5c8c5"},"vehicle_type_id":"4","last_reported":1727072041,"current_range_meters":9600,"station_id":"ce4bgth2rcd13ifvqch0","pricing_plan_id":"cebpf4jnsgd1na2vs0mg"},{"bike_id":"3f481c10-9333-4296-b987-4e4fca70ab29","system_id":"levelo_inurba_marseille","lat":43.28269,"lon":5.35062,"is_reserved":false,"is_disabled":false,"rental_uris":{"android":"levelo://app?vid=3f481c10-9333-4296-b987-4e4fca70ab29","ios":"levelo://app?vid=3f481c10-9333-4296-b987-4e4fca70ab29"},"vehicle_type_id":"4","last_reported":1727072041,"current_range_meters":26000,"station_id":"ce4bhbp2rcd13ifvqerg","pricing_plan_id":"cebpf4jnsgd1na2vs0mg"},{"bike_id":"fdae784e-cbba-4992-8883-fae0b0354ec0","system_id":"levelo_inurba_marseille","lat":43.31714,"lon":5.43705,"is_reserved":false,"is_disabled":false,"rental_uris":{"android":"levelo://app?vid=fdae784e-cbba-4992-8883-fae0b0354ec0","ios":"levelo://app?vid=fdae784e-cbba-4992-8883-fae0b0354ec0"},"vehicle_type_id":"4","last_reported":1727072041,"current_range_meters":16800,"station_id":"ce4bhp92rcd13ifvqhcg","pricing_plan_id":"cebpf4jnsgd1na2vs0mg"},{"bike_id":"5a66f585-e967-4374-bcdd-8813f4b27f84","system_id":"levelo_inurba_marseille","lat":43.295868,"lon":5.400211,"is_reserved":false,"is_disabled":false,"rental_uris":{"android":"levelo://app?vid=5a66f585-e967-4374-bcdd-8813f4b27f84","ios":"levelo://app?vid=5a66f585-e967-4374-bcdd-8813f4b27f84"},"vehicle_type_id":"4","last_reported":1727072041,"current_range_meters":6800,"station_id":"ce4bh4p2rcd13ifvqe0g","pricing_plan_id":"cebpf4jnsgd1na2vs0mg"},{"bike_id":"c2e4c79a-0df9-4513-85fd-ed0b23d7b12d","system_id":"levelo_inurba_marseille","lat":43.29619,"lon":5.37169,"is_reserved":false,"is_disabled":false,"rental_uris":{"android":"levelo://app?vid=c2e4c79a-0df9-4513-85fd-ed0b23d7b12d","ios":"levelo://app?vid=c2e4c79a-0df9-4513-85fd-ed0b23d7b12d"},"vehicle_type_id":"4","last_reported":1727072041,"current_range_meters":34800,"station_id":"ce4bgnh2rcd13ifvqc0g","pricing_plan_id":"cebpf4jnsgd1na2vs0mg"},{"bike_id":"6b97b311-01f6-4da4-8541-32e924b4d4c5","system_id":"levelo_inurba_marseille","lat":43.26666,"lon":5.38299,"is_reserved":false,"is_disabled":false,"rental_uris":{"android":"levelo://app?vid=6b97b311-01f6-4da4-8541-32e924b4d4c5","ios":"levelo://app?vid=6b97b311-01f6-4da4-8541-32e924b4d4c5"},"vehicle_type_id":"4","last_reported":1727072041,"current_range_meters":38800,"station_id":"ce4bhg92rcd13ifvqf90","pricing_plan_id":"cebpf4jnsgd1na2vs0mg"},{"bike_id":"1e94f91d-c56d-4e10-99f2-96187ed595ab","system_id":"levelo_inurba_marseille","lat":43.28348,"lon":5.38108,"is_reserved":false,"is_disabled":false,"rental_uris":{"android":"levelo://app?vid=1e94f91d-c56d-4e10-99f2-96187ed595ab","ios":"levelo://app?vid=1e94f91d-c56d-4e10-99f2-96187ed595ab"},"vehicle_type_id":"4","last_reported":1727072041,"current_range_meters":14000,"station_id":"ce4bh412rcd13ifvqdr0","pricing_plan_id":"cebpf4jnsgd1na2vs0mg"},{"bike_id":"dfecea0a-0422-4bc0-a57a-bf86bc071c86","system_id":"levelo_inurba_marseille","lat":43.25933,"lon":5.40908,"is_reserved":false,"is_disabled":false,"rental_uris":{"android":"levelo://app?vid=dfecea0a-0422-4bc0-a57a-bf86bc071c86","ios":"levelo://app?vid=dfecea0a-0422-4bc0-a57a-bf86bc071c86"},"vehicle_type_id":"4","last_reported":1727072041,"current_range_meters":25200,"station_id":"ce4bhm92rcd13ifvqglg","pricing_plan_id":"cebpf4jnsgd1na2vs0mg"},{"bike_id":"a1df6bef-8573-4247-ad4b-de77871636bc","system_id":"levelo_inurba_marseille","lat":43.30316,"lon":5.36902,"is_reserved":false,"is_disabled":false,"rental_uris":{"android":"levelo://app?vid=a1df6bef-8573-4247-ad4b-de77871636bc","ios":"levelo://app?vid=a1df6bef-8573-4247-ad4b-de77871636bc"},"vehicle_type_id":"4","last_reported":1727072041,"current_range_meters":38000,"station_id":"ce4bgqh2rcd13ifvqc5g","pricing_plan_id":"cebpf4jnsgd1na2vs0mg"},{"bike_id":"21dcbd8d-716a-4329-88aa-946e4d17dbc4","system_id":"levelo_inurba_marseille","lat":43.25579,"lon":5.38232,"is_reserved":false,"is_disabled":false,"rental_uris":{"android":"levelo://app?vid=21dcbd8d-716a-4329-88aa-946e4d17dbc4","ios":"levelo://app?vid=21dcbd8d-716a-4329-88aa-946e4d17dbc4"},"vehicle_type_id":"4","last_reported":1727072041,"current_range_meters":32800,"station_id":"ce4bhih2rcd13ifvqfs0","pricing_plan_id":"cebpf4jnsgd1na2vs0mg"},{"bike_id":"bc990d71-e371-44fe-bc73-b1dc137e7c3c","system_id":"levelo_inurba_marseille","lat":43.30458,"lon":5.3791,"is_reserved":false,"is_disabled":false,"rental_uris":{"android":"levelo://app?vid=bc990d71-e371-44fe-bc73-b1dc137e7c3c","ios":"levelo://app?vid=bc990d71-e371-44fe-bc73-b1dc137e7c3c"},"vehicle_type_id":"4","last_reported":1727072041,"current_range_meters":20400,"station_id":"ce4bgup2rcd13ifvqcn0","pricing_plan_id":"cebpf4jnsgd1na2vs0mg"},{"bike_id":"c0507383-7fce-419e-95c6-00898a28b35f","system_id":"levelo_inurba_marseille","lat":43.29572,"lon":5.39985,"is_reserved":false,"is_disabled":false,"rental_uris":{"android":"levelo://app?vid=c0507383-7fce-419e-95c6-00898a28b35f","ios":"levelo://app?vid=c0507383-7fce-419e-95c6-00898a28b35f"},"vehicle_type_id":"4","last_reported":1727072041,"current_range_meters":37600,"station_id":"ce4bh312rcd13ifvqdj0","pricing_plan_id":"cebpf4jnsgd1na2vs0mg"},{"bike_id":"20a042f1-81aa-4cde-8548-4f002e395336","system_id":"levelo_inurba_marseille","lat":43.30187,"lon":5.39853,"is_reserved":false,"is_disabled":false,"rental_uris":{"android":"levelo://app?vid=20a042f1-81aa-4cde-8548-4f002e395336","ios":"levelo://app?vid=20a042f1-81aa-4cde-8548-4f002e395336"},"vehicle_type_id":"4","last_reported":1727072041,"current_range_meters":33600,"station_id":"ce4bgvp2rcd13ifvqct0","pricing_plan_id":"cebpf4jnsgd1na2vs0mg"},{"bike_id":"db42b59a-67e7-4a40-87c0-cfc7d9a312ca","system_id":"levelo_inurba_marseille","lat":43.33608,"lon":5.41036,"is_reserved":false,"is_disabled":false,"rental_uris":{"android":"levelo://app?vid=db42b59a-67e7-4a40-87c0-cfc7d9a312ca","ios":"levelo://app?vid=db42b59a-67e7-4a40-87c0-cfc7d9a312ca"},"vehicle_type_id":"4","last_reported":1727072041,"current_range_meters":16400,"station_id":"ce4bhqh2rcd13ifvqhmg","pricing_plan_id":"cebpf4jnsgd1na2vs0mg"},{"bike_id":"ecad1443-9a19-423b-a944-44b9cff9c66b","system_id":"levelo_inurba_marseille","lat":43.27493,"lon":5.42447,"is_reserved":false,"is_disabled":false,"rental_uris":{"android":"levelo://app?vid=ecad1443-9a19-423b-a944-44b9cff9c66b","ios":"levelo://app?vid=ecad1443-9a19-423b-a944-44b9cff9c66b"},"vehicle_type_id":"4","last_reported":1727072041,"current_range_meters":30000,"station_id":"ce4bhn92rcd13ifvqgrg","pricing_plan_id":"cebpf4jnsgd1na2vs0mg"},{"bike_id":"2beea08d-08e6-4f58-b043-ff4e57c5c48d","system_id":"levelo_inurba_marseille","lat":43.2558,"lon":5.38238,"is_reserved":false,"is_disabled":false,"rental_uris":{"android":"levelo://app?vid=2beea08d-08e6-4f58-b043-ff4e57c5c48d","ios":"levelo://app?vid=2beea08d-08e6-4f58-b043-ff4e57c5c48d"},"vehicle_type_id":"4","last_reported":1727072041,"current_range_meters":28800,"station_id":"ce4bhih2rcd13ifvqfs0","pricing_plan_id":"cebpf4jnsgd1na2vs0mg"},{"bike_id":"f490f488-1f0e-45bf-b06b-2a8cc8f44dbb","system_id":"levelo_inurba_marseille","lat":43.274887,"lon":5.42461,"is_reserved":false,"is_disabled":false,"rental_uris":{"android":"levelo://app?vid=f490f488-1f0e-45bf-b06b-2a8cc8f44dbb","ios":"levelo://app?vid=f490f488-1f0e-45bf-b06b-2a8cc8f44dbb"},"vehicle_type_id":"4","last_reported":1727072041,"current_range_meters":14800,"station_id":"ce4bhn92rcd13ifvqgrg","pricing_plan_id":"cebpf4jnsgd1na2vs0mg"},{"bike_id":"3a7ed549-316a-4df9-aff1-920d808cad7e","system_id":"levelo_inurba_marseille","lat":43.30546,"lon":5.36525,"is_reserved":false,"is_disabled":false,"rental_uris":{"android":"levelo://app?vid=3a7ed549-316a-4df9-aff1-920d808cad7e","ios":"levelo://app?vid=3a7ed549-316a-4df9-aff1-920d808cad7e"},"vehicle_type_id":"4","last_reported":1727072041,"current_range_meters":26800,"station_id":"ce4bgs12rcd13ifvqcag","pricing_plan_id":"cebpf4jnsgd1na2vs0mg"},{"bike_id":"fd8ebeca-cacc-4b62-a4ed-3ab43d172053","system_id":"levelo_inurba_marseille","lat":43.299347,"lon":5.365574,"is_reserved":false,"is_disabled":false,"rental_uris":{"android":"levelo://app?vid=fd8ebeca-cacc-4b62-a4ed-3ab43d172053","ios":"levelo://app?vid=fd8ebeca-cacc-4b62-a4ed-3ab43d172053"},"vehicle_type_id":"4","last_reported":1727072041,"current_range_meters":32800,"station_id":"ce4bgm92rcd13ifvqbr0","pricing_plan_id":"cebpf4jnsgd1na2vs0mg"},{"bike_id":"8c174498-b846-405d-a78b-746976f46acb","system_id":"levelo_inurba_marseille","lat":43.31488,"lon":5.37306,"is_reserved":false,"is_disabled":false,"rental_uris":{"android":"levelo://app?vid=8c174498-b846-405d-a78b-746976f46acb","ios":"levelo://app?vid=8c174498-b846-405d-a78b-746976f46acb"},"vehicle_type_id":"4","last_reported":1727072041,"current_range_meters":38800,"station_id":"ce4bgt12rcd13ifvqcd0","pricing_plan_id":"cebpf4jnsgd1na2vs0mg"},{"bike_id":"760dc669-cd3a-4ab2-8dea-c6e548ddacb1","system_id":"levelo_inurba_marseille","lat":43.30188,"lon":5.38936,"is_reserved":false,"is_disabled":false,"rental_uris":{"android":"levelo://app?vid=760dc669-cd3a-4ab2-8dea-c6e548ddacb1","ios":"levelo://app?vid=760dc669-cd3a-4ab2-8dea-c6e548ddacb1"},"vehicle_type_id":"4","last_reported":1727072041,"current_range_meters":30400,"station_id":"ce4bhp92rcd13ifvqhag","pricing_plan_id":"cebpf4jnsgd1na2vs0mg"},{"bike_id":"a73d6a51-8b31-45aa-88f1-7bd5bd372e07","system_id":"levelo_inurba_marseille","lat":43.26958,"lon":5.38629,"is_reserved":false,"is_disabled":false,"rental_uris":{"android":"levelo://app?vid=a73d6a51-8b31-45aa-88f1-7bd5bd372e07","ios":"levelo://app?vid=a73d6a51-8b31-45aa-88f1-7bd5bd372e07"},"vehicle_type_id":"4","last_reported":1727072041,"current_range_meters":36400,"station_id":"ce4bhh92rcd13ifvqfh0","pricing_plan_id":"cebpf4jnsgd1na2vs0mg"},{"bike_id":"7695f62d-4bc7-4c5d-a96d-d1d07410b2ec","system_id":"levelo_inurba_marseille","lat":43.30538,"lon":5.38417,"is_reserved":false,"is_disabled":false,"rental_uris":{"android":"levelo://app?vid=7695f62d-4bc7-4c5d-a96d-d1d07410b2ec","ios":"levelo://app?vid=7695f62d-4bc7-4c5d-a96d-d1d07410b2ec"},"vehicle_type_id":"4","last_reported":1727072041,"current_range_meters":32000,"station_id":"ce4bgg92rcd13ifvqb30","pricing_plan_id":"cebpf4jnsgd1na2vs0mg"},{"bike_id":"485c17bd-076b-45c1-856d-77f42cbe6780","system_id":"levelo_inurba_marseille","lat":43.29302,"lon":5.3746,"is_reserved":false,"is_disabled":false,"rental_uris":{"android":"levelo://app?vid=485c17bd-076b-45c1-856d-77f42cbe6780","ios":"levelo://app?vid=485c17bd-076b-45c1-856d-77f42cbe6780"},"vehicle_type_id":"4","last_reported":1727072041,"current_range_meters":24000,"station_id":"ce4bgi12rcd13ifvqb70","pricing_plan_id":"cebpf4jnsgd1na2vs0mg"},{"bike_id":"bf9495db-1220-4cb4-9d3f-7433d3b4f386","system_id":"levelo_inurba_marseille","lat":43.2827,"lon":5.3507,"is_reserved":false,"is_disabled":false,"rental_uris":{"android":"levelo://app?vid=bf9495db-1220-4cb4-9d3f-7433d3b4f386","ios":"levelo://app?vid=bf9495db-1220-4cb4-9d3f-7433d3b4f386"},"vehicle_type_id":"4","last_reported":1727072041,"current_range_meters":38400,"station_id":"ce4bhbp2rcd13ifvqerg","pricing_plan_id":"cebpf4jnsgd1na2vs0mg"},{"bike_id":"292ca72d-a806-457b-801e-136c0bb2c8bb","system_id":"levelo_inurba_marseille","lat":43.27497,"lon":5.42447,"is_reserved":false,"is_disabled":false,"rental_uris":{"android":"levelo://app?vid=292ca72d-a806-457b-801e-136c0bb2c8bb","ios":"levelo://app?vid=292ca72d-a806-457b-801e-136c0bb2c8bb"},"vehicle_type_id":"4","last_reported":1727072041,"current_range_meters":27200,"station_id":"ce4bhn92rcd13ifvqgrg","pricing_plan_id":"cebpf4jnsgd1na2vs0mg"},{"bike_id":"e35f0e97-2b9f-438d-b1bc-2da44bc851c0","system_id":"levelo_inurba_marseille","lat":43.31711,"lon":5.43704,"is_reserved":false,"is_disabled":false,"rental_uris":{"android":"levelo://app?vid=e35f0e97-2b9f-438d-b1bc-2da44bc851c0","ios":"levelo://app?vid=e35f0e97-2b9f-438d-b1bc-2da44bc851c0"},"vehicle_type_id":"4","last_reported":1727072041,"current_range_meters":38800,"station_id":"ce4bhp92rcd13ifvqhcg","pricing_plan_id":"cebpf4jnsgd1na2vs0mg"},{"bike_id":"182659b5-5700-4d65-829d-fff44cbd9ed2","system_id":"levelo_inurba_marseille","lat":43.302306,"lon":5.395119,"is_reserved":false,"is_disabled":false,"rental_uris":{"android":"levelo://app?vid=182659b5-5700-4d65-829d-fff44cbd9ed2","ios":"levelo://app?vid=182659b5-5700-4d65-829d-fff44cbd9ed2"},"vehicle_type_id":"4","last_reported":1727072041,"current_range_meters":38800,"station_id":"ce4bh0p2rcd13ifvqd70","pricing_plan_id":"cebpf4jnsgd1na2vs0mg"},{"bike_id":"4ab2a062-0ee5-448f-a500-07319e958bef","system_id":"levelo_inurba_marseille","lat":43.30451,"lon":5.37909,"is_reserved":false,"is_disabled":false,"rental_uris":{"android":"levelo://app?vid=4ab2a062-0ee5-448f-a500-07319e958bef","ios":"levelo://app?vid=4ab2a062-0ee5-448f-a500-07319e958bef"},"vehicle_type_id":"4","last_reported":1727072041,"current_range_meters":36400,"station_id":"ce4bgup2rcd13ifvqcn0","pricing_plan_id":"cebpf4jnsgd1na2vs0mg"},{"bike_id":"c7374a53-8f5b-4527-a029-e2c6a5ca1d94","system_id":"levelo_inurba_marseille","lat":43.28039,"lon":5.3695,"is_reserved":false,"is_disabled":false,"rental_uris":{"android":"levelo://app?vid=c7374a53-8f5b-4527-a029-e2c6a5ca1d94","ios":"levelo://app?vid=c7374a53-8f5b-4527-a029-e2c6a5ca1d94"},"vehicle_type_id":"4","last_reported":1727072041,"current_range_meters":32400,"station_id":"ce4bha12rcd13ifvqef0","pricing_plan_id":"cebpf4jnsgd1na2vs0mg"},{"bike_id":"cda5c151-621b-47d5-aee8-addf06844e66","system_id":"levelo_inurba_marseille","lat":43.287246,"lon":5.379334,"is_reserved":false,"is_disabled":false,"rental_uris":{"android":"levelo://app?vid=cda5c151-621b-47d5-aee8-addf06844e66","ios":"levelo://app?vid=cda5c151-621b-47d5-aee8-addf06844e66"},"vehicle_type_id":"4","last_reported":1727072041,"current_range_meters":29600,"station_id":"","pricing_plan_id":"cebpf4jnsgd1na2vs0mg"},{"bike_id":"46e363b5-f20a-4a1d-b53e-426b7ead4885","system_id":"levelo_inurba_marseille","lat":43.29607,"lon":5.38101,"is_reserved":false,"is_disabled":false,"rental_uris":{"android":"levelo://app?vid=46e363b5-f20a-4a1d-b53e-426b7ead4885","ios":"levelo://app?vid=46e363b5-f20a-4a1d-b53e-426b7ead4885"},"vehicle_type_id":"4","last_reported":1727072041,"current_range_meters":18000,"station_id":"ce4bgl12rcd13ifvqbo0","pricing_plan_id":"cebpf4jnsgd1na2vs0mg"},{"bike_id":"1ab17d00-8be2-44f9-8370-37394f7365c9","system_id":"levelo_inurba_marseille","lat":43.2696,"lon":5.38629,"is_reserved":false,"is_disabled":false,"rental_uris":{"android":"levelo://app?vid=1ab17d00-8be2-44f9-8370-37394f7365c9","ios":"levelo://app?vid=1ab17d00-8be2-44f9-8370-37394f7365c9"},"vehicle_type_id":"4","last_reported":1727072041,"current_range_meters":4800,"station_id":"ce4bhh92rcd13ifvqfh0","pricing_plan_id":"cebpf4jnsgd1na2vs0mg"},{"bike_id":"e68b94cf-f394-4560-9c0b-52865583d26a","system_id":"levelo_inurba_marseille","lat":43.23184,"lon":5.39984,"is_reserved":false,"is_disabled":false,"rental_uris":{"android":"levelo://app?vid=e68b94cf-f394-4560-9c0b-52865583d26a","ios":"levelo://app?vid=e68b94cf-f394-4560-9c0b-52865583d26a"},"vehicle_type_id":"4","last_reported":1727072041,"current_range_meters":14400,"station_id":"ce4bhn12rcd13ifvqgqg","pricing_plan_id":"cebpf4jnsgd1na2vs0mg"},{"bike_id":"75f1728e-0f96-4e03-8fe0-55386993e944","system_id":"levelo_inurba_marseille","lat":43.31882,"lon":5.40733,"is_reserved":false,"is_disabled":false,"rental_uris":{"android":"levelo://app?vid=75f1728e-0f96-4e03-8fe0-55386993e944","ios":"levelo://app?vid=75f1728e-0f96-4e03-8fe0-55386993e944"},"vehicle_type_id":"4","last_reported":1727072041,"current_range_meters":32000,"station_id":"ce4bhq12rcd13ifvqhig","pricing_plan_id":"cebpf4jnsgd1na2vs0mg"},{"bike_id":"c073fc37-5172-4577-8a78-80388edd635f","system_id":"levelo_inurba_marseille","lat":43.2952,"lon":5.37507,"is_reserved":false,"is_disabled":false,"rental_uris":{"android":"levelo://app?vid=c073fc37-5172-4577-8a78-80388edd635f","ios":"levelo://app?vid=c073fc37-5172-4577-8a78-80388edd635f"},"vehicle_type_id":"4","last_reported":1727072041,"current_range_meters":24400,"station_id":"ce4bgkp2rcd13ifvqbmg","pricing_plan_id":"cebpf4jnsgd1na2vs0mg"},{"bike_id":"3ebaaaec-15d2-494c-ab9e-13e8bcbe1874","system_id":"levelo_inurba_marseille","lat":43.29276,"lon":5.3686,"is_reserved":false,"is_disabled":false,"rental_uris":{"android":"levelo://app?vid=3ebaaaec-15d2-494c-ab9e-13e8bcbe1874","ios":"levelo://app?vid=3ebaaaec-15d2-494c-ab9e-13e8bcbe1874"},"vehicle_type_id":"4","last_reported":1727072041,"current_range_meters":32000,"station_id":"ce4bhbp2rcd13ifvqesg","pricing_plan_id":"cebpf4jnsgd1na2vs0mg"},{"bike_id":"3b77c43e-8664-42c0-86f7-ff7bc22904f9","system_id":"levelo_inurba_marseille","lat":43.305384,"lon":5.384255,"is_reserved":false,"is_disabled":false,"rental_uris":{"android":"levelo://app?vid=3b77c43e-8664-42c0-86f7-ff7bc22904f9","ios":"levelo://app?vid=3b77c43e-8664-42c0-86f7-ff7bc22904f9"},"vehicle_type_id":"4","last_reported":1727072041,"current_range_meters":10800,"station_id":"ce4bgg92rcd13ifvqb30","pricing_plan_id":"cebpf4jnsgd1na2vs0mg"},{"bike_id":"2b26ac36-e341-4854-a9d6-915450d3500a","system_id":"levelo_inurba_marseille","lat":43.27069,"lon":5.42276,"is_reserved":false,"is_disabled":false,"rental_uris":{"android":"levelo://app?vid=2b26ac36-e341-4854-a9d6-915450d3500a","ios":"levelo://app?vid=2b26ac36-e341-4854-a9d6-915450d3500a"},"vehicle_type_id":"4","last_reported":1727072041,"current_range_meters":38000,"station_id":"ce4bhk92rcd13ifvqgb0","pricing_plan_id":"cebpf4jnsgd1na2vs0mg"},{"bike_id":"454866e8-8cfe-49d5-83ee-5ab67f9fd10a","system_id":"levelo_inurba_marseille","lat":43.29609,"lon":5.38104,"is_reserved":false,"is_disabled":false,"rental_uris":{"android":"levelo://app?vid=454866e8-8cfe-49d5-83ee-5ab67f9fd10a","ios":"levelo://app?vid=454866e8-8cfe-49d5-83ee-5ab67f9fd10a"},"vehicle_type_id":"4","last_reported":1727072041,"current_range_meters":28400,"station_id":"ce4bgl12rcd13ifvqbo0","pricing_plan_id":"cebpf4jnsgd1na2vs0mg"},{"bike_id":"95233b21-d240-4ffe-af97-b5ec6c377718","system_id":"levelo_inurba_marseille","lat":43.33611,"lon":5.41034,"is_reserved":false,"is_disabled":false,"rental_uris":{"android":"levelo://app?vid=95233b21-d240-4ffe-af97-b5ec6c377718","ios":"levelo://app?vid=95233b21-d240-4ffe-af97-b5ec6c377718"},"vehicle_type_id":"4","last_reported":1727072041,"current_range_meters":27600,"station_id":"ce4bhqh2rcd13ifvqhmg","pricing_plan_id":"cebpf4jnsgd1na2vs0mg"},{"bike_id":"90890cf4-4c81-4003-ba44-9a9a23207e3d","system_id":"levelo_inurba_marseille","lat":43.25862,"lon":5.39889,"is_reserved":false,"is_disabled":false,"rental_uris":{"android":"levelo://app?vid=90890cf4-4c81-4003-ba44-9a9a23207e3d","ios":"levelo://app?vid=90890cf4-4c81-4003-ba44-9a9a23207e3d"},"vehicle_type_id":"4","last_reported":1727072041,"current_range_meters":38000,"station_id":"ce4bhl92rcd13ifvqghg","pricing_plan_id":"cebpf4jnsgd1na2vs0mg"},{"bike_id":"663b5592-7b4e-4d56-8fee-d5f53d3ee839","system_id":"levelo_inurba_marseille","lat":43.26563,"lon":5.39002,"is_reserved":false,"is_disabled":false,"rental_uris":{"android":"levelo://app?vid=663b5592-7b4e-4d56-8fee-d5f53d3ee839","ios":"levelo://app?vid=663b5592-7b4e-4d56-8fee-d5f53d3ee839"},"vehicle_type_id":"4","last_reported":1727072041,"current_range_meters":26800,"station_id":"ce4bhe12rcd13ifvqf30","pricing_plan_id":"cebpf4jnsgd1na2vs0mg"},{"bike_id":"a3108788-6dbe-4135-a9c6-12d545d1be39","system_id":"levelo_inurba_marseille","lat":43.25582,"lon":5.38232,"is_reserved":false,"is_disabled":false,"rental_uris":{"android":"levelo://app?vid=a3108788-6dbe-4135-a9c6-12d545d1be39","ios":"levelo://app?vid=a3108788-6dbe-4135-a9c6-12d545d1be39"},"vehicle_type_id":"4","last_reported":1727072041,"current_range_meters":38000,"station_id":"ce4bhih2rcd13ifvqfs0","pricing_plan_id":"cebpf4jnsgd1na2vs0mg"},{"bike_id":"b46a0750-bd07-4ba9-8b52-8abd2c69029e","system_id":"levelo_inurba_marseille","lat":43.288513,"lon":5.39315,"is_reserved":false,"is_disabled":false,"rental_uris":{"android":"levelo://app?vid=b46a0750-bd07-4ba9-8b52-8abd2c69029e","ios":"levelo://app?vid=b46a0750-bd07-4ba9-8b52-8abd2c69029e"},"vehicle_type_id":"4","last_reported":1727072041,"current_range_meters":32800,"station_id":"ce4bh2p2rcd13ifvqdi0","pricing_plan_id":"cebpf4jnsgd1na2vs0mg"},{"bike_id":"36c416da-9158-44af-aa3a-06b103bea7bf","system_id":"levelo_inurba_marseille","lat":43.337444,"lon":5.374475,"is_reserved":false,"is_disabled":false,"rental_uris":{"android":"levelo://app?vid=36c416da-9158-44af-aa3a-06b103bea7bf","ios":"levelo://app?vid=36c416da-9158-44af-aa3a-06b103bea7bf"},"vehicle_type_id":"4","last_reported":1727072041,"current_range_meters":24800,"station_id":"","pricing_plan_id":"cebpf4jnsgd1na2vs0mg"},{"bike_id":"264b8645-fb1d-47ae-90b3-8e9ae7b9c4fb","system_id":"levelo_inurba_marseille","lat":43.26576,"lon":5.39016,"is_reserved":false,"is_disabled":false,"rental_uris":{"android":"levelo://app?vid=264b8645-fb1d-47ae-90b3-8e9ae7b9c4fb","ios":"levelo://app?vid=264b8645-fb1d-47ae-90b3-8e9ae7b9c4fb"},"vehicle_type_id":"4","last_reported":1727072041,"current_range_meters":15200,"station_id":"ce4bhe12rcd13ifvqf30","pricing_plan_id":"cebpf4jnsgd1na2vs0mg"},{"bike_id":"5ec9cf8a-fdf5-4011-8d40-525f2aab5ccc","system_id":"levelo_inurba_marseille","lat":43.30809,"lon":5.38151,"is_reserved":false,"is_disabled":false,"rental_uris":{"android":"levelo://app?vid=5ec9cf8a-fdf5-4011-8d40-525f2aab5ccc","ios":"levelo://app?vid=5ec9cf8a-fdf5-4011-8d40-525f2aab5ccc"},"vehicle_type_id":"4","last_reported":1727072041,"current_range_meters":12000,"station_id":"ce4bgt12rcd13ifvqce0","pricing_plan_id":"cebpf4jnsgd1na2vs0mg"},{"bike_id":"60595dd7-7154-491c-868c-59d0ab9cc813","system_id":"levelo_inurba_marseille","lat":43.30217,"lon":5.39474,"is_reserved":false,"is_disabled":false,"rental_uris":{"android":"levelo://app?vid=60595dd7-7154-491c-868c-59d0ab9cc813","ios":"levelo://app?vid=60595dd7-7154-491c-868c-59d0ab9cc813"},"vehicle_type_id":"4","last_reported":1727072041,"current_range_meters":36000,"station_id":"ce4bh0p2rcd13ifvqd70","pricing_plan_id":"cebpf4jnsgd1na2vs0mg"},{"bike_id":"dcf3d7bc-c35f-4647-a9ab-733122a04faf","system_id":"levelo_inurba_marseille","lat":43.25104,"lon":5.40322,"is_reserved":false,"is_disabled":false,"rental_uris":{"android":"levelo://app?vid=dcf3d7bc-c35f-4647-a9ab-733122a04faf","ios":"levelo://app?vid=dcf3d7bc-c35f-4647-a9ab-733122a04faf"},"vehicle_type_id":"4","last_reported":1727072041,"current_range_meters":38000,"station_id":"ce4bhlh2rcd13ifvqgig","pricing_plan_id":"cebpf4jnsgd1na2vs0mg"},{"bike_id":"bc08d377-8934-49f9-a16b-d231e67a2261","system_id":"levelo_inurba_marseille","lat":43.28152,"lon":5.42647,"is_reserved":false,"is_disabled":false,"rental_uris":{"android":"levelo://app?vid=bc08d377-8934-49f9-a16b-d231e67a2261","ios":"levelo://app?vid=bc08d377-8934-49f9-a16b-d231e67a2261"},"vehicle_type_id":"4","last_reported":1727072041,"current_range_meters":22000,"station_id":"ce4bhnh2rcd13ifvqgug","pricing_plan_id":"cebpf4jnsgd1na2vs0mg"},{"bike_id":"a946714b-2b93-4282-8940-2934c541cd65","system_id":"levelo_inurba_marseille","lat":43.29553,"lon":5.42282,"is_reserved":false,"is_disabled":false,"rental_uris":{"android":"levelo://app?vid=a946714b-2b93-4282-8940-2934c541cd65","ios":"levelo://app?vid=a946714b-2b93-4282-8940-2934c541cd65"},"vehicle_type_id":"4","last_reported":1727072041,"current_range_meters":10800,"station_id":"ce4bhph2rcd13ifvqhdg","pricing_plan_id":"cebpf4jnsgd1na2vs0mg"},{"bike_id":"f72b4ee5-3b6a-4bba-8e4b-bc24bda6e341","system_id":"levelo_inurba_marseille","lat":43.28576,"lon":5.39496,"is_reserved":false,"is_disabled":false,"rental_uris":{"android":"levelo://app?vid=f72b4ee5-3b6a-4bba-8e4b-bc24bda6e341","ios":"levelo://app?vid=f72b4ee5-3b6a-4bba-8e4b-bc24bda6e341"},"vehicle_type_id":"4","last_reported":1727072041,"current_range_meters":25600,"station_id":"ce4bh292rcd13ifvqdg0","pricing_plan_id":"cebpf4jnsgd1na2vs0mg"},{"bike_id":"d6391691-de65-45d3-b374-0c65a866bbce","system_id":"levelo_inurba_marseille","lat":43.317,"lon":5.40473,"is_reserved":false,"is_disabled":false,"rental_uris":{"android":"levelo://app?vid=d6391691-de65-45d3-b374-0c65a866bbce","ios":"levelo://app?vid=d6391691-de65-45d3-b374-0c65a866bbce"},"vehicle_type_id":"4","last_reported":1727072041,"current_range_meters":32800,"station_id":"ce4bh012rcd13ifvqd00","pricing_plan_id":"cebpf4jnsgd1na2vs0mg"},{"bike_id":"fee847b2-684e-4f0f-b3c3-0910bdb1f06e","system_id":"levelo_inurba_marseille","lat":43.28153,"lon":5.42638,"is_reserved":false,"is_disabled":false,"rental_uris":{"android":"levelo://app?vid=fee847b2-684e-4f0f-b3c3-0910bdb1f06e","ios":"levelo://app?vid=fee847b2-684e-4f0f-b3c3-0910bdb1f06e"},"vehicle_type_id":"4","last_reported":1727072041,"current_range_meters":9600,"station_id":"ce4bhnh2rcd13ifvqgug","pricing_plan_id":"cebpf4jnsgd1na2vs0mg"},{"bike_id":"22884c3d-26ce-499d-be8e-ff078444446a","system_id":"levelo_inurba_marseille","lat":43.24076,"lon":5.37758,"is_reserved":false,"is_disabled":false,"rental_uris":{"android":"levelo://app?vid=22884c3d-26ce-499d-be8e-ff078444446a","ios":"levelo://app?vid=22884c3d-26ce-499d-be8e-ff078444446a"},"vehicle_type_id":"4","last_reported":1727072041,"current_range_meters":38800,"station_id":"ce4bhnp2rcd13ifvqgvg","pricing_plan_id":"cebpf4jnsgd1na2vs0mg"},{"bike_id":"3080c4bd-f1c2-4d8a-82af-f31e9289edf3","system_id":"levelo_inurba_marseille","lat":43.289523,"lon":5.397782,"is_reserved":false,"is_disabled":false,"rental_uris":{"android":"levelo://app?vid=3080c4bd-f1c2-4d8a-82af-f31e9289edf3","ios":"levelo://app?vid=3080c4bd-f1c2-4d8a-82af-f31e9289edf3"},"vehicle_type_id":"4","last_reported":1727072041,"current_range_meters":33600,"station_id":"ce4bh392rcd13ifvqdm0","pricing_plan_id":"cebpf4jnsgd1na2vs0mg"},{"bike_id":"e6b9b167-7fdc-4225-a85e-7fea6cfd4f4e","system_id":"levelo_inurba_marseille","lat":43.29094,"lon":5.35611,"is_reserved":false,"is_disabled":false,"rental_uris":{"android":"levelo://app?vid=e6b9b167-7fdc-4225-a85e-7fea6cfd4f4e","ios":"levelo://app?vid=e6b9b167-7fdc-4225-a85e-7fea6cfd4f4e"},"vehicle_type_id":"4","last_reported":1727072041,"current_range_meters":20000,"station_id":"","pricing_plan_id":"cebpf4jnsgd1na2vs0mg"},{"bike_id":"4417d653-9f9f-464d-ada8-0118787cf87d","system_id":"levelo_inurba_marseille","lat":43.28849,"lon":5.35845,"is_reserved":false,"is_disabled":false,"rental_uris":{"android":"levelo://app?vid=4417d653-9f9f-464d-ada8-0118787cf87d","ios":"levelo://app?vid=4417d653-9f9f-464d-ada8-0118787cf87d"},"vehicle_type_id":"4","last_reported":1727072041,"current_range_meters":38800,"station_id":"ce4bhb12rcd13ifvqem0","pricing_plan_id":"cebpf4jnsgd1na2vs0mg"},{"bike_id":"149779fc-bc45-458a-857f-33707eedaf6a","system_id":"levelo_inurba_marseille","lat":43.2319,"lon":5.35548,"is_reserved":false,"is_disabled":false,"rental_uris":{"android":"levelo://app?vid=149779fc-bc45-458a-857f-33707eedaf6a","ios":"levelo://app?vid=149779fc-bc45-458a-857f-33707eedaf6a"},"vehicle_type_id":"4","last_reported":1727072041,"current_range_meters":10000,"station_id":"ce4bhu92rcd13ifvqi70","pricing_plan_id":"cebpf4jnsgd1na2vs0mg"},{"bike_id":"0887ada4-7ace-4f9e-83e0-036cffcd8a08","system_id":"levelo_inurba_marseille","lat":43.240906,"lon":5.378248,"is_reserved":false,"is_disabled":false,"rental_uris":{"android":"levelo://app?vid=0887ada4-7ace-4f9e-83e0-036cffcd8a08","ios":"levelo://app?vid=0887ada4-7ace-4f9e-83e0-036cffcd8a08"},"vehicle_type_id":"4","last_reported":1727072041,"current_range_meters":36400,"station_id":"ce4bhnp2rcd13ifvqgvg","pricing_plan_id":"cebpf4jnsgd1na2vs0mg"},{"bike_id":"50ba4f8c-d7e3-421b-a3d3-9d4c75fe8e26","system_id":"levelo_inurba_marseille","lat":43.29034,"lon":5.39965,"is_reserved":false,"is_disabled":false,"rental_uris":{"android":"levelo://app?vid=50ba4f8c-d7e3-421b-a3d3-9d4c75fe8e26","ios":"levelo://app?vid=50ba4f8c-d7e3-421b-a3d3-9d4c75fe8e26"},"vehicle_type_id":"4","last_reported":1727072041,"current_range_meters":39200,"station_id":"ce4bh392rcd13ifvqdm0","pricing_plan_id":"cebpf4jnsgd1na2vs0mg"},{"bike_id":"fb209907-c927-4356-b275-77508c3282bf","system_id":"levelo_inurba_marseille","lat":43.325329,"lon":5.414268,"is_reserved":false,"is_disabled":false,"rental_uris":{"android":"levelo://app?vid=fb209907-c927-4356-b275-77508c3282bf","ios":"levelo://app?vid=fb209907-c927-4356-b275-77508c3282bf"},"vehicle_type_id":"4","last_reported":1727072041,"current_range_meters":30000,"station_id":"ce4bhq12rcd13ifvqhhg","pricing_plan_id":"cebpf4jnsgd1na2vs0mg"},{"bike_id":"aa6b3320-f4b4-47ac-b9e1-6322f4823ed3","system_id":"levelo_inurba_marseille","lat":43.30462,"lon":5.37912,"is_reserved":false,"is_disabled":false,"rental_uris":{"android":"levelo://app?vid=aa6b3320-f4b4-47ac-b9e1-6322f4823ed3","ios":"levelo://app?vid=aa6b3320-f4b4-47ac-b9e1-6322f4823ed3"},"vehicle_type_id":"4","last_reported":1727072041,"current_range_meters":30000,"station_id":"ce4bgup2rcd13ifvqcn0","pricing_plan_id":"cebpf4jnsgd1na2vs0mg"},{"bike_id":"aeac16e1-d95c-41f7-b5dc-f64c26e4ef20","system_id":"levelo_inurba_marseille","lat":43.3117,"lon":5.38717,"is_reserved":false,"is_disabled":false,"rental_uris":{"android":"levelo://app?vid=aeac16e1-d95c-41f7-b5dc-f64c26e4ef20","ios":"levelo://app?vid=aeac16e1-d95c-41f7-b5dc-f64c26e4ef20"},"vehicle_type_id":"4","last_reported":1727072041,"current_range_meters":37600,"station_id":"ce4bgv12rcd13ifvqcp0","pricing_plan_id":"cebpf4jnsgd1na2vs0mg"},{"bike_id":"88652ec3-2459-4db5-982c-12577594f1fa","system_id":"levelo_inurba_marseille","lat":43.3189,"lon":5.40726,"is_reserved":false,"is_disabled":false,"rental_uris":{"android":"levelo://app?vid=88652ec3-2459-4db5-982c-12577594f1fa","ios":"levelo://app?vid=88652ec3-2459-4db5-982c-12577594f1fa"},"vehicle_type_id":"4","last_reported":1727072041,"current_range_meters":38800,"station_id":"ce4bhq12rcd13ifvqhig","pricing_plan_id":"cebpf4jnsgd1na2vs0mg"},{"bike_id":"3e957764-45b7-4516-a70f-8965b70fa960","system_id":"levelo_inurba_marseille","lat":43.27068,"lon":5.4227,"is_reserved":false,"is_disabled":false,"rental_uris":{"android":"levelo://app?vid=3e957764-45b7-4516-a70f-8965b70fa960","ios":"levelo://app?vid=3e957764-45b7-4516-a70f-8965b70fa960"},"vehicle_type_id":"4","last_reported":1727072041,"current_range_meters":38400,"station_id":"ce4bhk92rcd13ifvqgb0","pricing_plan_id":"cebpf4jnsgd1na2vs0mg"},{"bike_id":"2c3e418d-76e9-4968-82d3-f2822dd7e50a","system_id":"levelo_inurba_marseille","lat":43.323541,"lon":5.406134,"is_reserved":false,"is_disabled":false,"rental_uris":{"android":"levelo://app?vid=2c3e418d-76e9-4968-82d3-f2822dd7e50a","ios":"levelo://app?vid=2c3e418d-76e9-4968-82d3-f2822dd7e50a"},"vehicle_type_id":"4","last_reported":1727072041,"current_range_meters":14800,"station_id":"ce4bhq92rcd13ifvqhjg","pricing_plan_id":"cebpf4jnsgd1na2vs0mg"},{"bike_id":"5a2e81b1-03d6-462f-9a7b-dd1cbe502ec3","system_id":"levelo_inurba_marseille","lat":43.23197,"lon":5.35552,"is_reserved":false,"is_disabled":false,"rental_uris":{"android":"levelo://app?vid=5a2e81b1-03d6-462f-9a7b-dd1cbe502ec3","ios":"levelo://app?vid=5a2e81b1-03d6-462f-9a7b-dd1cbe502ec3"},"vehicle_type_id":"4","last_reported":1727072041,"current_range_meters":38000,"station_id":"ce4bhu92rcd13ifvqi70","pricing_plan_id":"cebpf4jnsgd1na2vs0mg"},{"bike_id":"91b57d1f-ae38-4577-84f1-802e2b9d1f07","system_id":"levelo_inurba_marseille","lat":43.308655,"lon":5.402811,"is_reserved":false,"is_disabled":false,"rental_uris":{"android":"levelo://app?vid=91b57d1f-ae38-4577-84f1-802e2b9d1f07","ios":"levelo://app?vid=91b57d1f-ae38-4577-84f1-802e2b9d1f07"},"vehicle_type_id":"4","last_reported":1727072041,"current_range_meters":38400,"station_id":"ce4bh092rcd13ifvqd30","pricing_plan_id":"cebpf4jnsgd1na2vs0mg"},{"bike_id":"67be40a4-c4af-473b-b397-fcc39dfaa742","system_id":"levelo_inurba_marseille","lat":43.30586,"lon":5.39352,"is_reserved":false,"is_disabled":false,"rental_uris":{"android":"levelo://app?vid=67be40a4-c4af-473b-b397-fcc39dfaa742","ios":"levelo://app?vid=67be40a4-c4af-473b-b397-fcc39dfaa742"},"vehicle_type_id":"4","last_reported":1727072041,"current_range_meters":36800,"station_id":"ce4bh0p2rcd13ifvqd80","pricing_plan_id":"cebpf4jnsgd1na2vs0mg"},{"bike_id":"cafc1892-d38a-400e-9753-0536b0eb5bd7","system_id":"levelo_inurba_marseille","lat":43.27493,"lon":5.42454,"is_reserved":false,"is_disabled":false,"rental_uris":{"android":"levelo://app?vid=cafc1892-d38a-400e-9753-0536b0eb5bd7","ios":"levelo://app?vid=cafc1892-d38a-400e-9753-0536b0eb5bd7"},"vehicle_type_id":"4","last_reported":1727072041,"current_range_meters":11200,"station_id":"ce4bhn92rcd13ifvqgrg","pricing_plan_id":"cebpf4jnsgd1na2vs0mg"},{"bike_id":"3d528637-2f30-49d5-9a4f-c2b4b414240f","system_id":"levelo_inurba_marseille","lat":43.28563,"lon":5.3871,"is_reserved":false,"is_disabled":false,"rental_uris":{"android":"levelo://app?vid=3d528637-2f30-49d5-9a4f-c2b4b414240f","ios":"levelo://app?vid=3d528637-2f30-49d5-9a4f-c2b4b414240f"},"vehicle_type_id":"4","last_reported":1727072041,"current_range_meters":8400,"station_id":"ce4bhoh2rcd13ifvqh5g","pricing_plan_id":"cebpf4jnsgd1na2vs0mg"},{"bike_id":"5e51d4bf-0667-49c0-a920-c8acc698dd17","system_id":"levelo_inurba_marseille","lat":43.34137,"lon":5.40905,"is_reserved":false,"is_disabled":false,"rental_uris":{"android":"levelo://app?vid=5e51d4bf-0667-49c0-a920-c8acc698dd17","ios":"levelo://app?vid=5e51d4bf-0667-49c0-a920-c8acc698dd17"},"vehicle_type_id":"4","last_reported":1727072041,"current_range_meters":20400,"station_id":"ce4bhqh2rcd13ifvqhlg","pricing_plan_id":"cebpf4jnsgd1na2vs0mg"},{"bike_id":"a1130285-14c1-471d-a411-fb2eed577eff","system_id":"levelo_inurba_marseille","lat":43.23152,"lon":5.43681,"is_reserved":false,"is_disabled":false,"rental_uris":{"android":"levelo://app?vid=a1130285-14c1-471d-a411-fb2eed577eff","ios":"levelo://app?vid=a1130285-14c1-471d-a411-fb2eed577eff"},"vehicle_type_id":"4","last_reported":1727072041,"current_range_meters":28400,"station_id":"ce4bhmp2rcd13ifvqgog","pricing_plan_id":"cebpf4jnsgd1na2vs0mg"},{"bike_id":"6ea9348a-376a-4865-b15d-1cc34e14a9e7","system_id":"levelo_inurba_marseille","lat":43.30591,"lon":5.39358,"is_reserved":false,"is_disabled":false,"rental_uris":{"android":"levelo://app?vid=6ea9348a-376a-4865-b15d-1cc34e14a9e7","ios":"levelo://app?vid=6ea9348a-376a-4865-b15d-1cc34e14a9e7"},"vehicle_type_id":"4","last_reported":1727072041,"current_range_meters":37600,"station_id":"ce4bh0p2rcd13ifvqd80","pricing_plan_id":"cebpf4jnsgd1na2vs0mg"},{"bike_id":"d71aaa7a-c83f-4f2e-9c67-cd373eea6523","system_id":"levelo_inurba_marseille","lat":43.32656,"lon":5.40981,"is_reserved":false,"is_disabled":false,"rental_uris":{"android":"levelo://app?vid=d71aaa7a-c83f-4f2e-9c67-cd373eea6523","ios":"levelo://app?vid=d71aaa7a-c83f-4f2e-9c67-cd373eea6523"},"vehicle_type_id":"4","last_reported":1727072041,"current_range_meters":38400,"station_id":"ce4bhpp2rcd13ifvqhgg","pricing_plan_id":"cebpf4jnsgd1na2vs0mg"},{"bike_id":"a39d5405-cfab-4135-ab3b-3b9749e16be8","system_id":"levelo_inurba_marseille","lat":43.34149,"lon":5.40901,"is_reserved":false,"is_disabled":false,"rental_uris":{"android":"levelo://app?vid=a39d5405-cfab-4135-ab3b-3b9749e16be8","ios":"levelo://app?vid=a39d5405-cfab-4135-ab3b-3b9749e16be8"},"vehicle_type_id":"4","last_reported":1727072041,"current_range_meters":16000,"station_id":"ce4bhqh2rcd13ifvqhlg","pricing_plan_id":"cebpf4jnsgd1na2vs0mg"},{"bike_id":"fb3f4093-9422-43c2-a0cb-5d6da8e76d3b","system_id":"levelo_inurba_marseille","lat":43.31705,"lon":5.37753,"is_reserved":false,"is_disabled":false,"rental_uris":{"android":"levelo://app?vid=fb3f4093-9422-43c2-a0cb-5d6da8e76d3b","ios":"levelo://app?vid=fb3f4093-9422-43c2-a0cb-5d6da8e76d3b"},"vehicle_type_id":"4","last_reported":1727072041,"current_range_meters":33200,"station_id":"ce4bgth2rcd13ifvqch0","pricing_plan_id":"cebpf4jnsgd1na2vs0mg"},{"bike_id":"f0f4db12-529c-4b68-bb2d-9a032aae1749","system_id":"levelo_inurba_marseille","lat":43.295126,"lon":5.393944,"is_reserved":false,"is_disabled":false,"rental_uris":{"android":"levelo://app?vid=f0f4db12-529c-4b68-bb2d-9a032aae1749","ios":"levelo://app?vid=f0f4db12-529c-4b68-bb2d-9a032aae1749"},"vehicle_type_id":"4","last_reported":1727072041,"current_range_meters":18000,"station_id":"ce4bh292rcd13ifvqdf0","pricing_plan_id":"cebpf4jnsgd1na2vs0mg"},{"bike_id":"3788f45a-3be9-4c81-8b77-2cb3b52e22fe","system_id":"levelo_inurba_marseille","lat":43.28153,"lon":5.42635,"is_reserved":false,"is_disabled":false,"rental_uris":{"android":"levelo://app?vid=3788f45a-3be9-4c81-8b77-2cb3b52e22fe","ios":"levelo://app?vid=3788f45a-3be9-4c81-8b77-2cb3b52e22fe"},"vehicle_type_id":"4","last_reported":1727072041,"current_range_meters":34800,"station_id":"ce4bhnh2rcd13ifvqgug","pricing_plan_id":"cebpf4jnsgd1na2vs0mg"},{"bike_id":"44b50cd5-9fec-40b7-88e0-c89ccba3762c","system_id":"levelo_inurba_marseille","lat":43.2315,"lon":5.43707,"is_reserved":false,"is_disabled":false,"rental_uris":{"android":"levelo://app?vid=44b50cd5-9fec-40b7-88e0-c89ccba3762c","ios":"levelo://app?vid=44b50cd5-9fec-40b7-88e0-c89ccba3762c"},"vehicle_type_id":"4","last_reported":1727072041,"current_range_meters":38800,"station_id":"ce4bhmp2rcd13ifvqgog","pricing_plan_id":"cebpf4jnsgd1na2vs0mg"},{"bike_id":"e9c8c3ef-6dbb-4dc9-97d7-c75a8bd608e2","system_id":"levelo_inurba_marseille","lat":43.24142,"lon":5.37355,"is_reserved":false,"is_disabled":false,"rental_uris":{"android":"levelo://app?vid=e9c8c3ef-6dbb-4dc9-97d7-c75a8bd608e2","ios":"levelo://app?vid=e9c8c3ef-6dbb-4dc9-97d7-c75a8bd608e2"},"vehicle_type_id":"4","last_reported":1727072041,"current_range_meters":2800,"station_id":"","pricing_plan_id":"cebpf4jnsgd1na2vs0mg"},{"bike_id":"8495d9eb-0df1-4c0d-b837-ecf6b4ab9089","system_id":"levelo_inurba_marseille","lat":43.30156,"lon":5.38075,"is_reserved":false,"is_disabled":false,"rental_uris":{"android":"levelo://app?vid=8495d9eb-0df1-4c0d-b837-ecf6b4ab9089","ios":"levelo://app?vid=8495d9eb-0df1-4c0d-b837-ecf6b4ab9089"},"vehicle_type_id":"4","last_reported":1727072041,"current_range_meters":35600,"station_id":"ce4bgjp2rcd13ifvqbh0","pricing_plan_id":"cebpf4jnsgd1na2vs0mg"},{"bike_id":"49651c6b-106a-4630-9e3a-edc809336fd2","system_id":"levelo_inurba_marseille","lat":43.25824,"lon":5.39436,"is_reserved":false,"is_disabled":false,"rental_uris":{"android":"levelo://app?vid=49651c6b-106a-4630-9e3a-edc809336fd2","ios":"levelo://app?vid=49651c6b-106a-4630-9e3a-edc809336fd2"},"vehicle_type_id":"4","last_reported":1727072041,"current_range_meters":36000,"station_id":"ce4bhip2rcd13ifvqft0","pricing_plan_id":"cebpf4jnsgd1na2vs0mg"},{"bike_id":"786e6863-c58f-4219-bd24-a2a09c4e4d8d","system_id":"levelo_inurba_marseille","lat":43.26217,"lon":5.37448,"is_reserved":false,"is_disabled":false,"rental_uris":{"android":"levelo://app?vid=786e6863-c58f-4219-bd24-a2a09c4e4d8d","ios":"levelo://app?vid=786e6863-c58f-4219-bd24-a2a09c4e4d8d"},"vehicle_type_id":"4","last_reported":1727072041,"current_range_meters":24800,"station_id":"","pricing_plan_id":"cebpf4jnsgd1na2vs0mg"},{"bike_id":"6cbc2fdc-96a1-4bca-b822-56394ecb85a1","system_id":"levelo_inurba_marseille","lat":43.29558,"lon":5.4229,"is_reserved":false,"is_disabled":false,"rental_uris":{"android":"levelo://app?vid=6cbc2fdc-96a1-4bca-b822-56394ecb85a1","ios":"levelo://app?vid=6cbc2fdc-96a1-4bca-b822-56394ecb85a1"},"vehicle_type_id":"4","last_reported":1727072041,"current_range_meters":38400,"station_id":"ce4bhph2rcd13ifvqhdg","pricing_plan_id":"cebpf4jnsgd1na2vs0mg"},{"bike_id":"a7a2630d-54d4-495a-8506-d0472b9b9a1a","system_id":"levelo_inurba_marseille","lat":43.29557,"lon":5.42288,"is_reserved":false,"is_disabled":false,"rental_uris":{"android":"levelo://app?vid=a7a2630d-54d4-495a-8506-d0472b9b9a1a","ios":"levelo://app?vid=a7a2630d-54d4-495a-8506-d0472b9b9a1a"},"vehicle_type_id":"4","last_reported":1727072041,"current_range_meters":36400,"station_id":"ce4bhph2rcd13ifvqhdg","pricing_plan_id":"cebpf4jnsgd1na2vs0mg"},{"bike_id":"32c295b7-e338-497a-9c83-1d4f4046497d","system_id":"levelo_inurba_marseille","lat":43.30905,"lon":5.36839,"is_reserved":false,"is_disabled":false,"rental_uris":{"android":"levelo://app?vid=32c295b7-e338-497a-9c83-1d4f4046497d","ios":"levelo://app?vid=32c295b7-e338-497a-9c83-1d4f4046497d"},"vehicle_type_id":"4","last_reported":1727072041,"current_range_meters":29600,"station_id":"ce4bgn92rcd13ifvqbvg","pricing_plan_id":"cebpf4jnsgd1na2vs0mg"},{"bike_id":"ed54be99-fc57-4d5a-a64d-283a09df8194","system_id":"levelo_inurba_marseille","lat":43.27409,"lon":5.36196,"is_reserved":false,"is_disabled":false,"rental_uris":{"android":"levelo://app?vid=ed54be99-fc57-4d5a-a64d-283a09df8194","ios":"levelo://app?vid=ed54be99-fc57-4d5a-a64d-283a09df8194"},"vehicle_type_id":"4","last_reported":1727072041,"current_range_meters":38400,"station_id":"","pricing_plan_id":"cebpf4jnsgd1na2vs0mg"},{"bike_id":"9e5b54a3-8d4a-4675-82a7-0d6af2f025db","system_id":"levelo_inurba_marseille","lat":43.28949,"lon":5.36402,"is_reserved":false,"is_disabled":false,"rental_uris":{"android":"levelo://app?vid=9e5b54a3-8d4a-4675-82a7-0d6af2f025db","ios":"levelo://app?vid=9e5b54a3-8d4a-4675-82a7-0d6af2f025db"},"vehicle_type_id":"4","last_reported":1727072041,"current_range_meters":22800,"station_id":"ce4bhc92rcd13ifvqetg","pricing_plan_id":"cebpf4jnsgd1na2vs0mg"},{"bike_id":"db148f01-540d-4fae-a822-acafb02386db","system_id":"levelo_inurba_marseille","lat":43.24654,"lon":5.38887,"is_reserved":false,"is_disabled":false,"rental_uris":{"android":"levelo://app?vid=db148f01-540d-4fae-a822-acafb02386db","ios":"levelo://app?vid=db148f01-540d-4fae-a822-acafb02386db"},"vehicle_type_id":"4","last_reported":1727072041,"current_range_meters":9600,"station_id":"ce4bhg12rcd13ifvqf60","pricing_plan_id":"cebpf4jnsgd1na2vs0mg"},{"bike_id":"0108a6f1-5990-42c7-9b68-c70f60ae0414","system_id":"levelo_inurba_marseille","lat":43.28004,"lon":5.41655,"is_reserved":false,"is_disabled":false,"rental_uris":{"android":"levelo://app?vid=0108a6f1-5990-42c7-9b68-c70f60ae0414","ios":"levelo://app?vid=0108a6f1-5990-42c7-9b68-c70f60ae0414"},"vehicle_type_id":"4","last_reported":1727072041,"current_range_meters":38400,"station_id":"ce4bho12rcd13ifvqh1g","pricing_plan_id":"cebpf4jnsgd1na2vs0mg"},{"bike_id":"45288da5-f243-4b3a-bd1b-b07c401ecec3","system_id":"levelo_inurba_marseille","lat":43.279968,"lon":5.424531,"is_reserved":false,"is_disabled":false,"rental_uris":{"android":"levelo://app?vid=45288da5-f243-4b3a-bd1b-b07c401ecec3","ios":"levelo://app?vid=45288da5-f243-4b3a-bd1b-b07c401ecec3"},"vehicle_type_id":"4","last_reported":1727072041,"current_range_meters":24800,"station_id":"","pricing_plan_id":"cebpf4jnsgd1na2vs0mg"},{"bike_id":"1091ef48-8ed2-48a9-a7b0-5670679a3e40","system_id":"levelo_inurba_marseille","lat":43.24082,"lon":5.37736,"is_reserved":false,"is_disabled":false,"rental_uris":{"android":"levelo://app?vid=1091ef48-8ed2-48a9-a7b0-5670679a3e40","ios":"levelo://app?vid=1091ef48-8ed2-48a9-a7b0-5670679a3e40"},"vehicle_type_id":"4","last_reported":1727072041,"current_range_meters":35600,"station_id":"ce4bhnp2rcd13ifvqgvg","pricing_plan_id":"cebpf4jnsgd1na2vs0mg"},{"bike_id":"3b2b32b1-081b-464a-b5e2-ce0b7792839b","system_id":"levelo_inurba_marseille","lat":43.26818,"lon":5.38019,"is_reserved":false,"is_disabled":false,"rental_uris":{"android":"levelo://app?vid=3b2b32b1-081b-464a-b5e2-ce0b7792839b","ios":"levelo://app?vid=3b2b32b1-081b-464a-b5e2-ce0b7792839b"},"vehicle_type_id":"4","last_reported":1727072041,"current_range_meters":25600,"station_id":"","pricing_plan_id":"cebpf4jnsgd1na2vs0mg"},{"bike_id":"71aa8592-ddf7-4343-aed4-c00d3433340f","system_id":"levelo_inurba_marseille","lat":43.337444,"lon":5.374475,"is_reserved":false,"is_disabled":false,"rental_uris":{"android":"levelo://app?vid=71aa8592-ddf7-4343-aed4-c00d3433340f","ios":"levelo://app?vid=71aa8592-ddf7-4343-aed4-c00d3433340f"},"vehicle_type_id":"4","last_reported":1727072041,"current_range_meters":28000,"station_id":"","pricing_plan_id":"cebpf4jnsgd1na2vs0mg"},{"bike_id":"3740c6df-06cd-419b-9ae6-b8d9e5eff548","system_id":"levelo_inurba_marseille","lat":43.2753,"lon":5.40935,"is_reserved":false,"is_disabled":false,"rental_uris":{"android":"levelo://app?vid=3740c6df-06cd-419b-9ae6-b8d9e5eff548","ios":"levelo://app?vid=3740c6df-06cd-419b-9ae6-b8d9e5eff548"},"vehicle_type_id":"4","last_reported":1727072041,"current_range_meters":10000,"station_id":"","pricing_plan_id":"cebpf4jnsgd1na2vs0mg"},{"bike_id":"a96b3b52-ecf5-4092-8ec2-53a43e78a0d5","system_id":"levelo_inurba_marseille","lat":43.30574,"lon":5.37242,"is_reserved":false,"is_disabled":false,"rental_uris":{"android":"levelo://app?vid=a96b3b52-ecf5-4092-8ec2-53a43e78a0d5","ios":"levelo://app?vid=a96b3b52-ecf5-4092-8ec2-53a43e78a0d5"},"vehicle_type_id":"4","last_reported":1727072041,"current_range_meters":37600,"station_id":"ce4bgqh2rcd13ifvqc4g","pricing_plan_id":"cebpf4jnsgd1na2vs0mg"},{"bike_id":"46807c42-7e0f-41de-b136-7e715e0b4142","system_id":"levelo_inurba_marseille","lat":43.30928,"lon":5.40143,"is_reserved":false,"is_disabled":false,"rental_uris":{"android":"levelo://app?vid=46807c42-7e0f-41de-b136-7e715e0b4142","ios":"levelo://app?vid=46807c42-7e0f-41de-b136-7e715e0b4142"},"vehicle_type_id":"4","last_reported":1727072041,"current_range_meters":29600,"station_id":"ce4bgvp2rcd13ifvqct0","pricing_plan_id":"cebpf4jnsgd1na2vs0mg"},{"bike_id":"37cfea08-a4a9-4194-96d9-f325f70d9e4d","system_id":"levelo_inurba_marseille","lat":43.25581,"lon":5.38234,"is_reserved":false,"is_disabled":false,"rental_uris":{"android":"levelo://app?vid=37cfea08-a4a9-4194-96d9-f325f70d9e4d","ios":"levelo://app?vid=37cfea08-a4a9-4194-96d9-f325f70d9e4d"},"vehicle_type_id":"4","last_reported":1727072041,"current_range_meters":8400,"station_id":"ce4bhih2rcd13ifvqfs0","pricing_plan_id":"cebpf4jnsgd1na2vs0mg"},{"bike_id":"e2bc3d10-b85d-41b2-a1c1-5ca7fac12870","system_id":"levelo_inurba_marseille","lat":43.27055,"lon":5.4027,"is_reserved":false,"is_disabled":false,"rental_uris":{"android":"levelo://app?vid=e2bc3d10-b85d-41b2-a1c1-5ca7fac12870","ios":"levelo://app?vid=e2bc3d10-b85d-41b2-a1c1-5ca7fac12870"},"vehicle_type_id":"4","last_reported":1727072041,"current_range_meters":38400,"station_id":"ce4bhk92rcd13ifvqgc0","pricing_plan_id":"cebpf4jnsgd1na2vs0mg"},{"bike_id":"37129aa8-05a3-4467-8fa1-1fc6f7f9028c","system_id":"levelo_inurba_marseille","lat":43.30949,"lon":5.39034,"is_reserved":false,"is_disabled":false,"rental_uris":{"android":"levelo://app?vid=37129aa8-05a3-4467-8fa1-1fc6f7f9028c","ios":"levelo://app?vid=37129aa8-05a3-4467-8fa1-1fc6f7f9028c"},"vehicle_type_id":"4","last_reported":1727072041,"current_range_meters":38800,"station_id":"ce4bgup2rcd13ifvqco0","pricing_plan_id":"cebpf4jnsgd1na2vs0mg"},{"bike_id":"6b1bfc7c-4a19-4e40-a1e6-7bc55c265373","system_id":"levelo_inurba_marseille","lat":43.27832,"lon":5.42391,"is_reserved":false,"is_disabled":false,"rental_uris":{"android":"levelo://app?vid=6b1bfc7c-4a19-4e40-a1e6-7bc55c265373","ios":"levelo://app?vid=6b1bfc7c-4a19-4e40-a1e6-7bc55c265373"},"vehicle_type_id":"4","last_reported":1727072041,"current_range_meters":32400,"station_id":"","pricing_plan_id":"cebpf4jnsgd1na2vs0mg"},{"bike_id":"38e55ba7-c26c-4b9c-8404-9f7cec825759","system_id":"levelo_inurba_marseille","lat":43.22931,"lon":5.35373,"is_reserved":false,"is_disabled":false,"rental_uris":{"android":"levelo://app?vid=38e55ba7-c26c-4b9c-8404-9f7cec825759","ios":"levelo://app?vid=38e55ba7-c26c-4b9c-8404-9f7cec825759"},"vehicle_type_id":"4","last_reported":1727072041,"current_range_meters":36000,"station_id":"cpo3532slgdg3j2ikp40","pricing_plan_id":"cebpf4jnsgd1na2vs0mg"},{"bike_id":"80ef7279-b375-4587-b39b-77c91fd7500b","system_id":"levelo_inurba_marseille","lat":43.33598,"lon":5.41025,"is_reserved":false,"is_disabled":false,"rental_uris":{"android":"levelo://app?vid=80ef7279-b375-4587-b39b-77c91fd7500b","ios":"levelo://app?vid=80ef7279-b375-4587-b39b-77c91fd7500b"},"vehicle_type_id":"4","last_reported":1727072041,"current_range_meters":38800,"station_id":"ce4bhqh2rcd13ifvqhmg","pricing_plan_id":"cebpf4jnsgd1na2vs0mg"},{"bike_id":"fffd05f6-70db-412c-8069-4d22a338a9e6","system_id":"levelo_inurba_marseille","lat":43.27946,"lon":5.41051,"is_reserved":false,"is_disabled":false,"rental_uris":{"android":"levelo://app?vid=fffd05f6-70db-412c-8069-4d22a338a9e6","ios":"levelo://app?vid=fffd05f6-70db-412c-8069-4d22a338a9e6"},"vehicle_type_id":"4","last_reported":1727072041,"current_range_meters":38400,"station_id":"ce4bhnp2rcd13ifvqh0g","pricing_plan_id":"cebpf4jnsgd1na2vs0mg"},{"bike_id":"9a088f2a-1c62-4833-8667-6582d3c3c387","system_id":"levelo_inurba_marseille","lat":43.30471,"lon":5.37916,"is_reserved":false,"is_disabled":false,"rental_uris":{"android":"levelo://app?vid=9a088f2a-1c62-4833-8667-6582d3c3c387","ios":"levelo://app?vid=9a088f2a-1c62-4833-8667-6582d3c3c387"},"vehicle_type_id":"4","last_reported":1727072041,"current_range_meters":5600,"station_id":"ce4bgup2rcd13ifvqcn0","pricing_plan_id":"cebpf4jnsgd1na2vs0mg"},{"bike_id":"66970e56-2097-48b0-a677-6535f6ec87c3","system_id":"levelo_inurba_marseille","lat":43.28154,"lon":5.42631,"is_reserved":false,"is_disabled":false,"rental_uris":{"android":"levelo://app?vid=66970e56-2097-48b0-a677-6535f6ec87c3","ios":"levelo://app?vid=66970e56-2097-48b0-a677-6535f6ec87c3"},"vehicle_type_id":"4","last_reported":1727072041,"current_range_meters":38400,"station_id":"ce4bhnh2rcd13ifvqgug","pricing_plan_id":"cebpf4jnsgd1na2vs0mg"},{"bike_id":"abd16d25-6848-4cfd-b0ca-335dc7909ee6","system_id":"levelo_inurba_marseille","lat":43.30954,"lon":5.39041,"is_reserved":false,"is_disabled":false,"rental_uris":{"android":"levelo://app?vid=abd16d25-6848-4cfd-b0ca-335dc7909ee6","ios":"levelo://app?vid=abd16d25-6848-4cfd-b0ca-335dc7909ee6"},"vehicle_type_id":"4","last_reported":1727072041,"current_range_meters":36400,"station_id":"ce4bgup2rcd13ifvqco0","pricing_plan_id":"cebpf4jnsgd1na2vs0mg"},{"bike_id":"13b4b35d-84db-4fd4-afcd-6e5f994aa1b5","system_id":"levelo_inurba_marseille","lat":43.30675,"lon":5.40106,"is_reserved":false,"is_disabled":false,"rental_uris":{"android":"levelo://app?vid=13b4b35d-84db-4fd4-afcd-6e5f994aa1b5","ios":"levelo://app?vid=13b4b35d-84db-4fd4-afcd-6e5f994aa1b5"},"vehicle_type_id":"4","last_reported":1727072041,"current_range_meters":38800,"station_id":"ce4bh112rcd13ifvqda0","pricing_plan_id":"cebpf4jnsgd1na2vs0mg"},{"bike_id":"3c192c97-6679-4913-9648-56868ac3754e","system_id":"levelo_inurba_marseille","lat":43.30593,"lon":5.39357,"is_reserved":false,"is_disabled":false,"rental_uris":{"android":"levelo://app?vid=3c192c97-6679-4913-9648-56868ac3754e","ios":"levelo://app?vid=3c192c97-6679-4913-9648-56868ac3754e"},"vehicle_type_id":"4","last_reported":1727072041,"current_range_meters":29600,"station_id":"ce4bh0p2rcd13ifvqd80","pricing_plan_id":"cebpf4jnsgd1na2vs0mg"},{"bike_id":"b6be7281-305f-4cff-b5d9-59ddfbbdef54","system_id":"levelo_inurba_marseille","lat":43.28257,"lon":5.35061,"is_reserved":false,"is_disabled":false,"rental_uris":{"android":"levelo://app?vid=b6be7281-305f-4cff-b5d9-59ddfbbdef54","ios":"levelo://app?vid=b6be7281-305f-4cff-b5d9-59ddfbbdef54"},"vehicle_type_id":"4","last_reported":1727072041,"current_range_meters":21600,"station_id":"ce4bhbp2rcd13ifvqerg","pricing_plan_id":"cebpf4jnsgd1na2vs0mg"},{"bike_id":"43ef4bd2-25c5-4c2b-a818-b6bc5e6bf5a7","system_id":"levelo_inurba_marseille","lat":43.24546,"lon":5.39523,"is_reserved":false,"is_disabled":false,"rental_uris":{"android":"levelo://app?vid=43ef4bd2-25c5-4c2b-a818-b6bc5e6bf5a7","ios":"levelo://app?vid=43ef4bd2-25c5-4c2b-a818-b6bc5e6bf5a7"},"vehicle_type_id":"4","last_reported":1727072041,"current_range_meters":36000,"station_id":"ce4bhlp2rcd13ifvqgjg","pricing_plan_id":"cebpf4jnsgd1na2vs0mg"},{"bike_id":"e8742eba-3d22-4a09-b72e-3409ef57d9f3","system_id":"levelo_inurba_marseille","lat":43.26781,"lon":5.39417,"is_reserved":false,"is_disabled":false,"rental_uris":{"android":"levelo://app?vid=e8742eba-3d22-4a09-b72e-3409ef57d9f3","ios":"levelo://app?vid=e8742eba-3d22-4a09-b72e-3409ef57d9f3"},"vehicle_type_id":"4","last_reported":1727072041,"current_range_meters":14800,"station_id":"ce4bhh12rcd13ifvqfg0","pricing_plan_id":"cebpf4jnsgd1na2vs0mg"},{"bike_id":"a53869a3-1513-403b-a98d-4b025ee2b884","system_id":"levelo_inurba_marseille","lat":43.28266,"lon":5.3507,"is_reserved":false,"is_disabled":false,"rental_uris":{"android":"levelo://app?vid=a53869a3-1513-403b-a98d-4b025ee2b884","ios":"levelo://app?vid=a53869a3-1513-403b-a98d-4b025ee2b884"},"vehicle_type_id":"4","last_reported":1727072041,"current_range_meters":38400,"station_id":"ce4bhbp2rcd13ifvqerg","pricing_plan_id":"cebpf4jnsgd1na2vs0mg"},{"bike_id":"31df1752-eb39-4ec8-b652-78fa657fba27","system_id":"levelo_inurba_marseille","lat":43.26952,"lon":5.38625,"is_reserved":false,"is_disabled":false,"rental_uris":{"android":"levelo://app?vid=31df1752-eb39-4ec8-b652-78fa657fba27","ios":"levelo://app?vid=31df1752-eb39-4ec8-b652-78fa657fba27"},"vehicle_type_id":"4","last_reported":1727072041,"current_range_meters":36400,"station_id":"ce4bhh92rcd13ifvqfh0","pricing_plan_id":"cebpf4jnsgd1na2vs0mg"},{"bike_id":"1575e777-51f8-479e-bd95-714cef91a125","system_id":"levelo_inurba_marseille","lat":43.24178,"lon":5.39718,"is_reserved":false,"is_disabled":false,"rental_uris":{"android":"levelo://app?vid=1575e777-51f8-479e-bd95-714cef91a125","ios":"levelo://app?vid=1575e777-51f8-479e-bd95-714cef91a125"},"vehicle_type_id":"4","last_reported":1727072041,"current_range_meters":23200,"station_id":"ce4bhn12rcd13ifvqgpg","pricing_plan_id":"cebpf4jnsgd1na2vs0mg"},{"bike_id":"0020da09-4b38-47f7-af9a-d71578c51c3e","system_id":"levelo_inurba_marseille","lat":43.281,"lon":5.3785,"is_reserved":false,"is_disabled":false,"rental_uris":{"android":"levelo://app?vid=0020da09-4b38-47f7-af9a-d71578c51c3e","ios":"levelo://app?vid=0020da09-4b38-47f7-af9a-d71578c51c3e"},"vehicle_type_id":"4","last_reported":1727072041,"current_range_meters":20000,"station_id":"ce4bha12rcd13ifvqee0","pricing_plan_id":"cebpf4jnsgd1na2vs0mg"},{"bike_id":"2c3baefd-e174-4a0f-b3c0-c1acdaa422ad","system_id":"levelo_inurba_marseille","lat":43.25936,"lon":5.40912,"is_reserved":false,"is_disabled":false,"rental_uris":{"android":"levelo://app?vid=2c3baefd-e174-4a0f-b3c0-c1acdaa422ad","ios":"levelo://app?vid=2c3baefd-e174-4a0f-b3c0-c1acdaa422ad"},"vehicle_type_id":"4","last_reported":1727072041,"current_range_meters":32000,"station_id":"ce4bhm92rcd13ifvqglg","pricing_plan_id":"cebpf4jnsgd1na2vs0mg"},{"bike_id":"f3d25b85-421f-4d0b-b3f5-40b2a82d1aae","system_id":"levelo_inurba_marseille","lat":43.24127,"lon":5.37859,"is_reserved":false,"is_disabled":false,"rental_uris":{"android":"levelo://app?vid=f3d25b85-421f-4d0b-b3f5-40b2a82d1aae","ios":"levelo://app?vid=f3d25b85-421f-4d0b-b3f5-40b2a82d1aae"},"vehicle_type_id":"4","last_reported":1727072041,"current_range_meters":26800,"station_id":"ce4bhnp2rcd13ifvqgvg","pricing_plan_id":"cebpf4jnsgd1na2vs0mg"},{"bike_id":"02486d64-1a8b-4bbe-b235-713b4d9a1f6e","system_id":"levelo_inurba_marseille","lat":43.24075,"lon":5.37761,"is_reserved":false,"is_disabled":false,"rental_uris":{"android":"levelo://app?vid=02486d64-1a8b-4bbe-b235-713b4d9a1f6e","ios":"levelo://app?vid=02486d64-1a8b-4bbe-b235-713b4d9a1f6e"},"vehicle_type_id":"4","last_reported":1727072041,"current_range_meters":31200,"station_id":"ce4bhnp2rcd13ifvqgvg","pricing_plan_id":"cebpf4jnsgd1na2vs0mg"},{"bike_id":"c8e51b48-153b-4ef3-b8a3-de3ee7e4bdc6","system_id":"levelo_inurba_marseille","lat":43.24071,"lon":5.37761,"is_reserved":false,"is_disabled":false,"rental_uris":{"android":"levelo://app?vid=c8e51b48-153b-4ef3-b8a3-de3ee7e4bdc6","ios":"levelo://app?vid=c8e51b48-153b-4ef3-b8a3-de3ee7e4bdc6"},"vehicle_type_id":"4","last_reported":1727072041,"current_range_meters":28400,"station_id":"ce4bhnp2rcd13ifvqgvg","pricing_plan_id":"cebpf4jnsgd1na2vs0mg"},{"bike_id":"34d09735-b19e-421c-ab10-d3e19a1b7a8f","system_id":"levelo_inurba_marseille","lat":43.283997,"lon":5.38726,"is_reserved":false,"is_disabled":false,"rental_uris":{"android":"levelo://app?vid=34d09735-b19e-421c-ab10-d3e19a1b7a8f","ios":"levelo://app?vid=34d09735-b19e-421c-ab10-d3e19a1b7a8f"},"vehicle_type_id":"4","last_reported":1727072041,"current_range_meters":12400,"station_id":"","pricing_plan_id":"cebpf4jnsgd1na2vs0mg"},{"bike_id":"d765ecc6-f24e-4e18-aeb0-429ef33b50a7","system_id":"levelo_inurba_marseille","lat":43.23182,"lon":5.39983,"is_reserved":false,"is_disabled":false,"rental_uris":{"android":"levelo://app?vid=d765ecc6-f24e-4e18-aeb0-429ef33b50a7","ios":"levelo://app?vid=d765ecc6-f24e-4e18-aeb0-429ef33b50a7"},"vehicle_type_id":"4","last_reported":1727072041,"current_range_meters":38800,"station_id":"ce4bhn12rcd13ifvqgqg","pricing_plan_id":"cebpf4jnsgd1na2vs0mg"},{"bike_id":"09b0c39f-a13f-4fb3-b353-5833cb9ecfc5","system_id":"levelo_inurba_marseille","lat":43.31344,"lon":5.36725,"is_reserved":false,"is_disabled":false,"rental_uris":{"android":"levelo://app?vid=09b0c39f-a13f-4fb3-b353-5833cb9ecfc5","ios":"levelo://app?vid=09b0c39f-a13f-4fb3-b353-5833cb9ecfc5"},"vehicle_type_id":"4","last_reported":1727072041,"current_range_meters":28800,"station_id":"ce4bgr92rcd13ifvqc6g","pricing_plan_id":"cebpf4jnsgd1na2vs0mg"},{"bike_id":"feb42740-c719-4916-9efa-d99f861e0e6d","system_id":"levelo_inurba_marseille","lat":43.32484,"lon":5.36575,"is_reserved":false,"is_disabled":false,"rental_uris":{"android":"levelo://app?vid=feb42740-c719-4916-9efa-d99f861e0e6d","ios":"levelo://app?vid=feb42740-c719-4916-9efa-d99f861e0e6d"},"vehicle_type_id":"4","last_reported":1727072041,"current_range_meters":31200,"station_id":"ce4bhs12rcd13ifvqhvg","pricing_plan_id":"cebpf4jnsgd1na2vs0mg"},{"bike_id":"fde6e9bc-437f-42db-b8a1-6f058e3aa129","system_id":"levelo_inurba_marseille","lat":43.25827,"lon":5.39437,"is_reserved":false,"is_disabled":false,"rental_uris":{"android":"levelo://app?vid=fde6e9bc-437f-42db-b8a1-6f058e3aa129","ios":"levelo://app?vid=fde6e9bc-437f-42db-b8a1-6f058e3aa129"},"vehicle_type_id":"4","last_reported":1727072041,"current_range_meters":33600,"station_id":"ce4bhip2rcd13ifvqft0","pricing_plan_id":"cebpf4jnsgd1na2vs0mg"},{"bike_id":"d046b3da-ed69-4d0f-9008-8ae80b6ca284","system_id":"levelo_inurba_marseille","lat":43.32538,"lon":5.41429,"is_reserved":false,"is_disabled":false,"rental_uris":{"android":"levelo://app?vid=d046b3da-ed69-4d0f-9008-8ae80b6ca284","ios":"levelo://app?vid=d046b3da-ed69-4d0f-9008-8ae80b6ca284"},"vehicle_type_id":"4","last_reported":1727072041,"current_range_meters":30000,"station_id":"ce4bhq12rcd13ifvqhhg","pricing_plan_id":"cebpf4jnsgd1na2vs0mg"},{"bike_id":"725a0a8c-6107-421f-8563-2cc6448dd655","system_id":"levelo_inurba_marseille","lat":43.26064,"lon":5.39395,"is_reserved":false,"is_disabled":false,"rental_uris":{"android":"levelo://app?vid=725a0a8c-6107-421f-8563-2cc6448dd655","ios":"levelo://app?vid=725a0a8c-6107-421f-8563-2cc6448dd655"},"vehicle_type_id":"4","last_reported":1727072041,"current_range_meters":30400,"station_id":"ce4bhh92rcd13ifvqfj0","pricing_plan_id":"cebpf4jnsgd1na2vs0mg"},{"bike_id":"d88c04c9-5e62-4d5d-851d-643f064c8972","system_id":"levelo_inurba_marseille","lat":43.26561,"lon":5.39008,"is_reserved":false,"is_disabled":false,"rental_uris":{"android":"levelo://app?vid=d88c04c9-5e62-4d5d-851d-643f064c8972","ios":"levelo://app?vid=d88c04c9-5e62-4d5d-851d-643f064c8972"},"vehicle_type_id":"4","last_reported":1727072041,"current_range_meters":38000,"station_id":"ce4bhe12rcd13ifvqf30","pricing_plan_id":"cebpf4jnsgd1na2vs0mg"},{"bike_id":"51223c2a-5e34-4b0d-8824-3f9cbd3a8c00","system_id":"levelo_inurba_marseille","lat":43.28712,"lon":5.37931,"is_reserved":false,"is_disabled":false,"rental_uris":{"android":"levelo://app?vid=51223c2a-5e34-4b0d-8824-3f9cbd3a8c00","ios":"levelo://app?vid=51223c2a-5e34-4b0d-8824-3f9cbd3a8c00"},"vehicle_type_id":"4","last_reported":1727072041,"current_range_meters":25600,"station_id":"ce4bh9p2rcd13ifvqec0","pricing_plan_id":"cebpf4jnsgd1na2vs0mg"},{"bike_id":"fce734b4-6c36-4cb6-983c-c95238702258","system_id":"levelo_inurba_marseille","lat":43.31074,"lon":5.38126,"is_reserved":false,"is_disabled":false,"rental_uris":{"android":"levelo://app?vid=fce734b4-6c36-4cb6-983c-c95238702258","ios":"levelo://app?vid=fce734b4-6c36-4cb6-983c-c95238702258"},"vehicle_type_id":"4","last_reported":1727072041,"current_range_meters":8800,"station_id":"","pricing_plan_id":"cebpf4jnsgd1na2vs0mg"},{"bike_id":"e116a038-f67a-4a52-adc2-f8d28b52fa4a","system_id":"levelo_inurba_marseille","lat":43.28467,"lon":5.38388,"is_reserved":false,"is_disabled":false,"rental_uris":{"android":"levelo://app?vid=e116a038-f67a-4a52-adc2-f8d28b52fa4a","ios":"levelo://app?vid=e116a038-f67a-4a52-adc2-f8d28b52fa4a"},"vehicle_type_id":"4","last_reported":1727072041,"current_range_meters":37600,"station_id":"ce4bh512rcd13ifvqe3g","pricing_plan_id":"cebpf4jnsgd1na2vs0mg"},{"bike_id":"55312e9c-8d7a-4104-aea6-b6bceb05f2bb","system_id":"levelo_inurba_marseille","lat":43.30142,"lon":5.37415,"is_reserved":false,"is_disabled":false,"rental_uris":{"android":"levelo://app?vid=55312e9c-8d7a-4104-aea6-b6bceb05f2bb","ios":"levelo://app?vid=55312e9c-8d7a-4104-aea6-b6bceb05f2bb"},"vehicle_type_id":"4","last_reported":1727072041,"current_range_meters":36400,"station_id":"ce4bgs92rcd13ifvqcc0","pricing_plan_id":"cebpf4jnsgd1na2vs0mg"},{"bike_id":"0f08bb21-cbbd-4eab-b6b5-6eba8e91ec1b","system_id":"levelo_inurba_marseille","lat":43.31893,"lon":5.40732,"is_reserved":false,"is_disabled":false,"rental_uris":{"android":"levelo://app?vid=0f08bb21-cbbd-4eab-b6b5-6eba8e91ec1b","ios":"levelo://app?vid=0f08bb21-cbbd-4eab-b6b5-6eba8e91ec1b"},"vehicle_type_id":"4","last_reported":1727072041,"current_range_meters":38000,"station_id":"ce4bhq12rcd13ifvqhig","pricing_plan_id":"cebpf4jnsgd1na2vs0mg"},{"bike_id":"72b8f45f-1508-42a4-84b1-c5fe2d25f5ff","system_id":"levelo_inurba_marseille","lat":43.30461,"lon":5.37897,"is_reserved":false,"is_disabled":false,"rental_uris":{"android":"levelo://app?vid=72b8f45f-1508-42a4-84b1-c5fe2d25f5ff","ios":"levelo://app?vid=72b8f45f-1508-42a4-84b1-c5fe2d25f5ff"},"vehicle_type_id":"4","last_reported":1727072041,"current_range_meters":28800,"station_id":"ce4bgup2rcd13ifvqcn0","pricing_plan_id":"cebpf4jnsgd1na2vs0mg"},{"bike_id":"e9ff8a04-d08a-4e53-ba15-13ed3974ebbf","system_id":"levelo_inurba_marseille","lat":43.29902,"lon":5.43672,"is_reserved":false,"is_disabled":false,"rental_uris":{"android":"levelo://app?vid=e9ff8a04-d08a-4e53-ba15-13ed3974ebbf","ios":"levelo://app?vid=e9ff8a04-d08a-4e53-ba15-13ed3974ebbf"},"vehicle_type_id":"4","last_reported":1727072041,"current_range_meters":10800,"station_id":"ce4bhpp2rcd13ifvqhfg","pricing_plan_id":"cebpf4jnsgd1na2vs0mg"},{"bike_id":"257ed09e-bb1e-4675-a69d-0842e5b6a0b0","system_id":"levelo_inurba_marseille","lat":43.30434,"lon":5.39741,"is_reserved":false,"is_disabled":false,"rental_uris":{"android":"levelo://app?vid=257ed09e-bb1e-4675-a69d-0842e5b6a0b0","ios":"levelo://app?vid=257ed09e-bb1e-4675-a69d-0842e5b6a0b0"},"vehicle_type_id":"4","last_reported":1727072041,"current_range_meters":3200,"station_id":"ce4bh092rcd13ifvqd20","pricing_plan_id":"cebpf4jnsgd1na2vs0mg"},{"bike_id":"e5afe0f9-2845-4770-8a8a-1f97c66f27dc","system_id":"levelo_inurba_marseille","lat":43.25934,"lon":5.40915,"is_reserved":false,"is_disabled":false,"rental_uris":{"android":"levelo://app?vid=e5afe0f9-2845-4770-8a8a-1f97c66f27dc","ios":"levelo://app?vid=e5afe0f9-2845-4770-8a8a-1f97c66f27dc"},"vehicle_type_id":"4","last_reported":1727072041,"current_range_meters":33600,"station_id":"ce4bhm92rcd13ifvqglg","pricing_plan_id":"cebpf4jnsgd1na2vs0mg"},{"bike_id":"25d05282-6b5a-48d1-8587-ef49257c7481","system_id":"levelo_inurba_marseille","lat":43.26954,"lon":5.38639,"is_reserved":false,"is_disabled":false,"rental_uris":{"android":"levelo://app?vid=25d05282-6b5a-48d1-8587-ef49257c7481","ios":"levelo://app?vid=25d05282-6b5a-48d1-8587-ef49257c7481"},"vehicle_type_id":"4","last_reported":1727072041,"current_range_meters":28000,"station_id":"ce4bhh92rcd13ifvqfh0","pricing_plan_id":"cebpf4jnsgd1na2vs0mg"},{"bike_id":"59fbaf87-43b3-4e9f-a7eb-6d70755d8c21","system_id":"levelo_inurba_marseille","lat":43.31759,"lon":5.39023,"is_reserved":false,"is_disabled":false,"rental_uris":{"android":"levelo://app?vid=59fbaf87-43b3-4e9f-a7eb-6d70755d8c21","ios":"levelo://app?vid=59fbaf87-43b3-4e9f-a7eb-6d70755d8c21"},"vehicle_type_id":"4","last_reported":1727072041,"current_range_meters":20000,"station_id":"","pricing_plan_id":"cebpf4jnsgd1na2vs0mg"},{"bike_id":"06e112ed-d572-4f64-af5e-7801d6e0631d","system_id":"levelo_inurba_marseille","lat":43.279541,"lon":5.387496,"is_reserved":false,"is_disabled":false,"rental_uris":{"android":"levelo://app?vid=06e112ed-d572-4f64-af5e-7801d6e0631d","ios":"levelo://app?vid=06e112ed-d572-4f64-af5e-7801d6e0631d"},"vehicle_type_id":"4","last_reported":1727072041,"current_range_meters":35600,"station_id":"ce4bhg12rcd13ifvqf80","pricing_plan_id":"cebpf4jnsgd1na2vs0mg"},{"bike_id":"b8551345-00a8-413b-a6da-b44b1e50d1de","system_id":"levelo_inurba_marseille","lat":43.27498,"lon":5.42451,"is_reserved":false,"is_disabled":false,"rental_uris":{"android":"levelo://app?vid=b8551345-00a8-413b-a6da-b44b1e50d1de","ios":"levelo://app?vid=b8551345-00a8-413b-a6da-b44b1e50d1de"},"vehicle_type_id":"4","last_reported":1727072041,"current_range_meters":36000,"station_id":"ce4bhn92rcd13ifvqgrg","pricing_plan_id":"cebpf4jnsgd1na2vs0mg"},{"bike_id":"13ab3718-9783-4db8-97e8-46509ea5f5da","system_id":"levelo_inurba_marseille","lat":43.28724,"lon":5.3793,"is_reserved":false,"is_disabled":false,"rental_uris":{"android":"levelo://app?vid=13ab3718-9783-4db8-97e8-46509ea5f5da","ios":"levelo://app?vid=13ab3718-9783-4db8-97e8-46509ea5f5da"},"vehicle_type_id":"4","last_reported":1727072041,"current_range_meters":38800,"station_id":"ce4bh9p2rcd13ifvqec0","pricing_plan_id":"cebpf4jnsgd1na2vs0mg"},{"bike_id":"e43e6310-a348-41cd-8943-af09fa3133d4","system_id":"levelo_inurba_marseille","lat":43.25863,"lon":5.399,"is_reserved":false,"is_disabled":false,"rental_uris":{"android":"levelo://app?vid=e43e6310-a348-41cd-8943-af09fa3133d4","ios":"levelo://app?vid=e43e6310-a348-41cd-8943-af09fa3133d4"},"vehicle_type_id":"4","last_reported":1727072041,"current_range_meters":24400,"station_id":"ce4bhl92rcd13ifvqghg","pricing_plan_id":"cebpf4jnsgd1na2vs0mg"},{"bike_id":"8aee470c-444f-4012-9ea5-a18a32eca774","system_id":"levelo_inurba_marseille","lat":43.30544,"lon":5.36702,"is_reserved":false,"is_disabled":false,"rental_uris":{"android":"levelo://app?vid=8aee470c-444f-4012-9ea5-a18a32eca774","ios":"levelo://app?vid=8aee470c-444f-4012-9ea5-a18a32eca774"},"vehicle_type_id":"4","last_reported":1727072041,"current_range_meters":34800,"station_id":"ce4bgrp2rcd13ifvqc9g","pricing_plan_id":"cebpf4jnsgd1na2vs0mg"},{"bike_id":"a4208628-066b-42c3-b00c-c07f6ef4fbbb","system_id":"levelo_inurba_marseille","lat":43.29115,"lon":5.37359,"is_reserved":false,"is_disabled":false,"rental_uris":{"android":"levelo://app?vid=a4208628-066b-42c3-b00c-c07f6ef4fbbb","ios":"levelo://app?vid=a4208628-066b-42c3-b00c-c07f6ef4fbbb"},"vehicle_type_id":"4","last_reported":1727072041,"current_range_meters":27200,"station_id":"","pricing_plan_id":"cebpf4jnsgd1na2vs0mg"},{"bike_id":"edc1f8f8-3c00-4f2c-9984-7d3978581edb","system_id":"levelo_inurba_marseille","lat":43.29061,"lon":5.37171,"is_reserved":false,"is_disabled":false,"rental_uris":{"android":"levelo://app?vid=edc1f8f8-3c00-4f2c-9984-7d3978581edb","ios":"levelo://app?vid=edc1f8f8-3c00-4f2c-9984-7d3978581edb"},"vehicle_type_id":"4","last_reported":1727072041,"current_range_meters":38000,"station_id":"ce4bh5p2rcd13ifvqe4g","pricing_plan_id":"cebpf4jnsgd1na2vs0mg"},{"bike_id":"1b2633c7-3231-4e7d-89e9-a2c8e8cd897a","system_id":"levelo_inurba_marseille","lat":43.28117,"lon":5.35171,"is_reserved":false,"is_disabled":false,"rental_uris":{"android":"levelo://app?vid=1b2633c7-3231-4e7d-89e9-a2c8e8cd897a","ios":"levelo://app?vid=1b2633c7-3231-4e7d-89e9-a2c8e8cd897a"},"vehicle_type_id":"4","last_reported":1727072041,"current_range_meters":7200,"station_id":"","pricing_plan_id":"cebpf4jnsgd1na2vs0mg"},{"bike_id":"abbd04b2-341d-4117-bd76-6a951f5f69d1","system_id":"levelo_inurba_marseille","lat":43.31692,"lon":5.40473,"is_reserved":false,"is_disabled":false,"rental_uris":{"android":"levelo://app?vid=abbd04b2-341d-4117-bd76-6a951f5f69d1","ios":"levelo://app?vid=abbd04b2-341d-4117-bd76-6a951f5f69d1"},"vehicle_type_id":"4","last_reported":1727072041,"current_range_meters":38800,"station_id":"ce4bh012rcd13ifvqd00","pricing_plan_id":"cebpf4jnsgd1na2vs0mg"},{"bike_id":"4fbb5250-9647-470b-8d93-052750ba4685","system_id":"levelo_inurba_marseille","lat":43.287806,"lon":5.373697,"is_reserved":false,"is_disabled":false,"rental_uris":{"android":"levelo://app?vid=4fbb5250-9647-470b-8d93-052750ba4685","ios":"levelo://app?vid=4fbb5250-9647-470b-8d93-052750ba4685"},"vehicle_type_id":"4","last_reported":1727072041,"current_range_meters":21600,"station_id":"ce4bh692rcd13ifvqe90","pricing_plan_id":"cebpf4jnsgd1na2vs0mg"},{"bike_id":"0b1c28ef-5ef3-4666-9073-ad52f59ddee8","system_id":"levelo_inurba_marseille","lat":43.32543,"lon":5.41436,"is_reserved":false,"is_disabled":false,"rental_uris":{"android":"levelo://app?vid=0b1c28ef-5ef3-4666-9073-ad52f59ddee8","ios":"levelo://app?vid=0b1c28ef-5ef3-4666-9073-ad52f59ddee8"},"vehicle_type_id":"4","last_reported":1727072041,"current_range_meters":37600,"station_id":"ce4bhq12rcd13ifvqhhg","pricing_plan_id":"cebpf4jnsgd1na2vs0mg"},{"bike_id":"5bf0e482-4674-49a5-9066-80ed70b5b13e","system_id":"levelo_inurba_marseille","lat":43.28849,"lon":5.39298,"is_reserved":false,"is_disabled":false,"rental_uris":{"android":"levelo://app?vid=5bf0e482-4674-49a5-9066-80ed70b5b13e","ios":"levelo://app?vid=5bf0e482-4674-49a5-9066-80ed70b5b13e"},"vehicle_type_id":"4","last_reported":1727072041,"current_range_meters":14400,"station_id":"ce4bh2p2rcd13ifvqdi0","pricing_plan_id":"cebpf4jnsgd1na2vs0mg"},{"bike_id":"dc0180c8-d562-4dcb-8261-ce8edfff2960","system_id":"levelo_inurba_marseille","lat":43.28345,"lon":5.38093,"is_reserved":false,"is_disabled":false,"rental_uris":{"android":"levelo://app?vid=dc0180c8-d562-4dcb-8261-ce8edfff2960","ios":"levelo://app?vid=dc0180c8-d562-4dcb-8261-ce8edfff2960"},"vehicle_type_id":"4","last_reported":1727072041,"current_range_meters":34000,"station_id":"ce4bh412rcd13ifvqdr0","pricing_plan_id":"cebpf4jnsgd1na2vs0mg"},{"bike_id":"cafb602b-8776-4cd0-b218-80177be4ba9b","system_id":"levelo_inurba_marseille","lat":43.30296,"lon":5.36875,"is_reserved":false,"is_disabled":false,"rental_uris":{"android":"levelo://app?vid=cafb602b-8776-4cd0-b218-80177be4ba9b","ios":"levelo://app?vid=cafb602b-8776-4cd0-b218-80177be4ba9b"},"vehicle_type_id":"4","last_reported":1727072041,"current_range_meters":34800,"station_id":"ce4bgqh2rcd13ifvqc5g","pricing_plan_id":"cebpf4jnsgd1na2vs0mg"},{"bike_id":"fa690805-233a-4a70-a9f3-33f1b67cdb1f","system_id":"levelo_inurba_marseille","lat":43.32289,"lon":5.38256,"is_reserved":false,"is_disabled":false,"rental_uris":{"android":"levelo://app?vid=fa690805-233a-4a70-a9f3-33f1b67cdb1f","ios":"levelo://app?vid=fa690805-233a-4a70-a9f3-33f1b67cdb1f"},"vehicle_type_id":"4","last_reported":1727072041,"current_range_meters":38400,"station_id":"ce4bhr12rcd13ifvqhqg","pricing_plan_id":"cebpf4jnsgd1na2vs0mg"},{"bike_id":"c7a5c9a2-9c90-4677-8e5f-4be40a154f91","system_id":"levelo_inurba_marseille","lat":43.30309,"lon":5.36894,"is_reserved":false,"is_disabled":false,"rental_uris":{"android":"levelo://app?vid=c7a5c9a2-9c90-4677-8e5f-4be40a154f91","ios":"levelo://app?vid=c7a5c9a2-9c90-4677-8e5f-4be40a154f91"},"vehicle_type_id":"4","last_reported":1727072041,"current_range_meters":39200,"station_id":"ce4bgqh2rcd13ifvqc5g","pricing_plan_id":"cebpf4jnsgd1na2vs0mg"},{"bike_id":"0300a662-c9c8-4a25-9b7d-43e350c17960","system_id":"levelo_inurba_marseille","lat":43.26032,"lon":5.37545,"is_reserved":false,"is_disabled":false,"rental_uris":{"android":"levelo://app?vid=0300a662-c9c8-4a25-9b7d-43e350c17960","ios":"levelo://app?vid=0300a662-c9c8-4a25-9b7d-43e350c17960"},"vehicle_type_id":"4","last_reported":1727072041,"current_range_meters":37600,"station_id":"ce4bhgh2rcd13ifvqfa0","pricing_plan_id":"cebpf4jnsgd1na2vs0mg"},{"bike_id":"2d39d9a8-2632-4d7d-a3d3-90298181a4c1","system_id":"levelo_inurba_marseille","lat":43.296082,"lon":5.369663,"is_reserved":false,"is_disabled":false,"rental_uris":{"android":"levelo://app?vid=2d39d9a8-2632-4d7d-a3d3-90298181a4c1","ios":"levelo://app?vid=2d39d9a8-2632-4d7d-a3d3-90298181a4c1"},"vehicle_type_id":"4","last_reported":1727072041,"current_range_meters":22400,"station_id":"","pricing_plan_id":"cebpf4jnsgd1na2vs0mg"},{"bike_id":"ac75444e-cc51-4669-a3cc-bb12b679f442","system_id":"levelo_inurba_marseille","lat":43.30906,"lon":5.36852,"is_reserved":false,"is_disabled":false,"rental_uris":{"android":"levelo://app?vid=ac75444e-cc51-4669-a3cc-bb12b679f442","ios":"levelo://app?vid=ac75444e-cc51-4669-a3cc-bb12b679f442"},"vehicle_type_id":"4","last_reported":1727072041,"current_range_meters":38400,"station_id":"ce4bgn92rcd13ifvqbvg","pricing_plan_id":"cebpf4jnsgd1na2vs0mg"},{"bike_id":"a5f5cadb-ea27-43b8-9138-0c23ecb745e3","system_id":"levelo_inurba_marseille","lat":43.311714,"lon":5.387226,"is_reserved":false,"is_disabled":false,"rental_uris":{"android":"levelo://app?vid=a5f5cadb-ea27-43b8-9138-0c23ecb745e3","ios":"levelo://app?vid=a5f5cadb-ea27-43b8-9138-0c23ecb745e3"},"vehicle_type_id":"4","last_reported":1727072041,"current_range_meters":33600,"station_id":"ce4bh412rcd13ifvqdr0","pricing_plan_id":"cebpf4jnsgd1na2vs0mg"},{"bike_id":"a438fd02-2868-4fbd-9cee-d2358d1ca486","system_id":"levelo_inurba_marseille","lat":43.265541,"lon":5.390048,"is_reserved":false,"is_disabled":false,"rental_uris":{"android":"levelo://app?vid=a438fd02-2868-4fbd-9cee-d2358d1ca486","ios":"levelo://app?vid=a438fd02-2868-4fbd-9cee-d2358d1ca486"},"vehicle_type_id":"4","last_reported":1727072041,"current_range_meters":18000,"station_id":"ce4bhe12rcd13ifvqf30","pricing_plan_id":"cebpf4jnsgd1na2vs0mg"},{"bike_id":"73c5d51c-d9c6-4d26-8529-a77237aefff6","system_id":"levelo_inurba_marseille","lat":43.30146,"lon":5.3808,"is_reserved":false,"is_disabled":false,"rental_uris":{"android":"levelo://app?vid=73c5d51c-d9c6-4d26-8529-a77237aefff6","ios":"levelo://app?vid=73c5d51c-d9c6-4d26-8529-a77237aefff6"},"vehicle_type_id":"4","last_reported":1727072041,"current_range_meters":30400,"station_id":"ce4bgjp2rcd13ifvqbh0","pricing_plan_id":"cebpf4jnsgd1na2vs0mg"},{"bike_id":"592570b1-2624-4eca-8f48-c67ef33fea4b","system_id":"levelo_inurba_marseille","lat":43.30904,"lon":5.36849,"is_reserved":false,"is_disabled":false,"rental_uris":{"android":"levelo://app?vid=592570b1-2624-4eca-8f48-c67ef33fea4b","ios":"levelo://app?vid=592570b1-2624-4eca-8f48-c67ef33fea4b"},"vehicle_type_id":"4","last_reported":1727072041,"current_range_meters":30400,"station_id":"ce4bgn92rcd13ifvqbvg","pricing_plan_id":"cebpf4jnsgd1na2vs0mg"},{"bike_id":"63837e2f-9e9e-4ca3-8127-3738fe4726e5","system_id":"levelo_inurba_marseille","lat":43.27489,"lon":5.42456,"is_reserved":false,"is_disabled":false,"rental_uris":{"android":"levelo://app?vid=63837e2f-9e9e-4ca3-8127-3738fe4726e5","ios":"levelo://app?vid=63837e2f-9e9e-4ca3-8127-3738fe4726e5"},"vehicle_type_id":"4","last_reported":1727072041,"current_range_meters":38400,"station_id":"ce4bhn92rcd13ifvqgrg","pricing_plan_id":"cebpf4jnsgd1na2vs0mg"},{"bike_id":"9c67751e-f015-4b39-b10f-916825492277","system_id":"levelo_inurba_marseille","lat":43.30148,"lon":5.38075,"is_reserved":false,"is_disabled":false,"rental_uris":{"android":"levelo://app?vid=9c67751e-f015-4b39-b10f-916825492277","ios":"levelo://app?vid=9c67751e-f015-4b39-b10f-916825492277"},"vehicle_type_id":"4","last_reported":1727072041,"current_range_meters":33200,"station_id":"ce4bgjp2rcd13ifvqbh0","pricing_plan_id":"cebpf4jnsgd1na2vs0mg"},{"bike_id":"73ffd0e7-8c56-4539-93a3-5db195e8d280","system_id":"levelo_inurba_marseille","lat":43.25828,"lon":5.39437,"is_reserved":false,"is_disabled":false,"rental_uris":{"android":"levelo://app?vid=73ffd0e7-8c56-4539-93a3-5db195e8d280","ios":"levelo://app?vid=73ffd0e7-8c56-4539-93a3-5db195e8d280"},"vehicle_type_id":"4","last_reported":1727072041,"current_range_meters":36400,"station_id":"ce4bhip2rcd13ifvqft0","pricing_plan_id":"cebpf4jnsgd1na2vs0mg"},{"bike_id":"9286b5bf-f91a-49cf-a09a-7c6955bea31a","system_id":"levelo_inurba_marseille","lat":43.307844,"lon":5.376529,"is_reserved":false,"is_disabled":false,"rental_uris":{"android":"levelo://app?vid=9286b5bf-f91a-49cf-a09a-7c6955bea31a","ios":"levelo://app?vid=9286b5bf-f91a-49cf-a09a-7c6955bea31a"},"vehicle_type_id":"4","last_reported":1727072041,"current_range_meters":14400,"station_id":"ce4bgip2rcd13ifvqbb0","pricing_plan_id":"cebpf4jnsgd1na2vs0mg"},{"bike_id":"e97b555b-e3ce-4537-9ee6-11e1c3be7082","system_id":"levelo_inurba_marseille","lat":43.291453,"lon":5.383069,"is_reserved":false,"is_disabled":false,"rental_uris":{"android":"levelo://app?vid=e97b555b-e3ce-4537-9ee6-11e1c3be7082","ios":"levelo://app?vid=e97b555b-e3ce-4537-9ee6-11e1c3be7082"},"vehicle_type_id":"4","last_reported":1727072041,"current_range_meters":30800,"station_id":"ce4bh612rcd13ifvqe6g","pricing_plan_id":"cebpf4jnsgd1na2vs0mg"},{"bike_id":"777e5742-83c8-4f45-b5da-1b5ade28f3f6","system_id":"levelo_inurba_marseille","lat":43.25111,"lon":5.40321,"is_reserved":false,"is_disabled":false,"rental_uris":{"android":"levelo://app?vid=777e5742-83c8-4f45-b5da-1b5ade28f3f6","ios":"levelo://app?vid=777e5742-83c8-4f45-b5da-1b5ade28f3f6"},"vehicle_type_id":"4","last_reported":1727072041,"current_range_meters":39200,"station_id":"ce4bhlh2rcd13ifvqgig","pricing_plan_id":"cebpf4jnsgd1na2vs0mg"},{"bike_id":"b90a7c10-b1c9-427c-ad71-f22428ef5db3","system_id":"levelo_inurba_marseille","lat":43.30299,"lon":5.39202,"is_reserved":false,"is_disabled":false,"rental_uris":{"android":"levelo://app?vid=b90a7c10-b1c9-427c-ad71-f22428ef5db3","ios":"levelo://app?vid=b90a7c10-b1c9-427c-ad71-f22428ef5db3"},"vehicle_type_id":"4","last_reported":1727072041,"current_range_meters":16400,"station_id":"ce4bgkh2rcd13ifvqbk0","pricing_plan_id":"cebpf4jnsgd1na2vs0mg"},{"bike_id":"f2a0cc36-8a47-4b98-bc0e-0786fd361fbe","system_id":"levelo_inurba_marseille","lat":43.31216,"lon":5.36852,"is_reserved":false,"is_disabled":false,"rental_uris":{"android":"levelo://app?vid=f2a0cc36-8a47-4b98-bc0e-0786fd361fbe","ios":"levelo://app?vid=f2a0cc36-8a47-4b98-bc0e-0786fd361fbe"},"vehicle_type_id":"4","last_reported":1727072041,"current_range_meters":21600,"station_id":"ce4bgl92rcd13ifvqbq0","pricing_plan_id":"cebpf4jnsgd1na2vs0mg"},{"bike_id":"a4864713-93d0-42dc-973f-f3a0561f4508","system_id":"levelo_inurba_marseille","lat":43.30463,"lon":5.37915,"is_reserved":false,"is_disabled":false,"rental_uris":{"android":"levelo://app?vid=a4864713-93d0-42dc-973f-f3a0561f4508","ios":"levelo://app?vid=a4864713-93d0-42dc-973f-f3a0561f4508"},"vehicle_type_id":"4","last_reported":1727072041,"current_range_meters":27200,"station_id":"ce4bgup2rcd13ifvqcn0","pricing_plan_id":"cebpf4jnsgd1na2vs0mg"},{"bike_id":"fa130a66-b9a6-4adb-a919-a32f057f372e","system_id":"levelo_inurba_marseille","lat":43.30348,"lon":5.418832,"is_reserved":false,"is_disabled":false,"rental_uris":{"android":"levelo://app?vid=fa130a66-b9a6-4adb-a919-a32f057f372e","ios":"levelo://app?vid=fa130a66-b9a6-4adb-a919-a32f057f372e"},"vehicle_type_id":"4","last_reported":1727072041,"current_range_meters":9600,"station_id":"ce4bhph2rcd13ifvqhdg","pricing_plan_id":"cebpf4jnsgd1na2vs0mg"},{"bike_id":"73c95d91-4339-4d75-b1c4-461a3daf1b5f","system_id":"levelo_inurba_marseille","lat":43.29553,"lon":5.42281,"is_reserved":false,"is_disabled":false,"rental_uris":{"android":"levelo://app?vid=73c95d91-4339-4d75-b1c4-461a3daf1b5f","ios":"levelo://app?vid=73c95d91-4339-4d75-b1c4-461a3daf1b5f"},"vehicle_type_id":"4","last_reported":1727072041,"current_range_meters":38000,"station_id":"ce4bhph2rcd13ifvqhdg","pricing_plan_id":"cebpf4jnsgd1na2vs0mg"},{"bike_id":"a18ab7b7-a6f9-4eb0-9ad1-dd7ee1f578dd","system_id":"levelo_inurba_marseille","lat":43.33603,"lon":5.41031,"is_reserved":false,"is_disabled":false,"rental_uris":{"android":"levelo://app?vid=a18ab7b7-a6f9-4eb0-9ad1-dd7ee1f578dd","ios":"levelo://app?vid=a18ab7b7-a6f9-4eb0-9ad1-dd7ee1f578dd"},"vehicle_type_id":"4","last_reported":1727072041,"current_range_meters":27600,"station_id":"ce4bhqh2rcd13ifvqhmg","pricing_plan_id":"cebpf4jnsgd1na2vs0mg"},{"bike_id":"bec92394-8860-4fe2-8433-524cc1554a7a","system_id":"levelo_inurba_marseille","lat":43.31718,"lon":5.43704,"is_reserved":false,"is_disabled":false,"rental_uris":{"android":"levelo://app?vid=bec92394-8860-4fe2-8433-524cc1554a7a","ios":"levelo://app?vid=bec92394-8860-4fe2-8433-524cc1554a7a"},"vehicle_type_id":"4","last_reported":1727072041,"current_range_meters":38800,"station_id":"ce4bhp92rcd13ifvqhcg","pricing_plan_id":"cebpf4jnsgd1na2vs0mg"},{"bike_id":"41e3be79-0483-4710-aecf-a207e49d16f8","system_id":"levelo_inurba_marseille","lat":43.2955,"lon":5.42288,"is_reserved":false,"is_disabled":false,"rental_uris":{"android":"levelo://app?vid=41e3be79-0483-4710-aecf-a207e49d16f8","ios":"levelo://app?vid=41e3be79-0483-4710-aecf-a207e49d16f8"},"vehicle_type_id":"4","last_reported":1727072041,"current_range_meters":16400,"station_id":"ce4bhph2rcd13ifvqhdg","pricing_plan_id":"cebpf4jnsgd1na2vs0mg"},{"bike_id":"70866c3f-d3d7-40cb-8dca-ba47f614494f","system_id":"levelo_inurba_marseille","lat":43.32542,"lon":5.41418,"is_reserved":false,"is_disabled":false,"rental_uris":{"android":"levelo://app?vid=70866c3f-d3d7-40cb-8dca-ba47f614494f","ios":"levelo://app?vid=70866c3f-d3d7-40cb-8dca-ba47f614494f"},"vehicle_type_id":"4","last_reported":1727072041,"current_range_meters":14000,"station_id":"ce4bhq12rcd13ifvqhhg","pricing_plan_id":"cebpf4jnsgd1na2vs0mg"},{"bike_id":"692f98f2-3747-45e8-817d-47dcd8ff5fa6","system_id":"levelo_inurba_marseille","lat":43.30602,"lon":5.39362,"is_reserved":false,"is_disabled":false,"rental_uris":{"android":"levelo://app?vid=692f98f2-3747-45e8-817d-47dcd8ff5fa6","ios":"levelo://app?vid=692f98f2-3747-45e8-817d-47dcd8ff5fa6"},"vehicle_type_id":"4","last_reported":1727072041,"current_range_meters":36800,"station_id":"ce4bh0p2rcd13ifvqd80","pricing_plan_id":"cebpf4jnsgd1na2vs0mg"},{"bike_id":"a6b53eb0-66bc-4c04-a8c0-9d342e3cdf87","system_id":"levelo_inurba_marseille","lat":43.271921,"lon":5.39192,"is_reserved":false,"is_disabled":false,"rental_uris":{"android":"levelo://app?vid=a6b53eb0-66bc-4c04-a8c0-9d342e3cdf87","ios":"levelo://app?vid=a6b53eb0-66bc-4c04-a8c0-9d342e3cdf87"},"vehicle_type_id":"4","last_reported":1727072041,"current_range_meters":37600,"station_id":"ce4bhhp2rcd13ifvqfm0","pricing_plan_id":"cebpf4jnsgd1na2vs0mg"},{"bike_id":"45e12e89-d706-4a76-b8da-b5ff7a99a24a","system_id":"levelo_inurba_marseille","lat":43.32542,"lon":5.41428,"is_reserved":false,"is_disabled":false,"rental_uris":{"android":"levelo://app?vid=45e12e89-d706-4a76-b8da-b5ff7a99a24a","ios":"levelo://app?vid=45e12e89-d706-4a76-b8da-b5ff7a99a24a"},"vehicle_type_id":"4","last_reported":1727072041,"current_range_meters":35200,"station_id":"ce4bhq12rcd13ifvqhhg","pricing_plan_id":"cebpf4jnsgd1na2vs0mg"},{"bike_id":"16769c62-ef42-4ceb-a21c-ebd104723172","system_id":"levelo_inurba_marseille","lat":43.30467,"lon":5.37908,"is_reserved":false,"is_disabled":false,"rental_uris":{"android":"levelo://app?vid=16769c62-ef42-4ceb-a21c-ebd104723172","ios":"levelo://app?vid=16769c62-ef42-4ceb-a21c-ebd104723172"},"vehicle_type_id":"4","last_reported":1727072041,"current_range_meters":20000,"station_id":"ce4bgup2rcd13ifvqcn0","pricing_plan_id":"cebpf4jnsgd1na2vs0mg"},{"bike_id":"02dc5c43-5b84-4817-a3c7-01bfe693dc51","system_id":"levelo_inurba_marseille","lat":43.33605,"lon":5.41046,"is_reserved":false,"is_disabled":false,"rental_uris":{"android":"levelo://app?vid=02dc5c43-5b84-4817-a3c7-01bfe693dc51","ios":"levelo://app?vid=02dc5c43-5b84-4817-a3c7-01bfe693dc51"},"vehicle_type_id":"4","last_reported":1727072041,"current_range_meters":36400,"station_id":"ce4bhqh2rcd13ifvqhmg","pricing_plan_id":"cebpf4jnsgd1na2vs0mg"},{"bike_id":"1e43de8f-9dc9-42df-bbe6-256ec5e1a6ad","system_id":"levelo_inurba_marseille","lat":43.31493,"lon":5.37298,"is_reserved":false,"is_disabled":false,"rental_uris":{"android":"levelo://app?vid=1e43de8f-9dc9-42df-bbe6-256ec5e1a6ad","ios":"levelo://app?vid=1e43de8f-9dc9-42df-bbe6-256ec5e1a6ad"},"vehicle_type_id":"4","last_reported":1727072041,"current_range_meters":38800,"station_id":"ce4bgt12rcd13ifvqcd0","pricing_plan_id":"cebpf4jnsgd1na2vs0mg"},{"bike_id":"ef0a6687-74ee-4177-ae9f-a8d166b18610","system_id":"levelo_inurba_marseille","lat":43.29273,"lon":5.40119,"is_reserved":false,"is_disabled":false,"rental_uris":{"android":"levelo://app?vid=ef0a6687-74ee-4177-ae9f-a8d166b18610","ios":"levelo://app?vid=ef0a6687-74ee-4177-ae9f-a8d166b18610"},"vehicle_type_id":"4","last_reported":1727072041,"current_range_meters":37600,"station_id":"ce4bh312rcd13ifvqdk0","pricing_plan_id":"cebpf4jnsgd1na2vs0mg"},{"bike_id":"246a917d-6bf0-440c-81f4-cc69a70dd8aa","system_id":"levelo_inurba_marseille","lat":43.29043,"lon":5.39949,"is_reserved":false,"is_disabled":false,"rental_uris":{"android":"levelo://app?vid=246a917d-6bf0-440c-81f4-cc69a70dd8aa","ios":"levelo://app?vid=246a917d-6bf0-440c-81f4-cc69a70dd8aa"},"vehicle_type_id":"4","last_reported":1727072041,"current_range_meters":3200,"station_id":"ce4bh392rcd13ifvqdm0","pricing_plan_id":"cebpf4jnsgd1na2vs0mg"},{"bike_id":"2845f897-a0ec-4530-a5ed-af4dba9b29e4","system_id":"levelo_inurba_marseille","lat":43.29556,"lon":5.42286,"is_reserved":false,"is_disabled":false,"rental_uris":{"android":"levelo://app?vid=2845f897-a0ec-4530-a5ed-af4dba9b29e4","ios":"levelo://app?vid=2845f897-a0ec-4530-a5ed-af4dba9b29e4"},"vehicle_type_id":"4","last_reported":1727072041,"current_range_meters":10000,"station_id":"ce4bhph2rcd13ifvqhdg","pricing_plan_id":"cebpf4jnsgd1na2vs0mg"},{"bike_id":"0f30add4-a156-4b7c-8d38-3528b70e9737","system_id":"levelo_inurba_marseille","lat":43.31346,"lon":5.36717,"is_reserved":false,"is_disabled":false,"rental_uris":{"android":"levelo://app?vid=0f30add4-a156-4b7c-8d38-3528b70e9737","ios":"levelo://app?vid=0f30add4-a156-4b7c-8d38-3528b70e9737"},"vehicle_type_id":"4","last_reported":1727072041,"current_range_meters":38800,"station_id":"ce4bgr92rcd13ifvqc6g","pricing_plan_id":"cebpf4jnsgd1na2vs0mg"},{"bike_id":"7361683d-a7ab-4c43-918f-96c17fe896f3","system_id":"levelo_inurba_marseille","lat":43.2893,"lon":5.36633,"is_reserved":false,"is_disabled":false,"rental_uris":{"android":"levelo://app?vid=7361683d-a7ab-4c43-918f-96c17fe896f3","ios":"levelo://app?vid=7361683d-a7ab-4c43-918f-96c17fe896f3"},"vehicle_type_id":"4","last_reported":1727072041,"current_range_meters":36000,"station_id":"ce4bhap2rcd13ifvqek0","pricing_plan_id":"cebpf4jnsgd1na2vs0mg"},{"bike_id":"6c8f9e99-6278-4900-a713-3e3f634a16f7","system_id":"levelo_inurba_marseille","lat":43.29795,"lon":5.381,"is_reserved":false,"is_disabled":false,"rental_uris":{"android":"levelo://app?vid=6c8f9e99-6278-4900-a713-3e3f634a16f7","ios":"levelo://app?vid=6c8f9e99-6278-4900-a713-3e3f634a16f7"},"vehicle_type_id":"4","last_reported":1727072041,"current_range_meters":33200,"station_id":"ce4bgip2rcd13ifvqbb0","pricing_plan_id":"cebpf4jnsgd1na2vs0mg"},{"bike_id":"9d832db1-b618-4c31-8c41-fea099a3b1bc","system_id":"levelo_inurba_marseille","lat":43.25587,"lon":5.38224,"is_reserved":false,"is_disabled":false,"rental_uris":{"android":"levelo://app?vid=9d832db1-b618-4c31-8c41-fea099a3b1bc","ios":"levelo://app?vid=9d832db1-b618-4c31-8c41-fea099a3b1bc"},"vehicle_type_id":"4","last_reported":1727072041,"current_range_meters":33600,"station_id":"ce4bhih2rcd13ifvqfs0","pricing_plan_id":"cebpf4jnsgd1na2vs0mg"},{"bike_id":"df42f132-93bd-456a-9a0b-6da80ae47c3c","system_id":"levelo_inurba_marseille","lat":43.30957,"lon":5.39033,"is_reserved":false,"is_disabled":false,"rental_uris":{"android":"levelo://app?vid=df42f132-93bd-456a-9a0b-6da80ae47c3c","ios":"levelo://app?vid=df42f132-93bd-456a-9a0b-6da80ae47c3c"},"vehicle_type_id":"4","last_reported":1727072041,"current_range_meters":38800,"station_id":"ce4bgup2rcd13ifvqco0","pricing_plan_id":"cebpf4jnsgd1na2vs0mg"},{"bike_id":"8259a5a1-4c0a-45c0-b304-b8d3b10e2e1b","system_id":"levelo_inurba_marseille","lat":43.26559,"lon":5.38997,"is_reserved":false,"is_disabled":false,"rental_uris":{"android":"levelo://app?vid=8259a5a1-4c0a-45c0-b304-b8d3b10e2e1b","ios":"levelo://app?vid=8259a5a1-4c0a-45c0-b304-b8d3b10e2e1b"},"vehicle_type_id":"4","last_reported":1727072041,"current_range_meters":38000,"station_id":"ce4bhe12rcd13ifvqf30","pricing_plan_id":"cebpf4jnsgd1na2vs0mg"},{"bike_id":"b9b4c7e6-959f-4b9e-9d08-5db16e6c00b9","system_id":"levelo_inurba_marseille","lat":43.30601,"lon":5.3937,"is_reserved":false,"is_disabled":false,"rental_uris":{"android":"levelo://app?vid=b9b4c7e6-959f-4b9e-9d08-5db16e6c00b9","ios":"levelo://app?vid=b9b4c7e6-959f-4b9e-9d08-5db16e6c00b9"},"vehicle_type_id":"4","last_reported":1727072041,"current_range_meters":37600,"station_id":"ce4bh0p2rcd13ifvqd80","pricing_plan_id":"cebpf4jnsgd1na2vs0mg"},{"bike_id":"58e7bc79-5583-4fe7-94bb-a9e3ceb2981f","system_id":"levelo_inurba_marseille","lat":43.22933,"lon":5.35385,"is_reserved":false,"is_disabled":false,"rental_uris":{"android":"levelo://app?vid=58e7bc79-5583-4fe7-94bb-a9e3ceb2981f","ios":"levelo://app?vid=58e7bc79-5583-4fe7-94bb-a9e3ceb2981f"},"vehicle_type_id":"4","last_reported":1727072041,"current_range_meters":38000,"station_id":"cpo3532slgdg3j2ikp40","pricing_plan_id":"cebpf4jnsgd1na2vs0mg"},{"bike_id":"6d6433fc-189b-42eb-8e48-9c687bc29932","system_id":"levelo_inurba_marseille","lat":43.23186,"lon":5.39993,"is_reserved":false,"is_disabled":false,"rental_uris":{"android":"levelo://app?vid=6d6433fc-189b-42eb-8e48-9c687bc29932","ios":"levelo://app?vid=6d6433fc-189b-42eb-8e48-9c687bc29932"},"vehicle_type_id":"4","last_reported":1727072041,"current_range_meters":37600,"station_id":"ce4bhn12rcd13ifvqgqg","pricing_plan_id":"cebpf4jnsgd1na2vs0mg"},{"bike_id":"f94c84cd-9dad-492f-81e4-1b5d9c8b3479","system_id":"levelo_inurba_marseille","lat":43.24072,"lon":5.37758,"is_reserved":false,"is_disabled":false,"rental_uris":{"android":"levelo://app?vid=f94c84cd-9dad-492f-81e4-1b5d9c8b3479","ios":"levelo://app?vid=f94c84cd-9dad-492f-81e4-1b5d9c8b3479"},"vehicle_type_id":"4","last_reported":1727072041,"current_range_meters":8800,"station_id":"ce4bhnp2rcd13ifvqgvg","pricing_plan_id":"cebpf4jnsgd1na2vs0mg"},{"bike_id":"f70eb8d1-5774-482d-9a3f-c650dfe6271f","system_id":"levelo_inurba_marseille","lat":43.29852,"lon":5.36303,"is_reserved":false,"is_disabled":false,"rental_uris":{"android":"levelo://app?vid=f70eb8d1-5774-482d-9a3f-c650dfe6271f","ios":"levelo://app?vid=f70eb8d1-5774-482d-9a3f-c650dfe6271f"},"vehicle_type_id":"4","last_reported":1727072041,"current_range_meters":6400,"station_id":"ce4bgpp2rcd13ifvqc3g","pricing_plan_id":"cebpf4jnsgd1na2vs0mg"},{"bike_id":"3f14661e-9189-465c-969f-a45b1b06c17b","system_id":"levelo_inurba_marseille","lat":43.30604,"lon":5.37211,"is_reserved":false,"is_disabled":false,"rental_uris":{"android":"levelo://app?vid=3f14661e-9189-465c-969f-a45b1b06c17b","ios":"levelo://app?vid=3f14661e-9189-465c-969f-a45b1b06c17b"},"vehicle_type_id":"4","last_reported":1727072041,"current_range_meters":14400,"station_id":"ce4bgqh2rcd13ifvqc4g","pricing_plan_id":"cebpf4jnsgd1na2vs0mg"},{"bike_id":"94ab013d-a25f-4889-bc76-6f417d3414e4","system_id":"levelo_inurba_marseille","lat":43.2894,"lon":5.3664,"is_reserved":false,"is_disabled":false,"rental_uris":{"android":"levelo://app?vid=94ab013d-a25f-4889-bc76-6f417d3414e4","ios":"levelo://app?vid=94ab013d-a25f-4889-bc76-6f417d3414e4"},"vehicle_type_id":"4","last_reported":1727072041,"current_range_meters":35600,"station_id":"ce4bhap2rcd13ifvqek0","pricing_plan_id":"cebpf4jnsgd1na2vs0mg"},{"bike_id":"41c8ffb6-992b-40e8-995d-f2956c2eab08","system_id":"levelo_inurba_marseille","lat":43.30457,"lon":5.37901,"is_reserved":false,"is_disabled":false,"rental_uris":{"android":"levelo://app?vid=41c8ffb6-992b-40e8-995d-f2956c2eab08","ios":"levelo://app?vid=41c8ffb6-992b-40e8-995d-f2956c2eab08"},"vehicle_type_id":"4","last_reported":1727072041,"current_range_meters":35200,"station_id":"ce4bgup2rcd13ifvqcn0","pricing_plan_id":"cebpf4jnsgd1na2vs0mg"},{"bike_id":"3abc65f6-fa7c-415d-a6c8-a194084e58c8","system_id":"levelo_inurba_marseille","lat":43.3047,"lon":5.37915,"is_reserved":false,"is_disabled":false,"rental_uris":{"android":"levelo://app?vid=3abc65f6-fa7c-415d-a6c8-a194084e58c8","ios":"levelo://app?vid=3abc65f6-fa7c-415d-a6c8-a194084e58c8"},"vehicle_type_id":"4","last_reported":1727072041,"current_range_meters":34800,"station_id":"ce4bgup2rcd13ifvqcn0","pricing_plan_id":"cebpf4jnsgd1na2vs0mg"},{"bike_id":"22458500-4d7b-4253-8a94-f3e901e56dda","system_id":"levelo_inurba_marseille","lat":43.24083,"lon":5.37749,"is_reserved":false,"is_disabled":false,"rental_uris":{"android":"levelo://app?vid=22458500-4d7b-4253-8a94-f3e901e56dda","ios":"levelo://app?vid=22458500-4d7b-4253-8a94-f3e901e56dda"},"vehicle_type_id":"4","last_reported":1727072041,"current_range_meters":8400,"station_id":"ce4bhnp2rcd13ifvqgvg","pricing_plan_id":"cebpf4jnsgd1na2vs0mg"},{"bike_id":"840f3e47-074d-4b22-ab80-8cfe985e5e84","system_id":"levelo_inurba_marseille","lat":43.24081,"lon":5.3775,"is_reserved":false,"is_disabled":false,"rental_uris":{"android":"levelo://app?vid=840f3e47-074d-4b22-ab80-8cfe985e5e84","ios":"levelo://app?vid=840f3e47-074d-4b22-ab80-8cfe985e5e84"},"vehicle_type_id":"4","last_reported":1727072041,"current_range_meters":30400,"station_id":"ce4bhnp2rcd13ifvqgvg","pricing_plan_id":"cebpf4jnsgd1na2vs0mg"},{"bike_id":"fbd70af4-8f01-40b8-97d7-9cc32b9161e5","system_id":"levelo_inurba_marseille","lat":43.30957,"lon":5.39034,"is_reserved":false,"is_disabled":false,"rental_uris":{"android":"levelo://app?vid=fbd70af4-8f01-40b8-97d7-9cc32b9161e5","ios":"levelo://app?vid=fbd70af4-8f01-40b8-97d7-9cc32b9161e5"},"vehicle_type_id":"4","last_reported":1727072041,"current_range_meters":24000,"station_id":"ce4bgup2rcd13ifvqco0","pricing_plan_id":"cebpf4jnsgd1na2vs0mg"},{"bike_id":"99f896e4-d064-48f9-a355-cbee3fd21a4d","system_id":"levelo_inurba_marseille","lat":43.25111,"lon":5.40321,"is_reserved":false,"is_disabled":false,"rental_uris":{"android":"levelo://app?vid=99f896e4-d064-48f9-a355-cbee3fd21a4d","ios":"levelo://app?vid=99f896e4-d064-48f9-a355-cbee3fd21a4d"},"vehicle_type_id":"4","last_reported":1727072041,"current_range_meters":29600,"station_id":"ce4bhlh2rcd13ifvqgig","pricing_plan_id":"cebpf4jnsgd1na2vs0mg"},