{"last_updated":1692525950,"ttl":30,"version":"2.2","data":{"bikes":[{"bike_id":"918f4bff-7103-4127-9e5a-a0986304de4a","system_id":"levelo_inurba_marseille","lat":43.313391,"lon":5.36706,"is_reserved":false,"is_disabled":false,"rental_uris":{"android":"levelo://app?vid=918f4bff-7103-4127-9e5a-a0986304de4a","ios":"levelo://app?vid=918f4bff-7103-4127-9e5a-a0986304de4a"},"vehicle_type_id":"4","last_reported":1692525950,"current_range_meters":11600,"station_id":"ce4bgr92rcd13ifvqc6g","pricing_plan_id":"free"},{"bike_id":"3ffc1099-3ecb-4360-b31e-186a7fe283e2","system_id":"levelo_inurba_marseille","lat":43.312239,"lon":5.368562,"is_reserved":false,"is_disabled":false,"rental_uris":{"android":"levelo://app?vid=3ffc1099-3ecb-4360-b31e-186a7fe283e2","ios":"levelo://app?vid=3ffc1099-3ecb-4360-b31e-186a7fe283e2"},"vehicle_type_id":"4","last_reported":1692525950,"current_range_meters":7200,"station_id":"ce4bgl92rcd13ifvqbq0","pricing_plan_id":"free"},{"bike_id":"f22ca441-4e4e-4660-b824-b2f46943e54d","system_id":"levelo_inurba_marseille","lat":43.312239,"lon":5.368562,"is_reserved":false,"is_disabled":false,"rental_uris":{"android":"levelo://app?vid=f22ca441-4e4e-4660-b824-b2f46943e54d","ios":"levelo://app?vid=f22ca441-4e4e-4660-b824-b2f46943e54d"},"vehicle_type_id":"4","last_reported":1692525950,"current_range_meters":31200,"station_id":"ce4bgl92rcd13ifvqbq0","pricing_plan_id":"free"},{"bike_id":"77d209a1-f36f-4e77-b651-212a006aea83","system_id":"levelo_inurba_marseille","lat":43.309076,"lon":5.368465,"is_reserved":false,"is_disabled":false,"rental_uris":{"android":"levelo://app?vid=77d209a1-f36f-4e77-b651-212a006aea83","ios":"levelo://app?vid=77d209a1-f36f-4e77-b651-212a006aea83"},"vehicle_type_id":"4","last_reported":1692525950,"current_range_meters":20400,"station_id":"ce4bgn92rcd13ifvqbvg","pricing_plan_id":"free"},{"bike_id":"31f45383-5fc2-4d27-9888-05bfa69d936c","system_id":"levelo_inurba_marseille","lat":43.30905,"lon":5.36843,"is_reserved":false,"is_disabled":false,"rental_uris":{"android":"levelo://app?vid=31f45383-5fc2-4d27-9888-05bfa69d936c","ios":"levelo://app?vid=31f45383-5fc2-4d27-9888-05bfa69d936c"},"vehicle_type_id":"4","last_reported":1692525950,"current_range_meters":28000,"station_id":"ce4bgn92rcd13ifvqbvg","pricing_plan_id":"free"},{"bike_id":"bf534b59-1b4a-454c-8155-e2b4e69cfb77","system_id":"levelo_inurba_marseille","lat":43.314811,"lon":5.373103,"is_reserved":false,"is_disabled":false,"rental_uris":{"android":"levelo://app?vid=bf534b59-1b4a-454c-8155-e2b4e69cfb77","ios":"levelo://app?vid=bf534b59-1b4a-454c-8155-e2b4e69cfb77"},"vehicle_type_id":"4","last_reported":1692525950,"current_range_meters":20800,"station_id":"ce4bgt12rcd13ifvqcd0","pricing_plan_id":"free"},{"bike_id":"5017dcea-463b-41e9-82a7-9a9c3648cd8e","system_id":"levelo_inurba_marseille","lat":43.314811,"lon":5.373103,"is_reserved":false,"is_disabled":false,"rental_uris":{"android":"levelo://app?vid=5017dcea-463b-41e9-82a7-9a9c3648cd8e","ios":"levelo://app?vid=5017dcea-463b-41e9-82a7-9a9c3648cd8e"},"vehicle_type_id":"4","last_reported":1692525950,"current_range_meters":4400,"station_id":"ce4bgt12rcd13ifvqcd0","pricing_plan_id":"free"},{"bike_id":"1ec1fc95-3051-4b9e-a138-6c62ea4f1d70","system_id":"levelo_inurba_marseille","lat":43.31502,"lon":5.37301,"is_reserved":false,"is_disabled":false,"rental_uris":{"android":"levelo://app?vid=1ec1fc95-3051-4b9e-a138-6c62ea4f1d70","ios":"levelo://app?vid=1ec1fc95-3051-4b9e-a138-6c62ea4f1d70"},"vehicle_type_id":"4","last_reported":1692525950,"current_range_meters":17600,"station_id":"ce4bgt12rcd13ifvqcd0","pricing_plan_id":"free"},{"bike_id":"386ed8e3-b71e-4f68-86af-202c5b76503e","system_id":"levelo_inurba_marseille","lat":43.305368,"lon":5.367343,"is_reserved":false,"is_disabled":false,"rental_uris":{"android":"levelo://app?vid=386ed8e3-b71e-4f68-86af-202c5b76503e","ios":"levelo://app?vid=386ed8e3-b71e-4f68-86af-202c5b76503e"},"vehicle_type_id":"4","last_reported":1692525950,"current_range_meters":20800,"station_id":"ce4bgrp2rcd13ifvqc9g","pricing_plan_id":"free"},{"bike_id":"fa509d00-1824-496b-98b2-ea3e85929914","system_id":"levelo_inurba_marseille","lat":43.30552,"lon":5.36528,"is_reserved":false,"is_disabled":false,"rental_uris":{"android":"levelo://app?vid=fa509d00-1824-496b-98b2-ea3e85929914","ios":"levelo://app?vid=fa509d00-1824-496b-98b2-ea3e85929914"},"vehicle_type_id":"4","last_reported":1692525950,"current_range_meters":27600,"station_id":"ce4bgs12rcd13ifvqcag","pricing_plan_id":"free"},{"bike_id":"da4a88f0-9773-4607-ad27-139a565a2604","system_id":"levelo_inurba_marseille","lat":43.30535,"lon":5.36706,"is_reserved":false,"is_disabled":false,"rental_uris":{"android":"levelo://app?vid=da4a88f0-9773-4607-ad27-139a565a2604","ios":"levelo://app?vid=da4a88f0-9773-4607-ad27-139a565a2604"},"vehicle_type_id":"4","last_reported":1692525950,"current_range_meters":8000,"station_id":"ce4bgrp2rcd13ifvqc9g","pricing_plan_id":"free"},{"bike_id":"9fbe6e18-d192-44c2-98b5-cafb68b41aa4","system_id":"levelo_inurba_marseille","lat":43.30538,"lon":5.3653,"is_reserved":false,"is_disabled":false,"rental_uris":{"android":"levelo://app?vid=9fbe6e18-d192-44c2-98b5-cafb68b41aa4","ios":"levelo://app?vid=9fbe6e18-d192-44c2-98b5-cafb68b41aa4"},"vehicle_type_id":"4","last_reported":1692525950,"current_range_meters":7200,"station_id":"ce4bgs12rcd13ifvqcag","pricing_plan_id":"free"},{"bike_id":"fa9615b7-eb45-4cc2-9252-86c7e28f6bbf","system_id":"levelo_inurba_marseille","lat":43.305706,"lon":5.365654,"is_reserved":false,"is_disabled":false,"rental_uris":{"android":"levelo://app?vid=fa9615b7-eb45-4cc2-9252-86c7e28f6bbf","ios":"levelo://app?vid=fa9615b7-eb45-4cc2-9252-86c7e28f6bbf"},"vehicle_type_id":"4","last_reported":1692525950,"current_range_meters":26400,"station_id":"ce4bgs12rcd13ifvqcag","pricing_plan_id":"free"},{"bike_id":"bc9987ee-ee6d-4b81-9124-826f7d3649b9","system_id":"levelo_inurba_marseille","lat":43.305706,"lon":5.365654,"is_reserved":false,"is_disabled":false,"rental_uris":{"android":"levelo://app?vid=bc9987ee-ee6d-4b81-9124-826f7d3649b9","ios":"levelo://app?vid=bc9987ee-ee6d-4b81-9124-826f7d3649b9"},"vehicle_type_id":"4","last_reported":1692525950,"current_range_meters":31200,"station_id":"ce4bgs12rcd13ifvqcag","pricing_plan_id":"free"},{"bike_id":"6ac39044-75bd-4057-b409-2745d9af88bc","system_id":"levelo_inurba_marseille","lat":43.305706,"lon":5.365654,"is_reserved":false,"is_disabled":false,"rental_uris":{"android":"levelo://app?vid=6ac39044-75bd-4057-b409-2745d9af88bc","ios":"levelo://app?vid=6ac39044-75bd-4057-b409-2745d9af88bc"},"vehicle_type_id":"4","last_reported":1692525950,"current_range_meters":26000,"station_id":"ce4bgs12rcd13ifvqcag","pricing_plan_id":"free"},{"bike_id":"1f18cbaf-dbf3-4748-b1af-0097256116f3","system_id":"levelo_inurba_marseille","lat":43.307945,"lon":5.376487,"is_reserved":false,"is_disabled":false,"rental_uris":{"android":"levelo://app?vid=1f18cbaf-dbf3-4748-b1af-0097256116f3","ios":"levelo://app?vid=1f18cbaf-dbf3-4748-b1af-0097256116f3"},"vehicle_type_id":"4","last_reported":1692525950,"current_range_meters":30800,"station_id":"ce4bgv92rcd13ifvqcq0","pricing_plan_id":"free"},{"bike_id":"11c1e018-9a60-4a0d-bc01-c5791bb4f6c2","system_id":"levelo_inurba_marseille","lat":43.31701,"lon":5.37766,"is_reserved":false,"is_disabled":false,"rental_uris":{"android":"levelo://app?vid=11c1e018-9a60-4a0d-bc01-c5791bb4f6c2","ios":"levelo://app?vid=11c1e018-9a60-4a0d-bc01-c5791bb4f6c2"},"vehicle_type_id":"4","last_reported":1692525950,"current_range_meters":1200,"station_id":"ce4bgth2rcd13ifvqch0","pricing_plan_id":"free"},{"bike_id":"0871042d-4c98-4a0d-a09d-36eb6b88fae9","system_id":"levelo_inurba_marseille","lat":43.31535,"lon":5.3803,"is_reserved":false,"is_disabled":false,"rental_uris":{"android":"levelo://app?vid=0871042d-4c98-4a0d-a09d-36eb6b88fae9","ios":"levelo://app?vid=0871042d-4c98-4a0d-a09d-36eb6b88fae9"},"vehicle_type_id":"4","last_reported":1692525950,"current_range_meters":20800,"station_id":"ce4bhsp2rcd13ifvqi50","pricing_plan_id":"free"},{"bike_id":"421681f4-5d04-4d80-a988-b60a1840fcf8","system_id":"levelo_inurba_marseille","lat":43.30148,"lon":5.37417,"is_reserved":false,"is_disabled":false,"rental_uris":{"android":"levelo://app?vid=421681f4-5d04-4d80-a988-b60a1840fcf8","ios":"levelo://app?vid=421681f4-5d04-4d80-a988-b60a1840fcf8"},"vehicle_type_id":"4","last_reported":1692525950,"current_range_meters":20800,"station_id":"ce4bgs92rcd13ifvqcc0","pricing_plan_id":"free"},{"bike_id":"b80fdf6d-1762-463b-b332-d84682069b0f","system_id":"levelo_inurba_marseille","lat":43.30144,"lon":5.37409,"is_reserved":false,"is_disabled":false,"rental_uris":{"android":"levelo://app?vid=b80fdf6d-1762-463b-b332-d84682069b0f","ios":"levelo://app?vid=b80fdf6d-1762-463b-b332-d84682069b0f"},"vehicle_type_id":"4","last_reported":1692525950,"current_range_meters":27200,"station_id":"ce4bgs92rcd13ifvqcc0","pricing_plan_id":"free"},{"bike_id":"0efe28dd-a188-4426-9470-913e1684cff7","system_id":"levelo_inurba_marseille","lat":43.30135,"lon":5.37426,"is_reserved":false,"is_disabled":false,"rental_uris":{"android":"levelo://app?vid=0efe28dd-a188-4426-9470-913e1684cff7","ios":"levelo://app?vid=0efe28dd-a188-4426-9470-913e1684cff7"},"vehicle_type_id":"4","last_reported":1692525950,"current_range_meters":25200,"station_id":"ce4bgs92rcd13ifvqcc0","pricing_plan_id":"free"},{"bike_id":"2853069c-edb4-47a8-8b6a-798f5cd95477","system_id":"levelo_inurba_marseille","lat":43.31999,"lon":5.38155,"is_reserved":false,"is_disabled":false,"rental_uris":{"android":"levelo://app?vid=2853069c-edb4-47a8-8b6a-798f5cd95477","ios":"levelo://app?vid=2853069c-edb4-47a8-8b6a-798f5cd95477"},"vehicle_type_id":"4","last_reported":1692525950,"current_range_meters":0,"station_id":"ce4bhr12rcd13ifvqhpg","pricing_plan_id":"free"},{"bike_id":"5bd4677a-f525-4e35-b2d0-49c0e17fa35e","system_id":"levelo_inurba_marseille","lat":43.299724,"lon":5.371829,"is_reserved":false,"is_disabled":false,"rental_uris":{"android":"levelo://app?vid=5bd4677a-f525-4e35-b2d0-49c0e17fa35e","ios":"levelo://app?vid=5bd4677a-f525-4e35-b2d0-49c0e17fa35e"},"vehicle_type_id":"4","last_reported":1692525950,"current_range_meters":23600,"station_id":"ce4bgr92rcd13ifvqc7g","pricing_plan_id":"free"},{"bike_id":"431a5782-99fd-46c0-aafc-6694d2976417","system_id":"levelo_inurba_marseille","lat":43.29934,"lon":5.36535,"is_reserved":false,"is_disabled":false,"rental_uris":{"android":"levelo://app?vid=431a5782-99fd-46c0-aafc-6694d2976417","ios":"levelo://app?vid=431a5782-99fd-46c0-aafc-6694d2976417"},"vehicle_type_id":"4","last_reported":1692525950,"current_range_meters":19200,"station_id":"ce4bgm92rcd13ifvqbr0","pricing_plan_id":"free"},{"bike_id":"6b14a3a9-f8cf-431f-af43-45099695a032","system_id":"levelo_inurba_marseille","lat":43.298433,"lon":5.362774,"is_reserved":false,"is_disabled":false,"rental_uris":{"android":"levelo://app?vid=6b14a3a9-f8cf-431f-af43-45099695a032","ios":"levelo://app?vid=6b14a3a9-f8cf-431f-af43-45099695a032"},"vehicle_type_id":"4","last_reported":1692525950,"current_range_meters":22800,"station_id":"ce4bgpp2rcd13ifvqc3g","pricing_plan_id":"free"},{"bike_id":"a6346084-6168-4c19-8617-8d87c066e38e","system_id":"levelo_inurba_marseille","lat":43.29853,"lon":5.36288,"is_reserved":false,"is_disabled":false,"rental_uris":{"android":"levelo://app?vid=a6346084-6168-4c19-8617-8d87c066e38e","ios":"levelo://app?vid=a6346084-6168-4c19-8617-8d87c066e38e"},"vehicle_type_id":"4","last_reported":1692525950,"current_range_meters":4400,"station_id":"ce4bgpp2rcd13ifvqc3g","pricing_plan_id":"free"},{"bike_id":"0819b604-be47-4c4c-9814-a305819ab4ba","system_id":"levelo_inurba_marseille","lat":43.298433,"lon":5.362774,"is_reserved":false,"is_disabled":false,"rental_uris":{"android":"levelo://app?vid=0819b604-be47-4c4c-9814-a305819ab4ba","ios":"levelo://app?vid=0819b604-be47-4c4c-9814-a305819ab4ba"},"vehicle_type_id":"4","last_reported":1692525950,"current_range_meters":0,"station_id":"ce4bgpp2rcd13ifvqc3g","pricing_plan_id":"free"},{"bike_id":"10b59d93-04c8-4d2d-8663-1f76d0e8a456","system_id":"levelo_inurba_marseille","lat":43.29841,"lon":5.36265,"is_reserved":false,"is_disabled":false,"rental_uris":{"android":"levelo://app?vid=10b59d93-04c8-4d2d-8663-1f76d0e8a456","ios":"levelo://app?vid=10b59d93-04c8-4d2d-8663-1f76d0e8a456"},"vehicle_type_id":"4","last_reported":1692525950,"current_range_meters":28000,"station_id":"","pricing_plan_id":"free"},{"bike_id":"b885f463-e8c5-42cc-902f-7152167ce1c7","system_id":"levelo_inurba_marseille","lat":43.299243,"lon":5.374807,"is_reserved":false,"is_disabled":false,"rental_uris":{"android":"levelo://app?vid=b885f463-e8c5-42cc-902f-7152167ce1c7","ios":"levelo://app?vid=b885f463-e8c5-42cc-902f-7152167ce1c7"},"vehicle_type_id":"4","last_reported":1692525950,"current_range_meters":31200,"station_id":"ce4bgjh2rcd13ifvqbg0","pricing_plan_id":"free"},{"bike_id":"b815ce0f-8c6d-460d-8747-b98d1251b4b3","system_id":"levelo_inurba_marseille","lat":43.322872,"lon":5.382756,"is_reserved":false,"is_disabled":false,"rental_uris":{"android":"levelo://app?vid=b815ce0f-8c6d-460d-8747-b98d1251b4b3","ios":"levelo://app?vid=b815ce0f-8c6d-460d-8747-b98d1251b4b3"},"vehicle_type_id":"4","last_reported":1692525950,"current_range_meters":12000,"station_id":"ce4bhr12rcd13ifvqhqg","pricing_plan_id":"free"},{"bike_id":"5b5c8cae-b425-4976-9ba8-5ae205664d6b","system_id":"levelo_inurba_marseille","lat":43.322872,"lon":5.382756,"is_reserved":false,"is_disabled":false,"rental_uris":{"android":"levelo://app?vid=5b5c8cae-b425-4976-9ba8-5ae205664d6b","ios":"levelo://app?vid=5b5c8cae-b425-4976-9ba8-5ae205664d6b"},"vehicle_type_id":"4","last_reported":1692525950,"current_range_meters":14800,"station_id":"ce4bhr12rcd13ifvqhqg","pricing_plan_id":"free"},{"bike_id":"a1f7b084-f437-4e0c-8b20-334f54c48d59","system_id":"levelo_inurba_marseille","lat":43.32289,"lon":5.38268,"is_reserved":false,"is_disabled":false,"rental_uris":{"android":"levelo://app?vid=a1f7b084-f437-4e0c-8b20-334f54c48d59","ios":"levelo://app?vid=a1f7b084-f437-4e0c-8b20-334f54c48d59"},"vehicle_type_id":"4","last_reported":1692525950,"current_range_meters":14800,"station_id":"ce4bhr12rcd13ifvqhqg","pricing_plan_id":"free"},{"bike_id":"26a673a3-4576-4278-aa12-ab1f30ef3c8f","system_id":"levelo_inurba_marseille","lat":43.32292,"lon":5.38267,"is_reserved":false,"is_disabled":false,"rental_uris":{"android":"levelo://app?vid=26a673a3-4576-4278-aa12-ab1f30ef3c8f","ios":"levelo://app?vid=26a673a3-4576-4278-aa12-ab1f30ef3c8f"},"vehicle_type_id":"4","last_reported":1692525950,"current_range_meters":26000,"station_id":"ce4bhr12rcd13ifvqhqg","pricing_plan_id":"free"},{"bike_id":"b9784bc4-a1f4-4e7b-a996-3746dcc4c656","system_id":"levelo_inurba_marseille","lat":43.32285,"lon":5.38279,"is_reserved":false,"is_disabled":false,"rental_uris":{"android":"levelo://app?vid=b9784bc4-a1f4-4e7b-a996-3746dcc4c656","ios":"levelo://app?vid=b9784bc4-a1f4-4e7b-a996-3746dcc4c656"},"vehicle_type_id":"4","last_reported":1692525950,"current_range_meters":6400,"station_id":"ce4bhr12rcd13ifvqhqg","pricing_plan_id":"free"},{"bike_id":"110bd150-ae2d-4085-890c-a8f4481980e0","system_id":"levelo_inurba_marseille","lat":43.32292,"lon":5.38279,"is_reserved":false,"is_disabled":false,"rental_uris":{"android":"levelo://app?vid=110bd150-ae2d-4085-890c-a8f4481980e0","ios":"levelo://app?vid=110bd150-ae2d-4085-890c-a8f4481980e0"},"vehicle_type_id":"4","last_reported":1692525950,"current_range_meters":26400,"station_id":"ce4bhr12rcd13ifvqhqg","pricing_plan_id":"free"},{"bike_id":"2ab2c619-9cfb-4da7-9f78-cfb4995f9eec","system_id":"levelo_inurba_marseille","lat":43.328371,"lon":5.366909,"is_reserved":false,"is_disabled":false,"rental_uris":{"android":"levelo://app?vid=2ab2c619-9cfb-4da7-9f78-cfb4995f9eec","ios":"levelo://app?vid=2ab2c619-9cfb-4da7-9f78-cfb4995f9eec"},"vehicle_type_id":"4","last_reported":1692525950,"current_range_meters":4400,"station_id":"ce4bhs92rcd13ifvqi0g","pricing_plan_id":"free"},{"bike_id":"0f135836-946e-4e91-9b15-72b385cbdf04","system_id":"levelo_inurba_marseille","lat":43.328371,"lon":5.366909,"is_reserved":false,"is_disabled":false,"rental_uris":{"android":"levelo://app?vid=0f135836-946e-4e91-9b15-72b385cbdf04","ios":"levelo://app?vid=0f135836-946e-4e91-9b15-72b385cbdf04"},"vehicle_type_id":"4","last_reported":1692525950,"current_range_meters":29600,"station_id":"ce4bhs92rcd13ifvqi0g","pricing_plan_id":"free"},{"bike_id":"cb6c408c-56b3-4aaa-8904-aaf9a843fb9a","system_id":"levelo_inurba_marseille","lat":43.328371,"lon":5.366909,"is_reserved":false,"is_disabled":false,"rental_uris":{"android":"levelo://app?vid=cb6c408c-56b3-4aaa-8904-aaf9a843fb9a","ios":"levelo://app?vid=cb6c408c-56b3-4aaa-8904-aaf9a843fb9a"},"vehicle_type_id":"4","last_reported":1692525950,"current_range_meters":21600,"station_id":"ce4bhs92rcd13ifvqi0g","pricing_plan_id":"free"},{"bike_id":"dd789220-e7b5-42c1-b9dc-dc4243148021","system_id":"levelo_inurba_marseille","lat":43.297163,"lon":5.365866,"is_reserved":false,"is_disabled":false,"rental_uris":{"android":"levelo://app?vid=dd789220-e7b5-42c1-b9dc-dc4243148021","ios":"levelo://app?vid=dd789220-e7b5-42c1-b9dc-dc4243148021"},"vehicle_type_id":"4","last_reported":1692525950,"current_range_meters":31200,"station_id":"ce4bgn12rcd13ifvqbt0","pricing_plan_id":"free"},{"bike_id":"3ae83bd7-4f98-4718-85d0-b16eb97344f2","system_id":"levelo_inurba_marseille","lat":43.29712,"lon":5.3662,"is_reserved":false,"is_disabled":false,"rental_uris":{"android":"levelo://app?vid=3ae83bd7-4f98-4718-85d0-b16eb97344f2","ios":"levelo://app?vid=3ae83bd7-4f98-4718-85d0-b16eb97344f2"},"vehicle_type_id":"4","last_reported":1692525950,"current_range_meters":31200,"station_id":"ce4bgn12rcd13ifvqbt0","pricing_plan_id":"free"},{"bike_id":"42a75e66-63b7-4ce8-87cb-66d61ba23f33","system_id":"levelo_inurba_marseille","lat":43.296209,"lon":5.370069,"is_reserved":false,"is_disabled":false,"rental_uris":{"android":"levelo://app?vid=42a75e66-63b7-4ce8-87cb-66d61ba23f33","ios":"levelo://app?vid=42a75e66-63b7-4ce8-87cb-66d61ba23f33"},"vehicle_type_id":"4","last_reported":1692525950,"current_range_meters":30800,"station_id":"","pricing_plan_id":"free"},{"bike_id":"bb155e93-116e-494a-9911-2df351c7dae8","system_id":"levelo_inurba_marseille","lat":43.296131,"lon":5.370773,"is_reserved":false,"is_disabled":false,"rental_uris":{"android":"levelo://app?vid=bb155e93-116e-494a-9911-2df351c7dae8","ios":"levelo://app?vid=bb155e93-116e-494a-9911-2df351c7dae8"},"vehicle_type_id":"4","last_reported":1692525950,"current_range_meters":27600,"station_id":"ce4bgnh2rcd13ifvqc0g","pricing_plan_id":"free"},{"bike_id":"e0eefc6e-efae-4317-ae1f-3d684f408c90","system_id":"levelo_inurba_marseille","lat":43.29586,"lon":5.3673,"is_reserved":false,"is_disabled":false,"rental_uris":{"android":"levelo://app?vid=e0eefc6e-efae-4317-ae1f-3d684f408c90","ios":"levelo://app?vid=e0eefc6e-efae-4317-ae1f-3d684f408c90"},"vehicle_type_id":"4","last_reported":1692525950,"current_range_meters":31200,"station_id":"ce4bgph2rcd13ifvqc2g","pricing_plan_id":"free"},{"bike_id":"05f2e128-9f52-4587-919b-eb5a74119d9d","system_id":"levelo_inurba_marseille","lat":43.29573,"lon":5.367355,"is_reserved":false,"is_disabled":false,"rental_uris":{"android":"levelo://app?vid=05f2e128-9f52-4587-919b-eb5a74119d9d","ios":"levelo://app?vid=05f2e128-9f52-4587-919b-eb5a74119d9d"},"vehicle_type_id":"4","last_reported":1692525950,"current_range_meters":29200,"station_id":"ce4bgph2rcd13ifvqc2g","pricing_plan_id":"free"},{"bike_id":"8b1dc445-3f8b-44d3-bd44-0919468962d0","system_id":"levelo_inurba_marseille","lat":43.29573,"lon":5.367355,"is_reserved":false,"is_disabled":false,"rental_uris":{"android":"levelo://app?vid=8b1dc445-3f8b-44d3-bd44-0919468962d0","ios":"levelo://app?vid=8b1dc445-3f8b-44d3-bd44-0919468962d0"},"vehicle_type_id":"4","last_reported":1692525950,"current_range_meters":31200,"station_id":"ce4bgph2rcd13ifvqc2g","pricing_plan_id":"free"},{"bike_id":"6f5edf8b-7cf3-45e6-af85-cfe2cee34450","system_id":"levelo_inurba_marseille","lat":43.29579,"lon":5.36737,"is_reserved":false,"is_disabled":false,"rental_uris":{"android":"levelo://app?vid=6f5edf8b-7cf3-45e6-af85-cfe2cee34450","ios":"levelo://app?vid=6f5edf8b-7cf3-45e6-af85-cfe2cee34450"},"vehicle_type_id":"4","last_reported":1692525950,"current_range_meters":24000,"station_id":"ce4bgph2rcd13ifvqc2g","pricing_plan_id":"free"},{"bike_id":"d3139180-8ba9-4c91-b6e4-8baae3c22113","system_id":"levelo_inurba_marseille","lat":43.29615,"lon":5.37189,"is_reserved":false,"is_disabled":false,"rental_uris":{"android":"levelo://app?vid=d3139180-8ba9-4c91-b6e4-8baae3c22113","ios":"levelo://app?vid=d3139180-8ba9-4c91-b6e4-8baae3c22113"},"vehicle_type_id":"4","last_reported":1692525950,"current_range_meters":30400,"station_id":"","pricing_plan_id":"free"},{"bike_id":"7b6258d5-0f8c-41ff-b881-aa92bb954465","system_id":"levelo_inurba_marseille","lat":43.309589,"lon":5.390258,"is_reserved":false,"is_disabled":false,"rental_uris":{"android":"levelo://app?vid=7b6258d5-0f8c-41ff-b881-aa92bb954465","ios":"levelo://app?vid=7b6258d5-0f8c-41ff-b881-aa92bb954465"},"vehicle_type_id":"4","last_reported":1692525950,"current_range_meters":24800,"station_id":"ce4bgup2rcd13ifvqco0","pricing_plan_id":"free"},{"bike_id":"821e9a9e-3d71-40b4-b81b-c726123046c0","system_id":"levelo_inurba_marseille","lat":43.317557,"lon":5.390173,"is_reserved":false,"is_disabled":false,"rental_uris":{"android":"levelo://app?vid=821e9a9e-3d71-40b4-b81b-c726123046c0","ios":"levelo://app?vid=821e9a9e-3d71-40b4-b81b-c726123046c0"},"vehicle_type_id":"4","last_reported":1692525950,"current_range_meters":9600,"station_id":"ce4bhqp2rcd13ifvqhng","pricing_plan_id":"free"},{"bike_id":"a4df99ce-0488-49dd-a888-94686f562e88","system_id":"levelo_inurba_marseille","lat":43.295748,"lon":5.37522,"is_reserved":false,"is_disabled":false,"rental_uris":{"android":"levelo://app?vid=a4df99ce-0488-49dd-a888-94686f562e88","ios":"levelo://app?vid=a4df99ce-0488-49dd-a888-94686f562e88"},"vehicle_type_id":"4","last_reported":1692525950,"current_range_meters":29600,"station_id":"ce4bgh92rcd13ifvqb50","pricing_plan_id":"free"},{"bike_id":"24978257-56d1-49b1-a1fd-2d0b5ccf483d","system_id":"levelo_inurba_marseille","lat":43.30433,"lon":5.38892,"is_reserved":false,"is_disabled":false,"rental_uris":{"android":"levelo://app?vid=24978257-56d1-49b1-a1fd-2d0b5ccf483d","ios":"levelo://app?vid=24978257-56d1-49b1-a1fd-2d0b5ccf483d"},"vehicle_type_id":"4","last_reported":1692525950,"current_range_meters":13200,"station_id":"ce4bgk12rcd13ifvqbi0","pricing_plan_id":"free"},{"bike_id":"8de12ebd-b14c-432c-b365-5a524a178b55","system_id":"levelo_inurba_marseille","lat":43.30431,"lon":5.38892,"is_reserved":false,"is_disabled":false,"rental_uris":{"android":"levelo://app?vid=8de12ebd-b14c-432c-b365-5a524a178b55","ios":"levelo://app?vid=8de12ebd-b14c-432c-b365-5a524a178b55"},"vehicle_type_id":"4","last_reported":1692525950,"current_range_meters":23200,"station_id":"ce4bgk12rcd13ifvqbi0","pricing_plan_id":"free"},{"bike_id":"a925363d-c33d-471e-9c81-22499fa4e67b","system_id":"levelo_inurba_marseille","lat":43.296935,"lon":5.376544,"is_reserved":false,"is_disabled":false,"rental_uris":{"android":"levelo://app?vid=a925363d-c33d-471e-9c81-22499fa4e67b","ios":"levelo://app?vid=a925363d-c33d-471e-9c81-22499fa4e67b"},"vehicle_type_id":"4","last_reported":1692525950,"current_range_meters":18000,"station_id":"ce4bgkh2rcd13ifvqbl0","pricing_plan_id":"free"},{"bike_id":"23d61178-fcaa-4ba4-aee4-746c25e5b4bf","system_id":"levelo_inurba_marseille","lat":43.33083,"lon":5.37468,"is_reserved":false,"is_disabled":false,"rental_uris":{"android":"levelo://app?vid=23d61178-fcaa-4ba4-aee4-746c25e5b4bf","ios":"levelo://app?vid=23d61178-fcaa-4ba4-aee4-746c25e5b4bf"},"vehicle_type_id":"4","last_reported":1692525950,"current_range_meters":26400,"station_id":"","pricing_plan_id":"free"},{"bike_id":"21fcea45-e491-4a85-bcbf-bf5cd0b62ccf","system_id":"levelo_inurba_marseille","lat":43.32367,"lon":5.388836,"is_reserved":false,"is_disabled":false,"rental_uris":{"android":"levelo://app?vid=21fcea45-e491-4a85-bcbf-bf5cd0b62ccf","ios":"levelo://app?vid=21fcea45-e491-4a85-bcbf-bf5cd0b62ccf"},"vehicle_type_id":"4","last_reported":1692525950,"current_range_meters":29200,"station_id":"ce4bhqp2rcd13ifvqhog","pricing_plan_id":"free"},{"bike_id":"a97f77a2-1520-4bfc-9df0-0f9c62851caa","system_id":"levelo_inurba_marseille","lat":43.32367,"lon":5.388836,"is_reserved":false,"is_disabled":false,"rental_uris":{"android":"levelo://app?vid=a97f77a2-1520-4bfc-9df0-0f9c62851caa","ios":"levelo://app?vid=a97f77a2-1520-4bfc-9df0-0f9c62851caa"},"vehicle_type_id":"4","last_reported":1692525950,"current_range_meters":24800,"station_id":"ce4bhqp2rcd13ifvqhog","pricing_plan_id":"free"},{"bike_id":"6b6cba89-d2b8-44bb-8454-5df08cf65f67","system_id":"levelo_inurba_marseille","lat":43.32366,"lon":5.38886,"is_reserved":false,"is_disabled":false,"rental_uris":{"android":"levelo://app?vid=6b6cba89-d2b8-44bb-8454-5df08cf65f67","ios":"levelo://app?vid=6b6cba89-d2b8-44bb-8454-5df08cf65f67"},"vehicle_type_id":"4","last_reported":1692525950,"current_range_meters":9200,"station_id":"ce4bhqp2rcd13ifvqhog","pricing_plan_id":"free"},{"bike_id":"0126f869-77bb-4690-a14f-53e2dd9d4689","system_id":"levelo_inurba_marseille","lat":43.3237,"lon":5.38888,"is_reserved":false,"is_disabled":false,"rental_uris":{"android":"levelo://app?vid=0126f869-77bb-4690-a14f-53e2dd9d4689","ios":"levelo://app?vid=0126f869-77bb-4690-a14f-53e2dd9d4689"},"vehicle_type_id":"4","last_reported":1692525950,"current_range_meters":22000,"station_id":"ce4bhqp2rcd13ifvqhog","pricing_plan_id":"free"},{"bike_id":"f44189aa-2700-4362-a7af-f6f2dbcc891e","system_id":"levelo_inurba_marseille","lat":43.2931,"lon":5.37178,"is_reserved":false,"is_disabled":false,"rental_uris":{"android":"levelo://app?vid=f44189aa-2700-4362-a7af-f6f2dbcc891e","ios":"levelo://app?vid=f44189aa-2700-4362-a7af-f6f2dbcc891e"},"vehicle_type_id":"4","last_reported":1692525950,"current_range_meters":26000,"station_id":"ce4bgh92rcd13ifvqb40","pricing_plan_id":"free"},{"bike_id":"c85002fe-92c2-473f-abf7-fe946a543948","system_id":"levelo_inurba_marseille","lat":43.292749,"lon":5.368402,"is_reserved":false,"is_disabled":false,"rental_uris":{"android":"levelo://app?vid=c85002fe-92c2-473f-abf7-fe946a543948","ios":"levelo://app?vid=c85002fe-92c2-473f-abf7-fe946a543948"},"vehicle_type_id":"4","last_reported":1692525950,"current_range_meters":30800,"station_id":"ce4bhbp2rcd13ifvqesg","pricing_plan_id":"free"},{"bike_id":"8d0f2f8f-317b-4e24-ab27-a787bc876d0d","system_id":"levelo_inurba_marseille","lat":43.29305,"lon":5.37163,"is_reserved":false,"is_disabled":false,"rental_uris":{"android":"levelo://app?vid=8d0f2f8f-317b-4e24-ab27-a787bc876d0d","ios":"levelo://app?vid=8d0f2f8f-317b-4e24-ab27-a787bc876d0d"},"vehicle_type_id":"4","last_reported":1692525950,"current_range_meters":27200,"station_id":"ce4bgh92rcd13ifvqb40","pricing_plan_id":"free"},{"bike_id":"e4599d0c-5641-4bde-92e4-28a45222171d","system_id":"levelo_inurba_marseille","lat":43.29308,"lon":5.37187,"is_reserved":false,"is_disabled":false,"rental_uris":{"android":"levelo://app?vid=e4599d0c-5641-4bde-92e4-28a45222171d","ios":"levelo://app?vid=e4599d0c-5641-4bde-92e4-28a45222171d"},"vehicle_type_id":"4","last_reported":1692525950,"current_range_meters":0,"station_id":"ce4bgh92rcd13ifvqb40","pricing_plan_id":"free"},{"bike_id":"ed0f3760-4cec-492b-a8b9-8700aa9f3edf","system_id":"levelo_inurba_marseille","lat":43.29306,"lon":5.37172,"is_reserved":false,"is_disabled":false,"rental_uris":{"android":"levelo://app?vid=ed0f3760-4cec-492b-a8b9-8700aa9f3edf","ios":"levelo://app?vid=ed0f3760-4cec-492b-a8b9-8700aa9f3edf"},"vehicle_type_id":"4","last_reported":1692525950,"current_range_meters":4000,"station_id":"ce4bgh92rcd13ifvqb40","pricing_plan_id":"free"},{"bike_id":"2a5df1bc-68e3-4699-82df-0cfd51539a6c","system_id":"levelo_inurba_marseille","lat":43.292749,"lon":5.368402,"is_reserved":false,"is_disabled":false,"rental_uris":{"android":"levelo://app?vid=2a5df1bc-68e3-4699-82df-0cfd51539a6c","ios":"levelo://app?vid=2a5df1bc-68e3-4699-82df-0cfd51539a6c"},"vehicle_type_id":"4","last_reported":1692525950,"current_range_meters":28400,"station_id":"ce4bhbp2rcd13ifvqesg","pricing_plan_id":"free"},{"bike_id":"9b11450f-32d3-46fa-9af0-ebc7e86d3f21","system_id":"levelo_inurba_marseille","lat":43.29305,"lon":5.37183,"is_reserved":false,"is_disabled":false,"rental_uris":{"android":"levelo://app?vid=9b11450f-32d3-46fa-9af0-ebc7e86d3f21","ios":"levelo://app?vid=9b11450f-32d3-46fa-9af0-ebc7e86d3f21"},"vehicle_type_id":"4","last_reported":1692525950,"current_range_meters":4800,"station_id":"ce4bgh92rcd13ifvqb40","pricing_plan_id":"free"},{"bike_id":"a3cdddad-0160-4685-8264-939bc7fcad5c","system_id":"levelo_inurba_marseille","lat":43.292749,"lon":5.368402,"is_reserved":false,"is_disabled":false,"rental_uris":{"android":"levelo://app?vid=a3cdddad-0160-4685-8264-939bc7fcad5c","ios":"levelo://app?vid=a3cdddad-0160-4685-8264-939bc7fcad5c"},"vehicle_type_id":"4","last_reported":1692525950,"current_range_meters":28400,"station_id":"ce4bhbp2rcd13ifvqesg","pricing_plan_id":"free"},{"bike_id":"38fef587-7cc5-4800-b069-87b8f296a10a","system_id":"levelo_inurba_marseille","lat":43.293009,"lon":5.374584,"is_reserved":false,"is_disabled":false,"rental_uris":{"android":"levelo://app?vid=38fef587-7cc5-4800-b069-87b8f296a10a","ios":"levelo://app?vid=38fef587-7cc5-4800-b069-87b8f296a10a"},"vehicle_type_id":"4","last_reported":1692525950,"current_range_meters":30800,"station_id":"ce4bgi12rcd13ifvqb70","pricing_plan_id":"free"},{"bike_id":"d3a7b2f8-05be-4b72-9d33-3f88b8bf44e8","system_id":"levelo_inurba_marseille","lat":43.305994,"lon":5.393687,"is_reserved":false,"is_disabled":false,"rental_uris":{"android":"levelo://app?vid=d3a7b2f8-05be-4b72-9d33-3f88b8bf44e8","ios":"levelo://app?vid=d3a7b2f8-05be-4b72-9d33-3f88b8bf44e8"},"vehicle_type_id":"4","last_reported":1692525950,"current_range_meters":28800,"station_id":"ce4bh0p2rcd13ifvqd80","pricing_plan_id":"free"},{"bike_id":"0724f352-a262-45b7-9b71-9a09ff17d945","system_id":"levelo_inurba_marseille","lat":43.30301,"lon":5.39192,"is_reserved":false,"is_disabled":false,"rental_uris":{"android":"levelo://app?vid=0724f352-a262-45b7-9b71-9a09ff17d945","ios":"levelo://app?vid=0724f352-a262-45b7-9b71-9a09ff17d945"},"vehicle_type_id":"4","last_reported":1692525950,"current_range_meters":20800,"station_id":"ce4bgkh2rcd13ifvqbk0","pricing_plan_id":"free"},{"bike_id":"dfcdbf0e-43f5-4bc1-b6cf-a61d8e5bc8bb","system_id":"levelo_inurba_marseille","lat":43.2936,"lon":5.37835,"is_reserved":false,"is_disabled":false,"rental_uris":{"android":"levelo://app?vid=dfcdbf0e-43f5-4bc1-b6cf-a61d8e5bc8bb","ios":"levelo://app?vid=dfcdbf0e-43f5-4bc1-b6cf-a61d8e5bc8bb"},"vehicle_type_id":"4","last_reported":1692525950,"current_range_meters":22000,"station_id":"ce4bgjh2rcd13ifvqbf0","pricing_plan_id":"free"},{"bike_id":"eb4cc9fa-8402-47ac-8c3b-253ec647aa42","system_id":"levelo_inurba_marseille","lat":43.292311,"lon":5.360731,"is_reserved":false,"is_disabled":false,"rental_uris":{"android":"levelo://app?vid=eb4cc9fa-8402-47ac-8c3b-253ec647aa42","ios":"levelo://app?vid=eb4cc9fa-8402-47ac-8c3b-253ec647aa42"},"vehicle_type_id":"4","last_reported":1692525950,"current_range_meters":26000,"station_id":"ce4bhbh2rcd13ifvqeqg","pricing_plan_id":"free"},{"bike_id":"59cfaeeb-3033-4799-951c-e095929793ba","system_id":"levelo_inurba_marseille","lat":43.292311,"lon":5.360731,"is_reserved":false,"is_disabled":false,"rental_uris":{"android":"levelo://app?vid=59cfaeeb-3033-4799-951c-e095929793ba","ios":"levelo://app?vid=59cfaeeb-3033-4799-951c-e095929793ba"},"vehicle_type_id":"4","last_reported":1692525950,"current_range_meters":30000,"station_id":"ce4bhbh2rcd13ifvqeqg","pricing_plan_id":"free"},{"bike_id":"580f7ace-680c-4e93-a8a1-a2df793bbefa","system_id":"levelo_inurba_marseille","lat":43.29225,"lon":5.36064,"is_reserved":false,"is_disabled":false,"rental_uris":{"android":"levelo://app?vid=580f7ace-680c-4e93-a8a1-a2df793bbefa","ios":"levelo://app?vid=580f7ace-680c-4e93-a8a1-a2df793bbefa"},"vehicle_type_id":"4","last_reported":1692525950,"current_range_meters":23600,"station_id":"ce4bhbh2rcd13ifvqeqg","pricing_plan_id":"free"},{"bike_id":"443913ce-27ca-4f4d-81fd-0606640137a5","system_id":"levelo_inurba_marseille","lat":43.292311,"lon":5.360731,"is_reserved":false,"is_disabled":false,"rental_uris":{"android":"levelo://app?vid=443913ce-27ca-4f4d-81fd-0606640137a5","ios":"levelo://app?vid=443913ce-27ca-4f4d-81fd-0606640137a5"},"vehicle_type_id":"4","last_reported":1692525950,"current_range_meters":31200,"station_id":"ce4bhbh2rcd13ifvqeqg","pricing_plan_id":"free"},{"bike_id":"9af2d3cc-e99b-4420-a9d5-58e3fccde9f0","system_id":"levelo_inurba_marseille","lat":43.30085,"lon":5.390856,"is_reserved":false,"is_disabled":false,"rental_uris":{"android":"levelo://app?vid=9af2d3cc-e99b-4420-a9d5-58e3fccde9f0","ios":"levelo://app?vid=9af2d3cc-e99b-4420-a9d5-58e3fccde9f0"},"vehicle_type_id":"4","last_reported":1692525950,"current_range_meters":6800,"station_id":"ce4bh192rcd13ifvqdb0","pricing_plan_id":"free"},{"bike_id":"413b1772-b604-47da-bab2-02cc619e8edf","system_id":"levelo_inurba_marseille","lat":43.29194,"lon":5.35796,"is_reserved":false,"is_disabled":false,"rental_uris":{"android":"levelo://app?vid=413b1772-b604-47da-bab2-02cc619e8edf","ios":"levelo://app?vid=413b1772-b604-47da-bab2-02cc619e8edf"},"vehicle_type_id":"4","last_reported":1692525950,"current_range_meters":13200,"station_id":"ce4bhb12rcd13ifvqel0","pricing_plan_id":"free"},{"bike_id":"bbb707ae-cb54-4645-bafb-fe4a1b86da86","system_id":"levelo_inurba_marseille","lat":43.2919,"lon":5.35798,"is_reserved":false,"is_disabled":false,"rental_uris":{"android":"levelo://app?vid=bbb707ae-cb54-4645-bafb-fe4a1b86da86","ios":"levelo://app?vid=bbb707ae-cb54-4645-bafb-fe4a1b86da86"},"vehicle_type_id":"4","last_reported":1692525950,"current_range_meters":20800,"station_id":"ce4bhb12rcd13ifvqel0","pricing_plan_id":"free"},{"bike_id":"d47a48cb-076d-4c41-ad94-a02ea1c5dcc4","system_id":"levelo_inurba_marseille","lat":43.29189,"lon":5.35792,"is_reserved":false,"is_disabled":false,"rental_uris":{"android":"levelo://app?vid=d47a48cb-076d-4c41-ad94-a02ea1c5dcc4","ios":"levelo://app?vid=d47a48cb-076d-4c41-ad94-a02ea1c5dcc4"},"vehicle_type_id":"4","last_reported":1692525950,"current_range_meters":31200,"station_id":"ce4bhb12rcd13ifvqel0","pricing_plan_id":"free"},{"bike_id":"553f2c0b-014d-4fea-adc9-66f0b276080c","system_id":"levelo_inurba_marseille","lat":43.29188,"lon":5.35796,"is_reserved":false,"is_disabled":false,"rental_uris":{"android":"levelo://app?vid=553f2c0b-014d-4fea-adc9-66f0b276080c","ios":"levelo://app?vid=553f2c0b-014d-4fea-adc9-66f0b276080c"},"vehicle_type_id":"4","last_reported":1692525950,"current_range_meters":18000,"station_id":"ce4bhb12rcd13ifvqel0","pricing_plan_id":"free"},{"bike_id":"c86d2f12-6e21-4a19-91c3-d9481e2ed864","system_id":"levelo_inurba_marseille","lat":43.3133,"lon":5.39699,"is_reserved":false,"is_disabled":false,"rental_uris":{"android":"levelo://app?vid=c86d2f12-6e21-4a19-91c3-d9481e2ed864","ios":"levelo://app?vid=c86d2f12-6e21-4a19-91c3-d9481e2ed864"},"vehicle_type_id":"4","last_reported":1692525950,"current_range_meters":29600,"station_id":"ce4bgvp2rcd13ifvqcu0","pricing_plan_id":"free"},{"bike_id":"d9105e68-1b0e-4774-8591-99fceb59d134","system_id":"levelo_inurba_marseille","lat":43.302008,"lon":5.394694,"is_reserved":false,"is_disabled":false,"rental_uris":{"android":"levelo://app?vid=d9105e68-1b0e-4774-8591-99fceb59d134","ios":"levelo://app?vid=d9105e68-1b0e-4774-8591-99fceb59d134"},"vehicle_type_id":"4","last_reported":1692525950,"current_range_meters":12000,"station_id":"ce4bh0p2rcd13ifvqd70","pricing_plan_id":"free"},{"bike_id":"17068452-3ab2-4ec0-9924-9f4131360cc4","system_id":"levelo_inurba_marseille","lat":43.29036,"lon":5.37557,"is_reserved":false,"is_disabled":false,"rental_uris":{"android":"levelo://app?vid=17068452-3ab2-4ec0-9924-9f4131360cc4","ios":"levelo://app?vid=17068452-3ab2-4ec0-9924-9f4131360cc4"},"vehicle_type_id":"4","last_reported":1692525950,"current_range_meters":28000,"station_id":"ce4bh692rcd13ifvqe90","pricing_plan_id":"free"},{"bike_id":"2656883f-f2bf-4f31-bfe2-a9831d86eec2","system_id":"levelo_inurba_marseille","lat":43.294153,"lon":5.386305,"is_reserved":false,"is_disabled":false,"rental_uris":{"android":"levelo://app?vid=2656883f-f2bf-4f31-bfe2-a9831d86eec2","ios":"levelo://app?vid=2656883f-f2bf-4f31-bfe2-a9831d86eec2"},"vehicle_type_id":"4","last_reported":1692525950,"current_range_meters":28000,"station_id":"ce4bh2h2rcd13ifvqdh0","pricing_plan_id":"free"},{"bike_id":"c6d5df4a-9bbc-4945-9474-e3ed2b76f6d6","system_id":"levelo_inurba_marseille","lat":43.29418,"lon":5.38628,"is_reserved":false,"is_disabled":false,"rental_uris":{"android":"levelo://app?vid=c6d5df4a-9bbc-4945-9474-e3ed2b76f6d6","ios":"levelo://app?vid=c6d5df4a-9bbc-4945-9474-e3ed2b76f6d6"},"vehicle_type_id":"4","last_reported":1692525950,"current_range_meters":26400,"station_id":"ce4bh2h2rcd13ifvqdh0","pricing_plan_id":"free"},{"bike_id":"4b213721-9b00-4538-9295-eeb4fa211d94","system_id":"levelo_inurba_marseille","lat":43.289468,"lon":5.363719,"is_reserved":false,"is_disabled":false,"rental_uris":{"android":"levelo://app?vid=4b213721-9b00-4538-9295-eeb4fa211d94","ios":"levelo://app?vid=4b213721-9b00-4538-9295-eeb4fa211d94"},"vehicle_type_id":"4","last_reported":1692525950,"current_range_meters":1200,"station_id":"ce4bhc92rcd13ifvqetg","pricing_plan_id":"free"},{"bike_id":"984c8f9f-0b97-4a6d-a609-bc580df7e954","system_id":"levelo_inurba_marseille","lat":43.304274,"lon":5.397513,"is_reserved":false,"is_disabled":false,"rental_uris":{"android":"levelo://app?vid=984c8f9f-0b97-4a6d-a609-bc580df7e954","ios":"levelo://app?vid=984c8f9f-0b97-4a6d-a609-bc580df7e954"},"vehicle_type_id":"4","last_reported":1692525950,"current_range_meters":28000,"station_id":"ce4bh092rcd13ifvqd20","pricing_plan_id":"free"},{"bike_id":"eb7688a3-c375-460d-a020-76afce3c60f3","system_id":"levelo_inurba_marseille","lat":43.292644,"lon":5.384257,"is_reserved":false,"is_disabled":false,"rental_uris":{"android":"levelo://app?vid=eb7688a3-c375-460d-a020-76afce3c60f3","ios":"levelo://app?vid=eb7688a3-c375-460d-a020-76afce3c60f3"},"vehicle_type_id":"4","last_reported":1692525950,"current_range_meters":24000,"station_id":"ce4bh692rcd13ifvqea0","pricing_plan_id":"free"},{"bike_id":"5036c72a-6252-47f4-a9fb-50fd514d506a","system_id":"levelo_inurba_marseille","lat":43.33039,"lon":5.38918,"is_reserved":false,"is_disabled":false,"rental_uris":{"android":"levelo://app?vid=5036c72a-6252-47f4-a9fb-50fd514d506a","ios":"levelo://app?vid=5036c72a-6252-47f4-a9fb-50fd514d506a"},"vehicle_type_id":"4","last_reported":1692525950,"current_range_meters":20400,"station_id":"ce4bhr92rcd13ifvqhrg","pricing_plan_id":"free"},{"bike_id":"16105e4d-cb4a-4aae-91bb-2ecd41a7406b","system_id":"levelo_inurba_marseille","lat":43.33042,"lon":5.38916,"is_reserved":false,"is_disabled":false,"rental_uris":{"android":"levelo://app?vid=16105e4d-cb4a-4aae-91bb-2ecd41a7406b","ios":"levelo://app?vid=16105e4d-cb4a-4aae-91bb-2ecd41a7406b"},"vehicle_type_id":"4","last_reported":1692525950,"current_range_meters":20400,"station_id":"ce4bhr92rcd13ifvqhrg","pricing_plan_id":"free"},{"bike_id":"331b6e0a-8cfc-4305-9eef-0266cde03da7","system_id":"levelo_inurba_marseille","lat":43.3304,"lon":5.38921,"is_reserved":false,"is_disabled":false,"rental_uris":{"android":"levelo://app?vid=331b6e0a-8cfc-4305-9eef-0266cde03da7","ios":"levelo://app?vid=331b6e0a-8cfc-4305-9eef-0266cde03da7"},"vehicle_type_id":"4","last_reported":1692525950,"current_range_meters":13600,"station_id":"ce4bhr92rcd13ifvqhrg","pricing_plan_id":"free"},{"bike_id":"de450cac-4370-4660-9455-3e94463307a2","system_id":"levelo_inurba_marseille","lat":43.3304,"lon":5.38922,"is_reserved":false,"is_disabled":false,"rental_uris":{"android":"levelo://app?vid=de450cac-4370-4660-9455-3e94463307a2","ios":"levelo://app?vid=de450cac-4370-4660-9455-3e94463307a2"},"vehicle_type_id":"4","last_reported":1692525950,"current_range_meters":15600,"station_id":"ce4bhr92rcd13ifvqhrg","pricing_plan_id":"free"},{"bike_id":"a5d7998c-4c76-4390-bbcf-8c2a2abd7eba","system_id":"levelo_inurba_marseille","lat":43.3304,"lon":5.38923,"is_reserved":false,"is_disabled":false,"rental_uris":{"android":"levelo://app?vid=a5d7998c-4c76-4390-bbcf-8c2a2abd7eba","ios":"levelo://app?vid=a5d7998c-4c76-4390-bbcf-8c2a2abd7eba"},"vehicle_type_id":"4","last_reported":1692525950,"current_range_meters":29600,"station_id":"ce4bhr92rcd13ifvqhrg","pricing_plan_id":"free"},{"bike_id":"78441d4b-641c-4628-82d7-85f14991d35a","system_id":"levelo_inurba_marseille","lat":43.290103,"lon":5.356114,"is_reserved":false,"is_disabled":false,"rental_uris":{"android":"levelo://app?vid=78441d4b-641c-4628-82d7-85f14991d35a","ios":"levelo://app?vid=78441d4b-641c-4628-82d7-85f14991d35a"},"vehicle_type_id":"4","last_reported":1692525950,"current_range_meters":29600,"station_id":"ce4bhb92rcd13ifvqen0","pricing_plan_id":"free"},{"bike_id":"a64b8170-4f22-42b1-bf04-f0ea7767b287","system_id":"levelo_inurba_marseille","lat":43.33047,"lon":5.38914,"is_reserved":false,"is_disabled":false,"rental_uris":{"android":"levelo://app?vid=a64b8170-4f22-42b1-bf04-f0ea7767b287","ios":"levelo://app?vid=a64b8170-4f22-42b1-bf04-f0ea7767b287"},"vehicle_type_id":"4","last_reported":1692525950,"current_range_meters":26800,"station_id":"ce4bhr92rcd13ifvqhrg","pricing_plan_id":"free"},{"bike_id":"c8619c93-5f6a-45f4-8e07-c81fcc1e21be","system_id":"levelo_inurba_marseille","lat":43.33044,"lon":5.38919,"is_reserved":false,"is_disabled":false,"rental_uris":{"android":"levelo://app?vid=c8619c93-5f6a-45f4-8e07-c81fcc1e21be","ios":"levelo://app?vid=c8619c93-5f6a-45f4-8e07-c81fcc1e21be"},"vehicle_type_id":"4","last_reported":1692525950,"current_range_meters":24800,"station_id":"ce4bhr92rcd13ifvqhrg","pricing_plan_id":"free"},{"bike_id":"86eac789-1e56-496d-abfa-705e29d378c7","system_id":"levelo_inurba_marseille","lat":43.33043,"lon":5.38921,"is_reserved":false,"is_disabled":false,"rental_uris":{"android":"levelo://app?vid=86eac789-1e56-496d-abfa-705e29d378c7","ios":"levelo://app?vid=86eac789-1e56-496d-abfa-705e29d378c7"},"vehicle_type_id":"4","last_reported":1692525950,"current_range_meters":28000,"station_id":"ce4bhr92rcd13ifvqhrg","pricing_plan_id":"free"},{"bike_id":"9e24a65c-fe1e-45dc-88b9-dd0cad85064c","system_id":"levelo_inurba_marseille","lat":43.33046,"lon":5.38917,"is_reserved":false,"is_disabled":false,"rental_uris":{"android":"levelo://app?vid=9e24a65c-fe1e-45dc-88b9-dd0cad85064c","ios":"levelo://app?vid=9e24a65c-fe1e-45dc-88b9-dd0cad85064c"},"vehicle_type_id":"4","last_reported":1692525950,"current_range_meters":27600,"station_id":"ce4bhr92rcd13ifvqhrg","pricing_plan_id":"free"},{"bike_id":"3b3e7c42-cded-4bde-b175-99650afa4f17","system_id":"levelo_inurba_marseille","lat":43.33046,"lon":5.38918,"is_reserved":false,"is_disabled":false,"rental_uris":{"android":"levelo://app?vid=3b3e7c42-cded-4bde-b175-99650afa4f17","ios":"levelo://app?vid=3b3e7c42-cded-4bde-b175-99650afa4f17"},"vehicle_type_id":"4","last_reported":1692525950,"current_range_meters":22400,"station_id":"ce4bhr92rcd13ifvqhrg","pricing_plan_id":"free"},{"bike_id":"708f7f21-b221-4c14-94b6-b5d8e3289350","system_id":"levelo_inurba_marseille","lat":43.33045,"lon":5.3892,"is_reserved":false,"is_disabled":false,"rental_uris":{"android":"levelo://app?vid=708f7f21-b221-4c14-94b6-b5d8e3289350","ios":"levelo://app?vid=708f7f21-b221-4c14-94b6-b5d8e3289350"},"vehicle_type_id":"4","last_reported":1692525950,"current_range_meters":18800,"station_id":"ce4bhr92rcd13ifvqhrg","pricing_plan_id":"free"},{"bike_id":"f7d4d925-7a83-4bc4-9c27-f33fa61e1b50","system_id":"levelo_inurba_marseille","lat":43.290103,"lon":5.356114,"is_reserved":false,"is_disabled":false,"rental_uris":{"android":"levelo://app?vid=f7d4d925-7a83-4bc4-9c27-f33fa61e1b50","ios":"levelo://app?vid=f7d4d925-7a83-4bc4-9c27-f33fa61e1b50"},"vehicle_type_id":"4","last_reported":1692525950,"current_range_meters":22400,"station_id":"ce4bhb92rcd13ifvqen0","pricing_plan_id":"free"},{"bike_id":"15513126-0f64-47df-8aaf-22596db098cd","system_id":"levelo_inurba_marseille","lat":43.29005,"lon":5.35615,"is_reserved":false,"is_disabled":false,"rental_uris":{"android":"levelo://app?vid=15513126-0f64-47df-8aaf-22596db098cd","ios":"levelo://app?vid=15513126-0f64-47df-8aaf-22596db098cd"},"vehicle_type_id":"4","last_reported":1692525950,"current_range_meters":25600,"station_id":"ce4bhb92rcd13ifvqen0","pricing_plan_id":"free"},{"bike_id":"86535332-25ae-4735-984f-2b7a7387a6af","system_id":"levelo_inurba_marseille","lat":43.33044,"lon":5.38922,"is_reserved":false,"is_disabled":false,"rental_uris":{"android":"levelo://app?vid=86535332-25ae-4735-984f-2b7a7387a6af","ios":"levelo://app?vid=86535332-25ae-4735-984f-2b7a7387a6af"},"vehicle_type_id":"4","last_reported":1692525950,"current_range_meters":28000,"station_id":"ce4bhr92rcd13ifvqhrg","pricing_plan_id":"free"},{"bike_id":"e75864d2-1778-41f1-bcda-e55ffbc8cc43","system_id":"levelo_inurba_marseille","lat":43.290104,"lon":5.356111,"is_reserved":false,"is_disabled":false,"rental_uris":{"android":"levelo://app?vid=e75864d2-1778-41f1-bcda-e55ffbc8cc43","ios":"levelo://app?vid=e75864d2-1778-41f1-bcda-e55ffbc8cc43"},"vehicle_type_id":"4","last_reported":1692525950,"current_range_meters":19200,"station_id":"ce4bhb92rcd13ifvqen0","pricing_plan_id":"free"},{"bike_id":"70576a93-fbdb-4696-908e-c08c0f1995f8","system_id":"levelo_inurba_marseille","lat":43.33046,"lon":5.3892,"is_reserved":false,"is_disabled":false,"rental_uris":{"android":"levelo://app?vid=70576a93-fbdb-4696-908e-c08c0f1995f8","ios":"levelo://app?vid=70576a93-fbdb-4696-908e-c08c0f1995f8"},"vehicle_type_id":"4","last_reported":1692525950,"current_range_meters":23600,"station_id":"ce4bhr92rcd13ifvqhrg","pricing_plan_id":"free"},{"bike_id":"d2b15eb2-4474-4e56-aace-fe335ab0092e","system_id":"levelo_inurba_marseille","lat":43.33047,"lon":5.3892,"is_reserved":false,"is_disabled":false,"rental_uris":{"android":"levelo://app?vid=d2b15eb2-4474-4e56-aace-fe335ab0092e","ios":"levelo://app?vid=d2b15eb2-4474-4e56-aace-fe335ab0092e"},"vehicle_type_id":"4","last_reported":1692525950,"current_range_meters":12800,"station_id":"ce4bhr92rcd13ifvqhrg","pricing_plan_id":"free"},{"bike_id":"024f4d94-1555-4991-925c-5e7448051bbb","system_id":"levelo_inurba_marseille","lat":43.33046,"lon":5.38922,"is_reserved":false,"is_disabled":false,"rental_uris":{"android":"levelo://app?vid=024f4d94-1555-4991-925c-5e7448051bbb","ios":"levelo://app?vid=024f4d94-1555-4991-925c-5e7448051bbb"},"vehicle_type_id":"4","last_reported":1692525950,"current_range_meters":26800,"station_id":"ce4bhr92rcd13ifvqhrg","pricing_plan_id":"free"},{"bike_id":"5c8c244a-8618-42d9-abf2-521b07f6577d","system_id":"levelo_inurba_marseille","lat":43.33044,"lon":5.38925,"is_reserved":false,"is_disabled":false,"rental_uris":{"android":"levelo://app?vid=5c8c244a-8618-42d9-abf2-521b07f6577d","ios":"levelo://app?vid=5c8c244a-8618-42d9-abf2-521b07f6577d"},"vehicle_type_id":"4","last_reported":1692525950,"current_range_meters":25600,"station_id":"ce4bhr92rcd13ifvqhrg","pricing_plan_id":"free"},{"bike_id":"eb950724-6c95-4fb2-915f-35b08a8cfd23","system_id":"levelo_inurba_marseille","lat":43.33048,"lon":5.38919,"is_reserved":false,"is_disabled":false,"rental_uris":{"android":"levelo://app?vid=eb950724-6c95-4fb2-915f-35b08a8cfd23","ios":"levelo://app?vid=eb950724-6c95-4fb2-915f-35b08a8cfd23"},"vehicle_type_id":"4","last_reported":1692525950,"current_range_meters":17600,"station_id":"ce4bhr92rcd13ifvqhrg","pricing_plan_id":"free"},{"bike_id":"52662068-d06a-40c1-bfee-ce6664dc3a83","system_id":"levelo_inurba_marseille","lat":43.33048,"lon":5.3892,"is_reserved":false,"is_disabled":false,"rental_uris":{"android":"levelo://app?vid=52662068-d06a-40c1-bfee-ce6664dc3a83","ios":"levelo://app?vid=52662068-d06a-40c1-bfee-ce6664dc3a83"},"vehicle_type_id":"4","last_reported":1692525950,"current_range_meters":1200,"station_id":"ce4bhr92rcd13ifvqhrg","pricing_plan_id":"free"},{"bike_id":"a949fd01-3483-42f9-9716-f3bdd91d7978","system_id":"levelo_inurba_marseille","lat":43.290104,"lon":5.356111,"is_reserved":false,"is_disabled":false,"rental_uris":{"android":"levelo://app?vid=a949fd01-3483-42f9-9716-f3bdd91d7978","ios":"levelo://app?vid=a949fd01-3483-42f9-9716-f3bdd91d7978"},"vehicle_type_id":"4","last_reported":1692525950,"current_range_meters":18400,"station_id":"ce4bhb92rcd13ifvqen0","pricing_plan_id":"free"},{"bike_id":"a3c1b0d6-f869-47ff-a49f-88656b63506a","system_id":"levelo_inurba_marseille","lat":43.29004,"lon":5.35606,"is_reserved":false,"is_disabled":false,"rental_uris":{"android":"levelo://app?vid=a3c1b0d6-f869-47ff-a49f-88656b63506a","ios":"levelo://app?vid=a3c1b0d6-f869-47ff-a49f-88656b63506a"},"vehicle_type_id":"4","last_reported":1692525950,"current_range_meters":30800,"station_id":"ce4bhb92rcd13ifvqen0","pricing_plan_id":"free"},{"bike_id":"7d19a255-9f7a-4d0e-beba-2bfebb3c7b5e","system_id":"levelo_inurba_marseille","lat":43.3305,"lon":5.3892,"is_reserved":false,"is_disabled":false,"rental_uris":{"android":"levelo://app?vid=7d19a255-9f7a-4d0e-beba-2bfebb3c7b5e","ios":"levelo://app?vid=7d19a255-9f7a-4d0e-beba-2bfebb3c7b5e"},"vehicle_type_id":"4","last_reported":1692525950,"current_range_meters":20400,"station_id":"ce4bhr92rcd13ifvqhrg","pricing_plan_id":"free"},{"bike_id":"ac4d5439-e326-499c-a8a2-58d7b01dbaff","system_id":"levelo_inurba_marseille","lat":43.29001,"lon":5.35608,"is_reserved":false,"is_disabled":false,"rental_uris":{"android":"levelo://app?vid=ac4d5439-e326-499c-a8a2-58d7b01dbaff","ios":"levelo://app?vid=ac4d5439-e326-499c-a8a2-58d7b01dbaff"},"vehicle_type_id":"4","last_reported":1692525950,"current_range_meters":28400,"station_id":"ce4bhb92rcd13ifvqen0","pricing_plan_id":"free"},{"bike_id":"d96d2b3d-d439-4e23-854a-622f0eaef8d7","system_id":"levelo_inurba_marseille","lat":43.29023,"lon":5.38122,"is_reserved":false,"is_disabled":false,"rental_uris":{"android":"levelo://app?vid=d96d2b3d-d439-4e23-854a-622f0eaef8d7","ios":"levelo://app?vid=d96d2b3d-d439-4e23-854a-622f0eaef8d7"},"vehicle_type_id":"4","last_reported":1692525950,"current_range_meters":27600,"station_id":"ce4bh4p2rcd13ifvqe1g","pricing_plan_id":"free"},{"bike_id":"a71d2afb-8f25-4d34-a588-181b68754fe8","system_id":"levelo_inurba_marseille","lat":43.28856,"lon":5.358371,"is_reserved":false,"is_disabled":false,"rental_uris":{"android":"levelo://app?vid=a71d2afb-8f25-4d34-a588-181b68754fe8","ios":"levelo://app?vid=a71d2afb-8f25-4d34-a588-181b68754fe8"},"vehicle_type_id":"4","last_reported":1692525950,"current_range_meters":28400,"station_id":"ce4bhb12rcd13ifvqem0","pricing_plan_id":"free"},{"bike_id":"0062651c-91b9-4dcd-90af-d6c2d6ddaf84","system_id":"levelo_inurba_marseille","lat":43.312609,"lon":5.401662,"is_reserved":false,"is_disabled":false,"rental_uris":{"android":"levelo://app?vid=0062651c-91b9-4dcd-90af-d6c2d6ddaf84","ios":"levelo://app?vid=0062651c-91b9-4dcd-90af-d6c2d6ddaf84"},"vehicle_type_id":"4","last_reported":1692525950,"current_range_meters":29600,"station_id":"ce4bh092rcd13ifvqd30","pricing_plan_id":"free"},{"bike_id":"ada0bbb2-d597-4982-8000-24d17e4bbc2e","system_id":"levelo_inurba_marseille","lat":43.31273,"lon":5.40175,"is_reserved":false,"is_disabled":false,"rental_uris":{"android":"levelo://app?vid=ada0bbb2-d597-4982-8000-24d17e4bbc2e","ios":"levelo://app?vid=ada0bbb2-d597-4982-8000-24d17e4bbc2e"},"vehicle_type_id":"4","last_reported":1692525950,"current_range_meters":29200,"station_id":"ce4bh092rcd13ifvqd30","pricing_plan_id":"free"},{"bike_id":"87a887d0-c650-447b-89ea-af13ab0c6a81","system_id":"levelo_inurba_marseille","lat":43.3066,"lon":5.40087,"is_reserved":false,"is_disabled":false,"rental_uris":{"android":"levelo://app?vid=87a887d0-c650-447b-89ea-af13ab0c6a81","ios":"levelo://app?vid=87a887d0-c650-447b-89ea-af13ab0c6a81"},"vehicle_type_id":"4","last_reported":1692525950,"current_range_meters":0,"station_id":"ce4bh112rcd13ifvqda0","pricing_plan_id":"free"},{"bike_id":"f965c954-9206-4a97-b035-75895b629336","system_id":"levelo_inurba_marseille","lat":43.304188,"lon":5.412904,"is_reserved":false,"is_disabled":false,"rental_uris":{"android":"levelo://app?vid=f965c954-9206-4a97-b035-75895b629336","ios":"levelo://app?vid=f965c954-9206-4a97-b035-75895b629336"},"vehicle_type_id":"4","last_reported":1692525950,"current_range_meters":26400,"station_id":"ce4bhop2rcd13ifvqh8g","pricing_plan_id":"free"},{"bike_id":"75199276-b705-4ad7-b6a9-49aeaa84628a","system_id":"levelo_inurba_marseille","lat":43.286591,"lon":5.363346,"is_reserved":false,"is_disabled":false,"rental_uris":{"android":"levelo://app?vid=75199276-b705-4ad7-b6a9-49aeaa84628a","ios":"levelo://app?vid=75199276-b705-4ad7-b6a9-49aeaa84628a"},"vehicle_type_id":"4","last_reported":1692525950,"current_range_meters":30400,"station_id":"ce4bhah2rcd13ifvqej0","pricing_plan_id":"free"},{"bike_id":"d7129b0b-7bf0-4034-bf31-8909029bad46","system_id":"levelo_inurba_marseille","lat":43.286961,"lon":5.373785,"is_reserved":false,"is_disabled":false,"rental_uris":{"android":"levelo://app?vid=d7129b0b-7bf0-4034-bf31-8909029bad46","ios":"levelo://app?vid=d7129b0b-7bf0-4034-bf31-8909029bad46"},"vehicle_type_id":"4","last_reported":1692525950,"current_range_meters":23600,"station_id":"ce4bh3p2rcd13ifvqdq0","pricing_plan_id":"free"},{"bike_id":"bdbea0fd-4a6f-4866-affc-9cd05a0acebb","system_id":"levelo_inurba_marseille","lat":43.286961,"lon":5.373785,"is_reserved":false,"is_disabled":false,"rental_uris":{"android":"levelo://app?vid=bdbea0fd-4a6f-4866-affc-9cd05a0acebb","ios":"levelo://app?vid=bdbea0fd-4a6f-4866-affc-9cd05a0acebb"},"vehicle_type_id":"4","last_reported":1692525950,"current_range_meters":4000,"station_id":"ce4bh3p2rcd13ifvqdq0","pricing_plan_id":"free"},{"bike_id":"360d3687-9849-4b0f-b333-06a1487b6b1c","system_id":"levelo_inurba_marseille","lat":43.286961,"lon":5.373785,"is_reserved":false,"is_disabled":false,"rental_uris":{"android":"levelo://app?vid=360d3687-9849-4b0f-b333-06a1487b6b1c","ios":"levelo://app?vid=360d3687-9849-4b0f-b333-06a1487b6b1c"},"vehicle_type_id":"4","last_reported":1692525950,"current_range_meters":21200,"station_id":"ce4bh3p2rcd13ifvqdq0","pricing_plan_id":"free"},{"bike_id":"5a07e341-8536-4762-99f5-1408e4ed3e31","system_id":"levelo_inurba_marseille","lat":43.316517,"lon":5.404375,"is_reserved":false,"is_disabled":false,"rental_uris":{"android":"levelo://app?vid=5a07e341-8536-4762-99f5-1408e4ed3e31","ios":"levelo://app?vid=5a07e341-8536-4762-99f5-1408e4ed3e31"},"vehicle_type_id":"4","last_reported":1692525950,"current_range_meters":10000,"station_id":"ce4bh012rcd13ifvqd00","pricing_plan_id":"free"},{"bike_id":"7da9e437-1e79-4b5f-9ab0-65254ac17dd7","system_id":"levelo_inurba_marseille","lat":43.31645,"lon":5.40433,"is_reserved":false,"is_disabled":false,"rental_uris":{"android":"levelo://app?vid=7da9e437-1e79-4b5f-9ab0-65254ac17dd7","ios":"levelo://app?vid=7da9e437-1e79-4b5f-9ab0-65254ac17dd7"},"vehicle_type_id":"4","last_reported":1692525950,"current_range_meters":22000,"station_id":"ce4bh012rcd13ifvqd00","pricing_plan_id":"free"},{"bike_id":"13d056e7-e3cb-4fd3-a5bc-f0b619506c44","system_id":"levelo_inurba_marseille","lat":43.28615,"lon":5.35101,"is_reserved":false,"is_disabled":false,"rental_uris":{"android":"levelo://app?vid=13d056e7-e3cb-4fd3-a5bc-f0b619506c44","ios":"levelo://app?vid=13d056e7-e3cb-4fd3-a5bc-f0b619506c44"},"vehicle_type_id":"4","last_reported":1692525950,"current_range_meters":22000,"station_id":"ce4bhch2rcd13ifvqeug","pricing_plan_id":"free"},{"bike_id":"35eec3a1-aa54-4990-8eb4-78e6c0dd24d0","system_id":"levelo_inurba_marseille","lat":43.28615,"lon":5.351,"is_reserved":false,"is_disabled":false,"rental_uris":{"android":"levelo://app?vid=35eec3a1-aa54-4990-8eb4-78e6c0dd24d0","ios":"levelo://app?vid=35eec3a1-aa54-4990-8eb4-78e6c0dd24d0"},"vehicle_type_id":"4","last_reported":1692525950,"current_range_meters":30000,"station_id":"ce4bhch2rcd13ifvqeug","pricing_plan_id":"free"},{"bike_id":"22497636-ded1-4c41-983c-add53b50cd94","system_id":"levelo_inurba_marseille","lat":43.28613,"lon":5.35101,"is_reserved":false,"is_disabled":false,"rental_uris":{"android":"levelo://app?vid=22497636-ded1-4c41-983c-add53b50cd94","ios":"levelo://app?vid=22497636-ded1-4c41-983c-add53b50cd94"},"vehicle_type_id":"4","last_reported":1692525950,"current_range_meters":16800,"station_id":"ce4bhch2rcd13ifvqeug","pricing_plan_id":"free"},{"bike_id":"f1536ed0-8d90-4d9a-9372-3c087e5e7ef4","system_id":"levelo_inurba_marseille","lat":43.28609,"lon":5.35101,"is_reserved":false,"is_disabled":false,"rental_uris":{"android":"levelo://app?vid=f1536ed0-8d90-4d9a-9372-3c087e5e7ef4","ios":"levelo://app?vid=f1536ed0-8d90-4d9a-9372-3c087e5e7ef4"},"vehicle_type_id":"4","last_reported":1692525950,"current_range_meters":20400,"station_id":"ce4bhch2rcd13ifvqeug","pricing_plan_id":"free"},{"bike_id":"2363d3b5-6c15-401a-a59c-ee80bd4af927","system_id":"levelo_inurba_marseille","lat":43.28415,"lon":5.37522,"is_reserved":false,"is_disabled":false,"rental_uris":{"android":"levelo://app?vid=2363d3b5-6c15-401a-a59c-ee80bd4af927","ios":"levelo://app?vid=2363d3b5-6c15-401a-a59c-ee80bd4af927"},"vehicle_type_id":"4","last_reported":1692525950,"current_range_meters":17600,"station_id":"ce4bh412rcd13ifvqds0","pricing_plan_id":"free"},{"bike_id":"4a332bd4-bfa3-4f05-8eec-eb8e5df932bb","system_id":"levelo_inurba_marseille","lat":43.28406,"lon":5.37519,"is_reserved":false,"is_disabled":false,"rental_uris":{"android":"levelo://app?vid=4a332bd4-bfa3-4f05-8eec-eb8e5df932bb","ios":"levelo://app?vid=4a332bd4-bfa3-4f05-8eec-eb8e5df932bb"},"vehicle_type_id":"4","last_reported":1692525950,"current_range_meters":6400,"station_id":"ce4bh412rcd13ifvqds0","pricing_plan_id":"free"},{"bike_id":"de9d766e-9ae0-4d4b-9220-a36756860a18","system_id":"levelo_inurba_marseille","lat":43.295713,"lon":5.399639,"is_reserved":false,"is_disabled":false,"rental_uris":{"android":"levelo://app?vid=de9d766e-9ae0-4d4b-9220-a36756860a18","ios":"levelo://app?vid=de9d766e-9ae0-4d4b-9220-a36756860a18"},"vehicle_type_id":"4","last_reported":1692525950,"current_range_meters":0,"station_id":"ce4bh312rcd13ifvqdj0","pricing_plan_id":"free"},{"bike_id":"4c7cc4ea-9541-4d68-bc62-8cd8487d1504","system_id":"levelo_inurba_marseille","lat":43.284,"lon":5.37518,"is_reserved":false,"is_disabled":false,"rental_uris":{"android":"levelo://app?vid=4c7cc4ea-9541-4d68-bc62-8cd8487d1504","ios":"levelo://app?vid=4c7cc4ea-9541-4d68-bc62-8cd8487d1504"},"vehicle_type_id":"4","last_reported":1692525950,"current_range_meters":22000,"station_id":"ce4bh412rcd13ifvqds0","pricing_plan_id":"free"},{"bike_id":"e19b3b1b-5895-4008-a806-868838f3dbbe","system_id":"levelo_inurba_marseille","lat":43.295713,"lon":5.399639,"is_reserved":false,"is_disabled":false,"rental_uris":{"android":"levelo://app?vid=e19b3b1b-5895-4008-a806-868838f3dbbe","ios":"levelo://app?vid=e19b3b1b-5895-4008-a806-868838f3dbbe"},"vehicle_type_id":"4","last_reported":1692525950,"current_range_meters":29600,"station_id":"ce4bh312rcd13ifvqdj0","pricing_plan_id":"free"},{"bike_id":"7c0b0263-408f-4c88-a436-7459fd1c5339","system_id":"levelo_inurba_marseille","lat":43.286595,"lon":5.386795,"is_reserved":false,"is_disabled":false,"rental_uris":{"android":"levelo://app?vid=7c0b0263-408f-4c88-a436-7459fd1c5339","ios":"levelo://app?vid=7c0b0263-408f-4c88-a436-7459fd1c5339"},"vehicle_type_id":"4","last_reported":1692525950,"current_range_meters":19200,"station_id":"ce4bh492rcd13ifvqdug","pricing_plan_id":"free"},{"bike_id":"bdc3f47b-e1d1-4a3a-b0c1-e8a91d4b0833","system_id":"levelo_inurba_marseille","lat":43.319179,"lon":5.407725,"is_reserved":false,"is_disabled":false,"rental_uris":{"android":"levelo://app?vid=bdc3f47b-e1d1-4a3a-b0c1-e8a91d4b0833","ios":"levelo://app?vid=bdc3f47b-e1d1-4a3a-b0c1-e8a91d4b0833"},"vehicle_type_id":"4","last_reported":1692525950,"current_range_meters":17200,"station_id":"ce4bhq12rcd13ifvqhig","pricing_plan_id":"free"},{"bike_id":"1b87b56f-4215-463a-b1c5-b340fcd8ac67","system_id":"levelo_inurba_marseille","lat":43.31892,"lon":5.40724,"is_reserved":false,"is_disabled":false,"rental_uris":{"android":"levelo://app?vid=1b87b56f-4215-463a-b1c5-b340fcd8ac67","ios":"levelo://app?vid=1b87b56f-4215-463a-b1c5-b340fcd8ac67"},"vehicle_type_id":"4","last_reported":1692525950,"current_range_meters":1600,"station_id":"","pricing_plan_id":"free"},{"bike_id":"e63a24e9-4d9d-4b90-829e-bb9789271d21","system_id":"levelo_inurba_marseille","lat":43.319179,"lon":5.407725,"is_reserved":false,"is_disabled":false,"rental_uris":{"android":"levelo://app?vid=e63a24e9-4d9d-4b90-829e-bb9789271d21","ios":"levelo://app?vid=e63a24e9-4d9d-4b90-829e-bb9789271d21"},"vehicle_type_id":"4","last_reported":1692525950,"current_range_meters":23200,"station_id":"ce4bhq12rcd13ifvqhig","pricing_plan_id":"free"},{"bike_id":"f13d5e3e-fdf4-4bdd-8a95-6e8a1ceb27f9","system_id":"levelo_inurba_marseille","lat":43.319179,"lon":5.407725,"is_reserved":false,"is_disabled":false,"rental_uris":{"android":"levelo://app?vid=f13d5e3e-fdf4-4bdd-8a95-6e8a1ceb27f9","ios":"levelo://app?vid=f13d5e3e-fdf4-4bdd-8a95-6e8a1ceb27f9"},"vehicle_type_id":"4","last_reported":1692525950,"current_range_meters":30400,"station_id":"ce4bhq12rcd13ifvqhig","pricing_plan_id":"free"},{"bike_id":"942613c3-2b7e-447d-9c00-68442e28d06c","system_id":"levelo_inurba_marseille","lat":43.31887,"lon":5.40736,"is_reserved":false,"is_disabled":false,"rental_uris":{"android":"levelo://app?vid=942613c3-2b7e-447d-9c00-68442e28d06c","ios":"levelo://app?vid=942613c3-2b7e-447d-9c00-68442e28d06c"},"vehicle_type_id":"4","last_reported":1692525950,"current_range_meters":18800,"station_id":"ce4bhq12rcd13ifvqhig","pricing_plan_id":"free"},{"bike_id":"877a0b6d-e768-4923-8ce1-6527d0d0cdf6","system_id":"levelo_inurba_marseille","lat":43.319179,"lon":5.407725,"is_reserved":false,"is_disabled":false,"rental_uris":{"android":"levelo://app?vid=877a0b6d-e768-4923-8ce1-6527d0d0cdf6","ios":"levelo://app?vid=877a0b6d-e768-4923-8ce1-6527d0d0cdf6"},"vehicle_type_id":"4","last_reported":1692525950,"current_range_meters":26000,"station_id":"ce4bhq12rcd13ifvqhig","pricing_plan_id":"free"},{"bike_id":"17105054-6fd8-493b-b0be-1ed88688055c","system_id":"levelo_inurba_marseille","lat":43.33719,"lon":5.39175,"is_reserved":false,"is_disabled":false,"rental_uris":{"android":"levelo://app?vid=17105054-6fd8-493b-b0be-1ed88688055c","ios":"levelo://app?vid=17105054-6fd8-493b-b0be-1ed88688055c"},"vehicle_type_id":"4","last_reported":1692525950,"current_range_meters":26800,"station_id":"ce4bhr92rcd13ifvqhsg","pricing_plan_id":"free"},{"bike_id":"12c0f407-4ac2-49d3-b1e8-783bd26a8644","system_id":"levelo_inurba_marseille","lat":43.33715,"lon":5.39184,"is_reserved":false,"is_disabled":false,"rental_uris":{"android":"levelo://app?vid=12c0f407-4ac2-49d3-b1e8-783bd26a8644","ios":"levelo://app?vid=12c0f407-4ac2-49d3-b1e8-783bd26a8644"},"vehicle_type_id":"4","last_reported":1692525950,"current_range_meters":26000,"station_id":"ce4bhr92rcd13ifvqhsg","pricing_plan_id":"free"},{"bike_id":"2b3f06e0-8f2d-4133-9563-f19f57fe46e5","system_id":"levelo_inurba_marseille","lat":43.33717,"lon":5.39181,"is_reserved":false,"is_disabled":false,"rental_uris":{"android":"levelo://app?vid=2b3f06e0-8f2d-4133-9563-f19f57fe46e5","ios":"levelo://app?vid=2b3f06e0-8f2d-4133-9563-f19f57fe46e5"},"vehicle_type_id":"4","last_reported":1692525950,"current_range_meters":7200,"station_id":"ce4bhr92rcd13ifvqhsg","pricing_plan_id":"free"},{"bike_id":"7d2969ab-a065-4a23-b19e-667095d799c9","system_id":"levelo_inurba_marseille","lat":43.33716,"lon":5.39184,"is_reserved":false,"is_disabled":false,"rental_uris":{"android":"levelo://app?vid=7d2969ab-a065-4a23-b19e-667095d799c9","ios":"levelo://app?vid=7d2969ab-a065-4a23-b19e-667095d799c9"},"vehicle_type_id":"4","last_reported":1692525950,"current_range_meters":6800,"station_id":"ce4bhr92rcd13ifvqhsg","pricing_plan_id":"free"},{"bike_id":"186ddf38-a5ca-44a9-9dd3-9bfe2a53544b","system_id":"levelo_inurba_marseille","lat":43.3372,"lon":5.39181,"is_reserved":false,"is_disabled":false,"rental_uris":{"android":"levelo://app?vid=186ddf38-a5ca-44a9-9dd3-9bfe2a53544b","ios":"levelo://app?vid=186ddf38-a5ca-44a9-9dd3-9bfe2a53544b"},"vehicle_type_id":"4","last_reported":1692525950,"current_range_meters":25600,"station_id":"ce4bhr92rcd13ifvqhsg","pricing_plan_id":"free"},{"bike_id":"efe8b264-ad35-4139-b98d-40041f267f16","system_id":"levelo_inurba_marseille","lat":43.33722,"lon":5.39178,"is_reserved":false,"is_disabled":false,"rental_uris":{"android":"levelo://app?vid=efe8b264-ad35-4139-b98d-40041f267f16","ios":"levelo://app?vid=efe8b264-ad35-4139-b98d-40041f267f16"},"vehicle_type_id":"4","last_reported":1692525950,"current_range_meters":24000,"station_id":"ce4bhr92rcd13ifvqhsg","pricing_plan_id":"free"},{"bike_id":"c24cecf2-0503-470c-b3d3-fc37f377f710","system_id":"levelo_inurba_marseille","lat":43.3372,"lon":5.39183,"is_reserved":false,"is_disabled":false,"rental_uris":{"android":"levelo://app?vid=c24cecf2-0503-470c-b3d3-fc37f377f710","ios":"levelo://app?vid=c24cecf2-0503-470c-b3d3-fc37f377f710"},"vehicle_type_id":"4","last_reported":1692525950,"current_range_meters":25600,"station_id":"ce4bhr92rcd13ifvqhsg","pricing_plan_id":"free"},{"bike_id":"72fc020d-a1d4-460a-a3d1-6187a1ea65d2","system_id":"levelo_inurba_marseille","lat":43.33721,"lon":5.39183,"is_reserved":false,"is_disabled":false,"rental_uris":{"android":"levelo://app?vid=72fc020d-a1d4-460a-a3d1-6187a1ea65d2","ios":"levelo://app?vid=72fc020d-a1d4-460a-a3d1-6187a1ea65d2"},"vehicle_type_id":"4","last_reported":1692525950,"current_range_meters":23600,"station_id":"ce4bhr92rcd13ifvqhsg","pricing_plan_id":"free"},{"bike_id":"e45012d8-673a-4bd6-93d3-a427f767a00d","system_id":"levelo_inurba_marseille","lat":43.33719,"lon":5.39189,"is_reserved":false,"is_disabled":false,"rental_uris":{"android":"levelo://app?vid=e45012d8-673a-4bd6-93d3-a427f767a00d","ios":"levelo://app?vid=e45012d8-673a-4bd6-93d3-a427f767a00d"},"vehicle_type_id":"4","last_reported":1692525950,"current_range_meters":24400,"station_id":"ce4bhr92rcd13ifvqhsg","pricing_plan_id":"free"},{"bike_id":"0dda2562-498f-4f90-abfb-f3c666db2d2e","system_id":"levelo_inurba_marseille","lat":43.33725,"lon":5.39183,"is_reserved":false,"is_disabled":false,"rental_uris":{"android":"levelo://app?vid=0dda2562-498f-4f90-abfb-f3c666db2d2e","ios":"levelo://app?vid=0dda2562-498f-4f90-abfb-f3c666db2d2e"},"vehicle_type_id":"4","last_reported":1692525950,"current_range_meters":20400,"station_id":"ce4bhr92rcd13ifvqhsg","pricing_plan_id":"free"},{"bike_id":"01f563c5-7ac0-4d44-b1b3-0549f3b949f3","system_id":"levelo_inurba_marseille","lat":43.33723,"lon":5.39188,"is_reserved":false,"is_disabled":false,"rental_uris":{"android":"levelo://app?vid=01f563c5-7ac0-4d44-b1b3-0549f3b949f3","ios":"levelo://app?vid=01f563c5-7ac0-4d44-b1b3-0549f3b949f3"},"vehicle_type_id":"4","last_reported":1692525950,"current_range_meters":26800,"station_id":"ce4bhr92rcd13ifvqhsg","pricing_plan_id":"free"},{"bike_id":"baef72cb-b22b-4d30-82e9-ac3a300140d7","system_id":"levelo_inurba_marseille","lat":43.323464,"lon":5.406297,"is_reserved":false,"is_disabled":false,"rental_uris":{"android":"levelo://app?vid=baef72cb-b22b-4d30-82e9-ac3a300140d7","ios":"levelo://app?vid=baef72cb-b22b-4d30-82e9-ac3a300140d7"},"vehicle_type_id":"4","last_reported":1692525950,"current_range_meters":29200,"station_id":"ce4bhq92rcd13ifvqhjg","pricing_plan_id":"free"},{"bike_id":"02f29c2d-847e-4148-9200-bdb4c19acc46","system_id":"levelo_inurba_marseille","lat":43.3373,"lon":5.39184,"is_reserved":false,"is_disabled":false,"rental_uris":{"android":"levelo://app?vid=02f29c2d-847e-4148-9200-bdb4c19acc46","ios":"levelo://app?vid=02f29c2d-847e-4148-9200-bdb4c19acc46"},"vehicle_type_id":"4","last_reported":1692525950,"current_range_meters":26400,"station_id":"ce4bhr92rcd13ifvqhsg","pricing_plan_id":"free"},{"bike_id":"8bd09c71-02ae-4371-8b55-ce1e7e2bf2df","system_id":"levelo_inurba_marseille","lat":43.3373,"lon":5.39189,"is_reserved":false,"is_disabled":false,"rental_uris":{"android":"levelo://app?vid=8bd09c71-02ae-4371-8b55-ce1e7e2bf2df","ios":"levelo://app?vid=8bd09c71-02ae-4371-8b55-ce1e7e2bf2df"},"vehicle_type_id":"4","last_reported":1692525950,"current_range_meters":27200,"station_id":"ce4bhr92rcd13ifvqhsg","pricing_plan_id":"free"},{"bike_id":"cf9bc3aa-b8c3-4c94-95f9-536676fb8c3c","system_id":"levelo_inurba_marseille","lat":43.29798,"lon":5.404,"is_reserved":false,"is_disabled":false,"rental_uris":{"android":"levelo://app?vid=cf9bc3aa-b8c3-4c94-95f9-536676fb8c3c","ios":"levelo://app?vid=cf9bc3aa-b8c3-4c94-95f9-536676fb8c3c"},"vehicle_type_id":"4","last_reported":1692525950,"current_range_meters":14800,"station_id":"ce4bh112rcd13ifvqd90","pricing_plan_id":"free"},{"bike_id":"9601bc0b-7cec-44d4-afd1-7f02a22af5c2","system_id":"levelo_inurba_marseille","lat":43.29799,"lon":5.40402,"is_reserved":false,"is_disabled":false,"rental_uris":{"android":"levelo://app?vid=9601bc0b-7cec-44d4-afd1-7f02a22af5c2","ios":"levelo://app?vid=9601bc0b-7cec-44d4-afd1-7f02a22af5c2"},"vehicle_type_id":"4","last_reported":1692525950,"current_range_meters":30800,"station_id":"ce4bh112rcd13ifvqd90","pricing_plan_id":"free"},{"bike_id":"cb358c0c-a894-49cf-ba2f-d9c616d87d69","system_id":"levelo_inurba_marseille","lat":43.29809,"lon":5.4041,"is_reserved":false,"is_disabled":false,"rental_uris":{"android":"levelo://app?vid=cb358c0c-a894-49cf-ba2f-d9c616d87d69","ios":"levelo://app?vid=cb358c0c-a894-49cf-ba2f-d9c616d87d69"},"vehicle_type_id":"4","last_reported":1692525950,"current_range_meters":7600,"station_id":"ce4bh112rcd13ifvqd90","pricing_plan_id":"free"},{"bike_id":"5334cee5-c9ac-46f5-9b83-1487973bf88b","system_id":"levelo_inurba_marseille","lat":43.29796,"lon":5.40413,"is_reserved":false,"is_disabled":false,"rental_uris":{"android":"levelo://app?vid=5334cee5-c9ac-46f5-9b83-1487973bf88b","ios":"levelo://app?vid=5334cee5-c9ac-46f5-9b83-1487973bf88b"},"vehicle_type_id":"4","last_reported":1692525950,"current_range_meters":30800,"station_id":"ce4bh112rcd13ifvqd90","pricing_plan_id":"free"},{"bike_id":"e44d1e31-fb7d-4d45-b4eb-c060512db9cb","system_id":"levelo_inurba_marseille","lat":43.28427,"lon":5.34981,"is_reserved":false,"is_disabled":false,"rental_uris":{"android":"levelo://app?vid=e44d1e31-fb7d-4d45-b4eb-c060512db9cb","ios":"levelo://app?vid=e44d1e31-fb7d-4d45-b4eb-c060512db9cb"},"vehicle_type_id":"4","last_reported":1692525950,"current_range_meters":30000,"station_id":"ce4bhbh2rcd13ifvqepg","pricing_plan_id":"free"},{"bike_id":"ba3691b5-3c59-476d-a171-f578ef6422e2","system_id":"levelo_inurba_marseille","lat":43.28426,"lon":5.34978,"is_reserved":false,"is_disabled":false,"rental_uris":{"android":"levelo://app?vid=ba3691b5-3c59-476d-a171-f578ef6422e2","ios":"levelo://app?vid=ba3691b5-3c59-476d-a171-f578ef6422e2"},"vehicle_type_id":"4","last_reported":1692525950,"current_range_meters":26400,"station_id":"ce4bhbh2rcd13ifvqepg","pricing_plan_id":"free"},{"bike_id":"cbab3a93-0879-405f-8af0-54bff1d5bbc5","system_id":"levelo_inurba_marseille","lat":43.284217,"lon":5.349697,"is_reserved":false,"is_disabled":false,"rental_uris":{"android":"levelo://app?vid=cbab3a93-0879-405f-8af0-54bff1d5bbc5","ios":"levelo://app?vid=cbab3a93-0879-405f-8af0-54bff1d5bbc5"},"vehicle_type_id":"4","last_reported":1692525950,"current_range_meters":12800,"station_id":"ce4bhbh2rcd13ifvqepg","pricing_plan_id":"free"},{"bike_id":"9e2cc02c-a705-4060-9eaf-1b318d132dda","system_id":"levelo_inurba_marseille","lat":43.284217,"lon":5.349697,"is_reserved":false,"is_disabled":false,"rental_uris":{"android":"levelo://app?vid=9e2cc02c-a705-4060-9eaf-1b318d132dda","ios":"levelo://app?vid=9e2cc02c-a705-4060-9eaf-1b318d132dda"},"vehicle_type_id":"4","last_reported":1692525950,"current_range_meters":26400,"station_id":"ce4bhbh2rcd13ifvqepg","pricing_plan_id":"free"},{"bike_id":"8f6893bb-ec38-4728-b8d9-d234ff347755","system_id":"levelo_inurba_marseille","lat":43.2842,"lon":5.34985,"is_reserved":false,"is_disabled":false,"rental_uris":{"android":"levelo://app?vid=8f6893bb-ec38-4728-b8d9-d234ff347755","ios":"levelo://app?vid=8f6893bb-ec38-4728-b8d9-d234ff347755"},"vehicle_type_id":"4","last_reported":1692525950,"current_range_meters":24000,"station_id":"ce4bhbh2rcd13ifvqepg","pricing_plan_id":"free"},{"bike_id":"66139586-765e-4df4-852b-17d508c1991d","system_id":"levelo_inurba_marseille","lat":43.28422,"lon":5.34977,"is_reserved":false,"is_disabled":false,"rental_uris":{"android":"levelo://app?vid=66139586-765e-4df4-852b-17d508c1991d","ios":"levelo://app?vid=66139586-765e-4df4-852b-17d508c1991d"},"vehicle_type_id":"4","last_reported":1692525950,"current_range_meters":13600,"station_id":"ce4bhbh2rcd13ifvqepg","pricing_plan_id":"free"},{"bike_id":"a0b4d391-e169-4cb5-bd1c-90095e4e3a4e","system_id":"levelo_inurba_marseille","lat":43.284217,"lon":5.349697,"is_reserved":false,"is_disabled":false,"rental_uris":{"android":"levelo://app?vid=a0b4d391-e169-4cb5-bd1c-90095e4e3a4e","ios":"levelo://app?vid=a0b4d391-e169-4cb5-bd1c-90095e4e3a4e"},"vehicle_type_id":"4","last_reported":1692525950,"current_range_meters":4400,"station_id":"ce4bhbh2rcd13ifvqepg","pricing_plan_id":"free"},{"bike_id":"af5969d4-4493-4a0e-a09a-bb4d639951ea","system_id":"levelo_inurba_marseille","lat":43.28419,"lon":5.34984,"is_reserved":false,"is_disabled":false,"rental_uris":{"android":"levelo://app?vid=af5969d4-4493-4a0e-a09a-bb4d639951ea","ios":"levelo://app?vid=af5969d4-4493-4a0e-a09a-bb4d639951ea"},"vehicle_type_id":"4","last_reported":1692525950,"current_range_meters":17200,"station_id":"ce4bhbh2rcd13ifvqepg","pricing_plan_id":"free"},{"bike_id":"9b4b587b-24f8-4427-a599-ca521fbb0882","system_id":"levelo_inurba_marseille","lat":43.2842,"lon":5.34979,"is_reserved":false,"is_disabled":false,"rental_uris":{"android":"levelo://app?vid=9b4b587b-24f8-4427-a599-ca521fbb0882","ios":"levelo://app?vid=9b4b587b-24f8-4427-a599-ca521fbb0882"},"vehicle_type_id":"4","last_reported":1692525950,"current_range_meters":26800,"station_id":"ce4bhbh2rcd13ifvqepg","pricing_plan_id":"free"},{"bike_id":"bf590359-a6e5-40e1-b4ac-dd91551bde50","system_id":"levelo_inurba_marseille","lat":43.28417,"lon":5.34978,"is_reserved":false,"is_disabled":false,"rental_uris":{"android":"levelo://app?vid=bf590359-a6e5-40e1-b4ac-dd91551bde50","ios":"levelo://app?vid=bf590359-a6e5-40e1-b4ac-dd91551bde50"},"vehicle_type_id":"4","last_reported":1692525950,"current_range_meters":24400,"station_id":"ce4bhbh2rcd13ifvqepg","pricing_plan_id":"free"},{"bike_id":"0c4b6542-aeb1-4ff5-b556-5dc03a8c9046","system_id":"levelo_inurba_marseille","lat":43.28416,"lon":5.34978,"is_reserved":false,"is_disabled":false,"rental_uris":{"android":"levelo://app?vid=0c4b6542-aeb1-4ff5-b556-5dc03a8c9046","ios":"levelo://app?vid=0c4b6542-aeb1-4ff5-b556-5dc03a8c9046"},"vehicle_type_id":"4","last_reported":1692525950,"current_range_meters":24800,"station_id":"ce4bhbh2rcd13ifvqepg","pricing_plan_id":"free"},{"bike_id":"1c51d1d5-ab99-47e6-a431-bb9337f29bb3","system_id":"levelo_inurba_marseille","lat":43.28415,"lon":5.34975,"is_reserved":false,"is_disabled":false,"rental_uris":{"android":"levelo://app?vid=1c51d1d5-ab99-47e6-a431-bb9337f29bb3","ios":"levelo://app?vid=1c51d1d5-ab99-47e6-a431-bb9337f29bb3"},"vehicle_type_id":"4","last_reported":1692525950,"current_range_meters":25200,"station_id":"ce4bhbh2rcd13ifvqepg","pricing_plan_id":"free"},{"bike_id":"3a78b823-185c-439d-af78-03f7e0b4a6ce","system_id":"levelo_inurba_marseille","lat":43.28415,"lon":5.34974,"is_reserved":false,"is_disabled":false,"rental_uris":{"android":"levelo://app?vid=3a78b823-185c-439d-af78-03f7e0b4a6ce","ios":"levelo://app?vid=3a78b823-185c-439d-af78-03f7e0b4a6ce"},"vehicle_type_id":"4","last_reported":1692525950,"current_range_meters":27200,"station_id":"ce4bhbh2rcd13ifvqepg","pricing_plan_id":"free"},{"bike_id":"f50aca5f-cf5b-4020-925f-826a2e34874f","system_id":"levelo_inurba_marseille","lat":43.28938,"lon":5.39629,"is_reserved":false,"is_disabled":false,"rental_uris":{"android":"levelo://app?vid=f50aca5f-cf5b-4020-925f-826a2e34874f","ios":"levelo://app?vid=f50aca5f-cf5b-4020-925f-826a2e34874f"},"vehicle_type_id":"4","last_reported":1692525950,"current_range_meters":30800,"station_id":"ce4bh3h2rcd13ifvqdn0","pricing_plan_id":"free"},{"bike_id":"5cec26ac-344f-432b-af34-450b75305b9b","system_id":"levelo_inurba_marseille","lat":43.292724,"lon":5.401131,"is_reserved":false,"is_disabled":false,"rental_uris":{"android":"levelo://app?vid=5cec26ac-344f-432b-af34-450b75305b9b","ios":"levelo://app?vid=5cec26ac-344f-432b-af34-450b75305b9b"},"vehicle_type_id":"4","last_reported":1692525950,"current_range_meters":31200,"station_id":"ce4bh312rcd13ifvqdk0","pricing_plan_id":"free"},{"bike_id":"a8f6eb94-3a22-424f-b7cd-e4738aede737","system_id":"levelo_inurba_marseille","lat":43.28281,"lon":5.35057,"is_reserved":false,"is_disabled":false,"rental_uris":{"android":"levelo://app?vid=a8f6eb94-3a22-424f-b7cd-e4738aede737","ios":"levelo://app?vid=a8f6eb94-3a22-424f-b7cd-e4738aede737"},"vehicle_type_id":"4","last_reported":1692525950,"current_range_meters":27600,"station_id":"ce4bhbp2rcd13ifvqerg","pricing_plan_id":"free"},{"bike_id":"c7207a2d-6c4e-4378-82ac-80b1b978d9f4","system_id":"levelo_inurba_marseille","lat":43.282754,"lon":5.350519,"is_reserved":false,"is_disabled":false,"rental_uris":{"android":"levelo://app?vid=c7207a2d-6c4e-4378-82ac-80b1b978d9f4","ios":"levelo://app?vid=c7207a2d-6c4e-4378-82ac-80b1b978d9f4"},"vehicle_type_id":"4","last_reported":1692525950,"current_range_meters":21200,"station_id":"ce4bhbp2rcd13ifvqerg","pricing_plan_id":"free"},{"bike_id":"fb0b0916-b999-4caa-b0f9-75625387f48a","system_id":"levelo_inurba_marseille","lat":43.282754,"lon":5.350519,"is_reserved":false,"is_disabled":false,"rental_uris":{"android":"levelo://app?vid=fb0b0916-b999-4caa-b0f9-75625387f48a","ios":"levelo://app?vid=fb0b0916-b999-4caa-b0f9-75625387f48a"},"vehicle_type_id":"4","last_reported":1692525950,"current_range_meters":31200,"station_id":"ce4bhbp2rcd13ifvqerg","pricing_plan_id":"free"},{"bike_id":"626fc86a-e8d2-4e0c-b341-83008c4330c0","system_id":"levelo_inurba_marseille","lat":43.28271,"lon":5.35067,"is_reserved":false,"is_disabled":false,"rental_uris":{"android":"levelo://app?vid=626fc86a-e8d2-4e0c-b341-83008c4330c0","ios":"levelo://app?vid=626fc86a-e8d2-4e0c-b341-83008c4330c0"},"vehicle_type_id":"4","last_reported":1692525950,"current_range_meters":24400,"station_id":"ce4bhbp2rcd13ifvqerg","pricing_plan_id":"free"},{"bike_id":"774442f0-8b0a-4080-8314-dad4d0377226","system_id":"levelo_inurba_marseille","lat":43.282754,"lon":5.350519,"is_reserved":false,"is_disabled":false,"rental_uris":{"android":"levelo://app?vid=774442f0-8b0a-4080-8314-dad4d0377226","ios":"levelo://app?vid=774442f0-8b0a-4080-8314-dad4d0377226"},"vehicle_type_id":"4","last_reported":1692525950,"current_range_meters":31200,"station_id":"ce4bhbp2rcd13ifvqerg","pricing_plan_id":"free"},{"bike_id":"88940920-727e-47f8-bee6-24feedff1167","system_id":"levelo_inurba_marseille","lat":43.282744,"lon":5.350533,"is_reserved":false,"is_disabled":false,"rental_uris":{"android":"levelo://app?vid=88940920-727e-47f8-bee6-24feedff1167","ios":"levelo://app?vid=88940920-727e-47f8-bee6-24feedff1167"},"vehicle_type_id":"4","last_reported":1692525950,"current_range_meters":30000,"station_id":"ce4bhbp2rcd13ifvqerg","pricing_plan_id":"free"},{"bike_id":"0c69e610-e74e-4ba9-b4d1-e45874ee4f89","system_id":"levelo_inurba_marseille","lat":43.28267,"lon":5.35074,"is_reserved":false,"is_disabled":false,"rental_uris":{"android":"levelo://app?vid=0c69e610-e74e-4ba9-b4d1-e45874ee4f89","ios":"levelo://app?vid=0c69e610-e74e-4ba9-b4d1-e45874ee4f89"},"vehicle_type_id":"4","last_reported":1692525950,"current_range_meters":8800,"station_id":"ce4bhbp2rcd13ifvqerg","pricing_plan_id":"free"},{"bike_id":"9c584a0b-85c5-4968-af5e-22ed1f8518aa","system_id":"levelo_inurba_marseille","lat":43.282744,"lon":5.350533,"is_reserved":false,"is_disabled":false,"rental_uris":{"android":"levelo://app?vid=9c584a0b-85c5-4968-af5e-22ed1f8518aa","ios":"levelo://app?vid=9c584a0b-85c5-4968-af5e-22ed1f8518aa"},"vehicle_type_id":"4","last_reported":1692525950,"current_range_meters":31200,"station_id":"ce4bhbp2rcd13ifvqerg","pricing_plan_id":"free"},{"bike_id":"3fd79558-6e24-433c-953a-76770acde23b","system_id":"levelo_inurba_marseille","lat":43.282744,"lon":5.350533,"is_reserved":false,"is_disabled":false,"rental_uris":{"android":"levelo://app?vid=3fd79558-6e24-433c-953a-76770acde23b","ios":"levelo://app?vid=3fd79558-6e24-433c-953a-76770acde23b"},"vehicle_type_id":"4","last_reported":1692525950,"current_range_meters":31200,"station_id":"ce4bhbp2rcd13ifvqerg","pricing_plan_id":"free"},{"bike_id":"242bc270-8d13-4aee-8dd6-ad5fa065a5b0","system_id":"levelo_inurba_marseille","lat":43.282754,"lon":5.350519,"is_reserved":false,"is_disabled":false,"rental_uris":{"android":"levelo://app?vid=242bc270-8d13-4aee-8dd6-ad5fa065a5b0","ios":"levelo://app?vid=242bc270-8d13-4aee-8dd6-ad5fa065a5b0"},"vehicle_type_id":"4","last_reported":1692525950,"current_range_meters":26000,"station_id":"ce4bhbp2rcd13ifvqerg","pricing_plan_id":"free"},{"bike_id":"145b267d-265f-46f0-9d0a-6a254abbf0c4","system_id":"levelo_inurba_marseille","lat":43.282754,"lon":5.350519,"is_reserved":false,"is_disabled":false,"rental_uris":{"android":"levelo://app?vid=145b267d-265f-46f0-9d0a-6a254abbf0c4","ios":"levelo://app?vid=145b267d-265f-46f0-9d0a-6a254abbf0c4"},"vehicle_type_id":"4","last_reported":1692525950,"current_range_meters":7200,"station_id":"ce4bhbp2rcd13ifvqerg","pricing_plan_id":"free"},{"bike_id":"d59165b0-af81-4ceb-9390-a6bb93b0dd93","system_id":"levelo_inurba_marseille","lat":43.282744,"lon":5.350533,"is_reserved":false,"is_disabled":false,"rental_uris":{"android":"levelo://app?vid=d59165b0-af81-4ceb-9390-a6bb93b0dd93","ios":"levelo://app?vid=d59165b0-af81-4ceb-9390-a6bb93b0dd93"},"vehicle_type_id":"4","last_reported":1692525950,"current_range_meters":26400,"station_id":"ce4bhbp2rcd13ifvqerg","pricing_plan_id":"free"},{"bike_id":"65ff2078-0a8f-4fb4-8317-1f442d9ab6b2","system_id":"levelo_inurba_marseille","lat":43.282744,"lon":5.350533,"is_reserved":false,"is_disabled":false,"rental_uris":{"android":"levelo://app?vid=65ff2078-0a8f-4fb4-8317-1f442d9ab6b2","ios":"levelo://app?vid=65ff2078-0a8f-4fb4-8317-1f442d9ab6b2"},"vehicle_type_id":"4","last_reported":1692525950,"current_range_meters":31200,"station_id":"ce4bhbp2rcd13ifvqerg","pricing_plan_id":"free"},{"bike_id":"9f46cfde-4f76-4076-bade-5765c2d3d473","system_id":"levelo_inurba_marseille","lat":43.28039,"lon":5.369297,"is_reserved":false,"is_disabled":false,"rental_uris":{"android":"levelo://app?vid=9f46cfde-4f76-4076-bade-5765c2d3d473","ios":"levelo://app?vid=9f46cfde-4f76-4076-bade-5765c2d3d473"},"vehicle_type_id":"4","last_reported":1692525950,"current_range_meters":31200,"station_id":"ce4bha12rcd13ifvqef0","pricing_plan_id":"free"},{"bike_id":"a328a892-409c-468d-be85-b591f045c0d3","system_id":"levelo_inurba_marseille","lat":43.282754,"lon":5.350519,"is_reserved":false,"is_disabled":false,"rental_uris":{"android":"levelo://app?vid=a328a892-409c-468d-be85-b591f045c0d3","ios":"levelo://app?vid=a328a892-409c-468d-be85-b591f045c0d3"},"vehicle_type_id":"4","last_reported":1692525950,"current_range_meters":31600,"station_id":"ce4bhbp2rcd13ifvqerg","pricing_plan_id":"free"},{"bike_id":"e64d85b9-4d96-48e9-b17d-5ec672d7c9ba","system_id":"levelo_inurba_marseille","lat":43.282754,"lon":5.350519,"is_reserved":false,"is_disabled":false,"rental_uris":{"android":"levelo://app?vid=e64d85b9-4d96-48e9-b17d-5ec672d7c9ba","ios":"levelo://app?vid=e64d85b9-4d96-48e9-b17d-5ec672d7c9ba"},"vehicle_type_id":"4","last_reported":1692525950,"current_range_meters":25200,"station_id":"ce4bhbp2rcd13ifvqerg","pricing_plan_id":"free"},{"bike_id":"444f4434-11a1-45ff-8921-77acbd2974bf","system_id":"levelo_inurba_marseille","lat":43.29041,"lon":5.399634,"is_reserved":false,"is_disabled":false,"rental_uris":{"android":"levelo://app?vid=444f4434-11a1-45ff-8921-77acbd2974bf","ios":"levelo://app?vid=444f4434-11a1-45ff-8921-77acbd2974bf"},"vehicle_type_id":"4","last_reported":1692525950,"current_range_meters":25200,"station_id":"ce4bh392rcd13ifvqdm0","pricing_plan_id":"free"},{"bike_id":"d397ee0a-2792-49ce-b55b-5d1772af80c1","system_id":"levelo_inurba_marseille","lat":43.28121,"lon":5.3518,"is_reserved":false,"is_disabled":false,"rental_uris":{"android":"levelo://app?vid=d397ee0a-2792-49ce-b55b-5d1772af80c1","ios":"levelo://app?vid=d397ee0a-2792-49ce-b55b-5d1772af80c1"},"vehicle_type_id":"4","last_reported":1692525950,"current_range_meters":21200,"station_id":"","pricing_plan_id":"free"},{"bike_id":"3192f301-7501-4ac0-8cfd-a8dcb5b9fa88","system_id":"levelo_inurba_marseille","lat":43.28573,"lon":5.394992,"is_reserved":false,"is_disabled":false,"rental_uris":{"android":"levelo://app?vid=3192f301-7501-4ac0-8cfd-a8dcb5b9fa88","ios":"levelo://app?vid=3192f301-7501-4ac0-8cfd-a8dcb5b9fa88"},"vehicle_type_id":"4","last_reported":1692525950,"current_range_meters":31200,"station_id":"ce4bh292rcd13ifvqdg0","pricing_plan_id":"free"},{"bike_id":"f8ef4f78-badc-40d1-a4a9-077301466e56","system_id":"levelo_inurba_marseille","lat":43.32662,"lon":5.40978,"is_reserved":false,"is_disabled":false,"rental_uris":{"android":"levelo://app?vid=f8ef4f78-badc-40d1-a4a9-077301466e56","ios":"levelo://app?vid=f8ef4f78-badc-40d1-a4a9-077301466e56"},"vehicle_type_id":"4","last_reported":1692525950,"current_range_meters":9600,"station_id":"ce4bhpp2rcd13ifvqhgg","pricing_plan_id":"free"},{"bike_id":"121d9b6f-3a6d-4b2b-94b5-372a67b1873c","system_id":"levelo_inurba_marseille","lat":43.326605,"lon":5.409903,"is_reserved":false,"is_disabled":false,"rental_uris":{"android":"levelo://app?vid=121d9b6f-3a6d-4b2b-94b5-372a67b1873c","ios":"levelo://app?vid=121d9b6f-3a6d-4b2b-94b5-372a67b1873c"},"vehicle_type_id":"4","last_reported":1692525950,"current_range_meters":18400,"station_id":"ce4bhpp2rcd13ifvqhgg","pricing_plan_id":"free"},{"bike_id":"b70b0978-4c04-4f9a-add1-468a2f781544","system_id":"levelo_inurba_marseille","lat":43.320045,"lon":5.415048,"is_reserved":false,"is_disabled":false,"rental_uris":{"android":"levelo://app?vid=b70b0978-4c04-4f9a-add1-468a2f781544","ios":"levelo://app?vid=b70b0978-4c04-4f9a-add1-468a2f781544"},"vehicle_type_id":"4","last_reported":1692525950,"current_range_meters":31200,"station_id":"ce4bhq92rcd13ifvqhkg","pricing_plan_id":"free"},{"bike_id":"11a4b1c9-49f7-4181-b5d7-95af5c113298","system_id":"levelo_inurba_marseille","lat":43.320045,"lon":5.415046,"is_reserved":false,"is_disabled":false,"rental_uris":{"android":"levelo://app?vid=11a4b1c9-49f7-4181-b5d7-95af5c113298","ios":"levelo://app?vid=11a4b1c9-49f7-4181-b5d7-95af5c113298"},"vehicle_type_id":"4","last_reported":1692525950,"current_range_meters":31200,"station_id":"ce4bhq92rcd13ifvqhkg","pricing_plan_id":"free"},{"bike_id":"e4d30b70-a50d-4a1d-885d-431b4fea59ac","system_id":"levelo_inurba_marseille","lat":43.299579,"lon":5.413255,"is_reserved":false,"is_disabled":false,"rental_uris":{"android":"levelo://app?vid=e4d30b70-a50d-4a1d-885d-431b4fea59ac","ios":"levelo://app?vid=e4d30b70-a50d-4a1d-885d-431b4fea59ac"},"vehicle_type_id":"4","last_reported":1692525950,"current_range_meters":30400,"station_id":"ce4bhp12rcd13ifvqh9g","pricing_plan_id":"free"},{"bike_id":"10ab37a0-08c3-4a82-aaff-34a20c59ac58","system_id":"levelo_inurba_marseille","lat":43.320045,"lon":5.415046,"is_reserved":false,"is_disabled":false,"rental_uris":{"android":"levelo://app?vid=10ab37a0-08c3-4a82-aaff-34a20c59ac58","ios":"levelo://app?vid=10ab37a0-08c3-4a82-aaff-34a20c59ac58"},"vehicle_type_id":"4","last_reported":1692525950,"current_range_meters":29200,"station_id":"ce4bhq92rcd13ifvqhkg","pricing_plan_id":"free"},{"bike_id":"46f3f9eb-7665-4972-96ad-e19d5fde0a16","system_id":"levelo_inurba_marseille","lat":43.320045,"lon":5.415046,"is_reserved":false,"is_disabled":false,"rental_uris":{"android":"levelo://app?vid=46f3f9eb-7665-4972-96ad-e19d5fde0a16","ios":"levelo://app?vid=46f3f9eb-7665-4972-96ad-e19d5fde0a16"},"vehicle_type_id":"4","last_reported":1692525950,"current_range_meters":25200,"station_id":"ce4bhq92rcd13ifvqhkg","pricing_plan_id":"free"},{"bike_id":"c327718a-8fe6-4791-a349-aba0f8f94e82","system_id":"levelo_inurba_marseille","lat":43.279742,"lon":5.38744,"is_reserved":false,"is_disabled":false,"rental_uris":{"android":"levelo://app?vid=c327718a-8fe6-4791-a349-aba0f8f94e82","ios":"levelo://app?vid=c327718a-8fe6-4791-a349-aba0f8f94e82"},"vehicle_type_id":"4","last_reported":1692525950,"current_range_meters":26000,"station_id":"ce4bhg12rcd13ifvqf80","pricing_plan_id":"free"},{"bike_id":"3cfcfc03-d8eb-421b-b431-cc0b8255628a","system_id":"levelo_inurba_marseille","lat":43.320045,"lon":5.415048,"is_reserved":false,"is_disabled":false,"rental_uris":{"android":"levelo://app?vid=3cfcfc03-d8eb-421b-b431-cc0b8255628a","ios":"levelo://app?vid=3cfcfc03-d8eb-421b-b431-cc0b8255628a"},"vehicle_type_id":"4","last_reported":1692525950,"current_range_meters":21200,"station_id":"ce4bhq92rcd13ifvqhkg","pricing_plan_id":"free"},{"bike_id":"c7bce72a-8572-4cf2-a878-5bdb237bf239","system_id":"levelo_inurba_marseille","lat":43.320045,"lon":5.415048,"is_reserved":false,"is_disabled":false,"rental_uris":{"android":"levelo://app?vid=c7bce72a-8572-4cf2-a878-5bdb237bf239","ios":"levelo://app?vid=c7bce72a-8572-4cf2-a878-5bdb237bf239"},"vehicle_type_id":"4","last_reported":1692525950,"current_range_meters":16800,"station_id":"ce4bhq92rcd13ifvqhkg","pricing_plan_id":"free"},{"bike_id":"57600dc2-6356-452d-b555-48124a177e0e","system_id":"levelo_inurba_marseille","lat":43.320045,"lon":5.415046,"is_reserved":false,"is_disabled":false,"rental_uris":{"android":"levelo://app?vid=57600dc2-6356-452d-b555-48124a177e0e","ios":"levelo://app?vid=57600dc2-6356-452d-b555-48124a177e0e"},"vehicle_type_id":"4","last_reported":1692525950,"current_range_meters":27600,"station_id":"ce4bhq92rcd13ifvqhkg","pricing_plan_id":"free"},{"bike_id":"fb0ae550-86fb-4cbe-890e-81812a6cab98","system_id":"levelo_inurba_marseille","lat":43.292569,"lon":5.409107,"is_reserved":false,"is_disabled":false,"rental_uris":{"android":"levelo://app?vid=fb0ae550-86fb-4cbe-890e-81812a6cab98","ios":"levelo://app?vid=fb0ae550-86fb-4cbe-890e-81812a6cab98"},"vehicle_type_id":"4","last_reported":1692525950,"current_range_meters":20400,"station_id":"ce4bh192rcd13ifvqdc0","pricing_plan_id":"free"},{"bike_id":"34cd8c15-cca7-4dc8-8525-af24a0ed5659","system_id":"levelo_inurba_marseille","lat":43.292569,"lon":5.409107,"is_reserved":false,"is_disabled":false,"rental_uris":{"android":"levelo://app?vid=34cd8c15-cca7-4dc8-8525-af24a0ed5659","ios":"levelo://app?vid=34cd8c15-cca7-4dc8-8525-af24a0ed5659"},"vehicle_type_id":"4","last_reported":1692525950,"current_range_meters":31200,"station_id":"ce4bh192rcd13ifvqdc0","pricing_plan_id":"free"},{"bike_id":"480eed89-9bfe-4799-90d1-b5ded03d30b8","system_id":"levelo_inurba_marseille","lat":43.292571,"lon":5.409107,"is_reserved":false,"is_disabled":false,"rental_uris":{"android":"levelo://app?vid=480eed89-9bfe-4799-90d1-b5ded03d30b8","ios":"levelo://app?vid=480eed89-9bfe-4799-90d1-b5ded03d30b8"},"vehicle_type_id":"4","last_reported":1692525950,"current_range_meters":31200,"station_id":"ce4bh192rcd13ifvqdc0","pricing_plan_id":"free"},{"bike_id":"a170c304-a55a-4f9c-babf-7e65e73de820","system_id":"levelo_inurba_marseille","lat":43.292569,"lon":5.409107,"is_reserved":false,"is_disabled":false,"rental_uris":{"android":"levelo://app?vid=a170c304-a55a-4f9c-babf-7e65e73de820","ios":"levelo://app?vid=a170c304-a55a-4f9c-babf-7e65e73de820"},"vehicle_type_id":"4","last_reported":1692525950,"current_range_meters":31200,"station_id":"ce4bh192rcd13ifvqdc0","pricing_plan_id":"free"},{"bike_id":"4808912e-4373-4104-91a4-bb35b7136e75","system_id":"levelo_inurba_marseille","lat":43.27624,"lon":5.3611,"is_reserved":false,"is_disabled":false,"rental_uris":{"android":"levelo://app?vid=4808912e-4373-4104-91a4-bb35b7136e75","ios":"levelo://app?vid=4808912e-4373-4104-91a4-bb35b7136e75"},"vehicle_type_id":"4","last_reported":1692525950,"current_range_meters":22800,"station_id":"ce4bgj92rcd13ifvqbe0","pricing_plan_id":"free"},{"bike_id":"183a29c2-c1df-461d-90a9-6875be7662c8","system_id":"levelo_inurba_marseille","lat":43.27623,"lon":5.36107,"is_reserved":false,"is_disabled":false,"rental_uris":{"android":"levelo://app?vid=183a29c2-c1df-461d-90a9-6875be7662c8","ios":"levelo://app?vid=183a29c2-c1df-461d-90a9-6875be7662c8"},"vehicle_type_id":"4","last_reported":1692525950,"current_range_meters":25200,"station_id":"ce4bgj92rcd13ifvqbe0","pricing_plan_id":"free"},{"bike_id":"18775127-fd27-467e-8751-1eb9914c1c0e","system_id":"levelo_inurba_marseille","lat":43.32543,"lon":5.4144,"is_reserved":false,"is_disabled":false,"rental_uris":{"android":"levelo://app?vid=18775127-fd27-467e-8751-1eb9914c1c0e","ios":"levelo://app?vid=18775127-fd27-467e-8751-1eb9914c1c0e"},"vehicle_type_id":"4","last_reported":1692525950,"current_range_meters":26000,"station_id":"ce4bhq12rcd13ifvqhhg","pricing_plan_id":"free"},{"bike_id":"a26b4ea9-4414-4d0d-9457-0538cdc41cef","system_id":"levelo_inurba_marseille","lat":43.3254,"lon":5.41456,"is_reserved":false,"is_disabled":false,"rental_uris":{"android":"levelo://app?vid=a26b4ea9-4414-4d0d-9457-0538cdc41cef","ios":"levelo://app?vid=a26b4ea9-4414-4d0d-9457-0538cdc41cef"},"vehicle_type_id":"4","last_reported":1692525950,"current_range_meters":10000,"station_id":"ce4bhq12rcd13ifvqhhg","pricing_plan_id":"free"},{"bike_id":"1250ba03-3a5b-480b-96e9-b2427ebbdecd","system_id":"levelo_inurba_marseille","lat":43.32545,"lon":5.41457,"is_reserved":false,"is_disabled":false,"rental_uris":{"android":"levelo://app?vid=1250ba03-3a5b-480b-96e9-b2427ebbdecd","ios":"levelo://app?vid=1250ba03-3a5b-480b-96e9-b2427ebbdecd"},"vehicle_type_id":"4","last_reported":1692525950,"current_range_meters":23200,"station_id":"ce4bhq12rcd13ifvqhhg","pricing_plan_id":"free"},{"bike_id":"8a04e671-e020-418d-8acb-77e8bf79abd5","system_id":"levelo_inurba_marseille","lat":43.280784,"lon":5.396622,"is_reserved":false,"is_disabled":false,"rental_uris":{"android":"levelo://app?vid=8a04e671-e020-418d-8acb-77e8bf79abd5","ios":"levelo://app?vid=8a04e671-e020-418d-8acb-77e8bf79abd5"},"vehicle_type_id":"4","last_reported":1692525950,"current_range_meters":31200,"station_id":"ce4bho12rcd13ifvqh2g","pricing_plan_id":"free"},{"bike_id":"0f67a69e-76f0-4351-bea4-61e17cb3c34f","system_id":"levelo_inurba_marseille","lat":43.280784,"lon":5.396622,"is_reserved":false,"is_disabled":false,"rental_uris":{"android":"levelo://app?vid=0f67a69e-76f0-4351-bea4-61e17cb3c34f","ios":"levelo://app?vid=0f67a69e-76f0-4351-bea4-61e17cb3c34f"},"vehicle_type_id":"4","last_reported":1692525950,"current_range_meters":26800,"station_id":"ce4bho12rcd13ifvqh2g","pricing_plan_id":"free"},{"bike_id":"34810b40-815a-4c0d-ae8c-6069992a279a","system_id":"levelo_inurba_marseille","lat":43.303837,"lon":5.418724,"is_reserved":false,"is_disabled":false,"rental_uris":{"android":"levelo://app?vid=34810b40-815a-4c0d-ae8c-6069992a279a","ios":"levelo://app?vid=34810b40-815a-4c0d-ae8c-6069992a279a"},"vehicle_type_id":"4","last_reported":1692525950,"current_range_meters":30000,"station_id":"ce4bhop2rcd13ifvqh7g","pricing_plan_id":"free"},{"bike_id":"ec78f0cb-4443-4f22-b841-66dbd48a43b5","system_id":"levelo_inurba_marseille","lat":43.2738,"lon":5.3625,"is_reserved":false,"is_disabled":false,"rental_uris":{"android":"levelo://app?vid=ec78f0cb-4443-4f22-b841-66dbd48a43b5","ios":"levelo://app?vid=ec78f0cb-4443-4f22-b841-66dbd48a43b5"},"vehicle_type_id":"4","last_reported":1692525950,"current_range_meters":16000,"station_id":"ce4bhbh2rcd13ifvqeo0","pricing_plan_id":"free"},{"bike_id":"bd6424dc-eb2c-457b-bfe5-529bfe26598c","system_id":"levelo_inurba_marseille","lat":43.273613,"lon":5.362705,"is_reserved":false,"is_disabled":false,"rental_uris":{"android":"levelo://app?vid=bd6424dc-eb2c-457b-bfe5-529bfe26598c","ios":"levelo://app?vid=bd6424dc-eb2c-457b-bfe5-529bfe26598c"},"vehicle_type_id":"4","last_reported":1692525950,"current_range_meters":28800,"station_id":"ce4bhbh2rcd13ifvqeo0","pricing_plan_id":"free"},{"bike_id":"757b2cdf-b087-4807-8332-5f213be06aa7","system_id":"levelo_inurba_marseille","lat":43.273613,"lon":5.362705,"is_reserved":false,"is_disabled":false,"rental_uris":{"android":"levelo://app?vid=757b2cdf-b087-4807-8332-5f213be06aa7","ios":"levelo://app?vid=757b2cdf-b087-4807-8332-5f213be06aa7"},"vehicle_type_id":"4","last_reported":1692525950,"current_range_meters":28800,"station_id":"ce4bhbh2rcd13ifvqeo0","pricing_plan_id":"free"},{"bike_id":"87751c2e-92ec-4f3b-b020-b5827f2266e4","system_id":"levelo_inurba_marseille","lat":43.273613,"lon":5.362705,"is_reserved":false,"is_disabled":false,"rental_uris":{"android":"levelo://app?vid=87751c2e-92ec-4f3b-b020-b5827f2266e4","ios":"levelo://app?vid=87751c2e-92ec-4f3b-b020-b5827f2266e4"},"vehicle_type_id":"4","last_reported":1692525950,"current_range_meters":30400,"station_id":"ce4bhbh2rcd13ifvqeo0","pricing_plan_id":"free"},{"bike_id":"1eb5e004-2343-460c-b121-85d534cbc518","system_id":"levelo_inurba_marseille","lat":43.273609,"lon":5.362708,"is_reserved":false,"is_disabled":false,"rental_uris":{"android":"levelo://app?vid=1eb5e004-2343-460c-b121-85d534cbc518","ios":"levelo://app?vid=1eb5e004-2343-460c-b121-85d534cbc518"},"vehicle_type_id":"4","last_reported":1692525950,"current_range_meters":24000,"station_id":"ce4bhbh2rcd13ifvqeo0","pricing_plan_id":"free"},{"bike_id":"059e8a09-35c8-457f-988f-9e2975ce5c18","system_id":"levelo_inurba_marseille","lat":43.273609,"lon":5.362708,"is_reserved":false,"is_disabled":false,"rental_uris":{"android":"levelo://app?vid=059e8a09-35c8-457f-988f-9e2975ce5c18","ios":"levelo://app?vid=059e8a09-35c8-457f-988f-9e2975ce5c18"},"vehicle_type_id":"4","last_reported":1692525950,"current_range_meters":9600,"station_id":"ce4bhbh2rcd13ifvqeo0","pricing_plan_id":"free"},{"bike_id":"60e51e31-5074-4d06-a8d1-878928d9a5a0","system_id":"levelo_inurba_marseille","lat":43.273609,"lon":5.362708,"is_reserved":false,"is_disabled":false,"rental_uris":{"android":"levelo://app?vid=60e51e31-5074-4d06-a8d1-878928d9a5a0","ios":"levelo://app?vid=60e51e31-5074-4d06-a8d1-878928d9a5a0"},"vehicle_type_id":"4","last_reported":1692525950,"current_range_meters":27200,"station_id":"ce4bhbh2rcd13ifvqeo0","pricing_plan_id":"free"},{"bike_id":"29f7b3ec-e188-49a3-a1e9-73c18bddabe1","system_id":"levelo_inurba_marseille","lat":43.273609,"lon":5.362708,"is_reserved":false,"is_disabled":false,"rental_uris":{"android":"levelo://app?vid=29f7b3ec-e188-49a3-a1e9-73c18bddabe1","ios":"levelo://app?vid=29f7b3ec-e188-49a3-a1e9-73c18bddabe1"},"vehicle_type_id":"4","last_reported":1692525950,"current_range_meters":12000,"station_id":"ce4bhbh2rcd13ifvqeo0","pricing_plan_id":"free"},{"bike_id":"be247c11-900d-4765-a370-e7adab8eb039","system_id":"levelo_inurba_marseille","lat":43.273609,"lon":5.362708,"is_reserved":false,"is_disabled":false,"rental_uris":{"android":"levelo://app?vid=be247c11-900d-4765-a370-e7adab8eb039","ios":"levelo://app?vid=be247c11-900d-4765-a370-e7adab8eb039"},"vehicle_type_id":"4","last_reported":1692525950,"current_range_meters":22800,"station_id":"ce4bhbh2rcd13ifvqeo0","pricing_plan_id":"free"},{"bike_id":"6fad07a1-e85d-4020-9c09-5764cff2adc6","system_id":"levelo_inurba_marseille","lat":43.273609,"lon":5.362708,"is_reserved":false,"is_disabled":false,"rental_uris":{"android":"levelo://app?vid=6fad07a1-e85d-4020-9c09-5764cff2adc6","ios":"levelo://app?vid=6fad07a1-e85d-4020-9c09-5764cff2adc6"},"vehicle_type_id":"4","last_reported":1692525950,"current_range_meters":24000,"station_id":"ce4bhbh2rcd13ifvqeo0","pricing_plan_id":"free"},