{"last_updated":1753504133,"ttl":60,"version":"2.2","data":{"bikes":[{"bike_id":"c9fff41b-bf0f-431c-bc12-201d7ebbc101","system_id":"levelo_inurba_marseille","lat":43.30895,"lon":5.39649,"is_reserved":false,"is_disabled":false,"rental_uris":{"android":"levelo://app?vid=c9fff41b-bf0f-431c-bc12-201d7ebbc101","ios":"levelo://app?vid=c9fff41b-bf0f-431c-bc12-201d7ebbc101"},"vehicle_type_id":"4","last_reported":1753504133,"current_range_meters":2800,"station_id":"ce4bh012rcd13ifvqcv0","pricing_plan_id":"cebpf4jnsgd1na2vs0mg"},{"bike_id":"65c08b44-d501-42f8-8eb3-2d995206ed63","system_id":"levelo_inurba_marseille","lat":43.25493,"lon":5.37659,"is_reserved":false,"is_disabled":false,"rental_uris":{"android":"levelo://app?vid=65c08b44-d501-42f8-8eb3-2d995206ed63","ios":"levelo://app?vid=65c08b44-d501-42f8-8eb3-2d995206ed63"},"vehicle_type_id":"4","last_reported":1753504133,"current_range_meters":2800,"station_id":"ce4bhh12rcd13ifvqff0","pricing_plan_id":"cebpf4jnsgd1na2vs0mg"},{"bike_id":"c84d04af-88b1-453c-aaf4-b1c7066b5697","system_id":"levelo_inurba_marseille","lat":43.28611,"lon":5.35091,"is_reserved":false,"is_disabled":false,"rental_uris":{"android":"levelo://app?vid=c84d04af-88b1-453c-aaf4-b1c7066b5697","ios":"levelo://app?vid=c84d04af-88b1-453c-aaf4-b1c7066b5697"},"vehicle_type_id":"4","last_reported":1753504133,"current_range_meters":3600,"station_id":"ce4bhch2rcd13ifvqeug","pricing_plan_id":"cebpf4jnsgd1na2vs0mg"},{"bike_id":"d87b56f9-aec8-4c18-8340-d7aba9319bde","system_id":"levelo_inurba_marseille","lat":43.274998,"lon":5.396459,"is_reserved":false,"is_disabled":false,"rental_uris":{"android":"levelo://app?vid=d87b56f9-aec8-4c18-8340-d7aba9319bde","ios":"levelo://app?vid=d87b56f9-aec8-4c18-8340-d7aba9319bde"},"vehicle_type_id":"4","last_reported":1753504133,"current_range_meters":3600,"station_id":"","pricing_plan_id":"cebpf4jnsgd1na2vs0mg"},{"bike_id":"88713064-73b6-47c5-8baf-21f8c90f1d38","system_id":"levelo_inurba_marseille","lat":43.307086,"lon":5.381962,"is_reserved":false,"is_disabled":false,"rental_uris":{"android":"levelo://app?vid=88713064-73b6-47c5-8baf-21f8c90f1d38","ios":"levelo://app?vid=88713064-73b6-47c5-8baf-21f8c90f1d38"},"vehicle_type_id":"4","last_reported":1753504133,"current_range_meters":3600,"station_id":"","pricing_plan_id":"cebpf4jnsgd1na2vs0mg"},{"bike_id":"d6e67ec9-36a2-4615-bfd1-7c7dad1d0674","system_id":"levelo_inurba_marseille","lat":43.22496,"lon":5.34784,"is_reserved":false,"is_disabled":false,"rental_uris":{"android":"levelo://app?vid=d6e67ec9-36a2-4615-bfd1-7c7dad1d0674","ios":"levelo://app?vid=d6e67ec9-36a2-4615-bfd1-7c7dad1d0674"},"vehicle_type_id":"4","last_reported":1753504133,"current_range_meters":3600,"station_id":"st_cvj5dfep6f1abm77gieg","pricing_plan_id":"cebpf4jnsgd1na2vs0mg"},{"bike_id":"1964664b-ec88-4fe7-ab3a-fc6cc1add8f9","system_id":"levelo_inurba_marseille","lat":43.323421,"lon":5.406174,"is_reserved":false,"is_disabled":true,"rental_uris":{"android":"levelo://app?vid=1964664b-ec88-4fe7-ab3a-fc6cc1add8f9","ios":"levelo://app?vid=1964664b-ec88-4fe7-ab3a-fc6cc1add8f9"},"vehicle_type_id":"4","last_reported":1753504133,"current_range_meters":3600,"station_id":"ce4bhq92rcd13ifvqhjg","pricing_plan_id":"cebpf4jnsgd1na2vs0mg"},{"bike_id":"7d9b4259-de1e-4243-9beb-b1b1cc86be18","system_id":"levelo_inurba_marseille","lat":43.31062,"lon":5.38338,"is_reserved":false,"is_disabled":false,"rental_uris":{"android":"levelo://app?vid=7d9b4259-de1e-4243-9beb-b1b1cc86be18","ios":"levelo://app?vid=7d9b4259-de1e-4243-9beb-b1b1cc86be18"},"vehicle_type_id":"4","last_reported":1753504133,"current_range_meters":4000,"station_id":"ce4bgv92rcd13ifvqcr0","pricing_plan_id":"cebpf4jnsgd1na2vs0mg"},{"bike_id":"329aaba8-e959-45ba-932d-356c40c54d03","system_id":"levelo_inurba_marseille","lat":43.288615,"lon":5.393118,"is_reserved":false,"is_disabled":true,"rental_uris":{"android":"levelo://app?vid=329aaba8-e959-45ba-932d-356c40c54d03","ios":"levelo://app?vid=329aaba8-e959-45ba-932d-356c40c54d03"},"vehicle_type_id":"4","last_reported":1753504133,"current_range_meters":4000,"station_id":"ce4bh2p2rcd13ifvqdi0","pricing_plan_id":"cebpf4jnsgd1na2vs0mg"},{"bike_id":"85244870-de2e-4268-95b7-c2ed15b3c6be","system_id":"levelo_inurba_marseille","lat":43.29882,"lon":5.36819,"is_reserved":false,"is_disabled":false,"rental_uris":{"android":"levelo://app?vid=85244870-de2e-4268-95b7-c2ed15b3c6be","ios":"levelo://app?vid=85244870-de2e-4268-95b7-c2ed15b3c6be"},"vehicle_type_id":"4","last_reported":1753504133,"current_range_meters":4400,"station_id":"ce4bgr92rcd13ifvqc7g","pricing_plan_id":"cebpf4jnsgd1na2vs0mg"},{"bike_id":"d26a0748-108f-4358-9684-913cdd65a543","system_id":"levelo_inurba_marseille","lat":43.32332,"lon":5.40628,"is_reserved":false,"is_disabled":true,"rental_uris":{"android":"levelo://app?vid=d26a0748-108f-4358-9684-913cdd65a543","ios":"levelo://app?vid=d26a0748-108f-4358-9684-913cdd65a543"},"vehicle_type_id":"4","last_reported":1753504133,"current_range_meters":4400,"station_id":"ce4bhq92rcd13ifvqhjg","pricing_plan_id":"cebpf4jnsgd1na2vs0mg"},{"bike_id":"fd4ba70a-7bfa-434e-8564-04bf25cc9f63","system_id":"levelo_inurba_marseille","lat":43.28104,"lon":5.441,"is_reserved":false,"is_disabled":false,"rental_uris":{"android":"levelo://app?vid=fd4ba70a-7bfa-434e-8564-04bf25cc9f63","ios":"levelo://app?vid=fd4ba70a-7bfa-434e-8564-04bf25cc9f63"},"vehicle_type_id":"4","last_reported":1753504133,"current_range_meters":4400,"station_id":"","pricing_plan_id":"cebpf4jnsgd1na2vs0mg"},{"bike_id":"e87eec36-9502-45ce-a1b1-4233167cde1e","system_id":"levelo_inurba_marseille","lat":43.27913,"lon":5.39577,"is_reserved":false,"is_disabled":true,"rental_uris":{"android":"levelo://app?vid=e87eec36-9502-45ce-a1b1-4233167cde1e","ios":"levelo://app?vid=e87eec36-9502-45ce-a1b1-4233167cde1e"},"vehicle_type_id":"4","last_reported":1753504133,"current_range_meters":4400,"station_id":"ce4bhf92rcd13ifvqf40","pricing_plan_id":"cebpf4jnsgd1na2vs0mg"},{"bike_id":"c7b92aee-e283-4928-8200-8fb47d23f351","system_id":"levelo_inurba_marseille","lat":43.2822,"lon":5.44287,"is_reserved":false,"is_disabled":false,"rental_uris":{"android":"levelo://app?vid=c7b92aee-e283-4928-8200-8fb47d23f351","ios":"levelo://app?vid=c7b92aee-e283-4928-8200-8fb47d23f351"},"vehicle_type_id":"4","last_reported":1753504133,"current_range_meters":5600,"station_id":"","pricing_plan_id":"cebpf4jnsgd1na2vs0mg"},{"bike_id":"e19cd9bd-8f1f-4909-a624-5af678243303","system_id":"levelo_inurba_marseille","lat":43.29054,"lon":5.39873,"is_reserved":false,"is_disabled":false,"rental_uris":{"android":"levelo://app?vid=e19cd9bd-8f1f-4909-a624-5af678243303","ios":"levelo://app?vid=e19cd9bd-8f1f-4909-a624-5af678243303"},"vehicle_type_id":"4","last_reported":1753504133,"current_range_meters":5600,"station_id":"","pricing_plan_id":"cebpf4jnsgd1na2vs0mg"},{"bike_id":"ad541dd1-1ce7-426c-9e19-c9e5271d6456","system_id":"levelo_inurba_marseille","lat":43.30374,"lon":5.4249,"is_reserved":false,"is_disabled":false,"rental_uris":{"android":"levelo://app?vid=ad541dd1-1ce7-426c-9e19-c9e5271d6456","ios":"levelo://app?vid=ad541dd1-1ce7-426c-9e19-c9e5271d6456"},"vehicle_type_id":"4","last_reported":1753504133,"current_range_meters":5600,"station_id":"ce4bhoh2rcd13ifvqh6g","pricing_plan_id":"cebpf4jnsgd1na2vs0mg"},{"bike_id":"7b8f0b84-b522-44ab-860c-924f0c398730","system_id":"levelo_inurba_marseille","lat":43.28157,"lon":5.42617,"is_reserved":false,"is_disabled":true,"rental_uris":{"android":"levelo://app?vid=7b8f0b84-b522-44ab-860c-924f0c398730","ios":"levelo://app?vid=7b8f0b84-b522-44ab-860c-924f0c398730"},"vehicle_type_id":"4","last_reported":1753504133,"current_range_meters":5600,"station_id":"ce4bhnh2rcd13ifvqgug","pricing_plan_id":"cebpf4jnsgd1na2vs0mg"},{"bike_id":"76016aaf-af1b-46ec-aa32-2b72bb968b94","system_id":"levelo_inurba_marseille","lat":43.27981,"lon":5.38745,"is_reserved":false,"is_disabled":false,"rental_uris":{"android":"levelo://app?vid=76016aaf-af1b-46ec-aa32-2b72bb968b94","ios":"levelo://app?vid=76016aaf-af1b-46ec-aa32-2b72bb968b94"},"vehicle_type_id":"4","last_reported":1753504133,"current_range_meters":5600,"station_id":"ce4bhg12rcd13ifvqf80","pricing_plan_id":"cebpf4jnsgd1na2vs0mg"},{"bike_id":"b93c0803-f824-4cb7-a4ed-57da1403b68e","system_id":"levelo_inurba_marseille","lat":43.325583,"lon":5.379059,"is_reserved":false,"is_disabled":true,"rental_uris":{"android":"levelo://app?vid=b93c0803-f824-4cb7-a4ed-57da1403b68e","ios":"levelo://app?vid=b93c0803-f824-4cb7-a4ed-57da1403b68e"},"vehicle_type_id":"4","last_reported":1753504133,"current_range_meters":5600,"station_id":"","pricing_plan_id":"cebpf4jnsgd1na2vs0mg"},{"bike_id":"49a25020-c17f-426d-a295-c677da1110b3","system_id":"levelo_inurba_marseille","lat":43.26209,"lon":5.37442,"is_reserved":false,"is_disabled":true,"rental_uris":{"android":"levelo://app?vid=49a25020-c17f-426d-a295-c677da1110b3","ios":"levelo://app?vid=49a25020-c17f-426d-a295-c677da1110b3"},"vehicle_type_id":"4","last_reported":1753504133,"current_range_meters":6000,"station_id":"ce4bhgp2rcd13ifvqfc0","pricing_plan_id":"cebpf4jnsgd1na2vs0mg"},{"bike_id":"8878372a-bf65-43e6-87a2-f77b2b383656","system_id":"levelo_inurba_marseille","lat":43.28697,"lon":5.39985,"is_reserved":false,"is_disabled":false,"rental_uris":{"android":"levelo://app?vid=8878372a-bf65-43e6-87a2-f77b2b383656","ios":"levelo://app?vid=8878372a-bf65-43e6-87a2-f77b2b383656"},"vehicle_type_id":"4","last_reported":1753504133,"current_range_meters":6000,"station_id":"ce4bho92rcd13ifvqh3g","pricing_plan_id":"cebpf4jnsgd1na2vs0mg"},{"bike_id":"51979a68-a8cc-400e-b7b9-cd8004031e65","system_id":"levelo_inurba_marseille","lat":43.225,"lon":5.34767,"is_reserved":false,"is_disabled":false,"rental_uris":{"android":"levelo://app?vid=51979a68-a8cc-400e-b7b9-cd8004031e65","ios":"levelo://app?vid=51979a68-a8cc-400e-b7b9-cd8004031e65"},"vehicle_type_id":"4","last_reported":1753504133,"current_range_meters":6000,"station_id":"st_cvj5dfep6f1abm77gieg","pricing_plan_id":"cebpf4jnsgd1na2vs0mg"},{"bike_id":"1e831606-6e16-47f8-b3af-71272dba83e0","system_id":"levelo_inurba_marseille","lat":43.289455,"lon":5.366323,"is_reserved":false,"is_disabled":false,"rental_uris":{"android":"levelo://app?vid=1e831606-6e16-47f8-b3af-71272dba83e0","ios":"levelo://app?vid=1e831606-6e16-47f8-b3af-71272dba83e0"},"vehicle_type_id":"4","last_reported":1753504133,"current_range_meters":6400,"station_id":"ce4bhap2rcd13ifvqek0","pricing_plan_id":"cebpf4jnsgd1na2vs0mg"},{"bike_id":"b2d9b512-461e-4c22-8160-83c7cfb0cdf8","system_id":"levelo_inurba_marseille","lat":43.27952,"lon":5.410515,"is_reserved":false,"is_disabled":true,"rental_uris":{"android":"levelo://app?vid=b2d9b512-461e-4c22-8160-83c7cfb0cdf8","ios":"levelo://app?vid=b2d9b512-461e-4c22-8160-83c7cfb0cdf8"},"vehicle_type_id":"4","last_reported":1753504133,"current_range_meters":6400,"station_id":"ce4bhnp2rcd13ifvqh0g","pricing_plan_id":"cebpf4jnsgd1na2vs0mg"},{"bike_id":"65fabc23-cf2a-4ca8-a868-9941476ce202","system_id":"levelo_inurba_marseille","lat":43.236414,"lon":5.361912,"is_reserved":false,"is_disabled":false,"rental_uris":{"android":"levelo://app?vid=65fabc23-cf2a-4ca8-a868-9941476ce202","ios":"levelo://app?vid=65fabc23-cf2a-4ca8-a868-9941476ce202"},"vehicle_type_id":"4","last_reported":1753504133,"current_range_meters":6400,"station_id":"","pricing_plan_id":"cebpf4jnsgd1na2vs0mg"},{"bike_id":"6f8510cb-e3c3-422b-8a9e-e94f7e59a282","system_id":"levelo_inurba_marseille","lat":43.24068,"lon":5.37746,"is_reserved":false,"is_disabled":false,"rental_uris":{"android":"levelo://app?vid=6f8510cb-e3c3-422b-8a9e-e94f7e59a282","ios":"levelo://app?vid=6f8510cb-e3c3-422b-8a9e-e94f7e59a282"},"vehicle_type_id":"4","last_reported":1753504133,"current_range_meters":6400,"station_id":"ce4bhnp2rcd13ifvqgvg","pricing_plan_id":"cebpf4jnsgd1na2vs0mg"},{"bike_id":"9b65ff34-eaf1-48b9-b780-7b72a753f296","system_id":"levelo_inurba_marseille","lat":43.27892,"lon":5.396,"is_reserved":false,"is_disabled":false,"rental_uris":{"android":"levelo://app?vid=9b65ff34-eaf1-48b9-b780-7b72a753f296","ios":"levelo://app?vid=9b65ff34-eaf1-48b9-b780-7b72a753f296"},"vehicle_type_id":"4","last_reported":1753504133,"current_range_meters":6400,"station_id":"ce4bhf92rcd13ifvqf40","pricing_plan_id":"cebpf4jnsgd1na2vs0mg"},{"bike_id":"32d52630-1e54-45af-aea4-c6b28761e93e","system_id":"levelo_inurba_marseille","lat":43.26491,"lon":5.39556,"is_reserved":false,"is_disabled":false,"rental_uris":{"android":"levelo://app?vid=32d52630-1e54-45af-aea4-c6b28761e93e","ios":"levelo://app?vid=32d52630-1e54-45af-aea4-c6b28761e93e"},"vehicle_type_id":"4","last_reported":1753504133,"current_range_meters":6400,"station_id":"ce4bhi12rcd13ifvqfq0","pricing_plan_id":"cebpf4jnsgd1na2vs0mg"},{"bike_id":"532bfd20-ded9-455a-bd78-ae5a649a80b8","system_id":"levelo_inurba_marseille","lat":43.30807,"lon":5.38148,"is_reserved":false,"is_disabled":false,"rental_uris":{"android":"levelo://app?vid=532bfd20-ded9-455a-bd78-ae5a649a80b8","ios":"levelo://app?vid=532bfd20-ded9-455a-bd78-ae5a649a80b8"},"vehicle_type_id":"4","last_reported":1753504133,"current_range_meters":6800,"station_id":"ce4bgt12rcd13ifvqce0","pricing_plan_id":"cebpf4jnsgd1na2vs0mg"},{"bike_id":"0be2000e-484d-40a5-ab90-20e70822582a","system_id":"levelo_inurba_marseille","lat":43.29095,"lon":5.38148,"is_reserved":false,"is_disabled":false,"rental_uris":{"android":"levelo://app?vid=0be2000e-484d-40a5-ab90-20e70822582a","ios":"levelo://app?vid=0be2000e-484d-40a5-ab90-20e70822582a"},"vehicle_type_id":"4","last_reported":1753504133,"current_range_meters":6400,"station_id":"ce4bh512rcd13ifvqe2g","pricing_plan_id":"cebpf4jnsgd1na2vs0mg"},{"bike_id":"f28d2bb9-4217-4196-a573-ba6f4c172497","system_id":"levelo_inurba_marseille","lat":43.281596,"lon":5.361026,"is_reserved":false,"is_disabled":false,"rental_uris":{"android":"levelo://app?vid=f28d2bb9-4217-4196-a573-ba6f4c172497","ios":"levelo://app?vid=f28d2bb9-4217-4196-a573-ba6f4c172497"},"vehicle_type_id":"4","last_reported":1753504133,"current_range_meters":6800,"station_id":"","pricing_plan_id":"cebpf4jnsgd1na2vs0mg"},{"bike_id":"c341a747-ec18-47bc-8512-a86a147bb06f","system_id":"levelo_inurba_marseille","lat":43.287237,"lon":5.399939,"is_reserved":false,"is_disabled":false,"rental_uris":{"android":"levelo://app?vid=c341a747-ec18-47bc-8512-a86a147bb06f","ios":"levelo://app?vid=c341a747-ec18-47bc-8512-a86a147bb06f"},"vehicle_type_id":"4","last_reported":1753504133,"current_range_meters":6800,"station_id":"ce4bhbh2rcd13ifvqeo0","pricing_plan_id":"cebpf4jnsgd1na2vs0mg"},{"bike_id":"882618bf-6e93-4d61-a549-27a6fac31a49","system_id":"levelo_inurba_marseille","lat":43.2848,"lon":5.3843,"is_reserved":false,"is_disabled":false,"rental_uris":{"android":"levelo://app?vid=882618bf-6e93-4d61-a549-27a6fac31a49","ios":"levelo://app?vid=882618bf-6e93-4d61-a549-27a6fac31a49"},"vehicle_type_id":"4","last_reported":1753504133,"current_range_meters":6800,"station_id":"ce4bh512rcd13ifvqe3g","pricing_plan_id":"cebpf4jnsgd1na2vs0mg"},{"bike_id":"d5da345a-9f27-400d-8169-ec6f536378ae","system_id":"levelo_inurba_marseille","lat":43.25504,"lon":5.37644,"is_reserved":false,"is_disabled":false,"rental_uris":{"android":"levelo://app?vid=d5da345a-9f27-400d-8169-ec6f536378ae","ios":"levelo://app?vid=d5da345a-9f27-400d-8169-ec6f536378ae"},"vehicle_type_id":"4","last_reported":1753504133,"current_range_meters":6800,"station_id":"ce4bhh12rcd13ifvqff0","pricing_plan_id":"cebpf4jnsgd1na2vs0mg"},{"bike_id":"af349ca7-ea45-412f-8621-9acfba41ae25","system_id":"levelo_inurba_marseille","lat":43.28717,"lon":5.39993,"is_reserved":false,"is_disabled":false,"rental_uris":{"android":"levelo://app?vid=af349ca7-ea45-412f-8621-9acfba41ae25","ios":"levelo://app?vid=af349ca7-ea45-412f-8621-9acfba41ae25"},"vehicle_type_id":"4","last_reported":1753504133,"current_range_meters":7200,"station_id":"ce4bho92rcd13ifvqh3g","pricing_plan_id":"cebpf4jnsgd1na2vs0mg"},{"bike_id":"04aa5f40-dcf4-48c8-b153-089426eae692","system_id":"levelo_inurba_marseille","lat":43.30143,"lon":5.398459,"is_reserved":false,"is_disabled":false,"rental_uris":{"android":"levelo://app?vid=04aa5f40-dcf4-48c8-b153-089426eae692","ios":"levelo://app?vid=04aa5f40-dcf4-48c8-b153-089426eae692"},"vehicle_type_id":"4","last_reported":1753504133,"current_range_meters":7200,"station_id":"ce4bh0h2rcd13ifvqd40","pricing_plan_id":"cebpf4jnsgd1na2vs0mg"},{"bike_id":"f01f1a20-5185-42d2-84c2-b3481238cb08","system_id":"levelo_inurba_marseille","lat":43.305778,"lon":5.372611,"is_reserved":false,"is_disabled":false,"rental_uris":{"android":"levelo://app?vid=f01f1a20-5185-42d2-84c2-b3481238cb08","ios":"levelo://app?vid=f01f1a20-5185-42d2-84c2-b3481238cb08"},"vehicle_type_id":"4","last_reported":1753504133,"current_range_meters":7200,"station_id":"ce4bgqh2rcd13ifvqc4g","pricing_plan_id":"cebpf4jnsgd1na2vs0mg"},{"bike_id":"4c031d5d-a330-4c62-a1b0-aa7e93bb7a9a","system_id":"levelo_inurba_marseille","lat":43.2922,"lon":5.40029,"is_reserved":false,"is_disabled":false,"rental_uris":{"android":"levelo://app?vid=4c031d5d-a330-4c62-a1b0-aa7e93bb7a9a","ios":"levelo://app?vid=4c031d5d-a330-4c62-a1b0-aa7e93bb7a9a"},"vehicle_type_id":"4","last_reported":1753504133,"current_range_meters":8000,"station_id":"","pricing_plan_id":"cebpf4jnsgd1na2vs0mg"},{"bike_id":"5b94eff9-2e0f-4c0e-b3f6-ab7ca2eca31a","system_id":"levelo_inurba_marseille","lat":43.273743,"lon":5.362508,"is_reserved":false,"is_disabled":true,"rental_uris":{"android":"levelo://app?vid=5b94eff9-2e0f-4c0e-b3f6-ab7ca2eca31a","ios":"levelo://app?vid=5b94eff9-2e0f-4c0e-b3f6-ab7ca2eca31a"},"vehicle_type_id":"4","last_reported":1753504133,"current_range_meters":8000,"station_id":"ce4bhbh2rcd13ifvqeo0","pricing_plan_id":"cebpf4jnsgd1na2vs0mg"},{"bike_id":"b213d83d-cd34-418c-924c-1a8970fdd817","system_id":"levelo_inurba_marseille","lat":43.30134,"lon":5.37408,"is_reserved":false,"is_disabled":true,"rental_uris":{"android":"levelo://app?vid=b213d83d-cd34-418c-924c-1a8970fdd817","ios":"levelo://app?vid=b213d83d-cd34-418c-924c-1a8970fdd817"},"vehicle_type_id":"4","last_reported":1753504133,"current_range_meters":8000,"station_id":"ce4bgs92rcd13ifvqcc0","pricing_plan_id":"cebpf4jnsgd1na2vs0mg"},{"bike_id":"a1676a90-aeae-4e28-8472-3e88e730a66f","system_id":"levelo_inurba_marseille","lat":43.290568,"lon":5.439603,"is_reserved":false,"is_disabled":false,"rental_uris":{"android":"levelo://app?vid=a1676a90-aeae-4e28-8472-3e88e730a66f","ios":"levelo://app?vid=a1676a90-aeae-4e28-8472-3e88e730a66f"},"vehicle_type_id":"4","last_reported":1753504133,"current_range_meters":8400,"station_id":"","pricing_plan_id":"cebpf4jnsgd1na2vs0mg"},{"bike_id":"79731e34-e0c5-4fad-be4c-a79fac89bc09","system_id":"levelo_inurba_marseille","lat":43.286943,"lon":5.386624,"is_reserved":false,"is_disabled":true,"rental_uris":{"android":"levelo://app?vid=79731e34-e0c5-4fad-be4c-a79fac89bc09","ios":"levelo://app?vid=79731e34-e0c5-4fad-be4c-a79fac89bc09"},"vehicle_type_id":"4","last_reported":1753504133,"current_range_meters":8400,"station_id":"ce4bh492rcd13ifvqdug","pricing_plan_id":"cebpf4jnsgd1na2vs0mg"},{"bike_id":"ab18ad8f-5eb3-4500-abe1-f62e948a9104","system_id":"levelo_inurba_marseille","lat":43.22511,"lon":5.34767,"is_reserved":false,"is_disabled":false,"rental_uris":{"android":"levelo://app?vid=ab18ad8f-5eb3-4500-abe1-f62e948a9104","ios":"levelo://app?vid=ab18ad8f-5eb3-4500-abe1-f62e948a9104"},"vehicle_type_id":"4","last_reported":1753504133,"current_range_meters":8400,"station_id":"st_cvj5dfep6f1abm77gieg","pricing_plan_id":"cebpf4jnsgd1na2vs0mg"},{"bike_id":"7d09ca65-31b4-4f39-8e17-9dd292a03570","system_id":"levelo_inurba_marseille","lat":43.28356,"lon":5.38123,"is_reserved":false,"is_disabled":false,"rental_uris":{"android":"levelo://app?vid=7d09ca65-31b4-4f39-8e17-9dd292a03570","ios":"levelo://app?vid=7d09ca65-31b4-4f39-8e17-9dd292a03570"},"vehicle_type_id":"4","last_reported":1753504133,"current_range_meters":8400,"station_id":"ce4bh412rcd13ifvqdr0","pricing_plan_id":"cebpf4jnsgd1na2vs0mg"},{"bike_id":"f7623b57-5f88-4ef7-8535-1d8b44f90d27","system_id":"levelo_inurba_marseille","lat":43.22495,"lon":5.34776,"is_reserved":false,"is_disabled":false,"rental_uris":{"android":"levelo://app?vid=f7623b57-5f88-4ef7-8535-1d8b44f90d27","ios":"levelo://app?vid=f7623b57-5f88-4ef7-8535-1d8b44f90d27"},"vehicle_type_id":"4","last_reported":1753504133,"current_range_meters":8400,"station_id":"","pricing_plan_id":"cebpf4jnsgd1na2vs0mg"},{"bike_id":"ff30a5ee-0e9d-4bfa-a593-c7beaf9df463","system_id":"levelo_inurba_marseille","lat":43.335333,"lon":5.362141,"is_reserved":false,"is_disabled":false,"rental_uris":{"android":"levelo://app?vid=ff30a5ee-0e9d-4bfa-a593-c7beaf9df463","ios":"levelo://app?vid=ff30a5ee-0e9d-4bfa-a593-c7beaf9df463"},"vehicle_type_id":"4","last_reported":1753504133,"current_range_meters":8400,"station_id":"","pricing_plan_id":"cebpf4jnsgd1na2vs0mg"},{"bike_id":"ac7f3c2f-452c-4620-beb4-96f9c8da3434","system_id":"levelo_inurba_marseille","lat":43.306049,"lon":5.384998,"is_reserved":false,"is_disabled":false,"rental_uris":{"android":"levelo://app?vid=ac7f3c2f-452c-4620-beb4-96f9c8da3434","ios":"levelo://app?vid=ac7f3c2f-452c-4620-beb4-96f9c8da3434"},"vehicle_type_id":"4","last_reported":1753504133,"current_range_meters":8400,"station_id":"","pricing_plan_id":"cebpf4jnsgd1na2vs0mg"},{"bike_id":"c332dd65-e309-4522-9e19-3f557a659a6f","system_id":"levelo_inurba_marseille","lat":43.30298,"lon":5.39052,"is_reserved":false,"is_disabled":false,"rental_uris":{"android":"levelo://app?vid=c332dd65-e309-4522-9e19-3f557a659a6f","ios":"levelo://app?vid=c332dd65-e309-4522-9e19-3f557a659a6f"},"vehicle_type_id":"4","last_reported":1753504133,"current_range_meters":8400,"station_id":"","pricing_plan_id":"cebpf4jnsgd1na2vs0mg"},{"bike_id":"282bf4fa-8dd0-4bb6-bfb4-61e17c78e838","system_id":"levelo_inurba_marseille","lat":43.30246,"lon":5.40077,"is_reserved":false,"is_disabled":false,"rental_uris":{"android":"levelo://app?vid=282bf4fa-8dd0-4bb6-bfb4-61e17c78e838","ios":"levelo://app?vid=282bf4fa-8dd0-4bb6-bfb4-61e17c78e838"},"vehicle_type_id":"4","last_reported":1753504133,"current_range_meters":8400,"station_id":"ce4bgvh2rcd13ifvqcs0","pricing_plan_id":"cebpf4jnsgd1na2vs0mg"},{"bike_id":"465cf7cf-a03a-47ab-abe6-8f43755a449b","system_id":"levelo_inurba_marseille","lat":43.28845,"lon":5.3933,"is_reserved":false,"is_disabled":false,"rental_uris":{"android":"levelo://app?vid=465cf7cf-a03a-47ab-abe6-8f43755a449b","ios":"levelo://app?vid=465cf7cf-a03a-47ab-abe6-8f43755a449b"},"vehicle_type_id":"4","last_reported":1753504133,"current_range_meters":8400,"station_id":"ce4bh2p2rcd13ifvqdi0","pricing_plan_id":"cebpf4jnsgd1na2vs0mg"},{"bike_id":"89dcea3a-f7f7-44b2-9d2c-a3300861829d","system_id":"levelo_inurba_marseille","lat":43.27843,"lon":5.39741,"is_reserved":false,"is_disabled":false,"rental_uris":{"android":"levelo://app?vid=89dcea3a-f7f7-44b2-9d2c-a3300861829d","ios":"levelo://app?vid=89dcea3a-f7f7-44b2-9d2c-a3300861829d"},"vehicle_type_id":"4","last_reported":1753504133,"current_range_meters":8400,"station_id":"","pricing_plan_id":"cebpf4jnsgd1na2vs0mg"},{"bike_id":"3d93678c-a81c-4620-984f-403438ac187e","system_id":"levelo_inurba_marseille","lat":43.27914,"lon":5.42774,"is_reserved":false,"is_disabled":false,"rental_uris":{"android":"levelo://app?vid=3d93678c-a81c-4620-984f-403438ac187e","ios":"levelo://app?vid=3d93678c-a81c-4620-984f-403438ac187e"},"vehicle_type_id":"4","last_reported":1753504133,"current_range_meters":8400,"station_id":"","pricing_plan_id":"cebpf4jnsgd1na2vs0mg"},{"bike_id":"22a390ae-8984-4017-8fa8-3175df5e7f16","system_id":"levelo_inurba_marseille","lat":43.302601,"lon":5.40075,"is_reserved":false,"is_disabled":false,"rental_uris":{"android":"levelo://app?vid=22a390ae-8984-4017-8fa8-3175df5e7f16","ios":"levelo://app?vid=22a390ae-8984-4017-8fa8-3175df5e7f16"},"vehicle_type_id":"4","last_reported":1753504133,"current_range_meters":8400,"station_id":"ce4bgvh2rcd13ifvqcs0","pricing_plan_id":"cebpf4jnsgd1na2vs0mg"},{"bike_id":"6bb2ef45-92d7-483c-9633-db7367ddc00d","system_id":"levelo_inurba_marseille","lat":43.302595,"lon":5.400551,"is_reserved":false,"is_disabled":false,"rental_uris":{"android":"levelo://app?vid=6bb2ef45-92d7-483c-9633-db7367ddc00d","ios":"levelo://app?vid=6bb2ef45-92d7-483c-9633-db7367ddc00d"},"vehicle_type_id":"4","last_reported":1753504133,"current_range_meters":8400,"station_id":"ce4bgvh2rcd13ifvqcs0","pricing_plan_id":"cebpf4jnsgd1na2vs0mg"},{"bike_id":"5e996369-86ae-4816-8750-239b0e998170","system_id":"levelo_inurba_marseille","lat":43.21774,"lon":5.34622,"is_reserved":false,"is_disabled":false,"rental_uris":{"android":"levelo://app?vid=5e996369-86ae-4816-8750-239b0e998170","ios":"levelo://app?vid=5e996369-86ae-4816-8750-239b0e998170"},"vehicle_type_id":"4","last_reported":1753504133,"current_range_meters":8800,"station_id":"st_cvj6r9ubvosntc0bgbag","pricing_plan_id":"cebpf4jnsgd1na2vs0mg"},{"bike_id":"2cb156e7-0dd6-4356-8f3a-8a5ea9426834","system_id":"levelo_inurba_marseille","lat":43.28724,"lon":5.37945,"is_reserved":false,"is_disabled":false,"rental_uris":{"android":"levelo://app?vid=2cb156e7-0dd6-4356-8f3a-8a5ea9426834","ios":"levelo://app?vid=2cb156e7-0dd6-4356-8f3a-8a5ea9426834"},"vehicle_type_id":"4","last_reported":1753504133,"current_range_meters":8800,"station_id":"ce4bh9p2rcd13ifvqec0","pricing_plan_id":"cebpf4jnsgd1na2vs0mg"},{"bike_id":"1c31f24b-2b9e-48c3-b103-bffd32b92420","system_id":"levelo_inurba_marseille","lat":43.335166,"lon":5.408555,"is_reserved":false,"is_disabled":false,"rental_uris":{"android":"levelo://app?vid=1c31f24b-2b9e-48c3-b103-bffd32b92420","ios":"levelo://app?vid=1c31f24b-2b9e-48c3-b103-bffd32b92420"},"vehicle_type_id":"4","last_reported":1753504133,"current_range_meters":8800,"station_id":"","pricing_plan_id":"cebpf4jnsgd1na2vs0mg"},{"bike_id":"b8894c22-2090-4ae8-81cc-12a255a42e3d","system_id":"levelo_inurba_marseille","lat":43.29687,"lon":5.38736,"is_reserved":false,"is_disabled":true,"rental_uris":{"android":"levelo://app?vid=b8894c22-2090-4ae8-81cc-12a255a42e3d","ios":"levelo://app?vid=b8894c22-2090-4ae8-81cc-12a255a42e3d"},"vehicle_type_id":"4","last_reported":1753504133,"current_range_meters":8800,"station_id":"","pricing_plan_id":"cebpf4jnsgd1na2vs0mg"},{"bike_id":"177981dd-3c05-4e3c-9a69-f569b35b5310","system_id":"levelo_inurba_marseille","lat":43.24557,"lon":5.39538,"is_reserved":false,"is_disabled":false,"rental_uris":{"android":"levelo://app?vid=177981dd-3c05-4e3c-9a69-f569b35b5310","ios":"levelo://app?vid=177981dd-3c05-4e3c-9a69-f569b35b5310"},"vehicle_type_id":"4","last_reported":1753504133,"current_range_meters":9200,"station_id":"ce4bhlp2rcd13ifvqgjg","pricing_plan_id":"cebpf4jnsgd1na2vs0mg"},{"bike_id":"0939eecf-ab8e-4e0f-8dde-ab5f40cfd3cc","system_id":"levelo_inurba_marseille","lat":43.28432,"lon":5.35026,"is_reserved":false,"is_disabled":true,"rental_uris":{"android":"levelo://app?vid=0939eecf-ab8e-4e0f-8dde-ab5f40cfd3cc","ios":"levelo://app?vid=0939eecf-ab8e-4e0f-8dde-ab5f40cfd3cc"},"vehicle_type_id":"4","last_reported":1753504133,"current_range_meters":9200,"station_id":"ce4bhbh2rcd13ifvqepg","pricing_plan_id":"cebpf4jnsgd1na2vs0mg"},{"bike_id":"aaa7d90c-012f-420d-9152-0a715716be6c","system_id":"levelo_inurba_marseille","lat":43.29261,"lon":5.38441,"is_reserved":false,"is_disabled":false,"rental_uris":{"android":"levelo://app?vid=aaa7d90c-012f-420d-9152-0a715716be6c","ios":"levelo://app?vid=aaa7d90c-012f-420d-9152-0a715716be6c"},"vehicle_type_id":"4","last_reported":1753504133,"current_range_meters":9200,"station_id":"ce4bh692rcd13ifvqea0","pricing_plan_id":"cebpf4jnsgd1na2vs0mg"},{"bike_id":"a2ccbf76-8c1a-4aef-814f-db130f867270","system_id":"levelo_inurba_marseille","lat":43.30957,"lon":5.37372,"is_reserved":false,"is_disabled":false,"rental_uris":{"android":"levelo://app?vid=a2ccbf76-8c1a-4aef-814f-db130f867270","ios":"levelo://app?vid=a2ccbf76-8c1a-4aef-814f-db130f867270"},"vehicle_type_id":"4","last_reported":1753504133,"current_range_meters":9200,"station_id":"","pricing_plan_id":"cebpf4jnsgd1na2vs0mg"},{"bike_id":"33f59fb6-bb4f-48aa-be9f-917c2f3b92be","system_id":"levelo_inurba_marseille","lat":43.29278,"lon":5.40119,"is_reserved":false,"is_disabled":false,"rental_uris":{"android":"levelo://app?vid=33f59fb6-bb4f-48aa-be9f-917c2f3b92be","ios":"levelo://app?vid=33f59fb6-bb4f-48aa-be9f-917c2f3b92be"},"vehicle_type_id":"4","last_reported":1753504133,"current_range_meters":8800,"station_id":"ce4bh312rcd13ifvqdk0","pricing_plan_id":"cebpf4jnsgd1na2vs0mg"},{"bike_id":"181c867f-2cf6-466e-96ee-413d90ec73e7","system_id":"levelo_inurba_marseille","lat":43.298,"lon":5.39357,"is_reserved":false,"is_disabled":false,"rental_uris":{"android":"levelo://app?vid=181c867f-2cf6-466e-96ee-413d90ec73e7","ios":"levelo://app?vid=181c867f-2cf6-466e-96ee-413d90ec73e7"},"vehicle_type_id":"4","last_reported":1753504133,"current_range_meters":8800,"station_id":"chh1huq6cuj3fo74tm60","pricing_plan_id":"cebpf4jnsgd1na2vs0mg"},{"bike_id":"c8dc9712-a045-4d70-989b-83ececa57361","system_id":"levelo_inurba_marseille","lat":43.28469,"lon":5.38425,"is_reserved":false,"is_disabled":false,"rental_uris":{"android":"levelo://app?vid=c8dc9712-a045-4d70-989b-83ececa57361","ios":"levelo://app?vid=c8dc9712-a045-4d70-989b-83ececa57361"},"vehicle_type_id":"4","last_reported":1753504133,"current_range_meters":9600,"station_id":"ce4bh512rcd13ifvqe3g","pricing_plan_id":"cebpf4jnsgd1na2vs0mg"},{"bike_id":"903350dd-ee3e-4369-8601-96805ce0d468","system_id":"levelo_inurba_marseille","lat":43.30962,"lon":5.38998,"is_reserved":false,"is_disabled":true,"rental_uris":{"android":"levelo://app?vid=903350dd-ee3e-4369-8601-96805ce0d468","ios":"levelo://app?vid=903350dd-ee3e-4369-8601-96805ce0d468"},"vehicle_type_id":"4","last_reported":1753504133,"current_range_meters":9600,"station_id":"ce4bgup2rcd13ifvqco0","pricing_plan_id":"cebpf4jnsgd1na2vs0mg"},{"bike_id":"3de4c8b4-a250-4819-8f42-2ecf8c45b170","system_id":"levelo_inurba_marseille","lat":43.29876,"lon":5.3975,"is_reserved":false,"is_disabled":false,"rental_uris":{"android":"levelo://app?vid=3de4c8b4-a250-4819-8f42-2ecf8c45b170","ios":"levelo://app?vid=3de4c8b4-a250-4819-8f42-2ecf8c45b170"},"vehicle_type_id":"4","last_reported":1753504133,"current_range_meters":9600,"station_id":"ce4bh0h2rcd13ifvqd50","pricing_plan_id":"cebpf4jnsgd1na2vs0mg"},{"bike_id":"f844a339-7d37-4629-b9b3-2ab886c95711","system_id":"levelo_inurba_marseille","lat":43.25888,"lon":5.39893,"is_reserved":false,"is_disabled":true,"rental_uris":{"android":"levelo://app?vid=f844a339-7d37-4629-b9b3-2ab886c95711","ios":"levelo://app?vid=f844a339-7d37-4629-b9b3-2ab886c95711"},"vehicle_type_id":"4","last_reported":1753504133,"current_range_meters":9600,"station_id":"ce4bhl92rcd13ifvqghg","pricing_plan_id":"cebpf4jnsgd1na2vs0mg"},{"bike_id":"96539dd0-0f96-4ac5-b9b3-14b233b89122","system_id":"levelo_inurba_marseille","lat":43.28699,"lon":5.39974,"is_reserved":false,"is_disabled":false,"rental_uris":{"android":"levelo://app?vid=96539dd0-0f96-4ac5-b9b3-14b233b89122","ios":"levelo://app?vid=96539dd0-0f96-4ac5-b9b3-14b233b89122"},"vehicle_type_id":"4","last_reported":1753504133,"current_range_meters":9600,"station_id":"ce4bho92rcd13ifvqh3g","pricing_plan_id":"cebpf4jnsgd1na2vs0mg"},{"bike_id":"c33ca5fe-1b5e-4a19-9aa5-840ad46394e0","system_id":"levelo_inurba_marseille","lat":43.29776,"lon":5.37665,"is_reserved":false,"is_disabled":true,"rental_uris":{"android":"levelo://app?vid=c33ca5fe-1b5e-4a19-9aa5-840ad46394e0","ios":"levelo://app?vid=c33ca5fe-1b5e-4a19-9aa5-840ad46394e0"},"vehicle_type_id":"4","last_reported":1753504133,"current_range_meters":9600,"station_id":"","pricing_plan_id":"cebpf4jnsgd1na2vs0mg"},{"bike_id":"2e791062-9e6a-4a1a-9c40-edf913003214","system_id":"levelo_inurba_marseille","lat":43.3235,"lon":5.40605,"is_reserved":false,"is_disabled":false,"rental_uris":{"android":"levelo://app?vid=2e791062-9e6a-4a1a-9c40-edf913003214","ios":"levelo://app?vid=2e791062-9e6a-4a1a-9c40-edf913003214"},"vehicle_type_id":"4","last_reported":1753504133,"current_range_meters":9600,"station_id":"ce4bhq92rcd13ifvqhjg","pricing_plan_id":"cebpf4jnsgd1na2vs0mg"},{"bike_id":"42a7a101-e954-4b8b-8b86-efa062ed6271","system_id":"levelo_inurba_marseille","lat":43.2957,"lon":5.37513,"is_reserved":false,"is_disabled":false,"rental_uris":{"android":"levelo://app?vid=42a7a101-e954-4b8b-8b86-efa062ed6271","ios":"levelo://app?vid=42a7a101-e954-4b8b-8b86-efa062ed6271"},"vehicle_type_id":"4","last_reported":1753504133,"current_range_meters":9600,"station_id":"ce4bgh92rcd13ifvqb50","pricing_plan_id":"cebpf4jnsgd1na2vs0mg"},{"bike_id":"04d6cdd5-5582-46ca-8f5a-f546962f07c6","system_id":"levelo_inurba_marseille","lat":43.28888,"lon":5.37873,"is_reserved":false,"is_disabled":false,"rental_uris":{"android":"levelo://app?vid=04d6cdd5-5582-46ca-8f5a-f546962f07c6","ios":"levelo://app?vid=04d6cdd5-5582-46ca-8f5a-f546962f07c6"},"vehicle_type_id":"4","last_reported":1753504133,"current_range_meters":9600,"station_id":"","pricing_plan_id":"cebpf4jnsgd1na2vs0mg"},{"bike_id":"35ee41ab-1155-4c5d-a3ff-d1e05b86be8c","system_id":"levelo_inurba_marseille","lat":43.31071,"lon":5.40123,"is_reserved":false,"is_disabled":true,"rental_uris":{"android":"levelo://app?vid=35ee41ab-1155-4c5d-a3ff-d1e05b86be8c","ios":"levelo://app?vid=35ee41ab-1155-4c5d-a3ff-d1e05b86be8c"},"vehicle_type_id":"4","last_reported":1753504133,"current_range_meters":9600,"station_id":"","pricing_plan_id":"cebpf4jnsgd1na2vs0mg"},{"bike_id":"b2cc7982-94ac-4767-b2a5-77de937348d8","system_id":"levelo_inurba_marseille","lat":43.27611,"lon":5.360965,"is_reserved":false,"is_disabled":false,"rental_uris":{"android":"levelo://app?vid=b2cc7982-94ac-4767-b2a5-77de937348d8","ios":"levelo://app?vid=b2cc7982-94ac-4767-b2a5-77de937348d8"},"vehicle_type_id":"4","last_reported":1753504133,"current_range_meters":10000,"station_id":"ce4bgj92rcd13ifvqbe0","pricing_plan_id":"cebpf4jnsgd1na2vs0mg"},{"bike_id":"40ebbf11-e969-4340-a336-815ea371ac5e","system_id":"levelo_inurba_marseille","lat":43.28682,"lon":5.38667,"is_reserved":false,"is_disabled":false,"rental_uris":{"android":"levelo://app?vid=40ebbf11-e969-4340-a336-815ea371ac5e","ios":"levelo://app?vid=40ebbf11-e969-4340-a336-815ea371ac5e"},"vehicle_type_id":"4","last_reported":1753504133,"current_range_meters":10000,"station_id":"ce4bh492rcd13ifvqdug","pricing_plan_id":"cebpf4jnsgd1na2vs0mg"},{"bike_id":"5ab7798c-0e5a-445a-baf5-2e9bea2306a1","system_id":"levelo_inurba_marseille","lat":43.29285,"lon":5.401,"is_reserved":false,"is_disabled":false,"rental_uris":{"android":"levelo://app?vid=5ab7798c-0e5a-445a-baf5-2e9bea2306a1","ios":"levelo://app?vid=5ab7798c-0e5a-445a-baf5-2e9bea2306a1"},"vehicle_type_id":"4","last_reported":1753504133,"current_range_meters":10000,"station_id":"ce4bh312rcd13ifvqdk0","pricing_plan_id":"cebpf4jnsgd1na2vs0mg"},{"bike_id":"2e8e7fa4-47bc-4567-b903-96abfb4fdf66","system_id":"levelo_inurba_marseille","lat":43.292667,"lon":5.446019,"is_reserved":false,"is_disabled":false,"rental_uris":{"android":"levelo://app?vid=2e8e7fa4-47bc-4567-b903-96abfb4fdf66","ios":"levelo://app?vid=2e8e7fa4-47bc-4567-b903-96abfb4fdf66"},"vehicle_type_id":"4","last_reported":1753504133,"current_range_meters":10000,"station_id":"","pricing_plan_id":"cebpf4jnsgd1na2vs0mg"},{"bike_id":"490fd0a3-3ae2-4135-acff-5c94025f5f04","system_id":"levelo_inurba_marseille","lat":43.27908,"lon":5.39582,"is_reserved":false,"is_disabled":true,"rental_uris":{"android":"levelo://app?vid=490fd0a3-3ae2-4135-acff-5c94025f5f04","ios":"levelo://app?vid=490fd0a3-3ae2-4135-acff-5c94025f5f04"},"vehicle_type_id":"4","last_reported":1753504133,"current_range_meters":10000,"station_id":"ce4bhf92rcd13ifvqf40","pricing_plan_id":"cebpf4jnsgd1na2vs0mg"},{"bike_id":"c017b4de-074c-46ed-bc0a-5b7912813135","system_id":"levelo_inurba_marseille","lat":43.261,"lon":5.37252,"is_reserved":false,"is_disabled":false,"rental_uris":{"android":"levelo://app?vid=c017b4de-074c-46ed-bc0a-5b7912813135","ios":"levelo://app?vid=c017b4de-074c-46ed-bc0a-5b7912813135"},"vehicle_type_id":"4","last_reported":1753504133,"current_range_meters":10000,"station_id":"","pricing_plan_id":"cebpf4jnsgd1na2vs0mg"},{"bike_id":"6755382c-76dd-4587-baf5-a4b43a86610a","system_id":"levelo_inurba_marseille","lat":43.240805,"lon":5.377444,"is_reserved":false,"is_disabled":false,"rental_uris":{"android":"levelo://app?vid=6755382c-76dd-4587-baf5-a4b43a86610a","ios":"levelo://app?vid=6755382c-76dd-4587-baf5-a4b43a86610a"},"vehicle_type_id":"4","last_reported":1753504133,"current_range_meters":10000,"station_id":"ce4bhnp2rcd13ifvqgvg","pricing_plan_id":"cebpf4jnsgd1na2vs0mg"},{"bike_id":"8cbb8f7f-9095-4ea2-b7c0-3cb05502a868","system_id":"levelo_inurba_marseille","lat":43.28888,"lon":5.37148,"is_reserved":false,"is_disabled":false,"rental_uris":{"android":"levelo://app?vid=8cbb8f7f-9095-4ea2-b7c0-3cb05502a868","ios":"levelo://app?vid=8cbb8f7f-9095-4ea2-b7c0-3cb05502a868"},"vehicle_type_id":"4","last_reported":1753504133,"current_range_meters":10000,"station_id":"","pricing_plan_id":"cebpf4jnsgd1na2vs0mg"},{"bike_id":"6d7b7962-42a6-41ee-b8ca-8e1faea3e7d8","system_id":"levelo_inurba_marseille","lat":43.29018,"lon":5.38154,"is_reserved":false,"is_disabled":false,"rental_uris":{"android":"levelo://app?vid=6d7b7962-42a6-41ee-b8ca-8e1faea3e7d8","ios":"levelo://app?vid=6d7b7962-42a6-41ee-b8ca-8e1faea3e7d8"},"vehicle_type_id":"4","last_reported":1753504133,"current_range_meters":10800,"station_id":"ce4bh4p2rcd13ifvqe1g","pricing_plan_id":"cebpf4jnsgd1na2vs0mg"},{"bike_id":"421db1c8-c66c-4175-82a7-0ee065df7ba2","system_id":"levelo_inurba_marseille","lat":43.27049,"lon":5.40247,"is_reserved":false,"is_disabled":false,"rental_uris":{"android":"levelo://app?vid=421db1c8-c66c-4175-82a7-0ee065df7ba2","ios":"levelo://app?vid=421db1c8-c66c-4175-82a7-0ee065df7ba2"},"vehicle_type_id":"4","last_reported":1753504133,"current_range_meters":10800,"station_id":"ce4bhk92rcd13ifvqgc0","pricing_plan_id":"cebpf4jnsgd1na2vs0mg"},{"bike_id":"d83c957c-7060-40bf-ba76-99af91d79f08","system_id":"levelo_inurba_marseille","lat":43.285749,"lon":5.394902,"is_reserved":false,"is_disabled":false,"rental_uris":{"android":"levelo://app?vid=d83c957c-7060-40bf-ba76-99af91d79f08","ios":"levelo://app?vid=d83c957c-7060-40bf-ba76-99af91d79f08"},"vehicle_type_id":"4","last_reported":1753504133,"current_range_meters":10800,"station_id":"ce4bh292rcd13ifvqdg0","pricing_plan_id":"cebpf4jnsgd1na2vs0mg"},{"bike_id":"5440a182-b760-4205-92c8-d9ab0a9c67c8","system_id":"levelo_inurba_marseille","lat":43.284281,"lon":5.349908,"is_reserved":false,"is_disabled":true,"rental_uris":{"android":"levelo://app?vid=5440a182-b760-4205-92c8-d9ab0a9c67c8","ios":"levelo://app?vid=5440a182-b760-4205-92c8-d9ab0a9c67c8"},"vehicle_type_id":"4","last_reported":1753504133,"current_range_meters":10800,"station_id":"ce4bhbh2rcd13ifvqepg","pricing_plan_id":"cebpf4jnsgd1na2vs0mg"},{"bike_id":"f1215a87-34bc-492a-af0e-45637cb2773e","system_id":"levelo_inurba_marseille","lat":43.29297,"lon":5.40913,"is_reserved":false,"is_disabled":false,"rental_uris":{"android":"levelo://app?vid=f1215a87-34bc-492a-af0e-45637cb2773e","ios":"levelo://app?vid=f1215a87-34bc-492a-af0e-45637cb2773e"},"vehicle_type_id":"4","last_reported":1753504133,"current_range_meters":10800,"station_id":"ce4bh192rcd13ifvqdc0","pricing_plan_id":"cebpf4jnsgd1na2vs0mg"},{"bike_id":"078febbd-6d49-4abf-8b46-d33f87f8da46","system_id":"levelo_inurba_marseille","lat":43.25452,"lon":5.38007,"is_reserved":false,"is_disabled":false,"rental_uris":{"android":"levelo://app?vid=078febbd-6d49-4abf-8b46-d33f87f8da46","ios":"levelo://app?vid=078febbd-6d49-4abf-8b46-d33f87f8da46"},"vehicle_type_id":"4","last_reported":1753504133,"current_range_meters":10800,"station_id":"","pricing_plan_id":"cebpf4jnsgd1na2vs0mg"},{"bike_id":"378521b9-2f88-49b6-9620-86cb628eab29","system_id":"levelo_inurba_marseille","lat":43.27174,"lon":5.40996,"is_reserved":false,"is_disabled":false,"rental_uris":{"android":"levelo://app?vid=378521b9-2f88-49b6-9620-86cb628eab29","ios":"levelo://app?vid=378521b9-2f88-49b6-9620-86cb628eab29"},"vehicle_type_id":"4","last_reported":1753504133,"current_range_meters":10800,"station_id":"ce4bhl12rcd13ifvqgf0","pricing_plan_id":"cebpf4jnsgd1na2vs0mg"},{"bike_id":"591fb768-7e78-4b54-88b5-e73a5af76b19","system_id":"levelo_inurba_marseille","lat":43.229233,"lon":5.353872,"is_reserved":false,"is_disabled":false,"rental_uris":{"android":"levelo://app?vid=591fb768-7e78-4b54-88b5-e73a5af76b19","ios":"levelo://app?vid=591fb768-7e78-4b54-88b5-e73a5af76b19"},"vehicle_type_id":"4","last_reported":1753504133,"current_range_meters":10800,"station_id":"cpo3532slgdg3j2ikp40","pricing_plan_id":"cebpf4jnsgd1na2vs0mg"},{"bike_id":"ccca3042-9358-40fc-ac03-e327e01c225f","system_id":"levelo_inurba_marseille","lat":43.23273,"lon":5.36097,"is_reserved":false,"is_disabled":false,"rental_uris":{"android":"levelo://app?vid=ccca3042-9358-40fc-ac03-e327e01c225f","ios":"levelo://app?vid=ccca3042-9358-40fc-ac03-e327e01c225f"},"vehicle_type_id":"4","last_reported":1753504133,"current_range_meters":10800,"station_id":"","pricing_plan_id":"cebpf4jnsgd1na2vs0mg"},{"bike_id":"14290dc3-0ecb-4c09-bf2e-6db4a8e35188","system_id":"levelo_inurba_marseille","lat":43.243966,"lon":5.370636,"is_reserved":false,"is_disabled":false,"rental_uris":{"android":"levelo://app?vid=14290dc3-0ecb-4c09-bf2e-6db4a8e35188","ios":"levelo://app?vid=14290dc3-0ecb-4c09-bf2e-6db4a8e35188"},"vehicle_type_id":"4","last_reported":1753504133,"current_range_meters":10800,"station_id":"ce4bhhh2rcd13ifvqfk0","pricing_plan_id":"cebpf4jnsgd1na2vs0mg"},{"bike_id":"79079a9a-8322-4f6c-a9e6-9aba90ee17ba","system_id":"levelo_inurba_marseille","lat":43.33728,"lon":5.37454,"is_reserved":false,"is_disabled":false,"rental_uris":{"android":"levelo://app?vid=79079a9a-8322-4f6c-a9e6-9aba90ee17ba","ios":"levelo://app?vid=79079a9a-8322-4f6c-a9e6-9aba90ee17ba"},"vehicle_type_id":"4","last_reported":1753504133,"current_range_meters":10800,"station_id":"","pricing_plan_id":"cebpf4jnsgd1na2vs0mg"},{"bike_id":"4e6e6044-20e5-44fc-87b5-2b41e2616d90","system_id":"levelo_inurba_marseille","lat":43.301506,"lon":5.398713,"is_reserved":false,"is_disabled":true,"rental_uris":{"android":"levelo://app?vid=4e6e6044-20e5-44fc-87b5-2b41e2616d90","ios":"levelo://app?vid=4e6e6044-20e5-44fc-87b5-2b41e2616d90"},"vehicle_type_id":"4","last_reported":1753504133,"current_range_meters":10800,"station_id":"ce4bh0h2rcd13ifvqd40","pricing_plan_id":"cebpf4jnsgd1na2vs0mg"},{"bike_id":"773b48d4-858e-46f9-8819-6029f415d049","system_id":"levelo_inurba_marseille","lat":43.312178,"lon":5.368601,"is_reserved":false,"is_disabled":true,"rental_uris":{"android":"levelo://app?vid=773b48d4-858e-46f9-8819-6029f415d049","ios":"levelo://app?vid=773b48d4-858e-46f9-8819-6029f415d049"},"vehicle_type_id":"4","last_reported":1753504133,"current_range_meters":11200,"station_id":"ce4bgl92rcd13ifvqbq0","pricing_plan_id":"cebpf4jnsgd1na2vs0mg"},{"bike_id":"4878cf6d-5d8c-46c7-9c7f-8504713d84db","system_id":"levelo_inurba_marseille","lat":43.31085,"lon":5.38341,"is_reserved":false,"is_disabled":false,"rental_uris":{"android":"levelo://app?vid=4878cf6d-5d8c-46c7-9c7f-8504713d84db","ios":"levelo://app?vid=4878cf6d-5d8c-46c7-9c7f-8504713d84db"},"vehicle_type_id":"4","last_reported":1753504133,"current_range_meters":11200,"station_id":"ce4bgv92rcd13ifvqcr0","pricing_plan_id":"cebpf4jnsgd1na2vs0mg"},{"bike_id":"080898b1-d9d2-40ed-bb41-b1a8dde1f5a9","system_id":"levelo_inurba_marseille","lat":43.28596,"lon":5.36762,"is_reserved":false,"is_disabled":false,"rental_uris":{"android":"levelo://app?vid=080898b1-d9d2-40ed-bb41-b1a8dde1f5a9","ios":"levelo://app?vid=080898b1-d9d2-40ed-bb41-b1a8dde1f5a9"},"vehicle_type_id":"4","last_reported":1753504133,"current_range_meters":11200,"station_id":"","pricing_plan_id":"cebpf4jnsgd1na2vs0mg"},{"bike_id":"a3fe9995-2e3e-423b-9540-429a92fa997e","system_id":"levelo_inurba_marseille","lat":43.301653,"lon":5.372346,"is_reserved":false,"is_disabled":false,"rental_uris":{"android":"levelo://app?vid=a3fe9995-2e3e-423b-9540-429a92fa997e","ios":"levelo://app?vid=a3fe9995-2e3e-423b-9540-429a92fa997e"},"vehicle_type_id":"4","last_reported":1753504133,"current_range_meters":11200,"station_id":"","pricing_plan_id":"cebpf4jnsgd1na2vs0mg"},{"bike_id":"33976e3d-53c0-4185-846b-4b84207e0d06","system_id":"levelo_inurba_marseille","lat":43.322825,"lon":5.382797,"is_reserved":false,"is_disabled":false,"rental_uris":{"android":"levelo://app?vid=33976e3d-53c0-4185-846b-4b84207e0d06","ios":"levelo://app?vid=33976e3d-53c0-4185-846b-4b84207e0d06"},"vehicle_type_id":"4","last_reported":1753504133,"current_range_meters":11200,"station_id":"ce4bhr12rcd13ifvqhqg","pricing_plan_id":"cebpf4jnsgd1na2vs0mg"},{"bike_id":"44dd49d0-ee46-43b9-9770-ee74a62ddcb7","system_id":"levelo_inurba_marseille","lat":43.310791,"lon":5.383512,"is_reserved":false,"is_disabled":false,"rental_uris":{"android":"levelo://app?vid=44dd49d0-ee46-43b9-9770-ee74a62ddcb7","ios":"levelo://app?vid=44dd49d0-ee46-43b9-9770-ee74a62ddcb7"},"vehicle_type_id":"4","last_reported":1753504133,"current_range_meters":11600,"station_id":"ce4bgv92rcd13ifvqcr0","pricing_plan_id":"cebpf4jnsgd1na2vs0mg"},{"bike_id":"bf5dc847-8618-43ac-89c5-509d432811df","system_id":"levelo_inurba_marseille","lat":43.28696,"lon":5.37409,"is_reserved":false,"is_disabled":false,"rental_uris":{"android":"levelo://app?vid=bf5dc847-8618-43ac-89c5-509d432811df","ios":"levelo://app?vid=bf5dc847-8618-43ac-89c5-509d432811df"},"vehicle_type_id":"4","last_reported":1753504133,"current_range_meters":11600,"station_id":"ce4bh3p2rcd13ifvqdq0","pricing_plan_id":"cebpf4jnsgd1na2vs0mg"},{"bike_id":"c54b8f05-7913-4da3-ae76-4264f55e6528","system_id":"levelo_inurba_marseille","lat":43.31357,"lon":5.384923,"is_reserved":false,"is_disabled":false,"rental_uris":{"android":"levelo://app?vid=c54b8f05-7913-4da3-ae76-4264f55e6528","ios":"levelo://app?vid=c54b8f05-7913-4da3-ae76-4264f55e6528"},"vehicle_type_id":"4","last_reported":1753504133,"current_range_meters":11600,"station_id":"ce4bgt92rcd13ifvqcf0","pricing_plan_id":"cebpf4jnsgd1na2vs0mg"},{"bike_id":"9bb32344-605b-44ea-aa2a-94e1b611494e","system_id":"levelo_inurba_marseille","lat":43.243918,"lon":5.370594,"is_reserved":false,"is_disabled":false,"rental_uris":{"android":"levelo://app?vid=9bb32344-605b-44ea-aa2a-94e1b611494e","ios":"levelo://app?vid=9bb32344-605b-44ea-aa2a-94e1b611494e"},"vehicle_type_id":"4","last_reported":1753504133,"current_range_meters":11600,"station_id":"ce4bhhh2rcd13ifvqfk0","pricing_plan_id":"cebpf4jnsgd1na2vs0mg"},{"bike_id":"25c3dd8d-76d3-45ee-b27b-1617d2cf7bdf","system_id":"levelo_inurba_marseille","lat":43.30866,"lon":5.3964,"is_reserved":false,"is_disabled":false,"rental_uris":{"android":"levelo://app?vid=25c3dd8d-76d3-45ee-b27b-1617d2cf7bdf","ios":"levelo://app?vid=25c3dd8d-76d3-45ee-b27b-1617d2cf7bdf"},"vehicle_type_id":"4","last_reported":1753504133,"current_range_meters":12000,"station_id":"ce4bh012rcd13ifvqcv0","pricing_plan_id":"cebpf4jnsgd1na2vs0mg"},{"bike_id":"02eb341a-2c80-41b7-af00-aee86e209066","system_id":"levelo_inurba_marseille","lat":43.308069,"lon":5.381691,"is_reserved":false,"is_disabled":false,"rental_uris":{"android":"levelo://app?vid=02eb341a-2c80-41b7-af00-aee86e209066","ios":"levelo://app?vid=02eb341a-2c80-41b7-af00-aee86e209066"},"vehicle_type_id":"4","last_reported":1753504133,"current_range_meters":12000,"station_id":"ce4bgt12rcd13ifvqce0","pricing_plan_id":"cebpf4jnsgd1na2vs0mg"},{"bike_id":"43cf4049-15dd-4e8c-88a8-61cd8dc10bf5","system_id":"levelo_inurba_marseille","lat":43.33246,"lon":5.379105,"is_reserved":false,"is_disabled":false,"rental_uris":{"android":"levelo://app?vid=43cf4049-15dd-4e8c-88a8-61cd8dc10bf5","ios":"levelo://app?vid=43cf4049-15dd-4e8c-88a8-61cd8dc10bf5"},"vehicle_type_id":"4","last_reported":1753504133,"current_range_meters":12000,"station_id":"","pricing_plan_id":"cebpf4jnsgd1na2vs0mg"},{"bike_id":"eeeb9218-8042-4cbd-95a4-0834de564d28","system_id":"levelo_inurba_marseille","lat":43.217391,"lon":5.346191,"is_reserved":false,"is_disabled":true,"rental_uris":{"android":"levelo://app?vid=eeeb9218-8042-4cbd-95a4-0834de564d28","ios":"levelo://app?vid=eeeb9218-8042-4cbd-95a4-0834de564d28"},"vehicle_type_id":"4","last_reported":1753504133,"current_range_meters":12000,"station_id":"st_cvj6r9ubvosntc0bgbag","pricing_plan_id":"cebpf4jnsgd1na2vs0mg"},{"bike_id":"06efbd2a-fcca-4784-aa74-70f8fdbdc82d","system_id":"levelo_inurba_marseille","lat":43.29277,"lon":5.36833,"is_reserved":false,"is_disabled":true,"rental_uris":{"android":"levelo://app?vid=06efbd2a-fcca-4784-aa74-70f8fdbdc82d","ios":"levelo://app?vid=06efbd2a-fcca-4784-aa74-70f8fdbdc82d"},"vehicle_type_id":"4","last_reported":1753504133,"current_range_meters":12000,"station_id":"ce4bhbp2rcd13ifvqesg","pricing_plan_id":"cebpf4jnsgd1na2vs0mg"},{"bike_id":"22dca147-1260-44d8-822d-d9d1d50cce31","system_id":"levelo_inurba_marseille","lat":43.274667,"lon":5.395896,"is_reserved":false,"is_disabled":false,"rental_uris":{"android":"levelo://app?vid=22dca147-1260-44d8-822d-d9d1d50cce31","ios":"levelo://app?vid=22dca147-1260-44d8-822d-d9d1d50cce31"},"vehicle_type_id":"4","last_reported":1753504133,"current_range_meters":12400,"station_id":"","pricing_plan_id":"cebpf4jnsgd1na2vs0mg"},{"bike_id":"21a22bc7-65fe-4b97-a005-517b211a0b98","system_id":"levelo_inurba_marseille","lat":43.2304,"lon":5.35501,"is_reserved":false,"is_disabled":false,"rental_uris":{"android":"levelo://app?vid=21a22bc7-65fe-4b97-a005-517b211a0b98","ios":"levelo://app?vid=21a22bc7-65fe-4b97-a005-517b211a0b98"},"vehicle_type_id":"4","last_reported":1753504133,"current_range_meters":12400,"station_id":"cpo3342slgdg3j2ifvpg","pricing_plan_id":"cebpf4jnsgd1na2vs0mg"},{"bike_id":"520b4f98-60fb-49a4-b66e-a1051615bd51","system_id":"levelo_inurba_marseille","lat":43.310636,"lon":5.383509,"is_reserved":false,"is_disabled":false,"rental_uris":{"android":"levelo://app?vid=520b4f98-60fb-49a4-b66e-a1051615bd51","ios":"levelo://app?vid=520b4f98-60fb-49a4-b66e-a1051615bd51"},"vehicle_type_id":"4","last_reported":1753504133,"current_range_meters":12400,"station_id":"ce4bgv92rcd13ifvqcr0","pricing_plan_id":"cebpf4jnsgd1na2vs0mg"},{"bike_id":"127b6b72-bfb2-485f-b579-b67c1ffbea0b","system_id":"levelo_inurba_marseille","lat":43.290311,"lon":5.399895,"is_reserved":false,"is_disabled":true,"rental_uris":{"android":"levelo://app?vid=127b6b72-bfb2-485f-b579-b67c1ffbea0b","ios":"levelo://app?vid=127b6b72-bfb2-485f-b579-b67c1ffbea0b"},"vehicle_type_id":"4","last_reported":1753504133,"current_range_meters":12400,"station_id":"ce4bh392rcd13ifvqdm0","pricing_plan_id":"cebpf4jnsgd1na2vs0mg"},{"bike_id":"812d5501-ea65-4715-aa4b-8239dd8992be","system_id":"levelo_inurba_marseille","lat":43.2619,"lon":5.37454,"is_reserved":false,"is_disabled":true,"rental_uris":{"android":"levelo://app?vid=812d5501-ea65-4715-aa4b-8239dd8992be","ios":"levelo://app?vid=812d5501-ea65-4715-aa4b-8239dd8992be"},"vehicle_type_id":"4","last_reported":1753504133,"current_range_meters":12400,"station_id":"ce4bhgp2rcd13ifvqfc0","pricing_plan_id":"cebpf4jnsgd1na2vs0mg"},{"bike_id":"8213ce97-aab7-49d1-aa65-2e50de265035","system_id":"levelo_inurba_marseille","lat":43.28374,"lon":5.38637,"is_reserved":false,"is_disabled":false,"rental_uris":{"android":"levelo://app?vid=8213ce97-aab7-49d1-aa65-2e50de265035","ios":"levelo://app?vid=8213ce97-aab7-49d1-aa65-2e50de265035"},"vehicle_type_id":"4","last_reported":1753504133,"current_range_meters":12400,"station_id":"ce4bh492rcd13ifvqdvg","pricing_plan_id":"cebpf4jnsgd1na2vs0mg"},{"bike_id":"37edb889-f2b1-4e0e-9841-76c4a3c5c0ae","system_id":"levelo_inurba_marseille","lat":43.310678,"lon":5.383517,"is_reserved":false,"is_disabled":false,"rental_uris":{"android":"levelo://app?vid=37edb889-f2b1-4e0e-9841-76c4a3c5c0ae","ios":"levelo://app?vid=37edb889-f2b1-4e0e-9841-76c4a3c5c0ae"},"vehicle_type_id":"4","last_reported":1753504133,"current_range_meters":12400,"station_id":"ce4bgv92rcd13ifvqcr0","pricing_plan_id":"cebpf4jnsgd1na2vs0mg"},{"bike_id":"2aaf9e53-3f16-42db-8c23-6f1eb4773524","system_id":"levelo_inurba_marseille","lat":43.28428,"lon":5.34993,"is_reserved":false,"is_disabled":false,"rental_uris":{"android":"levelo://app?vid=2aaf9e53-3f16-42db-8c23-6f1eb4773524","ios":"levelo://app?vid=2aaf9e53-3f16-42db-8c23-6f1eb4773524"},"vehicle_type_id":"4","last_reported":1753504133,"current_range_meters":12800,"station_id":"ce4bhbh2rcd13ifvqepg","pricing_plan_id":"cebpf4jnsgd1na2vs0mg"},{"bike_id":"67610d18-9e11-4fec-899d-dd0340049fca","system_id":"levelo_inurba_marseille","lat":43.28355,"lon":5.38134,"is_reserved":false,"is_disabled":false,"rental_uris":{"android":"levelo://app?vid=67610d18-9e11-4fec-899d-dd0340049fca","ios":"levelo://app?vid=67610d18-9e11-4fec-899d-dd0340049fca"},"vehicle_type_id":"4","last_reported":1753504133,"current_range_meters":12800,"station_id":"ce4bh412rcd13ifvqdr0","pricing_plan_id":"cebpf4jnsgd1na2vs0mg"},{"bike_id":"2c1451e1-d7ce-43b9-aa82-426ee8261907","system_id":"levelo_inurba_marseille","lat":43.310666,"lon":5.383493,"is_reserved":false,"is_disabled":false,"rental_uris":{"android":"levelo://app?vid=2c1451e1-d7ce-43b9-aa82-426ee8261907","ios":"levelo://app?vid=2c1451e1-d7ce-43b9-aa82-426ee8261907"},"vehicle_type_id":"4","last_reported":1753504133,"current_range_meters":12800,"station_id":"ce4bgv92rcd13ifvqcr0","pricing_plan_id":"cebpf4jnsgd1na2vs0mg"},{"bike_id":"436fe95d-b330-48c3-93df-d3c7001c90c1","system_id":"levelo_inurba_marseille","lat":43.298855,"lon":5.397483,"is_reserved":false,"is_disabled":false,"rental_uris":{"android":"levelo://app?vid=436fe95d-b330-48c3-93df-d3c7001c90c1","ios":"levelo://app?vid=436fe95d-b330-48c3-93df-d3c7001c90c1"},"vehicle_type_id":"4","last_reported":1753504133,"current_range_meters":12800,"station_id":"ce4bh0h2rcd13ifvqd50","pricing_plan_id":"cebpf4jnsgd1na2vs0mg"},{"bike_id":"d79b409f-ca1b-43df-9348-1c6665f1fc25","system_id":"levelo_inurba_marseille","lat":43.22502,"lon":5.34772,"is_reserved":false,"is_disabled":false,"rental_uris":{"android":"levelo://app?vid=d79b409f-ca1b-43df-9348-1c6665f1fc25","ios":"levelo://app?vid=d79b409f-ca1b-43df-9348-1c6665f1fc25"},"vehicle_type_id":"4","last_reported":1753504133,"current_range_meters":13600,"station_id":"st_cvj5dfep6f1abm77gieg","pricing_plan_id":"cebpf4jnsgd1na2vs0mg"},{"bike_id":"970ce0d9-2c80-445a-b6ab-c8eb3acdf2c4","system_id":"levelo_inurba_marseille","lat":43.26213,"lon":5.4047,"is_reserved":false,"is_disabled":false,"rental_uris":{"android":"levelo://app?vid=970ce0d9-2c80-445a-b6ab-c8eb3acdf2c4","ios":"levelo://app?vid=970ce0d9-2c80-445a-b6ab-c8eb3acdf2c4"},"vehicle_type_id":"4","last_reported":1753504133,"current_range_meters":13600,"station_id":"ce4bhmh2rcd13ifvqgmg","pricing_plan_id":"cebpf4jnsgd1na2vs0mg"},{"bike_id":"fe02b32c-af1c-46e2-a193-a484607d4788","system_id":"levelo_inurba_marseille","lat":43.26496,"lon":5.39557,"is_reserved":false,"is_disabled":false,"rental_uris":{"android":"levelo://app?vid=fe02b32c-af1c-46e2-a193-a484607d4788","ios":"levelo://app?vid=fe02b32c-af1c-46e2-a193-a484607d4788"},"vehicle_type_id":"4","last_reported":1753504133,"current_range_meters":13600,"station_id":"ce4bhi12rcd13ifvqfq0","pricing_plan_id":"cebpf4jnsgd1na2vs0mg"},{"bike_id":"de99b14c-9afd-4bdd-bc56-50354c110c3d","system_id":"levelo_inurba_marseille","lat":43.25467,"lon":5.37687,"is_reserved":false,"is_disabled":false,"rental_uris":{"android":"levelo://app?vid=de99b14c-9afd-4bdd-bc56-50354c110c3d","ios":"levelo://app?vid=de99b14c-9afd-4bdd-bc56-50354c110c3d"},"vehicle_type_id":"4","last_reported":1753504133,"current_range_meters":14000,"station_id":"","pricing_plan_id":"cebpf4jnsgd1na2vs0mg"},{"bike_id":"97dad215-8898-4a4b-bb79-9cb61af4dc64","system_id":"levelo_inurba_marseille","lat":43.29936,"lon":5.36537,"is_reserved":false,"is_disabled":false,"rental_uris":{"android":"levelo://app?vid=97dad215-8898-4a4b-bb79-9cb61af4dc64","ios":"levelo://app?vid=97dad215-8898-4a4b-bb79-9cb61af4dc64"},"vehicle_type_id":"4","last_reported":1753504133,"current_range_meters":14000,"station_id":"ce4bgm92rcd13ifvqbr0","pricing_plan_id":"cebpf4jnsgd1na2vs0mg"},{"bike_id":"a7928c20-e426-4d56-be6c-24e8cea40a03","system_id":"levelo_inurba_marseille","lat":43.286665,"lon":5.363496,"is_reserved":false,"is_disabled":false,"rental_uris":{"android":"levelo://app?vid=a7928c20-e426-4d56-be6c-24e8cea40a03","ios":"levelo://app?vid=a7928c20-e426-4d56-be6c-24e8cea40a03"},"vehicle_type_id":"4","last_reported":1753504133,"current_range_meters":14000,"station_id":"ce4bhah2rcd13ifvqej0","pricing_plan_id":"cebpf4jnsgd1na2vs0mg"},{"bike_id":"7528e0ee-3254-4380-8007-ffef61e356ca","system_id":"levelo_inurba_marseille","lat":43.265594,"lon":5.372904,"is_reserved":false,"is_disabled":false,"rental_uris":{"android":"levelo://app?vid=7528e0ee-3254-4380-8007-ffef61e356ca","ios":"levelo://app?vid=7528e0ee-3254-4380-8007-ffef61e356ca"},"vehicle_type_id":"4","last_reported":1753504133,"current_range_meters":14000,"station_id":"ce4bhg12rcd13ifvqf70","pricing_plan_id":"cebpf4jnsgd1na2vs0mg"},{"bike_id":"c26f1b4d-11e7-4aaa-8fd1-0c8a6e22bd7c","system_id":"levelo_inurba_marseille","lat":43.301437,"lon":5.387935,"is_reserved":false,"is_disabled":true,"rental_uris":{"android":"levelo://app?vid=c26f1b4d-11e7-4aaa-8fd1-0c8a6e22bd7c","ios":"levelo://app?vid=c26f1b4d-11e7-4aaa-8fd1-0c8a6e22bd7c"},"vehicle_type_id":"4","last_reported":1753504133,"current_range_meters":14000,"station_id":"ce4bghh2rcd13ifvqb60","pricing_plan_id":"cebpf4jnsgd1na2vs0mg"},{"bike_id":"fe8da530-6dd1-4443-bfaa-ef22be4b2e93","system_id":"levelo_inurba_marseille","lat":43.30787,"lon":5.38165,"is_reserved":false,"is_disabled":false,"rental_uris":{"android":"levelo://app?vid=fe8da530-6dd1-4443-bfaa-ef22be4b2e93","ios":"levelo://app?vid=fe8da530-6dd1-4443-bfaa-ef22be4b2e93"},"vehicle_type_id":"4","last_reported":1753504133,"current_range_meters":14000,"station_id":"ce4bgt12rcd13ifvqce0","pricing_plan_id":"cebpf4jnsgd1na2vs0mg"},{"bike_id":"01bd889a-c26a-4c6d-8037-874a6be73fc7","system_id":"levelo_inurba_marseille","lat":43.29266,"lon":5.36665,"is_reserved":false,"is_disabled":true,"rental_uris":{"android":"levelo://app?vid=01bd889a-c26a-4c6d-8037-874a6be73fc7","ios":"levelo://app?vid=01bd889a-c26a-4c6d-8037-874a6be73fc7"},"vehicle_type_id":"4","last_reported":1753504133,"current_range_meters":14000,"station_id":"","pricing_plan_id":"cebpf4jnsgd1na2vs0mg"},{"bike_id":"9ffcf728-09a3-45a6-b52c-bf0aa6ab94e0","system_id":"levelo_inurba_marseille","lat":43.30889,"lon":5.3962,"is_reserved":false,"is_disabled":false,"rental_uris":{"android":"levelo://app?vid=9ffcf728-09a3-45a6-b52c-bf0aa6ab94e0","ios":"levelo://app?vid=9ffcf728-09a3-45a6-b52c-bf0aa6ab94e0"},"vehicle_type_id":"4","last_reported":1753504133,"current_range_meters":14000,"station_id":"ce4bh012rcd13ifvqcv0","pricing_plan_id":"cebpf4jnsgd1na2vs0mg"},{"bike_id":"c994e655-1e01-44d5-b636-f6dd345b4d92","system_id":"levelo_inurba_marseille","lat":43.31689,"lon":5.40478,"is_reserved":false,"is_disabled":false,"rental_uris":{"android":"levelo://app?vid=c994e655-1e01-44d5-b636-f6dd345b4d92","ios":"levelo://app?vid=c994e655-1e01-44d5-b636-f6dd345b4d92"},"vehicle_type_id":"4","last_reported":1753504133,"current_range_meters":14000,"station_id":"ce4bh012rcd13ifvqd00","pricing_plan_id":"cebpf4jnsgd1na2vs0mg"},{"bike_id":"57755280-973c-4ff3-9c25-8f15e2c5b510","system_id":"levelo_inurba_marseille","lat":43.31872,"lon":5.37373,"is_reserved":false,"is_disabled":false,"rental_uris":{"android":"levelo://app?vid=57755280-973c-4ff3-9c25-8f15e2c5b510","ios":"levelo://app?vid=57755280-973c-4ff3-9c25-8f15e2c5b510"},"vehicle_type_id":"4","last_reported":1753504133,"current_range_meters":14000,"station_id":"","pricing_plan_id":"cebpf4jnsgd1na2vs0mg"},{"bike_id":"89e6dda2-22fc-46e8-9777-2fe4b9498e20","system_id":"levelo_inurba_marseille","lat":43.30544,"lon":5.36546,"is_reserved":false,"is_disabled":false,"rental_uris":{"android":"levelo://app?vid=89e6dda2-22fc-46e8-9777-2fe4b9498e20","ios":"levelo://app?vid=89e6dda2-22fc-46e8-9777-2fe4b9498e20"},"vehicle_type_id":"4","last_reported":1753504133,"current_range_meters":13600,"station_id":"ce4bgs12rcd13ifvqcag","pricing_plan_id":"cebpf4jnsgd1na2vs0mg"},{"bike_id":"f2c0d178-a474-46a0-b002-379a7a30c411","system_id":"levelo_inurba_marseille","lat":43.2941,"lon":5.37603,"is_reserved":false,"is_disabled":false,"rental_uris":{"android":"levelo://app?vid=f2c0d178-a474-46a0-b002-379a7a30c411","ios":"levelo://app?vid=f2c0d178-a474-46a0-b002-379a7a30c411"},"vehicle_type_id":"4","last_reported":1753504133,"current_range_meters":14400,"station_id":"","pricing_plan_id":"cebpf4jnsgd1na2vs0mg"},{"bike_id":"09b7f600-cb1e-4ea0-adc2-9c3dcb778794","system_id":"levelo_inurba_marseille","lat":43.22495,"lon":5.34802,"is_reserved":false,"is_disabled":false,"rental_uris":{"android":"levelo://app?vid=09b7f600-cb1e-4ea0-adc2-9c3dcb778794","ios":"levelo://app?vid=09b7f600-cb1e-4ea0-adc2-9c3dcb778794"},"vehicle_type_id":"4","last_reported":1753504133,"current_range_meters":14400,"station_id":"st_cvj5dfep6f1abm77gieg","pricing_plan_id":"cebpf4jnsgd1na2vs0mg"},{"bike_id":"7f7a4770-cb44-4cbe-afee-f7531a238fa9","system_id":"levelo_inurba_marseille","lat":43.225059,"lon":5.347842,"is_reserved":false,"is_disabled":false,"rental_uris":{"android":"levelo://app?vid=7f7a4770-cb44-4cbe-afee-f7531a238fa9","ios":"levelo://app?vid=7f7a4770-cb44-4cbe-afee-f7531a238fa9"},"vehicle_type_id":"4","last_reported":1753504133,"current_range_meters":14400,"station_id":"st_cvj5dfep6f1abm77gieg","pricing_plan_id":"cebpf4jnsgd1na2vs0mg"},{"bike_id":"7beabfe9-90b9-4879-9d59-b7cae8ca3b4c","system_id":"levelo_inurba_marseille","lat":43.28712,"lon":5.37399,"is_reserved":false,"is_disabled":false,"rental_uris":{"android":"levelo://app?vid=7beabfe9-90b9-4879-9d59-b7cae8ca3b4c","ios":"levelo://app?vid=7beabfe9-90b9-4879-9d59-b7cae8ca3b4c"},"vehicle_type_id":"4","last_reported":1753504133,"current_range_meters":14400,"station_id":"ce4bh3p2rcd13ifvqdq0","pricing_plan_id":"cebpf4jnsgd1na2vs0mg"},{"bike_id":"847b44c9-efab-4746-8937-dcebf1206fff","system_id":"levelo_inurba_marseille","lat":43.26203,"lon":5.37452,"is_reserved":false,"is_disabled":true,"rental_uris":{"android":"levelo://app?vid=847b44c9-efab-4746-8937-dcebf1206fff","ios":"levelo://app?vid=847b44c9-efab-4746-8937-dcebf1206fff"},"vehicle_type_id":"4","last_reported":1753504133,"current_range_meters":14400,"station_id":"ce4bhgp2rcd13ifvqfc0","pricing_plan_id":"cebpf4jnsgd1na2vs0mg"},{"bike_id":"8fe402e9-b507-4ef6-8ee8-45e4c9792699","system_id":"levelo_inurba_marseille","lat":43.33597,"lon":5.41014,"is_reserved":false,"is_disabled":false,"rental_uris":{"android":"levelo://app?vid=8fe402e9-b507-4ef6-8ee8-45e4c9792699","ios":"levelo://app?vid=8fe402e9-b507-4ef6-8ee8-45e4c9792699"},"vehicle_type_id":"4","last_reported":1753504133,"current_range_meters":14400,"station_id":"ce4bhqh2rcd13ifvqhmg","pricing_plan_id":"cebpf4jnsgd1na2vs0mg"},{"bike_id":"ec74f06a-40dc-4c39-a0cb-57d6f568a4e5","system_id":"levelo_inurba_marseille","lat":43.229284,"lon":5.353753,"is_reserved":false,"is_disabled":false,"rental_uris":{"android":"levelo://app?vid=ec74f06a-40dc-4c39-a0cb-57d6f568a4e5","ios":"levelo://app?vid=ec74f06a-40dc-4c39-a0cb-57d6f568a4e5"},"vehicle_type_id":"4","last_reported":1753504133,"current_range_meters":14400,"station_id":"cpo3532slgdg3j2ikp40","pricing_plan_id":"cebpf4jnsgd1na2vs0mg"},{"bike_id":"0574be29-517b-4942-b3cc-ba6b7cf9246f","system_id":"levelo_inurba_marseille","lat":43.28407,"lon":5.37542,"is_reserved":false,"is_disabled":false,"rental_uris":{"android":"levelo://app?vid=0574be29-517b-4942-b3cc-ba6b7cf9246f","ios":"levelo://app?vid=0574be29-517b-4942-b3cc-ba6b7cf9246f"},"vehicle_type_id":"4","last_reported":1753504133,"current_range_meters":14400,"station_id":"ce4bh412rcd13ifvqds0","pricing_plan_id":"cebpf4jnsgd1na2vs0mg"},{"bike_id":"cdd229ea-c762-465a-a1a8-dc511ddf636c","system_id":"levelo_inurba_marseille","lat":43.29878,"lon":5.39729,"is_reserved":false,"is_disabled":false,"rental_uris":{"android":"levelo://app?vid=cdd229ea-c762-465a-a1a8-dc511ddf636c","ios":"levelo://app?vid=cdd229ea-c762-465a-a1a8-dc511ddf636c"},"vehicle_type_id":"4","last_reported":1753504133,"current_range_meters":14400,"station_id":"ce4bh0h2rcd13ifvqd50","pricing_plan_id":"cebpf4jnsgd1na2vs0mg"},{"bike_id":"aa632672-07c4-406e-a279-ed15c5fe82b0","system_id":"levelo_inurba_marseille","lat":43.3081,"lon":5.38163,"is_reserved":false,"is_disabled":false,"rental_uris":{"android":"levelo://app?vid=aa632672-07c4-406e-a279-ed15c5fe82b0","ios":"levelo://app?vid=aa632672-07c4-406e-a279-ed15c5fe82b0"},"vehicle_type_id":"4","last_reported":1753504133,"current_range_meters":14400,"station_id":"ce4bgt12rcd13ifvqce0","pricing_plan_id":"cebpf4jnsgd1na2vs0mg"},{"bike_id":"6ab0b13c-2ff1-417a-acfd-489d6800d4c9","system_id":"levelo_inurba_marseille","lat":43.27388,"lon":5.36257,"is_reserved":false,"is_disabled":true,"rental_uris":{"android":"levelo://app?vid=6ab0b13c-2ff1-417a-acfd-489d6800d4c9","ios":"levelo://app?vid=6ab0b13c-2ff1-417a-acfd-489d6800d4c9"},"vehicle_type_id":"4","last_reported":1753504133,"current_range_meters":14400,"station_id":"ce4bhbh2rcd13ifvqeo0","pricing_plan_id":"cebpf4jnsgd1na2vs0mg"},{"bike_id":"9bff4c30-7d52-4173-88ba-afd3702b54f6","system_id":"levelo_inurba_marseille","lat":43.279958,"lon":5.416567,"is_reserved":false,"is_disabled":false,"rental_uris":{"android":"levelo://app?vid=9bff4c30-7d52-4173-88ba-afd3702b54f6","ios":"levelo://app?vid=9bff4c30-7d52-4173-88ba-afd3702b54f6"},"vehicle_type_id":"4","last_reported":1753504133,"current_range_meters":14800,"station_id":"ce4bho12rcd13ifvqh1g","pricing_plan_id":"cebpf4jnsgd1na2vs0mg"},{"bike_id":"c58eefdf-cf11-4962-93d9-3a4a1f3bdf88","system_id":"levelo_inurba_marseille","lat":43.284146,"lon":5.375278,"is_reserved":false,"is_disabled":false,"rental_uris":{"android":"levelo://app?vid=c58eefdf-cf11-4962-93d9-3a4a1f3bdf88","ios":"levelo://app?vid=c58eefdf-cf11-4962-93d9-3a4a1f3bdf88"},"vehicle_type_id":"4","last_reported":1753504133,"current_range_meters":14800,"station_id":"ce4bh412rcd13ifvqds0","pricing_plan_id":"cebpf4jnsgd1na2vs0mg"},{"bike_id":"c66e86bf-ad2d-4d88-9166-96ba0a5d38db","system_id":"levelo_inurba_marseille","lat":43.30258,"lon":5.40046,"is_reserved":false,"is_disabled":false,"rental_uris":{"android":"levelo://app?vid=c66e86bf-ad2d-4d88-9166-96ba0a5d38db","ios":"levelo://app?vid=c66e86bf-ad2d-4d88-9166-96ba0a5d38db"},"vehicle_type_id":"4","last_reported":1753504133,"current_range_meters":14800,"station_id":"ce4bgvh2rcd13ifvqcs0","pricing_plan_id":"cebpf4jnsgd1na2vs0mg"},{"bike_id":"f932ef2c-02f4-48af-89bd-b74a727f814c","system_id":"levelo_inurba_marseille","lat":43.28097,"lon":5.37859,"is_reserved":false,"is_disabled":false,"rental_uris":{"android":"levelo://app?vid=f932ef2c-02f4-48af-89bd-b74a727f814c","ios":"levelo://app?vid=f932ef2c-02f4-48af-89bd-b74a727f814c"},"vehicle_type_id":"4","last_reported":1753504133,"current_range_meters":14800,"station_id":"ce4bha12rcd13ifvqee0","pricing_plan_id":"cebpf4jnsgd1na2vs0mg"},{"bike_id":"09447d92-0522-480e-b6b5-24959949ccf9","system_id":"levelo_inurba_marseille","lat":43.324148,"lon":5.367856,"is_reserved":false,"is_disabled":false,"rental_uris":{"android":"levelo://app?vid=09447d92-0522-480e-b6b5-24959949ccf9","ios":"levelo://app?vid=09447d92-0522-480e-b6b5-24959949ccf9"},"vehicle_type_id":"4","last_reported":1753504133,"current_range_meters":15200,"station_id":"","pricing_plan_id":"cebpf4jnsgd1na2vs0mg"},{"bike_id":"b4379486-9354-4e07-9fc8-c50680c4e14e","system_id":"levelo_inurba_marseille","lat":43.283419,"lon":5.381131,"is_reserved":false,"is_disabled":false,"rental_uris":{"android":"levelo://app?vid=b4379486-9354-4e07-9fc8-c50680c4e14e","ios":"levelo://app?vid=b4379486-9354-4e07-9fc8-c50680c4e14e"},"vehicle_type_id":"4","last_reported":1753504133,"current_range_meters":15200,"station_id":"ce4bh412rcd13ifvqdr0","pricing_plan_id":"cebpf4jnsgd1na2vs0mg"},{"bike_id":"b5aab1b5-818a-4dfd-b7ae-70df5639e329","system_id":"levelo_inurba_marseille","lat":43.2707,"lon":5.42279,"is_reserved":false,"is_disabled":false,"rental_uris":{"android":"levelo://app?vid=b5aab1b5-818a-4dfd-b7ae-70df5639e329","ios":"levelo://app?vid=b5aab1b5-818a-4dfd-b7ae-70df5639e329"},"vehicle_type_id":"4","last_reported":1753504133,"current_range_meters":15200,"station_id":"ce4bhk92rcd13ifvqgb0","pricing_plan_id":"cebpf4jnsgd1na2vs0mg"},{"bike_id":"152247a2-6f09-485f-acf9-4f6bd27a046c","system_id":"levelo_inurba_marseille","lat":43.28149,"lon":5.42644,"is_reserved":false,"is_disabled":false,"rental_uris":{"android":"levelo://app?vid=152247a2-6f09-485f-acf9-4f6bd27a046c","ios":"levelo://app?vid=152247a2-6f09-485f-acf9-4f6bd27a046c"},"vehicle_type_id":"4","last_reported":1753504133,"current_range_meters":15200,"station_id":"ce4bhnh2rcd13ifvqgug","pricing_plan_id":"cebpf4jnsgd1na2vs0mg"},{"bike_id":"6b0334f3-82c8-42ff-9c63-4f263704c07a","system_id":"levelo_inurba_marseille","lat":43.31067,"lon":5.38358,"is_reserved":false,"is_disabled":false,"rental_uris":{"android":"levelo://app?vid=6b0334f3-82c8-42ff-9c63-4f263704c07a","ios":"levelo://app?vid=6b0334f3-82c8-42ff-9c63-4f263704c07a"},"vehicle_type_id":"4","last_reported":1753504133,"current_range_meters":15200,"station_id":"ce4bgv92rcd13ifvqcr0","pricing_plan_id":"cebpf4jnsgd1na2vs0mg"},{"bike_id":"015ae95b-d649-4c1e-81e8-ebfec98009c5","system_id":"levelo_inurba_marseille","lat":43.240819,"lon":5.377395,"is_reserved":false,"is_disabled":false,"rental_uris":{"android":"levelo://app?vid=015ae95b-d649-4c1e-81e8-ebfec98009c5","ios":"levelo://app?vid=015ae95b-d649-4c1e-81e8-ebfec98009c5"},"vehicle_type_id":"4","last_reported":1753504133,"current_range_meters":15200,"station_id":"ce4bhnp2rcd13ifvqgvg","pricing_plan_id":"cebpf4jnsgd1na2vs0mg"},{"bike_id":"68801fee-efc8-485b-a110-a36431796a83","system_id":"levelo_inurba_marseille","lat":43.29594,"lon":5.3752,"is_reserved":false,"is_disabled":true,"rental_uris":{"android":"levelo://app?vid=68801fee-efc8-485b-a110-a36431796a83","ios":"levelo://app?vid=68801fee-efc8-485b-a110-a36431796a83"},"vehicle_type_id":"4","last_reported":1753504133,"current_range_meters":16000,"station_id":"ce4bgh92rcd13ifvqb50","pricing_plan_id":"cebpf4jnsgd1na2vs0mg"},{"bike_id":"8b6b3c5b-3779-41c3-ad6d-a655a33b4b9e","system_id":"levelo_inurba_marseille","lat":43.241767,"lon":5.363913,"is_reserved":false,"is_disabled":false,"rental_uris":{"android":"levelo://app?vid=8b6b3c5b-3779-41c3-ad6d-a655a33b4b9e","ios":"levelo://app?vid=8b6b3c5b-3779-41c3-ad6d-a655a33b4b9e"},"vehicle_type_id":"4","last_reported":1753504133,"current_range_meters":16000,"station_id":"cpo36qri1sfpv3e86is0","pricing_plan_id":"cebpf4jnsgd1na2vs0mg"},{"bike_id":"c3c2652b-f2d7-4ed4-89ec-9559feb01451","system_id":"levelo_inurba_marseille","lat":43.29226,"lon":5.360481,"is_reserved":false,"is_disabled":true,"rental_uris":{"android":"levelo://app?vid=c3c2652b-f2d7-4ed4-89ec-9559feb01451","ios":"levelo://app?vid=c3c2652b-f2d7-4ed4-89ec-9559feb01451"},"vehicle_type_id":"4","last_reported":1753504133,"current_range_meters":16000,"station_id":"ce4bhbh2rcd13ifvqeqg","pricing_plan_id":"cebpf4jnsgd1na2vs0mg"},{"bike_id":"04fdffad-f98a-42a3-9432-d816608b3ed4","system_id":"levelo_inurba_marseille","lat":43.32287,"lon":5.38298,"is_reserved":false,"is_disabled":false,"rental_uris":{"android":"levelo://app?vid=04fdffad-f98a-42a3-9432-d816608b3ed4","ios":"levelo://app?vid=04fdffad-f98a-42a3-9432-d816608b3ed4"},"vehicle_type_id":"4","last_reported":1753504133,"current_range_meters":16000,"station_id":"ce4bhr12rcd13ifvqhqg","pricing_plan_id":"cebpf4jnsgd1na2vs0mg"},{"bike_id":"ccd04669-0b5a-46d4-92d0-49c06cb2ae38","system_id":"levelo_inurba_marseille","lat":43.3171,"lon":5.37746,"is_reserved":false,"is_disabled":false,"rental_uris":{"android":"levelo://app?vid=ccd04669-0b5a-46d4-92d0-49c06cb2ae38","ios":"levelo://app?vid=ccd04669-0b5a-46d4-92d0-49c06cb2ae38"},"vehicle_type_id":"4","last_reported":1753504133,"current_range_meters":16000,"station_id":"ce4bgth2rcd13ifvqch0","pricing_plan_id":"cebpf4jnsgd1na2vs0mg"},{"bike_id":"1855cbe1-5a05-480e-9057-6e9b3976dbbe","system_id":"levelo_inurba_marseille","lat":43.337263,"lon":5.391906,"is_reserved":false,"is_disabled":false,"rental_uris":{"android":"levelo://app?vid=1855cbe1-5a05-480e-9057-6e9b3976dbbe","ios":"levelo://app?vid=1855cbe1-5a05-480e-9057-6e9b3976dbbe"},"vehicle_type_id":"4","last_reported":1753504133,"current_range_meters":16000,"station_id":"ce4bhr92rcd13ifvqhsg","pricing_plan_id":"cebpf4jnsgd1na2vs0mg"},{"bike_id":"99938384-2779-4389-9a1c-4b06450d69be","system_id":"levelo_inurba_marseille","lat":43.27201,"lon":5.39189,"is_reserved":false,"is_disabled":true,"rental_uris":{"android":"levelo://app?vid=99938384-2779-4389-9a1c-4b06450d69be","ios":"levelo://app?vid=99938384-2779-4389-9a1c-4b06450d69be"},"vehicle_type_id":"4","last_reported":1753504133,"current_range_meters":16000,"station_id":"ce4bhhp2rcd13ifvqfm0","pricing_plan_id":"cebpf4jnsgd1na2vs0mg"},{"bike_id":"fceea9bc-7762-4e38-a909-58372215e3a9","system_id":"levelo_inurba_marseille","lat":43.31364,"lon":5.38483,"is_reserved":false,"is_disabled":false,"rental_uris":{"android":"levelo://app?vid=fceea9bc-7762-4e38-a909-58372215e3a9","ios":"levelo://app?vid=fceea9bc-7762-4e38-a909-58372215e3a9"},"vehicle_type_id":"4","last_reported":1753504133,"current_range_meters":16000,"station_id":"ce4bgt92rcd13ifvqcf0","pricing_plan_id":"cebpf4jnsgd1na2vs0mg"},{"bike_id":"ad91e1f3-4395-4b2a-ae55-1856eedba2be","system_id":"levelo_inurba_marseille","lat":43.28703,"lon":5.39959,"is_reserved":false,"is_disabled":false,"rental_uris":{"android":"levelo://app?vid=ad91e1f3-4395-4b2a-ae55-1856eedba2be","ios":"levelo://app?vid=ad91e1f3-4395-4b2a-ae55-1856eedba2be"},"vehicle_type_id":"4","last_reported":1753504133,"current_range_meters":16000,"station_id":"ce4bho92rcd13ifvqh3g","pricing_plan_id":"cebpf4jnsgd1na2vs0mg"},{"bike_id":"f9132ae1-6ae2-4272-b24a-43c4aace7eb6","system_id":"levelo_inurba_marseille","lat":43.31286,"lon":5.40184,"is_reserved":false,"is_disabled":false,"rental_uris":{"android":"levelo://app?vid=f9132ae1-6ae2-4272-b24a-43c4aace7eb6","ios":"levelo://app?vid=f9132ae1-6ae2-4272-b24a-43c4aace7eb6"},"vehicle_type_id":"4","last_reported":1753504133,"current_range_meters":16000,"station_id":"ce4bh092rcd13ifvqd30","pricing_plan_id":"cebpf4jnsgd1na2vs0mg"},{"bike_id":"843f308c-e661-42bb-b9e7-c0331e577038","system_id":"levelo_inurba_marseille","lat":43.31071,"lon":5.38357,"is_reserved":false,"is_disabled":false,"rental_uris":{"android":"levelo://app?vid=843f308c-e661-42bb-b9e7-c0331e577038","ios":"levelo://app?vid=843f308c-e661-42bb-b9e7-c0331e577038"},"vehicle_type_id":"4","last_reported":1753504133,"current_range_meters":16000,"station_id":"ce4bgv92rcd13ifvqcr0","pricing_plan_id":"cebpf4jnsgd1na2vs0mg"},{"bike_id":"8f4ca69e-9621-4ffd-91af-41f939f5f71e","system_id":"levelo_inurba_marseille","lat":43.239644,"lon":5.366291,"is_reserved":false,"is_disabled":false,"rental_uris":{"android":"levelo://app?vid=8f4ca69e-9621-4ffd-91af-41f939f5f71e","ios":"levelo://app?vid=8f4ca69e-9621-4ffd-91af-41f939f5f71e"},"vehicle_type_id":"4","last_reported":1753504133,"current_range_meters":16400,"station_id":"ce4bhi12rcd13ifvqfp0","pricing_plan_id":"cebpf4jnsgd1na2vs0mg"},{"bike_id":"4d0b98e0-a806-4f67-976e-b170c89d08d3","system_id":"levelo_inurba_marseille","lat":43.30253,"lon":5.40077,"is_reserved":false,"is_disabled":false,"rental_uris":{"android":"levelo://app?vid=4d0b98e0-a806-4f67-976e-b170c89d08d3","ios":"levelo://app?vid=4d0b98e0-a806-4f67-976e-b170c89d08d3"},"vehicle_type_id":"4","last_reported":1753504133,"current_range_meters":16000,"station_id":"ce4bgvh2rcd13ifvqcs0","pricing_plan_id":"cebpf4jnsgd1na2vs0mg"},{"bike_id":"c98440bb-dac9-4843-8b58-b8928d27d0bf","system_id":"levelo_inurba_marseille","lat":43.29793,"lon":5.3807,"is_reserved":false,"is_disabled":false,"rental_uris":{"android":"levelo://app?vid=c98440bb-dac9-4843-8b58-b8928d27d0bf","ios":"levelo://app?vid=c98440bb-dac9-4843-8b58-b8928d27d0bf"},"vehicle_type_id":"4","last_reported":1753504133,"current_range_meters":16400,"station_id":"ce4bgip2rcd13ifvqbb0","pricing_plan_id":"cebpf4jnsgd1na2vs0mg"},{"bike_id":"aa7f9fe5-a9ee-4717-961f-cde5f81756e2","system_id":"levelo_inurba_marseille","lat":43.25866,"lon":5.39889,"is_reserved":false,"is_disabled":false,"rental_uris":{"android":"levelo://app?vid=aa7f9fe5-a9ee-4717-961f-cde5f81756e2","ios":"levelo://app?vid=aa7f9fe5-a9ee-4717-961f-cde5f81756e2"},"vehicle_type_id":"4","last_reported":1753504133,"current_range_meters":17200,"station_id":"ce4bhl92rcd13ifvqghg","pricing_plan_id":"cebpf4jnsgd1na2vs0mg"},{"bike_id":"b44e0ef0-448d-42e7-b8ce-9c7edd8e1cfe","system_id":"levelo_inurba_marseille","lat":43.28141,"lon":5.42638,"is_reserved":false,"is_disabled":false,"rental_uris":{"android":"levelo://app?vid=b44e0ef0-448d-42e7-b8ce-9c7edd8e1cfe","ios":"levelo://app?vid=b44e0ef0-448d-42e7-b8ce-9c7edd8e1cfe"},"vehicle_type_id":"4","last_reported":1753504133,"current_range_meters":16400,"station_id":"ce4bhnh2rcd13ifvqgug","pricing_plan_id":"cebpf4jnsgd1na2vs0mg"},{"bike_id":"5e2fe5ca-2f26-4b3f-b274-f494f83ba309","system_id":"levelo_inurba_marseille","lat":43.28691,"lon":5.37379,"is_reserved":false,"is_disabled":false,"rental_uris":{"android":"levelo://app?vid=5e2fe5ca-2f26-4b3f-b274-f494f83ba309","ios":"levelo://app?vid=5e2fe5ca-2f26-4b3f-b274-f494f83ba309"},"vehicle_type_id":"4","last_reported":1753504133,"current_range_meters":16400,"station_id":"ce4bh3p2rcd13ifvqdq0","pricing_plan_id":"cebpf4jnsgd1na2vs0mg"},{"bike_id":"b5c7f071-a026-45b8-8531-421b35957a32","system_id":"levelo_inurba_marseille","lat":43.296478,"lon":5.393548,"is_reserved":false,"is_disabled":false,"rental_uris":{"android":"levelo://app?vid=b5c7f071-a026-45b8-8531-421b35957a32","ios":"levelo://app?vid=b5c7f071-a026-45b8-8531-421b35957a32"},"vehicle_type_id":"4","last_reported":1753504133,"current_range_meters":16400,"station_id":"","pricing_plan_id":"cebpf4jnsgd1na2vs0mg"},{"bike_id":"c3b53303-9018-4d5a-91fe-ce0c3b3be56d","system_id":"levelo_inurba_marseille","lat":43.28609,"lon":5.37074,"is_reserved":false,"is_disabled":false,"rental_uris":{"android":"levelo://app?vid=c3b53303-9018-4d5a-91fe-ce0c3b3be56d","ios":"levelo://app?vid=c3b53303-9018-4d5a-91fe-ce0c3b3be56d"},"vehicle_type_id":"4","last_reported":1753504133,"current_range_meters":16400,"station_id":"ce4bht12rcd13ifvqi60","pricing_plan_id":"cebpf4jnsgd1na2vs0mg"},{"bike_id":"d1ef1c13-40f7-47d7-ab0e-8e4ae1254ac5","system_id":"levelo_inurba_marseille","lat":43.323613,"lon":5.367627,"is_reserved":false,"is_disabled":false,"rental_uris":{"android":"levelo://app?vid=d1ef1c13-40f7-47d7-ab0e-8e4ae1254ac5","ios":"levelo://app?vid=d1ef1c13-40f7-47d7-ab0e-8e4ae1254ac5"},"vehicle_type_id":"4","last_reported":1753504133,"current_range_meters":16400,"station_id":"ce4bhsh2rcd13ifvqi2g","pricing_plan_id":"cebpf4jnsgd1na2vs0mg"},{"bike_id":"5d11fc68-b0be-4ebf-87d9-4cb6a3f0b870","system_id":"levelo_inurba_marseille","lat":43.30533,"lon":5.38424,"is_reserved":false,"is_disabled":false,"rental_uris":{"android":"levelo://app?vid=5d11fc68-b0be-4ebf-87d9-4cb6a3f0b870","ios":"levelo://app?vid=5d11fc68-b0be-4ebf-87d9-4cb6a3f0b870"},"vehicle_type_id":"4","last_reported":1753504133,"current_range_meters":16800,"station_id":"ce4bgg92rcd13ifvqb30","pricing_plan_id":"cebpf4jnsgd1na2vs0mg"},{"bike_id":"551a047e-a7ef-4c04-aa54-32bf2e2fac20","system_id":"levelo_inurba_marseille","lat":43.30376,"lon":5.42492,"is_reserved":false,"is_disabled":false,"rental_uris":{"android":"levelo://app?vid=551a047e-a7ef-4c04-aa54-32bf2e2fac20","ios":"levelo://app?vid=551a047e-a7ef-4c04-aa54-32bf2e2fac20"},"vehicle_type_id":"4","last_reported":1753504133,"current_range_meters":16800,"station_id":"ce4bhoh2rcd13ifvqh6g","pricing_plan_id":"cebpf4jnsgd1na2vs0mg"},{"bike_id":"1d45adb4-6195-47f2-8dd3-0be1f636037f","system_id":"levelo_inurba_marseille","lat":43.28151,"lon":5.42631,"is_reserved":false,"is_disabled":false,"rental_uris":{"android":"levelo://app?vid=1d45adb4-6195-47f2-8dd3-0be1f636037f","ios":"levelo://app?vid=1d45adb4-6195-47f2-8dd3-0be1f636037f"},"vehicle_type_id":"4","last_reported":1753504133,"current_range_meters":16800,"station_id":"ce4bhnh2rcd13ifvqgug","pricing_plan_id":"cebpf4jnsgd1na2vs0mg"},{"bike_id":"1e5c96a6-9d0f-4d5f-85ef-5a5f8ac0317a","system_id":"levelo_inurba_marseille","lat":43.334543,"lon":5.391423,"is_reserved":false,"is_disabled":false,"rental_uris":{"android":"levelo://app?vid=1e5c96a6-9d0f-4d5f-85ef-5a5f8ac0317a","ios":"levelo://app?vid=1e5c96a6-9d0f-4d5f-85ef-5a5f8ac0317a"},"vehicle_type_id":"4","last_reported":1753504133,"current_range_meters":16800,"station_id":"","pricing_plan_id":"cebpf4jnsgd1na2vs0mg"},{"bike_id":"7254aad9-4b7a-44b4-89bb-4f6b7cb10520","system_id":"levelo_inurba_marseille","lat":43.260935,"lon":5.393837,"is_reserved":false,"is_disabled":false,"rental_uris":{"android":"levelo://app?vid=7254aad9-4b7a-44b4-89bb-4f6b7cb10520","ios":"levelo://app?vid=7254aad9-4b7a-44b4-89bb-4f6b7cb10520"},"vehicle_type_id":"4","last_reported":1753504133,"current_range_meters":16800,"station_id":"ce4bhh92rcd13ifvqfj0","pricing_plan_id":"cebpf4jnsgd1na2vs0mg"},{"bike_id":"c1ca13a9-7216-4338-9451-5f978e0ae33b","system_id":"levelo_inurba_marseille","lat":43.30543,"lon":5.38439,"is_reserved":false,"is_disabled":true,"rental_uris":{"android":"levelo://app?vid=c1ca13a9-7216-4338-9451-5f978e0ae33b","ios":"levelo://app?vid=c1ca13a9-7216-4338-9451-5f978e0ae33b"},"vehicle_type_id":"4","last_reported":1753504133,"current_range_meters":16800,"station_id":"ce4bgg92rcd13ifvqb30","pricing_plan_id":"cebpf4jnsgd1na2vs0mg"},{"bike_id":"83e6f275-f182-4f88-81fb-6476cf5d4aa5","system_id":"levelo_inurba_marseille","lat":43.30899,"lon":5.39624,"is_reserved":false,"is_disabled":false,"rental_uris":{"android":"levelo://app?vid=83e6f275-f182-4f88-81fb-6476cf5d4aa5","ios":"levelo://app?vid=83e6f275-f182-4f88-81fb-6476cf5d4aa5"},"vehicle_type_id":"4","last_reported":1753504133,"current_range_meters":16800,"station_id":"ce4bh012rcd13ifvqcv0","pricing_plan_id":"cebpf4jnsgd1na2vs0mg"},{"bike_id":"20424831-2201-4d3c-8027-3c541a36d8b1","system_id":"levelo_inurba_marseille","lat":43.28896,"lon":5.37125,"is_reserved":false,"is_disabled":false,"rental_uris":{"android":"levelo://app?vid=20424831-2201-4d3c-8027-3c541a36d8b1","ios":"levelo://app?vid=20424831-2201-4d3c-8027-3c541a36d8b1"},"vehicle_type_id":"4","last_reported":1753504133,"current_range_meters":16800,"station_id":"","pricing_plan_id":"cebpf4jnsgd1na2vs0mg"},{"bike_id":"6b34aaa6-58a0-46fb-bc50-6499601beb64","system_id":"levelo_inurba_marseille","lat":43.225,"lon":5.34787,"is_reserved":false,"is_disabled":false,"rental_uris":{"android":"levelo://app?vid=6b34aaa6-58a0-46fb-bc50-6499601beb64","ios":"levelo://app?vid=6b34aaa6-58a0-46fb-bc50-6499601beb64"},"vehicle_type_id":"4","last_reported":1753504133,"current_range_meters":16800,"station_id":"st_cvj5dfep6f1abm77gieg","pricing_plan_id":"cebpf4jnsgd1na2vs0mg"},{"bike_id":"a1d5115b-997f-44a5-8b4b-21cb29757407","system_id":"levelo_inurba_marseille","lat":43.31218,"lon":5.37349,"is_reserved":false,"is_disabled":false,"rental_uris":{"android":"levelo://app?vid=a1d5115b-997f-44a5-8b4b-21cb29757407","ios":"levelo://app?vid=a1d5115b-997f-44a5-8b4b-21cb29757407"},"vehicle_type_id":"4","last_reported":1753504133,"current_range_meters":16800,"station_id":"","pricing_plan_id":"cebpf4jnsgd1na2vs0mg"},{"bike_id":"36e6bf97-6485-443c-94bf-9c9cb3f33000","system_id":"levelo_inurba_marseille","lat":43.28285,"lon":5.35066,"is_reserved":false,"is_disabled":true,"rental_uris":{"android":"levelo://app?vid=36e6bf97-6485-443c-94bf-9c9cb3f33000","ios":"levelo://app?vid=36e6bf97-6485-443c-94bf-9c9cb3f33000"},"vehicle_type_id":"4","last_reported":1753504133,"current_range_meters":16800,"station_id":"ce4bhbp2rcd13ifvqerg","pricing_plan_id":"cebpf4jnsgd1na2vs0mg"},{"bike_id":"b20abd36-7847-4de1-90ce-d38833cb96c1","system_id":"levelo_inurba_marseille","lat":43.28659,"lon":5.36348,"is_reserved":false,"is_disabled":false,"rental_uris":{"android":"levelo://app?vid=b20abd36-7847-4de1-90ce-d38833cb96c1","ios":"levelo://app?vid=b20abd36-7847-4de1-90ce-d38833cb96c1"},"vehicle_type_id":"4","last_reported":1753504133,"current_range_meters":17200,"station_id":"ce4bhah2rcd13ifvqej0","pricing_plan_id":"cebpf4jnsgd1na2vs0mg"},{"bike_id":"2703e0a4-7218-4353-b33c-9609c06a5516","system_id":"levelo_inurba_marseille","lat":43.275017,"lon":5.424478,"is_reserved":false,"is_disabled":false,"rental_uris":{"android":"levelo://app?vid=2703e0a4-7218-4353-b33c-9609c06a5516","ios":"levelo://app?vid=2703e0a4-7218-4353-b33c-9609c06a5516"},"vehicle_type_id":"4","last_reported":1753504133,"current_range_meters":17200,"station_id":"ce4bhn92rcd13ifvqgrg","pricing_plan_id":"cebpf4jnsgd1na2vs0mg"},{"bike_id":"238390e8-3a2f-43aa-ae07-18b7138ab742","system_id":"levelo_inurba_marseille","lat":43.23961,"lon":5.3664,"is_reserved":false,"is_disabled":false,"rental_uris":{"android":"levelo://app?vid=238390e8-3a2f-43aa-ae07-18b7138ab742","ios":"levelo://app?vid=238390e8-3a2f-43aa-ae07-18b7138ab742"},"vehicle_type_id":"4","last_reported":1753504133,"current_range_meters":17200,"station_id":"ce4bhi12rcd13ifvqfp0","pricing_plan_id":"cebpf4jnsgd1na2vs0mg"},{"bike_id":"a05343f6-5345-451e-92c9-8d14b4ec04eb","system_id":"levelo_inurba_marseille","lat":43.314919,"lon":5.373082,"is_reserved":false,"is_disabled":true,"rental_uris":{"android":"levelo://app?vid=a05343f6-5345-451e-92c9-8d14b4ec04eb","ios":"levelo://app?vid=a05343f6-5345-451e-92c9-8d14b4ec04eb"},"vehicle_type_id":"4","last_reported":1753504133,"current_range_meters":17200,"station_id":"","pricing_plan_id":"cebpf4jnsgd1na2vs0mg"},{"bike_id":"febfb0dd-62aa-4333-8aa6-5a2dfd2c5e17","system_id":"levelo_inurba_marseille","lat":43.33156,"lon":5.35975,"is_reserved":false,"is_disabled":false,"rental_uris":{"android":"levelo://app?vid=febfb0dd-62aa-4333-8aa6-5a2dfd2c5e17","ios":"levelo://app?vid=febfb0dd-62aa-4333-8aa6-5a2dfd2c5e17"},"vehicle_type_id":"4","last_reported":1753504133,"current_range_meters":17200,"station_id":"","pricing_plan_id":"cebpf4jnsgd1na2vs0mg"},{"bike_id":"d592fb10-edb9-4fb7-a04f-a8e72ee0f037","system_id":"levelo_inurba_marseille","lat":43.28131,"lon":5.42639,"is_reserved":false,"is_disabled":false,"rental_uris":{"android":"levelo://app?vid=d592fb10-edb9-4fb7-a04f-a8e72ee0f037","ios":"levelo://app?vid=d592fb10-edb9-4fb7-a04f-a8e72ee0f037"},"vehicle_type_id":"4","last_reported":1753504133,"current_range_meters":17200,"station_id":"ce4bhnh2rcd13ifvqgug","pricing_plan_id":"cebpf4jnsgd1na2vs0mg"},{"bike_id":"4f069cb2-e85f-44ab-8659-b3444c19b657","system_id":"levelo_inurba_marseille","lat":43.23182,"lon":5.35567,"is_reserved":false,"is_disabled":false,"rental_uris":{"android":"levelo://app?vid=4f069cb2-e85f-44ab-8659-b3444c19b657","ios":"levelo://app?vid=4f069cb2-e85f-44ab-8659-b3444c19b657"},"vehicle_type_id":"4","last_reported":1753504133,"current_range_meters":17200,"station_id":"ce4bhu92rcd13ifvqi70","pricing_plan_id":"cebpf4jnsgd1na2vs0mg"},{"bike_id":"61cd7fe3-237f-4708-afc7-dd8a81b4454c","system_id":"levelo_inurba_marseille","lat":43.22919,"lon":5.35387,"is_reserved":false,"is_disabled":false,"rental_uris":{"android":"levelo://app?vid=61cd7fe3-237f-4708-afc7-dd8a81b4454c","ios":"levelo://app?vid=61cd7fe3-237f-4708-afc7-dd8a81b4454c"},"vehicle_type_id":"4","last_reported":1753504133,"current_range_meters":17200,"station_id":"cpo3532slgdg3j2ikp40","pricing_plan_id":"cebpf4jnsgd1na2vs0mg"},{"bike_id":"43dbc09e-d0e4-4ddb-bafe-4f55874d23a9","system_id":"levelo_inurba_marseille","lat":43.3023,"lon":5.38223,"is_reserved":false,"is_disabled":false,"rental_uris":{"android":"levelo://app?vid=43dbc09e-d0e4-4ddb-bafe-4f55874d23a9","ios":"levelo://app?vid=43dbc09e-d0e4-4ddb-bafe-4f55874d23a9"},"vehicle_type_id":"4","last_reported":1753504133,"current_range_meters":17200,"station_id":"","pricing_plan_id":"cebpf4jnsgd1na2vs0mg"},{"bike_id":"8487f269-40b2-4c5a-8dd3-4a92c89bfeff","system_id":"levelo_inurba_marseille","lat":43.299124,"lon":5.374729,"is_reserved":false,"is_disabled":true,"rental_uris":{"android":"levelo://app?vid=8487f269-40b2-4c5a-8dd3-4a92c89bfeff","ios":"levelo://app?vid=8487f269-40b2-4c5a-8dd3-4a92c89bfeff"},"vehicle_type_id":"4","last_reported":1753504133,"current_range_meters":17200,"station_id":"ce4bgjh2rcd13ifvqbg0","pricing_plan_id":"cebpf4jnsgd1na2vs0mg"},{"bike_id":"7e65c5ea-0429-45f5-a396-bd32e67f0744","system_id":"levelo_inurba_marseille","lat":43.33475,"lon":5.40036,"is_reserved":false,"is_disabled":false,"rental_uris":{"android":"levelo://app?vid=7e65c5ea-0429-45f5-a396-bd32e67f0744","ios":"levelo://app?vid=7e65c5ea-0429-45f5-a396-bd32e67f0744"},"vehicle_type_id":"4","last_reported":1753504133,"current_range_meters":17200,"station_id":"","pricing_plan_id":"cebpf4jnsgd1na2vs0mg"},{"bike_id":"c955e182-4838-4943-8360-dd58958aee37","system_id":"levelo_inurba_marseille","lat":43.30946,"lon":5.40134,"is_reserved":false,"is_disabled":false,"rental_uris":{"android":"levelo://app?vid=c955e182-4838-4943-8360-dd58958aee37","ios":"levelo://app?vid=c955e182-4838-4943-8360-dd58958aee37"},"vehicle_type_id":"4","last_reported":1753504133,"current_range_meters":17200,"station_id":"ce4bgvp2rcd13ifvqct0","pricing_plan_id":"cebpf4jnsgd1na2vs0mg"},{"bike_id":"725317c6-351b-43e5-b68d-45c3db010ac3","system_id":"levelo_inurba_marseille","lat":43.281481,"lon":5.426364,"is_reserved":false,"is_disabled":false,"rental_uris":{"android":"levelo://app?vid=725317c6-351b-43e5-b68d-45c3db010ac3","ios":"levelo://app?vid=725317c6-351b-43e5-b68d-45c3db010ac3"},"vehicle_type_id":"4","last_reported":1753504133,"current_range_meters":17600,"station_id":"ce4bhnh2rcd13ifvqgug","pricing_plan_id":"cebpf4jnsgd1na2vs0mg"},{"bike_id":"ecb1a541-452e-4924-8cdd-4fda085c67c8","system_id":"levelo_inurba_marseille","lat":43.28456,"lon":5.35887,"is_reserved":false,"is_disabled":false,"rental_uris":{"android":"levelo://app?vid=ecb1a541-452e-4924-8cdd-4fda085c67c8","ios":"levelo://app?vid=ecb1a541-452e-4924-8cdd-4fda085c67c8"},"vehicle_type_id":"4","last_reported":1753504133,"current_range_meters":17600,"station_id":"ce4bhah2rcd13ifvqei0","pricing_plan_id":"cebpf4jnsgd1na2vs0mg"},{"bike_id":"b5826571-2e9f-447e-9576-a91912817827","system_id":"levelo_inurba_marseille","lat":43.27206,"lon":5.391867,"is_reserved":false,"is_disabled":false,"rental_uris":{"android":"levelo://app?vid=b5826571-2e9f-447e-9576-a91912817827","ios":"levelo://app?vid=b5826571-2e9f-447e-9576-a91912817827"},"vehicle_type_id":"4","last_reported":1753504133,"current_range_meters":17600,"station_id":"ce4bhhp2rcd13ifvqfm0","pricing_plan_id":"cebpf4jnsgd1na2vs0mg"},{"bike_id":"ba0f16c0-3055-471e-a6c5-bc14ed0b4038","system_id":"levelo_inurba_marseille","lat":43.30335,"lon":5.40443,"is_reserved":false,"is_disabled":false,"rental_uris":{"android":"levelo://app?vid=ba0f16c0-3055-471e-a6c5-bc14ed0b4038","ios":"levelo://app?vid=ba0f16c0-3055-471e-a6c5-bc14ed0b4038"},"vehicle_type_id":"4","last_reported":1753504133,"current_range_meters":17600,"station_id":"ce4bh012rcd13ifvqd10","pricing_plan_id":"cebpf4jnsgd1na2vs0mg"},{"bike_id":"c16b128a-b8ba-492e-87bd-adc49339a1c1","system_id":"levelo_inurba_marseille","lat":43.31081,"lon":5.38363,"is_reserved":false,"is_disabled":false,"rental_uris":{"android":"levelo://app?vid=c16b128a-b8ba-492e-87bd-adc49339a1c1","ios":"levelo://app?vid=c16b128a-b8ba-492e-87bd-adc49339a1c1"},"vehicle_type_id":"4","last_reported":1753504133,"current_range_meters":17600,"station_id":"ce4bgv92rcd13ifvqcr0","pricing_plan_id":"cebpf4jnsgd1na2vs0mg"},{"bike_id":"f6be5df2-a7bd-4141-8071-a46835832a84","system_id":"levelo_inurba_marseille","lat":43.24802,"lon":5.37457,"is_reserved":false,"is_disabled":false,"rental_uris":{"android":"levelo://app?vid=f6be5df2-a7bd-4141-8071-a46835832a84","ios":"levelo://app?vid=f6be5df2-a7bd-4141-8071-a46835832a84"},"vehicle_type_id":"4","last_reported":1753504133,"current_range_meters":17600,"station_id":"ce4bhgh2rcd13ifvqfb0","pricing_plan_id":"cebpf4jnsgd1na2vs0mg"},{"bike_id":"0a1197d6-783f-45df-a657-40c3bd37c2ae","system_id":"levelo_inurba_marseille","lat":43.313578,"lon":5.384958,"is_reserved":false,"is_disabled":false,"rental_uris":{"android":"levelo://app?vid=0a1197d6-783f-45df-a657-40c3bd37c2ae","ios":"levelo://app?vid=0a1197d6-783f-45df-a657-40c3bd37c2ae"},"vehicle_type_id":"4","last_reported":1753504133,"current_range_meters":17600,"station_id":"ce4bgt92rcd13ifvqcf0","pricing_plan_id":"cebpf4jnsgd1na2vs0mg"},{"bike_id":"5fc666d4-7509-40b3-b359-a141ffaa9f74","system_id":"levelo_inurba_marseille","lat":43.275008,"lon":5.424624,"is_reserved":false,"is_disabled":false,"rental_uris":{"android":"levelo://app?vid=5fc666d4-7509-40b3-b359-a141ffaa9f74","ios":"levelo://app?vid=5fc666d4-7509-40b3-b359-a141ffaa9f74"},"vehicle_type_id":"4","last_reported":1753504133,"current_range_meters":18000,"station_id":"ce4bhn92rcd13ifvqgrg","pricing_plan_id":"cebpf4jnsgd1na2vs0mg"},{"bike_id":"a6163d10-cb41-4b4a-a2f0-ffc1f9744bc3","system_id":"levelo_inurba_marseille","lat":43.313586,"lon":5.385027,"is_reserved":false,"is_disabled":false,"rental_uris":{"android":"levelo://app?vid=a6163d10-cb41-4b4a-a2f0-ffc1f9744bc3","ios":"levelo://app?vid=a6163d10-cb41-4b4a-a2f0-ffc1f9744bc3"},"vehicle_type_id":"4","last_reported":1753504133,"current_range_meters":18000,"station_id":"ce4bgt92rcd13ifvqcf0","pricing_plan_id":"cebpf4jnsgd1na2vs0mg"},{"bike_id":"22fb4a68-6b7c-48ba-8180-ba736e05bfcc","system_id":"levelo_inurba_marseille","lat":43.26718,"lon":5.37664,"is_reserved":false,"is_disabled":false,"rental_uris":{"android":"levelo://app?vid=22fb4a68-6b7c-48ba-8180-ba736e05bfcc","ios":"levelo://app?vid=22fb4a68-6b7c-48ba-8180-ba736e05bfcc"},"vehicle_type_id":"4","last_reported":1753504133,"current_range_meters":18000,"station_id":"","pricing_plan_id":"cebpf4jnsgd1na2vs0mg"},{"bike_id":"17aa2c45-c857-423f-9f41-4a0fa9f6f0b0","system_id":"levelo_inurba_marseille","lat":43.31362,"lon":5.38512,"is_reserved":false,"is_disabled":false,"rental_uris":{"android":"levelo://app?vid=17aa2c45-c857-423f-9f41-4a0fa9f6f0b0","ios":"levelo://app?vid=17aa2c45-c857-423f-9f41-4a0fa9f6f0b0"},"vehicle_type_id":"4","last_reported":1753504133,"current_range_meters":18000,"station_id":"ce4bgt92rcd13ifvqcf0","pricing_plan_id":"cebpf4jnsgd1na2vs0mg"},{"bike_id":"bc768416-3253-4b4d-864d-9fcf3e000154","system_id":"levelo_inurba_marseille","lat":43.3037,"lon":5.42481,"is_reserved":false,"is_disabled":false,"rental_uris":{"android":"levelo://app?vid=bc768416-3253-4b4d-864d-9fcf3e000154","ios":"levelo://app?vid=bc768416-3253-4b4d-864d-9fcf3e000154"},"vehicle_type_id":"4","last_reported":1753504133,"current_range_meters":18000,"station_id":"ce4bhoh2rcd13ifvqh6g","pricing_plan_id":"cebpf4jnsgd1na2vs0mg"},{"bike_id":"8d638062-b729-4ab6-a2cd-3ffb748369e4","system_id":"levelo_inurba_marseille","lat":43.305291,"lon":5.369444,"is_reserved":false,"is_disabled":false,"rental_uris":{"android":"levelo://app?vid=8d638062-b729-4ab6-a2cd-3ffb748369e4","ios":"levelo://app?vid=8d638062-b729-4ab6-a2cd-3ffb748369e4"},"vehicle_type_id":"4","last_reported":1753504133,"current_range_meters":18000,"station_id":"","pricing_plan_id":"cebpf4jnsgd1na2vs0mg"},{"bike_id":"a0f4c9cb-36e5-4b83-9aaf-945e03cc00e2","system_id":"levelo_inurba_marseille","lat":43.28723,"lon":5.3996,"is_reserved":false,"is_disabled":false,"rental_uris":{"android":"levelo://app?vid=a0f4c9cb-36e5-4b83-9aaf-945e03cc00e2","ios":"levelo://app?vid=a0f4c9cb-36e5-4b83-9aaf-945e03cc00e2"},"vehicle_type_id":"4","last_reported":1753504133,"current_range_meters":18000,"station_id":"ce4bho92rcd13ifvqh3g","pricing_plan_id":"cebpf4jnsgd1na2vs0mg"},{"bike_id":"d3269d35-fd73-4dea-9e0f-9d77773ffb34","system_id":"levelo_inurba_marseille","lat":43.28461,"lon":5.35882,"is_reserved":false,"is_disabled":false,"rental_uris":{"android":"levelo://app?vid=d3269d35-fd73-4dea-9e0f-9d77773ffb34","ios":"levelo://app?vid=d3269d35-fd73-4dea-9e0f-9d77773ffb34"},"vehicle_type_id":"4","last_reported":1753504133,"current_range_meters":18000,"station_id":"ce4bhah2rcd13ifvqei0","pricing_plan_id":"cebpf4jnsgd1na2vs0mg"},{"bike_id":"25f3e258-0c7a-499b-b187-4c4dddf45bcd","system_id":"levelo_inurba_marseille","lat":43.29274,"lon":5.36837,"is_reserved":false,"is_disabled":true,"rental_uris":{"android":"levelo://app?vid=25f3e258-0c7a-499b-b187-4c4dddf45bcd","ios":"levelo://app?vid=25f3e258-0c7a-499b-b187-4c4dddf45bcd"},"vehicle_type_id":"4","last_reported":1753504133,"current_range_meters":18000,"station_id":"ce4bhbp2rcd13ifvqesg","pricing_plan_id":"cebpf4jnsgd1na2vs0mg"},{"bike_id":"20958b00-1757-46f4-b566-babd7f94d862","system_id":"levelo_inurba_marseille","lat":43.24668,"lon":5.38148,"is_reserved":false,"is_disabled":false,"rental_uris":{"android":"levelo://app?vid=20958b00-1757-46f4-b566-babd7f94d862","ios":"levelo://app?vid=20958b00-1757-46f4-b566-babd7f94d862"},"vehicle_type_id":"4","last_reported":1753504133,"current_range_meters":18000,"station_id":"ce4bhih2rcd13ifvqfr0","pricing_plan_id":"cebpf4jnsgd1na2vs0mg"},{"bike_id":"b06283d0-bfee-4d10-993a-2b7ca7bb1953","system_id":"levelo_inurba_marseille","lat":43.25491,"lon":5.37645,"is_reserved":false,"is_disabled":false,"rental_uris":{"android":"levelo://app?vid=b06283d0-bfee-4d10-993a-2b7ca7bb1953","ios":"levelo://app?vid=b06283d0-bfee-4d10-993a-2b7ca7bb1953"},"vehicle_type_id":"4","last_reported":1753504133,"current_range_meters":18000,"station_id":"ce4bhh12rcd13ifvqff0","pricing_plan_id":"cebpf4jnsgd1na2vs0mg"},{"bike_id":"a7da2507-e354-4838-8e19-5746cc5423ef","system_id":"levelo_inurba_marseille","lat":43.28844,"lon":5.35847,"is_reserved":false,"is_disabled":true,"rental_uris":{"android":"levelo://app?vid=a7da2507-e354-4838-8e19-5746cc5423ef","ios":"levelo://app?vid=a7da2507-e354-4838-8e19-5746cc5423ef"},"vehicle_type_id":"4","last_reported":1753504133,"current_range_meters":18000,"station_id":"ce4bhb12rcd13ifvqem0","pricing_plan_id":"cebpf4jnsgd1na2vs0mg"},{"bike_id":"6249b594-9952-40bc-b8a1-caf06fd62beb","system_id":"levelo_inurba_marseille","lat":43.301377,"lon":5.374045,"is_reserved":false,"is_disabled":false,"rental_uris":{"android":"levelo://app?vid=6249b594-9952-40bc-b8a1-caf06fd62beb","ios":"levelo://app?vid=6249b594-9952-40bc-b8a1-caf06fd62beb"},"vehicle_type_id":"4","last_reported":1753504133,"current_range_meters":18000,"station_id":"ce4bgs92rcd13ifvqcc0","pricing_plan_id":"cebpf4jnsgd1na2vs0mg"},{"bike_id":"6672cf7e-63d9-41b0-8ff0-2ad8d8fefb19","system_id":"levelo_inurba_marseille","lat":43.317603,"lon":5.390208,"is_reserved":false,"is_disabled":false,"rental_uris":{"android":"levelo://app?vid=6672cf7e-63d9-41b0-8ff0-2ad8d8fefb19","ios":"levelo://app?vid=6672cf7e-63d9-41b0-8ff0-2ad8d8fefb19"},"vehicle_type_id":"4","last_reported":1753504133,"current_range_meters":18000,"station_id":"ce4bhqp2rcd13ifvqhng","pricing_plan_id":"cebpf4jnsgd1na2vs0mg"},{"bike_id":"a6bfb3b9-c546-437c-8448-eba894baddca","system_id":"levelo_inurba_marseille","lat":43.310678,"lon":5.383516,"is_reserved":false,"is_disabled":false,"rental_uris":{"android":"levelo://app?vid=a6bfb3b9-c546-437c-8448-eba894baddca","ios":"levelo://app?vid=a6bfb3b9-c546-437c-8448-eba894baddca"},"vehicle_type_id":"4","last_reported":1753504133,"current_range_meters":18800,"station_id":"ce4bgv92rcd13ifvqcr0","pricing_plan_id":"cebpf4jnsgd1na2vs0mg"},{"bike_id":"00bd26d4-f128-4308-874a-9850ad5e1380","system_id":"levelo_inurba_marseille","lat":43.33764,"lon":5.37481,"is_reserved":false,"is_disabled":false,"rental_uris":{"android":"levelo://app?vid=00bd26d4-f128-4308-874a-9850ad5e1380","ios":"levelo://app?vid=00bd26d4-f128-4308-874a-9850ad5e1380"},"vehicle_type_id":"4","last_reported":1753504133,"current_range_meters":18800,"station_id":"","pricing_plan_id":"cebpf4jnsgd1na2vs0mg"},{"bike_id":"5807cbdd-25cb-4d16-b9bc-ae0cd7616274","system_id":"levelo_inurba_marseille","lat":43.24556,"lon":5.39528,"is_reserved":false,"is_disabled":false,"rental_uris":{"android":"levelo://app?vid=5807cbdd-25cb-4d16-b9bc-ae0cd7616274","ios":"levelo://app?vid=5807cbdd-25cb-4d16-b9bc-ae0cd7616274"},