{"last_updated":1777052520,"ttl":60,"version":"2.2","data":{"bikes":[{"bike_id":"7db8e5f3-3982-4808-8fb4-746a2f23f4b1","system_id":"levelo_inurba_marseille","lat":43.29342,"lon":5.4389,"is_reserved":false,"is_disabled":false,"rental_uris":{"android":"levelo://app?vid=7db8e5f3-3982-4808-8fb4-746a2f23f4b1","ios":"levelo://app?vid=7db8e5f3-3982-4808-8fb4-746a2f23f4b1"},"vehicle_type_id":"4","last_reported":1777052521,"current_range_meters":2800,"station_id":"","pricing_plan_id":"cebpf4jnsgd1na2vs0mg"},{"bike_id":"b679b0d2-dd48-46d0-9b72-b702245ee0ce","system_id":"levelo_inurba_marseille","lat":43.24797,"lon":5.37456,"is_reserved":false,"is_disabled":false,"rental_uris":{"android":"levelo://app?vid=b679b0d2-dd48-46d0-9b72-b702245ee0ce","ios":"levelo://app?vid=b679b0d2-dd48-46d0-9b72-b702245ee0ce"},"vehicle_type_id":"4","last_reported":1777052521,"current_range_meters":2800,"station_id":"ce4bhgh2rcd13ifvqfb0","pricing_plan_id":"cebpf4jnsgd1na2vs0mg"},{"bike_id":"b867ae37-2fc5-4c43-92c2-d9ee24c8ff41","system_id":"levelo_inurba_marseille","lat":43.24977,"lon":5.41981,"is_reserved":false,"is_disabled":false,"rental_uris":{"android":"levelo://app?vid=b867ae37-2fc5-4c43-92c2-d9ee24c8ff41","ios":"levelo://app?vid=b867ae37-2fc5-4c43-92c2-d9ee24c8ff41"},"vehicle_type_id":"4","last_reported":1777052521,"current_range_meters":2800,"station_id":"","pricing_plan_id":"cebpf4jnsgd1na2vs0mg"},{"bike_id":"7e726f3f-feee-40f4-90de-d0a0aef3a526","system_id":"levelo_inurba_marseille","lat":43.27066,"lon":5.42276,"is_reserved":false,"is_disabled":false,"rental_uris":{"android":"levelo://app?vid=7e726f3f-feee-40f4-90de-d0a0aef3a526","ios":"levelo://app?vid=7e726f3f-feee-40f4-90de-d0a0aef3a526"},"vehicle_type_id":"4","last_reported":1777052521,"current_range_meters":2800,"station_id":"ce4bhk92rcd13ifvqgb0","pricing_plan_id":"cebpf4jnsgd1na2vs0mg"},{"bike_id":"0923929c-d272-4fa1-a3d9-8f4c7a6f830d","system_id":"levelo_inurba_marseille","lat":43.30833,"lon":5.38211,"is_reserved":false,"is_disabled":false,"rental_uris":{"android":"levelo://app?vid=0923929c-d272-4fa1-a3d9-8f4c7a6f830d","ios":"levelo://app?vid=0923929c-d272-4fa1-a3d9-8f4c7a6f830d"},"vehicle_type_id":"4","last_reported":1777052521,"current_range_meters":2800,"station_id":"","pricing_plan_id":"cebpf4jnsgd1na2vs0mg"},{"bike_id":"5b4c1bfa-a4bb-4dae-b02e-c6365b8a2a96","system_id":"levelo_inurba_marseille","lat":43.28708,"lon":5.46677,"is_reserved":false,"is_disabled":false,"rental_uris":{"android":"levelo://app?vid=5b4c1bfa-a4bb-4dae-b02e-c6365b8a2a96","ios":"levelo://app?vid=5b4c1bfa-a4bb-4dae-b02e-c6365b8a2a96"},"vehicle_type_id":"4","last_reported":1777052521,"current_range_meters":2800,"station_id":"st_d6tc3vkotcvc738tfjhg","pricing_plan_id":"cebpf4jnsgd1na2vs0mg"},{"bike_id":"b4c425b4-8815-4c42-9c28-6a063d325505","system_id":"levelo_inurba_marseille","lat":43.2951,"lon":5.37525,"is_reserved":false,"is_disabled":false,"rental_uris":{"android":"levelo://app?vid=b4c425b4-8815-4c42-9c28-6a063d325505","ios":"levelo://app?vid=b4c425b4-8815-4c42-9c28-6a063d325505"},"vehicle_type_id":"4","last_reported":1777052521,"current_range_meters":2800,"station_id":"ce4bgkp2rcd13ifvqbmg","pricing_plan_id":"cebpf4jnsgd1na2vs0mg"},{"bike_id":"f7569e80-3b4b-43f0-9f0d-0cb78e071dde","system_id":"levelo_inurba_marseille","lat":43.29702,"lon":5.36626,"is_reserved":false,"is_disabled":false,"rental_uris":{"android":"levelo://app?vid=f7569e80-3b4b-43f0-9f0d-0cb78e071dde","ios":"levelo://app?vid=f7569e80-3b4b-43f0-9f0d-0cb78e071dde"},"vehicle_type_id":"4","last_reported":1777052521,"current_range_meters":2800,"station_id":"ce4bgn12rcd13ifvqbt0","pricing_plan_id":"cebpf4jnsgd1na2vs0mg"},{"bike_id":"e1286b42-ea9d-45af-ae88-fa012e9c0e3f","system_id":"levelo_inurba_marseille","lat":43.25716,"lon":5.41113,"is_reserved":false,"is_disabled":false,"rental_uris":{"android":"levelo://app?vid=e1286b42-ea9d-45af-ae88-fa012e9c0e3f","ios":"levelo://app?vid=e1286b42-ea9d-45af-ae88-fa012e9c0e3f"},"vehicle_type_id":"4","last_reported":1777052521,"current_range_meters":2800,"station_id":"ce4bhkp2rcd13ifvqgd0","pricing_plan_id":"cebpf4jnsgd1na2vs0mg"},{"bike_id":"11326457-7246-463b-8ad9-aac55f1d701d","system_id":"levelo_inurba_marseille","lat":43.28421,"lon":5.34999,"is_reserved":false,"is_disabled":false,"rental_uris":{"android":"levelo://app?vid=11326457-7246-463b-8ad9-aac55f1d701d","ios":"levelo://app?vid=11326457-7246-463b-8ad9-aac55f1d701d"},"vehicle_type_id":"4","last_reported":1777052521,"current_range_meters":2800,"station_id":"ce4bhbh2rcd13ifvqepg","pricing_plan_id":"cebpf4jnsgd1na2vs0mg"},{"bike_id":"a9b3d9ff-bdd1-4f4f-8331-3325c3a141d7","system_id":"levelo_inurba_marseille","lat":43.29434,"lon":5.39756,"is_reserved":false,"is_disabled":false,"rental_uris":{"android":"levelo://app?vid=a9b3d9ff-bdd1-4f4f-8331-3325c3a141d7","ios":"levelo://app?vid=a9b3d9ff-bdd1-4f4f-8331-3325c3a141d7"},"vehicle_type_id":"4","last_reported":1777052521,"current_range_meters":2800,"station_id":"ce4bh3h2rcd13ifvqdo0","pricing_plan_id":"cebpf4jnsgd1na2vs0mg"},{"bike_id":"0ae89ab6-ccc6-4aff-9300-99aba4fec4d8","system_id":"levelo_inurba_marseille","lat":43.29519,"lon":5.38527,"is_reserved":false,"is_disabled":false,"rental_uris":{"android":"levelo://app?vid=0ae89ab6-ccc6-4aff-9300-99aba4fec4d8","ios":"levelo://app?vid=0ae89ab6-ccc6-4aff-9300-99aba4fec4d8"},"vehicle_type_id":"4","last_reported":1777052521,"current_range_meters":2800,"station_id":"ce4bgih2rcd13ifvqba0","pricing_plan_id":"cebpf4jnsgd1na2vs0mg"},{"bike_id":"98b7bba5-a3c4-49fb-9b4f-a775a27706b7","system_id":"levelo_inurba_marseille","lat":43.27673,"lon":5.3887,"is_reserved":false,"is_disabled":false,"rental_uris":{"android":"levelo://app?vid=98b7bba5-a3c4-49fb-9b4f-a775a27706b7","ios":"levelo://app?vid=98b7bba5-a3c4-49fb-9b4f-a775a27706b7"},"vehicle_type_id":"4","last_reported":1777052521,"current_range_meters":2800,"station_id":"ce4bhi12rcd13ifvqfo0","pricing_plan_id":"cebpf4jnsgd1na2vs0mg"},{"bike_id":"9d993c45-1aee-481c-b576-0ee69822ada1","system_id":"levelo_inurba_marseille","lat":43.25489,"lon":5.37651,"is_reserved":false,"is_disabled":false,"rental_uris":{"android":"levelo://app?vid=9d993c45-1aee-481c-b576-0ee69822ada1","ios":"levelo://app?vid=9d993c45-1aee-481c-b576-0ee69822ada1"},"vehicle_type_id":"4","last_reported":1777052521,"current_range_meters":2800,"station_id":"ce4bhh12rcd13ifvqff0","pricing_plan_id":"cebpf4jnsgd1na2vs0mg"},{"bike_id":"1487fe24-7b87-4a9f-8132-0b756ace3884","system_id":"levelo_inurba_marseille","lat":43.29003,"lon":5.35613,"is_reserved":false,"is_disabled":false,"rental_uris":{"android":"levelo://app?vid=1487fe24-7b87-4a9f-8132-0b756ace3884","ios":"levelo://app?vid=1487fe24-7b87-4a9f-8132-0b756ace3884"},"vehicle_type_id":"4","last_reported":1777052521,"current_range_meters":2800,"station_id":"ce4bhb92rcd13ifvqen0","pricing_plan_id":"cebpf4jnsgd1na2vs0mg"},{"bike_id":"67d3bf56-8bb7-40c4-843e-6c3a7482e7c8","system_id":"levelo_inurba_marseille","lat":43.2953,"lon":5.38585,"is_reserved":false,"is_disabled":false,"rental_uris":{"android":"levelo://app?vid=67d3bf56-8bb7-40c4-843e-6c3a7482e7c8","ios":"levelo://app?vid=67d3bf56-8bb7-40c4-843e-6c3a7482e7c8"},"vehicle_type_id":"4","last_reported":1777052521,"current_range_meters":2800,"station_id":"ce4bgih2rcd13ifvqba0","pricing_plan_id":"cebpf4jnsgd1na2vs0mg"},{"bike_id":"d5b04ec4-1020-488a-974a-3c85994efac7","system_id":"levelo_inurba_marseille","lat":43.29005,"lon":5.35608,"is_reserved":false,"is_disabled":false,"rental_uris":{"android":"levelo://app?vid=d5b04ec4-1020-488a-974a-3c85994efac7","ios":"levelo://app?vid=d5b04ec4-1020-488a-974a-3c85994efac7"},"vehicle_type_id":"4","last_reported":1777052521,"current_range_meters":2800,"station_id":"ce4bhb92rcd13ifvqen0","pricing_plan_id":"cebpf4jnsgd1na2vs0mg"},{"bike_id":"0975b36c-25a5-4b7f-a85a-8b7f6b9a2a0d","system_id":"levelo_inurba_marseille","lat":43.29259,"lon":5.38435,"is_reserved":false,"is_disabled":false,"rental_uris":{"android":"levelo://app?vid=0975b36c-25a5-4b7f-a85a-8b7f6b9a2a0d","ios":"levelo://app?vid=0975b36c-25a5-4b7f-a85a-8b7f6b9a2a0d"},"vehicle_type_id":"4","last_reported":1777052521,"current_range_meters":3200,"station_id":"ce4bh692rcd13ifvqea0","pricing_plan_id":"cebpf4jnsgd1na2vs0mg"},{"bike_id":"aa4a1e19-2a7b-4072-841f-71b064959f54","system_id":"levelo_inurba_marseille","lat":43.29714,"lon":5.36605,"is_reserved":false,"is_disabled":false,"rental_uris":{"android":"levelo://app?vid=aa4a1e19-2a7b-4072-841f-71b064959f54","ios":"levelo://app?vid=aa4a1e19-2a7b-4072-841f-71b064959f54"},"vehicle_type_id":"4","last_reported":1777052521,"current_range_meters":3200,"station_id":"ce4bgn12rcd13ifvqbt0","pricing_plan_id":"cebpf4jnsgd1na2vs0mg"},{"bike_id":"8f975cf4-69f4-4fd4-8c34-d7df8df21514","system_id":"levelo_inurba_marseille","lat":43.33777,"lon":5.37465,"is_reserved":false,"is_disabled":false,"rental_uris":{"android":"levelo://app?vid=8f975cf4-69f4-4fd4-8c34-d7df8df21514","ios":"levelo://app?vid=8f975cf4-69f4-4fd4-8c34-d7df8df21514"},"vehicle_type_id":"4","last_reported":1777052521,"current_range_meters":3200,"station_id":"st_d46cu089ee8s73dldbu0","pricing_plan_id":"cebpf4jnsgd1na2vs0mg"},{"bike_id":"7b4886d8-4815-49d1-a17a-8f1e75426c84","system_id":"levelo_inurba_marseille","lat":43.284328,"lon":5.375012,"is_reserved":false,"is_disabled":false,"rental_uris":{"android":"levelo://app?vid=7b4886d8-4815-49d1-a17a-8f1e75426c84","ios":"levelo://app?vid=7b4886d8-4815-49d1-a17a-8f1e75426c84"},"vehicle_type_id":"4","last_reported":1777052521,"current_range_meters":3200,"station_id":"ce4bh412rcd13ifvqds0","pricing_plan_id":"cebpf4jnsgd1na2vs0mg"},{"bike_id":"0efc8674-b63f-41c4-92e4-4c1c0359e882","system_id":"levelo_inurba_marseille","lat":43.27834,"lon":5.39213,"is_reserved":false,"is_disabled":false,"rental_uris":{"android":"levelo://app?vid=0efc8674-b63f-41c4-92e4-4c1c0359e882","ios":"levelo://app?vid=0efc8674-b63f-41c4-92e4-4c1c0359e882"},"vehicle_type_id":"4","last_reported":1777052521,"current_range_meters":3200,"station_id":"ce4bhjp2rcd13ifvqga0","pricing_plan_id":"cebpf4jnsgd1na2vs0mg"},{"bike_id":"dc3d93ea-ae84-4a55-9dbf-fa49417dc298","system_id":"levelo_inurba_marseille","lat":43.25753,"lon":5.38641,"is_reserved":false,"is_disabled":false,"rental_uris":{"android":"levelo://app?vid=dc3d93ea-ae84-4a55-9dbf-fa49417dc298","ios":"levelo://app?vid=dc3d93ea-ae84-4a55-9dbf-fa49417dc298"},"vehicle_type_id":"4","last_reported":1777052521,"current_range_meters":3200,"station_id":"","pricing_plan_id":"cebpf4jnsgd1na2vs0mg"},{"bike_id":"fab422c3-3e71-460a-9231-398cabf4cd0f","system_id":"levelo_inurba_marseille","lat":43.23186,"lon":5.35627,"is_reserved":false,"is_disabled":true,"rental_uris":{"android":"levelo://app?vid=fab422c3-3e71-460a-9231-398cabf4cd0f","ios":"levelo://app?vid=fab422c3-3e71-460a-9231-398cabf4cd0f"},"vehicle_type_id":"4","last_reported":1777052521,"current_range_meters":3200,"station_id":"","pricing_plan_id":"cebpf4jnsgd1na2vs0mg"},{"bike_id":"b65441ff-6f9b-47a0-982b-d8fcb2d0e0e4","system_id":"levelo_inurba_marseille","lat":43.27066,"lon":5.42278,"is_reserved":false,"is_disabled":false,"rental_uris":{"android":"levelo://app?vid=b65441ff-6f9b-47a0-982b-d8fcb2d0e0e4","ios":"levelo://app?vid=b65441ff-6f9b-47a0-982b-d8fcb2d0e0e4"},"vehicle_type_id":"4","last_reported":1777052521,"current_range_meters":3200,"station_id":"ce4bhk92rcd13ifvqgb0","pricing_plan_id":"cebpf4jnsgd1na2vs0mg"},{"bike_id":"81a1824e-97df-43b0-a57c-a5237f263903","system_id":"levelo_inurba_marseille","lat":43.3059,"lon":5.39365,"is_reserved":false,"is_disabled":true,"rental_uris":{"android":"levelo://app?vid=81a1824e-97df-43b0-a57c-a5237f263903","ios":"levelo://app?vid=81a1824e-97df-43b0-a57c-a5237f263903"},"vehicle_type_id":"4","last_reported":1777052521,"current_range_meters":3200,"station_id":"ce4bh0p2rcd13ifvqd80","pricing_plan_id":"cebpf4jnsgd1na2vs0mg"},{"bike_id":"9df1c15f-aef1-474e-98b2-e17bb32f2bfd","system_id":"levelo_inurba_marseille","lat":43.28555,"lon":5.441517,"is_reserved":false,"is_disabled":false,"rental_uris":{"android":"levelo://app?vid=9df1c15f-aef1-474e-98b2-e17bb32f2bfd","ios":"levelo://app?vid=9df1c15f-aef1-474e-98b2-e17bb32f2bfd"},"vehicle_type_id":"4","last_reported":1777052521,"current_range_meters":3200,"station_id":"st_d3j3df2ikq2c7380ej80","pricing_plan_id":"cebpf4jnsgd1na2vs0mg"},{"bike_id":"09e2dc60-57f0-4e5c-ae27-f3ec4f74d948","system_id":"levelo_inurba_marseille","lat":43.26544,"lon":5.39071,"is_reserved":false,"is_disabled":false,"rental_uris":{"android":"levelo://app?vid=09e2dc60-57f0-4e5c-ae27-f3ec4f74d948","ios":"levelo://app?vid=09e2dc60-57f0-4e5c-ae27-f3ec4f74d948"},"vehicle_type_id":"4","last_reported":1777052521,"current_range_meters":3200,"station_id":"","pricing_plan_id":"cebpf4jnsgd1na2vs0mg"},{"bike_id":"9c3677d0-627f-49f8-bd9c-64ba96ef4fce","system_id":"levelo_inurba_marseille","lat":43.2849,"lon":5.484,"is_reserved":false,"is_disabled":false,"rental_uris":{"android":"levelo://app?vid=9c3677d0-627f-49f8-bd9c-64ba96ef4fce","ios":"levelo://app?vid=9c3677d0-627f-49f8-bd9c-64ba96ef4fce"},"vehicle_type_id":"4","last_reported":1777052521,"current_range_meters":3200,"station_id":"","pricing_plan_id":"cebpf4jnsgd1na2vs0mg"},{"bike_id":"6b1198d6-6ec5-4586-86c4-8f2e3b7b27a2","system_id":"levelo_inurba_marseille","lat":43.30272,"lon":5.3769,"is_reserved":false,"is_disabled":false,"rental_uris":{"android":"levelo://app?vid=6b1198d6-6ec5-4586-86c4-8f2e3b7b27a2","ios":"levelo://app?vid=6b1198d6-6ec5-4586-86c4-8f2e3b7b27a2"},"vehicle_type_id":"4","last_reported":1777052521,"current_range_meters":3200,"station_id":"ce4bguh2rcd13ifvqcj0","pricing_plan_id":"cebpf4jnsgd1na2vs0mg"},{"bike_id":"07f62028-e8e9-4699-87a5-e24e67d48f3e","system_id":"levelo_inurba_marseille","lat":43.29199,"lon":5.35801,"is_reserved":false,"is_disabled":false,"rental_uris":{"android":"levelo://app?vid=07f62028-e8e9-4699-87a5-e24e67d48f3e","ios":"levelo://app?vid=07f62028-e8e9-4699-87a5-e24e67d48f3e"},"vehicle_type_id":"4","last_reported":1777052521,"current_range_meters":3600,"station_id":"ce4bhb12rcd13ifvqel0","pricing_plan_id":"cebpf4jnsgd1na2vs0mg"},{"bike_id":"f0a1e37a-8694-452a-931d-6013132b6a0d","system_id":"levelo_inurba_marseille","lat":43.29881,"lon":5.38911,"is_reserved":false,"is_disabled":false,"rental_uris":{"android":"levelo://app?vid=f0a1e37a-8694-452a-931d-6013132b6a0d","ios":"levelo://app?vid=f0a1e37a-8694-452a-931d-6013132b6a0d"},"vehicle_type_id":"4","last_reported":1777052521,"current_range_meters":3600,"station_id":"ce4bh392rcd13ifvqdl0","pricing_plan_id":"cebpf4jnsgd1na2vs0mg"},{"bike_id":"cc59e52a-8b26-4022-9d46-3a34adbf3441","system_id":"levelo_inurba_marseille","lat":43.2783,"lon":5.39216,"is_reserved":false,"is_disabled":false,"rental_uris":{"android":"levelo://app?vid=cc59e52a-8b26-4022-9d46-3a34adbf3441","ios":"levelo://app?vid=cc59e52a-8b26-4022-9d46-3a34adbf3441"},"vehicle_type_id":"4","last_reported":1777052521,"current_range_meters":3600,"station_id":"ce4bhjp2rcd13ifvqga0","pricing_plan_id":"cebpf4jnsgd1na2vs0mg"},{"bike_id":"5b6b783e-0d52-4bbd-b5a7-c33df0c76194","system_id":"levelo_inurba_marseille","lat":43.28235,"lon":5.37047,"is_reserved":false,"is_disabled":false,"rental_uris":{"android":"levelo://app?vid=5b6b783e-0d52-4bbd-b5a7-c33df0c76194","ios":"levelo://app?vid=5b6b783e-0d52-4bbd-b5a7-c33df0c76194"},"vehicle_type_id":"4","last_reported":1777052521,"current_range_meters":3600,"station_id":"","pricing_plan_id":"cebpf4jnsgd1na2vs0mg"},{"bike_id":"3a45d408-e42a-48d6-8413-ffdfb8ec1d09","system_id":"levelo_inurba_marseille","lat":43.30801,"lon":5.38162,"is_reserved":false,"is_disabled":false,"rental_uris":{"android":"levelo://app?vid=3a45d408-e42a-48d6-8413-ffdfb8ec1d09","ios":"levelo://app?vid=3a45d408-e42a-48d6-8413-ffdfb8ec1d09"},"vehicle_type_id":"4","last_reported":1777052521,"current_range_meters":3600,"station_id":"ce4bgt12rcd13ifvqce0","pricing_plan_id":"cebpf4jnsgd1na2vs0mg"},{"bike_id":"a767dc6e-2f51-4d71-9e29-f318a1beff69","system_id":"levelo_inurba_marseille","lat":43.30047,"lon":5.36585,"is_reserved":false,"is_disabled":false,"rental_uris":{"android":"levelo://app?vid=a767dc6e-2f51-4d71-9e29-f318a1beff69","ios":"levelo://app?vid=a767dc6e-2f51-4d71-9e29-f318a1beff69"},"vehicle_type_id":"4","last_reported":1777052521,"current_range_meters":3600,"station_id":"","pricing_plan_id":"cebpf4jnsgd1na2vs0mg"},{"bike_id":"ceb9ddfb-612f-4e1b-9494-fd2e4bf0c5e6","system_id":"levelo_inurba_marseille","lat":43.2894,"lon":5.36632,"is_reserved":false,"is_disabled":false,"rental_uris":{"android":"levelo://app?vid=ceb9ddfb-612f-4e1b-9494-fd2e4bf0c5e6","ios":"levelo://app?vid=ceb9ddfb-612f-4e1b-9494-fd2e4bf0c5e6"},"vehicle_type_id":"4","last_reported":1777052521,"current_range_meters":3600,"station_id":"ce4bhap2rcd13ifvqek0","pricing_plan_id":"cebpf4jnsgd1na2vs0mg"},{"bike_id":"625aeecc-9c11-464f-9c58-3d405f615cb5","system_id":"levelo_inurba_marseille","lat":43.25577,"lon":5.38239,"is_reserved":false,"is_disabled":false,"rental_uris":{"android":"levelo://app?vid=625aeecc-9c11-464f-9c58-3d405f615cb5","ios":"levelo://app?vid=625aeecc-9c11-464f-9c58-3d405f615cb5"},"vehicle_type_id":"4","last_reported":1777052521,"current_range_meters":3600,"station_id":"ce4bhih2rcd13ifvqfs0","pricing_plan_id":"cebpf4jnsgd1na2vs0mg"},{"bike_id":"044dd394-6fc9-465f-8903-41ffda6860db","system_id":"levelo_inurba_marseille","lat":43.29272,"lon":5.4012,"is_reserved":false,"is_disabled":false,"rental_uris":{"android":"levelo://app?vid=044dd394-6fc9-465f-8903-41ffda6860db","ios":"levelo://app?vid=044dd394-6fc9-465f-8903-41ffda6860db"},"vehicle_type_id":"4","last_reported":1777052521,"current_range_meters":3600,"station_id":"ce4bh312rcd13ifvqdk0","pricing_plan_id":"cebpf4jnsgd1na2vs0mg"},{"bike_id":"66361f4d-9a26-43a4-ba32-acc7e4c565e4","system_id":"levelo_inurba_marseille","lat":43.31022,"lon":5.39051,"is_reserved":false,"is_disabled":false,"rental_uris":{"android":"levelo://app?vid=66361f4d-9a26-43a4-ba32-acc7e4c565e4","ios":"levelo://app?vid=66361f4d-9a26-43a4-ba32-acc7e4c565e4"},"vehicle_type_id":"4","last_reported":1777052521,"current_range_meters":3600,"station_id":"","pricing_plan_id":"cebpf4jnsgd1na2vs0mg"},{"bike_id":"7f7fc20c-7dd9-4544-8240-f27a3d75f927","system_id":"levelo_inurba_marseille","lat":43.276195,"lon":5.361041,"is_reserved":false,"is_disabled":false,"rental_uris":{"android":"levelo://app?vid=7f7fc20c-7dd9-4544-8240-f27a3d75f927","ios":"levelo://app?vid=7f7fc20c-7dd9-4544-8240-f27a3d75f927"},"vehicle_type_id":"4","last_reported":1777052521,"current_range_meters":3600,"station_id":"ce4bgj92rcd13ifvqbe0","pricing_plan_id":"cebpf4jnsgd1na2vs0mg"},{"bike_id":"252df807-b7e5-420c-91eb-7ff82f719f89","system_id":"levelo_inurba_marseille","lat":43.277134,"lon":5.388815,"is_reserved":false,"is_disabled":false,"rental_uris":{"android":"levelo://app?vid=252df807-b7e5-420c-91eb-7ff82f719f89","ios":"levelo://app?vid=252df807-b7e5-420c-91eb-7ff82f719f89"},"vehicle_type_id":"4","last_reported":1777052521,"current_range_meters":3600,"station_id":"ce4bhi12rcd13ifvqfo0","pricing_plan_id":"cebpf4jnsgd1na2vs0mg"},{"bike_id":"77bae04d-b155-4a06-9049-fda6a4b9e974","system_id":"levelo_inurba_marseille","lat":43.29147,"lon":5.42616,"is_reserved":false,"is_disabled":false,"rental_uris":{"android":"levelo://app?vid=77bae04d-b155-4a06-9049-fda6a4b9e974","ios":"levelo://app?vid=77bae04d-b155-4a06-9049-fda6a4b9e974"},"vehicle_type_id":"4","last_reported":1777052521,"current_range_meters":4000,"station_id":"","pricing_plan_id":"cebpf4jnsgd1na2vs0mg"},{"bike_id":"fcc30355-6cb1-4161-8acf-fdcdc4b9ba99","system_id":"levelo_inurba_marseille","lat":43.29937,"lon":5.36542,"is_reserved":false,"is_disabled":false,"rental_uris":{"android":"levelo://app?vid=fcc30355-6cb1-4161-8acf-fdcdc4b9ba99","ios":"levelo://app?vid=fcc30355-6cb1-4161-8acf-fdcdc4b9ba99"},"vehicle_type_id":"4","last_reported":1777052521,"current_range_meters":4000,"station_id":"ce4bgm92rcd13ifvqbr0","pricing_plan_id":"cebpf4jnsgd1na2vs0mg"},{"bike_id":"2ee86d3e-8b53-486a-b27a-a3084c349a2b","system_id":"levelo_inurba_marseille","lat":43.28031,"lon":5.36946,"is_reserved":false,"is_disabled":false,"rental_uris":{"android":"levelo://app?vid=2ee86d3e-8b53-486a-b27a-a3084c349a2b","ios":"levelo://app?vid=2ee86d3e-8b53-486a-b27a-a3084c349a2b"},"vehicle_type_id":"4","last_reported":1777052521,"current_range_meters":4000,"station_id":"ce4bha12rcd13ifvqef0","pricing_plan_id":"cebpf4jnsgd1na2vs0mg"},{"bike_id":"c20fb71e-af3b-489e-887d-2332426edcd4","system_id":"levelo_inurba_marseille","lat":43.29799,"lon":5.40399,"is_reserved":false,"is_disabled":false,"rental_uris":{"android":"levelo://app?vid=c20fb71e-af3b-489e-887d-2332426edcd4","ios":"levelo://app?vid=c20fb71e-af3b-489e-887d-2332426edcd4"},"vehicle_type_id":"4","last_reported":1777052521,"current_range_meters":4000,"station_id":"ce4bh112rcd13ifvqd90","pricing_plan_id":"cebpf4jnsgd1na2vs0mg"},{"bike_id":"08f5b31d-2b71-4783-822c-bf431fdb0e26","system_id":"levelo_inurba_marseille","lat":43.29008,"lon":5.35608,"is_reserved":false,"is_disabled":false,"rental_uris":{"android":"levelo://app?vid=08f5b31d-2b71-4783-822c-bf431fdb0e26","ios":"levelo://app?vid=08f5b31d-2b71-4783-822c-bf431fdb0e26"},"vehicle_type_id":"4","last_reported":1777052521,"current_range_meters":4000,"station_id":"ce4bhb92rcd13ifvqen0","pricing_plan_id":"cebpf4jnsgd1na2vs0mg"},{"bike_id":"62b4e9dd-7e0c-4fe8-9116-3399c40acc29","system_id":"levelo_inurba_marseille","lat":43.288576,"lon":5.358505,"is_reserved":false,"is_disabled":false,"rental_uris":{"android":"levelo://app?vid=62b4e9dd-7e0c-4fe8-9116-3399c40acc29","ios":"levelo://app?vid=62b4e9dd-7e0c-4fe8-9116-3399c40acc29"},"vehicle_type_id":"4","last_reported":1777052521,"current_range_meters":4000,"station_id":"ce4bhb12rcd13ifvqem0","pricing_plan_id":"cebpf4jnsgd1na2vs0mg"},{"bike_id":"430af6dd-af65-4d7b-9207-e3b0833f58f1","system_id":"levelo_inurba_marseille","lat":43.28976,"lon":5.37839,"is_reserved":false,"is_disabled":false,"rental_uris":{"android":"levelo://app?vid=430af6dd-af65-4d7b-9207-e3b0833f58f1","ios":"levelo://app?vid=430af6dd-af65-4d7b-9207-e3b0833f58f1"},"vehicle_type_id":"4","last_reported":1777052521,"current_range_meters":4000,"station_id":"ce4bh9p2rcd13ifvqed0","pricing_plan_id":"cebpf4jnsgd1na2vs0mg"},{"bike_id":"0a557f2f-d9e8-4593-822e-b7f959fbb634","system_id":"levelo_inurba_marseille","lat":43.27993,"lon":5.40006,"is_reserved":false,"is_disabled":false,"rental_uris":{"android":"levelo://app?vid=0a557f2f-d9e8-4593-822e-b7f959fbb634","ios":"levelo://app?vid=0a557f2f-d9e8-4593-822e-b7f959fbb634"},"vehicle_type_id":"4","last_reported":1777052521,"current_range_meters":4000,"station_id":"ce4bho92rcd13ifvqh4g","pricing_plan_id":"cebpf4jnsgd1na2vs0mg"},{"bike_id":"a6eec8b5-930b-472d-a4e6-d1a22d5aaa3d","system_id":"levelo_inurba_marseille","lat":43.28148,"lon":5.42648,"is_reserved":false,"is_disabled":false,"rental_uris":{"android":"levelo://app?vid=a6eec8b5-930b-472d-a4e6-d1a22d5aaa3d","ios":"levelo://app?vid=a6eec8b5-930b-472d-a4e6-d1a22d5aaa3d"},"vehicle_type_id":"4","last_reported":1777052521,"current_range_meters":4000,"station_id":"ce4bhnh2rcd13ifvqgug","pricing_plan_id":"cebpf4jnsgd1na2vs0mg"},{"bike_id":"f3ed2876-1265-4ea8-8325-457c0d2edfef","system_id":"levelo_inurba_marseille","lat":43.30431,"lon":5.38883,"is_reserved":false,"is_disabled":false,"rental_uris":{"android":"levelo://app?vid=f3ed2876-1265-4ea8-8325-457c0d2edfef","ios":"levelo://app?vid=f3ed2876-1265-4ea8-8325-457c0d2edfef"},"vehicle_type_id":"4","last_reported":1777052521,"current_range_meters":4000,"station_id":"ce4bgk12rcd13ifvqbi0","pricing_plan_id":"cebpf4jnsgd1na2vs0mg"},{"bike_id":"94a4fee8-2a94-4856-aa19-19c619f6f294","system_id":"levelo_inurba_marseille","lat":43.2649,"lon":5.39541,"is_reserved":false,"is_disabled":false,"rental_uris":{"android":"levelo://app?vid=94a4fee8-2a94-4856-aa19-19c619f6f294","ios":"levelo://app?vid=94a4fee8-2a94-4856-aa19-19c619f6f294"},"vehicle_type_id":"4","last_reported":1777052521,"current_range_meters":4000,"station_id":"ce4bhi12rcd13ifvqfq0","pricing_plan_id":"cebpf4jnsgd1na2vs0mg"},{"bike_id":"f4d9ef01-6b22-4474-afe1-c4f05b6d6ca5","system_id":"levelo_inurba_marseille","lat":43.27067,"lon":5.42274,"is_reserved":false,"is_disabled":false,"rental_uris":{"android":"levelo://app?vid=f4d9ef01-6b22-4474-afe1-c4f05b6d6ca5","ios":"levelo://app?vid=f4d9ef01-6b22-4474-afe1-c4f05b6d6ca5"},"vehicle_type_id":"4","last_reported":1777052521,"current_range_meters":4000,"station_id":"ce4bhk92rcd13ifvqgb0","pricing_plan_id":"cebpf4jnsgd1na2vs0mg"},{"bike_id":"f54685b9-f0f1-425f-855f-d385aef94c96","system_id":"levelo_inurba_marseille","lat":43.243896,"lon":5.370661,"is_reserved":false,"is_disabled":false,"rental_uris":{"android":"levelo://app?vid=f54685b9-f0f1-425f-855f-d385aef94c96","ios":"levelo://app?vid=f54685b9-f0f1-425f-855f-d385aef94c96"},"vehicle_type_id":"4","last_reported":1777052521,"current_range_meters":4000,"station_id":"ce4bhhh2rcd13ifvqfk0","pricing_plan_id":"cebpf4jnsgd1na2vs0mg"},{"bike_id":"08aaa324-ba9f-4bd2-90e3-a47fc606b1c0","system_id":"levelo_inurba_marseille","lat":43.29272,"lon":5.40117,"is_reserved":false,"is_disabled":false,"rental_uris":{"android":"levelo://app?vid=08aaa324-ba9f-4bd2-90e3-a47fc606b1c0","ios":"levelo://app?vid=08aaa324-ba9f-4bd2-90e3-a47fc606b1c0"},"vehicle_type_id":"4","last_reported":1777052521,"current_range_meters":4000,"station_id":"ce4bh312rcd13ifvqdk0","pricing_plan_id":"cebpf4jnsgd1na2vs0mg"},{"bike_id":"f3bc02a4-621e-4b0a-a78a-ae8b93a1476a","system_id":"levelo_inurba_marseille","lat":43.2954,"lon":5.38539,"is_reserved":false,"is_disabled":false,"rental_uris":{"android":"levelo://app?vid=f3bc02a4-621e-4b0a-a78a-ae8b93a1476a","ios":"levelo://app?vid=f3bc02a4-621e-4b0a-a78a-ae8b93a1476a"},"vehicle_type_id":"4","last_reported":1777052521,"current_range_meters":4400,"station_id":"ce4bgih2rcd13ifvqba0","pricing_plan_id":"cebpf4jnsgd1na2vs0mg"},{"bike_id":"20c3670a-57f9-4aca-b674-acf22d26b0f8","system_id":"levelo_inurba_marseille","lat":43.23961,"lon":5.36621,"is_reserved":false,"is_disabled":true,"rental_uris":{"android":"levelo://app?vid=20c3670a-57f9-4aca-b674-acf22d26b0f8","ios":"levelo://app?vid=20c3670a-57f9-4aca-b674-acf22d26b0f8"},"vehicle_type_id":"4","last_reported":1777052521,"current_range_meters":4400,"station_id":"ce4bhi12rcd13ifvqfp0","pricing_plan_id":"cebpf4jnsgd1na2vs0mg"},{"bike_id":"6180becc-b7c0-4d8a-a9da-46c1cf2430b3","system_id":"levelo_inurba_marseille","lat":43.29256,"lon":5.36039,"is_reserved":false,"is_disabled":false,"rental_uris":{"android":"levelo://app?vid=6180becc-b7c0-4d8a-a9da-46c1cf2430b3","ios":"levelo://app?vid=6180becc-b7c0-4d8a-a9da-46c1cf2430b3"},"vehicle_type_id":"4","last_reported":1777052521,"current_range_meters":4400,"station_id":"ce4bhbh2rcd13ifvqeqg","pricing_plan_id":"cebpf4jnsgd1na2vs0mg"},{"bike_id":"861f15af-4411-452e-85ca-78bef5ecae4e","system_id":"levelo_inurba_marseille","lat":43.28604,"lon":5.351,"is_reserved":false,"is_disabled":false,"rental_uris":{"android":"levelo://app?vid=861f15af-4411-452e-85ca-78bef5ecae4e","ios":"levelo://app?vid=861f15af-4411-452e-85ca-78bef5ecae4e"},"vehicle_type_id":"4","last_reported":1777052521,"current_range_meters":4400,"station_id":"ce4bhch2rcd13ifvqeug","pricing_plan_id":"cebpf4jnsgd1na2vs0mg"},{"bike_id":"b8bb6e35-ee6f-439c-86eb-ed5c0de9be80","system_id":"levelo_inurba_marseille","lat":43.22596,"lon":5.41606,"is_reserved":false,"is_disabled":false,"rental_uris":{"android":"levelo://app?vid=b8bb6e35-ee6f-439c-86eb-ed5c0de9be80","ios":"levelo://app?vid=b8bb6e35-ee6f-439c-86eb-ed5c0de9be80"},"vehicle_type_id":"4","last_reported":1777052521,"current_range_meters":4400,"station_id":"st_d2o4gvlbi1j2169b742g","pricing_plan_id":"cebpf4jnsgd1na2vs0mg"},{"bike_id":"c1448851-4149-44fb-8c9b-6324229f2634","system_id":"levelo_inurba_marseille","lat":43.27997,"lon":5.40014,"is_reserved":false,"is_disabled":false,"rental_uris":{"android":"levelo://app?vid=c1448851-4149-44fb-8c9b-6324229f2634","ios":"levelo://app?vid=c1448851-4149-44fb-8c9b-6324229f2634"},"vehicle_type_id":"4","last_reported":1777052521,"current_range_meters":4400,"station_id":"ce4bho92rcd13ifvqh4g","pricing_plan_id":"cebpf4jnsgd1na2vs0mg"},{"bike_id":"83b39a2a-3ade-4881-9a97-62a7e0487bc0","system_id":"levelo_inurba_marseille","lat":43.28006,"lon":5.40003,"is_reserved":false,"is_disabled":false,"rental_uris":{"android":"levelo://app?vid=83b39a2a-3ade-4881-9a97-62a7e0487bc0","ios":"levelo://app?vid=83b39a2a-3ade-4881-9a97-62a7e0487bc0"},"vehicle_type_id":"4","last_reported":1777052521,"current_range_meters":4400,"station_id":"ce4bho92rcd13ifvqh4g","pricing_plan_id":"cebpf4jnsgd1na2vs0mg"},{"bike_id":"5a053199-3da4-45d4-9e4f-0d24154d6a6f","system_id":"levelo_inurba_marseille","lat":43.29538,"lon":5.37508,"is_reserved":false,"is_disabled":false,"rental_uris":{"android":"levelo://app?vid=5a053199-3da4-45d4-9e4f-0d24154d6a6f","ios":"levelo://app?vid=5a053199-3da4-45d4-9e4f-0d24154d6a6f"},"vehicle_type_id":"4","last_reported":1777052521,"current_range_meters":4400,"station_id":"ce4bgkp2rcd13ifvqbmg","pricing_plan_id":"cebpf4jnsgd1na2vs0mg"},{"bike_id":"1e016206-b7c1-4a25-8163-ddafa0ea1cfc","system_id":"levelo_inurba_marseille","lat":43.28735,"lon":5.37931,"is_reserved":false,"is_disabled":false,"rental_uris":{"android":"levelo://app?vid=1e016206-b7c1-4a25-8163-ddafa0ea1cfc","ios":"levelo://app?vid=1e016206-b7c1-4a25-8163-ddafa0ea1cfc"},"vehicle_type_id":"4","last_reported":1777052521,"current_range_meters":4400,"station_id":"ce4bh9p2rcd13ifvqec0","pricing_plan_id":"cebpf4jnsgd1na2vs0mg"},{"bike_id":"c9122dfe-7565-4115-8d1b-82c75141d3a1","system_id":"levelo_inurba_marseille","lat":43.29529,"lon":5.38536,"is_reserved":false,"is_disabled":false,"rental_uris":{"android":"levelo://app?vid=c9122dfe-7565-4115-8d1b-82c75141d3a1","ios":"levelo://app?vid=c9122dfe-7565-4115-8d1b-82c75141d3a1"},"vehicle_type_id":"4","last_reported":1777052521,"current_range_meters":4400,"station_id":"ce4bgih2rcd13ifvqba0","pricing_plan_id":"cebpf4jnsgd1na2vs0mg"},{"bike_id":"a6d89e22-cb31-46e2-a12b-36575f55f18a","system_id":"levelo_inurba_marseille","lat":43.29031,"lon":5.38655,"is_reserved":false,"is_disabled":false,"rental_uris":{"android":"levelo://app?vid=a6d89e22-cb31-46e2-a12b-36575f55f18a","ios":"levelo://app?vid=a6d89e22-cb31-46e2-a12b-36575f55f18a"},"vehicle_type_id":"4","last_reported":1777052521,"current_range_meters":4400,"station_id":"ce4bh4p2rcd13ifvqe0g","pricing_plan_id":"cebpf4jnsgd1na2vs0mg"},{"bike_id":"c0db705a-8432-4565-a33c-bb07effdd51b","system_id":"levelo_inurba_marseille","lat":43.3055,"lon":5.36527,"is_reserved":false,"is_disabled":false,"rental_uris":{"android":"levelo://app?vid=c0db705a-8432-4565-a33c-bb07effdd51b","ios":"levelo://app?vid=c0db705a-8432-4565-a33c-bb07effdd51b"},"vehicle_type_id":"4","last_reported":1777052521,"current_range_meters":4400,"station_id":"ce4bgs12rcd13ifvqcag","pricing_plan_id":"cebpf4jnsgd1na2vs0mg"},{"bike_id":"317213aa-694d-4877-9dcc-586bcc282c8c","system_id":"levelo_inurba_marseille","lat":43.28685,"lon":5.46642,"is_reserved":false,"is_disabled":false,"rental_uris":{"android":"levelo://app?vid=317213aa-694d-4877-9dcc-586bcc282c8c","ios":"levelo://app?vid=317213aa-694d-4877-9dcc-586bcc282c8c"},"vehicle_type_id":"4","last_reported":1777052521,"current_range_meters":4400,"station_id":"st_d6tc3vkotcvc738tfjhg","pricing_plan_id":"cebpf4jnsgd1na2vs0mg"},{"bike_id":"ecdd1e60-1fc1-490d-889b-d83c1e7933b8","system_id":"levelo_inurba_marseille","lat":43.23964,"lon":5.36629,"is_reserved":false,"is_disabled":false,"rental_uris":{"android":"levelo://app?vid=ecdd1e60-1fc1-490d-889b-d83c1e7933b8","ios":"levelo://app?vid=ecdd1e60-1fc1-490d-889b-d83c1e7933b8"},"vehicle_type_id":"4","last_reported":1777052521,"current_range_meters":4800,"station_id":"ce4bhi12rcd13ifvqfp0","pricing_plan_id":"cebpf4jnsgd1na2vs0mg"},{"bike_id":"ea3c1786-161a-49ba-9999-4db433e959c3","system_id":"levelo_inurba_marseille","lat":43.2445,"lon":5.4092,"is_reserved":false,"is_disabled":false,"rental_uris":{"android":"levelo://app?vid=ea3c1786-161a-49ba-9999-4db433e959c3","ios":"levelo://app?vid=ea3c1786-161a-49ba-9999-4db433e959c3"},"vehicle_type_id":"4","last_reported":1777052521,"current_range_meters":4800,"station_id":"","pricing_plan_id":"cebpf4jnsgd1na2vs0mg"},{"bike_id":"bf4cd271-75b4-474e-9b92-e649c0e8a70c","system_id":"levelo_inurba_marseille","lat":43.29263,"lon":5.38434,"is_reserved":false,"is_disabled":false,"rental_uris":{"android":"levelo://app?vid=bf4cd271-75b4-474e-9b92-e649c0e8a70c","ios":"levelo://app?vid=bf4cd271-75b4-474e-9b92-e649c0e8a70c"},"vehicle_type_id":"4","last_reported":1777052521,"current_range_meters":4800,"station_id":"ce4bh692rcd13ifvqea0","pricing_plan_id":"cebpf4jnsgd1na2vs0mg"},{"bike_id":"ddef2dd6-6243-43e9-8e3f-d1a8299bf8e2","system_id":"levelo_inurba_marseille","lat":43.29527,"lon":5.38541,"is_reserved":false,"is_disabled":false,"rental_uris":{"android":"levelo://app?vid=ddef2dd6-6243-43e9-8e3f-d1a8299bf8e2","ios":"levelo://app?vid=ddef2dd6-6243-43e9-8e3f-d1a8299bf8e2"},"vehicle_type_id":"4","last_reported":1777052521,"current_range_meters":4800,"station_id":"ce4bgih2rcd13ifvqba0","pricing_plan_id":"cebpf4jnsgd1na2vs0mg"},{"bike_id":"b2ad10bf-57b1-449f-8017-cdf92e41e557","system_id":"levelo_inurba_marseille","lat":43.25489,"lon":5.37629,"is_reserved":false,"is_disabled":false,"rental_uris":{"android":"levelo://app?vid=b2ad10bf-57b1-449f-8017-cdf92e41e557","ios":"levelo://app?vid=b2ad10bf-57b1-449f-8017-cdf92e41e557"},"vehicle_type_id":"4","last_reported":1777052521,"current_range_meters":4800,"station_id":"ce4bhh12rcd13ifvqff0","pricing_plan_id":"cebpf4jnsgd1na2vs0mg"},{"bike_id":"86572cfb-de09-46bf-854b-b11efba2a881","system_id":"levelo_inurba_marseille","lat":43.29254,"lon":5.38431,"is_reserved":false,"is_disabled":false,"rental_uris":{"android":"levelo://app?vid=86572cfb-de09-46bf-854b-b11efba2a881","ios":"levelo://app?vid=86572cfb-de09-46bf-854b-b11efba2a881"},"vehicle_type_id":"4","last_reported":1777052521,"current_range_meters":4800,"station_id":"ce4bh692rcd13ifvqea0","pricing_plan_id":"cebpf4jnsgd1na2vs0mg"},{"bike_id":"b90a3da3-cf4a-444a-970f-087ce2a0aafb","system_id":"levelo_inurba_marseille","lat":43.29222,"lon":5.36073,"is_reserved":false,"is_disabled":false,"rental_uris":{"android":"levelo://app?vid=b90a3da3-cf4a-444a-970f-087ce2a0aafb","ios":"levelo://app?vid=b90a3da3-cf4a-444a-970f-087ce2a0aafb"},"vehicle_type_id":"4","last_reported":1777052521,"current_range_meters":4800,"station_id":"ce4bhbh2rcd13ifvqeqg","pricing_plan_id":"cebpf4jnsgd1na2vs0mg"},{"bike_id":"87d155eb-12c3-49e9-a117-b4ed683d4be3","system_id":"levelo_inurba_marseille","lat":43.24178,"lon":5.3971,"is_reserved":false,"is_disabled":false,"rental_uris":{"android":"levelo://app?vid=87d155eb-12c3-49e9-a117-b4ed683d4be3","ios":"levelo://app?vid=87d155eb-12c3-49e9-a117-b4ed683d4be3"},"vehicle_type_id":"4","last_reported":1777052521,"current_range_meters":4800,"station_id":"ce4bhn12rcd13ifvqgpg","pricing_plan_id":"cebpf4jnsgd1na2vs0mg"},{"bike_id":"c456a2d4-f167-49e1-bab0-238bae2bff0f","system_id":"levelo_inurba_marseille","lat":43.248,"lon":5.37459,"is_reserved":false,"is_disabled":false,"rental_uris":{"android":"levelo://app?vid=c456a2d4-f167-49e1-bab0-238bae2bff0f","ios":"levelo://app?vid=c456a2d4-f167-49e1-bab0-238bae2bff0f"},"vehicle_type_id":"4","last_reported":1777052521,"current_range_meters":4800,"station_id":"ce4bhgh2rcd13ifvqfb0","pricing_plan_id":"cebpf4jnsgd1na2vs0mg"},{"bike_id":"53d0b464-9d84-4ebb-a788-233487c8451c","system_id":"levelo_inurba_marseille","lat":43.33261,"lon":5.37783,"is_reserved":false,"is_disabled":false,"rental_uris":{"android":"levelo://app?vid=53d0b464-9d84-4ebb-a788-233487c8451c","ios":"levelo://app?vid=53d0b464-9d84-4ebb-a788-233487c8451c"},"vehicle_type_id":"4","last_reported":1777052521,"current_range_meters":5600,"station_id":"","pricing_plan_id":"cebpf4jnsgd1na2vs0mg"},{"bike_id":"a9a5c355-f39e-4e8d-8a00-97c5f53970ee","system_id":"levelo_inurba_marseille","lat":43.303,"lon":5.39228,"is_reserved":false,"is_disabled":false,"rental_uris":{"android":"levelo://app?vid=a9a5c355-f39e-4e8d-8a00-97c5f53970ee","ios":"levelo://app?vid=a9a5c355-f39e-4e8d-8a00-97c5f53970ee"},"vehicle_type_id":"4","last_reported":1777052521,"current_range_meters":5600,"station_id":"ce4bgkh2rcd13ifvqbk0","pricing_plan_id":"cebpf4jnsgd1na2vs0mg"},{"bike_id":"06f73d75-d397-43ca-8a83-e0560c4d4657","system_id":"levelo_inurba_marseille","lat":43.29301,"lon":5.37461,"is_reserved":false,"is_disabled":false,"rental_uris":{"android":"levelo://app?vid=06f73d75-d397-43ca-8a83-e0560c4d4657","ios":"levelo://app?vid=06f73d75-d397-43ca-8a83-e0560c4d4657"},"vehicle_type_id":"4","last_reported":1777052521,"current_range_meters":5600,"station_id":"ce4bgi12rcd13ifvqb70","pricing_plan_id":"cebpf4jnsgd1na2vs0mg"},{"bike_id":"f1730d44-b2ba-4160-93f7-212af8fcf49a","system_id":"levelo_inurba_marseille","lat":43.26221,"lon":5.37441,"is_reserved":false,"is_disabled":false,"rental_uris":{"android":"levelo://app?vid=f1730d44-b2ba-4160-93f7-212af8fcf49a","ios":"levelo://app?vid=f1730d44-b2ba-4160-93f7-212af8fcf49a"},"vehicle_type_id":"4","last_reported":1777052521,"current_range_meters":5600,"station_id":"ce4bhgp2rcd13ifvqfc0","pricing_plan_id":"cebpf4jnsgd1na2vs0mg"},{"bike_id":"3b59f7e2-cc49-4562-9a15-0c4210cbe295","system_id":"levelo_inurba_marseille","lat":43.28938,"lon":5.36627,"is_reserved":false,"is_disabled":false,"rental_uris":{"android":"levelo://app?vid=3b59f7e2-cc49-4562-9a15-0c4210cbe295","ios":"levelo://app?vid=3b59f7e2-cc49-4562-9a15-0c4210cbe295"},"vehicle_type_id":"4","last_reported":1777052521,"current_range_meters":5600,"station_id":"ce4bhap2rcd13ifvqek0","pricing_plan_id":"cebpf4jnsgd1na2vs0mg"},{"bike_id":"61ae3cbf-0241-4ecf-ac5c-16820d48ae1a","system_id":"levelo_inurba_marseille","lat":43.27909,"lon":5.38023,"is_reserved":false,"is_disabled":false,"rental_uris":{"android":"levelo://app?vid=61ae3cbf-0241-4ecf-ac5c-16820d48ae1a","ios":"levelo://app?vid=61ae3cbf-0241-4ecf-ac5c-16820d48ae1a"},"vehicle_type_id":"4","last_reported":1777052521,"current_range_meters":5600,"station_id":"ce4bhf92rcd13ifvqf50","pricing_plan_id":"cebpf4jnsgd1na2vs0mg"},{"bike_id":"d9fd1738-d969-4121-9b21-b019236379ac","system_id":"levelo_inurba_marseille","lat":43.24811,"lon":5.37466,"is_reserved":false,"is_disabled":false,"rental_uris":{"android":"levelo://app?vid=d9fd1738-d969-4121-9b21-b019236379ac","ios":"levelo://app?vid=d9fd1738-d969-4121-9b21-b019236379ac"},"vehicle_type_id":"4","last_reported":1777052521,"current_range_meters":6000,"station_id":"ce4bhgh2rcd13ifvqfb0","pricing_plan_id":"cebpf4jnsgd1na2vs0mg"},{"bike_id":"146def8f-c25a-4a36-bb78-c0e04f65294e","system_id":"levelo_inurba_marseille","lat":43.28878,"lon":5.43038,"is_reserved":false,"is_disabled":false,"rental_uris":{"android":"levelo://app?vid=146def8f-c25a-4a36-bb78-c0e04f65294e","ios":"levelo://app?vid=146def8f-c25a-4a36-bb78-c0e04f65294e"},"vehicle_type_id":"4","last_reported":1777052521,"current_range_meters":6000,"station_id":"","pricing_plan_id":"cebpf4jnsgd1na2vs0mg"},{"bike_id":"0c22485a-a711-4725-8592-dab240ed7b73","system_id":"levelo_inurba_marseille","lat":43.23954,"lon":5.36646,"is_reserved":false,"is_disabled":false,"rental_uris":{"android":"levelo://app?vid=0c22485a-a711-4725-8592-dab240ed7b73","ios":"levelo://app?vid=0c22485a-a711-4725-8592-dab240ed7b73"},"vehicle_type_id":"4","last_reported":1777052521,"current_range_meters":6000,"station_id":"ce4bhi12rcd13ifvqfp0","pricing_plan_id":"cebpf4jnsgd1na2vs0mg"},{"bike_id":"c05d70c7-b112-48d9-9143-4ff03e3673ef","system_id":"levelo_inurba_marseille","lat":43.26215,"lon":5.37441,"is_reserved":false,"is_disabled":false,"rental_uris":{"android":"levelo://app?vid=c05d70c7-b112-48d9-9143-4ff03e3673ef","ios":"levelo://app?vid=c05d70c7-b112-48d9-9143-4ff03e3673ef"},"vehicle_type_id":"4","last_reported":1777052521,"current_range_meters":6000,"station_id":"ce4bhgp2rcd13ifvqfc0","pricing_plan_id":"cebpf4jnsgd1na2vs0mg"},{"bike_id":"001ed0b6-f80d-40bc-93ea-a2f882ed6577","system_id":"levelo_inurba_marseille","lat":43.31116,"lon":5.37766,"is_reserved":false,"is_disabled":true,"rental_uris":{"android":"levelo://app?vid=001ed0b6-f80d-40bc-93ea-a2f882ed6577","ios":"levelo://app?vid=001ed0b6-f80d-40bc-93ea-a2f882ed6577"},"vehicle_type_id":"4","last_reported":1777052521,"current_range_meters":6000,"station_id":"ce4bgt92rcd13ifvqcg0","pricing_plan_id":"cebpf4jnsgd1na2vs0mg"},{"bike_id":"6efae23b-4853-4978-a046-e2118aa389db","system_id":"levelo_inurba_marseille","lat":43.2946,"lon":5.38209,"is_reserved":false,"is_disabled":false,"rental_uris":{"android":"levelo://app?vid=6efae23b-4853-4978-a046-e2118aa389db","ios":"levelo://app?vid=6efae23b-4853-4978-a046-e2118aa389db"},"vehicle_type_id":"4","last_reported":1777052521,"current_range_meters":6000,"station_id":"","pricing_plan_id":"cebpf4jnsgd1na2vs0mg"},{"bike_id":"89cb976b-df3a-46fc-a9ef-0025de561630","system_id":"levelo_inurba_marseille","lat":43.29436,"lon":5.43391,"is_reserved":false,"is_disabled":false,"rental_uris":{"android":"levelo://app?vid=89cb976b-df3a-46fc-a9ef-0025de561630","ios":"levelo://app?vid=89cb976b-df3a-46fc-a9ef-0025de561630"},"vehicle_type_id":"4","last_reported":1777052521,"current_range_meters":6000,"station_id":"","pricing_plan_id":"cebpf4jnsgd1na2vs0mg"},{"bike_id":"f0081e3d-b45c-40d4-b9f9-f49400998cb9","system_id":"levelo_inurba_marseille","lat":43.32037,"lon":5.41574,"is_reserved":false,"is_disabled":false,"rental_uris":{"android":"levelo://app?vid=f0081e3d-b45c-40d4-b9f9-f49400998cb9","ios":"levelo://app?vid=f0081e3d-b45c-40d4-b9f9-f49400998cb9"},"vehicle_type_id":"4","last_reported":1777052521,"current_range_meters":6000,"station_id":"ce4bhq92rcd13ifvqhkg","pricing_plan_id":"cebpf4jnsgd1na2vs0mg"},{"bike_id":"250b15a8-ae72-4a04-beeb-15324439784f","system_id":"levelo_inurba_marseille","lat":43.31489,"lon":5.37283,"is_reserved":false,"is_disabled":false,"rental_uris":{"android":"levelo://app?vid=250b15a8-ae72-4a04-beeb-15324439784f","ios":"levelo://app?vid=250b15a8-ae72-4a04-beeb-15324439784f"},"vehicle_type_id":"4","last_reported":1777052521,"current_range_meters":6000,"station_id":"ce4bgt12rcd13ifvqcd0","pricing_plan_id":"cebpf4jnsgd1na2vs0mg"},{"bike_id":"6af4f39e-837e-4025-97a5-3fa7efa09353","system_id":"levelo_inurba_marseille","lat":43.24084,"lon":5.37746,"is_reserved":false,"is_disabled":false,"rental_uris":{"android":"levelo://app?vid=6af4f39e-837e-4025-97a5-3fa7efa09353","ios":"levelo://app?vid=6af4f39e-837e-4025-97a5-3fa7efa09353"},"vehicle_type_id":"4","last_reported":1777052521,"current_range_meters":6000,"station_id":"ce4bhnp2rcd13ifvqgvg","pricing_plan_id":"cebpf4jnsgd1na2vs0mg"},{"bike_id":"2f5837b5-417d-4465-9514-c2e400d5dd41","system_id":"levelo_inurba_marseille","lat":43.25338,"lon":5.42171,"is_reserved":false,"is_disabled":false,"rental_uris":{"android":"levelo://app?vid=2f5837b5-417d-4465-9514-c2e400d5dd41","ios":"levelo://app?vid=2f5837b5-417d-4465-9514-c2e400d5dd41"},"vehicle_type_id":"4","last_reported":1777052521,"current_range_meters":6000,"station_id":"st_d2m65c5bi1j21697t3ng","pricing_plan_id":"cebpf4jnsgd1na2vs0mg"},{"bike_id":"c3c9bd2d-de50-40ab-8c44-f8b8f0edc21a","system_id":"levelo_inurba_marseille","lat":43.291897,"lon":5.383106,"is_reserved":false,"is_disabled":false,"rental_uris":{"android":"levelo://app?vid=c3c9bd2d-de50-40ab-8c44-f8b8f0edc21a","ios":"levelo://app?vid=c3c9bd2d-de50-40ab-8c44-f8b8f0edc21a"},"vehicle_type_id":"4","last_reported":1777052521,"current_range_meters":6000,"station_id":"ce4bh692rcd13ifvqea0","pricing_plan_id":"cebpf4jnsgd1na2vs0mg"},{"bike_id":"bc99bfa9-3520-427a-983a-ed257aae3ce0","system_id":"levelo_inurba_marseille","lat":43.28625,"lon":5.35097,"is_reserved":false,"is_disabled":false,"rental_uris":{"android":"levelo://app?vid=bc99bfa9-3520-427a-983a-ed257aae3ce0","ios":"levelo://app?vid=bc99bfa9-3520-427a-983a-ed257aae3ce0"},"vehicle_type_id":"4","last_reported":1777052521,"current_range_meters":6000,"station_id":"ce4bhch2rcd13ifvqeug","pricing_plan_id":"cebpf4jnsgd1na2vs0mg"},{"bike_id":"b9f6c98a-066a-4d77-aeb8-cffaf9d964d6","system_id":"levelo_inurba_marseille","lat":43.29838,"lon":5.36268,"is_reserved":false,"is_disabled":false,"rental_uris":{"android":"levelo://app?vid=b9f6c98a-066a-4d77-aeb8-cffaf9d964d6","ios":"levelo://app?vid=b9f6c98a-066a-4d77-aeb8-cffaf9d964d6"},"vehicle_type_id":"4","last_reported":1777052521,"current_range_meters":6000,"station_id":"ce4bgpp2rcd13ifvqc3g","pricing_plan_id":"cebpf4jnsgd1na2vs0mg"},{"bike_id":"125e8fff-675d-4550-a752-bcefa57f227f","system_id":"levelo_inurba_marseille","lat":43.2894,"lon":5.36641,"is_reserved":false,"is_disabled":false,"rental_uris":{"android":"levelo://app?vid=125e8fff-675d-4550-a752-bcefa57f227f","ios":"levelo://app?vid=125e8fff-675d-4550-a752-bcefa57f227f"},"vehicle_type_id":"4","last_reported":1777052521,"current_range_meters":6000,"station_id":"ce4bhap2rcd13ifvqek0","pricing_plan_id":"cebpf4jnsgd1na2vs0mg"},{"bike_id":"d9d28c3d-8a76-40c0-a478-62793022a0b1","system_id":"levelo_inurba_marseille","lat":43.28407,"lon":5.37513,"is_reserved":false,"is_disabled":false,"rental_uris":{"android":"levelo://app?vid=d9d28c3d-8a76-40c0-a478-62793022a0b1","ios":"levelo://app?vid=d9d28c3d-8a76-40c0-a478-62793022a0b1"},"vehicle_type_id":"4","last_reported":1777052521,"current_range_meters":6400,"station_id":"ce4bh412rcd13ifvqds0","pricing_plan_id":"cebpf4jnsgd1na2vs0mg"},{"bike_id":"27cd71a7-0940-4415-a67f-21597fbf1cd9","system_id":"levelo_inurba_marseille","lat":43.3307,"lon":5.39042,"is_reserved":false,"is_disabled":false,"rental_uris":{"android":"levelo://app?vid=27cd71a7-0940-4415-a67f-21597fbf1cd9","ios":"levelo://app?vid=27cd71a7-0940-4415-a67f-21597fbf1cd9"},"vehicle_type_id":"4","last_reported":1777052521,"current_range_meters":6400,"station_id":"","pricing_plan_id":"cebpf4jnsgd1na2vs0mg"},{"bike_id":"eb0bc669-27ac-4a41-b200-c9414b34635e","system_id":"levelo_inurba_marseille","lat":43.29268,"lon":5.40894,"is_reserved":false,"is_disabled":true,"rental_uris":{"android":"levelo://app?vid=eb0bc669-27ac-4a41-b200-c9414b34635e","ios":"levelo://app?vid=eb0bc669-27ac-4a41-b200-c9414b34635e"},"vehicle_type_id":"4","last_reported":1777052521,"current_range_meters":6400,"station_id":"ce4bh192rcd13ifvqdc0","pricing_plan_id":"cebpf4jnsgd1na2vs0mg"},{"bike_id":"aa897415-67a0-4b07-b64e-cbc8da7d4792","system_id":"levelo_inurba_marseille","lat":43.24151,"lon":5.36449,"is_reserved":false,"is_disabled":false,"rental_uris":{"android":"levelo://app?vid=aa897415-67a0-4b07-b64e-cbc8da7d4792","ios":"levelo://app?vid=aa897415-67a0-4b07-b64e-cbc8da7d4792"},"vehicle_type_id":"4","last_reported":1777052521,"current_range_meters":6400,"station_id":"cpo36qri1sfpv3e86is0","pricing_plan_id":"cebpf4jnsgd1na2vs0mg"},{"bike_id":"35d1e7a1-a3d6-41b2-8c96-40c2cbb0f502","system_id":"levelo_inurba_marseille","lat":43.26556,"lon":5.37279,"is_reserved":false,"is_disabled":false,"rental_uris":{"android":"levelo://app?vid=35d1e7a1-a3d6-41b2-8c96-40c2cbb0f502","ios":"levelo://app?vid=35d1e7a1-a3d6-41b2-8c96-40c2cbb0f502"},"vehicle_type_id":"4","last_reported":1777052521,"current_range_meters":6400,"station_id":"ce4bhg12rcd13ifvqf70","pricing_plan_id":"cebpf4jnsgd1na2vs0mg"},{"bike_id":"72b21b76-a572-40e4-a418-4f98a6198dff","system_id":"levelo_inurba_marseille","lat":43.29784,"lon":5.39332,"is_reserved":false,"is_disabled":false,"rental_uris":{"android":"levelo://app?vid=72b21b76-a572-40e4-a418-4f98a6198dff","ios":"levelo://app?vid=72b21b76-a572-40e4-a418-4f98a6198dff"},"vehicle_type_id":"4","last_reported":1777052521,"current_range_meters":6400,"station_id":"chh1huq6cuj3fo74tm60","pricing_plan_id":"cebpf4jnsgd1na2vs0mg"},{"bike_id":"47645cb8-3276-4339-a10c-1b3212ad6fad","system_id":"levelo_inurba_marseille","lat":43.29245,"lon":5.38446,"is_reserved":false,"is_disabled":false,"rental_uris":{"android":"levelo://app?vid=47645cb8-3276-4339-a10c-1b3212ad6fad","ios":"levelo://app?vid=47645cb8-3276-4339-a10c-1b3212ad6fad"},"vehicle_type_id":"4","last_reported":1777052521,"current_range_meters":6400,"station_id":"ce4bh692rcd13ifvqea0","pricing_plan_id":"cebpf4jnsgd1na2vs0mg"},{"bike_id":"c025fe4d-f167-4f80-bde7-0dfb9be7b37b","system_id":"levelo_inurba_marseille","lat":43.2848,"lon":5.48392,"is_reserved":false,"is_disabled":false,"rental_uris":{"android":"levelo://app?vid=c025fe4d-f167-4f80-bde7-0dfb9be7b37b","ios":"levelo://app?vid=c025fe4d-f167-4f80-bde7-0dfb9be7b37b"},"vehicle_type_id":"4","last_reported":1777052521,"current_range_meters":6400,"station_id":"","pricing_plan_id":"cebpf4jnsgd1na2vs0mg"},{"bike_id":"9b93fcb2-a849-4cab-a6d4-6b1955a049a6","system_id":"levelo_inurba_marseille","lat":43.29541,"lon":5.38527,"is_reserved":false,"is_disabled":false,"rental_uris":{"android":"levelo://app?vid=9b93fcb2-a849-4cab-a6d4-6b1955a049a6","ios":"levelo://app?vid=9b93fcb2-a849-4cab-a6d4-6b1955a049a6"},"vehicle_type_id":"4","last_reported":1777052521,"current_range_meters":6400,"station_id":"ce4bgih2rcd13ifvqba0","pricing_plan_id":"cebpf4jnsgd1na2vs0mg"},{"bike_id":"b723bff1-1eac-46ab-8fbc-73caf5bddf1a","system_id":"levelo_inurba_marseille","lat":43.29924,"lon":5.37465,"is_reserved":false,"is_disabled":false,"rental_uris":{"android":"levelo://app?vid=b723bff1-1eac-46ab-8fbc-73caf5bddf1a","ios":"levelo://app?vid=b723bff1-1eac-46ab-8fbc-73caf5bddf1a"},"vehicle_type_id":"4","last_reported":1777052521,"current_range_meters":6400,"station_id":"ce4bgjh2rcd13ifvqbg0","pricing_plan_id":"cebpf4jnsgd1na2vs0mg"},{"bike_id":"6a979988-2dd0-41f2-9c5f-0c6cc10fba5f","system_id":"levelo_inurba_marseille","lat":43.24165,"lon":5.36412,"is_reserved":false,"is_disabled":false,"rental_uris":{"android":"levelo://app?vid=6a979988-2dd0-41f2-9c5f-0c6cc10fba5f","ios":"levelo://app?vid=6a979988-2dd0-41f2-9c5f-0c6cc10fba5f"},"vehicle_type_id":"4","last_reported":1777052521,"current_range_meters":6400,"station_id":"cpo36qri1sfpv3e86is0","pricing_plan_id":"cebpf4jnsgd1na2vs0mg"},{"bike_id":"3718d017-507d-448e-bcdc-da80c1989ac4","system_id":"levelo_inurba_marseille","lat":43.28416,"lon":5.43496,"is_reserved":false,"is_disabled":false,"rental_uris":{"android":"levelo://app?vid=3718d017-507d-448e-bcdc-da80c1989ac4","ios":"levelo://app?vid=3718d017-507d-448e-bcdc-da80c1989ac4"},"vehicle_type_id":"4","last_reported":1777052521,"current_range_meters":6400,"station_id":"","pricing_plan_id":"cebpf4jnsgd1na2vs0mg"},{"bike_id":"95a9a5b5-a006-4a3d-b08b-6ad4f00a6401","system_id":"levelo_inurba_marseille","lat":43.32043,"lon":5.41535,"is_reserved":false,"is_disabled":false,"rental_uris":{"android":"levelo://app?vid=95a9a5b5-a006-4a3d-b08b-6ad4f00a6401","ios":"levelo://app?vid=95a9a5b5-a006-4a3d-b08b-6ad4f00a6401"},"vehicle_type_id":"4","last_reported":1777052521,"current_range_meters":6400,"station_id":"ce4bhq92rcd13ifvqhkg","pricing_plan_id":"cebpf4jnsgd1na2vs0mg"},{"bike_id":"a155aec9-5f04-491a-8e75-7301675ddbe5","system_id":"levelo_inurba_marseille","lat":43.2953,"lon":5.3854,"is_reserved":false,"is_disabled":false,"rental_uris":{"android":"levelo://app?vid=a155aec9-5f04-491a-8e75-7301675ddbe5","ios":"levelo://app?vid=a155aec9-5f04-491a-8e75-7301675ddbe5"},"vehicle_type_id":"4","last_reported":1777052521,"current_range_meters":6400,"station_id":"ce4bgih2rcd13ifvqba0","pricing_plan_id":"cebpf4jnsgd1na2vs0mg"},{"bike_id":"080a2ab7-8e26-4fcb-ae09-7737519c830d","system_id":"levelo_inurba_marseille","lat":43.28618,"lon":5.35108,"is_reserved":false,"is_disabled":false,"rental_uris":{"android":"levelo://app?vid=080a2ab7-8e26-4fcb-ae09-7737519c830d","ios":"levelo://app?vid=080a2ab7-8e26-4fcb-ae09-7737519c830d"},"vehicle_type_id":"4","last_reported":1777052521,"current_range_meters":6400,"station_id":"ce4bhch2rcd13ifvqeug","pricing_plan_id":"cebpf4jnsgd1na2vs0mg"},{"bike_id":"5d8db3c9-b88c-4ca9-88c4-303f3fd1f1ad","system_id":"levelo_inurba_marseille","lat":43.2894,"lon":5.36382,"is_reserved":false,"is_disabled":false,"rental_uris":{"android":"levelo://app?vid=5d8db3c9-b88c-4ca9-88c4-303f3fd1f1ad","ios":"levelo://app?vid=5d8db3c9-b88c-4ca9-88c4-303f3fd1f1ad"},"vehicle_type_id":"4","last_reported":1777052521,"current_range_meters":6400,"station_id":"ce4bhc92rcd13ifvqetg","pricing_plan_id":"cebpf4jnsgd1na2vs0mg"},{"bike_id":"b4763552-ce1f-4053-a542-1427c7525072","system_id":"levelo_inurba_marseille","lat":43.28417,"lon":5.34994,"is_reserved":false,"is_disabled":false,"rental_uris":{"android":"levelo://app?vid=b4763552-ce1f-4053-a542-1427c7525072","ios":"levelo://app?vid=b4763552-ce1f-4053-a542-1427c7525072"},"vehicle_type_id":"4","last_reported":1777052521,"current_range_meters":6400,"station_id":"ce4bhbh2rcd13ifvqepg","pricing_plan_id":"cebpf4jnsgd1na2vs0mg"},{"bike_id":"05bc8592-f13a-4612-8c18-1306f8d1f0a6","system_id":"levelo_inurba_marseille","lat":43.28435,"lon":5.39187,"is_reserved":false,"is_disabled":false,"rental_uris":{"android":"levelo://app?vid=05bc8592-f13a-4612-8c18-1306f8d1f0a6","ios":"levelo://app?vid=05bc8592-f13a-4612-8c18-1306f8d1f0a6"},"vehicle_type_id":"4","last_reported":1777052521,"current_range_meters":6400,"station_id":"ce4bhoh2rcd13ifvqh5g","pricing_plan_id":"cebpf4jnsgd1na2vs0mg"},{"bike_id":"03d50329-e768-413f-8f2a-24897a3a945b","system_id":"levelo_inurba_marseille","lat":43.24807,"lon":5.37452,"is_reserved":false,"is_disabled":false,"rental_uris":{"android":"levelo://app?vid=03d50329-e768-413f-8f2a-24897a3a945b","ios":"levelo://app?vid=03d50329-e768-413f-8f2a-24897a3a945b"},"vehicle_type_id":"4","last_reported":1777052521,"current_range_meters":6800,"station_id":"ce4bhgh2rcd13ifvqfb0","pricing_plan_id":"cebpf4jnsgd1na2vs0mg"},{"bike_id":"eb54d19c-192d-4b9f-8d7f-dd3accd1602e","system_id":"levelo_inurba_marseille","lat":43.24786,"lon":5.37462,"is_reserved":false,"is_disabled":false,"rental_uris":{"android":"levelo://app?vid=eb54d19c-192d-4b9f-8d7f-dd3accd1602e","ios":"levelo://app?vid=eb54d19c-192d-4b9f-8d7f-dd3accd1602e"},"vehicle_type_id":"4","last_reported":1777052521,"current_range_meters":6800,"station_id":"ce4bhgh2rcd13ifvqfb0","pricing_plan_id":"cebpf4jnsgd1na2vs0mg"},{"bike_id":"b38d89b8-c3c9-4fae-b6f2-09980d89f2e9","system_id":"levelo_inurba_marseille","lat":43.28509,"lon":5.4837,"is_reserved":false,"is_disabled":false,"rental_uris":{"android":"levelo://app?vid=b38d89b8-c3c9-4fae-b6f2-09980d89f2e9","ios":"levelo://app?vid=b38d89b8-c3c9-4fae-b6f2-09980d89f2e9"},"vehicle_type_id":"4","last_reported":1777052521,"current_range_meters":6800,"station_id":"st_d3svhcjqgbts73a3dn0g","pricing_plan_id":"cebpf4jnsgd1na2vs0mg"},{"bike_id":"50b3537d-0369-460e-8281-426df86e0856","system_id":"levelo_inurba_marseille","lat":43.30071,"lon":5.36431,"is_reserved":false,"is_disabled":false,"rental_uris":{"android":"levelo://app?vid=50b3537d-0369-460e-8281-426df86e0856","ios":"levelo://app?vid=50b3537d-0369-460e-8281-426df86e0856"},"vehicle_type_id":"4","last_reported":1777052521,"current_range_meters":6800,"station_id":"","pricing_plan_id":"cebpf4jnsgd1na2vs0mg"},{"bike_id":"09e01782-a132-4ad9-aa51-0957abceac35","system_id":"levelo_inurba_marseille","lat":43.2952,"lon":5.38537,"is_reserved":false,"is_disabled":false,"rental_uris":{"android":"levelo://app?vid=09e01782-a132-4ad9-aa51-0957abceac35","ios":"levelo://app?vid=09e01782-a132-4ad9-aa51-0957abceac35"},"vehicle_type_id":"4","last_reported":1777052521,"current_range_meters":6800,"station_id":"ce4bgih2rcd13ifvqba0","pricing_plan_id":"cebpf4jnsgd1na2vs0mg"},{"bike_id":"e8d6ce3d-1aa9-47ef-9b48-93862ee5f7fd","system_id":"levelo_inurba_marseille","lat":43.21283,"lon":5.35418,"is_reserved":false,"is_disabled":false,"rental_uris":{"android":"levelo://app?vid=e8d6ce3d-1aa9-47ef-9b48-93862ee5f7fd","ios":"levelo://app?vid=e8d6ce3d-1aa9-47ef-9b48-93862ee5f7fd"},"vehicle_type_id":"4","last_reported":1777052521,"current_range_meters":6800,"station_id":"","pricing_plan_id":"cebpf4jnsgd1na2vs0mg"},{"bike_id":"5607da76-763a-4c03-abaa-325e4b0bd44e","system_id":"levelo_inurba_marseille","lat":43.30778,"lon":5.37646,"is_reserved":false,"is_disabled":false,"rental_uris":{"android":"levelo://app?vid=5607da76-763a-4c03-abaa-325e4b0bd44e","ios":"levelo://app?vid=5607da76-763a-4c03-abaa-325e4b0bd44e"},"vehicle_type_id":"4","last_reported":1777052521,"current_range_meters":6800,"station_id":"ce4bgv92rcd13ifvqcq0","pricing_plan_id":"cebpf4jnsgd1na2vs0mg"},{"bike_id":"bf26b800-eaa9-4e3d-86ad-c93f1c1c286d","system_id":"levelo_inurba_marseille","lat":43.27055,"lon":5.40254,"is_reserved":false,"is_disabled":false,"rental_uris":{"android":"levelo://app?vid=bf26b800-eaa9-4e3d-86ad-c93f1c1c286d","ios":"levelo://app?vid=bf26b800-eaa9-4e3d-86ad-c93f1c1c286d"},"vehicle_type_id":"4","last_reported":1777052521,"current_range_meters":6800,"station_id":"ce4bhk92rcd13ifvqgc0","pricing_plan_id":"cebpf4jnsgd1na2vs0mg"},{"bike_id":"ffb9f8ef-03d2-4bdb-a0cc-4bacad5a0137","system_id":"levelo_inurba_marseille","lat":43.30304,"lon":5.39215,"is_reserved":false,"is_disabled":false,"rental_uris":{"android":"levelo://app?vid=ffb9f8ef-03d2-4bdb-a0cc-4bacad5a0137","ios":"levelo://app?vid=ffb9f8ef-03d2-4bdb-a0cc-4bacad5a0137"},"vehicle_type_id":"4","last_reported":1777052521,"current_range_meters":6800,"station_id":"ce4bgkh2rcd13ifvqbk0","pricing_plan_id":"cebpf4jnsgd1na2vs0mg"},{"bike_id":"dd2047c2-bb91-49cf-b349-a50990a16979","system_id":"levelo_inurba_marseille","lat":43.29035,"lon":5.38136,"is_reserved":false,"is_disabled":true,"rental_uris":{"android":"levelo://app?vid=dd2047c2-bb91-49cf-b349-a50990a16979","ios":"levelo://app?vid=dd2047c2-bb91-49cf-b349-a50990a16979"},"vehicle_type_id":"4","last_reported":1777052521,"current_range_meters":6800,"station_id":"ce4bh4p2rcd13ifvqe1g","pricing_plan_id":"cebpf4jnsgd1na2vs0mg"},{"bike_id":"d4578027-cf0c-4653-85fc-03385bd8ac3c","system_id":"levelo_inurba_marseille","lat":43.29059,"lon":5.35899,"is_reserved":false,"is_disabled":false,"rental_uris":{"android":"levelo://app?vid=d4578027-cf0c-4653-85fc-03385bd8ac3c","ios":"levelo://app?vid=d4578027-cf0c-4653-85fc-03385bd8ac3c"},"vehicle_type_id":"4","last_reported":1777052521,"current_range_meters":6800,"station_id":"ce4bha92rcd13ifvqeg0","pricing_plan_id":"cebpf4jnsgd1na2vs0mg"},{"bike_id":"3e93c6be-b2e0-4601-bd02-1016e0e89a7c","system_id":"levelo_inurba_marseille","lat":43.29007,"lon":5.35613,"is_reserved":false,"is_disabled":false,"rental_uris":{"android":"levelo://app?vid=3e93c6be-b2e0-4601-bd02-1016e0e89a7c","ios":"levelo://app?vid=3e93c6be-b2e0-4601-bd02-1016e0e89a7c"},"vehicle_type_id":"4","last_reported":1777052521,"current_range_meters":6800,"station_id":"ce4bhb92rcd13ifvqen0","pricing_plan_id":"cebpf4jnsgd1na2vs0mg"},{"bike_id":"33574f83-caa2-4acd-95bf-c2dd5ded63d1","system_id":"levelo_inurba_marseille","lat":43.2761,"lon":5.3611,"is_reserved":false,"is_disabled":false,"rental_uris":{"android":"levelo://app?vid=33574f83-caa2-4acd-95bf-c2dd5ded63d1","ios":"levelo://app?vid=33574f83-caa2-4acd-95bf-c2dd5ded63d1"},"vehicle_type_id":"4","last_reported":1777052521,"current_range_meters":6800,"station_id":"ce4bgj92rcd13ifvqbe0","pricing_plan_id":"cebpf4jnsgd1na2vs0mg"},{"bike_id":"47f706c3-c7da-4299-8287-91e0ec031f6e","system_id":"levelo_inurba_marseille","lat":43.29308,"lon":5.37158,"is_reserved":false,"is_disabled":false,"rental_uris":{"android":"levelo://app?vid=47f706c3-c7da-4299-8287-91e0ec031f6e","ios":"levelo://app?vid=47f706c3-c7da-4299-8287-91e0ec031f6e"},"vehicle_type_id":"4","last_reported":1777052521,"current_range_meters":6800,"station_id":"ce4bgh92rcd13ifvqb40","pricing_plan_id":"cebpf4jnsgd1na2vs0mg"},{"bike_id":"f8b71621-9ee0-4284-b9b2-be8fa047ba8a","system_id":"levelo_inurba_marseille","lat":43.30124,"lon":5.43118,"is_reserved":false,"is_disabled":false,"rental_uris":{"android":"levelo://app?vid=f8b71621-9ee0-4284-b9b2-be8fa047ba8a","ios":"levelo://app?vid=f8b71621-9ee0-4284-b9b2-be8fa047ba8a"},"vehicle_type_id":"4","last_reported":1777052521,"current_range_meters":6800,"station_id":"st_d3js3co5814s73ftftug","pricing_plan_id":"cebpf4jnsgd1na2vs0mg"},{"bike_id":"b2690d37-293b-40be-acb1-b0ae7d3bbfe3","system_id":"levelo_inurba_marseille","lat":43.28418,"lon":5.35,"is_reserved":false,"is_disabled":false,"rental_uris":{"android":"levelo://app?vid=b2690d37-293b-40be-acb1-b0ae7d3bbfe3","ios":"levelo://app?vid=b2690d37-293b-40be-acb1-b0ae7d3bbfe3"},"vehicle_type_id":"4","last_reported":1777052521,"current_range_meters":6800,"station_id":"ce4bhbh2rcd13ifvqepg","pricing_plan_id":"cebpf4jnsgd1na2vs0mg"},{"bike_id":"d37e963d-433d-4d6d-b614-138089543ad3","system_id":"levelo_inurba_marseille","lat":43.2871,"lon":5.39983,"is_reserved":false,"is_disabled":false,"rental_uris":{"android":"levelo://app?vid=d37e963d-433d-4d6d-b614-138089543ad3","ios":"levelo://app?vid=d37e963d-433d-4d6d-b614-138089543ad3"},"vehicle_type_id":"4","last_reported":1777052521,"current_range_meters":6800,"station_id":"ce4bho92rcd13ifvqh3g","pricing_plan_id":"cebpf4jnsgd1na2vs0mg"},{"bike_id":"31807bc1-1629-4461-b62e-dc21ba26ef45","system_id":"levelo_inurba_marseille","lat":43.21759,"lon":5.34597,"is_reserved":false,"is_disabled":false,"rental_uris":{"android":"levelo://app?vid=31807bc1-1629-4461-b62e-dc21ba26ef45","ios":"levelo://app?vid=31807bc1-1629-4461-b62e-dc21ba26ef45"},"vehicle_type_id":"4","last_reported":1777052521,"current_range_meters":7200,"station_id":"st_cvj6r9ubvosntc0bgbag","pricing_plan_id":"cebpf4jnsgd1na2vs0mg"},{"bike_id":"fbad382b-d0e0-4b4d-b7e9-7eaeef0c00e6","system_id":"levelo_inurba_marseille","lat":43.25661,"lon":5.39008,"is_reserved":false,"is_disabled":false,"rental_uris":{"android":"levelo://app?vid=fbad382b-d0e0-4b4d-b7e9-7eaeef0c00e6","ios":"levelo://app?vid=fbad382b-d0e0-4b4d-b7e9-7eaeef0c00e6"},"vehicle_type_id":"4","last_reported":1777052521,"current_range_meters":7200,"station_id":"","pricing_plan_id":"cebpf4jnsgd1na2vs0mg"},{"bike_id":"c4a6cf3f-a5b9-43d7-91d0-4da564433a66","system_id":"levelo_inurba_marseille","lat":43.30127,"lon":5.37413,"is_reserved":false,"is_disabled":false,"rental_uris":{"android":"levelo://app?vid=c4a6cf3f-a5b9-43d7-91d0-4da564433a66","ios":"levelo://app?vid=c4a6cf3f-a5b9-43d7-91d0-4da564433a66"},"vehicle_type_id":"4","last_reported":1777052521,"current_range_meters":7200,"station_id":"ce4bgs92rcd13ifvqcc0","pricing_plan_id":"cebpf4jnsgd1na2vs0mg"},{"bike_id":"3762a15a-49a2-4fc6-b2e6-a79b5f91a12f","system_id":"levelo_inurba_marseille","lat":43.28483,"lon":5.48397,"is_reserved":false,"is_disabled":false,"rental_uris":{"android":"levelo://app?vid=3762a15a-49a2-4fc6-b2e6-a79b5f91a12f","ios":"levelo://app?vid=3762a15a-49a2-4fc6-b2e6-a79b5f91a12f"},"vehicle_type_id":"4","last_reported":1777052521,"current_range_meters":7200,"station_id":"st_d3svhcjqgbts73a3dn0g","pricing_plan_id":"cebpf4jnsgd1na2vs0mg"},{"bike_id":"ca5a4c50-07fb-4bf6-afa2-b0bf8e359ed9","system_id":"levelo_inurba_marseille","lat":43.26212,"lon":5.37451,"is_reserved":false,"is_disabled":false,"rental_uris":{"android":"levelo://app?vid=ca5a4c50-07fb-4bf6-afa2-b0bf8e359ed9","ios":"levelo://app?vid=ca5a4c50-07fb-4bf6-afa2-b0bf8e359ed9"},"vehicle_type_id":"4","last_reported":1777052521,"current_range_meters":7200,"station_id":"ce4bhgp2rcd13ifvqfc0","pricing_plan_id":"cebpf4jnsgd1na2vs0mg"},{"bike_id":"8a4d316b-7dfb-42df-8aea-4c7d58210d7a","system_id":"levelo_inurba_marseille","lat":43.31261,"lon":5.43073,"is_reserved":false,"is_disabled":false,"rental_uris":{"android":"levelo://app?vid=8a4d316b-7dfb-42df-8aea-4c7d58210d7a","ios":"levelo://app?vid=8a4d316b-7dfb-42df-8aea-4c7d58210d7a"},"vehicle_type_id":"4","last_reported":1777052521,"current_range_meters":7200,"station_id":"","pricing_plan_id":"cebpf4jnsgd1na2vs0mg"},{"bike_id":"cd21f6c1-a1f8-4978-8025-1d254a6bf514","system_id":"levelo_inurba_marseille","lat":43.28474,"lon":5.48397,"is_reserved":false,"is_disabled":false,"rental_uris":{"android":"levelo://app?vid=cd21f6c1-a1f8-4978-8025-1d254a6bf514","ios":"levelo://app?vid=cd21f6c1-a1f8-4978-8025-1d254a6bf514"},"vehicle_type_id":"4","last_reported":1777052521,"current_range_meters":7200,"station_id":"st_d3svhcjqgbts73a3dn0g","pricing_plan_id":"cebpf4jnsgd1na2vs0mg"},{"bike_id":"0661f5ef-2ef1-45d4-9f03-659b4a969ad7","system_id":"levelo_inurba_marseille","lat":43.27945,"lon":5.4105,"is_reserved":false,"is_disabled":false,"rental_uris":{"android":"levelo://app?vid=0661f5ef-2ef1-45d4-9f03-659b4a969ad7","ios":"levelo://app?vid=0661f5ef-2ef1-45d4-9f03-659b4a969ad7"},"vehicle_type_id":"4","last_reported":1777052521,"current_range_meters":7200,"station_id":"ce4bhnp2rcd13ifvqh0g","pricing_plan_id":"cebpf4jnsgd1na2vs0mg"},{"bike_id":"ec19aaad-2410-439f-9123-e83fa1c535f8","system_id":"levelo_inurba_marseille","lat":43.28288,"lon":5.3792,"is_reserved":false,"is_disabled":false,"rental_uris":{"android":"levelo://app?vid=ec19aaad-2410-439f-9123-e83fa1c535f8","ios":"levelo://app?vid=ec19aaad-2410-439f-9123-e83fa1c535f8"},"vehicle_type_id":"4","last_reported":1777052521,"current_range_meters":7200,"station_id":"","pricing_plan_id":"cebpf4jnsgd1na2vs0mg"},{"bike_id":"511a07b4-6464-4c78-9aa6-e1013bbe91a1","system_id":"levelo_inurba_marseille","lat":43.32094,"lon":5.36757,"is_reserved":false,"is_disabled":false,"rental_uris":{"android":"levelo://app?vid=511a07b4-6464-4c78-9aa6-e1013bbe91a1","ios":"levelo://app?vid=511a07b4-6464-4c78-9aa6-e1013bbe91a1"},"vehicle_type_id":"4","last_reported":1777052521,"current_range_meters":7200,"station_id":"ce4bhrh2rcd13ifvqhug","pricing_plan_id":"cebpf4jnsgd1na2vs0mg"},{"bike_id":"90fac789-06e9-4c33-94b9-e82543e03c21","system_id":"levelo_inurba_marseille","lat":43.27377,"lon":5.36269,"is_reserved":false,"is_disabled":true,"rental_uris":{"android":"levelo://app?vid=90fac789-06e9-4c33-94b9-e82543e03c21","ios":"levelo://app?vid=90fac789-06e9-4c33-94b9-e82543e03c21"},"vehicle_type_id":"4","last_reported":1777052521,"current_range_meters":7200,"station_id":"ce4bhbh2rcd13ifvqeo0","pricing_plan_id":"cebpf4jnsgd1na2vs0mg"},{"bike_id":"1f3906dd-948e-4d18-9bb2-b2fc350fa481","system_id":"levelo_inurba_marseille","lat":43.27434,"lon":5.3942,"is_reserved":false,"is_disabled":true,"rental_uris":{"android":"levelo://app?vid=1f3906dd-948e-4d18-9bb2-b2fc350fa481","ios":"levelo://app?vid=1f3906dd-948e-4d18-9bb2-b2fc350fa481"},"vehicle_type_id":"4","last_reported":1777052521,"current_range_meters":7200,"station_id":"ce4bhdp2rcd13ifvqf20","pricing_plan_id":"cebpf4jnsgd1na2vs0mg"},{"bike_id":"1f582608-2655-4ba4-b095-16566a7cd559","system_id":"levelo_inurba_marseille","lat":43.31786,"lon":5.44544,"is_reserved":false,"is_disabled":false,"rental_uris":{"android":"levelo://app?vid=1f582608-2655-4ba4-b095-16566a7cd559","ios":"levelo://app?vid=1f582608-2655-4ba4-b095-16566a7cd559"},"vehicle_type_id":"4","last_reported":1777052521,"current_range_meters":7200,"station_id":"","pricing_plan_id":"cebpf4jnsgd1na2vs0mg"},{"bike_id":"d548c3d5-70a9-4f1d-93ad-648e8a4a014d","system_id":"levelo_inurba_marseille","lat":43.28414,"lon":5.34991,"is_reserved":false,"is_disabled":false,"rental_uris":{"android":"levelo://app?vid=d548c3d5-70a9-4f1d-93ad-648e8a4a014d","ios":"levelo://app?vid=d548c3d5-70a9-4f1d-93ad-648e8a4a014d"},"vehicle_type_id":"4","last_reported":1777052521,"current_range_meters":7200,"station_id":"ce4bhbh2rcd13ifvqepg","pricing_plan_id":"cebpf4jnsgd1na2vs0mg"},{"bike_id":"ae2736b2-7770-4b7b-82a1-0fab885495d7","system_id":"levelo_inurba_marseille","lat":43.24803,"lon":5.37451,"is_reserved":false,"is_disabled":false,"rental_uris":{"android":"levelo://app?vid=ae2736b2-7770-4b7b-82a1-0fab885495d7","ios":"levelo://app?vid=ae2736b2-7770-4b7b-82a1-0fab885495d7"},"vehicle_type_id":"4","last_reported":1777052521,"current_range_meters":7200,"station_id":"ce4bhgh2rcd13ifvqfb0","pricing_plan_id":"cebpf4jnsgd1na2vs0mg"},{"bike_id":"27c42ac1-b3ae-44d2-a7ac-ec95314cb289","system_id":"levelo_inurba_marseille","lat":43.28409,"lon":5.34984,"is_reserved":false,"is_disabled":false,"rental_uris":{"android":"levelo://app?vid=27c42ac1-b3ae-44d2-a7ac-ec95314cb289","ios":"levelo://app?vid=27c42ac1-b3ae-44d2-a7ac-ec95314cb289"},"vehicle_type_id":"4","last_reported":1777052521,"current_range_meters":8000,"station_id":"ce4bhbh2rcd13ifvqepg","pricing_plan_id":"cebpf4jnsgd1na2vs0mg"},{"bike_id":"feb32492-c682-40ce-a486-b3128ef279f4","system_id":"levelo_inurba_marseille","lat":43.299675,"lon":5.384783,"is_reserved":false,"is_disabled":true,"rental_uris":{"android":"levelo://app?vid=feb32492-c682-40ce-a486-b3128ef279f4","ios":"levelo://app?vid=feb32492-c682-40ce-a486-b3128ef279f4"},"vehicle_type_id":"4","last_reported":1777052521,"current_range_meters":8000,"station_id":"ce4bho92rcd13ifvqh3g","pricing_plan_id":"cebpf4jnsgd1na2vs0mg"},{"bike_id":"1c2479b1-627b-403e-b3c7-8941ebb15b58","system_id":"levelo_inurba_marseille","lat":43.29007,"lon":5.3564,"is_reserved":false,"is_disabled":false,"rental_uris":{"android":"levelo://app?vid=1c2479b1-627b-403e-b3c7-8941ebb15b58","ios":"levelo://app?vid=1c2479b1-627b-403e-b3c7-8941ebb15b58"},"vehicle_type_id":"4","last_reported":1777052521,"current_range_meters":8000,"station_id":"ce4bhb92rcd13ifvqen0","pricing_plan_id":"cebpf4jnsgd1na2vs0mg"},{"bike_id":"91889499-4844-46b1-ac07-db3a8bcdf22f","system_id":"levelo_inurba_marseille","lat":43.28622,"lon":5.35099,"is_reserved":false,"is_disabled":false,"rental_uris":{"android":"levelo://app?vid=91889499-4844-46b1-ac07-db3a8bcdf22f","ios":"levelo://app?vid=91889499-4844-46b1-ac07-db3a8bcdf22f"},"vehicle_type_id":"4","last_reported":1777052521,"current_range_meters":8000,"station_id":"ce4bhch2rcd13ifvqeug","pricing_plan_id":"cebpf4jnsgd1na2vs0mg"},{"bike_id":"5491fd3c-bc2b-4191-9b65-bedf8e94d97c","system_id":"levelo_inurba_marseille","lat":43.28727,"lon":5.37936,"is_reserved":false,"is_disabled":false,"rental_uris":{"android":"levelo://app?vid=5491fd3c-bc2b-4191-9b65-bedf8e94d97c","ios":"levelo://app?vid=5491fd3c-bc2b-4191-9b65-bedf8e94d97c"},"vehicle_type_id":"4","last_reported":1777052521,"current_range_meters":8000,"station_id":"ce4bh9p2rcd13ifvqec0","pricing_plan_id":"cebpf4jnsgd1na2vs0mg"},{"bike_id":"08b04c66-2aee-44d4-bed2-d61b5326e863","system_id":"levelo_inurba_marseille","lat":43.24806,"lon":5.3747,"is_reserved":false,"is_disabled":false,"rental_uris":{"android":"levelo://app?vid=08b04c66-2aee-44d4-bed2-d61b5326e863","ios":"levelo://app?vid=08b04c66-2aee-44d4-bed2-d61b5326e863"},"vehicle_type_id":"4","last_reported":1777052521,"current_range_meters":8000,"station_id":"ce4bhgh2rcd13ifvqfb0","pricing_plan_id":"cebpf4jnsgd1na2vs0mg"},{"bike_id":"b51ac87f-04a3-4bf1-9075-041179aa6f28","system_id":"levelo_inurba_marseille","lat":43.22557,"lon":5.41659,"is_reserved":false,"is_disabled":false,"rental_uris":{"android":"levelo://app?vid=b51ac87f-04a3-4bf1-9075-041179aa6f28","ios":"levelo://app?vid=b51ac87f-04a3-4bf1-9075-041179aa6f28"},"vehicle_type_id":"4","last_reported":1777052521,"current_range_meters":8000,"station_id":"st_d2o4gvlbi1j2169b742g","pricing_plan_id":"cebpf4jnsgd1na2vs0mg"},{"bike_id":"3c68d825-d007-4dc8-877a-8ca32f34be4a","system_id":"levelo_inurba_marseille","lat":43.28425,"lon":5.35012,"is_reserved":false,"is_disabled":false,"rental_uris":{"android":"levelo://app?vid=3c68d825-d007-4dc8-877a-8ca32f34be4a","ios":"levelo://app?vid=3c68d825-d007-4dc8-877a-8ca32f34be4a"},"vehicle_type_id":"4","last_reported":1777052521,"current_range_meters":8000,"station_id":"ce4bhbh2rcd13ifvqepg","pricing_plan_id":"cebpf4jnsgd1na2vs0mg"},{"bike_id":"e8d002b1-199e-4516-8ed6-821a0c98040c","system_id":"levelo_inurba_marseille","lat":43.3378,"lon":5.37465,"is_reserved":false,"is_disabled":false,"rental_uris":{"android":"levelo://app?vid=e8d002b1-199e-4516-8ed6-821a0c98040c","ios":"levelo://app?vid=e8d002b1-199e-4516-8ed6-821a0c98040c"},"vehicle_type_id":"4","last_reported":1777052521,"current_range_meters":8000,"station_id":"st_d46cu089ee8s73dldbu0","pricing_plan_id":"cebpf4jnsgd1na2vs0mg"},{"bike_id":"a7b87245-c28d-4f8d-becb-31bbaad379e8","system_id":"levelo_inurba_marseille","lat":43.28338,"lon":5.38613,"is_reserved":false,"is_disabled":true,"rental_uris":{"android":"levelo://app?vid=a7b87245-c28d-4f8d-becb-31bbaad379e8","ios":"levelo://app?vid=a7b87245-c28d-4f8d-becb-31bbaad379e8"},"vehicle_type_id":"4","last_reported":1777052521,"current_range_meters":8000,"station_id":"ce4bh492rcd13ifvqdvg","pricing_plan_id":"cebpf4jnsgd1na2vs0mg"},{"bike_id":"e14dc035-ebe4-4814-acac-f2c62c2bf916","system_id":"levelo_inurba_marseille","lat":43.30895,"lon":5.37186,"is_reserved":false,"is_disabled":false,"rental_uris":{"android":"levelo://app?vid=e14dc035-ebe4-4814-acac-f2c62c2bf916","ios":"levelo://app?vid=e14dc035-ebe4-4814-acac-f2c62c2bf916"},"vehicle_type_id":"4","last_reported":1777052521,"current_range_meters":8000,"station_id":"ce4bguh2rcd13ifvqckg","pricing_plan_id":"cebpf4jnsgd1na2vs0mg"},{"bike_id":"c7ac0306-6afc-4781-8692-f962ddfe1a23","system_id":"levelo_inurba_marseille","lat":43.32365,"lon":5.36733,"is_reserved":false,"is_disabled":false,"rental_uris":{"android":"levelo://app?vid=c7ac0306-6afc-4781-8692-f962ddfe1a23","ios":"levelo://app?vid=c7ac0306-6afc-4781-8692-f962ddfe1a23"},"vehicle_type_id":"4","last_reported":1777052521,"current_range_meters":8000,"station_id":"ce4bhsh2rcd13ifvqi2g","pricing_plan_id":"cebpf4jnsgd1na2vs0mg"},{"bike_id":"525142eb-4707-4efd-a317-84c48314d0aa","system_id":"levelo_inurba_marseille","lat":43.25061,"lon":5.39263,"is_reserved":false,"is_disabled":false,"rental_uris":{"android":"levelo://app?vid=525142eb-4707-4efd-a317-84c48314d0aa","ios":"levelo://app?vid=525142eb-4707-4efd-a317-84c48314d0aa"},"vehicle_type_id":"4","last_reported":1777052521,"current_range_meters":8000,"station_id":"","pricing_plan_id":"cebpf4jnsgd1na2vs0mg"},{"bike_id":"02d5400f-e9e1-403c-a703-7683c0b8dc16","system_id":"levelo_inurba_marseille","lat":43.28271,"lon":5.35062,"is_reserved":false,"is_disabled":false,"rental_uris":{"android":"levelo://app?vid=02d5400f-e9e1-403c-a703-7683c0b8dc16","ios":"levelo://app?vid=02d5400f-e9e1-403c-a703-7683c0b8dc16"},"vehicle_type_id":"4","last_reported":1777052521,"current_range_meters":8000,"station_id":"ce4bhbp2rcd13ifvqerg","pricing_plan_id":"cebpf4jnsgd1na2vs0mg"},{"bike_id":"4993ef0d-fa4f-470c-8471-862476d9f301","system_id":"levelo_inurba_marseille","lat":43.24079,"lon":5.37753,"is_reserved":false,"is_disabled":false,"rental_uris":{"android":"levelo://app?vid=4993ef0d-fa4f-470c-8471-862476d9f301","ios":"levelo://app?vid=4993ef0d-fa4f-470c-8471-862476d9f301"},"vehicle_type_id":"4","last_reported":1777052521,"current_range_meters":8400,"station_id":"ce4bhnp2rcd13ifvqgvg","pricing_plan_id":"cebpf4jnsgd1na2vs0mg"},{"bike_id":"3d157094-1633-4b6b-b41f-2648a50f3eee","system_id":"levelo_inurba_marseille","lat":43.31491,"lon":5.373,"is_reserved":false,"is_disabled":false,"rental_uris":{"android":"levelo://app?vid=3d157094-1633-4b6b-b41f-2648a50f3eee","ios":"levelo://app?vid=3d157094-1633-4b6b-b41f-2648a50f3eee"},"vehicle_type_id":"4","last_reported":1777052521,"current_range_meters":8400,"station_id":"ce4bgt12rcd13ifvqcd0","pricing_plan_id":"cebpf4jnsgd1na2vs0mg"},{"bike_id":"e8cc70d2-e0db-403a-b744-aaadc0210597","system_id":"levelo_inurba_marseille","lat":43.27829,"lon":5.39206,"is_reserved":false,"is_disabled":false,"rental_uris":{"android":"levelo://app?vid=e8cc70d2-e0db-403a-b744-aaadc0210597","ios":"levelo://app?vid=e8cc70d2-e0db-403a-b744-aaadc0210597"},"vehicle_type_id":"4","last_reported":1777052521,"current_range_meters":8400,"station_id":"ce4bhjp2rcd13ifvqga0","pricing_plan_id":"cebpf4jnsgd1na2vs0mg"},{"bike_id":"cf639055-c97f-48c4-84c0-9591e3335e05","system_id":"levelo_inurba_marseille","lat":43.28042,"lon":5.36944,"is_reserved":false,"is_disabled":false,"rental_uris":{"android":"levelo://app?vid=cf639055-c97f-48c4-84c0-9591e3335e05","ios":"levelo://app?vid=cf639055-c97f-48c4-84c0-9591e3335e05"},"vehicle_type_id":"4","last_reported":1777052521,"current_range_meters":8400,"station_id":"ce4bha12rcd13ifvqef0","pricing_plan_id":"cebpf4jnsgd1na2vs0mg"},{"bike_id":"051cb88c-32fb-4386-8317-4c36689d53ca","system_id":"levelo_inurba_marseille","lat":43.29028,"lon":5.38138,"is_reserved":false,"is_disabled":false,"rental_uris":{"android":"levelo://app?vid=051cb88c-32fb-4386-8317-4c36689d53ca","ios":"levelo://app?vid=051cb88c-32fb-4386-8317-4c36689d53ca"},"vehicle_type_id":"4","last_reported":1777052521,"current_range_meters":8400,"station_id":"ce4bh4p2rcd13ifvqe1g","pricing_plan_id":"cebpf4jnsgd1na2vs0mg"},{"bike_id":"5a0255e7-1579-4072-83a0-d43df24a710e","system_id":"levelo_inurba_marseille","lat":43.2979,"lon":5.38114,"is_reserved":false,"is_disabled":false,"rental_uris":{"android":"levelo://app?vid=5a0255e7-1579-4072-83a0-d43df24a710e","ios":"levelo://app?vid=5a0255e7-1579-4072-83a0-d43df24a710e"},"vehicle_type_id":"4","last_reported":1777052521,"current_range_meters":8400,"station_id":"ce4bgip2rcd13ifvqbb0","pricing_plan_id":"cebpf4jnsgd1na2vs0mg"},{"bike_id":"eeac2ee0-be9f-48ee-a8da-259774c71024","system_id":"levelo_inurba_marseille","lat":43.2843,"lon":5.34997,"is_reserved":false,"is_disabled":false,"rental_uris":{"android":"levelo://app?vid=eeac2ee0-be9f-48ee-a8da-259774c71024","ios":"levelo://app?vid=eeac2ee0-be9f-48ee-a8da-259774c71024"},"vehicle_type_id":"4","last_reported":1777052521,"current_range_meters":8400,"station_id":"ce4bhbh2rcd13ifvqepg","pricing_plan_id":"cebpf4jnsgd1na2vs0mg"},{"bike_id":"a3dee876-3af2-46d4-9131-1dd0997e500a","system_id":"levelo_inurba_marseille","lat":43.24389,"lon":5.37077,"is_reserved":false,"is_disabled":true,"rental_uris":{"android":"levelo://app?vid=a3dee876-3af2-46d4-9131-1dd0997e500a","ios":"levelo://app?vid=a3dee876-3af2-46d4-9131-1dd0997e500a"},"vehicle_type_id":"4","last_reported":1777052521,"current_range_meters":8400,"station_id":"ce4bhhh2rcd13ifvqfk0","pricing_plan_id":"cebpf4jnsgd1na2vs0mg"},{"bike_id":"18ee4449-686a-4257-a830-821bcc128ad8","system_id":"levelo_inurba_marseille","lat":43.29528,"lon":5.38529,"is_reserved":false,"is_disabled":false,"rental_uris":{"android":"levelo://app?vid=18ee4449-686a-4257-a830-821bcc128ad8","ios":"levelo://app?vid=18ee4449-686a-4257-a830-821bcc128ad8"},"vehicle_type_id":"4","last_reported":1777052521,"current_range_meters":8400,"station_id":"ce4bgih2rcd13ifvqba0","pricing_plan_id":"cebpf4jnsgd1na2vs0mg"},{"bike_id":"909cae9d-5222-473b-aef5-d47a9de17fb2","system_id":"levelo_inurba_marseille","lat":43.28264,"lon":5.35079,"is_reserved":false,"is_disabled":false,"rental_uris":{"android":"levelo://app?vid=909cae9d-5222-473b-aef5-d47a9de17fb2","ios":"levelo://app?vid=909cae9d-5222-473b-aef5-d47a9de17fb2"},"vehicle_type_id":"4","last_reported":1777052521,"current_range_meters":8400,"station_id":"ce4bhbp2rcd13ifvqerg","pricing_plan_id":"cebpf4jnsgd1na2vs0mg"},{"bike_id":"60be4b0d-4c83-4300-8220-7b23e159ba6b","system_id":"levelo_inurba_marseille","lat":43.24803,"lon":5.37451,"is_reserved":false,"is_disabled":false,"rental_uris":{"android":"levelo://app?vid=60be4b0d-4c83-4300-8220-7b23e159ba6b","ios":"levelo://app?vid=60be4b0d-4c83-4300-8220-7b23e159ba6b"},"vehicle_type_id":"4","last_reported":1777052521,"current_range_meters":8400,"station_id":"ce4bhgh2rcd13ifvqfb0","pricing_plan_id":"cebpf4jnsgd1na2vs0mg"},{"bike_id":"33b474e7-79ff-4803-b72e-82f4ac2d8854","system_id":"levelo_inurba_marseille","lat":43.30877,"lon":5.39645,"is_reserved":false,"is_disabled":false,"rental_uris":{"android":"levelo://app?vid=33b474e7-79ff-4803-b72e-82f4ac2d8854","ios":"levelo://app?vid=33b474e7-79ff-4803-b72e-82f4ac2d8854"},"vehicle_type_id":"4","last_reported":1777052521,"current_range_meters":8400,"station_id":"ce4bh012rcd13ifvqcv0","pricing_plan_id":"cebpf4jnsgd1na2vs0mg"},{"bike_id":"c455f63b-3d91-452f-992d-fedcf10b46cf","system_id":"levelo_inurba_marseille","lat":43.30538,"lon":5.36525,"is_reserved":false,"is_disabled":false,"rental_uris":{"android":"levelo://app?vid=c455f63b-3d91-452f-992d-fedcf10b46cf","ios":"levelo://app?vid=c455f63b-3d91-452f-992d-fedcf10b46cf"},"vehicle_type_id":"4","last_reported":1777052521,"current_range_meters":8400,"station_id":"ce4bgs12rcd13ifvqcag","pricing_plan_id":"cebpf4jnsgd1na2vs0mg"},{"bike_id":"6683f1c1-5438-4145-9f5d-8b7a78196c6b","system_id":"levelo_inurba_marseille","lat":43.2823,"lon":5.35074,"is_reserved":false,"is_disabled":false,"rental_uris":{"android":"levelo://app?vid=6683f1c1-5438-4145-9f5d-8b7a78196c6b","ios":"levelo://app?vid=6683f1c1-5438-4145-9f5d-8b7a78196c6b"},"vehicle_type_id":"4","last_reported":1777052521,"current_range_meters":8400,"station_id":"","pricing_plan_id":"cebpf4jnsgd1na2vs0mg"},{"bike_id":"8b8b5db3-e95a-497f-b84a-b89a12682ca4","system_id":"levelo_inurba_marseille","lat":43.2983,"lon":5.44056,"is_reserved":false,"is_disabled":false,"rental_uris":{"android":"levelo://app?vid=8b8b5db3-e95a-497f-b84a-b89a12682ca4","ios":"levelo://app?vid=8b8b5db3-e95a-497f-b84a-b89a12682ca4"},"vehicle_type_id":"4","last_reported":1777052521,"current_range_meters":8400,"station_id":"st_d3jp68qikq2c7381ktn0","pricing_plan_id":"cebpf4jnsgd1na2vs0mg"},{"bike_id":"261b4d20-3fce-4a9a-b1df-f7d9447249df","system_id":"levelo_inurba_marseille","lat":43.28469,"lon":5.4842,"is_reserved":false,"is_disabled":false,"rental_uris":{"android":"levelo://app?vid=261b4d20-3fce-4a9a-b1df-f7d9447249df","ios":"levelo://app?vid=261b4d20-3fce-4a9a-b1df-f7d9447249df"},"vehicle_type_id":"4","last_reported":1777052521,"current_range_meters":8400,"station_id":"st_d3svhcjqgbts73a3dn0g","pricing_plan_id":"cebpf4jnsgd1na2vs0mg"},{"bike_id":"a748cb5a-6e0a-4ecb-b83c-da5775a99539","system_id":"levelo_inurba_marseille","lat":43.29883,"lon":5.38924,"is_reserved":false,"is_disabled":false,"rental_uris":{"android":"levelo://app?vid=a748cb5a-6e0a-4ecb-b83c-da5775a99539","ios":"levelo://app?vid=a748cb5a-6e0a-4ecb-b83c-da5775a99539"},"vehicle_type_id":"4","last_reported":1777052521,"current_range_meters":8400,"station_id":"ce4bh392rcd13ifvqdl0","pricing_plan_id":"cebpf4jnsgd1na2vs0mg"},{"bike_id":"3c977a7a-e64b-4361-bf0e-1d7f3c9e9310","system_id":"levelo_inurba_marseille","lat":43.27999,"lon":5.40013,"is_reserved":false,"is_disabled":false,"rental_uris":{"android":"levelo://app?vid=3c977a7a-e64b-4361-bf0e-1d7f3c9e9310","ios":"levelo://app?vid=3c977a7a-e64b-4361-bf0e-1d7f3c9e9310"},"vehicle_type_id":"4","last_reported":1777052521,"current_range_meters":8400,"station_id":"ce4bho92rcd13ifvqh4g","pricing_plan_id":"cebpf4jnsgd1na2vs0mg"},{"bike_id":"4ce71f71-1a28-4592-bd5c-1940ff667306","system_id":"levelo_inurba_marseille","lat":43.30959,"lon":5.36788,"is_reserved":false,"is_disabled":false,"rental_uris":{"android":"levelo://app?vid=4ce71f71-1a28-4592-bd5c-1940ff667306","ios":"levelo://app?vid=4ce71f71-1a28-4592-bd5c-1940ff667306"},"vehicle_type_id":"4","last_reported":1777052521,"current_range_meters":8800,"station_id":"","pricing_plan_id":"cebpf4jnsgd1na2vs0mg"},{"bike_id":"d4228963-b3dc-41d2-8d8a-98ee7f6180ab","system_id":"levelo_inurba_marseille","lat":43.29975,"lon":5.38511,"is_reserved":false,"is_disabled":false,"rental_uris":{"android":"levelo://app?vid=d4228963-b3dc-41d2-8d8a-98ee7f6180ab","ios":"levelo://app?vid=d4228963-b3dc-41d2-8d8a-98ee7f6180ab"},"vehicle_type_id":"4","last_reported":1777052521,"current_range_meters":8800,"station_id":"ce4bgj92rcd13ifvqbd0","pricing_plan_id":"cebpf4jnsgd1na2vs0mg"},{"bike_id":"ef1780af-1aea-4e08-82c2-da4d0be385bf","system_id":"levelo_inurba_marseille","lat":43.28983,"lon":5.36069,"is_reserved":false,"is_disabled":false,"rental_uris":{"android":"levelo://app?vid=ef1780af-1aea-4e08-82c2-da4d0be385bf","ios":"levelo://app?vid=ef1780af-1aea-4e08-82c2-da4d0be385bf"},"vehicle_type_id":"4","last_reported":1777052521,"current_range_meters":8800,"station_id":"","pricing_plan_id":"cebpf4jnsgd1na2vs0mg"},{"bike_id":"4e7f60dc-2079-4f51-9d09-01d31cdd2f9b","system_id":"levelo_inurba_marseille","lat":43.24658,"lon":5.43173,"is_reserved":false,"is_disabled":false,"rental_uris":{"android":"levelo://app?vid=4e7f60dc-2079-4f51-9d09-01d31cdd2f9b","ios":"levelo://app?vid=4e7f60dc-2079-4f51-9d09-01d31cdd2f9b"},"vehicle_type_id":"4","last_reported":1777052521,"current_range_meters":8800,"station_id":"st_d2m6c4gdas8pm72e190g","pricing_plan_id":"cebpf4jnsgd1na2vs0mg"},{"bike_id":"6378d13c-9294-47cb-a201-edcadf79aa34","system_id":"levelo_inurba_marseille","lat":43.27813,"lon":5.40708,"is_reserved":false,"is_disabled":false,"rental_uris":{"android":"levelo://app?vid=6378d13c-9294-47cb-a201-edcadf79aa34","ios":"levelo://app?vid=6378d13c-9294-47cb-a201-edcadf79aa34"},"vehicle_type_id":"4","last_reported":1777052521,"current_range_meters":8800,"station_id":"ce4bhnh2rcd13ifvqgtg","pricing_plan_id":"cebpf4jnsgd1na2vs0mg"},{"bike_id":"c27c14c5-d60c-48fb-84ce-ac2a5ae3f6eb","system_id":"levelo_inurba_marseille","lat":43.28622,"lon":5.35118,"is_reserved":false,"is_disabled":false,"rental_uris":{"android":"levelo://app?vid=c27c14c5-d60c-48fb-84ce-ac2a5ae3f6eb","ios":"levelo://app?vid=c27c14c5-d60c-48fb-84ce-ac2a5ae3f6eb"},"vehicle_type_id":"4","last_reported":1777052521,"current_range_meters":8800,"station_id":"ce4bhch2rcd13ifvqeug","pricing_plan_id":"cebpf4jnsgd1na2vs0mg"},{"bike_id":"ea66f779-9aab-40b1-b49f-a158eff800c7","system_id":"levelo_inurba_marseille","lat":43.28615,"lon":5.35105,"is_reserved":false,"is_disabled":false,"rental_uris":{"android":"levelo://app?vid=ea66f779-9aab-40b1-b49f-a158eff800c7","ios":"levelo://app?vid=ea66f779-9aab-40b1-b49f-a158eff800c7"},"vehicle_type_id":"4","last_reported":1777052521,"current_range_meters":8800,"station_id":"ce4bhch2rcd13ifvqeug","pricing_plan_id":"cebpf4jnsgd1na2vs0mg"},{"bike_id":"4af5f932-71ad-4954-ac3b-fecb2a352994","system_id":"levelo_inurba_marseille","lat":43.32346,"lon":5.36735,"is_reserved":false,"is_disabled":false,"rental_uris":{"android":"levelo://app?vid=4af5f932-71ad-4954-ac3b-fecb2a352994","ios":"levelo://app?vid=4af5f932-71ad-4954-ac3b-fecb2a352994"},"vehicle_type_id":"4","last_reported":1777052521,"current_range_meters":8800,"station_id":"ce4bhsh2rcd13ifvqi2g","pricing_plan_id":"cebpf4jnsgd1na2vs0mg"},{"bike_id":"1370c3f0-6074-43de-a93b-f7f87c829b3b","system_id":"levelo_inurba_marseille","lat":43.2912,"lon":5.39985,"is_reserved":false,"is_disabled":false,"rental_uris":{"android":"levelo://app?vid=1370c3f0-6074-43de-a93b-f7f87c829b3b","ios":"levelo://app?vid=1370c3f0-6074-43de-a93b-f7f87c829b3b"},"vehicle_type_id":"4","last_reported":1777052521,"current_range_meters":8800,"station_id":"","pricing_plan_id":"cebpf4jnsgd1na2vs0mg"},{"bike_id":"e1a53269-14f6-4872-8ac0-32cd29df4136","system_id":"levelo_inurba_marseille","lat":43.27616,"lon":5.36105,"is_reserved":false,"is_disabled":false,"rental_uris":{"android":"levelo://app?vid=e1a53269-14f6-4872-8ac0-32cd29df4136","ios":"levelo://app?vid=e1a53269-14f6-4872-8ac0-32cd29df4136"},"vehicle_type_id":"4","last_reported":1777052521,"current_range_meters":8800,"station_id":"ce4bgj92rcd13ifvqbe0","pricing_plan_id":"cebpf4jnsgd1na2vs0mg"},{"bike_id":"19f8a10d-4c70-4e54-a67b-efaf52187279","system_id":"levelo_inurba_marseille","lat":43.2885,"lon":5.35829,"is_reserved":false,"is_disabled":false,"rental_uris":{"android":"levelo://app?vid=19f8a10d-4c70-4e54-a67b-efaf52187279","ios":"levelo://app?vid=19f8a10d-4c70-4e54-a67b-efaf52187279"},"vehicle_type_id":"4","last_reported":1777052521,"current_range_meters":8800,"station_id":"ce4bhb12rcd13ifvqem0","pricing_plan_id":"cebpf4jnsgd1na2vs0mg"},{"bike_id":"d5f3a701-3218-4332-b085-948410ae581b","system_id":"levelo_inurba_marseille","lat":43.29319,"lon":5.41173,"is_reserved":false,"is_disabled":false,"rental_uris":{"android":"levelo://app?vid=d5f3a701-3218-4332-b085-948410ae581b","ios":"levelo://app?vid=d5f3a701-3218-4332-b085-948410ae581b"},"vehicle_type_id":"4","last_reported":1777052521,"current_range_meters":8800,"station_id":"","pricing_plan_id":"cebpf4jnsgd1na2vs0mg"},{"bike_id":"0f472aa6-a4c0-41f7-a4d3-cdc1ed8aa222","system_id":"levelo_inurba_marseille","lat":43.30429,"lon":5.38884,"is_reserved":false,"is_disabled":false,"rental_uris":{"android":"levelo://app?vid=0f472aa6-a4c0-41f7-a4d3-cdc1ed8aa222","ios":"levelo://app?vid=0f472aa6-a4c0-41f7-a4d3-cdc1ed8aa222"},"vehicle_type_id":"4","last_reported":1777052521,"current_range_meters":8800,"station_id":"ce4bgk12rcd13ifvqbi0","pricing_plan_id":"cebpf4jnsgd1na2vs0mg"},{"bike_id":"5943059b-232d-4deb-8b3a-c65352f04f61","system_id":"levelo_inurba_marseille","lat":43.27386,"lon":5.36253,"is_reserved":false,"is_disabled":false,"rental_uris":{"android":"levelo://app?vid=5943059b-232d-4deb-8b3a-c65352f04f61","ios":"levelo://app?vid=5943059b-232d-4deb-8b3a-c65352f04f61"},"vehicle_type_id":"4","last_reported":1777052521,"current_range_meters":8800,"station_id":"ce4bhbh2rcd13ifvqeo0","pricing_plan_id":"cebpf4jnsgd1na2vs0mg"},{"bike_id":"4d5b4915-5fc0-4782-a3a4-e445cc2cf470","system_id":"levelo_inurba_marseille","lat":43.29871,"lon":5.42101,"is_reserved":false,"is_disabled":false,"rental_uris":{"android":"levelo://app?vid=4d5b4915-5fc0-4782-a3a4-e445cc2cf470","ios":"levelo://app?vid=4d5b4915-5fc0-4782-a3a4-e445cc2cf470"},"vehicle_type_id":"4","last_reported":1777052521,"current_range_meters":8800,"station_id":"st_d6tc004otcvc738tfe70","pricing_plan_id":"cebpf4jnsgd1na2vs0mg"},{"bike_id":"5956adb2-e140-4b5c-a141-2ad157cf97c2","system_id":"levelo_inurba_marseille","lat":43.24393,"lon":5.37057,"is_reserved":false,"is_disabled":false,"rental_uris":{"android":"levelo://app?vid=5956adb2-e140-4b5c-a141-2ad157cf97c2","ios":"levelo://app?vid=5956adb2-e140-4b5c-a141-2ad157cf97c2"},"vehicle_type_id":"4","last_reported":1777052521,"current_range_meters":8800,"station_id":"ce4bhhh2rcd13ifvqfk0","pricing_plan_id":"cebpf4jnsgd1na2vs0mg"},{"bike_id":"2fa470b1-4540-432b-b94a-52d90e2410a5","system_id":"levelo_inurba_marseille","lat":43.29766,"lon":5.37114,"is_reserved":false,"is_disabled":false,"rental_uris":{"android":"levelo://app?vid=2fa470b1-4540-432b-b94a-52d90e2410a5","ios":"levelo://app?vid=2fa470b1-4540-432b-b94a-52d90e2410a5"},"vehicle_type_id":"4","last_reported":1777052521,"current_range_meters":8800,"station_id":"ce4bgop2rcd13ifvqc1g","pricing_plan_id":"cebpf4jnsgd1na2vs0mg"},{"bike_id":"a8b7eaa1-6f34-431e-a84f-354312f1ae3a","system_id":"levelo_inurba_marseille","lat":43.24072,"lon":5.37758,"is_reserved":false,"is_disabled":false,"rental_uris":{"android":"levelo://app?vid=a8b7eaa1-6f34-431e-a84f-354312f1ae3a","ios":"levelo://app?vid=a8b7eaa1-6f34-431e-a84f-354312f1ae3a"},"vehicle_type_id":"4","last_reported":1777052521,"current_range_meters":8800,"station_id":"ce4bhnp2rcd13ifvqgvg","pricing_plan_id":"cebpf4jnsgd1na2vs0mg"},{"bike_id":"973940ce-e545-4d71-9396-486542a3f8e7","system_id":"levelo_inurba_marseille","lat":43.28612,"lon":5.35105,"is_reserved":false,"is_disabled":false,"rental_uris":{"android":"levelo://app?vid=973940ce-e545-4d71-9396-486542a3f8e7","ios":"levelo://app?vid=973940ce-e545-4d71-9396-486542a3f8e7"},"vehicle_type_id":"4","last_reported":1777052521,"current_range_meters":8800,"station_id":"ce4bhch2rcd13ifvqeug","pricing_plan_id":"cebpf4jnsgd1na2vs0mg"},{"bike_id":"1915812b-fad3-4b94-8ecf-10e9eb8eb06b","system_id":"levelo_inurba_marseille","lat":43.28038,"lon":5.36934,"is_reserved":false,"is_disabled":false,"rental_uris":{"android":"levelo://app?vid=1915812b-fad3-4b94-8ecf-10e9eb8eb06b","ios":"levelo://app?vid=1915812b-fad3-4b94-8ecf-10e9eb8eb06b"},"vehicle_type_id":"4","last_reported":1777052521,"current_range_meters":8800,"station_id":"ce4bha12rcd13ifvqef0","pricing_plan_id":"cebpf4jnsgd1na2vs0mg"},{"bike_id":"5091d3df-140a-4a96-ba1e-f44ab742c57b","system_id":"levelo_inurba_marseille","lat":43.23191,"lon":5.39996,"is_reserved":false,"is_disabled":true,"rental_uris":{"android":"levelo://app?vid=5091d3df-140a-4a96-ba1e-f44ab742c57b","ios":"levelo://app?vid=5091d3df-140a-4a96-ba1e-f44ab742c57b"},"vehicle_type_id":"4","last_reported":1777052521,"current_range_meters":8800,"station_id":"ce4bhn12rcd13ifvqgqg","pricing_plan_id":"cebpf4jnsgd1na2vs0mg"},{"bike_id":"78ae4cef-f11a-40d7-8587-894f0c2d08ee","system_id":"levelo_inurba_marseille","lat":43.29006,"lon":5.35611,"is_reserved":false,"is_disabled":false,"rental_uris":{"android":"levelo://app?vid=78ae4cef-f11a-40d7-8587-894f0c2d08ee","ios":"levelo://app?vid=78ae4cef-f11a-40d7-8587-894f0c2d08ee"},"vehicle_type_id":"4","last_reported":1777052521,"current_range_meters":8800,"station_id":"ce4bhb92rcd13ifvqen0","pricing_plan_id":"cebpf4jnsgd1na2vs0mg"},{"bike_id":"3438844c-60cf-49e8-a076-d83ee5825b70","system_id":"levelo_inurba_marseille","lat":43.3021,"lon":5.39454,"is_reserved":false,"is_disabled":false,"rental_uris":{"android":"levelo://app?vid=3438844c-60cf-49e8-a076-d83ee5825b70","ios":"levelo://app?vid=3438844c-60cf-49e8-a076-d83ee5825b70"},"vehicle_type_id":"4","last_reported":1777052521,"current_range_meters":8800,"station_id":"ce4bh0p2rcd13ifvqd70","pricing_plan_id":"cebpf4jnsgd1na2vs0mg"},{"bike_id":"1fca75f8-441b-4688-b894-ff3c362d408b","system_id":"levelo_inurba_marseille","lat":43.25883,"lon":5.39881,"is_reserved":false,"is_disabled":false,"rental_uris":{"android":"levelo://app?vid=1fca75f8-441b-4688-b894-ff3c362d408b","ios":"levelo://app?vid=1fca75f8-441b-4688-b894-ff3c362d408b"},"vehicle_type_id":"4","last_reported":1777052521,"current_range_meters":8800,"station_id":"ce4bhl92rcd13ifvqghg","pricing_plan_id":"cebpf4jnsgd1na2vs0mg"},{"bike_id":"a43eca95-d72a-4b45-9df4-537fdc66a250","system_id":"levelo_inurba_marseille","lat":43.28927,"lon":5.36396,"is_reserved":false,"is_disabled":false,"rental_uris":{"android":"levelo://app?vid=a43eca95-d72a-4b45-9df4-537fdc66a250","ios":"levelo://app?vid=a43eca95-d72a-4b45-9df4-537fdc66a250"},"vehicle_type_id":"4","last_reported":1777052521,"current_range_meters":9200,"station_id":"ce4bhc92rcd13ifvqetg","pricing_plan_id":"cebpf4jnsgd1na2vs0mg"},{"bike_id":"636397be-2f2a-429c-8400-c0b2ae6ebd72","system_id":"levelo_inurba_marseille","lat":43.30212,"lon":5.39452,"is_reserved":false,"is_disabled":false,"rental_uris":{"android":"levelo://app?vid=636397be-2f2a-429c-8400-c0b2ae6ebd72","ios":"levelo://app?vid=636397be-2f2a-429c-8400-c0b2ae6ebd72"},"vehicle_type_id":"4","last_reported":1777052521,"current_range_meters":9200,"station_id":"ce4bh0p2rcd13ifvqd70","pricing_plan_id":"cebpf4jnsgd1na2vs0mg"},{"bike_id":"6a382a26-93df-4b4f-99b6-0161544321ed","system_id":"levelo_inurba_marseille","lat":43.28296,"lon":5.35061,"is_reserved":false,"is_disabled":true,"rental_uris":{"android":"levelo://app?vid=6a382a26-93df-4b4f-99b6-0161544321ed","ios":"levelo://app?vid=6a382a26-93df-4b4f-99b6-0161544321ed"},"vehicle_type_id":"4","last_reported":1777052521,"current_range_meters":9200,"station_id":"ce4bhbp2rcd13ifvqerg","pricing_plan_id":"cebpf4jnsgd1na2vs0mg"},{"bike_id":"0ce641a1-ca62-4f05-b894-4a72f77b98f2","system_id":"levelo_inurba_marseille","lat":43.3236,"lon":5.36745,"is_reserved":false,"is_disabled":false,"rental_uris":{"android":"levelo://app?vid=0ce641a1-ca62-4f05-b894-4a72f77b98f2","ios":"levelo://app?vid=0ce641a1-ca62-4f05-b894-4a72f77b98f2"},"vehicle_type_id":"4","last_reported":1777052521,"current_range_meters":9200,"station_id":"ce4bhsh2rcd13ifvqi2g","pricing_plan_id":"cebpf4jnsgd1na2vs0mg"},{"bike_id":"438ef943-6365-44b4-889f-44915622d8c6","system_id":"levelo_inurba_marseille","lat":43.31127,"lon":5.37764,"is_reserved":false,"is_disabled":false,"rental_uris":{"android":"levelo://app?vid=438ef943-6365-44b4-889f-44915622d8c6","ios":"levelo://app?vid=438ef943-6365-44b4-889f-44915622d8c6"},"vehicle_type_id":"4","last_reported":1777052521,"current_range_meters":9200,"station_id":"ce4bgt92rcd13ifvqcg0","pricing_plan_id":"cebpf4jnsgd1na2vs0mg"},{"bike_id":"517b465b-1cbe-47c0-8062-1f1f68f9139f","system_id":"levelo_inurba_marseille","lat":43.2321,"lon":5.35603,"is_reserved":false,"is_disabled":false,"rental_uris":{"android":"levelo://app?vid=517b465b-1cbe-47c0-8062-1f1f68f9139f","ios":"levelo://app?vid=517b465b-1cbe-47c0-8062-1f1f68f9139f"},"vehicle_type_id":"4","last_reported":1777052521,"current_range_meters":9200,"station_id":"ce4bhu92rcd13ifvqi70","pricing_plan_id":"cebpf4jnsgd1na2vs0mg"},{"bike_id":"1d368fe1-0c8f-4a40-864c-b54082c58fa1","system_id":"levelo_inurba_marseille","lat":43.33554,"lon":5.37462,"is_reserved":false,"is_disabled":false,"rental_uris":{"android":"levelo://app?vid=1d368fe1-0c8f-4a40-864c-b54082c58fa1","ios":"levelo://app?vid=1d368fe1-0c8f-4a40-864c-b54082c58fa1"},"vehicle_type_id":"4","last_reported":1777052521,"current_range_meters":9200,"station_id":"st_d46tts09ee8s73dlu43g","pricing_plan_id":"cebpf4jnsgd1na2vs0mg"},{"bike_id":"1aee37ef-edbd-4ce2-89db-d4b9c3989aff","system_id":"levelo_inurba_marseille","lat":43.25488,"lon":5.37662,"is_reserved":false,"is_disabled":false,"rental_uris":{"android":"levelo://app?vid=1aee37ef-edbd-4ce2-89db-d4b9c3989aff","ios":"levelo://app?vid=1aee37ef-edbd-4ce2-89db-d4b9c3989aff"},"vehicle_type_id":"4","last_reported":1777052521,"current_range_meters":9200,"station_id":"ce4bhh12rcd13ifvqff0","pricing_plan_id":"cebpf4jnsgd1na2vs0mg"},{"bike_id":"dd35f2b0-c1f0-4e1e-8418-bded130cdf05","system_id":"levelo_inurba_marseille","lat":43.29559,"lon":5.38546,"is_reserved":false,"is_disabled":false,"rental_uris":{"android":"levelo://app?vid=dd35f2b0-c1f0-4e1e-8418-bded130cdf05","ios":"levelo://app?vid=dd35f2b0-c1f0-4e1e-8418-bded130cdf05"},"vehicle_type_id":"4","last_reported":1777052521,"current_range_meters":9200,"station_id":"ce4bgih2rcd13ifvqba0","pricing_plan_id":"cebpf4jnsgd1na2vs0mg"},{"bike_id":"d17d284b-9bc8-4830-a9ce-dc23e23c6485","system_id":"levelo_inurba_marseille","lat":43.26553,"lon":5.37304,"is_reserved":false,"is_disabled":false,"rental_uris":{"android":"levelo://app?vid=d17d284b-9bc8-4830-a9ce-dc23e23c6485","ios":"levelo://app?vid=d17d284b-9bc8-4830-a9ce-dc23e23c6485"},"vehicle_type_id":"4","last_reported":1777052521,"current_range_meters":9200,"station_id":"ce4bhg12rcd13ifvqf70","pricing_plan_id":"cebpf4jnsgd1na2vs0mg"},{"bike_id":"8abebcd0-d20e-46c1-a951-0f2cd38e2c84","system_id":"levelo_inurba_marseille","lat":43.26194,"lon":5.37449,"is_reserved":false,"is_disabled":false,"rental_uris":{"android":"levelo://app?vid=8abebcd0-d20e-46c1-a951-0f2cd38e2c84","ios":"levelo://app?vid=8abebcd0-d20e-46c1-a951-0f2cd38e2c84"},"vehicle_type_id":"4","last_reported":1777052521,"current_range_meters":9200,"station_id":"ce4bhgp2rcd13ifvqfc0","pricing_plan_id":"cebpf4jnsgd1na2vs0mg"},{"bike_id":"851295c3-468d-4148-95d8-ad52f26696d5","system_id":"levelo_inurba_marseille","lat":43.24167,"lon":5.36391,"is_reserved":false,"is_disabled":false,"rental_uris":{"android":"levelo://app?vid=851295c3-468d-4148-95d8-ad52f26696d5","ios":"levelo://app?vid=851295c3-468d-4148-95d8-ad52f26696d5"},"vehicle_type_id":"4","last_reported":1777052521,"current_range_meters":9200,"station_id":"cpo36qri1sfpv3e86is0","pricing_plan_id":"cebpf4jnsgd1na2vs0mg"},{"bike_id":"2150e900-bc36-4714-8063-0320eae925a9","system_id":"levelo_inurba_marseille","lat":43.23962,"lon":5.36631,"is_reserved":false,"is_disabled":false,"rental_uris":{"android":"levelo://app?vid=2150e900-bc36-4714-8063-0320eae925a9","ios":"levelo://app?vid=2150e900-bc36-4714-8063-0320eae925a9"},"vehicle_type_id":"4","last_reported":1777052521,"current_range_meters":9200,"station_id":"ce4bhi12rcd13ifvqfp0","pricing_plan_id":"cebpf4jnsgd1na2vs0mg"},{"bike_id":"0ebaf76a-e545-4694-9161-65191d072bff","system_id":"levelo_inurba_marseille","lat":43.28156,"lon":5.42642,"is_reserved":false,"is_disabled":false,"rental_uris":{"android":"levelo://app?vid=0ebaf76a-e545-4694-9161-65191d072bff","ios":"levelo://app?vid=0ebaf76a-e545-4694-9161-65191d072bff"},"vehicle_type_id":"4","last_reported":1777052521,"current_range_meters":9200,"station_id":"ce4bhnh2rcd13ifvqgug","pricing_plan_id":"cebpf4jnsgd1na2vs0mg"},{"bike_id":"e3167a97-4201-48f2-8508-49109d14dfeb","system_id":"levelo_inurba_marseille","lat":43.30889,"lon":5.36848,"is_reserved":false,"is_disabled":false,"rental_uris":{"android":"levelo://app?vid=e3167a97-4201-48f2-8508-49109d14dfeb","ios":"levelo://app?vid=e3167a97-4201-48f2-8508-49109d14dfeb"},"vehicle_type_id":"4","last_reported":1777052521,"current_range_meters":9200,"station_id":"ce4bgn92rcd13ifvqbvg","pricing_plan_id":"cebpf4jnsgd1na2vs0mg"},