{"last_updated":1683407153,"ttl":30,"version":"2.2","data":{"bikes":[{"bike_id":"7f91af93-875b-43a6-8e39-c43573e763a6","system_id":"levelo_inurba_marseille","lat":43.312239,"lon":5.368562,"is_reserved":false,"is_disabled":false,"rental_uris":{"android":"levelo://app?vid=7f91af93-875b-43a6-8e39-c43573e763a6","ios":"levelo://app?vid=7f91af93-875b-43a6-8e39-c43573e763a6"},"vehicle_type_id":"4","last_reported":1683407154,"current_range_meters":12400,"station_id":"ce4bgl92rcd13ifvqbq0","pricing_plan_id":"free"},{"bike_id":"71a3dbcc-c74d-4bae-9fea-667d6a8a562a","system_id":"levelo_inurba_marseille","lat":43.312239,"lon":5.368562,"is_reserved":false,"is_disabled":false,"rental_uris":{"android":"levelo://app?vid=71a3dbcc-c74d-4bae-9fea-667d6a8a562a","ios":"levelo://app?vid=71a3dbcc-c74d-4bae-9fea-667d6a8a562a"},"vehicle_type_id":"4","last_reported":1683407154,"current_range_meters":28000,"station_id":"ce4bgl92rcd13ifvqbq0","pricing_plan_id":"free"},{"bike_id":"c3dd131e-789c-4385-bc69-9693f0211ae2","system_id":"levelo_inurba_marseille","lat":43.3122,"lon":5.36854,"is_reserved":false,"is_disabled":false,"rental_uris":{"android":"levelo://app?vid=c3dd131e-789c-4385-bc69-9693f0211ae2","ios":"levelo://app?vid=c3dd131e-789c-4385-bc69-9693f0211ae2"},"vehicle_type_id":"4","last_reported":1683407154,"current_range_meters":2400,"station_id":"ce4bgl92rcd13ifvqbq0","pricing_plan_id":"free"},{"bike_id":"4dc7df0e-612d-438f-93be-b7c1bad1e3ab","system_id":"levelo_inurba_marseille","lat":43.312239,"lon":5.368562,"is_reserved":false,"is_disabled":false,"rental_uris":{"android":"levelo://app?vid=4dc7df0e-612d-438f-93be-b7c1bad1e3ab","ios":"levelo://app?vid=4dc7df0e-612d-438f-93be-b7c1bad1e3ab"},"vehicle_type_id":"4","last_reported":1683407154,"current_range_meters":9200,"station_id":"ce4bgl92rcd13ifvqbq0","pricing_plan_id":"free"},{"bike_id":"e897e996-0009-4717-806b-eee0b9e43e56","system_id":"levelo_inurba_marseille","lat":43.312239,"lon":5.368562,"is_reserved":false,"is_disabled":false,"rental_uris":{"android":"levelo://app?vid=e897e996-0009-4717-806b-eee0b9e43e56","ios":"levelo://app?vid=e897e996-0009-4717-806b-eee0b9e43e56"},"vehicle_type_id":"4","last_reported":1683407154,"current_range_meters":12400,"station_id":"ce4bgl92rcd13ifvqbq0","pricing_plan_id":"free"},{"bike_id":"17cf358b-fd9d-48ff-b472-fd772803b377","system_id":"levelo_inurba_marseille","lat":43.312239,"lon":5.368562,"is_reserved":false,"is_disabled":false,"rental_uris":{"android":"levelo://app?vid=17cf358b-fd9d-48ff-b472-fd772803b377","ios":"levelo://app?vid=17cf358b-fd9d-48ff-b472-fd772803b377"},"vehicle_type_id":"4","last_reported":1683407154,"current_range_meters":9200,"station_id":"ce4bgl92rcd13ifvqbq0","pricing_plan_id":"free"},{"bike_id":"bfbadf53-5575-4ada-a8fc-11e19d1d4aa6","system_id":"levelo_inurba_marseille","lat":43.314811,"lon":5.373103,"is_reserved":false,"is_disabled":false,"rental_uris":{"android":"levelo://app?vid=bfbadf53-5575-4ada-a8fc-11e19d1d4aa6","ios":"levelo://app?vid=bfbadf53-5575-4ada-a8fc-11e19d1d4aa6"},"vehicle_type_id":"4","last_reported":1683407154,"current_range_meters":28000,"station_id":"ce4bgt12rcd13ifvqcd0","pricing_plan_id":"free"},{"bike_id":"3b581a37-817e-4647-8743-9a0251f77bc3","system_id":"levelo_inurba_marseille","lat":43.314811,"lon":5.373103,"is_reserved":false,"is_disabled":false,"rental_uris":{"android":"levelo://app?vid=3b581a37-817e-4647-8743-9a0251f77bc3","ios":"levelo://app?vid=3b581a37-817e-4647-8743-9a0251f77bc3"},"vehicle_type_id":"4","last_reported":1683407154,"current_range_meters":3600,"station_id":"ce4bgt12rcd13ifvqcd0","pricing_plan_id":"free"},{"bike_id":"617985df-9fd6-4213-aac4-811a5c72d6a5","system_id":"levelo_inurba_marseille","lat":43.314811,"lon":5.373103,"is_reserved":false,"is_disabled":false,"rental_uris":{"android":"levelo://app?vid=617985df-9fd6-4213-aac4-811a5c72d6a5","ios":"levelo://app?vid=617985df-9fd6-4213-aac4-811a5c72d6a5"},"vehicle_type_id":"4","last_reported":1683407154,"current_range_meters":10000,"station_id":"ce4bgt12rcd13ifvqcd0","pricing_plan_id":"free"},{"bike_id":"7eeef4f9-5b08-4550-aa17-8a3841b3d2aa","system_id":"levelo_inurba_marseille","lat":43.314811,"lon":5.373103,"is_reserved":false,"is_disabled":false,"rental_uris":{"android":"levelo://app?vid=7eeef4f9-5b08-4550-aa17-8a3841b3d2aa","ios":"levelo://app?vid=7eeef4f9-5b08-4550-aa17-8a3841b3d2aa"},"vehicle_type_id":"4","last_reported":1683407154,"current_range_meters":14400,"station_id":"ce4bgt12rcd13ifvqcd0","pricing_plan_id":"free"},{"bike_id":"bf47690f-b648-4ac8-b08d-b7f08ff59742","system_id":"levelo_inurba_marseille","lat":43.308614,"lon":5.372098,"is_reserved":false,"is_disabled":false,"rental_uris":{"android":"levelo://app?vid=bf47690f-b648-4ac8-b08d-b7f08ff59742","ios":"levelo://app?vid=bf47690f-b648-4ac8-b08d-b7f08ff59742"},"vehicle_type_id":"4","last_reported":1683407154,"current_range_meters":8800,"station_id":"ce4bguh2rcd13ifvqckg","pricing_plan_id":"free"},{"bike_id":"8eb86c4d-e0c7-4281-8428-6b158ae722ba","system_id":"levelo_inurba_marseille","lat":43.31914,"lon":5.36767,"is_reserved":false,"is_disabled":false,"rental_uris":{"android":"levelo://app?vid=8eb86c4d-e0c7-4281-8428-6b158ae722ba","ios":"levelo://app?vid=8eb86c4d-e0c7-4281-8428-6b158ae722ba"},"vehicle_type_id":"4","last_reported":1683407154,"current_range_meters":13600,"station_id":"","pricing_plan_id":"free"},{"bike_id":"caea2489-5a5d-4f00-8e78-8c319f8ed68e","system_id":"levelo_inurba_marseille","lat":43.3057,"lon":5.36553,"is_reserved":false,"is_disabled":false,"rental_uris":{"android":"levelo://app?vid=caea2489-5a5d-4f00-8e78-8c319f8ed68e","ios":"levelo://app?vid=caea2489-5a5d-4f00-8e78-8c319f8ed68e"},"vehicle_type_id":"4","last_reported":1683407154,"current_range_meters":5200,"station_id":"","pricing_plan_id":"free"},{"bike_id":"d70450ed-7f88-4446-881f-818cf3159ec3","system_id":"levelo_inurba_marseille","lat":43.305706,"lon":5.365654,"is_reserved":false,"is_disabled":false,"rental_uris":{"android":"levelo://app?vid=d70450ed-7f88-4446-881f-818cf3159ec3","ios":"levelo://app?vid=d70450ed-7f88-4446-881f-818cf3159ec3"},"vehicle_type_id":"4","last_reported":1683407154,"current_range_meters":0,"station_id":"ce4bgs12rcd13ifvqcag","pricing_plan_id":"free"},{"bike_id":"692d6c67-f71a-4d21-b15f-e5cb89228b9d","system_id":"levelo_inurba_marseille","lat":43.30543,"lon":5.36711,"is_reserved":false,"is_disabled":false,"rental_uris":{"android":"levelo://app?vid=692d6c67-f71a-4d21-b15f-e5cb89228b9d","ios":"levelo://app?vid=692d6c67-f71a-4d21-b15f-e5cb89228b9d"},"vehicle_type_id":"4","last_reported":1683407154,"current_range_meters":12400,"station_id":"ce4bgrp2rcd13ifvqc9g","pricing_plan_id":"free"},{"bike_id":"e0054d71-d2a5-468e-8be3-9bb3f89337fc","system_id":"levelo_inurba_marseille","lat":43.30547,"lon":5.36534,"is_reserved":false,"is_disabled":false,"rental_uris":{"android":"levelo://app?vid=e0054d71-d2a5-468e-8be3-9bb3f89337fc","ios":"levelo://app?vid=e0054d71-d2a5-468e-8be3-9bb3f89337fc"},"vehicle_type_id":"4","last_reported":1683407154,"current_range_meters":2000,"station_id":"","pricing_plan_id":"free"},{"bike_id":"9eaa0251-dce6-4da8-9bec-faabd323f8c1","system_id":"levelo_inurba_marseille","lat":43.30533,"lon":5.36543,"is_reserved":false,"is_disabled":false,"rental_uris":{"android":"levelo://app?vid=9eaa0251-dce6-4da8-9bec-faabd323f8c1","ios":"levelo://app?vid=9eaa0251-dce6-4da8-9bec-faabd323f8c1"},"vehicle_type_id":"4","last_reported":1683407154,"current_range_meters":27200,"station_id":"","pricing_plan_id":"free"},{"bike_id":"a629806c-0288-4eb5-9434-6693fed72f8e","system_id":"levelo_inurba_marseille","lat":43.311131,"lon":5.377651,"is_reserved":false,"is_disabled":false,"rental_uris":{"android":"levelo://app?vid=a629806c-0288-4eb5-9434-6693fed72f8e","ios":"levelo://app?vid=a629806c-0288-4eb5-9434-6693fed72f8e"},"vehicle_type_id":"4","last_reported":1683407154,"current_range_meters":10000,"station_id":"ce4bgt92rcd13ifvqcg0","pricing_plan_id":"free"},{"bike_id":"0fcc3bc2-6ba4-4650-bf96-4cf18964f223","system_id":"levelo_inurba_marseille","lat":43.317075,"lon":5.377367,"is_reserved":false,"is_disabled":false,"rental_uris":{"android":"levelo://app?vid=0fcc3bc2-6ba4-4650-bf96-4cf18964f223","ios":"levelo://app?vid=0fcc3bc2-6ba4-4650-bf96-4cf18964f223"},"vehicle_type_id":"4","last_reported":1683407154,"current_range_meters":29600,"station_id":"ce4bgth2rcd13ifvqch0","pricing_plan_id":"free"},{"bike_id":"cca32320-f1b3-4e7a-8edb-fbe3a3aa1905","system_id":"levelo_inurba_marseille","lat":43.30334,"lon":5.36551,"is_reserved":false,"is_disabled":false,"rental_uris":{"android":"levelo://app?vid=cca32320-f1b3-4e7a-8edb-fbe3a3aa1905","ios":"levelo://app?vid=cca32320-f1b3-4e7a-8edb-fbe3a3aa1905"},"vehicle_type_id":"4","last_reported":1683407154,"current_range_meters":400,"station_id":"","pricing_plan_id":"free"},{"bike_id":"5a1ebad7-4fa1-40e7-91f8-f01754aa2117","system_id":"levelo_inurba_marseille","lat":43.30316,"lon":5.36456,"is_reserved":false,"is_disabled":false,"rental_uris":{"android":"levelo://app?vid=5a1ebad7-4fa1-40e7-91f8-f01754aa2117","ios":"levelo://app?vid=5a1ebad7-4fa1-40e7-91f8-f01754aa2117"},"vehicle_type_id":"4","last_reported":1683407154,"current_range_meters":5200,"station_id":"","pricing_plan_id":"free"},{"bike_id":"82ee987f-ee8f-4a2b-8643-a39f7d1c6ad5","system_id":"levelo_inurba_marseille","lat":43.30304,"lon":5.368987,"is_reserved":false,"is_disabled":false,"rental_uris":{"android":"levelo://app?vid=82ee987f-ee8f-4a2b-8643-a39f7d1c6ad5","ios":"levelo://app?vid=82ee987f-ee8f-4a2b-8643-a39f7d1c6ad5"},"vehicle_type_id":"4","last_reported":1683407154,"current_range_meters":26400,"station_id":"ce4bgqh2rcd13ifvqc5g","pricing_plan_id":"free"},{"bike_id":"f9d4a628-88ac-453e-9d35-8dc6d0abd2ee","system_id":"levelo_inurba_marseille","lat":43.308012,"lon":5.381511,"is_reserved":false,"is_disabled":false,"rental_uris":{"android":"levelo://app?vid=f9d4a628-88ac-453e-9d35-8dc6d0abd2ee","ios":"levelo://app?vid=f9d4a628-88ac-453e-9d35-8dc6d0abd2ee"},"vehicle_type_id":"4","last_reported":1683407154,"current_range_meters":6000,"station_id":"ce4bgt12rcd13ifvqce0","pricing_plan_id":"free"},{"bike_id":"12d101a6-7079-47e4-96eb-31df13af5ab6","system_id":"levelo_inurba_marseille","lat":43.308012,"lon":5.381511,"is_reserved":false,"is_disabled":false,"rental_uris":{"android":"levelo://app?vid=12d101a6-7079-47e4-96eb-31df13af5ab6","ios":"levelo://app?vid=12d101a6-7079-47e4-96eb-31df13af5ab6"},"vehicle_type_id":"4","last_reported":1683407154,"current_range_meters":18400,"station_id":"ce4bgt12rcd13ifvqce0","pricing_plan_id":"free"},{"bike_id":"f6351fa2-f816-47b1-975d-aea90323641b","system_id":"levelo_inurba_marseille","lat":43.308012,"lon":5.381511,"is_reserved":false,"is_disabled":false,"rental_uris":{"android":"levelo://app?vid=f6351fa2-f816-47b1-975d-aea90323641b","ios":"levelo://app?vid=f6351fa2-f816-47b1-975d-aea90323641b"},"vehicle_type_id":"4","last_reported":1683407154,"current_range_meters":3600,"station_id":"ce4bgt12rcd13ifvqce0","pricing_plan_id":"free"},{"bike_id":"f25f4f1b-94b8-4324-9385-61d5ed784b3b","system_id":"levelo_inurba_marseille","lat":43.308012,"lon":5.381511,"is_reserved":false,"is_disabled":false,"rental_uris":{"android":"levelo://app?vid=f25f4f1b-94b8-4324-9385-61d5ed784b3b","ios":"levelo://app?vid=f25f4f1b-94b8-4324-9385-61d5ed784b3b"},"vehicle_type_id":"4","last_reported":1683407154,"current_range_meters":7600,"station_id":"ce4bgt12rcd13ifvqce0","pricing_plan_id":"free"},{"bike_id":"5d515ba4-c936-4bd9-a073-e90179fd330e","system_id":"levelo_inurba_marseille","lat":43.308012,"lon":5.381511,"is_reserved":false,"is_disabled":false,"rental_uris":{"android":"levelo://app?vid=5d515ba4-c936-4bd9-a073-e90179fd330e","ios":"levelo://app?vid=5d515ba4-c936-4bd9-a073-e90179fd330e"},"vehicle_type_id":"4","last_reported":1683407154,"current_range_meters":1200,"station_id":"ce4bgt12rcd13ifvqce0","pricing_plan_id":"free"},{"bike_id":"0aec4e78-2eb0-4bea-aab4-8db4348e56ec","system_id":"levelo_inurba_marseille","lat":43.308012,"lon":5.381511,"is_reserved":false,"is_disabled":false,"rental_uris":{"android":"levelo://app?vid=0aec4e78-2eb0-4bea-aab4-8db4348e56ec","ios":"levelo://app?vid=0aec4e78-2eb0-4bea-aab4-8db4348e56ec"},"vehicle_type_id":"4","last_reported":1683407154,"current_range_meters":0,"station_id":"ce4bgt12rcd13ifvqce0","pricing_plan_id":"free"},{"bike_id":"8e3f732b-5705-4716-a365-ce5bb393840b","system_id":"levelo_inurba_marseille","lat":43.308012,"lon":5.381511,"is_reserved":false,"is_disabled":false,"rental_uris":{"android":"levelo://app?vid=8e3f732b-5705-4716-a365-ce5bb393840b","ios":"levelo://app?vid=8e3f732b-5705-4716-a365-ce5bb393840b"},"vehicle_type_id":"4","last_reported":1683407154,"current_range_meters":0,"station_id":"ce4bgt12rcd13ifvqce0","pricing_plan_id":"free"},{"bike_id":"9a2e0022-e20f-4176-bc17-8d58d96b900b","system_id":"levelo_inurba_marseille","lat":43.304606,"lon":5.379026,"is_reserved":false,"is_disabled":false,"rental_uris":{"android":"levelo://app?vid=9a2e0022-e20f-4176-bc17-8d58d96b900b","ios":"levelo://app?vid=9a2e0022-e20f-4176-bc17-8d58d96b900b"},"vehicle_type_id":"4","last_reported":1683407154,"current_range_meters":21200,"station_id":"ce4bgup2rcd13ifvqcn0","pricing_plan_id":"free"},{"bike_id":"92193100-4b86-450e-8cbb-1acf69bb142c","system_id":"levelo_inurba_marseille","lat":43.304606,"lon":5.379026,"is_reserved":false,"is_disabled":false,"rental_uris":{"android":"levelo://app?vid=92193100-4b86-450e-8cbb-1acf69bb142c","ios":"levelo://app?vid=92193100-4b86-450e-8cbb-1acf69bb142c"},"vehicle_type_id":"4","last_reported":1683407154,"current_range_meters":12000,"station_id":"ce4bgup2rcd13ifvqcn0","pricing_plan_id":"free"},{"bike_id":"476b1627-7024-4b65-94ca-36b76dd5ff04","system_id":"levelo_inurba_marseille","lat":43.304606,"lon":5.379026,"is_reserved":false,"is_disabled":false,"rental_uris":{"android":"levelo://app?vid=476b1627-7024-4b65-94ca-36b76dd5ff04","ios":"levelo://app?vid=476b1627-7024-4b65-94ca-36b76dd5ff04"},"vehicle_type_id":"4","last_reported":1683407154,"current_range_meters":0,"station_id":"ce4bgup2rcd13ifvqcn0","pricing_plan_id":"free"},{"bike_id":"15ffeffc-7251-4bef-a4ed-5b3acf1ada50","system_id":"levelo_inurba_marseille","lat":43.30456,"lon":5.37915,"is_reserved":false,"is_disabled":false,"rental_uris":{"android":"levelo://app?vid=15ffeffc-7251-4bef-a4ed-5b3acf1ada50","ios":"levelo://app?vid=15ffeffc-7251-4bef-a4ed-5b3acf1ada50"},"vehicle_type_id":"4","last_reported":1683407154,"current_range_meters":12000,"station_id":"ce4bgup2rcd13ifvqcn0","pricing_plan_id":"free"},{"bike_id":"40a832cc-933a-4756-b7b1-f457678978be","system_id":"levelo_inurba_marseille","lat":43.30143,"lon":5.37413,"is_reserved":false,"is_disabled":false,"rental_uris":{"android":"levelo://app?vid=40a832cc-933a-4756-b7b1-f457678978be","ios":"levelo://app?vid=40a832cc-933a-4756-b7b1-f457678978be"},"vehicle_type_id":"4","last_reported":1683407154,"current_range_meters":25200,"station_id":"ce4bgs92rcd13ifvqcc0","pricing_plan_id":"free"},{"bike_id":"5c43bce0-6d01-4163-8744-60931087421e","system_id":"levelo_inurba_marseille","lat":43.30143,"lon":5.37413,"is_reserved":false,"is_disabled":false,"rental_uris":{"android":"levelo://app?vid=5c43bce0-6d01-4163-8744-60931087421e","ios":"levelo://app?vid=5c43bce0-6d01-4163-8744-60931087421e"},"vehicle_type_id":"4","last_reported":1683407154,"current_range_meters":2000,"station_id":"ce4bgs92rcd13ifvqcc0","pricing_plan_id":"free"},{"bike_id":"288109fe-ed3a-4d3d-bf48-cbcad35de74f","system_id":"levelo_inurba_marseille","lat":43.313571,"lon":5.384829,"is_reserved":false,"is_disabled":false,"rental_uris":{"android":"levelo://app?vid=288109fe-ed3a-4d3d-bf48-cbcad35de74f","ios":"levelo://app?vid=288109fe-ed3a-4d3d-bf48-cbcad35de74f"},"vehicle_type_id":"4","last_reported":1683407154,"current_range_meters":21200,"station_id":"ce4bgt92rcd13ifvqcf0","pricing_plan_id":"free"},{"bike_id":"16b378fc-a64b-4339-ae98-9e0df643b7d3","system_id":"levelo_inurba_marseille","lat":43.313571,"lon":5.384829,"is_reserved":false,"is_disabled":false,"rental_uris":{"android":"levelo://app?vid=16b378fc-a64b-4339-ae98-9e0df643b7d3","ios":"levelo://app?vid=16b378fc-a64b-4339-ae98-9e0df643b7d3"},"vehicle_type_id":"4","last_reported":1683407154,"current_range_meters":6400,"station_id":"ce4bgt92rcd13ifvqcf0","pricing_plan_id":"free"},{"bike_id":"a85b848b-1c4d-47ba-aa76-c27d1762a076","system_id":"levelo_inurba_marseille","lat":43.313571,"lon":5.384829,"is_reserved":false,"is_disabled":false,"rental_uris":{"android":"levelo://app?vid=a85b848b-1c4d-47ba-aa76-c27d1762a076","ios":"levelo://app?vid=a85b848b-1c4d-47ba-aa76-c27d1762a076"},"vehicle_type_id":"4","last_reported":1683407154,"current_range_meters":400,"station_id":"ce4bgt92rcd13ifvqcf0","pricing_plan_id":"free"},{"bike_id":"35095b63-4149-4d9d-ac8e-37914b09e565","system_id":"levelo_inurba_marseille","lat":43.313571,"lon":5.384829,"is_reserved":false,"is_disabled":false,"rental_uris":{"android":"levelo://app?vid=35095b63-4149-4d9d-ac8e-37914b09e565","ios":"levelo://app?vid=35095b63-4149-4d9d-ac8e-37914b09e565"},"vehicle_type_id":"4","last_reported":1683407154,"current_range_meters":11200,"station_id":"ce4bgt92rcd13ifvqcf0","pricing_plan_id":"free"},{"bike_id":"be1c07f8-2b7d-4865-9513-5d6169ea5218","system_id":"levelo_inurba_marseille","lat":43.305364,"lon":5.384119,"is_reserved":false,"is_disabled":false,"rental_uris":{"android":"levelo://app?vid=be1c07f8-2b7d-4865-9513-5d6169ea5218","ios":"levelo://app?vid=be1c07f8-2b7d-4865-9513-5d6169ea5218"},"vehicle_type_id":"4","last_reported":1683407154,"current_range_meters":12800,"station_id":"ce4bgg92rcd13ifvqb30","pricing_plan_id":"free"},{"bike_id":"8b8d7a31-f70d-4725-8d34-b3d6ea93892e","system_id":"levelo_inurba_marseille","lat":43.305364,"lon":5.384119,"is_reserved":false,"is_disabled":false,"rental_uris":{"android":"levelo://app?vid=8b8d7a31-f70d-4725-8d34-b3d6ea93892e","ios":"levelo://app?vid=8b8d7a31-f70d-4725-8d34-b3d6ea93892e"},"vehicle_type_id":"4","last_reported":1683407154,"current_range_meters":2800,"station_id":"ce4bgg92rcd13ifvqb30","pricing_plan_id":"free"},{"bike_id":"6e1ccea3-5afd-4d28-94d3-6330f3b29cb7","system_id":"levelo_inurba_marseille","lat":43.305364,"lon":5.384119,"is_reserved":false,"is_disabled":false,"rental_uris":{"android":"levelo://app?vid=6e1ccea3-5afd-4d28-94d3-6330f3b29cb7","ios":"levelo://app?vid=6e1ccea3-5afd-4d28-94d3-6330f3b29cb7"},"vehicle_type_id":"4","last_reported":1683407154,"current_range_meters":12800,"station_id":"ce4bgg92rcd13ifvqb30","pricing_plan_id":"free"},{"bike_id":"aba50e0b-5c25-48f4-bd6d-440f8726f1f3","system_id":"levelo_inurba_marseille","lat":43.3029,"lon":5.38183,"is_reserved":false,"is_disabled":false,"rental_uris":{"android":"levelo://app?vid=aba50e0b-5c25-48f4-bd6d-440f8726f1f3","ios":"levelo://app?vid=aba50e0b-5c25-48f4-bd6d-440f8726f1f3"},"vehicle_type_id":"4","last_reported":1683407154,"current_range_meters":6400,"station_id":"","pricing_plan_id":"free"},{"bike_id":"96d9aabd-99af-46f8-9f9b-19c1e52c32aa","system_id":"levelo_inurba_marseille","lat":43.299243,"lon":5.374807,"is_reserved":false,"is_disabled":false,"rental_uris":{"android":"levelo://app?vid=96d9aabd-99af-46f8-9f9b-19c1e52c32aa","ios":"levelo://app?vid=96d9aabd-99af-46f8-9f9b-19c1e52c32aa"},"vehicle_type_id":"4","last_reported":1683407154,"current_range_meters":3200,"station_id":"ce4bgjh2rcd13ifvqbg0","pricing_plan_id":"free"},{"bike_id":"d21402a4-85ab-4251-bf3b-84ff0f4cee9d","system_id":"levelo_inurba_marseille","lat":43.299243,"lon":5.37481,"is_reserved":false,"is_disabled":false,"rental_uris":{"android":"levelo://app?vid=d21402a4-85ab-4251-bf3b-84ff0f4cee9d","ios":"levelo://app?vid=d21402a4-85ab-4251-bf3b-84ff0f4cee9d"},"vehicle_type_id":"4","last_reported":1683407154,"current_range_meters":20400,"station_id":"ce4bgjh2rcd13ifvqbg0","pricing_plan_id":"free"},{"bike_id":"fde2d51b-bca9-4bd9-888c-f5478e778443","system_id":"levelo_inurba_marseille","lat":43.311722,"lon":5.387247,"is_reserved":false,"is_disabled":false,"rental_uris":{"android":"levelo://app?vid=fde2d51b-bca9-4bd9-888c-f5478e778443","ios":"levelo://app?vid=fde2d51b-bca9-4bd9-888c-f5478e778443"},"vehicle_type_id":"4","last_reported":1683407154,"current_range_meters":31200,"station_id":"ce4bgv12rcd13ifvqcp0","pricing_plan_id":"free"},{"bike_id":"09905636-2fde-43db-a48a-c876f232e946","system_id":"levelo_inurba_marseille","lat":43.311722,"lon":5.387247,"is_reserved":false,"is_disabled":false,"rental_uris":{"android":"levelo://app?vid=09905636-2fde-43db-a48a-c876f232e946","ios":"levelo://app?vid=09905636-2fde-43db-a48a-c876f232e946"},"vehicle_type_id":"4","last_reported":1683407154,"current_range_meters":24800,"station_id":"ce4bgv12rcd13ifvqcp0","pricing_plan_id":"free"},{"bike_id":"0a3e5018-42cc-4b44-9ea5-5b1a1f4c2e73","system_id":"levelo_inurba_marseille","lat":43.311722,"lon":5.387247,"is_reserved":false,"is_disabled":false,"rental_uris":{"android":"levelo://app?vid=0a3e5018-42cc-4b44-9ea5-5b1a1f4c2e73","ios":"levelo://app?vid=0a3e5018-42cc-4b44-9ea5-5b1a1f4c2e73"},"vehicle_type_id":"4","last_reported":1683407154,"current_range_meters":31600,"station_id":"ce4bgv12rcd13ifvqcp0","pricing_plan_id":"free"},{"bike_id":"ee23a5e6-55ec-4d77-a76c-70f812e09101","system_id":"levelo_inurba_marseille","lat":43.30014,"lon":5.37745,"is_reserved":false,"is_disabled":false,"rental_uris":{"android":"levelo://app?vid=ee23a5e6-55ec-4d77-a76c-70f812e09101","ios":"levelo://app?vid=ee23a5e6-55ec-4d77-a76c-70f812e09101"},"vehicle_type_id":"4","last_reported":1683407154,"current_range_meters":18800,"station_id":"","pricing_plan_id":"free"},{"bike_id":"8c068111-e8b2-43d6-a16b-3a2446497765","system_id":"levelo_inurba_marseille","lat":43.311722,"lon":5.387247,"is_reserved":false,"is_disabled":false,"rental_uris":{"android":"levelo://app?vid=8c068111-e8b2-43d6-a16b-3a2446497765","ios":"levelo://app?vid=8c068111-e8b2-43d6-a16b-3a2446497765"},"vehicle_type_id":"4","last_reported":1683407154,"current_range_meters":14800,"station_id":"ce4bgv12rcd13ifvqcp0","pricing_plan_id":"free"},{"bike_id":"3b90d079-5e9b-4e96-959c-50f4a067e20c","system_id":"levelo_inurba_marseille","lat":43.311722,"lon":5.387247,"is_reserved":false,"is_disabled":false,"rental_uris":{"android":"levelo://app?vid=3b90d079-5e9b-4e96-959c-50f4a067e20c","ios":"levelo://app?vid=3b90d079-5e9b-4e96-959c-50f4a067e20c"},"vehicle_type_id":"4","last_reported":1683407154,"current_range_meters":11200,"station_id":"ce4bgv12rcd13ifvqcp0","pricing_plan_id":"free"},{"bike_id":"55413a9d-70fd-4ed3-a836-14ec7f2a0b70","system_id":"levelo_inurba_marseille","lat":43.311722,"lon":5.387247,"is_reserved":false,"is_disabled":false,"rental_uris":{"android":"levelo://app?vid=55413a9d-70fd-4ed3-a836-14ec7f2a0b70","ios":"levelo://app?vid=55413a9d-70fd-4ed3-a836-14ec7f2a0b70"},"vehicle_type_id":"4","last_reported":1683407154,"current_range_meters":29200,"station_id":"ce4bgv12rcd13ifvqcp0","pricing_plan_id":"free"},{"bike_id":"ebba5a22-7d26-47e7-9981-d6d3a5800b44","system_id":"levelo_inurba_marseille","lat":43.32826,"lon":5.36683,"is_reserved":false,"is_disabled":false,"rental_uris":{"android":"levelo://app?vid=ebba5a22-7d26-47e7-9981-d6d3a5800b44","ios":"levelo://app?vid=ebba5a22-7d26-47e7-9981-d6d3a5800b44"},"vehicle_type_id":"4","last_reported":1683407154,"current_range_meters":800,"station_id":"ce4bhs92rcd13ifvqi0g","pricing_plan_id":"free"},{"bike_id":"30587bba-0482-49c5-ac3a-0b1318e8d80c","system_id":"levelo_inurba_marseille","lat":43.32827,"lon":5.36686,"is_reserved":false,"is_disabled":false,"rental_uris":{"android":"levelo://app?vid=30587bba-0482-49c5-ac3a-0b1318e8d80c","ios":"levelo://app?vid=30587bba-0482-49c5-ac3a-0b1318e8d80c"},"vehicle_type_id":"4","last_reported":1683407154,"current_range_meters":14000,"station_id":"ce4bhs92rcd13ifvqi0g","pricing_plan_id":"free"},{"bike_id":"fa495c37-f7d4-465f-a146-0169143d7693","system_id":"levelo_inurba_marseille","lat":43.328371,"lon":5.366912,"is_reserved":false,"is_disabled":false,"rental_uris":{"android":"levelo://app?vid=fa495c37-f7d4-465f-a146-0169143d7693","ios":"levelo://app?vid=fa495c37-f7d4-465f-a146-0169143d7693"},"vehicle_type_id":"4","last_reported":1683407154,"current_range_meters":13200,"station_id":"ce4bhs92rcd13ifvqi0g","pricing_plan_id":"free"},{"bike_id":"cb03d0a7-8198-46ba-b8e4-07d3539f0078","system_id":"levelo_inurba_marseille","lat":43.328371,"lon":5.366912,"is_reserved":false,"is_disabled":false,"rental_uris":{"android":"levelo://app?vid=cb03d0a7-8198-46ba-b8e4-07d3539f0078","ios":"levelo://app?vid=cb03d0a7-8198-46ba-b8e4-07d3539f0078"},"vehicle_type_id":"4","last_reported":1683407154,"current_range_meters":17600,"station_id":"ce4bhs92rcd13ifvqi0g","pricing_plan_id":"free"},{"bike_id":"cff82d6c-03ea-46ab-aec0-c0f27b3c6af6","system_id":"levelo_inurba_marseille","lat":43.32833,"lon":5.36692,"is_reserved":false,"is_disabled":false,"rental_uris":{"android":"levelo://app?vid=cff82d6c-03ea-46ab-aec0-c0f27b3c6af6","ios":"levelo://app?vid=cff82d6c-03ea-46ab-aec0-c0f27b3c6af6"},"vehicle_type_id":"4","last_reported":1683407154,"current_range_meters":3200,"station_id":"ce4bhs92rcd13ifvqi0g","pricing_plan_id":"free"},{"bike_id":"05c44ec8-9bf2-419a-aafa-32210ead3afe","system_id":"levelo_inurba_marseille","lat":43.32833,"lon":5.36684,"is_reserved":false,"is_disabled":false,"rental_uris":{"android":"levelo://app?vid=05c44ec8-9bf2-419a-aafa-32210ead3afe","ios":"levelo://app?vid=05c44ec8-9bf2-419a-aafa-32210ead3afe"},"vehicle_type_id":"4","last_reported":1683407154,"current_range_meters":29200,"station_id":"ce4bhs92rcd13ifvqi0g","pricing_plan_id":"free"},{"bike_id":"f7058cbd-13d6-4363-8a29-3f09f8ac5d4d","system_id":"levelo_inurba_marseille","lat":43.32833,"lon":5.3668,"is_reserved":false,"is_disabled":false,"rental_uris":{"android":"levelo://app?vid=f7058cbd-13d6-4363-8a29-3f09f8ac5d4d","ios":"levelo://app?vid=f7058cbd-13d6-4363-8a29-3f09f8ac5d4d"},"vehicle_type_id":"4","last_reported":1683407154,"current_range_meters":2000,"station_id":"ce4bhs92rcd13ifvqi0g","pricing_plan_id":"free"},{"bike_id":"58a4b5a9-3b99-4d17-87b0-5d38697b3565","system_id":"levelo_inurba_marseille","lat":43.32833,"lon":5.36677,"is_reserved":false,"is_disabled":false,"rental_uris":{"android":"levelo://app?vid=58a4b5a9-3b99-4d17-87b0-5d38697b3565","ios":"levelo://app?vid=58a4b5a9-3b99-4d17-87b0-5d38697b3565"},"vehicle_type_id":"4","last_reported":1683407154,"current_range_meters":13600,"station_id":"ce4bhs92rcd13ifvqi0g","pricing_plan_id":"free"},{"bike_id":"a530905d-c529-4875-b459-f28e3a7844a4","system_id":"levelo_inurba_marseille","lat":43.32834,"lon":5.36681,"is_reserved":false,"is_disabled":false,"rental_uris":{"android":"levelo://app?vid=a530905d-c529-4875-b459-f28e3a7844a4","ios":"levelo://app?vid=a530905d-c529-4875-b459-f28e3a7844a4"},"vehicle_type_id":"4","last_reported":1683407154,"current_range_meters":18400,"station_id":"ce4bhs92rcd13ifvqi0g","pricing_plan_id":"free"},{"bike_id":"73868a82-6310-47a2-b64f-e84244206b53","system_id":"levelo_inurba_marseille","lat":43.32834,"lon":5.36681,"is_reserved":false,"is_disabled":false,"rental_uris":{"android":"levelo://app?vid=73868a82-6310-47a2-b64f-e84244206b53","ios":"levelo://app?vid=73868a82-6310-47a2-b64f-e84244206b53"},"vehicle_type_id":"4","last_reported":1683407154,"current_range_meters":6800,"station_id":"ce4bhs92rcd13ifvqi0g","pricing_plan_id":"free"},{"bike_id":"aafcc005-5e38-4c52-a10d-6d0f89f0012b","system_id":"levelo_inurba_marseille","lat":43.302008,"lon":5.394694,"is_reserved":false,"is_disabled":false,"rental_uris":{"android":"levelo://app?vid=aafcc005-5e38-4c52-a10d-6d0f89f0012b","ios":"levelo://app?vid=aafcc005-5e38-4c52-a10d-6d0f89f0012b"},"vehicle_type_id":"4","last_reported":1683407154,"current_range_meters":3200,"station_id":"ce4bh0p2rcd13ifvqd70","pricing_plan_id":"free"},{"bike_id":"d5e71ddf-05d1-49c4-9961-706a323add67","system_id":"levelo_inurba_marseille","lat":43.309589,"lon":5.390258,"is_reserved":false,"is_disabled":false,"rental_uris":{"android":"levelo://app?vid=d5e71ddf-05d1-49c4-9961-706a323add67","ios":"levelo://app?vid=d5e71ddf-05d1-49c4-9961-706a323add67"},"vehicle_type_id":"4","last_reported":1683407154,"current_range_meters":5200,"station_id":"ce4bgup2rcd13ifvqco0","pricing_plan_id":"free"},{"bike_id":"e2fc5a62-0634-4cb5-889e-1520208a3300","system_id":"levelo_inurba_marseille","lat":43.30942,"lon":5.39031,"is_reserved":false,"is_disabled":false,"rental_uris":{"android":"levelo://app?vid=e2fc5a62-0634-4cb5-889e-1520208a3300","ios":"levelo://app?vid=e2fc5a62-0634-4cb5-889e-1520208a3300"},"vehicle_type_id":"4","last_reported":1683407154,"current_range_meters":1200,"station_id":"ce4bgup2rcd13ifvqco0","pricing_plan_id":"free"},{"bike_id":"bac21cc3-5eb1-4b10-ac25-2cffe6a18048","system_id":"levelo_inurba_marseille","lat":43.309589,"lon":5.390258,"is_reserved":false,"is_disabled":false,"rental_uris":{"android":"levelo://app?vid=bac21cc3-5eb1-4b10-ac25-2cffe6a18048","ios":"levelo://app?vid=bac21cc3-5eb1-4b10-ac25-2cffe6a18048"},"vehicle_type_id":"4","last_reported":1683407154,"current_range_meters":9600,"station_id":"ce4bgup2rcd13ifvqco0","pricing_plan_id":"free"},{"bike_id":"23538473-e0f7-416e-82b6-b297ee973637","system_id":"levelo_inurba_marseille","lat":43.309589,"lon":5.390258,"is_reserved":false,"is_disabled":false,"rental_uris":{"android":"levelo://app?vid=23538473-e0f7-416e-82b6-b297ee973637","ios":"levelo://app?vid=23538473-e0f7-416e-82b6-b297ee973637"},"vehicle_type_id":"4","last_reported":1683407154,"current_range_meters":14400,"station_id":"ce4bgup2rcd13ifvqco0","pricing_plan_id":"free"},{"bike_id":"5f556b7c-b9bb-4db8-a158-1ced3c1ea202","system_id":"levelo_inurba_marseille","lat":43.309589,"lon":5.390258,"is_reserved":false,"is_disabled":false,"rental_uris":{"android":"levelo://app?vid=5f556b7c-b9bb-4db8-a158-1ced3c1ea202","ios":"levelo://app?vid=5f556b7c-b9bb-4db8-a158-1ced3c1ea202"},"vehicle_type_id":"4","last_reported":1683407154,"current_range_meters":13600,"station_id":"ce4bgup2rcd13ifvqco0","pricing_plan_id":"free"},{"bike_id":"3cc3142b-80b4-4cf1-9880-2f35cd7c2654","system_id":"levelo_inurba_marseille","lat":43.309589,"lon":5.390258,"is_reserved":false,"is_disabled":false,"rental_uris":{"android":"levelo://app?vid=3cc3142b-80b4-4cf1-9880-2f35cd7c2654","ios":"levelo://app?vid=3cc3142b-80b4-4cf1-9880-2f35cd7c2654"},"vehicle_type_id":"4","last_reported":1683407154,"current_range_meters":25200,"station_id":"ce4bgup2rcd13ifvqco0","pricing_plan_id":"free"},{"bike_id":"99ed435c-123d-4992-bbab-0bc3516e7417","system_id":"levelo_inurba_marseille","lat":43.309589,"lon":5.390258,"is_reserved":false,"is_disabled":false,"rental_uris":{"android":"levelo://app?vid=99ed435c-123d-4992-bbab-0bc3516e7417","ios":"levelo://app?vid=99ed435c-123d-4992-bbab-0bc3516e7417"},"vehicle_type_id":"4","last_reported":1683407154,"current_range_meters":25600,"station_id":"ce4bgup2rcd13ifvqco0","pricing_plan_id":"free"},{"bike_id":"6ee78b2e-ceae-4d6d-9854-179328b36d1b","system_id":"levelo_inurba_marseille","lat":43.309589,"lon":5.390258,"is_reserved":false,"is_disabled":false,"rental_uris":{"android":"levelo://app?vid=6ee78b2e-ceae-4d6d-9854-179328b36d1b","ios":"levelo://app?vid=6ee78b2e-ceae-4d6d-9854-179328b36d1b"},"vehicle_type_id":"4","last_reported":1683407154,"current_range_meters":6800,"station_id":"ce4bgup2rcd13ifvqco0","pricing_plan_id":"free"},{"bike_id":"2e6f7f5a-1b2c-43dd-bb35-a59336b7d4bc","system_id":"levelo_inurba_marseille","lat":43.309589,"lon":5.390258,"is_reserved":false,"is_disabled":false,"rental_uris":{"android":"levelo://app?vid=2e6f7f5a-1b2c-43dd-bb35-a59336b7d4bc","ios":"levelo://app?vid=2e6f7f5a-1b2c-43dd-bb35-a59336b7d4bc"},"vehicle_type_id":"4","last_reported":1683407154,"current_range_meters":2800,"station_id":"ce4bgup2rcd13ifvqco0","pricing_plan_id":"free"},{"bike_id":"ac599044-4e20-4727-98e0-505c77ca91e0","system_id":"levelo_inurba_marseille","lat":43.317557,"lon":5.390173,"is_reserved":false,"is_disabled":false,"rental_uris":{"android":"levelo://app?vid=ac599044-4e20-4727-98e0-505c77ca91e0","ios":"levelo://app?vid=ac599044-4e20-4727-98e0-505c77ca91e0"},"vehicle_type_id":"4","last_reported":1683407154,"current_range_meters":7600,"station_id":"ce4bhqp2rcd13ifvqhng","pricing_plan_id":"free"},{"bike_id":"e07bf578-a7b1-4fdf-b6ca-2df5788b2781","system_id":"levelo_inurba_marseille","lat":43.317557,"lon":5.390173,"is_reserved":false,"is_disabled":false,"rental_uris":{"android":"levelo://app?vid=e07bf578-a7b1-4fdf-b6ca-2df5788b2781","ios":"levelo://app?vid=e07bf578-a7b1-4fdf-b6ca-2df5788b2781"},"vehicle_type_id":"4","last_reported":1683407154,"current_range_meters":15600,"station_id":"ce4bhqp2rcd13ifvqhng","pricing_plan_id":"free"},{"bike_id":"68fdfdcc-f9c5-4ca1-895f-541fa1837e92","system_id":"levelo_inurba_marseille","lat":43.317557,"lon":5.390173,"is_reserved":false,"is_disabled":false,"rental_uris":{"android":"levelo://app?vid=68fdfdcc-f9c5-4ca1-895f-541fa1837e92","ios":"levelo://app?vid=68fdfdcc-f9c5-4ca1-895f-541fa1837e92"},"vehicle_type_id":"4","last_reported":1683407154,"current_range_meters":3600,"station_id":"ce4bhqp2rcd13ifvqhng","pricing_plan_id":"free"},{"bike_id":"165cf4ec-ee3c-4a5c-929b-636fc1f79c2d","system_id":"levelo_inurba_marseille","lat":43.3176,"lon":5.39018,"is_reserved":false,"is_disabled":false,"rental_uris":{"android":"levelo://app?vid=165cf4ec-ee3c-4a5c-929b-636fc1f79c2d","ios":"levelo://app?vid=165cf4ec-ee3c-4a5c-929b-636fc1f79c2d"},"vehicle_type_id":"4","last_reported":1683407154,"current_range_meters":17600,"station_id":"ce4bhqp2rcd13ifvqhng","pricing_plan_id":"free"},{"bike_id":"5e26388f-afcc-4ebc-9b1c-d20adac7f39a","system_id":"levelo_inurba_marseille","lat":43.31762,"lon":5.39019,"is_reserved":false,"is_disabled":false,"rental_uris":{"android":"levelo://app?vid=5e26388f-afcc-4ebc-9b1c-d20adac7f39a","ios":"levelo://app?vid=5e26388f-afcc-4ebc-9b1c-d20adac7f39a"},"vehicle_type_id":"4","last_reported":1683407154,"current_range_meters":19600,"station_id":"ce4bhqp2rcd13ifvqhng","pricing_plan_id":"free"},{"bike_id":"6b53433e-89fc-4138-90d9-87250efd3a68","system_id":"levelo_inurba_marseille","lat":43.29578,"lon":5.37502,"is_reserved":false,"is_disabled":false,"rental_uris":{"android":"levelo://app?vid=6b53433e-89fc-4138-90d9-87250efd3a68","ios":"levelo://app?vid=6b53433e-89fc-4138-90d9-87250efd3a68"},"vehicle_type_id":"4","last_reported":1683407154,"current_range_meters":0,"station_id":"ce4bgh92rcd13ifvqb50","pricing_plan_id":"free"},{"bike_id":"1fe032ed-606f-4130-a015-2f6ea0bc2b17","system_id":"levelo_inurba_marseille","lat":43.295279,"lon":5.375048,"is_reserved":false,"is_disabled":false,"rental_uris":{"android":"levelo://app?vid=1fe032ed-606f-4130-a015-2f6ea0bc2b17","ios":"levelo://app?vid=1fe032ed-606f-4130-a015-2f6ea0bc2b17"},"vehicle_type_id":"4","last_reported":1683407154,"current_range_meters":4400,"station_id":"ce4bgkp2rcd13ifvqbmg","pricing_plan_id":"free"},{"bike_id":"e58b83cd-9f96-47c1-bf20-cd4612e0ec9e","system_id":"levelo_inurba_marseille","lat":43.299707,"lon":5.384859,"is_reserved":false,"is_disabled":false,"rental_uris":{"android":"levelo://app?vid=e58b83cd-9f96-47c1-bf20-cd4612e0ec9e","ios":"levelo://app?vid=e58b83cd-9f96-47c1-bf20-cd4612e0ec9e"},"vehicle_type_id":"4","last_reported":1683407154,"current_range_meters":0,"station_id":"ce4bgj92rcd13ifvqbd0","pricing_plan_id":"free"},{"bike_id":"1e0835c4-11ae-4c8b-9b4c-406615d5cc42","system_id":"levelo_inurba_marseille","lat":43.295279,"lon":5.375048,"is_reserved":false,"is_disabled":false,"rental_uris":{"android":"levelo://app?vid=1e0835c4-11ae-4c8b-9b4c-406615d5cc42","ios":"levelo://app?vid=1e0835c4-11ae-4c8b-9b4c-406615d5cc42"},"vehicle_type_id":"4","last_reported":1683407154,"current_range_meters":17600,"station_id":"ce4bgkp2rcd13ifvqbmg","pricing_plan_id":"free"},{"bike_id":"70acb0df-e526-4875-9a3a-683387d9ec51","system_id":"levelo_inurba_marseille","lat":43.299717,"lon":5.384845,"is_reserved":false,"is_disabled":false,"rental_uris":{"android":"levelo://app?vid=70acb0df-e526-4875-9a3a-683387d9ec51","ios":"levelo://app?vid=70acb0df-e526-4875-9a3a-683387d9ec51"},"vehicle_type_id":"4","last_reported":1683407154,"current_range_meters":3600,"station_id":"ce4bgj92rcd13ifvqbd0","pricing_plan_id":"free"},{"bike_id":"f0dcfd84-4222-444a-b26d-9f99a892695b","system_id":"levelo_inurba_marseille","lat":43.31452,"lon":5.39271,"is_reserved":false,"is_disabled":false,"rental_uris":{"android":"levelo://app?vid=f0dcfd84-4222-444a-b26d-9f99a892695b","ios":"levelo://app?vid=f0dcfd84-4222-444a-b26d-9f99a892695b"},"vehicle_type_id":"4","last_reported":1683407154,"current_range_meters":5600,"station_id":"","pricing_plan_id":"free"},{"bike_id":"8a3efc27-ea30-450b-b89e-054b0116dd94","system_id":"levelo_inurba_marseille","lat":43.29602,"lon":5.381084,"is_reserved":false,"is_disabled":false,"rental_uris":{"android":"levelo://app?vid=8a3efc27-ea30-450b-b89e-054b0116dd94","ios":"levelo://app?vid=8a3efc27-ea30-450b-b89e-054b0116dd94"},"vehicle_type_id":"4","last_reported":1683407154,"current_range_meters":8400,"station_id":"ce4bgl12rcd13ifvqbo0","pricing_plan_id":"free"},{"bike_id":"563904e2-df05-41f6-99a9-df33362bffb5","system_id":"levelo_inurba_marseille","lat":43.293009,"lon":5.374584,"is_reserved":false,"is_disabled":false,"rental_uris":{"android":"levelo://app?vid=563904e2-df05-41f6-99a9-df33362bffb5","ios":"levelo://app?vid=563904e2-df05-41f6-99a9-df33362bffb5"},"vehicle_type_id":"4","last_reported":1683407154,"current_range_meters":16000,"station_id":"ce4bgi12rcd13ifvqb70","pricing_plan_id":"free"},{"bike_id":"d75d2f99-ffdc-457b-9c82-4bc942373534","system_id":"levelo_inurba_marseille","lat":43.305994,"lon":5.393687,"is_reserved":false,"is_disabled":false,"rental_uris":{"android":"levelo://app?vid=d75d2f99-ffdc-457b-9c82-4bc942373534","ios":"levelo://app?vid=d75d2f99-ffdc-457b-9c82-4bc942373534"},"vehicle_type_id":"4","last_reported":1683407154,"current_range_meters":14000,"station_id":"ce4bh0p2rcd13ifvqd80","pricing_plan_id":"free"},{"bike_id":"70138f92-afce-4e26-bc58-7c3287c3d55a","system_id":"levelo_inurba_marseille","lat":43.305994,"lon":5.393687,"is_reserved":false,"is_disabled":false,"rental_uris":{"android":"levelo://app?vid=70138f92-afce-4e26-bc58-7c3287c3d55a","ios":"levelo://app?vid=70138f92-afce-4e26-bc58-7c3287c3d55a"},"vehicle_type_id":"4","last_reported":1683407154,"current_range_meters":8000,"station_id":"ce4bh0p2rcd13ifvqd80","pricing_plan_id":"free"},{"bike_id":"b6387786-8ffa-4ca5-95d5-71a6daefa547","system_id":"levelo_inurba_marseille","lat":43.305994,"lon":5.393687,"is_reserved":false,"is_disabled":false,"rental_uris":{"android":"levelo://app?vid=b6387786-8ffa-4ca5-95d5-71a6daefa547","ios":"levelo://app?vid=b6387786-8ffa-4ca5-95d5-71a6daefa547"},"vehicle_type_id":"4","last_reported":1683407154,"current_range_meters":0,"station_id":"ce4bh0p2rcd13ifvqd80","pricing_plan_id":"free"},{"bike_id":"fc29bb47-7eec-402f-a028-c11edcf38b18","system_id":"levelo_inurba_marseille","lat":43.302992,"lon":5.392136,"is_reserved":false,"is_disabled":false,"rental_uris":{"android":"levelo://app?vid=fc29bb47-7eec-402f-a028-c11edcf38b18","ios":"levelo://app?vid=fc29bb47-7eec-402f-a028-c11edcf38b18"},"vehicle_type_id":"4","last_reported":1683407154,"current_range_meters":9200,"station_id":"ce4bgkh2rcd13ifvqbk0","pricing_plan_id":"free"},{"bike_id":"674b3a9f-82a3-4e3e-8df6-d61f218fad0f","system_id":"levelo_inurba_marseille","lat":43.303002,"lon":5.392142,"is_reserved":false,"is_disabled":false,"rental_uris":{"android":"levelo://app?vid=674b3a9f-82a3-4e3e-8df6-d61f218fad0f","ios":"levelo://app?vid=674b3a9f-82a3-4e3e-8df6-d61f218fad0f"},"vehicle_type_id":"4","last_reported":1683407154,"current_range_meters":15600,"station_id":"ce4bgkh2rcd13ifvqbk0","pricing_plan_id":"free"},{"bike_id":"3e6159a0-8f43-4537-af06-4062d63377e7","system_id":"levelo_inurba_marseille","lat":43.303002,"lon":5.392142,"is_reserved":false,"is_disabled":false,"rental_uris":{"android":"levelo://app?vid=3e6159a0-8f43-4537-af06-4062d63377e7","ios":"levelo://app?vid=3e6159a0-8f43-4537-af06-4062d63377e7"},"vehicle_type_id":"4","last_reported":1683407154,"current_range_meters":0,"station_id":"ce4bgkh2rcd13ifvqbk0","pricing_plan_id":"free"},{"bike_id":"8b01377c-d0ae-4894-a869-b005c0605a13","system_id":"levelo_inurba_marseille","lat":43.303002,"lon":5.392142,"is_reserved":false,"is_disabled":false,"rental_uris":{"android":"levelo://app?vid=8b01377c-d0ae-4894-a869-b005c0605a13","ios":"levelo://app?vid=8b01377c-d0ae-4894-a869-b005c0605a13"},"vehicle_type_id":"4","last_reported":1683407154,"current_range_meters":400,"station_id":"ce4bgkh2rcd13ifvqbk0","pricing_plan_id":"free"},{"bike_id":"14da4e21-08ff-46c9-b717-99e629857a52","system_id":"levelo_inurba_marseille","lat":43.298764,"lon":5.388973,"is_reserved":false,"is_disabled":false,"rental_uris":{"android":"levelo://app?vid=14da4e21-08ff-46c9-b717-99e629857a52","ios":"levelo://app?vid=14da4e21-08ff-46c9-b717-99e629857a52"},"vehicle_type_id":"4","last_reported":1683407154,"current_range_meters":0,"station_id":"ce4bh392rcd13ifvqdl0","pricing_plan_id":"free"},{"bike_id":"2ffa5796-5cf7-4d12-aa44-0646be6327a0","system_id":"levelo_inurba_marseille","lat":43.292663,"lon":5.376394,"is_reserved":false,"is_disabled":false,"rental_uris":{"android":"levelo://app?vid=2ffa5796-5cf7-4d12-aa44-0646be6327a0","ios":"levelo://app?vid=2ffa5796-5cf7-4d12-aa44-0646be6327a0"},"vehicle_type_id":"4","last_reported":1683407154,"current_range_meters":30000,"station_id":"ce4bgi12rcd13ifvqb80","pricing_plan_id":"free"},{"bike_id":"134215ce-8001-4c92-bbe6-5e06c0d207ea","system_id":"levelo_inurba_marseille","lat":43.298764,"lon":5.388973,"is_reserved":false,"is_disabled":false,"rental_uris":{"android":"levelo://app?vid=134215ce-8001-4c92-bbe6-5e06c0d207ea","ios":"levelo://app?vid=134215ce-8001-4c92-bbe6-5e06c0d207ea"},"vehicle_type_id":"4","last_reported":1683407154,"current_range_meters":0,"station_id":"ce4bh392rcd13ifvqdl0","pricing_plan_id":"free"},{"bike_id":"cef18ba2-0469-4972-bccb-7df78dfeba14","system_id":"levelo_inurba_marseille","lat":43.313291,"lon":5.396838,"is_reserved":false,"is_disabled":false,"rental_uris":{"android":"levelo://app?vid=cef18ba2-0469-4972-bccb-7df78dfeba14","ios":"levelo://app?vid=cef18ba2-0469-4972-bccb-7df78dfeba14"},"vehicle_type_id":"4","last_reported":1683407154,"current_range_meters":4400,"station_id":"ce4bgvp2rcd13ifvqcu0","pricing_plan_id":"free"},{"bike_id":"26543a27-5e4c-4139-975a-3461b9ec9422","system_id":"levelo_inurba_marseille","lat":43.313291,"lon":5.396838,"is_reserved":false,"is_disabled":false,"rental_uris":{"android":"levelo://app?vid=26543a27-5e4c-4139-975a-3461b9ec9422","ios":"levelo://app?vid=26543a27-5e4c-4139-975a-3461b9ec9422"},"vehicle_type_id":"4","last_reported":1683407154,"current_range_meters":400,"station_id":"ce4bgvp2rcd13ifvqcu0","pricing_plan_id":"free"},{"bike_id":"52702192-13e7-43c8-9548-69f677554ad3","system_id":"levelo_inurba_marseille","lat":43.309038,"lon":5.396546,"is_reserved":false,"is_disabled":false,"rental_uris":{"android":"levelo://app?vid=52702192-13e7-43c8-9548-69f677554ad3","ios":"levelo://app?vid=52702192-13e7-43c8-9548-69f677554ad3"},"vehicle_type_id":"4","last_reported":1683407154,"current_range_meters":13200,"station_id":"ce4bh012rcd13ifvqcv0","pricing_plan_id":"free"},{"bike_id":"463ee983-db2c-4144-a9d9-430106455312","system_id":"levelo_inurba_marseille","lat":43.309038,"lon":5.396546,"is_reserved":false,"is_disabled":false,"rental_uris":{"android":"levelo://app?vid=463ee983-db2c-4144-a9d9-430106455312","ios":"levelo://app?vid=463ee983-db2c-4144-a9d9-430106455312"},"vehicle_type_id":"4","last_reported":1683407154,"current_range_meters":5600,"station_id":"ce4bh012rcd13ifvqcv0","pricing_plan_id":"free"},{"bike_id":"1c05c1dc-bf1e-4c92-95ce-780cd8a65de8","system_id":"levelo_inurba_marseille","lat":43.29529,"lon":5.385581,"is_reserved":false,"is_disabled":false,"rental_uris":{"android":"levelo://app?vid=1c05c1dc-bf1e-4c92-95ce-780cd8a65de8","ios":"levelo://app?vid=1c05c1dc-bf1e-4c92-95ce-780cd8a65de8"},"vehicle_type_id":"4","last_reported":1683407154,"current_range_meters":31200,"station_id":"ce4bgih2rcd13ifvqba0","pricing_plan_id":"free"},{"bike_id":"8dc31efe-ad23-483b-a616-17b68bab7c99","system_id":"levelo_inurba_marseille","lat":43.29529,"lon":5.385581,"is_reserved":false,"is_disabled":false,"rental_uris":{"android":"levelo://app?vid=8dc31efe-ad23-483b-a616-17b68bab7c99","ios":"levelo://app?vid=8dc31efe-ad23-483b-a616-17b68bab7c99"},"vehicle_type_id":"4","last_reported":1683407154,"current_range_meters":5200,"station_id":"ce4bgih2rcd13ifvqba0","pricing_plan_id":"free"},{"bike_id":"5907034e-878f-4406-b9bf-5e3b5ca3cf6c","system_id":"levelo_inurba_marseille","lat":43.29529,"lon":5.385581,"is_reserved":false,"is_disabled":false,"rental_uris":{"android":"levelo://app?vid=5907034e-878f-4406-b9bf-5e3b5ca3cf6c","ios":"levelo://app?vid=5907034e-878f-4406-b9bf-5e3b5ca3cf6c"},"vehicle_type_id":"4","last_reported":1683407154,"current_range_meters":4400,"station_id":"ce4bgih2rcd13ifvqba0","pricing_plan_id":"free"},{"bike_id":"a5b6235d-d56a-46ef-97f5-f3cfe80d4290","system_id":"levelo_inurba_marseille","lat":43.29529,"lon":5.385581,"is_reserved":false,"is_disabled":false,"rental_uris":{"android":"levelo://app?vid=a5b6235d-d56a-46ef-97f5-f3cfe80d4290","ios":"levelo://app?vid=a5b6235d-d56a-46ef-97f5-f3cfe80d4290"},"vehicle_type_id":"4","last_reported":1683407154,"current_range_meters":8000,"station_id":"ce4bgih2rcd13ifvqba0","pricing_plan_id":"free"},{"bike_id":"09e3bf20-d785-427c-bee8-3e0800566ab4","system_id":"levelo_inurba_marseille","lat":43.29534,"lon":5.3854,"is_reserved":false,"is_disabled":false,"rental_uris":{"android":"levelo://app?vid=09e3bf20-d785-427c-bee8-3e0800566ab4","ios":"levelo://app?vid=09e3bf20-d785-427c-bee8-3e0800566ab4"},"vehicle_type_id":"4","last_reported":1683407154,"current_range_meters":0,"station_id":"ce4bgih2rcd13ifvqba0","pricing_plan_id":"free"},{"bike_id":"116977e1-4cc2-464d-bfa7-5567a4713b5e","system_id":"levelo_inurba_marseille","lat":43.29535,"lon":5.38542,"is_reserved":false,"is_disabled":false,"rental_uris":{"android":"levelo://app?vid=116977e1-4cc2-464d-bfa7-5567a4713b5e","ios":"levelo://app?vid=116977e1-4cc2-464d-bfa7-5567a4713b5e"},"vehicle_type_id":"4","last_reported":1683407154,"current_range_meters":8400,"station_id":"ce4bgih2rcd13ifvqba0","pricing_plan_id":"free"},{"bike_id":"008b3725-a728-48ac-9978-f43a114e642c","system_id":"levelo_inurba_marseille","lat":43.29536,"lon":5.38544,"is_reserved":false,"is_disabled":false,"rental_uris":{"android":"levelo://app?vid=008b3725-a728-48ac-9978-f43a114e642c","ios":"levelo://app?vid=008b3725-a728-48ac-9978-f43a114e642c"},"vehicle_type_id":"4","last_reported":1683407154,"current_range_meters":1600,"station_id":"ce4bgih2rcd13ifvqba0","pricing_plan_id":"free"},{"bike_id":"b5d3df38-5c98-4a46-b885-00e7ae18be2c","system_id":"levelo_inurba_marseille","lat":43.29529,"lon":5.385581,"is_reserved":false,"is_disabled":false,"rental_uris":{"android":"levelo://app?vid=b5d3df38-5c98-4a46-b885-00e7ae18be2c","ios":"levelo://app?vid=b5d3df38-5c98-4a46-b885-00e7ae18be2c"},"vehicle_type_id":"4","last_reported":1683407154,"current_range_meters":8800,"station_id":"ce4bgih2rcd13ifvqba0","pricing_plan_id":"free"},{"bike_id":"be30a0a5-fc06-4edc-beee-0fa7f865aa5b","system_id":"levelo_inurba_marseille","lat":43.29529,"lon":5.385581,"is_reserved":false,"is_disabled":false,"rental_uris":{"android":"levelo://app?vid=be30a0a5-fc06-4edc-beee-0fa7f865aa5b","ios":"levelo://app?vid=be30a0a5-fc06-4edc-beee-0fa7f865aa5b"},"vehicle_type_id":"4","last_reported":1683407154,"current_range_meters":20000,"station_id":"ce4bgih2rcd13ifvqba0","pricing_plan_id":"free"},{"bike_id":"78515159-c835-408a-97b8-1f1af80d0159","system_id":"levelo_inurba_marseille","lat":43.29535,"lon":5.38548,"is_reserved":false,"is_disabled":false,"rental_uris":{"android":"levelo://app?vid=78515159-c835-408a-97b8-1f1af80d0159","ios":"levelo://app?vid=78515159-c835-408a-97b8-1f1af80d0159"},"vehicle_type_id":"4","last_reported":1683407154,"current_range_meters":15600,"station_id":"ce4bgih2rcd13ifvqba0","pricing_plan_id":"free"},{"bike_id":"ad79519b-4151-458b-b569-340f59565c36","system_id":"levelo_inurba_marseille","lat":43.29529,"lon":5.385581,"is_reserved":false,"is_disabled":false,"rental_uris":{"android":"levelo://app?vid=ad79519b-4151-458b-b569-340f59565c36","ios":"levelo://app?vid=ad79519b-4151-458b-b569-340f59565c36"},"vehicle_type_id":"4","last_reported":1683407154,"current_range_meters":800,"station_id":"ce4bgih2rcd13ifvqba0","pricing_plan_id":"free"},{"bike_id":"6e765cd5-95f2-49ea-8e6c-a4d92a8736d6","system_id":"levelo_inurba_marseille","lat":43.29532,"lon":5.38545,"is_reserved":false,"is_disabled":false,"rental_uris":{"android":"levelo://app?vid=6e765cd5-95f2-49ea-8e6c-a4d92a8736d6","ios":"levelo://app?vid=6e765cd5-95f2-49ea-8e6c-a4d92a8736d6"},"vehicle_type_id":"4","last_reported":1683407154,"current_range_meters":12800,"station_id":"ce4bgih2rcd13ifvqba0","pricing_plan_id":"free"},{"bike_id":"c0decfa3-02dd-4b96-b5cc-ef40ddc5aca7","system_id":"levelo_inurba_marseille","lat":43.29531,"lon":5.38545,"is_reserved":false,"is_disabled":false,"rental_uris":{"android":"levelo://app?vid=c0decfa3-02dd-4b96-b5cc-ef40ddc5aca7","ios":"levelo://app?vid=c0decfa3-02dd-4b96-b5cc-ef40ddc5aca7"},"vehicle_type_id":"4","last_reported":1683407154,"current_range_meters":2400,"station_id":"ce4bgih2rcd13ifvqba0","pricing_plan_id":"free"},{"bike_id":"cfb6532e-1ace-4e4d-95b3-e3ca0a4217a2","system_id":"levelo_inurba_marseille","lat":43.29529,"lon":5.385581,"is_reserved":false,"is_disabled":false,"rental_uris":{"android":"levelo://app?vid=cfb6532e-1ace-4e4d-95b3-e3ca0a4217a2","ios":"levelo://app?vid=cfb6532e-1ace-4e4d-95b3-e3ca0a4217a2"},"vehicle_type_id":"4","last_reported":1683407154,"current_range_meters":8400,"station_id":"ce4bgih2rcd13ifvqba0","pricing_plan_id":"free"},{"bike_id":"4db37f92-8e1c-4224-b5a5-68059dd8f7e9","system_id":"levelo_inurba_marseille","lat":43.29529,"lon":5.385581,"is_reserved":false,"is_disabled":false,"rental_uris":{"android":"levelo://app?vid=4db37f92-8e1c-4224-b5a5-68059dd8f7e9","ios":"levelo://app?vid=4db37f92-8e1c-4224-b5a5-68059dd8f7e9"},"vehicle_type_id":"4","last_reported":1683407154,"current_range_meters":14400,"station_id":"ce4bgih2rcd13ifvqba0","pricing_plan_id":"free"},{"bike_id":"3459d766-e1a0-4ab7-bd8b-30932e59e622","system_id":"levelo_inurba_marseille","lat":43.29529,"lon":5.385581,"is_reserved":false,"is_disabled":false,"rental_uris":{"android":"levelo://app?vid=3459d766-e1a0-4ab7-bd8b-30932e59e622","ios":"levelo://app?vid=3459d766-e1a0-4ab7-bd8b-30932e59e622"},"vehicle_type_id":"4","last_reported":1683407154,"current_range_meters":800,"station_id":"ce4bgih2rcd13ifvqba0","pricing_plan_id":"free"},{"bike_id":"187e1353-28ac-4030-9fbb-0425d72aade0","system_id":"levelo_inurba_marseille","lat":43.29529,"lon":5.385581,"is_reserved":false,"is_disabled":false,"rental_uris":{"android":"levelo://app?vid=187e1353-28ac-4030-9fbb-0425d72aade0","ios":"levelo://app?vid=187e1353-28ac-4030-9fbb-0425d72aade0"},"vehicle_type_id":"4","last_reported":1683407154,"current_range_meters":22000,"station_id":"ce4bgih2rcd13ifvqba0","pricing_plan_id":"free"},{"bike_id":"dc447836-71e0-4e90-92b7-dd07e60605af","system_id":"levelo_inurba_marseille","lat":43.290779,"lon":5.371482,"is_reserved":false,"is_disabled":false,"rental_uris":{"android":"levelo://app?vid=dc447836-71e0-4e90-92b7-dd07e60605af","ios":"levelo://app?vid=dc447836-71e0-4e90-92b7-dd07e60605af"},"vehicle_type_id":"4","last_reported":1683407154,"current_range_meters":27200,"station_id":"ce4bh5p2rcd13ifvqe4g","pricing_plan_id":"free"},{"bike_id":"e68a30f2-f5c9-4ba2-87e5-a193a16dbb2a","system_id":"levelo_inurba_marseille","lat":43.302008,"lon":5.394694,"is_reserved":false,"is_disabled":false,"rental_uris":{"android":"levelo://app?vid=e68a30f2-f5c9-4ba2-87e5-a193a16dbb2a","ios":"levelo://app?vid=e68a30f2-f5c9-4ba2-87e5-a193a16dbb2a"},"vehicle_type_id":"4","last_reported":1683407154,"current_range_meters":0,"station_id":"ce4bh0p2rcd13ifvqd70","pricing_plan_id":"free"},{"bike_id":"d2eda9c9-2fc1-4f35-ad17-772b934d9692","system_id":"levelo_inurba_marseille","lat":43.29043,"lon":5.35915,"is_reserved":false,"is_disabled":false,"rental_uris":{"android":"levelo://app?vid=d2eda9c9-2fc1-4f35-ad17-772b934d9692","ios":"levelo://app?vid=d2eda9c9-2fc1-4f35-ad17-772b934d9692"},"vehicle_type_id":"4","last_reported":1683407154,"current_range_meters":7200,"station_id":"ce4bha92rcd13ifvqeg0","pricing_plan_id":"free"},{"bike_id":"3ca876ab-5dcd-4a94-8bb5-b4e15854d0cb","system_id":"levelo_inurba_marseille","lat":43.29422,"lon":5.38613,"is_reserved":false,"is_disabled":false,"rental_uris":{"android":"levelo://app?vid=3ca876ab-5dcd-4a94-8bb5-b4e15854d0cb","ios":"levelo://app?vid=3ca876ab-5dcd-4a94-8bb5-b4e15854d0cb"},"vehicle_type_id":"4","last_reported":1683407154,"current_range_meters":0,"station_id":"ce4bh2h2rcd13ifvqdh0","pricing_plan_id":"free"},{"bike_id":"feed5bae-c54c-4855-8dcd-3b0888dfb2a1","system_id":"levelo_inurba_marseille","lat":43.29421,"lon":5.38615,"is_reserved":false,"is_disabled":false,"rental_uris":{"android":"levelo://app?vid=feed5bae-c54c-4855-8dcd-3b0888dfb2a1","ios":"levelo://app?vid=feed5bae-c54c-4855-8dcd-3b0888dfb2a1"},"vehicle_type_id":"4","last_reported":1683407154,"current_range_meters":6400,"station_id":"ce4bh2h2rcd13ifvqdh0","pricing_plan_id":"free"},{"bike_id":"c2425bcf-5d2f-4782-b0a7-83e2ed04e3d5","system_id":"levelo_inurba_marseille","lat":43.294153,"lon":5.386305,"is_reserved":false,"is_disabled":false,"rental_uris":{"android":"levelo://app?vid=c2425bcf-5d2f-4782-b0a7-83e2ed04e3d5","ios":"levelo://app?vid=c2425bcf-5d2f-4782-b0a7-83e2ed04e3d5"},"vehicle_type_id":"4","last_reported":1683407154,"current_range_meters":14800,"station_id":"ce4bh2h2rcd13ifvqdh0","pricing_plan_id":"free"},{"bike_id":"733e54f4-d9d9-4958-8353-905e44748b18","system_id":"levelo_inurba_marseille","lat":43.29422,"lon":5.38628,"is_reserved":false,"is_disabled":false,"rental_uris":{"android":"levelo://app?vid=733e54f4-d9d9-4958-8353-905e44748b18","ios":"levelo://app?vid=733e54f4-d9d9-4958-8353-905e44748b18"},"vehicle_type_id":"4","last_reported":1683407154,"current_range_meters":18800,"station_id":"ce4bh2h2rcd13ifvqdh0","pricing_plan_id":"free"},{"bike_id":"13efc024-0177-49d1-812b-4908185cb61d","system_id":"levelo_inurba_marseille","lat":43.29417,"lon":5.3862,"is_reserved":false,"is_disabled":false,"rental_uris":{"android":"levelo://app?vid=13efc024-0177-49d1-812b-4908185cb61d","ios":"levelo://app?vid=13efc024-0177-49d1-812b-4908185cb61d"},"vehicle_type_id":"4","last_reported":1683407154,"current_range_meters":14400,"station_id":"ce4bh2h2rcd13ifvqdh0","pricing_plan_id":"free"},{"bike_id":"1b77f571-326a-4ac9-9022-57aab9aa1d56","system_id":"levelo_inurba_marseille","lat":43.29419,"lon":5.38624,"is_reserved":false,"is_disabled":false,"rental_uris":{"android":"levelo://app?vid=1b77f571-326a-4ac9-9022-57aab9aa1d56","ios":"levelo://app?vid=1b77f571-326a-4ac9-9022-57aab9aa1d56"},"vehicle_type_id":"4","last_reported":1683407154,"current_range_meters":20400,"station_id":"ce4bh2h2rcd13ifvqdh0","pricing_plan_id":"free"},{"bike_id":"b3270820-1a46-4160-88a7-c8d68c0419cb","system_id":"levelo_inurba_marseille","lat":43.29414,"lon":5.3862,"is_reserved":false,"is_disabled":false,"rental_uris":{"android":"levelo://app?vid=b3270820-1a46-4160-88a7-c8d68c0419cb","ios":"levelo://app?vid=b3270820-1a46-4160-88a7-c8d68c0419cb"},"vehicle_type_id":"4","last_reported":1683407154,"current_range_meters":23600,"station_id":"ce4bh2h2rcd13ifvqdh0","pricing_plan_id":"free"},{"bike_id":"a6e998c0-63f5-4bdb-bdc1-10ade0105695","system_id":"levelo_inurba_marseille","lat":43.29416,"lon":5.38624,"is_reserved":false,"is_disabled":false,"rental_uris":{"android":"levelo://app?vid=a6e998c0-63f5-4bdb-bdc1-10ade0105695","ios":"levelo://app?vid=a6e998c0-63f5-4bdb-bdc1-10ade0105695"},"vehicle_type_id":"4","last_reported":1683407154,"current_range_meters":13200,"station_id":"ce4bh2h2rcd13ifvqdh0","pricing_plan_id":"free"},{"bike_id":"ef44dd42-a578-4ac5-b292-54e8b9a671b4","system_id":"levelo_inurba_marseille","lat":43.294162,"lon":5.386292,"is_reserved":false,"is_disabled":false,"rental_uris":{"android":"levelo://app?vid=ef44dd42-a578-4ac5-b292-54e8b9a671b4","ios":"levelo://app?vid=ef44dd42-a578-4ac5-b292-54e8b9a671b4"},"vehicle_type_id":"4","last_reported":1683407154,"current_range_meters":28000,"station_id":"ce4bh2h2rcd13ifvqdh0","pricing_plan_id":"free"},{"bike_id":"33cd5af3-6ec6-4da9-8b4a-16149a891e67","system_id":"levelo_inurba_marseille","lat":43.29417,"lon":5.38627,"is_reserved":false,"is_disabled":false,"rental_uris":{"android":"levelo://app?vid=33cd5af3-6ec6-4da9-8b4a-16149a891e67","ios":"levelo://app?vid=33cd5af3-6ec6-4da9-8b4a-16149a891e67"},"vehicle_type_id":"4","last_reported":1683407154,"current_range_meters":0,"station_id":"ce4bh2h2rcd13ifvqdh0","pricing_plan_id":"free"},{"bike_id":"68d49cbd-4d26-4782-adcb-d6cfbd2bdc1b","system_id":"levelo_inurba_marseille","lat":43.29417,"lon":5.38631,"is_reserved":false,"is_disabled":false,"rental_uris":{"android":"levelo://app?vid=68d49cbd-4d26-4782-adcb-d6cfbd2bdc1b","ios":"levelo://app?vid=68d49cbd-4d26-4782-adcb-d6cfbd2bdc1b"},"vehicle_type_id":"4","last_reported":1683407154,"current_range_meters":20000,"station_id":"ce4bh2h2rcd13ifvqdh0","pricing_plan_id":"free"},{"bike_id":"57e08f81-3bba-4018-9403-381075282b53","system_id":"levelo_inurba_marseille","lat":43.29415,"lon":5.38629,"is_reserved":false,"is_disabled":false,"rental_uris":{"android":"levelo://app?vid=57e08f81-3bba-4018-9403-381075282b53","ios":"levelo://app?vid=57e08f81-3bba-4018-9403-381075282b53"},"vehicle_type_id":"4","last_reported":1683407154,"current_range_meters":3600,"station_id":"ce4bh2h2rcd13ifvqdh0","pricing_plan_id":"free"},{"bike_id":"82ed0187-f99f-4fc9-9227-0b183e65018a","system_id":"levelo_inurba_marseille","lat":43.290327,"lon":5.375711,"is_reserved":false,"is_disabled":false,"rental_uris":{"android":"levelo://app?vid=82ed0187-f99f-4fc9-9227-0b183e65018a","ios":"levelo://app?vid=82ed0187-f99f-4fc9-9227-0b183e65018a"},"vehicle_type_id":"4","last_reported":1683407154,"current_range_meters":5200,"station_id":"ce4bh692rcd13ifvqe90","pricing_plan_id":"free"},{"bike_id":"8817ceb1-758f-4f45-be3d-c46b2ec717ad","system_id":"levelo_inurba_marseille","lat":43.29407,"lon":5.38628,"is_reserved":false,"is_disabled":false,"rental_uris":{"android":"levelo://app?vid=8817ceb1-758f-4f45-be3d-c46b2ec717ad","ios":"levelo://app?vid=8817ceb1-758f-4f45-be3d-c46b2ec717ad"},"vehicle_type_id":"4","last_reported":1683407154,"current_range_meters":800,"station_id":"ce4bh2h2rcd13ifvqdh0","pricing_plan_id":"free"},{"bike_id":"90cc782d-be20-41fa-9baa-2dfb851cd186","system_id":"levelo_inurba_marseille","lat":43.304274,"lon":5.397513,"is_reserved":false,"is_disabled":false,"rental_uris":{"android":"levelo://app?vid=90cc782d-be20-41fa-9baa-2dfb851cd186","ios":"levelo://app?vid=90cc782d-be20-41fa-9baa-2dfb851cd186"},"vehicle_type_id":"4","last_reported":1683407154,"current_range_meters":8400,"station_id":"ce4bh092rcd13ifvqd20","pricing_plan_id":"free"},{"bike_id":"01a398aa-0346-4b29-941a-1d956e8bae52","system_id":"levelo_inurba_marseille","lat":43.292636,"lon":5.384312,"is_reserved":false,"is_disabled":false,"rental_uris":{"android":"levelo://app?vid=01a398aa-0346-4b29-941a-1d956e8bae52","ios":"levelo://app?vid=01a398aa-0346-4b29-941a-1d956e8bae52"},"vehicle_type_id":"4","last_reported":1683407154,"current_range_meters":16000,"station_id":"","pricing_plan_id":"free"},{"bike_id":"39046a81-c6c7-41a6-a4e1-d8ca2ce3001c","system_id":"levelo_inurba_marseille","lat":43.304274,"lon":5.397513,"is_reserved":false,"is_disabled":false,"rental_uris":{"android":"levelo://app?vid=39046a81-c6c7-41a6-a4e1-d8ca2ce3001c","ios":"levelo://app?vid=39046a81-c6c7-41a6-a4e1-d8ca2ce3001c"},"vehicle_type_id":"4","last_reported":1683407154,"current_range_meters":0,"station_id":"ce4bh092rcd13ifvqd20","pricing_plan_id":"free"},{"bike_id":"9b732d72-a4ed-44c7-8a3d-63715633f93e","system_id":"levelo_inurba_marseille","lat":43.304274,"lon":5.397513,"is_reserved":false,"is_disabled":false,"rental_uris":{"android":"levelo://app?vid=9b732d72-a4ed-44c7-8a3d-63715633f93e","ios":"levelo://app?vid=9b732d72-a4ed-44c7-8a3d-63715633f93e"},"vehicle_type_id":"4","last_reported":1683407154,"current_range_meters":3600,"station_id":"ce4bh092rcd13ifvqd20","pricing_plan_id":"free"},{"bike_id":"5a5a2825-1a9a-406d-bd94-cbf308d14af9","system_id":"levelo_inurba_marseille","lat":43.29254,"lon":5.38444,"is_reserved":false,"is_disabled":false,"rental_uris":{"android":"levelo://app?vid=5a5a2825-1a9a-406d-bd94-cbf308d14af9","ios":"levelo://app?vid=5a5a2825-1a9a-406d-bd94-cbf308d14af9"},"vehicle_type_id":"4","last_reported":1683407154,"current_range_meters":0,"station_id":"ce4bh692rcd13ifvqea0","pricing_plan_id":"free"},{"bike_id":"ef8817cc-2635-4cde-92bc-00720a63daaf","system_id":"levelo_inurba_marseille","lat":43.29253,"lon":5.38442,"is_reserved":false,"is_disabled":false,"rental_uris":{"android":"levelo://app?vid=ef8817cc-2635-4cde-92bc-00720a63daaf","ios":"levelo://app?vid=ef8817cc-2635-4cde-92bc-00720a63daaf"},"vehicle_type_id":"4","last_reported":1683407154,"current_range_meters":24400,"station_id":"ce4bh692rcd13ifvqea0","pricing_plan_id":"free"},{"bike_id":"6b61bc55-cc66-4a16-85f7-7b1358e61929","system_id":"levelo_inurba_marseille","lat":43.29249,"lon":5.38448,"is_reserved":false,"is_disabled":false,"rental_uris":{"android":"levelo://app?vid=6b61bc55-cc66-4a16-85f7-7b1358e61929","ios":"levelo://app?vid=6b61bc55-cc66-4a16-85f7-7b1358e61929"},"vehicle_type_id":"4","last_reported":1683407154,"current_range_meters":11600,"station_id":"","pricing_plan_id":"free"},{"bike_id":"c7d204ce-6619-491c-8812-dc4b0a6a663b","system_id":"levelo_inurba_marseille","lat":43.33041,"lon":5.38917,"is_reserved":false,"is_disabled":false,"rental_uris":{"android":"levelo://app?vid=c7d204ce-6619-491c-8812-dc4b0a6a663b","ios":"levelo://app?vid=c7d204ce-6619-491c-8812-dc4b0a6a663b"},"vehicle_type_id":"4","last_reported":1683407154,"current_range_meters":27600,"station_id":"ce4bhr92rcd13ifvqhrg","pricing_plan_id":"free"},{"bike_id":"10a8eeb7-4f93-4e8d-81bd-f27d3d4ef515","system_id":"levelo_inurba_marseille","lat":43.33041,"lon":5.38918,"is_reserved":false,"is_disabled":false,"rental_uris":{"android":"levelo://app?vid=10a8eeb7-4f93-4e8d-81bd-f27d3d4ef515","ios":"levelo://app?vid=10a8eeb7-4f93-4e8d-81bd-f27d3d4ef515"},"vehicle_type_id":"4","last_reported":1683407154,"current_range_meters":24800,"station_id":"ce4bhr92rcd13ifvqhrg","pricing_plan_id":"free"},{"bike_id":"d6233f8b-531d-433b-b8e9-589e3920c098","system_id":"levelo_inurba_marseille","lat":43.33044,"lon":5.38915,"is_reserved":false,"is_disabled":false,"rental_uris":{"android":"levelo://app?vid=d6233f8b-531d-433b-b8e9-589e3920c098","ios":"levelo://app?vid=d6233f8b-531d-433b-b8e9-589e3920c098"},"vehicle_type_id":"4","last_reported":1683407154,"current_range_meters":20400,"station_id":"ce4bhr92rcd13ifvqhrg","pricing_plan_id":"free"},{"bike_id":"da86836b-d020-456b-ad95-a73c452d8db8","system_id":"levelo_inurba_marseille","lat":43.33041,"lon":5.3892,"is_reserved":false,"is_disabled":false,"rental_uris":{"android":"levelo://app?vid=da86836b-d020-456b-ad95-a73c452d8db8","ios":"levelo://app?vid=da86836b-d020-456b-ad95-a73c452d8db8"},"vehicle_type_id":"4","last_reported":1683407154,"current_range_meters":23600,"station_id":"ce4bhr92rcd13ifvqhrg","pricing_plan_id":"free"},{"bike_id":"c6d8bc85-5d48-4175-a0b2-78b2152265a7","system_id":"levelo_inurba_marseille","lat":43.33043,"lon":5.38918,"is_reserved":false,"is_disabled":false,"rental_uris":{"android":"levelo://app?vid=c6d8bc85-5d48-4175-a0b2-78b2152265a7","ios":"levelo://app?vid=c6d8bc85-5d48-4175-a0b2-78b2152265a7"},"vehicle_type_id":"4","last_reported":1683407154,"current_range_meters":2400,"station_id":"ce4bhr92rcd13ifvqhrg","pricing_plan_id":"free"},{"bike_id":"7ad01a9f-4e3f-4fc3-b24c-4ce431cbb44e","system_id":"levelo_inurba_marseille","lat":43.290104,"lon":5.356111,"is_reserved":false,"is_disabled":false,"rental_uris":{"android":"levelo://app?vid=7ad01a9f-4e3f-4fc3-b24c-4ce431cbb44e","ios":"levelo://app?vid=7ad01a9f-4e3f-4fc3-b24c-4ce431cbb44e"},"vehicle_type_id":"4","last_reported":1683407154,"current_range_meters":8800,"station_id":"ce4bhb92rcd13ifvqen0","pricing_plan_id":"free"},{"bike_id":"d364d2ad-2c66-4587-a79b-ee0314a1a93f","system_id":"levelo_inurba_marseille","lat":43.33043,"lon":5.3892,"is_reserved":false,"is_disabled":false,"rental_uris":{"android":"levelo://app?vid=d364d2ad-2c66-4587-a79b-ee0314a1a93f","ios":"levelo://app?vid=d364d2ad-2c66-4587-a79b-ee0314a1a93f"},"vehicle_type_id":"4","last_reported":1683407154,"current_range_meters":16000,"station_id":"ce4bhr92rcd13ifvqhrg","pricing_plan_id":"free"},{"bike_id":"a89bfe1e-5ebe-4549-b37d-0ce05431e6a7","system_id":"levelo_inurba_marseille","lat":43.33047,"lon":5.38914,"is_reserved":false,"is_disabled":false,"rental_uris":{"android":"levelo://app?vid=a89bfe1e-5ebe-4549-b37d-0ce05431e6a7","ios":"levelo://app?vid=a89bfe1e-5ebe-4549-b37d-0ce05431e6a7"},"vehicle_type_id":"4","last_reported":1683407154,"current_range_meters":3600,"station_id":"ce4bhr92rcd13ifvqhrg","pricing_plan_id":"free"},{"bike_id":"8cd5e1e4-e937-439c-bf8a-43fbaac45a10","system_id":"levelo_inurba_marseille","lat":43.33045,"lon":5.38918,"is_reserved":false,"is_disabled":false,"rental_uris":{"android":"levelo://app?vid=8cd5e1e4-e937-439c-bf8a-43fbaac45a10","ios":"levelo://app?vid=8cd5e1e4-e937-439c-bf8a-43fbaac45a10"},"vehicle_type_id":"4","last_reported":1683407154,"current_range_meters":22400,"station_id":"ce4bhr92rcd13ifvqhrg","pricing_plan_id":"free"},{"bike_id":"4da2ea4c-0587-4161-8586-452f9bca890c","system_id":"levelo_inurba_marseille","lat":43.33045,"lon":5.38918,"is_reserved":false,"is_disabled":false,"rental_uris":{"android":"levelo://app?vid=4da2ea4c-0587-4161-8586-452f9bca890c","ios":"levelo://app?vid=4da2ea4c-0587-4161-8586-452f9bca890c"},"vehicle_type_id":"4","last_reported":1683407154,"current_range_meters":18400,"station_id":"ce4bhr92rcd13ifvqhrg","pricing_plan_id":"free"},{"bike_id":"7c5f40d0-fbd9-4c76-bb42-238ce9a43ee9","system_id":"levelo_inurba_marseille","lat":43.33047,"lon":5.38915,"is_reserved":false,"is_disabled":false,"rental_uris":{"android":"levelo://app?vid=7c5f40d0-fbd9-4c76-bb42-238ce9a43ee9","ios":"levelo://app?vid=7c5f40d0-fbd9-4c76-bb42-238ce9a43ee9"},"vehicle_type_id":"4","last_reported":1683407154,"current_range_meters":5200,"station_id":"ce4bhr92rcd13ifvqhrg","pricing_plan_id":"free"},{"bike_id":"fe8d863b-eaf3-4fac-9bf6-10fdde4a5bf4","system_id":"levelo_inurba_marseille","lat":43.33044,"lon":5.38921,"is_reserved":false,"is_disabled":false,"rental_uris":{"android":"levelo://app?vid=fe8d863b-eaf3-4fac-9bf6-10fdde4a5bf4","ios":"levelo://app?vid=fe8d863b-eaf3-4fac-9bf6-10fdde4a5bf4"},"vehicle_type_id":"4","last_reported":1683407154,"current_range_meters":0,"station_id":"ce4bhr92rcd13ifvqhrg","pricing_plan_id":"free"},{"bike_id":"2a4c9986-79e6-473a-9088-a22214a8de69","system_id":"levelo_inurba_marseille","lat":43.33046,"lon":5.38918,"is_reserved":false,"is_disabled":false,"rental_uris":{"android":"levelo://app?vid=2a4c9986-79e6-473a-9088-a22214a8de69","ios":"levelo://app?vid=2a4c9986-79e6-473a-9088-a22214a8de69"},"vehicle_type_id":"4","last_reported":1683407154,"current_range_meters":14800,"station_id":"ce4bhr92rcd13ifvqhrg","pricing_plan_id":"free"},{"bike_id":"9993b21d-b92b-455d-bc97-303e3372131d","system_id":"levelo_inurba_marseille","lat":43.33045,"lon":5.3892,"is_reserved":false,"is_disabled":false,"rental_uris":{"android":"levelo://app?vid=9993b21d-b92b-455d-bc97-303e3372131d","ios":"levelo://app?vid=9993b21d-b92b-455d-bc97-303e3372131d"},"vehicle_type_id":"4","last_reported":1683407154,"current_range_meters":25600,"station_id":"ce4bhr92rcd13ifvqhrg","pricing_plan_id":"free"},{"bike_id":"276fe03b-4431-4a2c-b1e5-88809bc1c6ad","system_id":"levelo_inurba_marseille","lat":43.33045,"lon":5.38921,"is_reserved":false,"is_disabled":false,"rental_uris":{"android":"levelo://app?vid=276fe03b-4431-4a2c-b1e5-88809bc1c6ad","ios":"levelo://app?vid=276fe03b-4431-4a2c-b1e5-88809bc1c6ad"},"vehicle_type_id":"4","last_reported":1683407154,"current_range_meters":8800,"station_id":"ce4bhr92rcd13ifvqhrg","pricing_plan_id":"free"},{"bike_id":"7693ed32-6744-44d2-96f3-382caeec7431","system_id":"levelo_inurba_marseille","lat":43.290104,"lon":5.356111,"is_reserved":false,"is_disabled":false,"rental_uris":{"android":"levelo://app?vid=7693ed32-6744-44d2-96f3-382caeec7431","ios":"levelo://app?vid=7693ed32-6744-44d2-96f3-382caeec7431"},"vehicle_type_id":"4","last_reported":1683407154,"current_range_meters":31200,"station_id":"ce4bhb92rcd13ifvqen0","pricing_plan_id":"free"},{"bike_id":"496fc879-c6a2-4335-9eab-2fdd6a6f8bf1","system_id":"levelo_inurba_marseille","lat":43.33045,"lon":5.38926,"is_reserved":false,"is_disabled":false,"rental_uris":{"android":"levelo://app?vid=496fc879-c6a2-4335-9eab-2fdd6a6f8bf1","ios":"levelo://app?vid=496fc879-c6a2-4335-9eab-2fdd6a6f8bf1"},"vehicle_type_id":"4","last_reported":1683407154,"current_range_meters":15200,"station_id":"ce4bhr92rcd13ifvqhrg","pricing_plan_id":"free"},{"bike_id":"56350bd4-f2c5-4e60-9fdd-46cb97c96cda","system_id":"levelo_inurba_marseille","lat":43.290103,"lon":5.356114,"is_reserved":false,"is_disabled":false,"rental_uris":{"android":"levelo://app?vid=56350bd4-f2c5-4e60-9fdd-46cb97c96cda","ios":"levelo://app?vid=56350bd4-f2c5-4e60-9fdd-46cb97c96cda"},"vehicle_type_id":"4","last_reported":1683407154,"current_range_meters":31200,"station_id":"ce4bhb92rcd13ifvqen0","pricing_plan_id":"free"},{"bike_id":"dc5bc03a-35ab-4fd7-b93a-3295647e38b6","system_id":"levelo_inurba_marseille","lat":43.295169,"lon":5.390426,"is_reserved":false,"is_disabled":false,"rental_uris":{"android":"levelo://app?vid=dc5bc03a-35ab-4fd7-b93a-3295647e38b6","ios":"levelo://app?vid=dc5bc03a-35ab-4fd7-b93a-3295647e38b6"},"vehicle_type_id":"4","last_reported":1683407154,"current_range_meters":15200,"station_id":"ce4bh3p2rcd13ifvqdp0","pricing_plan_id":"free"},{"bike_id":"c3624f07-a6e2-40fc-8c2e-4ab26c394ba3","system_id":"levelo_inurba_marseille","lat":43.289743,"lon":5.378304,"is_reserved":false,"is_disabled":false,"rental_uris":{"android":"levelo://app?vid=c3624f07-a6e2-40fc-8c2e-4ab26c394ba3","ios":"levelo://app?vid=c3624f07-a6e2-40fc-8c2e-4ab26c394ba3"},"vehicle_type_id":"4","last_reported":1683407154,"current_range_meters":800,"station_id":"ce4bh9p2rcd13ifvqed0","pricing_plan_id":"free"},{"bike_id":"b16929ae-bbc9-4fa6-9a50-7740c1b098ef","system_id":"levelo_inurba_marseille","lat":43.295169,"lon":5.390426,"is_reserved":false,"is_disabled":false,"rental_uris":{"android":"levelo://app?vid=b16929ae-bbc9-4fa6-9a50-7740c1b098ef","ios":"levelo://app?vid=b16929ae-bbc9-4fa6-9a50-7740c1b098ef"},"vehicle_type_id":"4","last_reported":1683407154,"current_range_meters":8000,"station_id":"ce4bh3p2rcd13ifvqdp0","pricing_plan_id":"free"},{"bike_id":"c6a06bf1-41e8-4f0c-8ee2-1ba4f5acb4ca","system_id":"levelo_inurba_marseille","lat":43.295169,"lon":5.390426,"is_reserved":false,"is_disabled":false,"rental_uris":{"android":"levelo://app?vid=c6a06bf1-41e8-4f0c-8ee2-1ba4f5acb4ca","ios":"levelo://app?vid=c6a06bf1-41e8-4f0c-8ee2-1ba4f5acb4ca"},"vehicle_type_id":"4","last_reported":1683407154,"current_range_meters":28000,"station_id":"ce4bh3p2rcd13ifvqdp0","pricing_plan_id":"free"},{"bike_id":"7e62201f-8884-4eba-88dc-70c362ca43a4","system_id":"levelo_inurba_marseille","lat":43.295169,"lon":5.390426,"is_reserved":false,"is_disabled":false,"rental_uris":{"android":"levelo://app?vid=7e62201f-8884-4eba-88dc-70c362ca43a4","ios":"levelo://app?vid=7e62201f-8884-4eba-88dc-70c362ca43a4"},"vehicle_type_id":"4","last_reported":1683407154,"current_range_meters":12800,"station_id":"ce4bh3p2rcd13ifvqdp0","pricing_plan_id":"free"},{"bike_id":"7beb90c8-93ec-45c4-948d-764f87cb3e38","system_id":"levelo_inurba_marseille","lat":43.295169,"lon":5.390426,"is_reserved":false,"is_disabled":false,"rental_uris":{"android":"levelo://app?vid=7beb90c8-93ec-45c4-948d-764f87cb3e38","ios":"levelo://app?vid=7beb90c8-93ec-45c4-948d-764f87cb3e38"},"vehicle_type_id":"4","last_reported":1683407154,"current_range_meters":10400,"station_id":"ce4bh3p2rcd13ifvqdp0","pricing_plan_id":"free"},{"bike_id":"b7087adb-8220-4444-aa37-1af7d957e99d","system_id":"levelo_inurba_marseille","lat":43.29128,"lon":5.38445,"is_reserved":false,"is_disabled":false,"rental_uris":{"android":"levelo://app?vid=b7087adb-8220-4444-aa37-1af7d957e99d","ios":"levelo://app?vid=b7087adb-8220-4444-aa37-1af7d957e99d"},"vehicle_type_id":"4","last_reported":1683407154,"current_range_meters":5200,"station_id":"","pricing_plan_id":"free"},{"bike_id":"0af6b222-b6f8-46ba-b3c2-a34fa04e70db","system_id":"levelo_inurba_marseille","lat":43.28856,"lon":5.358371,"is_reserved":false,"is_disabled":false,"rental_uris":{"android":"levelo://app?vid=0af6b222-b6f8-46ba-b3c2-a34fa04e70db","ios":"levelo://app?vid=0af6b222-b6f8-46ba-b3c2-a34fa04e70db"},"vehicle_type_id":"4","last_reported":1683407154,"current_range_meters":7200,"station_id":"ce4bhb12rcd13ifvqem0","pricing_plan_id":"free"},{"bike_id":"ed16d806-0288-49d5-b5f2-6754ab905c04","system_id":"levelo_inurba_marseille","lat":43.28856,"lon":5.358371,"is_reserved":false,"is_disabled":false,"rental_uris":{"android":"levelo://app?vid=ed16d806-0288-49d5-b5f2-6754ab905c04","ios":"levelo://app?vid=ed16d806-0288-49d5-b5f2-6754ab905c04"},"vehicle_type_id":"4","last_reported":1683407154,"current_range_meters":24800,"station_id":"ce4bhb12rcd13ifvqem0","pricing_plan_id":"free"},{"bike_id":"20083ae5-f09f-4d10-9758-3cdd331d6a45","system_id":"levelo_inurba_marseille","lat":43.33738,"lon":5.37456,"is_reserved":false,"is_disabled":false,"rental_uris":{"android":"levelo://app?vid=20083ae5-f09f-4d10-9758-3cdd331d6a45","ios":"levelo://app?vid=20083ae5-f09f-4d10-9758-3cdd331d6a45"},"vehicle_type_id":"4","last_reported":1683407154,"current_range_meters":14400,"station_id":"","pricing_plan_id":"free"},{"bike_id":"34320fce-24bb-4291-be42-2c361aed67f0","system_id":"levelo_inurba_marseille","lat":43.33746,"lon":5.37444,"is_reserved":false,"is_disabled":false,"rental_uris":{"android":"levelo://app?vid=34320fce-24bb-4291-be42-2c361aed67f0","ios":"levelo://app?vid=34320fce-24bb-4291-be42-2c361aed67f0"},"vehicle_type_id":"4","last_reported":1683407154,"current_range_meters":22800,"station_id":"","pricing_plan_id":"free"},{"bike_id":"d1338cde-b3d1-46b1-8800-7a50c92c327c","system_id":"levelo_inurba_marseille","lat":43.3375,"lon":5.3743,"is_reserved":false,"is_disabled":false,"rental_uris":{"android":"levelo://app?vid=d1338cde-b3d1-46b1-8800-7a50c92c327c","ios":"levelo://app?vid=d1338cde-b3d1-46b1-8800-7a50c92c327c"},"vehicle_type_id":"4","last_reported":1683407154,"current_range_meters":26000,"station_id":"","pricing_plan_id":"free"},{"bike_id":"ab7b8dc5-9722-47e7-8a78-100d1a674f6d","system_id":"levelo_inurba_marseille","lat":43.33747,"lon":5.37459,"is_reserved":false,"is_disabled":false,"rental_uris":{"android":"levelo://app?vid=ab7b8dc5-9722-47e7-8a78-100d1a674f6d","ios":"levelo://app?vid=ab7b8dc5-9722-47e7-8a78-100d1a674f6d"},"vehicle_type_id":"4","last_reported":1683407154,"current_range_meters":6000,"station_id":"","pricing_plan_id":"free"},{"bike_id":"cc5900b6-b927-49fc-82db-4d13a3d02316","system_id":"levelo_inurba_marseille","lat":43.33752,"lon":5.37486,"is_reserved":false,"is_disabled":false,"rental_uris":{"android":"levelo://app?vid=cc5900b6-b927-49fc-82db-4d13a3d02316","ios":"levelo://app?vid=cc5900b6-b927-49fc-82db-4d13a3d02316"},"vehicle_type_id":"4","last_reported":1683407154,"current_range_meters":25200,"station_id":"","pricing_plan_id":"free"},{"bike_id":"90ce46ea-7a64-492f-96d6-00da14cb0b6c","system_id":"levelo_inurba_marseille","lat":43.30642,"lon":5.401031,"is_reserved":false,"is_disabled":false,"rental_uris":{"android":"levelo://app?vid=90ce46ea-7a64-492f-96d6-00da14cb0b6c","ios":"levelo://app?vid=90ce46ea-7a64-492f-96d6-00da14cb0b6c"},"vehicle_type_id":"4","last_reported":1683407154,"current_range_meters":0,"station_id":"ce4bh112rcd13ifvqda0","pricing_plan_id":"free"},{"bike_id":"db84b57a-c242-4d31-93f3-e9f12005c4b3","system_id":"levelo_inurba_marseille","lat":43.33762,"lon":5.37494,"is_reserved":false,"is_disabled":false,"rental_uris":{"android":"levelo://app?vid=db84b57a-c242-4d31-93f3-e9f12005c4b3","ios":"levelo://app?vid=db84b57a-c242-4d31-93f3-e9f12005c4b3"},"vehicle_type_id":"4","last_reported":1683407154,"current_range_meters":25600,"station_id":"","pricing_plan_id":"free"},{"bike_id":"c452a78d-8a25-4dac-a034-b406e8dd2a51","system_id":"levelo_inurba_marseille","lat":43.28776,"lon":5.35924,"is_reserved":false,"is_disabled":false,"rental_uris":{"android":"levelo://app?vid=c452a78d-8a25-4dac-a034-b406e8dd2a51","ios":"levelo://app?vid=c452a78d-8a25-4dac-a034-b406e8dd2a51"},"vehicle_type_id":"4","last_reported":1683407154,"current_range_meters":3600,"station_id":"","pricing_plan_id":"free"},{"bike_id":"98f40e42-4514-40cd-8e6a-455435e092f3","system_id":"levelo_inurba_marseille","lat":43.295196,"lon":5.39397,"is_reserved":false,"is_disabled":false,"rental_uris":{"android":"levelo://app?vid=98f40e42-4514-40cd-8e6a-455435e092f3","ios":"levelo://app?vid=98f40e42-4514-40cd-8e6a-455435e092f3"},"vehicle_type_id":"4","last_reported":1683407154,"current_range_meters":4400,"station_id":"ce4bh292rcd13ifvqdf0","pricing_plan_id":"free"},{"bike_id":"31c09b77-6971-4dc3-9725-29c0d80af837","system_id":"levelo_inurba_marseille","lat":43.295196,"lon":5.39397,"is_reserved":false,"is_disabled":false,"rental_uris":{"android":"levelo://app?vid=31c09b77-6971-4dc3-9725-29c0d80af837","ios":"levelo://app?vid=31c09b77-6971-4dc3-9725-29c0d80af837"},"vehicle_type_id":"4","last_reported":1683407154,"current_range_meters":0,"station_id":"ce4bh292rcd13ifvqdf0","pricing_plan_id":"free"},{"bike_id":"f4d7cf46-b00d-42ab-b23e-c5afd8b1dec1","system_id":"levelo_inurba_marseille","lat":43.295196,"lon":5.39397,"is_reserved":false,"is_disabled":false,"rental_uris":{"android":"levelo://app?vid=f4d7cf46-b00d-42ab-b23e-c5afd8b1dec1","ios":"levelo://app?vid=f4d7cf46-b00d-42ab-b23e-c5afd8b1dec1"},"vehicle_type_id":"4","last_reported":1683407154,"current_range_meters":22800,"station_id":"ce4bh292rcd13ifvqdf0","pricing_plan_id":"free"},{"bike_id":"b8b39e02-be40-471a-9daf-6df4ffc78ef5","system_id":"levelo_inurba_marseille","lat":43.295196,"lon":5.39397,"is_reserved":false,"is_disabled":false,"rental_uris":{"android":"levelo://app?vid=b8b39e02-be40-471a-9daf-6df4ffc78ef5","ios":"levelo://app?vid=b8b39e02-be40-471a-9daf-6df4ffc78ef5"},"vehicle_type_id":"4","last_reported":1683407154,"current_range_meters":26000,"station_id":"ce4bh292rcd13ifvqdf0","pricing_plan_id":"free"},{"bike_id":"df4c9762-ef0c-4c2d-a9d9-ecbe6826249e","system_id":"levelo_inurba_marseille","lat":43.290336,"lon":5.386425,"is_reserved":false,"is_disabled":false,"rental_uris":{"android":"levelo://app?vid=df4c9762-ef0c-4c2d-a9d9-ecbe6826249e","ios":"levelo://app?vid=df4c9762-ef0c-4c2d-a9d9-ecbe6826249e"},"vehicle_type_id":"4","last_reported":1683407154,"current_range_meters":0,"station_id":"ce4bh4p2rcd13ifvqe0g","pricing_plan_id":"free"},{"bike_id":"a3ac5bc2-009c-4c95-8b7b-73147448e144","system_id":"levelo_inurba_marseille","lat":43.290345,"lon":5.38646,"is_reserved":false,"is_disabled":false,"rental_uris":{"android":"levelo://app?vid=a3ac5bc2-009c-4c95-8b7b-73147448e144","ios":"levelo://app?vid=a3ac5bc2-009c-4c95-8b7b-73147448e144"},"vehicle_type_id":"4","last_reported":1683407154,"current_range_meters":15600,"station_id":"ce4bh4p2rcd13ifvqe0g","pricing_plan_id":"free"},{"bike_id":"7e2c13d1-71c8-4dd7-8a55-d0a913125d76","system_id":"levelo_inurba_marseille","lat":43.286039,"lon":5.370679,"is_reserved":false,"is_disabled":false,"rental_uris":{"android":"levelo://app?vid=7e2c13d1-71c8-4dd7-8a55-d0a913125d76","ios":"levelo://app?vid=7e2c13d1-71c8-4dd7-8a55-d0a913125d76"},"vehicle_type_id":"4","last_reported":1683407154,"current_range_meters":800,"station_id":"ce4bht12rcd13ifvqi60","pricing_plan_id":"free"},{"bike_id":"fe40c389-c80d-4035-8c26-96ab7662184d","system_id":"levelo_inurba_marseille","lat":43.286039,"lon":5.370681,"is_reserved":false,"is_disabled":false,"rental_uris":{"android":"levelo://app?vid=fe40c389-c80d-4035-8c26-96ab7662184d","ios":"levelo://app?vid=fe40c389-c80d-4035-8c26-96ab7662184d"},"vehicle_type_id":"4","last_reported":1683407154,"current_range_meters":800,"station_id":"ce4bht12rcd13ifvqi60","pricing_plan_id":"free"},{"bike_id":"e64d342e-0067-433c-959f-80b172a96fb3","system_id":"levelo_inurba_marseille","lat":43.287185,"lon":5.379373,"is_reserved":false,"is_disabled":false,"rental_uris":{"android":"levelo://app?vid=e64d342e-0067-433c-959f-80b172a96fb3","ios":"levelo://app?vid=e64d342e-0067-433c-959f-80b172a96fb3"},"vehicle_type_id":"4","last_reported":1683407154,"current_range_meters":10400,"station_id":"ce4bh9p2rcd13ifvqec0","pricing_plan_id":"free"},{"bike_id":"4c35e626-307b-411f-8b15-dd95e192595c","system_id":"levelo_inurba_marseille","lat":43.287185,"lon":5.379373,"is_reserved":false,"is_disabled":false,"rental_uris":{"android":"levelo://app?vid=4c35e626-307b-411f-8b15-dd95e192595c","ios":"levelo://app?vid=4c35e626-307b-411f-8b15-dd95e192595c"},"vehicle_type_id":"4","last_reported":1683407154,"current_range_meters":10400,"station_id":"ce4bh9p2rcd13ifvqec0","pricing_plan_id":"free"},{"bike_id":"7c326300-b6ed-4e31-91ee-f9532806bca8","system_id":"levelo_inurba_marseille","lat":43.28567,"lon":5.37127,"is_reserved":false,"is_disabled":false,"rental_uris":{"android":"levelo://app?vid=7c326300-b6ed-4e31-91ee-f9532806bca8","ios":"levelo://app?vid=7c326300-b6ed-4e31-91ee-f9532806bca8"},"vehicle_type_id":"4","last_reported":1683407154,"current_range_meters":0,"station_id":"ce4bht12rcd13ifvqi60","pricing_plan_id":"free"},{"bike_id":"83431249-713d-4711-a6eb-b176ab370379","system_id":"levelo_inurba_marseille","lat":43.287184,"lon":5.37937,"is_reserved":false,"is_disabled":false,"rental_uris":{"android":"levelo://app?vid=83431249-713d-4711-a6eb-b176ab370379","ios":"levelo://app?vid=83431249-713d-4711-a6eb-b176ab370379"},"vehicle_type_id":"4","last_reported":1683407154,"current_range_meters":20000,"station_id":"ce4bh9p2rcd13ifvqec0","pricing_plan_id":"free"},{"bike_id":"9b58c03a-e056-4d5d-9897-00689f1be5e2","system_id":"levelo_inurba_marseille","lat":43.33473,"lon":5.38999,"is_reserved":false,"is_disabled":false,"rental_uris":{"android":"levelo://app?vid=9b58c03a-e056-4d5d-9897-00689f1be5e2","ios":"levelo://app?vid=9b58c03a-e056-4d5d-9897-00689f1be5e2"},"vehicle_type_id":"4","last_reported":1683407154,"current_range_meters":6000,"station_id":"","pricing_plan_id":"free"},{"bike_id":"27865f6e-c046-4416-9233-48156b6bae2c","system_id":"levelo_inurba_marseille","lat":43.33482,"lon":5.38984,"is_reserved":false,"is_disabled":false,"rental_uris":{"android":"levelo://app?vid=27865f6e-c046-4416-9233-48156b6bae2c","ios":"levelo://app?vid=27865f6e-c046-4416-9233-48156b6bae2c"},"vehicle_type_id":"4","last_reported":1683407154,"current_range_meters":28400,"station_id":"","pricing_plan_id":"free"},{"bike_id":"2534f2ca-a8de-4296-accd-5abd752235fb","system_id":"levelo_inurba_marseille","lat":43.291994,"lon":5.392907,"is_reserved":false,"is_disabled":false,"rental_uris":{"android":"levelo://app?vid=2534f2ca-a8de-4296-accd-5abd752235fb","ios":"levelo://app?vid=2534f2ca-a8de-4296-accd-5abd752235fb"},"vehicle_type_id":"4","last_reported":1683407154,"current_range_meters":8400,"station_id":"ce4bh192rcd13ifvqdd0","pricing_plan_id":"free"},{"bike_id":"898cbac4-d6e5-4457-b6ff-295da9bb33ba","system_id":"levelo_inurba_marseille","lat":43.286249,"lon":5.350991,"is_reserved":false,"is_disabled":false,"rental_uris":{"android":"levelo://app?vid=898cbac4-d6e5-4457-b6ff-295da9bb33ba","ios":"levelo://app?vid=898cbac4-d6e5-4457-b6ff-295da9bb33ba"},"vehicle_type_id":"4","last_reported":1683407154,"current_range_meters":31200,"station_id":"","pricing_plan_id":"free"},{"bike_id":"b8d6bbc0-2e64-4f18-a84f-3b3d178c5659","system_id":"levelo_inurba_marseille","lat":43.286182,"lon":5.351047,"is_reserved":false,"is_disabled":false,"rental_uris":{"android":"levelo://app?vid=b8d6bbc0-2e64-4f18-a84f-3b3d178c5659","ios":"levelo://app?vid=b8d6bbc0-2e64-4f18-a84f-3b3d178c5659"},"vehicle_type_id":"4","last_reported":1683407154,"current_range_meters":31200,"station_id":"","pricing_plan_id":"free"},{"bike_id":"d397c1db-8e59-4394-bc66-e6d2706f3f1a","system_id":"levelo_inurba_marseille","lat":43.28618,"lon":5.351051,"is_reserved":false,"is_disabled":false,"rental_uris":{"android":"levelo://app?vid=d397c1db-8e59-4394-bc66-e6d2706f3f1a","ios":"levelo://app?vid=d397c1db-8e59-4394-bc66-e6d2706f3f1a"},"vehicle_type_id":"4","last_reported":1683407154,"current_range_meters":31200,"station_id":"","pricing_plan_id":"free"},{"bike_id":"1605f744-88ae-4be4-a91b-7f702ae49b53","system_id":"levelo_inurba_marseille","lat":43.286142,"lon":5.351105,"is_reserved":false,"is_disabled":false,"rental_uris":{"android":"levelo://app?vid=1605f744-88ae-4be4-a91b-7f702ae49b53","ios":"levelo://app?vid=1605f744-88ae-4be4-a91b-7f702ae49b53"},"vehicle_type_id":"4","last_reported":1683407154,"current_range_meters":31200,"station_id":"","pricing_plan_id":"free"},{"bike_id":"87be1e86-6604-4c13-8bbc-cdf04701c037","system_id":"levelo_inurba_marseille","lat":43.28615,"lon":5.35103,"is_reserved":false,"is_disabled":false,"rental_uris":{"android":"levelo://app?vid=87be1e86-6604-4c13-8bbc-cdf04701c037","ios":"levelo://app?vid=87be1e86-6604-4c13-8bbc-cdf04701c037"},"vehicle_type_id":"4","last_reported":1683407154,"current_range_meters":31200,"station_id":"","pricing_plan_id":"free"},{"bike_id":"aceb92f8-7e06-41a5-b81b-70e605a8490d","system_id":"levelo_inurba_marseille","lat":43.295713,"lon":5.399639,"is_reserved":false,"is_disabled":false,"rental_uris":{"android":"levelo://app?vid=aceb92f8-7e06-41a5-b81b-70e605a8490d","ios":"levelo://app?vid=aceb92f8-7e06-41a5-b81b-70e605a8490d"},"vehicle_type_id":"4","last_reported":1683407154,"current_range_meters":5600,"station_id":"ce4bh312rcd13ifvqdj0","pricing_plan_id":"free"},{"bike_id":"1f6aa69f-c582-4b80-b607-e1b4692c780b","system_id":"levelo_inurba_marseille","lat":43.295713,"lon":5.399639,"is_reserved":false,"is_disabled":false,"rental_uris":{"android":"levelo://app?vid=1f6aa69f-c582-4b80-b607-e1b4692c780b","ios":"levelo://app?vid=1f6aa69f-c582-4b80-b607-e1b4692c780b"},"vehicle_type_id":"4","last_reported":1683407154,"current_range_meters":13600,"station_id":"ce4bh312rcd13ifvqdj0","pricing_plan_id":"free"},{"bike_id":"7b6c767e-f0a8-40cf-983b-a425f534a2ee","system_id":"levelo_inurba_marseille","lat":43.323464,"lon":5.406297,"is_reserved":false,"is_disabled":false,"rental_uris":{"android":"levelo://app?vid=7b6c767e-f0a8-40cf-983b-a425f534a2ee","ios":"levelo://app?vid=7b6c767e-f0a8-40cf-983b-a425f534a2ee"},"vehicle_type_id":"4","last_reported":1683407154,"current_range_meters":25600,"station_id":"ce4bhq92rcd13ifvqhjg","pricing_plan_id":"free"},{"bike_id":"c02fb7ec-1fbd-4ea4-89f5-d9a6cd813577","system_id":"levelo_inurba_marseille","lat":43.323464,"lon":5.406297,"is_reserved":false,"is_disabled":false,"rental_uris":{"android":"levelo://app?vid=c02fb7ec-1fbd-4ea4-89f5-d9a6cd813577","ios":"levelo://app?vid=c02fb7ec-1fbd-4ea4-89f5-d9a6cd813577"},"vehicle_type_id":"4","last_reported":1683407154,"current_range_meters":26800,"station_id":"ce4bhq92rcd13ifvqhjg","pricing_plan_id":"free"},{"bike_id":"cea7fc2c-69c4-4d9a-a5ae-34d9c60c7662","system_id":"levelo_inurba_marseille","lat":43.28476,"lon":5.38407,"is_reserved":false,"is_disabled":false,"rental_uris":{"android":"levelo://app?vid=cea7fc2c-69c4-4d9a-a5ae-34d9c60c7662","ios":"levelo://app?vid=cea7fc2c-69c4-4d9a-a5ae-34d9c60c7662"},"vehicle_type_id":"4","last_reported":1683407154,"current_range_meters":400,"station_id":"ce4bh512rcd13ifvqe3g","pricing_plan_id":"free"},{"bike_id":"ad3cdfdb-0864-4cce-8a5d-05a05de94244","system_id":"levelo_inurba_marseille","lat":43.30084,"lon":5.40583,"is_reserved":false,"is_disabled":false,"rental_uris":{"android":"levelo://app?vid=ad3cdfdb-0864-4cce-8a5d-05a05de94244","ios":"levelo://app?vid=ad3cdfdb-0864-4cce-8a5d-05a05de94244"},"vehicle_type_id":"4","last_reported":1683407154,"current_range_meters":18800,"station_id":"","pricing_plan_id":"free"},{"bike_id":"8b1fd7e2-de18-43de-9605-006bc880203b","system_id":"levelo_inurba_marseille","lat":43.28861,"lon":5.39312,"is_reserved":false,"is_disabled":false,"rental_uris":{"android":"levelo://app?vid=8b1fd7e2-de18-43de-9605-006bc880203b","ios":"levelo://app?vid=8b1fd7e2-de18-43de-9605-006bc880203b"},"vehicle_type_id":"4","last_reported":1683407154,"current_range_meters":400,"station_id":"ce4bh2p2rcd13ifvqdi0","pricing_plan_id":"free"},{"bike_id":"229c700f-f9ac-4c3d-a788-596787be8b20","system_id":"levelo_inurba_marseille","lat":43.28845,"lon":5.39309,"is_reserved":false,"is_disabled":false,"rental_uris":{"android":"levelo://app?vid=229c700f-f9ac-4c3d-a788-596787be8b20","ios":"levelo://app?vid=229c700f-f9ac-4c3d-a788-596787be8b20"},"vehicle_type_id":"4","last_reported":1683407154,"current_range_meters":4800,"station_id":"ce4bh2p2rcd13ifvqdi0","pricing_plan_id":"free"},{"bike_id":"b37ad2cb-3488-471f-b2ab-40aac46fc431","system_id":"levelo_inurba_marseille","lat":43.283498,"lon":5.380948,"is_reserved":false,"is_disabled":false,"rental_uris":{"android":"levelo://app?vid=b37ad2cb-3488-471f-b2ab-40aac46fc431","ios":"levelo://app?vid=b37ad2cb-3488-471f-b2ab-40aac46fc431"},"vehicle_type_id":"4","last_reported":1683407154,"current_range_meters":2800,"station_id":"ce4bh412rcd13ifvqdr0","pricing_plan_id":"free"},{"bike_id":"f3c88dce-07b6-4f96-9558-b88c0c5a2a53","system_id":"levelo_inurba_marseille","lat":43.283498,"lon":5.380948,"is_reserved":false,"is_disabled":false,"rental_uris":{"android":"levelo://app?vid=f3c88dce-07b6-4f96-9558-b88c0c5a2a53","ios":"levelo://app?vid=f3c88dce-07b6-4f96-9558-b88c0c5a2a53"},"vehicle_type_id":"4","last_reported":1683407154,"current_range_meters":23600,"station_id":"ce4bh412rcd13ifvqdr0","pricing_plan_id":"free"},{"bike_id":"6f471166-3f96-42e9-9504-3a3c2d7018e4","system_id":"levelo_inurba_marseille","lat":43.288501,"lon":5.393087,"is_reserved":false,"is_disabled":false,"rental_uris":{"android":"levelo://app?vid=6f471166-3f96-42e9-9504-3a3c2d7018e4","ios":"levelo://app?vid=6f471166-3f96-42e9-9504-3a3c2d7018e4"},"vehicle_type_id":"4","last_reported":1683407154,"current_range_meters":2800,"station_id":"ce4bh2p2rcd13ifvqdi0","pricing_plan_id":"free"},{"bike_id":"b5170f80-50c2-4c2c-8cfa-4fbaf76c86a8","system_id":"levelo_inurba_marseille","lat":43.284159,"lon":5.349798,"is_reserved":false,"is_disabled":false,"rental_uris":{"android":"levelo://app?vid=b5170f80-50c2-4c2c-8cfa-4fbaf76c86a8","ios":"levelo://app?vid=b5170f80-50c2-4c2c-8cfa-4fbaf76c86a8"},"vehicle_type_id":"4","last_reported":1683407154,"current_range_meters":6400,"station_id":"","pricing_plan_id":"free"},{"bike_id":"45fe5c57-e590-4891-bc42-a995b99f8f4a","system_id":"levelo_inurba_marseille","lat":43.289363,"lon":5.396322,"is_reserved":false,"is_disabled":false,"rental_uris":{"android":"levelo://app?vid=45fe5c57-e590-4891-bc42-a995b99f8f4a","ios":"levelo://app?vid=45fe5c57-e590-4891-bc42-a995b99f8f4a"},"vehicle_type_id":"4","last_reported":1683407154,"current_range_meters":9200,"station_id":"ce4bh3h2rcd13ifvqdn0","pricing_plan_id":"free"},{"bike_id":"584ce045-cc41-4f80-bb89-3a05c8457ab0","system_id":"levelo_inurba_marseille","lat":43.289363,"lon":5.396322,"is_reserved":false,"is_disabled":false,"rental_uris":{"android":"levelo://app?vid=584ce045-cc41-4f80-bb89-3a05c8457ab0","ios":"levelo://app?vid=584ce045-cc41-4f80-bb89-3a05c8457ab0"},"vehicle_type_id":"4","last_reported":1683407154,"current_range_meters":3600,"station_id":"ce4bh3h2rcd13ifvqdn0","pricing_plan_id":"free"},{"bike_id":"fb8161d8-5739-40d5-af46-88c1a126dcc2","system_id":"levelo_inurba_marseille","lat":43.283502,"lon":5.386471,"is_reserved":false,"is_disabled":false,"rental_uris":{"android":"levelo://app?vid=fb8161d8-5739-40d5-af46-88c1a126dcc2","ios":"levelo://app?vid=fb8161d8-5739-40d5-af46-88c1a126dcc2"},"vehicle_type_id":"4","last_reported":1683407154,"current_range_meters":26800,"station_id":"ce4bh492rcd13ifvqdvg","pricing_plan_id":"free"},{"bike_id":"a84c4869-3154-4674-9187-7946c84311d2","system_id":"levelo_inurba_marseille","lat":43.283502,"lon":5.386471,"is_reserved":false,"is_disabled":false,"rental_uris":{"android":"levelo://app?vid=a84c4869-3154-4674-9187-7946c84311d2","ios":"levelo://app?vid=a84c4869-3154-4674-9187-7946c84311d2"},"vehicle_type_id":"4","last_reported":1683407154,"current_range_meters":0,"station_id":"ce4bh492rcd13ifvqdvg","pricing_plan_id":"free"},{"bike_id":"92faf78f-810c-4236-9bd2-240ec279f221","system_id":"levelo_inurba_marseille","lat":43.283502,"lon":5.386471,"is_reserved":false,"is_disabled":false,"rental_uris":{"android":"levelo://app?vid=92faf78f-810c-4236-9bd2-240ec279f221","ios":"levelo://app?vid=92faf78f-810c-4236-9bd2-240ec279f221"},"vehicle_type_id":"4","last_reported":1683407154,"current_range_meters":16400,"station_id":"ce4bh492rcd13ifvqdvg","pricing_plan_id":"free"},{"bike_id":"76242f32-c407-44d4-84d7-fa1d50b0f9dc","system_id":"levelo_inurba_marseille","lat":43.32444,"lon":5.40831,"is_reserved":false,"is_disabled":false,"rental_uris":{"android":"levelo://app?vid=76242f32-c407-44d4-84d7-fa1d50b0f9dc","ios":"levelo://app?vid=76242f32-c407-44d4-84d7-fa1d50b0f9dc"},"vehicle_type_id":"4","last_reported":1683407154,"current_range_meters":1600,"station_id":"","pricing_plan_id":"free"},{"bike_id":"78ca9117-ddbe-4996-806a-c6516b633a0f","system_id":"levelo_inurba_marseille","lat":43.283502,"lon":5.386471,"is_reserved":false,"is_disabled":false,"rental_uris":{"android":"levelo://app?vid=78ca9117-ddbe-4996-806a-c6516b633a0f","ios":"levelo://app?vid=78ca9117-ddbe-4996-806a-c6516b633a0f"},"vehicle_type_id":"4","last_reported":1683407154,"current_range_meters":19600,"station_id":"ce4bh492rcd13ifvqdvg","pricing_plan_id":"free"},{"bike_id":"33afa7b2-2a5c-447e-a1a3-19548d644379","system_id":"levelo_inurba_marseille","lat":43.28044,"lon":5.36936,"is_reserved":false,"is_disabled":false,"rental_uris":{"android":"levelo://app?vid=33afa7b2-2a5c-447e-a1a3-19548d644379","ios":"levelo://app?vid=33afa7b2-2a5c-447e-a1a3-19548d644379"},"vehicle_type_id":"4","last_reported":1683407154,"current_range_meters":12000,"station_id":"ce4bha12rcd13ifvqef0","pricing_plan_id":"free"},{"bike_id":"e7f335d5-a110-48aa-8109-6a23b4a0974d","system_id":"levelo_inurba_marseille","lat":43.28041,"lon":5.36926,"is_reserved":false,"is_disabled":false,"rental_uris":{"android":"levelo://app?vid=e7f335d5-a110-48aa-8109-6a23b4a0974d","ios":"levelo://app?vid=e7f335d5-a110-48aa-8109-6a23b4a0974d"},"vehicle_type_id":"4","last_reported":1683407154,"current_range_meters":9200,"station_id":"ce4bha12rcd13ifvqef0","pricing_plan_id":"free"},{"bike_id":"cc270e5c-9e23-44b1-93c8-35f563d2614f","system_id":"levelo_inurba_marseille","lat":43.282624,"lon":5.350578,"is_reserved":false,"is_disabled":false,"rental_uris":{"android":"levelo://app?vid=cc270e5c-9e23-44b1-93c8-35f563d2614f","ios":"levelo://app?vid=cc270e5c-9e23-44b1-93c8-35f563d2614f"},"vehicle_type_id":"4","last_reported":1683407154,"current_range_meters":2000,"station_id":"ce4bhbp2rcd13ifvqerg","pricing_plan_id":"free"},{"bike_id":"bc8b220c-1d8d-4dc7-8a6f-cbfacece3bdf","system_id":"levelo_inurba_marseille","lat":43.28039,"lon":5.36935,"is_reserved":false,"is_disabled":false,"rental_uris":{"android":"levelo://app?vid=bc8b220c-1d8d-4dc7-8a6f-cbfacece3bdf","ios":"levelo://app?vid=bc8b220c-1d8d-4dc7-8a6f-cbfacece3bdf"},"vehicle_type_id":"4","last_reported":1683407154,"current_range_meters":12400,"station_id":"ce4bha12rcd13ifvqef0","pricing_plan_id":"free"},{"bike_id":"2e875d3e-9e55-4b03-8eef-c2b78b092fb9","system_id":"levelo_inurba_marseille","lat":43.280382,"lon":5.369291,"is_reserved":false,"is_disabled":false,"rental_uris":{"android":"levelo://app?vid=2e875d3e-9e55-4b03-8eef-c2b78b092fb9","ios":"levelo://app?vid=2e875d3e-9e55-4b03-8eef-c2b78b092fb9"},"vehicle_type_id":"4","last_reported":1683407154,"current_range_meters":5600,"station_id":"ce4bha12rcd13ifvqef0","pricing_plan_id":"free"},{"bike_id":"4ef604d1-ffd1-4e66-9a76-5c7192359f81","system_id":"levelo_inurba_marseille","lat":43.28038,"lon":5.36941,"is_reserved":false,"is_disabled":false,"rental_uris":{"android":"levelo://app?vid=4ef604d1-ffd1-4e66-9a76-5c7192359f81","ios":"levelo://app?vid=4ef604d1-ffd1-4e66-9a76-5c7192359f81"},"vehicle_type_id":"4","last_reported":1683407154,"current_range_meters":11600,"station_id":"ce4bha12rcd13ifvqef0","pricing_plan_id":"free"},{"bike_id":"4b34aa1d-7404-4b94-9959-b66a829d923f","system_id":"levelo_inurba_marseille","lat":43.28037,"lon":5.36936,"is_reserved":false,"is_disabled":false,"rental_uris":{"android":"levelo://app?vid=4b34aa1d-7404-4b94-9959-b66a829d923f","ios":"levelo://app?vid=4b34aa1d-7404-4b94-9959-b66a829d923f"},"vehicle_type_id":"4","last_reported":1683407154,"current_range_meters":9600,"station_id":"ce4bha12rcd13ifvqef0","pricing_plan_id":"free"},{"bike_id":"f964eb63-016d-4019-951c-d971fb38c8d8","system_id":"levelo_inurba_marseille","lat":43.280382,"lon":5.369291,"is_reserved":false,"is_disabled":false,"rental_uris":{"android":"levelo://app?vid=f964eb63-016d-4019-951c-d971fb38c8d8","ios":"levelo://app?vid=f964eb63-016d-4019-951c-d971fb38c8d8"},"vehicle_type_id":"4","last_reported":1683407154,"current_range_meters":16400,"station_id":"ce4bha12rcd13ifvqef0","pricing_plan_id":"free"},{"bike_id":"30f8c418-30a4-4bbf-91e4-0bd46573dbe7","system_id":"levelo_inurba_marseille","lat":43.283502,"lon":5.386471,"is_reserved":false,"is_disabled":false,"rental_uris":{"android":"levelo://app?vid=30f8c418-30a4-4bbf-91e4-0bd46573dbe7","ios":"levelo://app?vid=30f8c418-30a4-4bbf-91e4-0bd46573dbe7"},"vehicle_type_id":"4","last_reported":1683407154,"current_range_meters":17200,"station_id":"ce4bh492rcd13ifvqdvg","pricing_plan_id":"free"},{"bike_id":"ad148ed3-4756-476a-9d61-b9640a31d26e","system_id":"levelo_inurba_marseille","lat":43.28037,"lon":5.36954,"is_reserved":false,"is_disabled":false,"rental_uris":{"android":"levelo://app?vid=ad148ed3-4756-476a-9d61-b9640a31d26e","ios":"levelo://app?vid=ad148ed3-4756-476a-9d61-b9640a31d26e"},"vehicle_type_id":"4","last_reported":1683407154,"current_range_meters":23600,"station_id":"ce4bha12rcd13ifvqef0","pricing_plan_id":"free"},{"bike_id":"50370add-e654-40ab-9ee4-c36b8862a1ce","system_id":"levelo_inurba_marseille","lat":43.28035,"lon":5.36937,"is_reserved":false,"is_disabled":false,"rental_uris":{"android":"levelo://app?vid=50370add-e654-40ab-9ee4-c36b8862a1ce","ios":"levelo://app?vid=50370add-e654-40ab-9ee4-c36b8862a1ce"},"vehicle_type_id":"4","last_reported":1683407154,"current_range_meters":0,"station_id":"ce4bha12rcd13ifvqef0","pricing_plan_id":"free"},{"bike_id":"980d1eb5-7021-4311-8bd9-5d8a5661d45b","system_id":"levelo_inurba_marseille","lat":43.28033,"lon":5.36938,"is_reserved":false,"is_disabled":false,"rental_uris":{"android":"levelo://app?vid=980d1eb5-7021-4311-8bd9-5d8a5661d45b","ios":"levelo://app?vid=980d1eb5-7021-4311-8bd9-5d8a5661d45b"},"vehicle_type_id":"4","last_reported":1683407154,"current_range_meters":0,"station_id":"ce4bha12rcd13ifvqef0","pricing_plan_id":"free"},{"bike_id":"91222501-7170-401b-8611-ab3c439b3efb","system_id":"levelo_inurba_marseille","lat":43.28031,"lon":5.36939,"is_reserved":false,"is_disabled":false,"rental_uris":{"android":"levelo://app?vid=91222501-7170-401b-8611-ab3c439b3efb","ios":"levelo://app?vid=91222501-7170-401b-8611-ab3c439b3efb"},"vehicle_type_id":"4","last_reported":1683407154,"current_range_meters":0,"station_id":"ce4bha12rcd13ifvqef0","pricing_plan_id":"free"},{"bike_id":"7611a64c-cb9c-4f46-a9a2-11885e7c5b95","system_id":"levelo_inurba_marseille","lat":43.281044,"lon":5.378308,"is_reserved":false,"is_disabled":false,"rental_uris":{"android":"levelo://app?vid=7611a64c-cb9c-4f46-a9a2-11885e7c5b95","ios":"levelo://app?vid=7611a64c-cb9c-4f46-a9a2-11885e7c5b95"},