{"last_updated":1739459426,"ttl":60,"version":"2.2","data":{"bikes":[{"bike_id":"5753a631-bcf5-47c6-a32f-d84924661b65","system_id":"levelo_inurba_marseille","lat":43.31097,"lon":5.3835,"is_reserved":false,"is_disabled":false,"rental_uris":{"android":"levelo://app?vid=5753a631-bcf5-47c6-a32f-d84924661b65","ios":"levelo://app?vid=5753a631-bcf5-47c6-a32f-d84924661b65"},"vehicle_type_id":"4","last_reported":1739459426,"current_range_meters":38800,"station_id":"ce4bgv92rcd13ifvqcr0","pricing_plan_id":"cebpf4jnsgd1na2vs0mg"},{"bike_id":"15145433-cca3-4272-8742-1e4e5029fb1b","system_id":"levelo_inurba_marseille","lat":43.27318,"lon":5.39071,"is_reserved":false,"is_disabled":false,"rental_uris":{"android":"levelo://app?vid=15145433-cca3-4272-8742-1e4e5029fb1b","ios":"levelo://app?vid=15145433-cca3-4272-8742-1e4e5029fb1b"},"vehicle_type_id":"4","last_reported":1739459426,"current_range_meters":8000,"station_id":"ce4bhgp2rcd13ifvqfe0","pricing_plan_id":"cebpf4jnsgd1na2vs0mg"},{"bike_id":"fabe0dc0-e9b8-4510-811e-856b5cccb082","system_id":"levelo_inurba_marseille","lat":43.25503,"lon":5.37644,"is_reserved":false,"is_disabled":true,"rental_uris":{"android":"levelo://app?vid=fabe0dc0-e9b8-4510-811e-856b5cccb082","ios":"levelo://app?vid=fabe0dc0-e9b8-4510-811e-856b5cccb082"},"vehicle_type_id":"4","last_reported":1739459426,"current_range_meters":0,"station_id":"ce4bhh12rcd13ifvqff0","pricing_plan_id":"cebpf4jnsgd1na2vs0mg"},{"bike_id":"8f22e090-8a1e-4881-99f1-3f190cc41710","system_id":"levelo_inurba_marseille","lat":43.31724,"lon":5.42399,"is_reserved":false,"is_disabled":false,"rental_uris":{"android":"levelo://app?vid=8f22e090-8a1e-4881-99f1-3f190cc41710","ios":"levelo://app?vid=8f22e090-8a1e-4881-99f1-3f190cc41710"},"vehicle_type_id":"4","last_reported":1739459426,"current_range_meters":32800,"station_id":"ce4bhp92rcd13ifvqhbg","pricing_plan_id":"cebpf4jnsgd1na2vs0mg"},{"bike_id":"35c96b0b-eb3c-4787-a379-c8c27196e8bc","system_id":"levelo_inurba_marseille","lat":43.32461,"lon":5.3658,"is_reserved":false,"is_disabled":false,"rental_uris":{"android":"levelo://app?vid=35c96b0b-eb3c-4787-a379-c8c27196e8bc","ios":"levelo://app?vid=35c96b0b-eb3c-4787-a379-c8c27196e8bc"},"vehicle_type_id":"4","last_reported":1739459426,"current_range_meters":39200,"station_id":"ce4bhs12rcd13ifvqhvg","pricing_plan_id":"cebpf4jnsgd1na2vs0mg"},{"bike_id":"1d4165b9-e8af-42e7-8e88-54a0f84b4f26","system_id":"levelo_inurba_marseille","lat":43.23185,"lon":5.39956,"is_reserved":false,"is_disabled":false,"rental_uris":{"android":"levelo://app?vid=1d4165b9-e8af-42e7-8e88-54a0f84b4f26","ios":"levelo://app?vid=1d4165b9-e8af-42e7-8e88-54a0f84b4f26"},"vehicle_type_id":"4","last_reported":1739459426,"current_range_meters":34800,"station_id":"ce4bhn12rcd13ifvqgqg","pricing_plan_id":"cebpf4jnsgd1na2vs0mg"},{"bike_id":"f6ef4f9a-c914-4d4b-a06e-00485b64285e","system_id":"levelo_inurba_marseille","lat":43.32479,"lon":5.36597,"is_reserved":false,"is_disabled":false,"rental_uris":{"android":"levelo://app?vid=f6ef4f9a-c914-4d4b-a06e-00485b64285e","ios":"levelo://app?vid=f6ef4f9a-c914-4d4b-a06e-00485b64285e"},"vehicle_type_id":"4","last_reported":1739459426,"current_range_meters":39200,"station_id":"ce4bhs12rcd13ifvqhvg","pricing_plan_id":"cebpf4jnsgd1na2vs0mg"},{"bike_id":"8049ab57-fa03-4d2e-96b6-c6120163d88f","system_id":"levelo_inurba_marseille","lat":43.29717,"lon":5.37695,"is_reserved":false,"is_disabled":false,"rental_uris":{"android":"levelo://app?vid=8049ab57-fa03-4d2e-96b6-c6120163d88f","ios":"levelo://app?vid=8049ab57-fa03-4d2e-96b6-c6120163d88f"},"vehicle_type_id":"4","last_reported":1739459426,"current_range_meters":18000,"station_id":"ce4bgkh2rcd13ifvqbl0","pricing_plan_id":"cebpf4jnsgd1na2vs0mg"},{"bike_id":"c5b9c8e8-628b-4f89-9f2f-4a13e90ff9ce","system_id":"levelo_inurba_marseille","lat":43.29217,"lon":5.36058,"is_reserved":false,"is_disabled":false,"rental_uris":{"android":"levelo://app?vid=c5b9c8e8-628b-4f89-9f2f-4a13e90ff9ce","ios":"levelo://app?vid=c5b9c8e8-628b-4f89-9f2f-4a13e90ff9ce"},"vehicle_type_id":"4","last_reported":1739459426,"current_range_meters":3600,"station_id":"ce4bhbh2rcd13ifvqeqg","pricing_plan_id":"cebpf4jnsgd1na2vs0mg"},{"bike_id":"bbb2097f-1c15-4581-beb5-ee0c580691bf","system_id":"levelo_inurba_marseille","lat":43.27368,"lon":5.36255,"is_reserved":false,"is_disabled":false,"rental_uris":{"android":"levelo://app?vid=bbb2097f-1c15-4581-beb5-ee0c580691bf","ios":"levelo://app?vid=bbb2097f-1c15-4581-beb5-ee0c580691bf"},"vehicle_type_id":"4","last_reported":1739459426,"current_range_meters":8000,"station_id":"ce4bhbh2rcd13ifvqeo0","pricing_plan_id":"cebpf4jnsgd1na2vs0mg"},{"bike_id":"8390feee-0735-4b8f-90c8-f81c741ca7d5","system_id":"levelo_inurba_marseille","lat":43.24821,"lon":5.37444,"is_reserved":false,"is_disabled":false,"rental_uris":{"android":"levelo://app?vid=8390feee-0735-4b8f-90c8-f81c741ca7d5","ios":"levelo://app?vid=8390feee-0735-4b8f-90c8-f81c741ca7d5"},"vehicle_type_id":"4","last_reported":1739459426,"current_range_meters":38000,"station_id":"ce4bhgh2rcd13ifvqfb0","pricing_plan_id":"cebpf4jnsgd1na2vs0mg"},{"bike_id":"15b78c4a-fbbb-4317-935e-93c51e08119c","system_id":"levelo_inurba_marseille","lat":43.26193,"lon":5.37449,"is_reserved":false,"is_disabled":false,"rental_uris":{"android":"levelo://app?vid=15b78c4a-fbbb-4317-935e-93c51e08119c","ios":"levelo://app?vid=15b78c4a-fbbb-4317-935e-93c51e08119c"},"vehicle_type_id":"4","last_reported":1739459426,"current_range_meters":17600,"station_id":"ce4bhgp2rcd13ifvqfc0","pricing_plan_id":"cebpf4jnsgd1na2vs0mg"},{"bike_id":"e45b6582-b2f1-401a-9da1-97acaf3c4841","system_id":"levelo_inurba_marseille","lat":43.27663,"lon":5.38918,"is_reserved":false,"is_disabled":false,"rental_uris":{"android":"levelo://app?vid=e45b6582-b2f1-401a-9da1-97acaf3c4841","ios":"levelo://app?vid=e45b6582-b2f1-401a-9da1-97acaf3c4841"},"vehicle_type_id":"4","last_reported":1739459426,"current_range_meters":36400,"station_id":"ce4bhi12rcd13ifvqfo0","pricing_plan_id":"cebpf4jnsgd1na2vs0mg"},{"bike_id":"1facaff9-cd9d-44f8-8411-f7de3bfc2a18","system_id":"levelo_inurba_marseille","lat":43.31712,"lon":5.42393,"is_reserved":false,"is_disabled":false,"rental_uris":{"android":"levelo://app?vid=1facaff9-cd9d-44f8-8411-f7de3bfc2a18","ios":"levelo://app?vid=1facaff9-cd9d-44f8-8411-f7de3bfc2a18"},"vehicle_type_id":"4","last_reported":1739459426,"current_range_meters":39200,"station_id":"ce4bhp92rcd13ifvqhbg","pricing_plan_id":"cebpf4jnsgd1na2vs0mg"},{"bike_id":"f141a4ba-130b-4cbb-b4e3-7e93c5863ed6","system_id":"levelo_inurba_marseille","lat":43.28265,"lon":5.35086,"is_reserved":false,"is_disabled":false,"rental_uris":{"android":"levelo://app?vid=f141a4ba-130b-4cbb-b4e3-7e93c5863ed6","ios":"levelo://app?vid=f141a4ba-130b-4cbb-b4e3-7e93c5863ed6"},"vehicle_type_id":"4","last_reported":1739459426,"current_range_meters":38800,"station_id":"ce4bhbp2rcd13ifvqerg","pricing_plan_id":"cebpf4jnsgd1na2vs0mg"},{"bike_id":"ac2f5c21-615f-4f60-8b2b-9954adc8ad1d","system_id":"levelo_inurba_marseille","lat":43.29846,"lon":5.36294,"is_reserved":false,"is_disabled":false,"rental_uris":{"android":"levelo://app?vid=ac2f5c21-615f-4f60-8b2b-9954adc8ad1d","ios":"levelo://app?vid=ac2f5c21-615f-4f60-8b2b-9954adc8ad1d"},"vehicle_type_id":"4","last_reported":1739459426,"current_range_meters":38800,"station_id":"ce4bgpp2rcd13ifvqc3g","pricing_plan_id":"cebpf4jnsgd1na2vs0mg"},{"bike_id":"f19b3f6f-e3c3-4220-818d-e5482b0b43b6","system_id":"levelo_inurba_marseille","lat":43.25014,"lon":5.38931,"is_reserved":false,"is_disabled":false,"rental_uris":{"android":"levelo://app?vid=f19b3f6f-e3c3-4220-818d-e5482b0b43b6","ios":"levelo://app?vid=f19b3f6f-e3c3-4220-818d-e5482b0b43b6"},"vehicle_type_id":"4","last_reported":1739459426,"current_range_meters":27200,"station_id":"ce4bhgp2rcd13ifvqfd0","pricing_plan_id":"cebpf4jnsgd1na2vs0mg"},{"bike_id":"728e98ee-4039-4e20-8e76-e8093f76007a","system_id":"levelo_inurba_marseille","lat":43.29046,"lon":5.35909,"is_reserved":false,"is_disabled":false,"rental_uris":{"android":"levelo://app?vid=728e98ee-4039-4e20-8e76-e8093f76007a","ios":"levelo://app?vid=728e98ee-4039-4e20-8e76-e8093f76007a"},"vehicle_type_id":"4","last_reported":1739459426,"current_range_meters":39200,"station_id":"ce4bha92rcd13ifvqeg0","pricing_plan_id":"cebpf4jnsgd1na2vs0mg"},{"bike_id":"21c2ffab-bc10-4a0c-9337-608cc4edff30","system_id":"levelo_inurba_marseille","lat":43.30554,"lon":5.36691,"is_reserved":false,"is_disabled":false,"rental_uris":{"android":"levelo://app?vid=21c2ffab-bc10-4a0c-9337-608cc4edff30","ios":"levelo://app?vid=21c2ffab-bc10-4a0c-9337-608cc4edff30"},"vehicle_type_id":"4","last_reported":1739459426,"current_range_meters":33200,"station_id":"ce4bgrp2rcd13ifvqc9g","pricing_plan_id":"cebpf4jnsgd1na2vs0mg"},{"bike_id":"39e55a90-fe76-4904-bf9c-9841fe168f13","system_id":"levelo_inurba_marseille","lat":43.33715,"lon":5.39188,"is_reserved":false,"is_disabled":false,"rental_uris":{"android":"levelo://app?vid=39e55a90-fe76-4904-bf9c-9841fe168f13","ios":"levelo://app?vid=39e55a90-fe76-4904-bf9c-9841fe168f13"},"vehicle_type_id":"4","last_reported":1739459426,"current_range_meters":38000,"station_id":"ce4bhr92rcd13ifvqhsg","pricing_plan_id":"cebpf4jnsgd1na2vs0mg"},{"bike_id":"9728e9a0-bb2c-471e-b42a-e9db4ba13384","system_id":"levelo_inurba_marseille","lat":43.31379,"lon":5.38513,"is_reserved":false,"is_disabled":false,"rental_uris":{"android":"levelo://app?vid=9728e9a0-bb2c-471e-b42a-e9db4ba13384","ios":"levelo://app?vid=9728e9a0-bb2c-471e-b42a-e9db4ba13384"},"vehicle_type_id":"4","last_reported":1739459426,"current_range_meters":39200,"station_id":"ce4bgt92rcd13ifvqcf0","pricing_plan_id":"cebpf4jnsgd1na2vs0mg"},{"bike_id":"7b830c89-3a1c-4014-a605-109efca81479","system_id":"levelo_inurba_marseille","lat":43.276813,"lon":5.388775,"is_reserved":false,"is_disabled":false,"rental_uris":{"android":"levelo://app?vid=7b830c89-3a1c-4014-a605-109efca81479","ios":"levelo://app?vid=7b830c89-3a1c-4014-a605-109efca81479"},"vehicle_type_id":"4","last_reported":1739459426,"current_range_meters":38800,"station_id":"ce4bhi12rcd13ifvqfo0","pricing_plan_id":"cebpf4jnsgd1na2vs0mg"},{"bike_id":"e7d87bc9-4227-4407-8ee1-acc67439b038","system_id":"levelo_inurba_marseille","lat":43.303,"lon":5.39214,"is_reserved":false,"is_disabled":false,"rental_uris":{"android":"levelo://app?vid=e7d87bc9-4227-4407-8ee1-acc67439b038","ios":"levelo://app?vid=e7d87bc9-4227-4407-8ee1-acc67439b038"},"vehicle_type_id":"4","last_reported":1739459426,"current_range_meters":27600,"station_id":"ce4bgkh2rcd13ifvqbk0","pricing_plan_id":"cebpf4jnsgd1na2vs0mg"},{"bike_id":"74eed58f-1fd9-4ea4-a6c5-9ec97791fe06","system_id":"levelo_inurba_marseille","lat":43.28107,"lon":5.37844,"is_reserved":false,"is_disabled":false,"rental_uris":{"android":"levelo://app?vid=74eed58f-1fd9-4ea4-a6c5-9ec97791fe06","ios":"levelo://app?vid=74eed58f-1fd9-4ea4-a6c5-9ec97791fe06"},"vehicle_type_id":"4","last_reported":1739459426,"current_range_meters":39200,"station_id":"ce4bha12rcd13ifvqee0","pricing_plan_id":"cebpf4jnsgd1na2vs0mg"},{"bike_id":"89c62f29-4120-41fc-aa3b-552b62ebf346","system_id":"levelo_inurba_marseille","lat":43.23206,"lon":5.35541,"is_reserved":false,"is_disabled":true,"rental_uris":{"android":"levelo://app?vid=89c62f29-4120-41fc-aa3b-552b62ebf346","ios":"levelo://app?vid=89c62f29-4120-41fc-aa3b-552b62ebf346"},"vehicle_type_id":"4","last_reported":1739459426,"current_range_meters":0,"station_id":"ce4bhu92rcd13ifvqi70","pricing_plan_id":"cebpf4jnsgd1na2vs0mg"},{"bike_id":"42b429b6-cc6e-4e3e-b0d3-3da6cfb16fd5","system_id":"levelo_inurba_marseille","lat":43.30543,"lon":5.36553,"is_reserved":false,"is_disabled":false,"rental_uris":{"android":"levelo://app?vid=42b429b6-cc6e-4e3e-b0d3-3da6cfb16fd5","ios":"levelo://app?vid=42b429b6-cc6e-4e3e-b0d3-3da6cfb16fd5"},"vehicle_type_id":"4","last_reported":1739459426,"current_range_meters":16400,"station_id":"ce4bgs12rcd13ifvqcag","pricing_plan_id":"cebpf4jnsgd1na2vs0mg"},{"bike_id":"a2fef756-4840-497e-a38a-42c9426c2629","system_id":"levelo_inurba_marseille","lat":43.34154,"lon":5.409,"is_reserved":false,"is_disabled":false,"rental_uris":{"android":"levelo://app?vid=a2fef756-4840-497e-a38a-42c9426c2629","ios":"levelo://app?vid=a2fef756-4840-497e-a38a-42c9426c2629"},"vehicle_type_id":"4","last_reported":1739459426,"current_range_meters":38400,"station_id":"ce4bhqh2rcd13ifvqhlg","pricing_plan_id":"cebpf4jnsgd1na2vs0mg"},{"bike_id":"490eb482-cacf-42b4-9550-9ad0f92fdb65","system_id":"levelo_inurba_marseille","lat":43.337444,"lon":5.374475,"is_reserved":false,"is_disabled":false,"rental_uris":{"android":"levelo://app?vid=490eb482-cacf-42b4-9550-9ad0f92fdb65","ios":"levelo://app?vid=490eb482-cacf-42b4-9550-9ad0f92fdb65"},"vehicle_type_id":"4","last_reported":1739459426,"current_range_meters":36800,"station_id":"ce4bhp92rcd13ifvqhbg","pricing_plan_id":"cebpf4jnsgd1na2vs0mg"},{"bike_id":"8054137f-c573-408f-9225-3700b33ee09c","system_id":"levelo_inurba_marseille","lat":43.30321,"lon":5.36904,"is_reserved":false,"is_disabled":false,"rental_uris":{"android":"levelo://app?vid=8054137f-c573-408f-9225-3700b33ee09c","ios":"levelo://app?vid=8054137f-c573-408f-9225-3700b33ee09c"},"vehicle_type_id":"4","last_reported":1739459426,"current_range_meters":14800,"station_id":"ce4bgqh2rcd13ifvqc5g","pricing_plan_id":"cebpf4jnsgd1na2vs0mg"},{"bike_id":"7eb1d24d-a52a-4169-93d3-46580de34020","system_id":"levelo_inurba_marseille","lat":43.29727,"lon":5.37697,"is_reserved":false,"is_disabled":false,"rental_uris":{"android":"levelo://app?vid=7eb1d24d-a52a-4169-93d3-46580de34020","ios":"levelo://app?vid=7eb1d24d-a52a-4169-93d3-46580de34020"},"vehicle_type_id":"4","last_reported":1739459426,"current_range_meters":37600,"station_id":"ce4bgkh2rcd13ifvqbl0","pricing_plan_id":"cebpf4jnsgd1na2vs0mg"},{"bike_id":"4004e863-e0ca-4122-9424-ab9f70e142e6","system_id":"levelo_inurba_marseille","lat":43.31679,"lon":5.39626,"is_reserved":false,"is_disabled":false,"rental_uris":{"android":"levelo://app?vid=4004e863-e0ca-4122-9424-ab9f70e142e6","ios":"levelo://app?vid=4004e863-e0ca-4122-9424-ab9f70e142e6"},"vehicle_type_id":"4","last_reported":1739459426,"current_range_meters":26800,"station_id":"","pricing_plan_id":"cebpf4jnsgd1na2vs0mg"},{"bike_id":"e971a1e1-f579-417c-8374-dba782041644","system_id":"levelo_inurba_marseille","lat":43.31331,"lon":5.39693,"is_reserved":false,"is_disabled":false,"rental_uris":{"android":"levelo://app?vid=e971a1e1-f579-417c-8374-dba782041644","ios":"levelo://app?vid=e971a1e1-f579-417c-8374-dba782041644"},"vehicle_type_id":"4","last_reported":1739459426,"current_range_meters":5600,"station_id":"ce4bgvp2rcd13ifvqcu0","pricing_plan_id":"cebpf4jnsgd1na2vs0mg"},{"bike_id":"2c6d46bc-15d7-408b-8dbb-d8c4ad5bbf49","system_id":"levelo_inurba_marseille","lat":43.29723,"lon":5.37673,"is_reserved":false,"is_disabled":false,"rental_uris":{"android":"levelo://app?vid=2c6d46bc-15d7-408b-8dbb-d8c4ad5bbf49","ios":"levelo://app?vid=2c6d46bc-15d7-408b-8dbb-d8c4ad5bbf49"},"vehicle_type_id":"4","last_reported":1739459426,"current_range_meters":38800,"station_id":"ce4bgkh2rcd13ifvqbl0","pricing_plan_id":"cebpf4jnsgd1na2vs0mg"},{"bike_id":"03f1ee11-be7f-45e6-a171-a893130e88b6","system_id":"levelo_inurba_marseille","lat":43.29004,"lon":5.356209,"is_reserved":false,"is_disabled":false,"rental_uris":{"android":"levelo://app?vid=03f1ee11-be7f-45e6-a171-a893130e88b6","ios":"levelo://app?vid=03f1ee11-be7f-45e6-a171-a893130e88b6"},"vehicle_type_id":"4","last_reported":1739459426,"current_range_meters":38800,"station_id":"ce4bhb92rcd13ifvqen0","pricing_plan_id":"cebpf4jnsgd1na2vs0mg"},{"bike_id":"704ec19d-e7c0-4858-a423-dcfa560220a5","system_id":"levelo_inurba_marseille","lat":43.23185,"lon":5.39996,"is_reserved":false,"is_disabled":false,"rental_uris":{"android":"levelo://app?vid=704ec19d-e7c0-4858-a423-dcfa560220a5","ios":"levelo://app?vid=704ec19d-e7c0-4858-a423-dcfa560220a5"},"vehicle_type_id":"4","last_reported":1739459426,"current_range_meters":36800,"station_id":"ce4bhn12rcd13ifvqgqg","pricing_plan_id":"cebpf4jnsgd1na2vs0mg"},{"bike_id":"aa9010f5-ddb8-40ac-92f7-6cf7d13e88ae","system_id":"levelo_inurba_marseille","lat":43.2668,"lon":5.3827,"is_reserved":false,"is_disabled":false,"rental_uris":{"android":"levelo://app?vid=aa9010f5-ddb8-40ac-92f7-6cf7d13e88ae","ios":"levelo://app?vid=aa9010f5-ddb8-40ac-92f7-6cf7d13e88ae"},"vehicle_type_id":"4","last_reported":1739459426,"current_range_meters":38000,"station_id":"ce4bhg92rcd13ifvqf90","pricing_plan_id":"cebpf4jnsgd1na2vs0mg"},{"bike_id":"b0127c8f-801f-46cb-9aba-3ca1f95d16f1","system_id":"levelo_inurba_marseille","lat":43.34137,"lon":5.40891,"is_reserved":false,"is_disabled":false,"rental_uris":{"android":"levelo://app?vid=b0127c8f-801f-46cb-9aba-3ca1f95d16f1","ios":"levelo://app?vid=b0127c8f-801f-46cb-9aba-3ca1f95d16f1"},"vehicle_type_id":"4","last_reported":1739459426,"current_range_meters":38800,"station_id":"ce4bhqh2rcd13ifvqhlg","pricing_plan_id":"cebpf4jnsgd1na2vs0mg"},{"bike_id":"9cf8e6d9-67b8-441b-8ab4-08ef8560d2b0","system_id":"levelo_inurba_marseille","lat":43.33487,"lon":5.35606,"is_reserved":false,"is_disabled":true,"rental_uris":{"android":"levelo://app?vid=9cf8e6d9-67b8-441b-8ab4-08ef8560d2b0","ios":"levelo://app?vid=9cf8e6d9-67b8-441b-8ab4-08ef8560d2b0"},"vehicle_type_id":"4","last_reported":1739459426,"current_range_meters":0,"station_id":"","pricing_plan_id":"cebpf4jnsgd1na2vs0mg"},{"bike_id":"62aa960e-a897-43a4-8668-f9a00375bb45","system_id":"levelo_inurba_marseille","lat":43.29299,"lon":5.37464,"is_reserved":false,"is_disabled":false,"rental_uris":{"android":"levelo://app?vid=62aa960e-a897-43a4-8668-f9a00375bb45","ios":"levelo://app?vid=62aa960e-a897-43a4-8668-f9a00375bb45"},"vehicle_type_id":"4","last_reported":1739459426,"current_range_meters":30800,"station_id":"ce4bgi12rcd13ifvqb70","pricing_plan_id":"cebpf4jnsgd1na2vs0mg"},{"bike_id":"b076ea8e-2467-4754-a660-35beb44a3d2f","system_id":"levelo_inurba_marseille","lat":43.23948,"lon":5.36643,"is_reserved":false,"is_disabled":false,"rental_uris":{"android":"levelo://app?vid=b076ea8e-2467-4754-a660-35beb44a3d2f","ios":"levelo://app?vid=b076ea8e-2467-4754-a660-35beb44a3d2f"},"vehicle_type_id":"4","last_reported":1739459426,"current_range_meters":32400,"station_id":"ce4bhi12rcd13ifvqfp0","pricing_plan_id":"cebpf4jnsgd1na2vs0mg"},{"bike_id":"af07c7eb-c636-4be3-9e8e-4133c0ae1ee9","system_id":"levelo_inurba_marseille","lat":43.31719,"lon":5.42396,"is_reserved":false,"is_disabled":false,"rental_uris":{"android":"levelo://app?vid=af07c7eb-c636-4be3-9e8e-4133c0ae1ee9","ios":"levelo://app?vid=af07c7eb-c636-4be3-9e8e-4133c0ae1ee9"},"vehicle_type_id":"4","last_reported":1739459426,"current_range_meters":38000,"station_id":"ce4bhp92rcd13ifvqhbg","pricing_plan_id":"cebpf4jnsgd1na2vs0mg"},{"bike_id":"7e4baaff-43df-45ac-ba99-60d4ee3b5a14","system_id":"levelo_inurba_marseille","lat":43.324831,"lon":5.365813,"is_reserved":false,"is_disabled":false,"rental_uris":{"android":"levelo://app?vid=7e4baaff-43df-45ac-ba99-60d4ee3b5a14","ios":"levelo://app?vid=7e4baaff-43df-45ac-ba99-60d4ee3b5a14"},"vehicle_type_id":"4","last_reported":1739459426,"current_range_meters":36800,"station_id":"ce4bhs12rcd13ifvqhvg","pricing_plan_id":"cebpf4jnsgd1na2vs0mg"},{"bike_id":"7e5520a4-2922-4ff8-9b47-91c4e8c21ca4","system_id":"levelo_inurba_marseille","lat":43.24649,"lon":5.38893,"is_reserved":false,"is_disabled":false,"rental_uris":{"android":"levelo://app?vid=7e5520a4-2922-4ff8-9b47-91c4e8c21ca4","ios":"levelo://app?vid=7e5520a4-2922-4ff8-9b47-91c4e8c21ca4"},"vehicle_type_id":"4","last_reported":1739459426,"current_range_meters":38800,"station_id":"ce4bhg12rcd13ifvqf60","pricing_plan_id":"cebpf4jnsgd1na2vs0mg"},{"bike_id":"b3b257a8-1ba4-45e4-bcf5-1cefcec0a307","system_id":"levelo_inurba_marseille","lat":43.26222,"lon":5.40452,"is_reserved":false,"is_disabled":false,"rental_uris":{"android":"levelo://app?vid=b3b257a8-1ba4-45e4-bcf5-1cefcec0a307","ios":"levelo://app?vid=b3b257a8-1ba4-45e4-bcf5-1cefcec0a307"},"vehicle_type_id":"4","last_reported":1739459426,"current_range_meters":6800,"station_id":"ce4bhmh2rcd13ifvqgmg","pricing_plan_id":"cebpf4jnsgd1na2vs0mg"},{"bike_id":"51ab7186-5043-4bed-baca-73708608a302","system_id":"levelo_inurba_marseille","lat":43.29584,"lon":5.37026,"is_reserved":false,"is_disabled":true,"rental_uris":{"android":"levelo://app?vid=51ab7186-5043-4bed-baca-73708608a302","ios":"levelo://app?vid=51ab7186-5043-4bed-baca-73708608a302"},"vehicle_type_id":"4","last_reported":1739459426,"current_range_meters":0,"station_id":"","pricing_plan_id":"cebpf4jnsgd1na2vs0mg"},{"bike_id":"11a3eb71-ea87-45c9-93d6-1382933fab54","system_id":"levelo_inurba_marseille","lat":43.29038,"lon":5.37568,"is_reserved":false,"is_disabled":false,"rental_uris":{"android":"levelo://app?vid=11a3eb71-ea87-45c9-93d6-1382933fab54","ios":"levelo://app?vid=11a3eb71-ea87-45c9-93d6-1382933fab54"},"vehicle_type_id":"4","last_reported":1739459426,"current_range_meters":22800,"station_id":"ce4bh692rcd13ifvqe90","pricing_plan_id":"cebpf4jnsgd1na2vs0mg"},{"bike_id":"61f90336-da37-4ba7-9c1a-aa2072adf764","system_id":"levelo_inurba_marseille","lat":43.27302,"lon":5.39072,"is_reserved":false,"is_disabled":false,"rental_uris":{"android":"levelo://app?vid=61f90336-da37-4ba7-9c1a-aa2072adf764","ios":"levelo://app?vid=61f90336-da37-4ba7-9c1a-aa2072adf764"},"vehicle_type_id":"4","last_reported":1739459426,"current_range_meters":15200,"station_id":"ce4bhgp2rcd13ifvqfe0","pricing_plan_id":"cebpf4jnsgd1na2vs0mg"},{"bike_id":"d3fc5f7e-9983-4343-a9af-f36df7d45f29","system_id":"levelo_inurba_marseille","lat":43.23189,"lon":5.3997,"is_reserved":false,"is_disabled":false,"rental_uris":{"android":"levelo://app?vid=d3fc5f7e-9983-4343-a9af-f36df7d45f29","ios":"levelo://app?vid=d3fc5f7e-9983-4343-a9af-f36df7d45f29"},"vehicle_type_id":"4","last_reported":1739459426,"current_range_meters":24400,"station_id":"ce4bhn12rcd13ifvqgqg","pricing_plan_id":"cebpf4jnsgd1na2vs0mg"},{"bike_id":"55e64d02-e5e9-41e9-aad2-19c337414e2b","system_id":"levelo_inurba_marseille","lat":43.2794,"lon":5.41048,"is_reserved":false,"is_disabled":false,"rental_uris":{"android":"levelo://app?vid=55e64d02-e5e9-41e9-aad2-19c337414e2b","ios":"levelo://app?vid=55e64d02-e5e9-41e9-aad2-19c337414e2b"},"vehicle_type_id":"4","last_reported":1739459426,"current_range_meters":6000,"station_id":"ce4bhnp2rcd13ifvqh0g","pricing_plan_id":"cebpf4jnsgd1na2vs0mg"},{"bike_id":"d404dc05-2ed7-4f28-a2fc-536c81df43bc","system_id":"levelo_inurba_marseille","lat":43.26785,"lon":5.39414,"is_reserved":false,"is_disabled":false,"rental_uris":{"android":"levelo://app?vid=d404dc05-2ed7-4f28-a2fc-536c81df43bc","ios":"levelo://app?vid=d404dc05-2ed7-4f28-a2fc-536c81df43bc"},"vehicle_type_id":"4","last_reported":1739459426,"current_range_meters":38400,"station_id":"ce4bhh12rcd13ifvqfg0","pricing_plan_id":"cebpf4jnsgd1na2vs0mg"},{"bike_id":"48b9bfa7-0244-4064-82ca-4997fd164f91","system_id":"levelo_inurba_marseille","lat":43.27318,"lon":5.39091,"is_reserved":false,"is_disabled":false,"rental_uris":{"android":"levelo://app?vid=48b9bfa7-0244-4064-82ca-4997fd164f91","ios":"levelo://app?vid=48b9bfa7-0244-4064-82ca-4997fd164f91"},"vehicle_type_id":"4","last_reported":1739459426,"current_range_meters":11200,"station_id":"ce4bhgp2rcd13ifvqfe0","pricing_plan_id":"cebpf4jnsgd1na2vs0mg"},{"bike_id":"04c95be6-a0ce-4086-93e0-daddef84fbf8","system_id":"levelo_inurba_marseille","lat":43.29525,"lon":5.39038,"is_reserved":false,"is_disabled":false,"rental_uris":{"android":"levelo://app?vid=04c95be6-a0ce-4086-93e0-daddef84fbf8","ios":"levelo://app?vid=04c95be6-a0ce-4086-93e0-daddef84fbf8"},"vehicle_type_id":"4","last_reported":1739459426,"current_range_meters":38800,"station_id":"ce4bh3p2rcd13ifvqdp0","pricing_plan_id":"cebpf4jnsgd1na2vs0mg"},{"bike_id":"dff784b9-040c-429d-b847-08ccef8ffbe4","system_id":"levelo_inurba_marseille","lat":43.24816,"lon":5.37444,"is_reserved":false,"is_disabled":false,"rental_uris":{"android":"levelo://app?vid=dff784b9-040c-429d-b847-08ccef8ffbe4","ios":"levelo://app?vid=dff784b9-040c-429d-b847-08ccef8ffbe4"},"vehicle_type_id":"4","last_reported":1739459426,"current_range_meters":20400,"station_id":"ce4bhgh2rcd13ifvqfb0","pricing_plan_id":"cebpf4jnsgd1na2vs0mg"},{"bike_id":"a61d6b5f-4a27-4214-8f2c-87ee2f960be7","system_id":"levelo_inurba_marseille","lat":43.23153,"lon":5.43709,"is_reserved":false,"is_disabled":true,"rental_uris":{"android":"levelo://app?vid=a61d6b5f-4a27-4214-8f2c-87ee2f960be7","ios":"levelo://app?vid=a61d6b5f-4a27-4214-8f2c-87ee2f960be7"},"vehicle_type_id":"4","last_reported":1739459426,"current_range_meters":400,"station_id":"ce4bhmp2rcd13ifvqgog","pricing_plan_id":"cebpf4jnsgd1na2vs0mg"},{"bike_id":"83ead89d-7307-4fdc-b0ac-67471a6fecef","system_id":"levelo_inurba_marseille","lat":43.30587,"lon":5.36658,"is_reserved":false,"is_disabled":false,"rental_uris":{"android":"levelo://app?vid=83ead89d-7307-4fdc-b0ac-67471a6fecef","ios":"levelo://app?vid=83ead89d-7307-4fdc-b0ac-67471a6fecef"},"vehicle_type_id":"4","last_reported":1739459426,"current_range_meters":28800,"station_id":"","pricing_plan_id":"cebpf4jnsgd1na2vs0mg"},{"bike_id":"ee079ffa-4416-4a91-bc98-3bd665acea3b","system_id":"levelo_inurba_marseille","lat":43.33731,"lon":5.39178,"is_reserved":false,"is_disabled":false,"rental_uris":{"android":"levelo://app?vid=ee079ffa-4416-4a91-bc98-3bd665acea3b","ios":"levelo://app?vid=ee079ffa-4416-4a91-bc98-3bd665acea3b"},"vehicle_type_id":"4","last_reported":1739459426,"current_range_meters":38800,"station_id":"ce4bhr92rcd13ifvqhsg","pricing_plan_id":"cebpf4jnsgd1na2vs0mg"},{"bike_id":"1fa82dc6-47d4-4356-bbca-393bf4461726","system_id":"levelo_inurba_marseille","lat":43.23956,"lon":5.36628,"is_reserved":false,"is_disabled":false,"rental_uris":{"android":"levelo://app?vid=1fa82dc6-47d4-4356-bbca-393bf4461726","ios":"levelo://app?vid=1fa82dc6-47d4-4356-bbca-393bf4461726"},"vehicle_type_id":"4","last_reported":1739459426,"current_range_meters":38800,"station_id":"ce4bhi12rcd13ifvqfp0","pricing_plan_id":"cebpf4jnsgd1na2vs0mg"},{"bike_id":"2355c6e5-09c3-4950-a7a8-dbebf456e6b5","system_id":"levelo_inurba_marseille","lat":43.3079,"lon":5.36638,"is_reserved":false,"is_disabled":false,"rental_uris":{"android":"levelo://app?vid=2355c6e5-09c3-4950-a7a8-dbebf456e6b5","ios":"levelo://app?vid=2355c6e5-09c3-4950-a7a8-dbebf456e6b5"},"vehicle_type_id":"4","last_reported":1739459426,"current_range_meters":22400,"station_id":"","pricing_plan_id":"cebpf4jnsgd1na2vs0mg"},{"bike_id":"f883adf9-ab19-45e2-ba0c-a67d68e9282a","system_id":"levelo_inurba_marseille","lat":43.24545,"lon":5.39527,"is_reserved":false,"is_disabled":false,"rental_uris":{"android":"levelo://app?vid=f883adf9-ab19-45e2-ba0c-a67d68e9282a","ios":"levelo://app?vid=f883adf9-ab19-45e2-ba0c-a67d68e9282a"},"vehicle_type_id":"4","last_reported":1739459426,"current_range_meters":24000,"station_id":"ce4bhlp2rcd13ifvqgjg","pricing_plan_id":"cebpf4jnsgd1na2vs0mg"},{"bike_id":"8e593ab1-3bb8-4075-9eb6-a83f94403b76","system_id":"levelo_inurba_marseille","lat":43.23196,"lon":5.35553,"is_reserved":false,"is_disabled":false,"rental_uris":{"android":"levelo://app?vid=8e593ab1-3bb8-4075-9eb6-a83f94403b76","ios":"levelo://app?vid=8e593ab1-3bb8-4075-9eb6-a83f94403b76"},"vehicle_type_id":"4","last_reported":1739459426,"current_range_meters":13600,"station_id":"ce4bhu92rcd13ifvqi70","pricing_plan_id":"cebpf4jnsgd1na2vs0mg"},{"bike_id":"93cabce3-58dd-4607-8727-b622e6b7f5b9","system_id":"levelo_inurba_marseille","lat":43.24401,"lon":5.37048,"is_reserved":false,"is_disabled":false,"rental_uris":{"android":"levelo://app?vid=93cabce3-58dd-4607-8727-b622e6b7f5b9","ios":"levelo://app?vid=93cabce3-58dd-4607-8727-b622e6b7f5b9"},"vehicle_type_id":"4","last_reported":1739459426,"current_range_meters":38800,"station_id":"ce4bhhh2rcd13ifvqfk0","pricing_plan_id":"cebpf4jnsgd1na2vs0mg"},{"bike_id":"73204b29-ec32-4146-8fea-bcca13682a2a","system_id":"levelo_inurba_marseille","lat":43.24777,"lon":5.37448,"is_reserved":false,"is_disabled":false,"rental_uris":{"android":"levelo://app?vid=73204b29-ec32-4146-8fea-bcca13682a2a","ios":"levelo://app?vid=73204b29-ec32-4146-8fea-bcca13682a2a"},"vehicle_type_id":"4","last_reported":1739459426,"current_range_meters":22000,"station_id":"ce4bhgh2rcd13ifvqfb0","pricing_plan_id":"cebpf4jnsgd1na2vs0mg"},{"bike_id":"937331fc-dce0-44f6-bf69-c17607720931","system_id":"levelo_inurba_marseille","lat":43.29552,"lon":5.42293,"is_reserved":false,"is_disabled":false,"rental_uris":{"android":"levelo://app?vid=937331fc-dce0-44f6-bf69-c17607720931","ios":"levelo://app?vid=937331fc-dce0-44f6-bf69-c17607720931"},"vehicle_type_id":"4","last_reported":1739459426,"current_range_meters":36000,"station_id":"ce4bhph2rcd13ifvqhdg","pricing_plan_id":"cebpf4jnsgd1na2vs0mg"},{"bike_id":"b85f089e-bcba-493c-8108-fb98e760e842","system_id":"levelo_inurba_marseille","lat":43.32465,"lon":5.36561,"is_reserved":false,"is_disabled":false,"rental_uris":{"android":"levelo://app?vid=b85f089e-bcba-493c-8108-fb98e760e842","ios":"levelo://app?vid=b85f089e-bcba-493c-8108-fb98e760e842"},"vehicle_type_id":"4","last_reported":1739459426,"current_range_meters":39200,"station_id":"ce4bhs12rcd13ifvqhvg","pricing_plan_id":"cebpf4jnsgd1na2vs0mg"},{"bike_id":"d1e6b517-b6c2-4320-8222-419cb00ef868","system_id":"levelo_inurba_marseille","lat":43.30314,"lon":5.36893,"is_reserved":false,"is_disabled":false,"rental_uris":{"android":"levelo://app?vid=d1e6b517-b6c2-4320-8222-419cb00ef868","ios":"levelo://app?vid=d1e6b517-b6c2-4320-8222-419cb00ef868"},"vehicle_type_id":"4","last_reported":1739459426,"current_range_meters":18000,"station_id":"ce4bgqh2rcd13ifvqc5g","pricing_plan_id":"cebpf4jnsgd1na2vs0mg"},{"bike_id":"1e50abb4-045b-48f5-92b6-0552e964e3dc","system_id":"levelo_inurba_marseille","lat":43.31267,"lon":5.3688,"is_reserved":false,"is_disabled":false,"rental_uris":{"android":"levelo://app?vid=1e50abb4-045b-48f5-92b6-0552e964e3dc","ios":"levelo://app?vid=1e50abb4-045b-48f5-92b6-0552e964e3dc"},"vehicle_type_id":"4","last_reported":1739459426,"current_range_meters":22800,"station_id":"","pricing_plan_id":"cebpf4jnsgd1na2vs0mg"},{"bike_id":"d674d394-04ab-4838-a267-bcdd8affd803","system_id":"levelo_inurba_marseille","lat":43.30804,"lon":5.43516,"is_reserved":false,"is_disabled":false,"rental_uris":{"android":"levelo://app?vid=d674d394-04ab-4838-a267-bcdd8affd803","ios":"levelo://app?vid=d674d394-04ab-4838-a267-bcdd8affd803"},"vehicle_type_id":"4","last_reported":1739459426,"current_range_meters":38800,"station_id":"ce4bhph2rcd13ifvqheg","pricing_plan_id":"cebpf4jnsgd1na2vs0mg"},{"bike_id":"590cfcf2-5e7b-4f35-ab48-f4871a4adecb","system_id":"levelo_inurba_marseille","lat":43.28454,"lon":5.3588,"is_reserved":false,"is_disabled":false,"rental_uris":{"android":"levelo://app?vid=590cfcf2-5e7b-4f35-ab48-f4871a4adecb","ios":"levelo://app?vid=590cfcf2-5e7b-4f35-ab48-f4871a4adecb"},"vehicle_type_id":"4","last_reported":1739459426,"current_range_meters":9600,"station_id":"ce4bhah2rcd13ifvqei0","pricing_plan_id":"cebpf4jnsgd1na2vs0mg"},{"bike_id":"bb7ce7df-c94f-4247-810b-de887606b08d","system_id":"levelo_inurba_marseille","lat":43.2396,"lon":5.36628,"is_reserved":false,"is_disabled":false,"rental_uris":{"android":"levelo://app?vid=bb7ce7df-c94f-4247-810b-de887606b08d","ios":"levelo://app?vid=bb7ce7df-c94f-4247-810b-de887606b08d"},"vehicle_type_id":"4","last_reported":1739459426,"current_range_meters":28400,"station_id":"ce4bhi12rcd13ifvqfp0","pricing_plan_id":"cebpf4jnsgd1na2vs0mg"},{"bike_id":"3c972bc6-571f-4946-9dde-c7f43d4c71a0","system_id":"levelo_inurba_marseille","lat":43.324869,"lon":5.365595,"is_reserved":false,"is_disabled":false,"rental_uris":{"android":"levelo://app?vid=3c972bc6-571f-4946-9dde-c7f43d4c71a0","ios":"levelo://app?vid=3c972bc6-571f-4946-9dde-c7f43d4c71a0"},"vehicle_type_id":"4","last_reported":1739459426,"current_range_meters":24400,"station_id":"ce4bhs12rcd13ifvqhvg","pricing_plan_id":"cebpf4jnsgd1na2vs0mg"},{"bike_id":"6b1382b1-501b-4d34-b4fd-44f784257f34","system_id":"levelo_inurba_marseille","lat":43.27374,"lon":5.36261,"is_reserved":false,"is_disabled":false,"rental_uris":{"android":"levelo://app?vid=6b1382b1-501b-4d34-b4fd-44f784257f34","ios":"levelo://app?vid=6b1382b1-501b-4d34-b4fd-44f784257f34"},"vehicle_type_id":"4","last_reported":1739459426,"current_range_meters":32800,"station_id":"ce4bhbh2rcd13ifvqeo0","pricing_plan_id":"cebpf4jnsgd1na2vs0mg"},{"bike_id":"f862acd9-5bff-4a8b-93e8-8bb7714848e2","system_id":"levelo_inurba_marseille","lat":43.279557,"lon":5.387427,"is_reserved":false,"is_disabled":false,"rental_uris":{"android":"levelo://app?vid=f862acd9-5bff-4a8b-93e8-8bb7714848e2","ios":"levelo://app?vid=f862acd9-5bff-4a8b-93e8-8bb7714848e2"},"vehicle_type_id":"4","last_reported":1739459426,"current_range_meters":38800,"station_id":"ce4bhg12rcd13ifvqf80","pricing_plan_id":"cebpf4jnsgd1na2vs0mg"},{"bike_id":"0cd6f2a7-914d-403b-96cc-ea6467287208","system_id":"levelo_inurba_marseille","lat":43.2985,"lon":5.36256,"is_reserved":false,"is_disabled":false,"rental_uris":{"android":"levelo://app?vid=0cd6f2a7-914d-403b-96cc-ea6467287208","ios":"levelo://app?vid=0cd6f2a7-914d-403b-96cc-ea6467287208"},"vehicle_type_id":"4","last_reported":1739459426,"current_range_meters":38800,"station_id":"ce4bgpp2rcd13ifvqc3g","pricing_plan_id":"cebpf4jnsgd1na2vs0mg"},{"bike_id":"08a86ebb-b290-4f14-9520-6a5a716f26bd","system_id":"levelo_inurba_marseille","lat":43.2396,"lon":5.36632,"is_reserved":false,"is_disabled":false,"rental_uris":{"android":"levelo://app?vid=08a86ebb-b290-4f14-9520-6a5a716f26bd","ios":"levelo://app?vid=08a86ebb-b290-4f14-9520-6a5a716f26bd"},"vehicle_type_id":"4","last_reported":1739459426,"current_range_meters":38800,"station_id":"ce4bhi12rcd13ifvqfp0","pricing_plan_id":"cebpf4jnsgd1na2vs0mg"},{"bike_id":"6362738c-ded2-41a5-acbc-a12787f9eefd","system_id":"levelo_inurba_marseille","lat":43.29638,"lon":5.37166,"is_reserved":false,"is_disabled":false,"rental_uris":{"android":"levelo://app?vid=6362738c-ded2-41a5-acbc-a12787f9eefd","ios":"levelo://app?vid=6362738c-ded2-41a5-acbc-a12787f9eefd"},"vehicle_type_id":"4","last_reported":1739459426,"current_range_meters":38400,"station_id":"ce4bgnh2rcd13ifvqc0g","pricing_plan_id":"cebpf4jnsgd1na2vs0mg"},{"bike_id":"3c028a5f-9501-4830-9c4b-22120dae6bf5","system_id":"levelo_inurba_marseille","lat":43.269414,"lon":5.402528,"is_reserved":false,"is_disabled":false,"rental_uris":{"android":"levelo://app?vid=3c028a5f-9501-4830-9c4b-22120dae6bf5","ios":"levelo://app?vid=3c028a5f-9501-4830-9c4b-22120dae6bf5"},"vehicle_type_id":"4","last_reported":1739459426,"current_range_meters":34800,"station_id":"cjm6bp8fraef2m0cb0m0","pricing_plan_id":"cebpf4jnsgd1na2vs0mg"},{"bike_id":"23849fcd-4bc4-44f6-8337-e9a9a16fe0e7","system_id":"levelo_inurba_marseille","lat":43.29737,"lon":5.47957,"is_reserved":false,"is_disabled":false,"rental_uris":{"android":"levelo://app?vid=23849fcd-4bc4-44f6-8337-e9a9a16fe0e7","ios":"levelo://app?vid=23849fcd-4bc4-44f6-8337-e9a9a16fe0e7"},"vehicle_type_id":"4","last_reported":1739459426,"current_range_meters":8000,"station_id":"","pricing_plan_id":"cebpf4jnsgd1na2vs0mg"},{"bike_id":"84cb827b-e4de-4376-b327-f7deaaadddfc","system_id":"levelo_inurba_marseille","lat":43.31315,"lon":5.39713,"is_reserved":false,"is_disabled":false,"rental_uris":{"android":"levelo://app?vid=84cb827b-e4de-4376-b327-f7deaaadddfc","ios":"levelo://app?vid=84cb827b-e4de-4376-b327-f7deaaadddfc"},"vehicle_type_id":"4","last_reported":1739459426,"current_range_meters":35200,"station_id":"ce4bgvp2rcd13ifvqcu0","pricing_plan_id":"cebpf4jnsgd1na2vs0mg"},{"bike_id":"6cfbf51a-4ec4-4b50-afa2-a58eb7355bc4","system_id":"levelo_inurba_marseille","lat":43.32723,"lon":5.39159,"is_reserved":false,"is_disabled":false,"rental_uris":{"android":"levelo://app?vid=6cfbf51a-4ec4-4b50-afa2-a58eb7355bc4","ios":"levelo://app?vid=6cfbf51a-4ec4-4b50-afa2-a58eb7355bc4"},"vehicle_type_id":"4","last_reported":1739459426,"current_range_meters":26800,"station_id":"","pricing_plan_id":"cebpf4jnsgd1na2vs0mg"},{"bike_id":"01ecade8-42d0-4557-a2fb-d9f8cac78f27","system_id":"levelo_inurba_marseille","lat":43.23063,"lon":5.35495,"is_reserved":false,"is_disabled":false,"rental_uris":{"android":"levelo://app?vid=01ecade8-42d0-4557-a2fb-d9f8cac78f27","ios":"levelo://app?vid=01ecade8-42d0-4557-a2fb-d9f8cac78f27"},"vehicle_type_id":"4","last_reported":1739459426,"current_range_meters":9200,"station_id":"cpo3342slgdg3j2ifvpg","pricing_plan_id":"cebpf4jnsgd1na2vs0mg"},{"bike_id":"39caa847-b837-4440-a510-689edd01525f","system_id":"levelo_inurba_marseille","lat":43.23962,"lon":5.36632,"is_reserved":false,"is_disabled":false,"rental_uris":{"android":"levelo://app?vid=39caa847-b837-4440-a510-689edd01525f","ios":"levelo://app?vid=39caa847-b837-4440-a510-689edd01525f"},"vehicle_type_id":"4","last_reported":1739459426,"current_range_meters":24800,"station_id":"ce4bhi12rcd13ifvqfp0","pricing_plan_id":"cebpf4jnsgd1na2vs0mg"},{"bike_id":"90069231-8d02-46fd-ba3f-d8e7e83900ee","system_id":"levelo_inurba_marseille","lat":43.28839,"lon":5.43813,"is_reserved":false,"is_disabled":true,"rental_uris":{"android":"levelo://app?vid=90069231-8d02-46fd-ba3f-d8e7e83900ee","ios":"levelo://app?vid=90069231-8d02-46fd-ba3f-d8e7e83900ee"},"vehicle_type_id":"4","last_reported":1739459426,"current_range_meters":0,"station_id":"","pricing_plan_id":"cebpf4jnsgd1na2vs0mg"},{"bike_id":"9d249881-5a15-4231-8a5b-9e0b021f19d2","system_id":"levelo_inurba_marseille","lat":43.27988,"lon":5.38654,"is_reserved":false,"is_disabled":true,"rental_uris":{"android":"levelo://app?vid=9d249881-5a15-4231-8a5b-9e0b021f19d2","ios":"levelo://app?vid=9d249881-5a15-4231-8a5b-9e0b021f19d2"},"vehicle_type_id":"4","last_reported":1739459426,"current_range_meters":36000,"station_id":"","pricing_plan_id":"cebpf4jnsgd1na2vs0mg"},{"bike_id":"7c2db12f-c5d4-4c56-825b-76a7472f7f92","system_id":"levelo_inurba_marseille","lat":43.23148,"lon":5.43707,"is_reserved":false,"is_disabled":true,"rental_uris":{"android":"levelo://app?vid=7c2db12f-c5d4-4c56-825b-76a7472f7f92","ios":"levelo://app?vid=7c2db12f-c5d4-4c56-825b-76a7472f7f92"},"vehicle_type_id":"4","last_reported":1739459426,"current_range_meters":0,"station_id":"ce4bhmp2rcd13ifvqgog","pricing_plan_id":"cebpf4jnsgd1na2vs0mg"},{"bike_id":"1197363b-8b66-4a7f-a57b-5c2dad4c9493","system_id":"levelo_inurba_marseille","lat":43.29615,"lon":5.37167,"is_reserved":false,"is_disabled":false,"rental_uris":{"android":"levelo://app?vid=1197363b-8b66-4a7f-a57b-5c2dad4c9493","ios":"levelo://app?vid=1197363b-8b66-4a7f-a57b-5c2dad4c9493"},"vehicle_type_id":"4","last_reported":1739459426,"current_range_meters":27600,"station_id":"ce4bgnh2rcd13ifvqc0g","pricing_plan_id":"cebpf4jnsgd1na2vs0mg"},{"bike_id":"1739bcfd-3cfe-46fa-bed1-d5d83b6ff884","system_id":"levelo_inurba_marseille","lat":43.30421,"lon":5.38884,"is_reserved":false,"is_disabled":false,"rental_uris":{"android":"levelo://app?vid=1739bcfd-3cfe-46fa-bed1-d5d83b6ff884","ios":"levelo://app?vid=1739bcfd-3cfe-46fa-bed1-d5d83b6ff884"},"vehicle_type_id":"4","last_reported":1739459426,"current_range_meters":16800,"station_id":"ce4bgk12rcd13ifvqbi0","pricing_plan_id":"cebpf4jnsgd1na2vs0mg"},{"bike_id":"d1de7867-d125-47c8-8a90-8eabb1d25537","system_id":"levelo_inurba_marseille","lat":43.25689,"lon":5.41067,"is_reserved":false,"is_disabled":false,"rental_uris":{"android":"levelo://app?vid=d1de7867-d125-47c8-8a90-8eabb1d25537","ios":"levelo://app?vid=d1de7867-d125-47c8-8a90-8eabb1d25537"},"vehicle_type_id":"4","last_reported":1739459426,"current_range_meters":37600,"station_id":"ce4bhkp2rcd13ifvqgd0","pricing_plan_id":"cebpf4jnsgd1na2vs0mg"},{"bike_id":"9aafad7f-9abd-4452-b8c1-10b87cede291","system_id":"levelo_inurba_marseille","lat":43.28099,"lon":5.3782,"is_reserved":false,"is_disabled":false,"rental_uris":{"android":"levelo://app?vid=9aafad7f-9abd-4452-b8c1-10b87cede291","ios":"levelo://app?vid=9aafad7f-9abd-4452-b8c1-10b87cede291"},"vehicle_type_id":"4","last_reported":1739459426,"current_range_meters":29600,"station_id":"ce4bha12rcd13ifvqee0","pricing_plan_id":"cebpf4jnsgd1na2vs0mg"},{"bike_id":"a28b8174-0d2e-4fbc-a13c-72ac707973ae","system_id":"levelo_inurba_marseille","lat":43.30905,"lon":5.36852,"is_reserved":false,"is_disabled":false,"rental_uris":{"android":"levelo://app?vid=a28b8174-0d2e-4fbc-a13c-72ac707973ae","ios":"levelo://app?vid=a28b8174-0d2e-4fbc-a13c-72ac707973ae"},"vehicle_type_id":"4","last_reported":1739459426,"current_range_meters":38400,"station_id":"ce4bgn92rcd13ifvqbvg","pricing_plan_id":"cebpf4jnsgd1na2vs0mg"},{"bike_id":"cf5c922b-59a3-4fa2-863e-b1e48304b5b9","system_id":"levelo_inurba_marseille","lat":43.276859,"lon":5.388892,"is_reserved":false,"is_disabled":false,"rental_uris":{"android":"levelo://app?vid=cf5c922b-59a3-4fa2-863e-b1e48304b5b9","ios":"levelo://app?vid=cf5c922b-59a3-4fa2-863e-b1e48304b5b9"},"vehicle_type_id":"4","last_reported":1739459426,"current_range_meters":38800,"station_id":"ce4bhi12rcd13ifvqfo0","pricing_plan_id":"cebpf4jnsgd1na2vs0mg"},{"bike_id":"70617585-289d-477e-b3bd-01213e273ed0","system_id":"levelo_inurba_marseille","lat":43.24807,"lon":5.37451,"is_reserved":false,"is_disabled":false,"rental_uris":{"android":"levelo://app?vid=70617585-289d-477e-b3bd-01213e273ed0","ios":"levelo://app?vid=70617585-289d-477e-b3bd-01213e273ed0"},"vehicle_type_id":"4","last_reported":1739459426,"current_range_meters":36000,"station_id":"ce4bhgh2rcd13ifvqfb0","pricing_plan_id":"cebpf4jnsgd1na2vs0mg"},{"bike_id":"7b35ec91-75d0-476a-8303-ae83c6d3cb50","system_id":"levelo_inurba_marseille","lat":43.24802,"lon":5.37463,"is_reserved":false,"is_disabled":false,"rental_uris":{"android":"levelo://app?vid=7b35ec91-75d0-476a-8303-ae83c6d3cb50","ios":"levelo://app?vid=7b35ec91-75d0-476a-8303-ae83c6d3cb50"},"vehicle_type_id":"4","last_reported":1739459426,"current_range_meters":38800,"station_id":"ce4bhgh2rcd13ifvqfb0","pricing_plan_id":"cebpf4jnsgd1na2vs0mg"},{"bike_id":"db8efb87-96c8-4643-a156-c921a3d56201","system_id":"levelo_inurba_marseille","lat":43.32028,"lon":5.41563,"is_reserved":false,"is_disabled":false,"rental_uris":{"android":"levelo://app?vid=db8efb87-96c8-4643-a156-c921a3d56201","ios":"levelo://app?vid=db8efb87-96c8-4643-a156-c921a3d56201"},"vehicle_type_id":"4","last_reported":1739459426,"current_range_meters":17600,"station_id":"ce4bhq92rcd13ifvqhkg","pricing_plan_id":"cebpf4jnsgd1na2vs0mg"},{"bike_id":"60b4b24c-997c-42e2-b2f9-ef7d673c1e51","system_id":"levelo_inurba_marseille","lat":43.28446,"lon":5.35892,"is_reserved":false,"is_disabled":false,"rental_uris":{"android":"levelo://app?vid=60b4b24c-997c-42e2-b2f9-ef7d673c1e51","ios":"levelo://app?vid=60b4b24c-997c-42e2-b2f9-ef7d673c1e51"},"vehicle_type_id":"4","last_reported":1739459426,"current_range_meters":28000,"station_id":"ce4bhah2rcd13ifvqei0","pricing_plan_id":"cebpf4jnsgd1na2vs0mg"},{"bike_id":"26d66e6c-9d5a-4e29-b5a3-b5946cb14548","system_id":"levelo_inurba_marseille","lat":43.28727,"lon":5.37936,"is_reserved":false,"is_disabled":false,"rental_uris":{"android":"levelo://app?vid=26d66e6c-9d5a-4e29-b5a3-b5946cb14548","ios":"levelo://app?vid=26d66e6c-9d5a-4e29-b5a3-b5946cb14548"},"vehicle_type_id":"4","last_reported":1739459426,"current_range_meters":32400,"station_id":"ce4bh9p2rcd13ifvqec0","pricing_plan_id":"cebpf4jnsgd1na2vs0mg"},{"bike_id":"04f164ff-9f88-44b7-9c9d-bbcde20843f4","system_id":"levelo_inurba_marseille","lat":43.27365,"lon":5.36253,"is_reserved":false,"is_disabled":false,"rental_uris":{"android":"levelo://app?vid=04f164ff-9f88-44b7-9c9d-bbcde20843f4","ios":"levelo://app?vid=04f164ff-9f88-44b7-9c9d-bbcde20843f4"},"vehicle_type_id":"4","last_reported":1739459426,"current_range_meters":38800,"station_id":"ce4bhbh2rcd13ifvqeo0","pricing_plan_id":"cebpf4jnsgd1na2vs0mg"},{"bike_id":"c2250f20-2283-4e17-b7ce-382f2f740aa1","system_id":"levelo_inurba_marseille","lat":43.24812,"lon":5.37461,"is_reserved":false,"is_disabled":false,"rental_uris":{"android":"levelo://app?vid=c2250f20-2283-4e17-b7ce-382f2f740aa1","ios":"levelo://app?vid=c2250f20-2283-4e17-b7ce-382f2f740aa1"},"vehicle_type_id":"4","last_reported":1739459426,"current_range_meters":38800,"station_id":"ce4bhgh2rcd13ifvqfb0","pricing_plan_id":"cebpf4jnsgd1na2vs0mg"},{"bike_id":"4106af23-dcc0-4854-a5e1-c826a2391754","system_id":"levelo_inurba_marseille","lat":43.27372,"lon":5.36259,"is_reserved":false,"is_disabled":false,"rental_uris":{"android":"levelo://app?vid=4106af23-dcc0-4854-a5e1-c826a2391754","ios":"levelo://app?vid=4106af23-dcc0-4854-a5e1-c826a2391754"},"vehicle_type_id":"4","last_reported":1739459426,"current_range_meters":34000,"station_id":"ce4bhbh2rcd13ifvqeo0","pricing_plan_id":"cebpf4jnsgd1na2vs0mg"},{"bike_id":"79e5ad63-abd5-4d07-9e51-60dc9e7253cd","system_id":"levelo_inurba_marseille","lat":43.23177,"lon":5.400378,"is_reserved":false,"is_disabled":true,"rental_uris":{"android":"levelo://app?vid=79e5ad63-abd5-4d07-9e51-60dc9e7253cd","ios":"levelo://app?vid=79e5ad63-abd5-4d07-9e51-60dc9e7253cd"},"vehicle_type_id":"4","last_reported":1739459426,"current_range_meters":2000,"station_id":"ce4bhn12rcd13ifvqgqg","pricing_plan_id":"cebpf4jnsgd1na2vs0mg"},{"bike_id":"d4b34abf-2575-4bec-8e43-78d3f2fe0a75","system_id":"levelo_inurba_marseille","lat":43.31685,"lon":5.40476,"is_reserved":false,"is_disabled":false,"rental_uris":{"android":"levelo://app?vid=d4b34abf-2575-4bec-8e43-78d3f2fe0a75","ios":"levelo://app?vid=d4b34abf-2575-4bec-8e43-78d3f2fe0a75"},"vehicle_type_id":"4","last_reported":1739459426,"current_range_meters":30400,"station_id":"ce4bh012rcd13ifvqd00","pricing_plan_id":"cebpf4jnsgd1na2vs0mg"},{"bike_id":"492e558b-0ce5-4984-b6b1-1d33f225a96b","system_id":"levelo_inurba_marseille","lat":43.241681,"lon":5.364042,"is_reserved":false,"is_disabled":false,"rental_uris":{"android":"levelo://app?vid=492e558b-0ce5-4984-b6b1-1d33f225a96b","ios":"levelo://app?vid=492e558b-0ce5-4984-b6b1-1d33f225a96b"},"vehicle_type_id":"4","last_reported":1739459426,"current_range_meters":7200,"station_id":"cpo36qri1sfpv3e86is0","pricing_plan_id":"cebpf4jnsgd1na2vs0mg"},{"bike_id":"6bf99e3e-9f10-4617-93f9-2e16108e33a0","system_id":"levelo_inurba_marseille","lat":43.23141,"lon":5.43712,"is_reserved":false,"is_disabled":true,"rental_uris":{"android":"levelo://app?vid=6bf99e3e-9f10-4617-93f9-2e16108e33a0","ios":"levelo://app?vid=6bf99e3e-9f10-4617-93f9-2e16108e33a0"},"vehicle_type_id":"4","last_reported":1739459426,"current_range_meters":0,"station_id":"ce4bhmp2rcd13ifvqgog","pricing_plan_id":"cebpf4jnsgd1na2vs0mg"},{"bike_id":"50c3bcdd-193c-475f-bdc5-af354fe8f992","system_id":"levelo_inurba_marseille","lat":43.34151,"lon":5.40914,"is_reserved":false,"is_disabled":false,"rental_uris":{"android":"levelo://app?vid=50c3bcdd-193c-475f-bdc5-af354fe8f992","ios":"levelo://app?vid=50c3bcdd-193c-475f-bdc5-af354fe8f992"},"vehicle_type_id":"4","last_reported":1739459426,"current_range_meters":38800,"station_id":"ce4bhqh2rcd13ifvqhlg","pricing_plan_id":"cebpf4jnsgd1na2vs0mg"},{"bike_id":"8fd1e919-8877-456c-a9d6-12a47cc41d2a","system_id":"levelo_inurba_marseille","lat":43.29001,"lon":5.35614,"is_reserved":false,"is_disabled":false,"rental_uris":{"android":"levelo://app?vid=8fd1e919-8877-456c-a9d6-12a47cc41d2a","ios":"levelo://app?vid=8fd1e919-8877-456c-a9d6-12a47cc41d2a"},"vehicle_type_id":"4","last_reported":1739459426,"current_range_meters":29600,"station_id":"ce4bhb92rcd13ifvqen0","pricing_plan_id":"cebpf4jnsgd1na2vs0mg"},{"bike_id":"9355cd59-e1ae-4841-89e0-a1135f03b0e4","system_id":"levelo_inurba_marseille","lat":43.304521,"lon":5.376199,"is_reserved":false,"is_disabled":false,"rental_uris":{"android":"levelo://app?vid=9355cd59-e1ae-4841-89e0-a1135f03b0e4","ios":"levelo://app?vid=9355cd59-e1ae-4841-89e0-a1135f03b0e4"},"vehicle_type_id":"4","last_reported":1739459426,"current_range_meters":38000,"station_id":"","pricing_plan_id":"cebpf4jnsgd1na2vs0mg"},{"bike_id":"78a605ab-ca1b-4664-b930-ee56c06c5073","system_id":"levelo_inurba_marseille","lat":43.26948,"lon":5.40202,"is_reserved":false,"is_disabled":false,"rental_uris":{"android":"levelo://app?vid=78a605ab-ca1b-4664-b930-ee56c06c5073","ios":"levelo://app?vid=78a605ab-ca1b-4664-b930-ee56c06c5073"},"vehicle_type_id":"4","last_reported":1739459426,"current_range_meters":27200,"station_id":"cjm6bp8fraef2m0cb0m0","pricing_plan_id":"cebpf4jnsgd1na2vs0mg"},{"bike_id":"ff489825-db76-49d3-aa98-c1c0aaa6bdad","system_id":"levelo_inurba_marseille","lat":43.29275,"lon":5.36675,"is_reserved":false,"is_disabled":false,"rental_uris":{"android":"levelo://app?vid=ff489825-db76-49d3-aa98-c1c0aaa6bdad","ios":"levelo://app?vid=ff489825-db76-49d3-aa98-c1c0aaa6bdad"},"vehicle_type_id":"4","last_reported":1739459426,"current_range_meters":9200,"station_id":"","pricing_plan_id":"cebpf4jnsgd1na2vs0mg"},{"bike_id":"698f19bd-1f39-41be-841c-c9f642655696","system_id":"levelo_inurba_marseille","lat":43.29416,"lon":5.38631,"is_reserved":false,"is_disabled":true,"rental_uris":{"android":"levelo://app?vid=698f19bd-1f39-41be-841c-c9f642655696","ios":"levelo://app?vid=698f19bd-1f39-41be-841c-c9f642655696"},"vehicle_type_id":"4","last_reported":1739459426,"current_range_meters":0,"station_id":"ce4bh2h2rcd13ifvqdh0","pricing_plan_id":"cebpf4jnsgd1na2vs0mg"},{"bike_id":"3d12e798-0e26-441f-99f6-2142a34fd0b8","system_id":"levelo_inurba_marseille","lat":43.26943,"lon":5.40253,"is_reserved":false,"is_disabled":false,"rental_uris":{"android":"levelo://app?vid=3d12e798-0e26-441f-99f6-2142a34fd0b8","ios":"levelo://app?vid=3d12e798-0e26-441f-99f6-2142a34fd0b8"},"vehicle_type_id":"4","last_reported":1739459426,"current_range_meters":29600,"station_id":"cjm6bp8fraef2m0cb0m0","pricing_plan_id":"cebpf4jnsgd1na2vs0mg"},{"bike_id":"7ddcefcc-6523-4058-9d03-03bd3c284cf5","system_id":"levelo_inurba_marseille","lat":43.24647,"lon":5.3889,"is_reserved":false,"is_disabled":false,"rental_uris":{"android":"levelo://app?vid=7ddcefcc-6523-4058-9d03-03bd3c284cf5","ios":"levelo://app?vid=7ddcefcc-6523-4058-9d03-03bd3c284cf5"},"vehicle_type_id":"4","last_reported":1739459426,"current_range_meters":24400,"station_id":"ce4bhg12rcd13ifvqf60","pricing_plan_id":"cebpf4jnsgd1na2vs0mg"},{"bike_id":"47dc7c59-2f79-4ef3-9453-9bcbead0652a","system_id":"levelo_inurba_marseille","lat":43.25578,"lon":5.38225,"is_reserved":false,"is_disabled":false,"rental_uris":{"android":"levelo://app?vid=47dc7c59-2f79-4ef3-9453-9bcbead0652a","ios":"levelo://app?vid=47dc7c59-2f79-4ef3-9453-9bcbead0652a"},"vehicle_type_id":"4","last_reported":1739459426,"current_range_meters":38800,"station_id":"ce4bhih2rcd13ifvqfs0","pricing_plan_id":"cebpf4jnsgd1na2vs0mg"},{"bike_id":"26de5054-7c43-4c9f-977c-5313481d109f","system_id":"levelo_inurba_marseille","lat":43.24177,"lon":5.39726,"is_reserved":false,"is_disabled":false,"rental_uris":{"android":"levelo://app?vid=26de5054-7c43-4c9f-977c-5313481d109f","ios":"levelo://app?vid=26de5054-7c43-4c9f-977c-5313481d109f"},"vehicle_type_id":"4","last_reported":1739459426,"current_range_meters":38800,"station_id":"ce4bhn12rcd13ifvqgpg","pricing_plan_id":"cebpf4jnsgd1na2vs0mg"},{"bike_id":"2a8d5b38-12c7-43ca-969a-fe7b4ef5b359","system_id":"levelo_inurba_marseille","lat":43.31718,"lon":5.37742,"is_reserved":false,"is_disabled":true,"rental_uris":{"android":"levelo://app?vid=2a8d5b38-12c7-43ca-969a-fe7b4ef5b359","ios":"levelo://app?vid=2a8d5b38-12c7-43ca-969a-fe7b4ef5b359"},"vehicle_type_id":"4","last_reported":1739459426,"current_range_meters":2800,"station_id":"ce4bgth2rcd13ifvqch0","pricing_plan_id":"cebpf4jnsgd1na2vs0mg"},{"bike_id":"486df385-f6f5-4ddc-9f12-6fe1627bb4ed","system_id":"levelo_inurba_marseille","lat":43.29891,"lon":5.43662,"is_reserved":false,"is_disabled":false,"rental_uris":{"android":"levelo://app?vid=486df385-f6f5-4ddc-9f12-6fe1627bb4ed","ios":"levelo://app?vid=486df385-f6f5-4ddc-9f12-6fe1627bb4ed"},"vehicle_type_id":"4","last_reported":1739459426,"current_range_meters":38000,"station_id":"ce4bhpp2rcd13ifvqhfg","pricing_plan_id":"cebpf4jnsgd1na2vs0mg"},{"bike_id":"b57ed8e3-61f5-404a-b343-ba4c48a4699e","system_id":"levelo_inurba_marseille","lat":43.27677,"lon":5.38915,"is_reserved":false,"is_disabled":false,"rental_uris":{"android":"levelo://app?vid=b57ed8e3-61f5-404a-b343-ba4c48a4699e","ios":"levelo://app?vid=b57ed8e3-61f5-404a-b343-ba4c48a4699e"},"vehicle_type_id":"4","last_reported":1739459426,"current_range_meters":38400,"station_id":"ce4bhi12rcd13ifvqfo0","pricing_plan_id":"cebpf4jnsgd1na2vs0mg"},{"bike_id":"beb6db3d-96eb-4aa5-b09d-e980e6c9576d","system_id":"levelo_inurba_marseille","lat":43.30538,"lon":5.36535,"is_reserved":false,"is_disabled":false,"rental_uris":{"android":"levelo://app?vid=beb6db3d-96eb-4aa5-b09d-e980e6c9576d","ios":"levelo://app?vid=beb6db3d-96eb-4aa5-b09d-e980e6c9576d"},"vehicle_type_id":"4","last_reported":1739459426,"current_range_meters":16800,"station_id":"ce4bgs12rcd13ifvqcag","pricing_plan_id":"cebpf4jnsgd1na2vs0mg"},{"bike_id":"5429a055-5c17-4863-ac08-ee7234bc7af8","system_id":"levelo_inurba_marseille","lat":43.32359,"lon":5.3678,"is_reserved":false,"is_disabled":false,"rental_uris":{"android":"levelo://app?vid=5429a055-5c17-4863-ac08-ee7234bc7af8","ios":"levelo://app?vid=5429a055-5c17-4863-ac08-ee7234bc7af8"},"vehicle_type_id":"4","last_reported":1739459426,"current_range_meters":38800,"station_id":"ce4bhsh2rcd13ifvqi2g","pricing_plan_id":"cebpf4jnsgd1na2vs0mg"},{"bike_id":"afaa40c0-aad3-42c4-9781-81ae8ca7e82a","system_id":"levelo_inurba_marseille","lat":43.31746,"lon":5.39016,"is_reserved":false,"is_disabled":false,"rental_uris":{"android":"levelo://app?vid=afaa40c0-aad3-42c4-9781-81ae8ca7e82a","ios":"levelo://app?vid=afaa40c0-aad3-42c4-9781-81ae8ca7e82a"},"vehicle_type_id":"4","last_reported":1739459426,"current_range_meters":32000,"station_id":"ce4bhqp2rcd13ifvqhng","pricing_plan_id":"cebpf4jnsgd1na2vs0mg"},{"bike_id":"891b5235-d570-4a76-86be-74a0648f4828","system_id":"levelo_inurba_marseille","lat":43.29852,"lon":5.36283,"is_reserved":false,"is_disabled":false,"rental_uris":{"android":"levelo://app?vid=891b5235-d570-4a76-86be-74a0648f4828","ios":"levelo://app?vid=891b5235-d570-4a76-86be-74a0648f4828"},"vehicle_type_id":"4","last_reported":1739459426,"current_range_meters":38800,"station_id":"ce4bgpp2rcd13ifvqc3g","pricing_plan_id":"cebpf4jnsgd1na2vs0mg"},{"bike_id":"c943cbb0-46fa-4627-a717-85be9a75e0b7","system_id":"levelo_inurba_marseille","lat":43.29216,"lon":5.36061,"is_reserved":false,"is_disabled":false,"rental_uris":{"android":"levelo://app?vid=c943cbb0-46fa-4627-a717-85be9a75e0b7","ios":"levelo://app?vid=c943cbb0-46fa-4627-a717-85be9a75e0b7"},"vehicle_type_id":"4","last_reported":1739459426,"current_range_meters":38800,"station_id":"ce4bhbh2rcd13ifvqeqg","pricing_plan_id":"cebpf4jnsgd1na2vs0mg"},{"bike_id":"eea1a41f-cd18-4010-a314-2502ac665690","system_id":"levelo_inurba_marseille","lat":43.23192,"lon":5.35552,"is_reserved":false,"is_disabled":true,"rental_uris":{"android":"levelo://app?vid=eea1a41f-cd18-4010-a314-2502ac665690","ios":"levelo://app?vid=eea1a41f-cd18-4010-a314-2502ac665690"},"vehicle_type_id":"4","last_reported":1739459426,"current_range_meters":0,"station_id":"ce4bhu92rcd13ifvqi70","pricing_plan_id":"cebpf4jnsgd1na2vs0mg"},{"bike_id":"759731dc-00f7-470d-b9c5-a4a912aa1318","system_id":"levelo_inurba_marseille","lat":43.2985,"lon":5.36274,"is_reserved":false,"is_disabled":false,"rental_uris":{"android":"levelo://app?vid=759731dc-00f7-470d-b9c5-a4a912aa1318","ios":"levelo://app?vid=759731dc-00f7-470d-b9c5-a4a912aa1318"},"vehicle_type_id":"4","last_reported":1739459426,"current_range_meters":11600,"station_id":"ce4bgpp2rcd13ifvqc3g","pricing_plan_id":"cebpf4jnsgd1na2vs0mg"},{"bike_id":"eb29dbc1-74f9-472e-b6da-4842334d1e0a","system_id":"levelo_inurba_marseille","lat":43.29737,"lon":5.3769,"is_reserved":false,"is_disabled":false,"rental_uris":{"android":"levelo://app?vid=eb29dbc1-74f9-472e-b6da-4842334d1e0a","ios":"levelo://app?vid=eb29dbc1-74f9-472e-b6da-4842334d1e0a"},"vehicle_type_id":"4","last_reported":1739459426,"current_range_meters":36800,"station_id":"ce4bgkh2rcd13ifvqbl0","pricing_plan_id":"cebpf4jnsgd1na2vs0mg"},{"bike_id":"971f9951-cad8-4d64-aee1-30948583f711","system_id":"levelo_inurba_marseille","lat":43.32462,"lon":5.36595,"is_reserved":false,"is_disabled":false,"rental_uris":{"android":"levelo://app?vid=971f9951-cad8-4d64-aee1-30948583f711","ios":"levelo://app?vid=971f9951-cad8-4d64-aee1-30948583f711"},"vehicle_type_id":"4","last_reported":1739459426,"current_range_meters":39200,"station_id":"ce4bhs12rcd13ifvqhvg","pricing_plan_id":"cebpf4jnsgd1na2vs0mg"},{"bike_id":"f85a6e49-f7bb-4683-b196-177426694447","system_id":"levelo_inurba_marseille","lat":43.30553,"lon":5.36557,"is_reserved":false,"is_disabled":true,"rental_uris":{"android":"levelo://app?vid=f85a6e49-f7bb-4683-b196-177426694447","ios":"levelo://app?vid=f85a6e49-f7bb-4683-b196-177426694447"},"vehicle_type_id":"4","last_reported":1739459426,"current_range_meters":0,"station_id":"ce4bgs12rcd13ifvqcag","pricing_plan_id":"cebpf4jnsgd1na2vs0mg"},{"bike_id":"3b9cb9fb-3e82-489c-8f72-7236cbecb6b5","system_id":"levelo_inurba_marseille","lat":43.30517,"lon":5.36732,"is_reserved":false,"is_disabled":false,"rental_uris":{"android":"levelo://app?vid=3b9cb9fb-3e82-489c-8f72-7236cbecb6b5","ios":"levelo://app?vid=3b9cb9fb-3e82-489c-8f72-7236cbecb6b5"},"vehicle_type_id":"4","last_reported":1739459426,"current_range_meters":34000,"station_id":"ce4bgrp2rcd13ifvqc9g","pricing_plan_id":"cebpf4jnsgd1na2vs0mg"},{"bike_id":"4ddf23d6-9810-4586-b852-d36b1371a771","system_id":"levelo_inurba_marseille","lat":43.3171,"lon":5.37761,"is_reserved":false,"is_disabled":false,"rental_uris":{"android":"levelo://app?vid=4ddf23d6-9810-4586-b852-d36b1371a771","ios":"levelo://app?vid=4ddf23d6-9810-4586-b852-d36b1371a771"},"vehicle_type_id":"4","last_reported":1739459426,"current_range_meters":35200,"station_id":"ce4bgth2rcd13ifvqch0","pricing_plan_id":"cebpf4jnsgd1na2vs0mg"},{"bike_id":"14e02d83-9711-4b76-82e6-b76fa116b167","system_id":"levelo_inurba_marseille","lat":43.23157,"lon":5.43711,"is_reserved":false,"is_disabled":false,"rental_uris":{"android":"levelo://app?vid=14e02d83-9711-4b76-82e6-b76fa116b167","ios":"levelo://app?vid=14e02d83-9711-4b76-82e6-b76fa116b167"},"vehicle_type_id":"4","last_reported":1739459426,"current_range_meters":38800,"station_id":"ce4bhmp2rcd13ifvqgog","pricing_plan_id":"cebpf4jnsgd1na2vs0mg"},{"bike_id":"30a63764-5226-4b60-8a95-d51b0e2005d4","system_id":"levelo_inurba_marseille","lat":43.29264,"lon":5.36861,"is_reserved":false,"is_disabled":false,"rental_uris":{"android":"levelo://app?vid=30a63764-5226-4b60-8a95-d51b0e2005d4","ios":"levelo://app?vid=30a63764-5226-4b60-8a95-d51b0e2005d4"},"vehicle_type_id":"4","last_reported":1739459426,"current_range_meters":24800,"station_id":"ce4bhbp2rcd13ifvqesg","pricing_plan_id":"cebpf4jnsgd1na2vs0mg"},{"bike_id":"64d3e1d3-a93d-48c7-a887-e10f8bc35e68","system_id":"levelo_inurba_marseille","lat":43.293167,"lon":5.369437,"is_reserved":false,"is_disabled":false,"rental_uris":{"android":"levelo://app?vid=64d3e1d3-a93d-48c7-a887-e10f8bc35e68","ios":"levelo://app?vid=64d3e1d3-a93d-48c7-a887-e10f8bc35e68"},"vehicle_type_id":"4","last_reported":1739459426,"current_range_meters":30000,"station_id":"","pricing_plan_id":"cebpf4jnsgd1na2vs0mg"},{"bike_id":"d3eddafd-a306-4e6f-acf7-385a5818cde0","system_id":"levelo_inurba_marseille","lat":43.28349,"lon":5.381026,"is_reserved":false,"is_disabled":false,"rental_uris":{"android":"levelo://app?vid=d3eddafd-a306-4e6f-acf7-385a5818cde0","ios":"levelo://app?vid=d3eddafd-a306-4e6f-acf7-385a5818cde0"},"vehicle_type_id":"4","last_reported":1739459426,"current_range_meters":39200,"station_id":"ce4bh412rcd13ifvqdr0","pricing_plan_id":"cebpf4jnsgd1na2vs0mg"},{"bike_id":"26b158b3-97d2-4e44-b300-79f7f26cc59a","system_id":"levelo_inurba_marseille","lat":43.30322,"lon":5.36889,"is_reserved":false,"is_disabled":false,"rental_uris":{"android":"levelo://app?vid=26b158b3-97d2-4e44-b300-79f7f26cc59a","ios":"levelo://app?vid=26b158b3-97d2-4e44-b300-79f7f26cc59a"},"vehicle_type_id":"4","last_reported":1739459426,"current_range_meters":16000,"station_id":"ce4bgqh2rcd13ifvqc5g","pricing_plan_id":"cebpf4jnsgd1na2vs0mg"},{"bike_id":"eb74081f-8035-495f-a073-abb8444b5eb2","system_id":"levelo_inurba_marseille","lat":43.23957,"lon":5.36629,"is_reserved":false,"is_disabled":false,"rental_uris":{"android":"levelo://app?vid=eb74081f-8035-495f-a073-abb8444b5eb2","ios":"levelo://app?vid=eb74081f-8035-495f-a073-abb8444b5eb2"},"vehicle_type_id":"4","last_reported":1739459426,"current_range_meters":38800,"station_id":"ce4bhi12rcd13ifvqfp0","pricing_plan_id":"cebpf4jnsgd1na2vs0mg"},{"bike_id":"213e7ed3-b6c6-470c-8e37-ca6ffb58bff8","system_id":"levelo_inurba_marseille","lat":43.2749,"lon":5.42456,"is_reserved":false,"is_disabled":true,"rental_uris":{"android":"levelo://app?vid=213e7ed3-b6c6-470c-8e37-ca6ffb58bff8","ios":"levelo://app?vid=213e7ed3-b6c6-470c-8e37-ca6ffb58bff8"},"vehicle_type_id":"4","last_reported":1739459426,"current_range_meters":27600,"station_id":"ce4bhn92rcd13ifvqgrg","pricing_plan_id":"cebpf4jnsgd1na2vs0mg"},{"bike_id":"3cae475a-8403-456b-b5cd-ee7094302b17","system_id":"levelo_inurba_marseille","lat":43.25493,"lon":5.37648,"is_reserved":false,"is_disabled":false,"rental_uris":{"android":"levelo://app?vid=3cae475a-8403-456b-b5cd-ee7094302b17","ios":"levelo://app?vid=3cae475a-8403-456b-b5cd-ee7094302b17"},"vehicle_type_id":"4","last_reported":1739459426,"current_range_meters":24400,"station_id":"ce4bhh12rcd13ifvqff0","pricing_plan_id":"cebpf4jnsgd1na2vs0mg"},{"bike_id":"855b369f-358b-4cb1-9a7c-f21e4db4f97e","system_id":"levelo_inurba_marseille","lat":43.28419,"lon":5.35,"is_reserved":false,"is_disabled":false,"rental_uris":{"android":"levelo://app?vid=855b369f-358b-4cb1-9a7c-f21e4db4f97e","ios":"levelo://app?vid=855b369f-358b-4cb1-9a7c-f21e4db4f97e"},"vehicle_type_id":"4","last_reported":1739459426,"current_range_meters":37600,"station_id":"ce4bhbh2rcd13ifvqepg","pricing_plan_id":"cebpf4jnsgd1na2vs0mg"},{"bike_id":"d056fd77-041e-491b-b601-0adef60d3ccf","system_id":"levelo_inurba_marseille","lat":43.29738,"lon":5.37702,"is_reserved":false,"is_disabled":false,"rental_uris":{"android":"levelo://app?vid=d056fd77-041e-491b-b601-0adef60d3ccf","ios":"levelo://app?vid=d056fd77-041e-491b-b601-0adef60d3ccf"},"vehicle_type_id":"4","last_reported":1739459426,"current_range_meters":29600,"station_id":"ce4bgkh2rcd13ifvqbl0","pricing_plan_id":"cebpf4jnsgd1na2vs0mg"},{"bike_id":"8d2d4012-ff69-4800-927a-45caff6cd054","system_id":"levelo_inurba_marseille","lat":43.23158,"lon":5.43709,"is_reserved":false,"is_disabled":false,"rental_uris":{"android":"levelo://app?vid=8d2d4012-ff69-4800-927a-45caff6cd054","ios":"levelo://app?vid=8d2d4012-ff69-4800-927a-45caff6cd054"},"vehicle_type_id":"4","last_reported":1739459426,"current_range_meters":38400,"station_id":"ce4bhmp2rcd13ifvqgog","pricing_plan_id":"cebpf4jnsgd1na2vs0mg"},{"bike_id":"1ec14052-2d33-4aa1-9ab8-58cc71db74d1","system_id":"levelo_inurba_marseille","lat":43.24178,"lon":5.36388,"is_reserved":false,"is_disabled":false,"rental_uris":{"android":"levelo://app?vid=1ec14052-2d33-4aa1-9ab8-58cc71db74d1","ios":"levelo://app?vid=1ec14052-2d33-4aa1-9ab8-58cc71db74d1"},"vehicle_type_id":"4","last_reported":1739459426,"current_range_meters":6000,"station_id":"cpo36qri1sfpv3e86is0","pricing_plan_id":"cebpf4jnsgd1na2vs0mg"},{"bike_id":"6e58a69c-2a4e-4c49-840d-6e728a603acb","system_id":"levelo_inurba_marseille","lat":43.23062,"lon":5.35498,"is_reserved":false,"is_disabled":false,"rental_uris":{"android":"levelo://app?vid=6e58a69c-2a4e-4c49-840d-6e728a603acb","ios":"levelo://app?vid=6e58a69c-2a4e-4c49-840d-6e728a603acb"},"vehicle_type_id":"4","last_reported":1739459426,"current_range_meters":5600,"station_id":"cpo3342slgdg3j2ifvpg","pricing_plan_id":"cebpf4jnsgd1na2vs0mg"},{"bike_id":"9d3a861d-2387-47de-9ac8-8fe6709a61bc","system_id":"levelo_inurba_marseille","lat":43.30647,"lon":5.40079,"is_reserved":false,"is_disabled":false,"rental_uris":{"android":"levelo://app?vid=9d3a861d-2387-47de-9ac8-8fe6709a61bc","ios":"levelo://app?vid=9d3a861d-2387-47de-9ac8-8fe6709a61bc"},"vehicle_type_id":"4","last_reported":1739459426,"current_range_meters":33200,"station_id":"ce4bh112rcd13ifvqda0","pricing_plan_id":"cebpf4jnsgd1na2vs0mg"},{"bike_id":"a9507320-73d3-4f1a-b63d-8f5556d57aaa","system_id":"levelo_inurba_marseille","lat":43.26959,"lon":5.38633,"is_reserved":false,"is_disabled":false,"rental_uris":{"android":"levelo://app?vid=a9507320-73d3-4f1a-b63d-8f5556d57aaa","ios":"levelo://app?vid=a9507320-73d3-4f1a-b63d-8f5556d57aaa"},"vehicle_type_id":"4","last_reported":1739459426,"current_range_meters":38800,"station_id":"ce4bhh92rcd13ifvqfh0","pricing_plan_id":"cebpf4jnsgd1na2vs0mg"},{"bike_id":"f6c4e53d-756d-4ddd-9e98-0669c561f338","system_id":"levelo_inurba_marseille","lat":43.29936,"lon":5.36553,"is_reserved":false,"is_disabled":false,"rental_uris":{"android":"levelo://app?vid=f6c4e53d-756d-4ddd-9e98-0669c561f338","ios":"levelo://app?vid=f6c4e53d-756d-4ddd-9e98-0669c561f338"},"vehicle_type_id":"4","last_reported":1739459426,"current_range_meters":28800,"station_id":"ce4bgm92rcd13ifvqbr0","pricing_plan_id":"cebpf4jnsgd1na2vs0mg"},{"bike_id":"4450d397-c7c4-4c68-aed9-fa811598c082","system_id":"levelo_inurba_marseille","lat":43.32538,"lon":5.36484,"is_reserved":false,"is_disabled":false,"rental_uris":{"android":"levelo://app?vid=4450d397-c7c4-4c68-aed9-fa811598c082","ios":"levelo://app?vid=4450d397-c7c4-4c68-aed9-fa811598c082"},"vehicle_type_id":"4","last_reported":1739459426,"current_range_meters":36800,"station_id":"","pricing_plan_id":"cebpf4jnsgd1na2vs0mg"},{"bike_id":"d1252d2a-1f0d-4750-860d-33e6370b1b42","system_id":"levelo_inurba_marseille","lat":43.28683,"lon":5.3866,"is_reserved":false,"is_disabled":false,"rental_uris":{"android":"levelo://app?vid=d1252d2a-1f0d-4750-860d-33e6370b1b42","ios":"levelo://app?vid=d1252d2a-1f0d-4750-860d-33e6370b1b42"},"vehicle_type_id":"4","last_reported":1739459426,"current_range_meters":34800,"station_id":"ce4bh492rcd13ifvqdug","pricing_plan_id":"cebpf4jnsgd1na2vs0mg"},{"bike_id":"26e006e8-1d31-4646-9c59-9d183fa68776","system_id":"levelo_inurba_marseille","lat":43.2923,"lon":5.36056,"is_reserved":false,"is_disabled":false,"rental_uris":{"android":"levelo://app?vid=26e006e8-1d31-4646-9c59-9d183fa68776","ios":"levelo://app?vid=26e006e8-1d31-4646-9c59-9d183fa68776"},"vehicle_type_id":"4","last_reported":1739459426,"current_range_meters":38800,"station_id":"ce4bhbh2rcd13ifvqeqg","pricing_plan_id":"cebpf4jnsgd1na2vs0mg"},{"bike_id":"41f3b5dd-2431-443e-ba42-c63be2b0fd93","system_id":"levelo_inurba_marseille","lat":43.27358,"lon":5.36256,"is_reserved":false,"is_disabled":false,"rental_uris":{"android":"levelo://app?vid=41f3b5dd-2431-443e-ba42-c63be2b0fd93","ios":"levelo://app?vid=41f3b5dd-2431-443e-ba42-c63be2b0fd93"},"vehicle_type_id":"4","last_reported":1739459426,"current_range_meters":36800,"station_id":"ce4bhbh2rcd13ifvqeo0","pricing_plan_id":"cebpf4jnsgd1na2vs0mg"},{"bike_id":"04e79b02-26b7-408e-8d07-a04361b8a27a","system_id":"levelo_inurba_marseille","lat":43.23184,"lon":5.39991,"is_reserved":false,"is_disabled":false,"rental_uris":{"android":"levelo://app?vid=04e79b02-26b7-408e-8d07-a04361b8a27a","ios":"levelo://app?vid=04e79b02-26b7-408e-8d07-a04361b8a27a"},"vehicle_type_id":"4","last_reported":1739459426,"current_range_meters":38800,"station_id":"ce4bhn12rcd13ifvqgqg","pricing_plan_id":"cebpf4jnsgd1na2vs0mg"},{"bike_id":"c1379890-f80d-4384-9538-a7d1edc5ebe0","system_id":"levelo_inurba_marseille","lat":43.30883,"lon":5.37204,"is_reserved":false,"is_disabled":false,"rental_uris":{"android":"levelo://app?vid=c1379890-f80d-4384-9538-a7d1edc5ebe0","ios":"levelo://app?vid=c1379890-f80d-4384-9538-a7d1edc5ebe0"},"vehicle_type_id":"4","last_reported":1739459426,"current_range_meters":6800,"station_id":"ce4bguh2rcd13ifvqckg","pricing_plan_id":"cebpf4jnsgd1na2vs0mg"},{"bike_id":"77327ee9-e75d-4f81-97b5-3bc9ccc94db5","system_id":"levelo_inurba_marseille","lat":43.27975,"lon":5.38743,"is_reserved":false,"is_disabled":false,"rental_uris":{"android":"levelo://app?vid=77327ee9-e75d-4f81-97b5-3bc9ccc94db5","ios":"levelo://app?vid=77327ee9-e75d-4f81-97b5-3bc9ccc94db5"},"vehicle_type_id":"4","last_reported":1739459426,"current_range_meters":10800,"station_id":"ce4bhg12rcd13ifvqf80","pricing_plan_id":"cebpf4jnsgd1na2vs0mg"},{"bike_id":"3574cfb1-7f4f-4719-8cb8-8c7a2651a95e","system_id":"levelo_inurba_marseille","lat":43.33744,"lon":5.37478,"is_reserved":false,"is_disabled":false,"rental_uris":{"android":"levelo://app?vid=3574cfb1-7f4f-4719-8cb8-8c7a2651a95e","ios":"levelo://app?vid=3574cfb1-7f4f-4719-8cb8-8c7a2651a95e"},"vehicle_type_id":"4","last_reported":1739459426,"current_range_meters":36400,"station_id":"","pricing_plan_id":"cebpf4jnsgd1na2vs0mg"},{"bike_id":"35d86550-489b-4972-be4d-e8e47f21ba75","system_id":"levelo_inurba_marseille","lat":43.2992,"lon":5.37478,"is_reserved":false,"is_disabled":false,"rental_uris":{"android":"levelo://app?vid=35d86550-489b-4972-be4d-e8e47f21ba75","ios":"levelo://app?vid=35d86550-489b-4972-be4d-e8e47f21ba75"},"vehicle_type_id":"4","last_reported":1739459426,"current_range_meters":38800,"station_id":"ce4bgjh2rcd13ifvqbg0","pricing_plan_id":"cebpf4jnsgd1na2vs0mg"},{"bike_id":"f069e427-6164-49b3-a6ab-e71eaa4644e5","system_id":"levelo_inurba_marseille","lat":43.2861,"lon":5.35102,"is_reserved":false,"is_disabled":false,"rental_uris":{"android":"levelo://app?vid=f069e427-6164-49b3-a6ab-e71eaa4644e5","ios":"levelo://app?vid=f069e427-6164-49b3-a6ab-e71eaa4644e5"},"vehicle_type_id":"4","last_reported":1739459426,"current_range_meters":38800,"station_id":"ce4bhch2rcd13ifvqeug","pricing_plan_id":"cebpf4jnsgd1na2vs0mg"},{"bike_id":"361a6e8d-047a-4b8b-81b6-6ac778745881","system_id":"levelo_inurba_marseille","lat":43.30556,"lon":5.36533,"is_reserved":false,"is_disabled":false,"rental_uris":{"android":"levelo://app?vid=361a6e8d-047a-4b8b-81b6-6ac778745881","ios":"levelo://app?vid=361a6e8d-047a-4b8b-81b6-6ac778745881"},"vehicle_type_id":"4","last_reported":1739459426,"current_range_meters":27200,"station_id":"ce4bgs12rcd13ifvqcag","pricing_plan_id":"cebpf4jnsgd1na2vs0mg"},{"bike_id":"05a2e1af-47df-4c3c-b391-f1c64fbdefd4","system_id":"levelo_inurba_marseille","lat":43.27372,"lon":5.36263,"is_reserved":false,"is_disabled":false,"rental_uris":{"android":"levelo://app?vid=05a2e1af-47df-4c3c-b391-f1c64fbdefd4","ios":"levelo://app?vid=05a2e1af-47df-4c3c-b391-f1c64fbdefd4"},"vehicle_type_id":"4","last_reported":1739459426,"current_range_meters":36000,"station_id":"ce4bhbh2rcd13ifvqeo0","pricing_plan_id":"cebpf4jnsgd1na2vs0mg"},{"bike_id":"7b3da022-023f-4b51-b764-dde30a4851aa","system_id":"levelo_inurba_marseille","lat":43.30649,"lon":5.40068,"is_reserved":false,"is_disabled":false,"rental_uris":{"android":"levelo://app?vid=7b3da022-023f-4b51-b764-dde30a4851aa","ios":"levelo://app?vid=7b3da022-023f-4b51-b764-dde30a4851aa"},"vehicle_type_id":"4","last_reported":1739459426,"current_range_meters":38800,"station_id":"ce4bh112rcd13ifvqda0","pricing_plan_id":"cebpf4jnsgd1na2vs0mg"},{"bike_id":"51c4e3a8-2172-4b7d-8e51-4493ba7214bb","system_id":"levelo_inurba_marseille","lat":43.30891,"lon":5.36851,"is_reserved":false,"is_disabled":false,"rental_uris":{"android":"levelo://app?vid=51c4e3a8-2172-4b7d-8e51-4493ba7214bb","ios":"levelo://app?vid=51c4e3a8-2172-4b7d-8e51-4493ba7214bb"},"vehicle_type_id":"4","last_reported":1739459426,"current_range_meters":38800,"station_id":"ce4bgn92rcd13ifvqbvg","pricing_plan_id":"cebpf4jnsgd1na2vs0mg"},{"bike_id":"7705324e-dd3d-4a92-a560-9ff863a19382","system_id":"levelo_inurba_marseille","lat":43.30146,"lon":5.37379,"is_reserved":false,"is_disabled":false,"rental_uris":{"android":"levelo://app?vid=7705324e-dd3d-4a92-a560-9ff863a19382","ios":"levelo://app?vid=7705324e-dd3d-4a92-a560-9ff863a19382"},"vehicle_type_id":"4","last_reported":1739459426,"current_range_meters":39200,"station_id":"ce4bgs92rcd13ifvqcc0","pricing_plan_id":"cebpf4jnsgd1na2vs0mg"},{"bike_id":"9a74a02a-948e-4858-b94f-e54d0901bdc8","system_id":"levelo_inurba_marseille","lat":43.30597,"lon":5.3723,"is_reserved":false,"is_disabled":false,"rental_uris":{"android":"levelo://app?vid=9a74a02a-948e-4858-b94f-e54d0901bdc8","ios":"levelo://app?vid=9a74a02a-948e-4858-b94f-e54d0901bdc8"},"vehicle_type_id":"4","last_reported":1739459426,"current_range_meters":25200,"station_id":"ce4bgqh2rcd13ifvqc4g","pricing_plan_id":"cebpf4jnsgd1na2vs0mg"},{"bike_id":"51beaca1-d8dc-4713-b17d-490c01afb764","system_id":"levelo_inurba_marseille","lat":43.26939,"lon":5.40231,"is_reserved":false,"is_disabled":false,"rental_uris":{"android":"levelo://app?vid=51beaca1-d8dc-4713-b17d-490c01afb764","ios":"levelo://app?vid=51beaca1-d8dc-4713-b17d-490c01afb764"},"vehicle_type_id":"4","last_reported":1739459426,"current_range_meters":28400,"station_id":"cjm6bp8fraef2m0cb0m0","pricing_plan_id":"cebpf4jnsgd1na2vs0mg"},{"bike_id":"52591901-7075-4154-8ec9-0dfca05a1446","system_id":"levelo_inurba_marseille","lat":43.32501,"lon":5.36553,"is_reserved":false,"is_disabled":false,"rental_uris":{"android":"levelo://app?vid=52591901-7075-4154-8ec9-0dfca05a1446","ios":"levelo://app?vid=52591901-7075-4154-8ec9-0dfca05a1446"},"vehicle_type_id":"4","last_reported":1739459426,"current_range_meters":38800,"station_id":"ce4bhs12rcd13ifvqhvg","pricing_plan_id":"cebpf4jnsgd1na2vs0mg"},{"bike_id":"42e5768e-adca-4a22-b142-2211a170fef9","system_id":"levelo_inurba_marseille","lat":43.24541,"lon":5.39546,"is_reserved":false,"is_disabled":false,"rental_uris":{"android":"levelo://app?vid=42e5768e-adca-4a22-b142-2211a170fef9","ios":"levelo://app?vid=42e5768e-adca-4a22-b142-2211a170fef9"},"vehicle_type_id":"4","last_reported":1739459426,"current_range_meters":38800,"station_id":"ce4bhlp2rcd13ifvqgjg","pricing_plan_id":"cebpf4jnsgd1na2vs0mg"},{"bike_id":"fd1f4bd2-437d-4eb0-a18a-87c51641810a","system_id":"levelo_inurba_marseille","lat":43.29942,"lon":5.36552,"is_reserved":false,"is_disabled":false,"rental_uris":{"android":"levelo://app?vid=fd1f4bd2-437d-4eb0-a18a-87c51641810a","ios":"levelo://app?vid=fd1f4bd2-437d-4eb0-a18a-87c51641810a"},"vehicle_type_id":"4","last_reported":1739459426,"current_range_meters":35600,"station_id":"ce4bgm92rcd13ifvqbr0","pricing_plan_id":"cebpf4jnsgd1na2vs0mg"},{"bike_id":"ca60b2af-cce7-4290-adcc-eaec354c2c93","system_id":"levelo_inurba_marseille","lat":43.25005,"lon":5.38913,"is_reserved":false,"is_disabled":false,"rental_uris":{"android":"levelo://app?vid=ca60b2af-cce7-4290-adcc-eaec354c2c93","ios":"levelo://app?vid=ca60b2af-cce7-4290-adcc-eaec354c2c93"},"vehicle_type_id":"4","last_reported":1739459426,"current_range_meters":22800,"station_id":"ce4bhgp2rcd13ifvqfd0","pricing_plan_id":"cebpf4jnsgd1na2vs0mg"},{"bike_id":"ed50957a-5496-4e9c-b456-00f28bf14642","system_id":"levelo_inurba_marseille","lat":43.23155,"lon":5.43707,"is_reserved":false,"is_disabled":false,"rental_uris":{"android":"levelo://app?vid=ed50957a-5496-4e9c-b456-00f28bf14642","ios":"levelo://app?vid=ed50957a-5496-4e9c-b456-00f28bf14642"},"vehicle_type_id":"4","last_reported":1739459426,"current_range_meters":6400,"station_id":"ce4bhmp2rcd13ifvqgog","pricing_plan_id":"cebpf4jnsgd1na2vs0mg"},{"bike_id":"48584181-62eb-444b-b4aa-dd1518c13c43","system_id":"levelo_inurba_marseille","lat":43.29586,"lon":5.36733,"is_reserved":false,"is_disabled":false,"rental_uris":{"android":"levelo://app?vid=48584181-62eb-444b-b4aa-dd1518c13c43","ios":"levelo://app?vid=48584181-62eb-444b-b4aa-dd1518c13c43"},"vehicle_type_id":"4","last_reported":1739459426,"current_range_meters":16000,"station_id":"ce4bgph2rcd13ifvqc2g","pricing_plan_id":"cebpf4jnsgd1na2vs0mg"},{"bike_id":"1523714a-c003-46bc-9f10-35145f143dc4","system_id":"levelo_inurba_marseille","lat":43.28034,"lon":5.36958,"is_reserved":false,"is_disabled":false,"rental_uris":{"android":"levelo://app?vid=1523714a-c003-46bc-9f10-35145f143dc4","ios":"levelo://app?vid=1523714a-c003-46bc-9f10-35145f143dc4"},"vehicle_type_id":"4","last_reported":1739459426,"current_range_meters":14400,"station_id":"ce4bha12rcd13ifvqef0","pricing_plan_id":"cebpf4jnsgd1na2vs0mg"},{"bike_id":"54ce597b-1ca1-4d62-923d-d4b29eec04b3","system_id":"levelo_inurba_marseille","lat":43.31131,"lon":5.38261,"is_reserved":false,"is_disabled":false,"rental_uris":{"android":"levelo://app?vid=54ce597b-1ca1-4d62-923d-d4b29eec04b3","ios":"levelo://app?vid=54ce597b-1ca1-4d62-923d-d4b29eec04b3"},"vehicle_type_id":"4","last_reported":1739459426,"current_range_meters":10000,"station_id":"","pricing_plan_id":"cebpf4jnsgd1na2vs0mg"},{"bike_id":"3410c636-1bd9-48e4-988e-2eddafd7cc67","system_id":"levelo_inurba_marseille","lat":43.27939,"lon":5.41041,"is_reserved":false,"is_disabled":false,"rental_uris":{"android":"levelo://app?vid=3410c636-1bd9-48e4-988e-2eddafd7cc67","ios":"levelo://app?vid=3410c636-1bd9-48e4-988e-2eddafd7cc67"},"vehicle_type_id":"4","last_reported":1739459426,"current_range_meters":9600,"station_id":"ce4bhnp2rcd13ifvqh0g","pricing_plan_id":"cebpf4jnsgd1na2vs0mg"},{"bike_id":"82cc7838-4b5a-40fa-9f35-ce1cd1ae67e1","system_id":"levelo_inurba_marseille","lat":43.30121,"lon":5.37094,"is_reserved":false,"is_disabled":false,"rental_uris":{"android":"levelo://app?vid=82cc7838-4b5a-40fa-9f35-ce1cd1ae67e1","ios":"levelo://app?vid=82cc7838-4b5a-40fa-9f35-ce1cd1ae67e1"},"vehicle_type_id":"4","last_reported":1739459426,"current_range_meters":14000,"station_id":"","pricing_plan_id":"cebpf4jnsgd1na2vs0mg"},{"bike_id":"1f552d8b-822c-4dd7-8bde-e3bf1ddaf7f5","system_id":"levelo_inurba_marseille","lat":43.25013,"lon":5.38921,"is_reserved":false,"is_disabled":false,"rental_uris":{"android":"levelo://app?vid=1f552d8b-822c-4dd7-8bde-e3bf1ddaf7f5","ios":"levelo://app?vid=1f552d8b-822c-4dd7-8bde-e3bf1ddaf7f5"},"vehicle_type_id":"4","last_reported":1739459426,"current_range_meters":16800,"station_id":"ce4bhgp2rcd13ifvqfd0","pricing_plan_id":"cebpf4jnsgd1na2vs0mg"},{"bike_id":"2baab7b7-d728-4d65-8944-8be471cac1ca","system_id":"levelo_inurba_marseille","lat":43.31714,"lon":5.42399,"is_reserved":false,"is_disabled":false,"rental_uris":{"android":"levelo://app?vid=2baab7b7-d728-4d65-8944-8be471cac1ca","ios":"levelo://app?vid=2baab7b7-d728-4d65-8944-8be471cac1ca"},"vehicle_type_id":"4","last_reported":1739459426,"current_range_meters":38800,"station_id":"ce4bhp92rcd13ifvqhbg","pricing_plan_id":"cebpf4jnsgd1na2vs0mg"},{"bike_id":"e8236dd0-e432-4064-9ce2-aea2f89a66e7","system_id":"levelo_inurba_marseille","lat":43.2848,"lon":5.38559,"is_reserved":false,"is_disabled":false,"rental_uris":{"android":"levelo://app?vid=e8236dd0-e432-4064-9ce2-aea2f89a66e7","ios":"levelo://app?vid=e8236dd0-e432-4064-9ce2-aea2f89a66e7"},"vehicle_type_id":"4","last_reported":1739459426,"current_range_meters":30000,"station_id":"ce4bh8p2rcd13ifvqeb0","pricing_plan_id":"cebpf4jnsgd1na2vs0mg"},{"bike_id":"873c4b88-b0d5-4fbb-bf50-ea4005f5bd25","system_id":"levelo_inurba_marseille","lat":43.296387,"lon":5.38895,"is_reserved":false,"is_disabled":false,"rental_uris":{"android":"levelo://app?vid=873c4b88-b0d5-4fbb-bf50-ea4005f5bd25","ios":"levelo://app?vid=873c4b88-b0d5-4fbb-bf50-ea4005f5bd25"},"vehicle_type_id":"4","last_reported":1739459426,"current_range_meters":21600,"station_id":"ce4bh3p2rcd13ifvqdp0","pricing_plan_id":"cebpf4jnsgd1na2vs0mg"},{"bike_id":"58a923a1-50e5-4bcc-a5c7-59fd5ea18680","system_id":"levelo_inurba_marseille","lat":43.2316,"lon":5.43718,"is_reserved":false,"is_disabled":false,"rental_uris":{"android":"levelo://app?vid=58a923a1-50e5-4bcc-a5c7-59fd5ea18680","ios":"levelo://app?vid=58a923a1-50e5-4bcc-a5c7-59fd5ea18680"},"vehicle_type_id":"4","last_reported":1739459426,"current_range_meters":14400,"station_id":"ce4bhmp2rcd13ifvqgog","pricing_plan_id":"cebpf4jnsgd1na2vs0mg"},{"bike_id":"3bfafe81-22be-4ef8-830c-9d59c43eb6b0","system_id":"levelo_inurba_marseille","lat":43.2842,"lon":5.3499,"is_reserved":false,"is_disabled":false,"rental_uris":{"android":"levelo://app?vid=3bfafe81-22be-4ef8-830c-9d59c43eb6b0","ios":"levelo://app?vid=3bfafe81-22be-4ef8-830c-9d59c43eb6b0"},"vehicle_type_id":"4","last_reported":1739459426,"current_range_meters":17600,"station_id":"ce4bhbh2rcd13ifvqepg","pricing_plan_id":"cebpf4jnsgd1na2vs0mg"},{"bike_id":"d594772c-f06c-42db-b4eb-8c17a4b3b2bd","system_id":"levelo_inurba_marseille","lat":43.29623,"lon":5.371591,"is_reserved":false,"is_disabled":false,"rental_uris":{"android":"levelo://app?vid=d594772c-f06c-42db-b4eb-8c17a4b3b2bd","ios":"levelo://app?vid=d594772c-f06c-42db-b4eb-8c17a4b3b2bd"},"vehicle_type_id":"4","last_reported":1739459426,"current_range_meters":30800,"station_id":"ce4bgnh2rcd13ifvqc0g","pricing_plan_id":"cebpf4jnsgd1na2vs0mg"},{"bike_id":"5f48bdae-049e-4408-bc07-dbe4fc0e6823","system_id":"levelo_inurba_marseille","lat":43.31214,"lon":5.36845,"is_reserved":false,"is_disabled":false,"rental_uris":{"android":"levelo://app?vid=5f48bdae-049e-4408-bc07-dbe4fc0e6823","ios":"levelo://app?vid=5f48bdae-049e-4408-bc07-dbe4fc0e6823"},"vehicle_type_id":"4","last_reported":1739459426,"current_range_meters":25600,"station_id":"ce4bgl92rcd13ifvqbq0","pricing_plan_id":"cebpf4jnsgd1na2vs0mg"},{"bike_id":"72b5d24e-489a-4b8b-a9ca-23b3954596e6","system_id":"levelo_inurba_marseille","lat":43.27649,"lon":5.38922,"is_reserved":false,"is_disabled":false,"rental_uris":{"android":"levelo://app?vid=72b5d24e-489a-4b8b-a9ca-23b3954596e6","ios":"levelo://app?vid=72b5d24e-489a-4b8b-a9ca-23b3954596e6"},"vehicle_type_id":"4","last_reported":1739459426,"current_range_meters":30000,"station_id":"ce4bhi12rcd13ifvqfo0","pricing_plan_id":"cebpf4jnsgd1na2vs0mg"},{"bike_id":"444b7c95-4552-4e35-b7dd-338c4d4b5f33","system_id":"levelo_inurba_marseille","lat":43.30441,"lon":5.38903,"is_reserved":false,"is_disabled":false,"rental_uris":{"android":"levelo://app?vid=444b7c95-4552-4e35-b7dd-338c4d4b5f33","ios":"levelo://app?vid=444b7c95-4552-4e35-b7dd-338c4d4b5f33"},"vehicle_type_id":"4","last_reported":1739459426,"current_range_meters":36000,"station_id":"ce4bgk12rcd13ifvqbi0","pricing_plan_id":"cebpf4jnsgd1na2vs0mg"},{"bike_id":"5a88579c-17b2-490d-84e1-90b48c9fd073","system_id":"levelo_inurba_marseille","lat":43.3054,"lon":5.36549,"is_reserved":false,"is_disabled":false,"rental_uris":{"android":"levelo://app?vid=5a88579c-17b2-490d-84e1-90b48c9fd073","ios":"levelo://app?vid=5a88579c-17b2-490d-84e1-90b48c9fd073"},"vehicle_type_id":"4","last_reported":1739459426,"current_range_meters":38800,"station_id":"ce4bgs12rcd13ifvqcag","pricing_plan_id":"cebpf4jnsgd1na2vs0mg"},{"bike_id":"58ca8d36-3abf-4f9b-bf3f-e62ed0e7a978","system_id":"levelo_inurba_marseille","lat":43.23962,"lon":5.3662,"is_reserved":false,"is_disabled":false,"rental_uris":{"android":"levelo://app?vid=58ca8d36-3abf-4f9b-bf3f-e62ed0e7a978","ios":"levelo://app?vid=58ca8d36-3abf-4f9b-bf3f-e62ed0e7a978"},"vehicle_type_id":"4","last_reported":1739459426,"current_range_meters":28800,"station_id":"ce4bhi12rcd13ifvqfp0","pricing_plan_id":"cebpf4jnsgd1na2vs0mg"},{"bike_id":"a7a6804a-215c-4bf2-b54a-213f056fdce5","system_id":"levelo_inurba_marseille","lat":43.306,"lon":5.37231,"is_reserved":false,"is_disabled":false,"rental_uris":{"android":"levelo://app?vid=a7a6804a-215c-4bf2-b54a-213f056fdce5","ios":"levelo://app?vid=a7a6804a-215c-4bf2-b54a-213f056fdce5"},"vehicle_type_id":"4","last_reported":1739459426,"current_range_meters":27200,"station_id":"ce4bgqh2rcd13ifvqc4g","pricing_plan_id":"cebpf4jnsgd1na2vs0mg"},{"bike_id":"05753aab-2a5e-492a-80c0-4434a5f0cd7d","system_id":"levelo_inurba_marseille","lat":43.29935,"lon":5.3656,"is_reserved":false,"is_disabled":false,"rental_uris":{"android":"levelo://app?vid=05753aab-2a5e-492a-80c0-4434a5f0cd7d","ios":"levelo://app?vid=05753aab-2a5e-492a-80c0-4434a5f0cd7d"},"vehicle_type_id":"4","last_reported":1739459426,"current_range_meters":4000,"station_id":"ce4bgm92rcd13ifvqbr0","pricing_plan_id":"cebpf4jnsgd1na2vs0mg"},{"bike_id":"8c808889-5629-4e9c-8ac6-71138ec6959c","system_id":"levelo_inurba_marseille","lat":43.29023,"lon":5.356,"is_reserved":false,"is_disabled":false,"rental_uris":{"android":"levelo://app?vid=8c808889-5629-4e9c-8ac6-71138ec6959c","ios":"levelo://app?vid=8c808889-5629-4e9c-8ac6-71138ec6959c"},"vehicle_type_id":"4","last_reported":1739459426,"current_range_meters":29600,"station_id":"ce4bhb92rcd13ifvqen0","pricing_plan_id":"cebpf4jnsgd1na2vs0mg"},{"bike_id":"d157203c-3a5b-4bbc-9638-6eefce740d5e","system_id":"levelo_inurba_marseille","lat":43.23191,"lon":5.35554,"is_reserved":false,"is_disabled":false,"rental_uris":{"android":"levelo://app?vid=d157203c-3a5b-4bbc-9638-6eefce740d5e","ios":"levelo://app?vid=d157203c-3a5b-4bbc-9638-6eefce740d5e"},"vehicle_type_id":"4","last_reported":1739459426,"current_range_meters":30800,"station_id":"ce4bhu92rcd13ifvqi70","pricing_plan_id":"cebpf4jnsgd1na2vs0mg"},{"bike_id":"9acb5333-5cf1-494e-915f-5f562bae0853","system_id":"levelo_inurba_marseille","lat":43.33721,"lon":5.39172,"is_reserved":false,"is_disabled":false,"rental_uris":{"android":"levelo://app?vid=9acb5333-5cf1-494e-915f-5f562bae0853","ios":"levelo://app?vid=9acb5333-5cf1-494e-915f-5f562bae0853"},"vehicle_type_id":"4","last_reported":1739459426,"current_range_meters":38800,"station_id":"ce4bhr92rcd13ifvqhsg","pricing_plan_id":"cebpf4jnsgd1na2vs0mg"},{"bike_id":"937d3cc1-6add-4982-aebd-f6966441a674","system_id":"levelo_inurba_marseille","lat":43.23198,"lon":5.35554,"is_reserved":false,"is_disabled":true,"rental_uris":{"android":"levelo://app?vid=937d3cc1-6add-4982-aebd-f6966441a674","ios":"levelo://app?vid=937d3cc1-6add-4982-aebd-f6966441a674"},"vehicle_type_id":"4","last_reported":1739459426,"current_range_meters":0,"station_id":"ce4bhu92rcd13ifvqi70","pricing_plan_id":"cebpf4jnsgd1na2vs0mg"},{"bike_id":"6b37a3a5-913b-453e-bcdc-94f4c46f0186","system_id":"levelo_inurba_marseille","lat":43.27367,"lon":5.36253,"is_reserved":false,"is_disabled":false,"rental_uris":{"android":"levelo://app?vid=6b37a3a5-913b-453e-bcdc-94f4c46f0186","ios":"levelo://app?vid=6b37a3a5-913b-453e-bcdc-94f4c46f0186"},"vehicle_type_id":"4","last_reported":1739459426,"current_range_meters":33600,"station_id":"ce4bhbh2rcd13ifvqeo0","pricing_plan_id":"cebpf4jnsgd1na2vs0mg"},{"bike_id":"2c18c95b-638f-4a7c-985d-fe31cce71267","system_id":"levelo_inurba_marseille","lat":43.23154,"lon":5.43719,"is_reserved":false,"is_disabled":false,"rental_uris":{"android":"levelo://app?vid=2c18c95b-638f-4a7c-985d-fe31cce71267","ios":"levelo://app?vid=2c18c95b-638f-4a7c-985d-fe31cce71267"},"vehicle_type_id":"4","last_reported":1739459426,"current_range_meters":27600,"station_id":"ce4bhmp2rcd13ifvqgog","pricing_plan_id":"cebpf4jnsgd1na2vs0mg"},{"bike_id":"22357605-22f9-4c7f-a011-3059b1fea57b","system_id":"levelo_inurba_marseille","lat":43.24647,"lon":5.38898,"is_reserved":false,"is_disabled":false,"rental_uris":{"android":"levelo://app?vid=22357605-22f9-4c7f-a011-3059b1fea57b","ios":"levelo://app?vid=22357605-22f9-4c7f-a011-3059b1fea57b"},"vehicle_type_id":"4","last_reported":1739459426,"current_range_meters":38800,"station_id":"ce4bhg12rcd13ifvqf60","pricing_plan_id":"cebpf4jnsgd1na2vs0mg"},{"bike_id":"25622700-94cb-40a3-84b5-b0015e736e5e","system_id":"levelo_inurba_marseille","lat":43.27368,"lon":5.36254,"is_reserved":false,"is_disabled":false,"rental_uris":{"android":"levelo://app?vid=25622700-94cb-40a3-84b5-b0015e736e5e","ios":"levelo://app?vid=25622700-94cb-40a3-84b5-b0015e736e5e"},"vehicle_type_id":"4","last_reported":1739459426,"current_range_meters":8800,"station_id":"ce4bhbh2rcd13ifvqeo0","pricing_plan_id":"cebpf4jnsgd1na2vs0mg"},{"bike_id":"38faf4a2-3b4b-4f93-9387-60ab09ec3283","system_id":"levelo_inurba_marseille","lat":43.28269,"lon":5.35061,"is_reserved":false,"is_disabled":false,"rental_uris":{"android":"levelo://app?vid=38faf4a2-3b4b-4f93-9387-60ab09ec3283","ios":"levelo://app?vid=38faf4a2-3b4b-4f93-9387-60ab09ec3283"},"vehicle_type_id":"4","last_reported":1739459426,"current_range_meters":17600,"station_id":"ce4bhbp2rcd13ifvqerg","pricing_plan_id":"cebpf4jnsgd1na2vs0mg"},{"bike_id":"31f84ddc-bf3b-4d1c-9d83-4ffb586bc67a","system_id":"levelo_inurba_marseille","lat":43.32104,"lon":5.36772,"is_reserved":false,"is_disabled":false,"rental_uris":{"android":"levelo://app?vid=31f84ddc-bf3b-4d1c-9d83-4ffb586bc67a","ios":"levelo://app?vid=31f84ddc-bf3b-4d1c-9d83-4ffb586bc67a"},"vehicle_type_id":"4","last_reported":1739459426,"current_range_meters":36800,"station_id":"ce4bhrh2rcd13ifvqhug","pricing_plan_id":"cebpf4jnsgd1na2vs0mg"},{"bike_id":"95bea59d-9508-4e5c-9462-a6eb2b05c299","system_id":"levelo_inurba_marseille","lat":43.32798,"lon":5.43353,"is_reserved":false,"is_disabled":false,"rental_uris":{"android":"levelo://app?vid=95bea59d-9508-4e5c-9462-a6eb2b05c299","ios":"levelo://app?vid=95bea59d-9508-4e5c-9462-a6eb2b05c299"},"vehicle_type_id":"4","last_reported":1739459426,"current_range_meters":36400,"station_id":"","pricing_plan_id":"cebpf4jnsgd1na2vs0mg"},{"bike_id":"5f240839-d359-4d06-9e03-3abeda0e74a2","system_id":"levelo_inurba_marseille","lat":43.29007,"lon":5.35613,"is_reserved":false,"is_disabled":false,"rental_uris":{"android":"levelo://app?vid=5f240839-d359-4d06-9e03-3abeda0e74a2","ios":"levelo://app?vid=5f240839-d359-4d06-9e03-3abeda0e74a2"},"vehicle_type_id":"4","last_reported":1739459426,"current_range_meters":38800,"station_id":"ce4bhb92rcd13ifvqen0","pricing_plan_id":"cebpf4jnsgd1na2vs0mg"},{"bike_id":"a18e46e5-8e1e-4355-9055-0d86d350b91c","system_id":"levelo_inurba_marseille","lat":43.24999,"lon":5.38932,"is_reserved":false,"is_disabled":false,"rental_uris":{"android":"levelo://app?vid=a18e46e5-8e1e-4355-9055-0d86d350b91c","ios":"levelo://app?vid=a18e46e5-8e1e-4355-9055-0d86d350b91c"},"vehicle_type_id":"4","last_reported":1739459426,"current_range_meters":26800,"station_id":"ce4bhgp2rcd13ifvqfd0","pricing_plan_id":"cebpf4jnsgd1na2vs0mg"},{"bike_id":"b539a748-8199-43e7-83f3-9ebe36862717","system_id":"levelo_inurba_marseille","lat":43.27373,"lon":5.36244,"is_reserved":false,"is_disabled":false,"rental_uris":{"android":"levelo://app?vid=b539a748-8199-43e7-83f3-9ebe36862717","ios":"levelo://app?vid=b539a748-8199-43e7-83f3-9ebe36862717"},"vehicle_type_id":"4","last_reported":1739459426,"current_range_meters":35600,"station_id":"ce4bhbh2rcd13ifvqeo0","pricing_plan_id":"cebpf4jnsgd1na2vs0mg"},{"bike_id":"b927d3b6-dab4-4b7f-ba24-f89832514483","system_id":"levelo_inurba_marseille","lat":43.31722,"lon":5.42405,"is_reserved":false,"is_disabled":false,"rental_uris":{"android":"levelo://app?vid=b927d3b6-dab4-4b7f-ba24-f89832514483","ios":"levelo://app?vid=b927d3b6-dab4-4b7f-ba24-f89832514483"},"vehicle_type_id":"4","last_reported":1739459426,"current_range_meters":25200,"station_id":"ce4bhp92rcd13ifvqhbg","pricing_plan_id":"cebpf4jnsgd1na2vs0mg"},{"bike_id":"80c1da61-50b3-4152-b5e2-564cf24d671d","system_id":"levelo_inurba_marseille","lat":43.25003,"lon":5.38908,"is_reserved":false,"is_disabled":false,"rental_uris":{"android":"levelo://app?vid=80c1da61-50b3-4152-b5e2-564cf24d671d","ios":"levelo://app?vid=80c1da61-50b3-4152-b5e2-564cf24d671d"},"vehicle_type_id":"4","last_reported":1739459426,"current_range_meters":20000,"station_id":"ce4bhgp2rcd13ifvqfd0","pricing_plan_id":"cebpf4jnsgd1na2vs0mg"},{"bike_id":"a9340757-2713-405e-9bd7-debf3e2d5631","system_id":"levelo_inurba_marseille","lat":43.28269,"lon":5.35076,"is_reserved":false,"is_disabled":false,"rental_uris":{"android":"levelo://app?vid=a9340757-2713-405e-9bd7-debf3e2d5631","ios":"levelo://app?vid=a9340757-2713-405e-9bd7-debf3e2d5631"},"vehicle_type_id":"4","last_reported":1739459426,"current_range_meters":38800,"station_id":"ce4bhbp2rcd13ifvqerg","pricing_plan_id":"cebpf4jnsgd1na2vs0mg"},{"bike_id":"28afc320-c150-4a7a-b456-fa950f10fb4c","system_id":"levelo_inurba_marseille","lat":43.33611,"lon":5.40991,"is_reserved":false,"is_disabled":false,"rental_uris":{"android":"levelo://app?vid=28afc320-c150-4a7a-b456-fa950f10fb4c","ios":"levelo://app?vid=28afc320-c150-4a7a-b456-fa950f10fb4c"},"vehicle_type_id":"4","last_reported":1739459426,"current_range_meters":37600,"station_id":"ce4bhqh2rcd13ifvqhmg","pricing_plan_id":"cebpf4jnsgd1na2vs0mg"},{"bike_id":"a6fd73d6-2e14-47d5-ad03-acd725551ac6","system_id":"levelo_inurba_marseille","lat":43.29278,"lon":5.36855,"is_reserved":false,"is_disabled":false,"rental_uris":{"android":"levelo://app?vid=a6fd73d6-2e14-47d5-ad03-acd725551ac6","ios":"levelo://app?vid=a6fd73d6-2e14-47d5-ad03-acd725551ac6"},"vehicle_type_id":"4","last_reported":1739459426,"current_range_meters":34000,"station_id":"ce4bhbp2rcd13ifvqesg","pricing_plan_id":"cebpf4jnsgd1na2vs0mg"},{"bike_id":"211363a9-081b-401f-b0c6-364ac6457ebd","system_id":"levelo_inurba_marseille","lat":43.24394,"lon":5.37042,"is_reserved":false,"is_disabled":false,"rental_uris":{"android":"levelo://app?vid=211363a9-081b-401f-b0c6-364ac6457ebd","ios":"levelo://app?vid=211363a9-081b-401f-b0c6-364ac6457ebd"},"vehicle_type_id":"4","last_reported":1739459426,"current_range_meters":38800,"station_id":"ce4bhhh2rcd13ifvqfk0","pricing_plan_id":"cebpf4jnsgd1na2vs0mg"},{"bike_id":"a6a47884-b3b1-44fa-bc98-5c71b8bda4f2","system_id":"levelo_inurba_marseille","lat":43.2396,"lon":5.36623,"is_reserved":false,"is_disabled":false,"rental_uris":{"android":"levelo://app?vid=a6a47884-b3b1-44fa-bc98-5c71b8bda4f2","ios":"levelo://app?vid=a6a47884-b3b1-44fa-bc98-5c71b8bda4f2"},"vehicle_type_id":"4","last_reported":1739459426,"current_range_meters":34800,"station_id":"ce4bhi12rcd13ifvqfp0","pricing_plan_id":"cebpf4jnsgd1na2vs0mg"},{"bike_id":"e4714a80-c83f-4576-ad15-1097bc6c9c5e","system_id":"levelo_inurba_marseille","lat":43.28353,"lon":5.38107,"is_reserved":false,"is_disabled":false,"rental_uris":{"android":"levelo://app?vid=e4714a80-c83f-4576-ad15-1097bc6c9c5e","ios":"levelo://app?vid=e4714a80-c83f-4576-ad15-1097bc6c9c5e"},"vehicle_type_id":"4","last_reported":1739459426,"current_range_meters":25600,"station_id":"ce4bh412rcd13ifvqdr0","pricing_plan_id":"cebpf4jnsgd1na2vs0mg"},{"bike_id":"6a017501-e19e-4b02-a22f-c87eda11bb5e","system_id":"levelo_inurba_marseille","lat":43.29884,"lon":5.38908,"is_reserved":false,"is_disabled":false,"rental_uris":{"android":"levelo://app?vid=6a017501-e19e-4b02-a22f-c87eda11bb5e","ios":"levelo://app?vid=6a017501-e19e-4b02-a22f-c87eda11bb5e"},"vehicle_type_id":"4","last_reported":1739459426,"current_range_meters":8000,"station_id":"ce4bh392rcd13ifvqdl0","pricing_plan_id":"cebpf4jnsgd1na2vs0mg"},{"bike_id":"4587898d-4244-4273-815c-4fddc6e869a9","system_id":"levelo_inurba_marseille","lat":43.30145,"lon":5.38084,"is_reserved":false,"is_disabled":false,"rental_uris":{"android":"levelo://app?vid=4587898d-4244-4273-815c-4fddc6e869a9","ios":"levelo://app?vid=4587898d-4244-4273-815c-4fddc6e869a9"},"vehicle_type_id":"4","last_reported":1739459426,"current_range_meters":14800,"station_id":"ce4bgjp2rcd13ifvqbh0","pricing_plan_id":"cebpf4jnsgd1na2vs0mg"},{"bike_id":"fe09c803-e52a-4b08-a1e6-6c71d9f99b5a","system_id":"levelo_inurba_marseille","lat":43.2962,"lon":5.37163,"is_reserved":false,"is_disabled":false,"rental_uris":{"android":"levelo://app?vid=fe09c803-e52a-4b08-a1e6-6c71d9f99b5a","ios":"levelo://app?vid=fe09c803-e52a-4b08-a1e6-6c71d9f99b5a"},"vehicle_type_id":"4","last_reported":1739459426,"current_range_meters":33600,"station_id":"ce4bgnh2rcd13ifvqc0g","pricing_plan_id":"cebpf4jnsgd1na2vs0mg"},{"bike_id":"c6e9a573-dc9e-484a-8ec7-25a4170eb03e","system_id":"levelo_inurba_marseille","lat":43.26198,"lon":5.37397,"is_reserved":false,"is_disabled":false,"rental_uris":{"android":"levelo://app?vid=c6e9a573-dc9e-484a-8ec7-25a4170eb03e","ios":"levelo://app?vid=c6e9a573-dc9e-484a-8ec7-25a4170eb03e"},"vehicle_type_id":"4","last_reported":1739459426,"current_range_meters":38800,"station_id":"ce4bhgp2rcd13ifvqfc0","pricing_plan_id":"cebpf4jnsgd1na2vs0mg"},{"bike_id":"61e1386d-22a9-4fd1-bc94-220a8702435b","system_id":"levelo_inurba_marseille","lat":43.28102,"lon":5.37845,"is_reserved":false,"is_disabled":false,"rental_uris":{"android":"levelo://app?vid=61e1386d-22a9-4fd1-bc94-220a8702435b","ios":"levelo://app?vid=61e1386d-22a9-4fd1-bc94-220a8702435b"},"vehicle_type_id":"4","last_reported":1739459426,"current_range_meters":38400,"station_id":"ce4bha12rcd13ifvqee0","pricing_plan_id":"cebpf4jnsgd1na2vs0mg"},{"bike_id":"2d53ae95-8d8c-46f6-a393-8076fa85e172","system_id":"levelo_inurba_marseille","lat":43.29901,"lon":5.37453,"is_reserved":false,"is_disabled":false,"rental_uris":{"android":"levelo://app?vid=2d53ae95-8d8c-46f6-a393-8076fa85e172","ios":"levelo://app?vid=2d53ae95-8d8c-46f6-a393-8076fa85e172"},"vehicle_type_id":"4","last_reported":1739459426,"current_range_meters":22400,"station_id":"ce4bgjh2rcd13ifvqbg0","pricing_plan_id":"cebpf4jnsgd1na2vs0mg"},{"bike_id":"f7b34237-4f3d-49de-9b75-2900f772e123","system_id":"levelo_inurba_marseille","lat":43.2937,"lon":5.38631,"is_reserved":false,"is_disabled":false,"rental_uris":{"android":"levelo://app?vid=f7b34237-4f3d-49de-9b75-2900f772e123","ios":"levelo://app?vid=f7b34237-4f3d-49de-9b75-2900f772e123"},"vehicle_type_id":"4","last_reported":1739459426,"current_range_meters":18000,"station_id":"ce4bh2h2rcd13ifvqdh0","pricing_plan_id":"cebpf4jnsgd1na2vs0mg"},{"bike_id":"65d2bad7-bc51-4e05-bd47-274eae419155","system_id":"levelo_inurba_marseille","lat":43.29412,"lon":5.38627,"is_reserved":false,"is_disabled":false,"rental_uris":{"android":"levelo://app?vid=65d2bad7-bc51-4e05-bd47-274eae419155","ios":"levelo://app?vid=65d2bad7-bc51-4e05-bd47-274eae419155"},"vehicle_type_id":"4","last_reported":1739459426,"current_range_meters":31200,"station_id":"ce4bh2h2rcd13ifvqdh0","pricing_plan_id":"cebpf4jnsgd1na2vs0mg"},{"bike_id":"b1765b73-33d1-4263-855e-0f432c8e86fe","system_id":"levelo_inurba_marseille","lat":43.29006,"lon":5.35614,"is_reserved":false,"is_disabled":false,"rental_uris":{"android":"levelo://app?vid=b1765b73-33d1-4263-855e-0f432c8e86fe","ios":"levelo://app?vid=b1765b73-33d1-4263-855e-0f432c8e86fe"},"vehicle_type_id":"4","last_reported":1739459426,"current_range_meters":25200,"station_id":"ce4bhb92rcd13ifvqen0","pricing_plan_id":"cebpf4jnsgd1na2vs0mg"},{"bike_id":"ab250612-9721-4ade-ab92-ed91f967fc27","system_id":"levelo_inurba_marseille","lat":43.23201,"lon":5.3554,"is_reserved":false,"is_disabled":false,"rental_uris":{"android":"levelo://app?vid=ab250612-9721-4ade-ab92-ed91f967fc27","ios":"levelo://app?vid=ab250612-9721-4ade-ab92-ed91f967fc27"},"vehicle_type_id":"4","last_reported":1739459426,"current_range_meters":26800,"station_id":"ce4bhu92rcd13ifvqi70","pricing_plan_id":"cebpf4jnsgd1na2vs0mg"},{"bike_id":"eb5d3e56-b066-460a-ac50-6407c1bb6c83","system_id":"levelo_inurba_marseille","lat":43.27058,"lon":5.40252,"is_reserved":false,"is_disabled":false,"rental_uris":{"android":"levelo://app?vid=eb5d3e56-b066-460a-ac50-6407c1bb6c83","ios":"levelo://app?vid=eb5d3e56-b066-460a-ac50-6407c1bb6c83"},"vehicle_type_id":"4","last_reported":1739459426,"current_range_meters":38800,"station_id":"ce4bhk92rcd13ifvqgc0","pricing_plan_id":"cebpf4jnsgd1na2vs0mg"},{"bike_id":"09cf9380-ad12-403d-a3b3-d4d8f4ecc39f","system_id":"levelo_inurba_marseille","lat":43.30549,"lon":5.367,"is_reserved":false,"is_disabled":false,"rental_uris":{"android":"levelo://app?vid=09cf9380-ad12-403d-a3b3-d4d8f4ecc39f","ios":"levelo://app?vid=09cf9380-ad12-403d-a3b3-d4d8f4ecc39f"},"vehicle_type_id":"4","last_reported":1739459426,"current_range_meters":35600,"station_id":"ce4bgrp2rcd13ifvqc9g","pricing_plan_id":"cebpf4jnsgd1na2vs0mg"},{"bike_id":"a1f6c532-806b-4949-ae9b-76c8237ce803","system_id":"levelo_inurba_marseille","lat":43.30763,"lon":5.42544,"is_reserved":false,"is_disabled":false,"rental_uris":{"android":"levelo://app?vid=a1f6c532-806b-4949-ae9b-76c8237ce803","ios":"levelo://app?vid=a1f6c532-806b-4949-ae9b-76c8237ce803"},"vehicle_type_id":"4","last_reported":1739459426,"current_range_meters":25200,"station_id":"ce4bhp92rcd13ifvqhbg","pricing_plan_id":"cebpf4jnsgd1na2vs0mg"},{"bike_id":"de7ace2f-5875-4649-9970-7b40f6a94adf","system_id":"levelo_inurba_marseille","lat":43.26194,"lon":5.37931,"is_reserved":false,"is_disabled":false,"rental_uris":{"android":"levelo://app?vid=de7ace2f-5875-4649-9970-7b40f6a94adf","ios":"levelo://app?vid=de7ace2f-5875-4649-9970-7b40f6a94adf"},