{"last_updated":1743689373,"ttl":60,"version":"2.2","data":{"bikes":[{"bike_id":"7c6c8788-9556-4d36-98c6-560a120639fc","system_id":"levelo_inurba_marseille","lat":43.29034,"lon":5.37559,"is_reserved":false,"is_disabled":false,"rental_uris":{"android":"levelo://app?vid=7c6c8788-9556-4d36-98c6-560a120639fc","ios":"levelo://app?vid=7c6c8788-9556-4d36-98c6-560a120639fc"},"vehicle_type_id":"4","last_reported":1743689373,"current_range_meters":2800,"station_id":"ce4bh692rcd13ifvqe90","pricing_plan_id":"cebpf4jnsgd1na2vs0mg"},{"bike_id":"2cb2ad55-404c-42a1-ac5c-fdfcf3ddbf49","system_id":"levelo_inurba_marseille","lat":43.32636,"lon":5.41363,"is_reserved":false,"is_disabled":false,"rental_uris":{"android":"levelo://app?vid=2cb2ad55-404c-42a1-ac5c-fdfcf3ddbf49","ios":"levelo://app?vid=2cb2ad55-404c-42a1-ac5c-fdfcf3ddbf49"},"vehicle_type_id":"4","last_reported":1743689373,"current_range_meters":2800,"station_id":"","pricing_plan_id":"cebpf4jnsgd1na2vs0mg"},{"bike_id":"d8ac0687-44ce-49c5-9454-27d3962f89ec","system_id":"levelo_inurba_marseille","lat":43.2958,"lon":5.37512,"is_reserved":false,"is_disabled":false,"rental_uris":{"android":"levelo://app?vid=d8ac0687-44ce-49c5-9454-27d3962f89ec","ios":"levelo://app?vid=d8ac0687-44ce-49c5-9454-27d3962f89ec"},"vehicle_type_id":"4","last_reported":1743689373,"current_range_meters":2800,"station_id":"ce4bgh92rcd13ifvqb50","pricing_plan_id":"cebpf4jnsgd1na2vs0mg"},{"bike_id":"dadb935d-027a-4027-b5d0-f0fb8882d196","system_id":"levelo_inurba_marseille","lat":43.24665,"lon":5.38168,"is_reserved":false,"is_disabled":false,"rental_uris":{"android":"levelo://app?vid=dadb935d-027a-4027-b5d0-f0fb8882d196","ios":"levelo://app?vid=dadb935d-027a-4027-b5d0-f0fb8882d196"},"vehicle_type_id":"4","last_reported":1743689373,"current_range_meters":3200,"station_id":"ce4bhih2rcd13ifvqfr0","pricing_plan_id":"cebpf4jnsgd1na2vs0mg"},{"bike_id":"bdf5686e-3765-4b48-9867-7824b7708ea3","system_id":"levelo_inurba_marseille","lat":43.298493,"lon":5.362907,"is_reserved":false,"is_disabled":false,"rental_uris":{"android":"levelo://app?vid=bdf5686e-3765-4b48-9867-7824b7708ea3","ios":"levelo://app?vid=bdf5686e-3765-4b48-9867-7824b7708ea3"},"vehicle_type_id":"4","last_reported":1743689373,"current_range_meters":3200,"station_id":"ce4bgpp2rcd13ifvqc3g","pricing_plan_id":"cebpf4jnsgd1na2vs0mg"},{"bike_id":"be290c18-52c0-4b07-8b18-1279019e8450","system_id":"levelo_inurba_marseille","lat":43.305328,"lon":5.384282,"is_reserved":false,"is_disabled":false,"rental_uris":{"android":"levelo://app?vid=be290c18-52c0-4b07-8b18-1279019e8450","ios":"levelo://app?vid=be290c18-52c0-4b07-8b18-1279019e8450"},"vehicle_type_id":"4","last_reported":1743689373,"current_range_meters":3200,"station_id":"ce4bgg92rcd13ifvqb30","pricing_plan_id":"cebpf4jnsgd1na2vs0mg"},{"bike_id":"190cba3a-6ca9-484d-87d0-6495d1b75538","system_id":"levelo_inurba_marseille","lat":43.30555,"lon":5.36716,"is_reserved":false,"is_disabled":false,"rental_uris":{"android":"levelo://app?vid=190cba3a-6ca9-484d-87d0-6495d1b75538","ios":"levelo://app?vid=190cba3a-6ca9-484d-87d0-6495d1b75538"},"vehicle_type_id":"4","last_reported":1743689373,"current_range_meters":3600,"station_id":"ce4bgrp2rcd13ifvqc9g","pricing_plan_id":"cebpf4jnsgd1na2vs0mg"},{"bike_id":"4f0dd21c-c75b-4bea-8c48-da83498ced14","system_id":"levelo_inurba_marseille","lat":43.29965,"lon":5.37157,"is_reserved":false,"is_disabled":false,"rental_uris":{"android":"levelo://app?vid=4f0dd21c-c75b-4bea-8c48-da83498ced14","ios":"levelo://app?vid=4f0dd21c-c75b-4bea-8c48-da83498ced14"},"vehicle_type_id":"4","last_reported":1743689373,"current_range_meters":3600,"station_id":"ce4bgr92rcd13ifvqc7g","pricing_plan_id":"cebpf4jnsgd1na2vs0mg"},{"bike_id":"fd379b95-103a-4d01-af5e-ef4e254699fe","system_id":"levelo_inurba_marseille","lat":43.23199,"lon":5.35557,"is_reserved":false,"is_disabled":false,"rental_uris":{"android":"levelo://app?vid=fd379b95-103a-4d01-af5e-ef4e254699fe","ios":"levelo://app?vid=fd379b95-103a-4d01-af5e-ef4e254699fe"},"vehicle_type_id":"4","last_reported":1743689373,"current_range_meters":3600,"station_id":"ce4bhu92rcd13ifvqi70","pricing_plan_id":"cebpf4jnsgd1na2vs0mg"},{"bike_id":"2cf61775-cb21-4b86-a7af-7925ef8f8bd8","system_id":"levelo_inurba_marseille","lat":43.22946,"lon":5.35373,"is_reserved":false,"is_disabled":false,"rental_uris":{"android":"levelo://app?vid=2cf61775-cb21-4b86-a7af-7925ef8f8bd8","ios":"levelo://app?vid=2cf61775-cb21-4b86-a7af-7925ef8f8bd8"},"vehicle_type_id":"4","last_reported":1743689373,"current_range_meters":3600,"station_id":"cpo3532slgdg3j2ikp40","pricing_plan_id":"cebpf4jnsgd1na2vs0mg"},{"bike_id":"3c3ffc92-5d26-4215-94e5-cafeeadf5518","system_id":"levelo_inurba_marseille","lat":43.27496,"lon":5.42454,"is_reserved":false,"is_disabled":false,"rental_uris":{"android":"levelo://app?vid=3c3ffc92-5d26-4215-94e5-cafeeadf5518","ios":"levelo://app?vid=3c3ffc92-5d26-4215-94e5-cafeeadf5518"},"vehicle_type_id":"4","last_reported":1743689373,"current_range_meters":3600,"station_id":"ce4bhn92rcd13ifvqgrg","pricing_plan_id":"cebpf4jnsgd1na2vs0mg"},{"bike_id":"e6b69cd2-f965-4a12-9e02-6f28a269f9f9","system_id":"levelo_inurba_marseille","lat":43.23053,"lon":5.35492,"is_reserved":false,"is_disabled":false,"rental_uris":{"android":"levelo://app?vid=e6b69cd2-f965-4a12-9e02-6f28a269f9f9","ios":"levelo://app?vid=e6b69cd2-f965-4a12-9e02-6f28a269f9f9"},"vehicle_type_id":"4","last_reported":1743689373,"current_range_meters":4000,"station_id":"cpo3342slgdg3j2ifvpg","pricing_plan_id":"cebpf4jnsgd1na2vs0mg"},{"bike_id":"39c94d58-86dd-4c73-88fa-10ad22a1d6b2","system_id":"levelo_inurba_marseille","lat":43.23149,"lon":5.43719,"is_reserved":false,"is_disabled":false,"rental_uris":{"android":"levelo://app?vid=39c94d58-86dd-4c73-88fa-10ad22a1d6b2","ios":"levelo://app?vid=39c94d58-86dd-4c73-88fa-10ad22a1d6b2"},"vehicle_type_id":"4","last_reported":1743689373,"current_range_meters":4000,"station_id":"ce4bhmp2rcd13ifvqgog","pricing_plan_id":"cebpf4jnsgd1na2vs0mg"},{"bike_id":"3e5329f3-c0cd-422c-afb1-2f46242590da","system_id":"levelo_inurba_marseille","lat":43.31909,"lon":5.37547,"is_reserved":false,"is_disabled":false,"rental_uris":{"android":"levelo://app?vid=3e5329f3-c0cd-422c-afb1-2f46242590da","ios":"levelo://app?vid=3e5329f3-c0cd-422c-afb1-2f46242590da"},"vehicle_type_id":"4","last_reported":1743689373,"current_range_meters":4000,"station_id":"","pricing_plan_id":"cebpf4jnsgd1na2vs0mg"},{"bike_id":"fec70d47-be16-499f-8811-286befaeee31","system_id":"levelo_inurba_marseille","lat":43.250013,"lon":5.389283,"is_reserved":false,"is_disabled":false,"rental_uris":{"android":"levelo://app?vid=fec70d47-be16-499f-8811-286befaeee31","ios":"levelo://app?vid=fec70d47-be16-499f-8811-286befaeee31"},"vehicle_type_id":"4","last_reported":1743689373,"current_range_meters":4000,"station_id":"ce4bhgp2rcd13ifvqfd0","pricing_plan_id":"cebpf4jnsgd1na2vs0mg"},{"bike_id":"c1a51692-a30b-438b-8ee7-06171ddd4375","system_id":"levelo_inurba_marseille","lat":43.3136,"lon":5.38486,"is_reserved":false,"is_disabled":false,"rental_uris":{"android":"levelo://app?vid=c1a51692-a30b-438b-8ee7-06171ddd4375","ios":"levelo://app?vid=c1a51692-a30b-438b-8ee7-06171ddd4375"},"vehicle_type_id":"4","last_reported":1743689373,"current_range_meters":4000,"station_id":"ce4bgt92rcd13ifvqcf0","pricing_plan_id":"cebpf4jnsgd1na2vs0mg"},{"bike_id":"e481cbbc-dc03-40d0-bfc9-11f7673f152a","system_id":"levelo_inurba_marseille","lat":43.301,"lon":5.3908,"is_reserved":false,"is_disabled":false,"rental_uris":{"android":"levelo://app?vid=e481cbbc-dc03-40d0-bfc9-11f7673f152a","ios":"levelo://app?vid=e481cbbc-dc03-40d0-bfc9-11f7673f152a"},"vehicle_type_id":"4","last_reported":1743689373,"current_range_meters":4000,"station_id":"ce4bh192rcd13ifvqdb0","pricing_plan_id":"cebpf4jnsgd1na2vs0mg"},{"bike_id":"221a6996-fa97-4ba9-aac3-32abc7546b40","system_id":"levelo_inurba_marseille","lat":43.28975,"lon":5.37831,"is_reserved":false,"is_disabled":false,"rental_uris":{"android":"levelo://app?vid=221a6996-fa97-4ba9-aac3-32abc7546b40","ios":"levelo://app?vid=221a6996-fa97-4ba9-aac3-32abc7546b40"},"vehicle_type_id":"4","last_reported":1743689373,"current_range_meters":4400,"station_id":"ce4bh9p2rcd13ifvqed0","pricing_plan_id":"cebpf4jnsgd1na2vs0mg"},{"bike_id":"f55695a6-b65f-4a30-99ab-94b2bfa63268","system_id":"levelo_inurba_marseille","lat":43.23204,"lon":5.35554,"is_reserved":false,"is_disabled":false,"rental_uris":{"android":"levelo://app?vid=f55695a6-b65f-4a30-99ab-94b2bfa63268","ios":"levelo://app?vid=f55695a6-b65f-4a30-99ab-94b2bfa63268"},"vehicle_type_id":"4","last_reported":1743689373,"current_range_meters":4400,"station_id":"ce4bhu92rcd13ifvqi70","pricing_plan_id":"cebpf4jnsgd1na2vs0mg"},{"bike_id":"101ee90b-f857-4a50-8b85-491d1b3d5efc","system_id":"levelo_inurba_marseille","lat":43.23199,"lon":5.35554,"is_reserved":false,"is_disabled":false,"rental_uris":{"android":"levelo://app?vid=101ee90b-f857-4a50-8b85-491d1b3d5efc","ios":"levelo://app?vid=101ee90b-f857-4a50-8b85-491d1b3d5efc"},"vehicle_type_id":"4","last_reported":1743689373,"current_range_meters":4400,"station_id":"ce4bhu92rcd13ifvqi70","pricing_plan_id":"cebpf4jnsgd1na2vs0mg"},{"bike_id":"d157a8ac-f1ea-480a-a1ee-9ac00962bb01","system_id":"levelo_inurba_marseille","lat":43.29546,"lon":5.42293,"is_reserved":false,"is_disabled":false,"rental_uris":{"android":"levelo://app?vid=d157a8ac-f1ea-480a-a1ee-9ac00962bb01","ios":"levelo://app?vid=d157a8ac-f1ea-480a-a1ee-9ac00962bb01"},"vehicle_type_id":"4","last_reported":1743689373,"current_range_meters":4800,"station_id":"ce4bhph2rcd13ifvqhdg","pricing_plan_id":"cebpf4jnsgd1na2vs0mg"},{"bike_id":"bf7218ea-6e3a-4648-a6be-7310d9e70929","system_id":"levelo_inurba_marseille","lat":43.26204,"lon":5.37449,"is_reserved":false,"is_disabled":false,"rental_uris":{"android":"levelo://app?vid=bf7218ea-6e3a-4648-a6be-7310d9e70929","ios":"levelo://app?vid=bf7218ea-6e3a-4648-a6be-7310d9e70929"},"vehicle_type_id":"4","last_reported":1743689373,"current_range_meters":5600,"station_id":"ce4bhgp2rcd13ifvqfc0","pricing_plan_id":"cebpf4jnsgd1na2vs0mg"},{"bike_id":"9c97af5a-3aac-4cd4-a64d-7ddd2a48b409","system_id":"levelo_inurba_marseille","lat":43.270866,"lon":5.399586,"is_reserved":false,"is_disabled":false,"rental_uris":{"android":"levelo://app?vid=9c97af5a-3aac-4cd4-a64d-7ddd2a48b409","ios":"levelo://app?vid=9c97af5a-3aac-4cd4-a64d-7ddd2a48b409"},"vehicle_type_id":"4","last_reported":1743689373,"current_range_meters":4800,"station_id":"cjm6bp8fraef2m0cb0m0","pricing_plan_id":"cebpf4jnsgd1na2vs0mg"},{"bike_id":"cea0e16b-aa79-4b0d-af8c-c18cf9fe6f66","system_id":"levelo_inurba_marseille","lat":43.279398,"lon":5.410474,"is_reserved":false,"is_disabled":false,"rental_uris":{"android":"levelo://app?vid=cea0e16b-aa79-4b0d-af8c-c18cf9fe6f66","ios":"levelo://app?vid=cea0e16b-aa79-4b0d-af8c-c18cf9fe6f66"},"vehicle_type_id":"4","last_reported":1743689373,"current_range_meters":4400,"station_id":"ce4bhip2rcd13ifvqft0","pricing_plan_id":"cebpf4jnsgd1na2vs0mg"},{"bike_id":"35b2b27c-c89e-4bae-b876-ca751896e911","system_id":"levelo_inurba_marseille","lat":43.2894,"lon":5.36639,"is_reserved":false,"is_disabled":false,"rental_uris":{"android":"levelo://app?vid=35b2b27c-c89e-4bae-b876-ca751896e911","ios":"levelo://app?vid=35b2b27c-c89e-4bae-b876-ca751896e911"},"vehicle_type_id":"4","last_reported":1743689373,"current_range_meters":5600,"station_id":"ce4bhap2rcd13ifvqek0","pricing_plan_id":"cebpf4jnsgd1na2vs0mg"},{"bike_id":"cbc78876-8405-49f7-8169-537ad3f1f273","system_id":"levelo_inurba_marseille","lat":43.25086,"lon":5.39526,"is_reserved":false,"is_disabled":false,"rental_uris":{"android":"levelo://app?vid=cbc78876-8405-49f7-8169-537ad3f1f273","ios":"levelo://app?vid=cbc78876-8405-49f7-8169-537ad3f1f273"},"vehicle_type_id":"4","last_reported":1743689373,"current_range_meters":4800,"station_id":"ce4bhm12rcd13ifvqgkg","pricing_plan_id":"cebpf4jnsgd1na2vs0mg"},{"bike_id":"cb10c701-7ea2-4a9a-b104-b47018e348d3","system_id":"levelo_inurba_marseille","lat":43.29712,"lon":5.37699,"is_reserved":false,"is_disabled":false,"rental_uris":{"android":"levelo://app?vid=cb10c701-7ea2-4a9a-b104-b47018e348d3","ios":"levelo://app?vid=cb10c701-7ea2-4a9a-b104-b47018e348d3"},"vehicle_type_id":"4","last_reported":1743689373,"current_range_meters":6000,"station_id":"ce4bgkh2rcd13ifvqbl0","pricing_plan_id":"cebpf4jnsgd1na2vs0mg"},{"bike_id":"2efefdad-13af-4dd7-b53d-d18e706054cb","system_id":"levelo_inurba_marseille","lat":43.23194,"lon":5.39978,"is_reserved":false,"is_disabled":false,"rental_uris":{"android":"levelo://app?vid=2efefdad-13af-4dd7-b53d-d18e706054cb","ios":"levelo://app?vid=2efefdad-13af-4dd7-b53d-d18e706054cb"},"vehicle_type_id":"4","last_reported":1743689373,"current_range_meters":6000,"station_id":"ce4bhn12rcd13ifvqgqg","pricing_plan_id":"cebpf4jnsgd1na2vs0mg"},{"bike_id":"7bc507c4-187b-4cb2-a5ef-07322f924baf","system_id":"levelo_inurba_marseille","lat":43.22931,"lon":5.35389,"is_reserved":false,"is_disabled":false,"rental_uris":{"android":"levelo://app?vid=7bc507c4-187b-4cb2-a5ef-07322f924baf","ios":"levelo://app?vid=7bc507c4-187b-4cb2-a5ef-07322f924baf"},"vehicle_type_id":"4","last_reported":1743689373,"current_range_meters":6000,"station_id":"cpo3532slgdg3j2ikp40","pricing_plan_id":"cebpf4jnsgd1na2vs0mg"},{"bike_id":"892dc380-5167-4823-a9b9-fe11dcb730ff","system_id":"levelo_inurba_marseille","lat":43.29027,"lon":5.37557,"is_reserved":false,"is_disabled":false,"rental_uris":{"android":"levelo://app?vid=892dc380-5167-4823-a9b9-fe11dcb730ff","ios":"levelo://app?vid=892dc380-5167-4823-a9b9-fe11dcb730ff"},"vehicle_type_id":"4","last_reported":1743689373,"current_range_meters":6000,"station_id":"ce4bh692rcd13ifvqe90","pricing_plan_id":"cebpf4jnsgd1na2vs0mg"},{"bike_id":"66759b34-8c5d-42bd-b75c-38104d2ee14f","system_id":"levelo_inurba_marseille","lat":43.30592,"lon":5.39361,"is_reserved":false,"is_disabled":false,"rental_uris":{"android":"levelo://app?vid=66759b34-8c5d-42bd-b75c-38104d2ee14f","ios":"levelo://app?vid=66759b34-8c5d-42bd-b75c-38104d2ee14f"},"vehicle_type_id":"4","last_reported":1743689373,"current_range_meters":6400,"station_id":"ce4bh0p2rcd13ifvqd80","pricing_plan_id":"cebpf4jnsgd1na2vs0mg"},{"bike_id":"1e56f8b0-0569-43fd-956b-7c3d45c8ba02","system_id":"levelo_inurba_marseille","lat":43.29335,"lon":5.41146,"is_reserved":false,"is_disabled":false,"rental_uris":{"android":"levelo://app?vid=1e56f8b0-0569-43fd-956b-7c3d45c8ba02","ios":"levelo://app?vid=1e56f8b0-0569-43fd-956b-7c3d45c8ba02"},"vehicle_type_id":"4","last_reported":1743689373,"current_range_meters":6400,"station_id":"","pricing_plan_id":"cebpf4jnsgd1na2vs0mg"},{"bike_id":"fe147b08-794f-4cc8-a62c-e589ca5791a1","system_id":"levelo_inurba_marseille","lat":43.25928,"lon":5.40913,"is_reserved":false,"is_disabled":false,"rental_uris":{"android":"levelo://app?vid=fe147b08-794f-4cc8-a62c-e589ca5791a1","ios":"levelo://app?vid=fe147b08-794f-4cc8-a62c-e589ca5791a1"},"vehicle_type_id":"4","last_reported":1743689373,"current_range_meters":6400,"station_id":"ce4bhm92rcd13ifvqglg","pricing_plan_id":"cebpf4jnsgd1na2vs0mg"},{"bike_id":"024f57f9-a04b-466b-8a4a-f9dada8baa5a","system_id":"levelo_inurba_marseille","lat":43.275,"lon":5.42449,"is_reserved":false,"is_disabled":false,"rental_uris":{"android":"levelo://app?vid=024f57f9-a04b-466b-8a4a-f9dada8baa5a","ios":"levelo://app?vid=024f57f9-a04b-466b-8a4a-f9dada8baa5a"},"vehicle_type_id":"4","last_reported":1743689373,"current_range_meters":6400,"station_id":"ce4bhn92rcd13ifvqgrg","pricing_plan_id":"cebpf4jnsgd1na2vs0mg"},{"bike_id":"5b31b160-d0c4-419b-bd81-d7268c0597e1","system_id":"levelo_inurba_marseille","lat":43.23156,"lon":5.43718,"is_reserved":false,"is_disabled":false,"rental_uris":{"android":"levelo://app?vid=5b31b160-d0c4-419b-bd81-d7268c0597e1","ios":"levelo://app?vid=5b31b160-d0c4-419b-bd81-d7268c0597e1"},"vehicle_type_id":"4","last_reported":1743689373,"current_range_meters":6400,"station_id":"ce4bhmp2rcd13ifvqgog","pricing_plan_id":"cebpf4jnsgd1na2vs0mg"},{"bike_id":"c589473e-3f2d-4a80-8bc2-21861222553c","system_id":"levelo_inurba_marseille","lat":43.25008,"lon":5.38935,"is_reserved":false,"is_disabled":false,"rental_uris":{"android":"levelo://app?vid=c589473e-3f2d-4a80-8bc2-21861222553c","ios":"levelo://app?vid=c589473e-3f2d-4a80-8bc2-21861222553c"},"vehicle_type_id":"4","last_reported":1743689373,"current_range_meters":6400,"station_id":"ce4bhgp2rcd13ifvqfd0","pricing_plan_id":"cebpf4jnsgd1na2vs0mg"},{"bike_id":"3e9a1b8c-35e6-43d7-af9a-4eb6ae6d4e55","system_id":"levelo_inurba_marseille","lat":43.27812,"lon":5.4071,"is_reserved":false,"is_disabled":false,"rental_uris":{"android":"levelo://app?vid=3e9a1b8c-35e6-43d7-af9a-4eb6ae6d4e55","ios":"levelo://app?vid=3e9a1b8c-35e6-43d7-af9a-4eb6ae6d4e55"},"vehicle_type_id":"4","last_reported":1743689373,"current_range_meters":6400,"station_id":"ce4bhnh2rcd13ifvqgtg","pricing_plan_id":"cebpf4jnsgd1na2vs0mg"},{"bike_id":"04556df8-715f-45d8-b288-9c8fd51282f9","system_id":"levelo_inurba_marseille","lat":43.23198,"lon":5.35552,"is_reserved":false,"is_disabled":false,"rental_uris":{"android":"levelo://app?vid=04556df8-715f-45d8-b288-9c8fd51282f9","ios":"levelo://app?vid=04556df8-715f-45d8-b288-9c8fd51282f9"},"vehicle_type_id":"4","last_reported":1743689373,"current_range_meters":6800,"station_id":"ce4bhu92rcd13ifvqi70","pricing_plan_id":"cebpf4jnsgd1na2vs0mg"},{"bike_id":"80000361-9d99-412e-9088-6965907d0302","system_id":"levelo_inurba_marseille","lat":43.31187,"lon":5.387451,"is_reserved":false,"is_disabled":false,"rental_uris":{"android":"levelo://app?vid=80000361-9d99-412e-9088-6965907d0302","ios":"levelo://app?vid=80000361-9d99-412e-9088-6965907d0302"},"vehicle_type_id":"4","last_reported":1743689373,"current_range_meters":6800,"station_id":"ce4bgv12rcd13ifvqcp0","pricing_plan_id":"cebpf4jnsgd1na2vs0mg"},{"bike_id":"988a4b2a-1fca-4561-9342-57ad8b6adb1c","system_id":"levelo_inurba_marseille","lat":43.22931,"lon":5.35378,"is_reserved":false,"is_disabled":false,"rental_uris":{"android":"levelo://app?vid=988a4b2a-1fca-4561-9342-57ad8b6adb1c","ios":"levelo://app?vid=988a4b2a-1fca-4561-9342-57ad8b6adb1c"},"vehicle_type_id":"4","last_reported":1743689373,"current_range_meters":6800,"station_id":"cpo3532slgdg3j2ikp40","pricing_plan_id":"cebpf4jnsgd1na2vs0mg"},{"bike_id":"3b948fbe-ea54-4e7f-8a80-214f816bc66c","system_id":"levelo_inurba_marseille","lat":43.24167,"lon":5.39707,"is_reserved":false,"is_disabled":false,"rental_uris":{"android":"levelo://app?vid=3b948fbe-ea54-4e7f-8a80-214f816bc66c","ios":"levelo://app?vid=3b948fbe-ea54-4e7f-8a80-214f816bc66c"},"vehicle_type_id":"4","last_reported":1743689373,"current_range_meters":6800,"station_id":"ce4bhn12rcd13ifvqgpg","pricing_plan_id":"cebpf4jnsgd1na2vs0mg"},{"bike_id":"f87e996c-206a-47d9-8697-84a2d463fdc3","system_id":"levelo_inurba_marseille","lat":43.2319,"lon":5.35558,"is_reserved":false,"is_disabled":false,"rental_uris":{"android":"levelo://app?vid=f87e996c-206a-47d9-8697-84a2d463fdc3","ios":"levelo://app?vid=f87e996c-206a-47d9-8697-84a2d463fdc3"},"vehicle_type_id":"4","last_reported":1743689373,"current_range_meters":6800,"station_id":"ce4bhu92rcd13ifvqi70","pricing_plan_id":"cebpf4jnsgd1na2vs0mg"},{"bike_id":"d3c79605-f5d1-48ff-a8ed-0411290f1105","system_id":"levelo_inurba_marseille","lat":43.30533,"lon":5.38414,"is_reserved":false,"is_disabled":true,"rental_uris":{"android":"levelo://app?vid=d3c79605-f5d1-48ff-a8ed-0411290f1105","ios":"levelo://app?vid=d3c79605-f5d1-48ff-a8ed-0411290f1105"},"vehicle_type_id":"4","last_reported":1743689373,"current_range_meters":6800,"station_id":"ce4bgg92rcd13ifvqb30","pricing_plan_id":"cebpf4jnsgd1na2vs0mg"},{"bike_id":"71178357-52ea-4831-8874-e0f73eb10477","system_id":"levelo_inurba_marseille","lat":43.23192,"lon":5.39973,"is_reserved":false,"is_disabled":false,"rental_uris":{"android":"levelo://app?vid=71178357-52ea-4831-8874-e0f73eb10477","ios":"levelo://app?vid=71178357-52ea-4831-8874-e0f73eb10477"},"vehicle_type_id":"4","last_reported":1743689373,"current_range_meters":6800,"station_id":"ce4bhn12rcd13ifvqgqg","pricing_plan_id":"cebpf4jnsgd1na2vs0mg"},{"bike_id":"52236e7f-598f-46a0-bc68-1ba5353f4299","system_id":"levelo_inurba_marseille","lat":43.29799,"lon":5.37096,"is_reserved":false,"is_disabled":false,"rental_uris":{"android":"levelo://app?vid=52236e7f-598f-46a0-bc68-1ba5353f4299","ios":"levelo://app?vid=52236e7f-598f-46a0-bc68-1ba5353f4299"},"vehicle_type_id":"4","last_reported":1743689373,"current_range_meters":6800,"station_id":"ce4bgop2rcd13ifvqc1g","pricing_plan_id":"cebpf4jnsgd1na2vs0mg"},{"bike_id":"546380d0-0813-4737-817f-a21e056e8d2e","system_id":"levelo_inurba_marseille","lat":43.32356,"lon":5.36758,"is_reserved":false,"is_disabled":false,"rental_uris":{"android":"levelo://app?vid=546380d0-0813-4737-817f-a21e056e8d2e","ios":"levelo://app?vid=546380d0-0813-4737-817f-a21e056e8d2e"},"vehicle_type_id":"4","last_reported":1743689373,"current_range_meters":6800,"station_id":"ce4bhsh2rcd13ifvqi2g","pricing_plan_id":"cebpf4jnsgd1na2vs0mg"},{"bike_id":"2075412d-24c0-45b9-9b2a-7dbe440bd431","system_id":"levelo_inurba_marseille","lat":43.31761,"lon":5.39015,"is_reserved":false,"is_disabled":false,"rental_uris":{"android":"levelo://app?vid=2075412d-24c0-45b9-9b2a-7dbe440bd431","ios":"levelo://app?vid=2075412d-24c0-45b9-9b2a-7dbe440bd431"},"vehicle_type_id":"4","last_reported":1743689373,"current_range_meters":6800,"station_id":"ce4bhqp2rcd13ifvqhng","pricing_plan_id":"cebpf4jnsgd1na2vs0mg"},{"bike_id":"557cb540-1c6b-43d7-b168-aa36eccf4d99","system_id":"levelo_inurba_marseille","lat":43.26553,"lon":5.37296,"is_reserved":false,"is_disabled":false,"rental_uris":{"android":"levelo://app?vid=557cb540-1c6b-43d7-b168-aa36eccf4d99","ios":"levelo://app?vid=557cb540-1c6b-43d7-b168-aa36eccf4d99"},"vehicle_type_id":"4","last_reported":1743689373,"current_range_meters":6800,"station_id":"ce4bhg12rcd13ifvqf70","pricing_plan_id":"cebpf4jnsgd1na2vs0mg"},{"bike_id":"2e1d0491-8046-4a1c-910c-6d230f4ca468","system_id":"levelo_inurba_marseille","lat":43.30695,"lon":5.37357,"is_reserved":false,"is_disabled":false,"rental_uris":{"android":"levelo://app?vid=2e1d0491-8046-4a1c-910c-6d230f4ca468","ios":"levelo://app?vid=2e1d0491-8046-4a1c-910c-6d230f4ca468"},"vehicle_type_id":"4","last_reported":1743689373,"current_range_meters":6800,"station_id":"","pricing_plan_id":"cebpf4jnsgd1na2vs0mg"},{"bike_id":"78d6b7cd-ac07-453b-bc94-98692716d8c6","system_id":"levelo_inurba_marseille","lat":43.232,"lon":5.35546,"is_reserved":false,"is_disabled":false,"rental_uris":{"android":"levelo://app?vid=78d6b7cd-ac07-453b-bc94-98692716d8c6","ios":"levelo://app?vid=78d6b7cd-ac07-453b-bc94-98692716d8c6"},"vehicle_type_id":"4","last_reported":1743689373,"current_range_meters":7200,"station_id":"ce4bhu92rcd13ifvqi70","pricing_plan_id":"cebpf4jnsgd1na2vs0mg"},{"bike_id":"3945780b-3464-4b52-8543-cf05282ae10d","system_id":"levelo_inurba_marseille","lat":43.31203,"lon":5.3687,"is_reserved":false,"is_disabled":false,"rental_uris":{"android":"levelo://app?vid=3945780b-3464-4b52-8543-cf05282ae10d","ios":"levelo://app?vid=3945780b-3464-4b52-8543-cf05282ae10d"},"vehicle_type_id":"4","last_reported":1743689373,"current_range_meters":7200,"station_id":"ce4bgl92rcd13ifvqbq0","pricing_plan_id":"cebpf4jnsgd1na2vs0mg"},{"bike_id":"7ae86ad2-92db-4bf7-84c4-d980cf71d360","system_id":"levelo_inurba_marseille","lat":43.29645,"lon":5.37146,"is_reserved":false,"is_disabled":false,"rental_uris":{"android":"levelo://app?vid=7ae86ad2-92db-4bf7-84c4-d980cf71d360","ios":"levelo://app?vid=7ae86ad2-92db-4bf7-84c4-d980cf71d360"},"vehicle_type_id":"4","last_reported":1743689373,"current_range_meters":7200,"station_id":"ce4bgnh2rcd13ifvqc0g","pricing_plan_id":"cebpf4jnsgd1na2vs0mg"},{"bike_id":"c8c097cc-00f2-49a0-9238-138b03cf8284","system_id":"levelo_inurba_marseille","lat":43.23134,"lon":5.43709,"is_reserved":false,"is_disabled":false,"rental_uris":{"android":"levelo://app?vid=c8c097cc-00f2-49a0-9238-138b03cf8284","ios":"levelo://app?vid=c8c097cc-00f2-49a0-9238-138b03cf8284"},"vehicle_type_id":"4","last_reported":1743689373,"current_range_meters":7200,"station_id":"ce4bhmp2rcd13ifvqgog","pricing_plan_id":"cebpf4jnsgd1na2vs0mg"},{"bike_id":"d8622081-2dc3-43ea-8f5d-94b348154956","system_id":"levelo_inurba_marseille","lat":43.30141,"lon":5.37422,"is_reserved":false,"is_disabled":false,"rental_uris":{"android":"levelo://app?vid=d8622081-2dc3-43ea-8f5d-94b348154956","ios":"levelo://app?vid=d8622081-2dc3-43ea-8f5d-94b348154956"},"vehicle_type_id":"4","last_reported":1743689373,"current_range_meters":12400,"station_id":"ce4bgs92rcd13ifvqcc0","pricing_plan_id":"cebpf4jnsgd1na2vs0mg"},{"bike_id":"ecac53c7-1761-431e-93a5-c1352259aa2f","system_id":"levelo_inurba_marseille","lat":43.28943,"lon":5.46535,"is_reserved":false,"is_disabled":false,"rental_uris":{"android":"levelo://app?vid=ecac53c7-1761-431e-93a5-c1352259aa2f","ios":"levelo://app?vid=ecac53c7-1761-431e-93a5-c1352259aa2f"},"vehicle_type_id":"4","last_reported":1743689373,"current_range_meters":8000,"station_id":"","pricing_plan_id":"cebpf4jnsgd1na2vs0mg"},{"bike_id":"15735828-32eb-46ad-97bb-f6ec69322dc2","system_id":"levelo_inurba_marseille","lat":43.28946,"lon":5.36638,"is_reserved":false,"is_disabled":false,"rental_uris":{"android":"levelo://app?vid=15735828-32eb-46ad-97bb-f6ec69322dc2","ios":"levelo://app?vid=15735828-32eb-46ad-97bb-f6ec69322dc2"},"vehicle_type_id":"4","last_reported":1743689373,"current_range_meters":8000,"station_id":"ce4bhap2rcd13ifvqek0","pricing_plan_id":"cebpf4jnsgd1na2vs0mg"},{"bike_id":"32a978e0-d0c2-43d4-9b03-19a5c41c27de","system_id":"levelo_inurba_marseille","lat":43.31074,"lon":5.38338,"is_reserved":false,"is_disabled":true,"rental_uris":{"android":"levelo://app?vid=32a978e0-d0c2-43d4-9b03-19a5c41c27de","ios":"levelo://app?vid=32a978e0-d0c2-43d4-9b03-19a5c41c27de"},"vehicle_type_id":"4","last_reported":1743689373,"current_range_meters":8000,"station_id":"ce4bgv92rcd13ifvqcr0","pricing_plan_id":"cebpf4jnsgd1na2vs0mg"},{"bike_id":"0c15f1cd-b230-45ce-84f4-8f6170d4bf71","system_id":"levelo_inurba_marseille","lat":43.274963,"lon":5.424497,"is_reserved":false,"is_disabled":false,"rental_uris":{"android":"levelo://app?vid=0c15f1cd-b230-45ce-84f4-8f6170d4bf71","ios":"levelo://app?vid=0c15f1cd-b230-45ce-84f4-8f6170d4bf71"},"vehicle_type_id":"4","last_reported":1743689373,"current_range_meters":8000,"station_id":"ce4bhn92rcd13ifvqgrg","pricing_plan_id":"cebpf4jnsgd1na2vs0mg"},{"bike_id":"75dae32f-059a-4b5b-a5e8-963c6eda2f66","system_id":"levelo_inurba_marseille","lat":43.27523,"lon":5.41018,"is_reserved":false,"is_disabled":false,"rental_uris":{"android":"levelo://app?vid=75dae32f-059a-4b5b-a5e8-963c6eda2f66","ios":"levelo://app?vid=75dae32f-059a-4b5b-a5e8-963c6eda2f66"},"vehicle_type_id":"4","last_reported":1743689373,"current_range_meters":8000,"station_id":"","pricing_plan_id":"cebpf4jnsgd1na2vs0mg"},{"bike_id":"3374421a-949f-40b6-870f-59a2d8ba0de4","system_id":"levelo_inurba_marseille","lat":43.24177,"lon":5.36388,"is_reserved":false,"is_disabled":false,"rental_uris":{"android":"levelo://app?vid=3374421a-949f-40b6-870f-59a2d8ba0de4","ios":"levelo://app?vid=3374421a-949f-40b6-870f-59a2d8ba0de4"},"vehicle_type_id":"4","last_reported":1743689373,"current_range_meters":8400,"station_id":"cpo36qri1sfpv3e86is0","pricing_plan_id":"cebpf4jnsgd1na2vs0mg"},{"bike_id":"c2e6881a-04a3-4a38-9cc0-75cacf165e78","system_id":"levelo_inurba_marseille","lat":43.28832,"lon":5.364645,"is_reserved":false,"is_disabled":false,"rental_uris":{"android":"levelo://app?vid=c2e6881a-04a3-4a38-9cc0-75cacf165e78","ios":"levelo://app?vid=c2e6881a-04a3-4a38-9cc0-75cacf165e78"},"vehicle_type_id":"4","last_reported":1743689373,"current_range_meters":8400,"station_id":"","pricing_plan_id":"cebpf4jnsgd1na2vs0mg"},{"bike_id":"86709387-0671-4615-8fd4-c91d4a13ab9e","system_id":"levelo_inurba_marseille","lat":43.22931,"lon":5.35377,"is_reserved":false,"is_disabled":false,"rental_uris":{"android":"levelo://app?vid=86709387-0671-4615-8fd4-c91d4a13ab9e","ios":"levelo://app?vid=86709387-0671-4615-8fd4-c91d4a13ab9e"},"vehicle_type_id":"4","last_reported":1743689373,"current_range_meters":8400,"station_id":"cpo3532slgdg3j2ikp40","pricing_plan_id":"cebpf4jnsgd1na2vs0mg"},{"bike_id":"51ec87d9-c00e-4ff5-bbe3-146f7e8bc6c3","system_id":"levelo_inurba_marseille","lat":43.29232,"lon":5.36071,"is_reserved":false,"is_disabled":false,"rental_uris":{"android":"levelo://app?vid=51ec87d9-c00e-4ff5-bbe3-146f7e8bc6c3","ios":"levelo://app?vid=51ec87d9-c00e-4ff5-bbe3-146f7e8bc6c3"},"vehicle_type_id":"4","last_reported":1743689373,"current_range_meters":8400,"station_id":"ce4bhbh2rcd13ifvqeqg","pricing_plan_id":"cebpf4jnsgd1na2vs0mg"},{"bike_id":"b5fa61b4-55c0-4d0f-b518-f0583e71aca3","system_id":"levelo_inurba_marseille","lat":43.22948,"lon":5.35369,"is_reserved":false,"is_disabled":false,"rental_uris":{"android":"levelo://app?vid=b5fa61b4-55c0-4d0f-b518-f0583e71aca3","ios":"levelo://app?vid=b5fa61b4-55c0-4d0f-b518-f0583e71aca3"},"vehicle_type_id":"4","last_reported":1743689373,"current_range_meters":8400,"station_id":"cpo3532slgdg3j2ikp40","pricing_plan_id":"cebpf4jnsgd1na2vs0mg"},{"bike_id":"7f4f0a5b-bfc5-41b1-9ca8-7b777a0aeb4f","system_id":"levelo_inurba_marseille","lat":43.23062,"lon":5.35489,"is_reserved":false,"is_disabled":false,"rental_uris":{"android":"levelo://app?vid=7f4f0a5b-bfc5-41b1-9ca8-7b777a0aeb4f","ios":"levelo://app?vid=7f4f0a5b-bfc5-41b1-9ca8-7b777a0aeb4f"},"vehicle_type_id":"4","last_reported":1743689373,"current_range_meters":8400,"station_id":"cpo3342slgdg3j2ifvpg","pricing_plan_id":"cebpf4jnsgd1na2vs0mg"},{"bike_id":"6b901243-5970-4d41-950d-b84f98e2f80e","system_id":"levelo_inurba_marseille","lat":43.29251,"lon":5.37605,"is_reserved":false,"is_disabled":false,"rental_uris":{"android":"levelo://app?vid=6b901243-5970-4d41-950d-b84f98e2f80e","ios":"levelo://app?vid=6b901243-5970-4d41-950d-b84f98e2f80e"},"vehicle_type_id":"4","last_reported":1743689373,"current_range_meters":8400,"station_id":"ce4bgi12rcd13ifvqb80","pricing_plan_id":"cebpf4jnsgd1na2vs0mg"},{"bike_id":"806f15f5-826d-41fe-94bf-7198bfd375b1","system_id":"levelo_inurba_marseille","lat":43.23138,"lon":5.43723,"is_reserved":false,"is_disabled":false,"rental_uris":{"android":"levelo://app?vid=806f15f5-826d-41fe-94bf-7198bfd375b1","ios":"levelo://app?vid=806f15f5-826d-41fe-94bf-7198bfd375b1"},"vehicle_type_id":"4","last_reported":1743689373,"current_range_meters":8400,"station_id":"ce4bhmp2rcd13ifvqgog","pricing_plan_id":"cebpf4jnsgd1na2vs0mg"},{"bike_id":"4efe08bc-3ed4-4dd1-ad00-43917e8a6048","system_id":"levelo_inurba_marseille","lat":43.28118,"lon":5.3782,"is_reserved":false,"is_disabled":false,"rental_uris":{"android":"levelo://app?vid=4efe08bc-3ed4-4dd1-ad00-43917e8a6048","ios":"levelo://app?vid=4efe08bc-3ed4-4dd1-ad00-43917e8a6048"},"vehicle_type_id":"4","last_reported":1743689373,"current_range_meters":8400,"station_id":"ce4bha12rcd13ifvqee0","pricing_plan_id":"cebpf4jnsgd1na2vs0mg"},{"bike_id":"9001ba53-59b1-44e0-bcf4-e0b766d80a6e","system_id":"levelo_inurba_marseille","lat":43.2656,"lon":5.37273,"is_reserved":false,"is_disabled":false,"rental_uris":{"android":"levelo://app?vid=9001ba53-59b1-44e0-bcf4-e0b766d80a6e","ios":"levelo://app?vid=9001ba53-59b1-44e0-bcf4-e0b766d80a6e"},"vehicle_type_id":"4","last_reported":1743689373,"current_range_meters":8400,"station_id":"ce4bhg12rcd13ifvqf70","pricing_plan_id":"cebpf4jnsgd1na2vs0mg"},{"bike_id":"15ea3e20-e3c1-434f-8b50-88d1ebba3f71","system_id":"levelo_inurba_marseille","lat":43.2319,"lon":5.35568,"is_reserved":false,"is_disabled":false,"rental_uris":{"android":"levelo://app?vid=15ea3e20-e3c1-434f-8b50-88d1ebba3f71","ios":"levelo://app?vid=15ea3e20-e3c1-434f-8b50-88d1ebba3f71"},"vehicle_type_id":"4","last_reported":1743689373,"current_range_meters":8400,"station_id":"ce4bhu92rcd13ifvqi70","pricing_plan_id":"cebpf4jnsgd1na2vs0mg"},{"bike_id":"3619694c-3301-416c-8e78-88c2ffeee77d","system_id":"levelo_inurba_marseille","lat":43.231995,"lon":5.355582,"is_reserved":false,"is_disabled":false,"rental_uris":{"android":"levelo://app?vid=3619694c-3301-416c-8e78-88c2ffeee77d","ios":"levelo://app?vid=3619694c-3301-416c-8e78-88c2ffeee77d"},"vehicle_type_id":"4","last_reported":1743689373,"current_range_meters":8400,"station_id":"","pricing_plan_id":"cebpf4jnsgd1na2vs0mg"},{"bike_id":"983ad44e-e056-4b9e-bce8-b282ba94f1b4","system_id":"levelo_inurba_marseille","lat":43.28682,"lon":5.38667,"is_reserved":false,"is_disabled":false,"rental_uris":{"android":"levelo://app?vid=983ad44e-e056-4b9e-bce8-b282ba94f1b4","ios":"levelo://app?vid=983ad44e-e056-4b9e-bce8-b282ba94f1b4"},"vehicle_type_id":"4","last_reported":1743689373,"current_range_meters":8800,"station_id":"ce4bh492rcd13ifvqdug","pricing_plan_id":"cebpf4jnsgd1na2vs0mg"},{"bike_id":"61da1036-90fb-4e6f-ad89-ef7fc71db220","system_id":"levelo_inurba_marseille","lat":43.2656,"lon":5.3731,"is_reserved":false,"is_disabled":false,"rental_uris":{"android":"levelo://app?vid=61da1036-90fb-4e6f-ad89-ef7fc71db220","ios":"levelo://app?vid=61da1036-90fb-4e6f-ad89-ef7fc71db220"},"vehicle_type_id":"4","last_reported":1743689373,"current_range_meters":8800,"station_id":"ce4bhg12rcd13ifvqf70","pricing_plan_id":"cebpf4jnsgd1na2vs0mg"},{"bike_id":"730abadd-9fe4-4779-9d4b-0bf741ec4f83","system_id":"levelo_inurba_marseille","lat":43.308072,"lon":5.3815,"is_reserved":false,"is_disabled":false,"rental_uris":{"android":"levelo://app?vid=730abadd-9fe4-4779-9d4b-0bf741ec4f83","ios":"levelo://app?vid=730abadd-9fe4-4779-9d4b-0bf741ec4f83"},"vehicle_type_id":"4","last_reported":1743689373,"current_range_meters":8800,"station_id":"ce4bgt12rcd13ifvqce0","pricing_plan_id":"cebpf4jnsgd1na2vs0mg"},{"bike_id":"e1702d01-a8c1-4a49-9cd9-e898fe23b76b","system_id":"levelo_inurba_marseille","lat":43.27681,"lon":5.38922,"is_reserved":false,"is_disabled":false,"rental_uris":{"android":"levelo://app?vid=e1702d01-a8c1-4a49-9cd9-e898fe23b76b","ios":"levelo://app?vid=e1702d01-a8c1-4a49-9cd9-e898fe23b76b"},"vehicle_type_id":"4","last_reported":1743689373,"current_range_meters":8800,"station_id":"ce4bhi12rcd13ifvqfo0","pricing_plan_id":"cebpf4jnsgd1na2vs0mg"},{"bike_id":"163d90b1-f8e3-4c6f-9289-fa5488c005e3","system_id":"levelo_inurba_marseille","lat":43.294067,"lon":5.374194,"is_reserved":false,"is_disabled":false,"rental_uris":{"android":"levelo://app?vid=163d90b1-f8e3-4c6f-9289-fa5488c005e3","ios":"levelo://app?vid=163d90b1-f8e3-4c6f-9289-fa5488c005e3"},"vehicle_type_id":"4","last_reported":1743689373,"current_range_meters":8800,"station_id":"ce4bgi12rcd13ifvqb70","pricing_plan_id":"cebpf4jnsgd1na2vs0mg"},{"bike_id":"2d852c82-ae6a-4739-92da-48a433ac3774","system_id":"levelo_inurba_marseille","lat":43.28436,"lon":5.39185,"is_reserved":false,"is_disabled":false,"rental_uris":{"android":"levelo://app?vid=2d852c82-ae6a-4739-92da-48a433ac3774","ios":"levelo://app?vid=2d852c82-ae6a-4739-92da-48a433ac3774"},"vehicle_type_id":"4","last_reported":1743689373,"current_range_meters":8800,"station_id":"ce4bhoh2rcd13ifvqh5g","pricing_plan_id":"cebpf4jnsgd1na2vs0mg"},{"bike_id":"4a8d215f-728c-4424-bfbf-5faa62888e2d","system_id":"levelo_inurba_marseille","lat":43.295101,"lon":5.394076,"is_reserved":false,"is_disabled":true,"rental_uris":{"android":"levelo://app?vid=4a8d215f-728c-4424-bfbf-5faa62888e2d","ios":"levelo://app?vid=4a8d215f-728c-4424-bfbf-5faa62888e2d"},"vehicle_type_id":"4","last_reported":1743689373,"current_range_meters":8800,"station_id":"ce4bh292rcd13ifvqdf0","pricing_plan_id":"cebpf4jnsgd1na2vs0mg"},{"bike_id":"8428f7d2-602a-4f83-b527-dd23d329a703","system_id":"levelo_inurba_marseille","lat":43.23966,"lon":5.36631,"is_reserved":false,"is_disabled":false,"rental_uris":{"android":"levelo://app?vid=8428f7d2-602a-4f83-b527-dd23d329a703","ios":"levelo://app?vid=8428f7d2-602a-4f83-b527-dd23d329a703"},"vehicle_type_id":"4","last_reported":1743689373,"current_range_meters":9200,"station_id":"ce4bhi12rcd13ifvqfp0","pricing_plan_id":"cebpf4jnsgd1na2vs0mg"},{"bike_id":"cd83c8ac-ed09-4369-9279-b6f36f2bbd3c","system_id":"levelo_inurba_marseille","lat":43.30806,"lon":5.38234,"is_reserved":false,"is_disabled":false,"rental_uris":{"android":"levelo://app?vid=cd83c8ac-ed09-4369-9279-b6f36f2bbd3c","ios":"levelo://app?vid=cd83c8ac-ed09-4369-9279-b6f36f2bbd3c"},"vehicle_type_id":"4","last_reported":1743689373,"current_range_meters":9200,"station_id":"","pricing_plan_id":"cebpf4jnsgd1na2vs0mg"},{"bike_id":"7d49898d-4c6e-4131-9fdb-37de62f2c79c","system_id":"levelo_inurba_marseille","lat":43.28895,"lon":5.37139,"is_reserved":false,"is_disabled":false,"rental_uris":{"android":"levelo://app?vid=7d49898d-4c6e-4131-9fdb-37de62f2c79c","ios":"levelo://app?vid=7d49898d-4c6e-4131-9fdb-37de62f2c79c"},"vehicle_type_id":"4","last_reported":1743689373,"current_range_meters":9200,"station_id":"","pricing_plan_id":"cebpf4jnsgd1na2vs0mg"},{"bike_id":"58e66669-53ab-4d39-8504-5d085a462eeb","system_id":"levelo_inurba_marseille","lat":43.25941,"lon":5.40905,"is_reserved":false,"is_disabled":false,"rental_uris":{"android":"levelo://app?vid=58e66669-53ab-4d39-8504-5d085a462eeb","ios":"levelo://app?vid=58e66669-53ab-4d39-8504-5d085a462eeb"},"vehicle_type_id":"4","last_reported":1743689373,"current_range_meters":9200,"station_id":"ce4bhm92rcd13ifvqglg","pricing_plan_id":"cebpf4jnsgd1na2vs0mg"},{"bike_id":"eae1c1f9-7db0-41d8-acdc-37132416b428","system_id":"levelo_inurba_marseille","lat":43.27419,"lon":5.39416,"is_reserved":false,"is_disabled":false,"rental_uris":{"android":"levelo://app?vid=eae1c1f9-7db0-41d8-acdc-37132416b428","ios":"levelo://app?vid=eae1c1f9-7db0-41d8-acdc-37132416b428"},"vehicle_type_id":"4","last_reported":1743689373,"current_range_meters":9200,"station_id":"ce4bhdp2rcd13ifvqf20","pricing_plan_id":"cebpf4jnsgd1na2vs0mg"},{"bike_id":"87ebaa08-417c-4e4c-9c6c-0870e96c7115","system_id":"levelo_inurba_marseille","lat":43.25005,"lon":5.3893,"is_reserved":false,"is_disabled":false,"rental_uris":{"android":"levelo://app?vid=87ebaa08-417c-4e4c-9c6c-0870e96c7115","ios":"levelo://app?vid=87ebaa08-417c-4e4c-9c6c-0870e96c7115"},"vehicle_type_id":"4","last_reported":1743689373,"current_range_meters":9200,"station_id":"ce4bhgp2rcd13ifvqfd0","pricing_plan_id":"cebpf4jnsgd1na2vs0mg"},{"bike_id":"6b53d01e-77c7-4299-99ae-dda20d28569d","system_id":"levelo_inurba_marseille","lat":43.27947,"lon":5.38695,"is_reserved":false,"is_disabled":false,"rental_uris":{"android":"levelo://app?vid=6b53d01e-77c7-4299-99ae-dda20d28569d","ios":"levelo://app?vid=6b53d01e-77c7-4299-99ae-dda20d28569d"},"vehicle_type_id":"4","last_reported":1743689373,"current_range_meters":9600,"station_id":"ce4bhg12rcd13ifvqf80","pricing_plan_id":"cebpf4jnsgd1na2vs0mg"},{"bike_id":"5636a15c-0b4a-4772-8a31-1d568d6228ef","system_id":"levelo_inurba_marseille","lat":43.294029,"lon":5.386108,"is_reserved":false,"is_disabled":false,"rental_uris":{"android":"levelo://app?vid=5636a15c-0b4a-4772-8a31-1d568d6228ef","ios":"levelo://app?vid=5636a15c-0b4a-4772-8a31-1d568d6228ef"},"vehicle_type_id":"4","last_reported":1743689373,"current_range_meters":9600,"station_id":"ce4bh2h2rcd13ifvqdh0","pricing_plan_id":"cebpf4jnsgd1na2vs0mg"},{"bike_id":"8084a1e5-3eb2-4a07-82e8-309719c1a80e","system_id":"levelo_inurba_marseille","lat":43.26232,"lon":5.40466,"is_reserved":false,"is_disabled":false,"rental_uris":{"android":"levelo://app?vid=8084a1e5-3eb2-4a07-82e8-309719c1a80e","ios":"levelo://app?vid=8084a1e5-3eb2-4a07-82e8-309719c1a80e"},"vehicle_type_id":"4","last_reported":1743689373,"current_range_meters":9600,"station_id":"ce4bhmh2rcd13ifvqgmg","pricing_plan_id":"cebpf4jnsgd1na2vs0mg"},{"bike_id":"f1760784-c110-42da-90b6-730dd2c7c9e6","system_id":"levelo_inurba_marseille","lat":43.32493,"lon":5.3654,"is_reserved":false,"is_disabled":false,"rental_uris":{"android":"levelo://app?vid=f1760784-c110-42da-90b6-730dd2c7c9e6","ios":"levelo://app?vid=f1760784-c110-42da-90b6-730dd2c7c9e6"},"vehicle_type_id":"4","last_reported":1743689373,"current_range_meters":9600,"station_id":"ce4bhs12rcd13ifvqhvg","pricing_plan_id":"cebpf4jnsgd1na2vs0mg"},{"bike_id":"89a9a362-1edc-4fef-9763-d6525677f480","system_id":"levelo_inurba_marseille","lat":43.30162,"lon":5.36636,"is_reserved":false,"is_disabled":false,"rental_uris":{"android":"levelo://app?vid=89a9a362-1edc-4fef-9763-d6525677f480","ios":"levelo://app?vid=89a9a362-1edc-4fef-9763-d6525677f480"},"vehicle_type_id":"4","last_reported":1743689373,"current_range_meters":9600,"station_id":"ce4bgrh2rcd13ifvqc8g","pricing_plan_id":"cebpf4jnsgd1na2vs0mg"},{"bike_id":"a117db19-3a63-4c66-99c1-48243cdea383","system_id":"levelo_inurba_marseille","lat":43.32336,"lon":5.40623,"is_reserved":false,"is_disabled":false,"rental_uris":{"android":"levelo://app?vid=a117db19-3a63-4c66-99c1-48243cdea383","ios":"levelo://app?vid=a117db19-3a63-4c66-99c1-48243cdea383"},"vehicle_type_id":"4","last_reported":1743689373,"current_range_meters":9600,"station_id":"ce4bhq92rcd13ifvqhjg","pricing_plan_id":"cebpf4jnsgd1na2vs0mg"},{"bike_id":"6c51a2a4-1207-41d6-8962-c4f070bd2bd2","system_id":"levelo_inurba_marseille","lat":43.27064,"lon":5.42274,"is_reserved":false,"is_disabled":false,"rental_uris":{"android":"levelo://app?vid=6c51a2a4-1207-41d6-8962-c4f070bd2bd2","ios":"levelo://app?vid=6c51a2a4-1207-41d6-8962-c4f070bd2bd2"},"vehicle_type_id":"4","last_reported":1743689373,"current_range_meters":9600,"station_id":"ce4bhk92rcd13ifvqgb0","pricing_plan_id":"cebpf4jnsgd1na2vs0mg"},{"bike_id":"73d854ad-9eb6-4d68-8878-e9b2295ae65a","system_id":"levelo_inurba_marseille","lat":43.23068,"lon":5.35496,"is_reserved":false,"is_disabled":false,"rental_uris":{"android":"levelo://app?vid=73d854ad-9eb6-4d68-8878-e9b2295ae65a","ios":"levelo://app?vid=73d854ad-9eb6-4d68-8878-e9b2295ae65a"},"vehicle_type_id":"4","last_reported":1743689373,"current_range_meters":10000,"station_id":"cpo3342slgdg3j2ifvpg","pricing_plan_id":"cebpf4jnsgd1na2vs0mg"},{"bike_id":"4705b925-574a-494e-9ec9-ff5a1931fdd4","system_id":"levelo_inurba_marseille","lat":43.29194,"lon":5.39317,"is_reserved":false,"is_disabled":false,"rental_uris":{"android":"levelo://app?vid=4705b925-574a-494e-9ec9-ff5a1931fdd4","ios":"levelo://app?vid=4705b925-574a-494e-9ec9-ff5a1931fdd4"},"vehicle_type_id":"4","last_reported":1743689373,"current_range_meters":10000,"station_id":"ce4bh192rcd13ifvqdd0","pricing_plan_id":"cebpf4jnsgd1na2vs0mg"},{"bike_id":"e82d3ee0-1d60-4058-a155-6a7d5ea8d517","system_id":"levelo_inurba_marseille","lat":43.302103,"lon":5.394692,"is_reserved":false,"is_disabled":false,"rental_uris":{"android":"levelo://app?vid=e82d3ee0-1d60-4058-a155-6a7d5ea8d517","ios":"levelo://app?vid=e82d3ee0-1d60-4058-a155-6a7d5ea8d517"},"vehicle_type_id":"4","last_reported":1743689373,"current_range_meters":10000,"station_id":"ce4bh0p2rcd13ifvqd70","pricing_plan_id":"cebpf4jnsgd1na2vs0mg"},{"bike_id":"eb050ca6-b9bb-480e-8fd3-c89d896f90bc","system_id":"levelo_inurba_marseille","lat":43.3078,"lon":5.37651,"is_reserved":false,"is_disabled":false,"rental_uris":{"android":"levelo://app?vid=eb050ca6-b9bb-480e-8fd3-c89d896f90bc","ios":"levelo://app?vid=eb050ca6-b9bb-480e-8fd3-c89d896f90bc"},"vehicle_type_id":"4","last_reported":1743689373,"current_range_meters":10000,"station_id":"ce4bgv92rcd13ifvqcq0","pricing_plan_id":"cebpf4jnsgd1na2vs0mg"},{"bike_id":"1bdb3de0-9f3f-40ed-879d-d94d6d0fff29","system_id":"levelo_inurba_marseille","lat":43.28417,"lon":5.34979,"is_reserved":false,"is_disabled":false,"rental_uris":{"android":"levelo://app?vid=1bdb3de0-9f3f-40ed-879d-d94d6d0fff29","ios":"levelo://app?vid=1bdb3de0-9f3f-40ed-879d-d94d6d0fff29"},"vehicle_type_id":"4","last_reported":1743689373,"current_range_meters":10000,"station_id":"ce4bhbh2rcd13ifvqepg","pricing_plan_id":"cebpf4jnsgd1na2vs0mg"},{"bike_id":"2635283e-ffd4-4c1f-b9e8-1b146ac4c8cc","system_id":"levelo_inurba_marseille","lat":43.30207,"lon":5.4192,"is_reserved":false,"is_disabled":false,"rental_uris":{"android":"levelo://app?vid=2635283e-ffd4-4c1f-b9e8-1b146ac4c8cc","ios":"levelo://app?vid=2635283e-ffd4-4c1f-b9e8-1b146ac4c8cc"},"vehicle_type_id":"4","last_reported":1743689373,"current_range_meters":10000,"station_id":"","pricing_plan_id":"cebpf4jnsgd1na2vs0mg"},{"bike_id":"97896511-69ea-46eb-be23-6e4cbf1927e9","system_id":"levelo_inurba_marseille","lat":43.24074,"lon":5.37754,"is_reserved":false,"is_disabled":false,"rental_uris":{"android":"levelo://app?vid=97896511-69ea-46eb-be23-6e4cbf1927e9","ios":"levelo://app?vid=97896511-69ea-46eb-be23-6e4cbf1927e9"},"vehicle_type_id":"4","last_reported":1743689373,"current_range_meters":10000,"station_id":"ce4bhnp2rcd13ifvqgvg","pricing_plan_id":"cebpf4jnsgd1na2vs0mg"},{"bike_id":"15ddb72c-7710-4d8f-a7f3-8b219a355f25","system_id":"levelo_inurba_marseille","lat":43.24067,"lon":5.37755,"is_reserved":false,"is_disabled":false,"rental_uris":{"android":"levelo://app?vid=15ddb72c-7710-4d8f-a7f3-8b219a355f25","ios":"levelo://app?vid=15ddb72c-7710-4d8f-a7f3-8b219a355f25"},"vehicle_type_id":"4","last_reported":1743689373,"current_range_meters":10800,"station_id":"ce4bhnp2rcd13ifvqgvg","pricing_plan_id":"cebpf4jnsgd1na2vs0mg"},{"bike_id":"4fbc4995-2986-4e94-8bac-520259801d05","system_id":"levelo_inurba_marseille","lat":43.27972,"lon":5.38732,"is_reserved":false,"is_disabled":false,"rental_uris":{"android":"levelo://app?vid=4fbc4995-2986-4e94-8bac-520259801d05","ios":"levelo://app?vid=4fbc4995-2986-4e94-8bac-520259801d05"},"vehicle_type_id":"4","last_reported":1743689373,"current_range_meters":10800,"station_id":"ce4bhg12rcd13ifvqf80","pricing_plan_id":"cebpf4jnsgd1na2vs0mg"},{"bike_id":"68eb3bcb-f9e0-4733-9040-cef381994d22","system_id":"levelo_inurba_marseille","lat":43.29629,"lon":5.37742,"is_reserved":false,"is_disabled":false,"rental_uris":{"android":"levelo://app?vid=68eb3bcb-f9e0-4733-9040-cef381994d22","ios":"levelo://app?vid=68eb3bcb-f9e0-4733-9040-cef381994d22"},"vehicle_type_id":"4","last_reported":1743689373,"current_range_meters":10800,"station_id":"ce4bgi92rcd13ifvqb90","pricing_plan_id":"cebpf4jnsgd1na2vs0mg"},{"bike_id":"e3a29d38-a611-4b12-87ef-2fb8a21c41d5","system_id":"levelo_inurba_marseille","lat":43.229301,"lon":5.35381,"is_reserved":false,"is_disabled":false,"rental_uris":{"android":"levelo://app?vid=e3a29d38-a611-4b12-87ef-2fb8a21c41d5","ios":"levelo://app?vid=e3a29d38-a611-4b12-87ef-2fb8a21c41d5"},"vehicle_type_id":"4","last_reported":1743689373,"current_range_meters":10800,"station_id":"cpo3532slgdg3j2ikp40","pricing_plan_id":"cebpf4jnsgd1na2vs0mg"},{"bike_id":"c1c63035-c83b-4419-8cbf-133778d95125","system_id":"levelo_inurba_marseille","lat":43.29785,"lon":5.39351,"is_reserved":false,"is_disabled":true,"rental_uris":{"android":"levelo://app?vid=c1c63035-c83b-4419-8cbf-133778d95125","ios":"levelo://app?vid=c1c63035-c83b-4419-8cbf-133778d95125"},"vehicle_type_id":"4","last_reported":1743689373,"current_range_meters":10800,"station_id":"chh1huq6cuj3fo74tm60","pricing_plan_id":"cebpf4jnsgd1na2vs0mg"},{"bike_id":"a8cc267e-b21d-4ab7-ad0a-89e3b64a29df","system_id":"levelo_inurba_marseille","lat":43.29294,"lon":5.37459,"is_reserved":false,"is_disabled":false,"rental_uris":{"android":"levelo://app?vid=a8cc267e-b21d-4ab7-ad0a-89e3b64a29df","ios":"levelo://app?vid=a8cc267e-b21d-4ab7-ad0a-89e3b64a29df"},"vehicle_type_id":"4","last_reported":1743689373,"current_range_meters":10800,"station_id":"ce4bgi12rcd13ifvqb70","pricing_plan_id":"cebpf4jnsgd1na2vs0mg"},{"bike_id":"c13336a2-47ce-488c-b5b6-77c01a3ac1d1","system_id":"levelo_inurba_marseille","lat":43.31873,"lon":5.40771,"is_reserved":false,"is_disabled":true,"rental_uris":{"android":"levelo://app?vid=c13336a2-47ce-488c-b5b6-77c01a3ac1d1","ios":"levelo://app?vid=c13336a2-47ce-488c-b5b6-77c01a3ac1d1"},"vehicle_type_id":"4","last_reported":1743689373,"current_range_meters":10800,"station_id":"ce4bhq12rcd13ifvqhig","pricing_plan_id":"cebpf4jnsgd1na2vs0mg"},{"bike_id":"63c19073-a7de-46ed-a396-8639743b910e","system_id":"levelo_inurba_marseille","lat":43.23194,"lon":5.35551,"is_reserved":false,"is_disabled":false,"rental_uris":{"android":"levelo://app?vid=63c19073-a7de-46ed-a396-8639743b910e","ios":"levelo://app?vid=63c19073-a7de-46ed-a396-8639743b910e"},"vehicle_type_id":"4","last_reported":1743689373,"current_range_meters":10800,"station_id":"ce4bhu92rcd13ifvqi70","pricing_plan_id":"cebpf4jnsgd1na2vs0mg"},{"bike_id":"70e5b39f-29e3-4ea9-aa83-5a60a8eec6f8","system_id":"levelo_inurba_marseille","lat":43.25046,"lon":5.41684,"is_reserved":false,"is_disabled":false,"rental_uris":{"android":"levelo://app?vid=70e5b39f-29e3-4ea9-aa83-5a60a8eec6f8","ios":"levelo://app?vid=70e5b39f-29e3-4ea9-aa83-5a60a8eec6f8"},"vehicle_type_id":"4","last_reported":1743689373,"current_range_meters":10800,"station_id":"","pricing_plan_id":"cebpf4jnsgd1na2vs0mg"},{"bike_id":"e887e1b0-3e28-4312-9fbe-6970a3a27c4a","system_id":"levelo_inurba_marseille","lat":43.25914,"lon":5.40871,"is_reserved":false,"is_disabled":false,"rental_uris":{"android":"levelo://app?vid=e887e1b0-3e28-4312-9fbe-6970a3a27c4a","ios":"levelo://app?vid=e887e1b0-3e28-4312-9fbe-6970a3a27c4a"},"vehicle_type_id":"4","last_reported":1743689373,"current_range_meters":11200,"station_id":"ce4bhm92rcd13ifvqglg","pricing_plan_id":"cebpf4jnsgd1na2vs0mg"},{"bike_id":"3d1fbce8-12b2-4afb-9dae-e841e4ae1b2e","system_id":"levelo_inurba_marseille","lat":43.29799,"lon":5.38097,"is_reserved":false,"is_disabled":false,"rental_uris":{"android":"levelo://app?vid=3d1fbce8-12b2-4afb-9dae-e841e4ae1b2e","ios":"levelo://app?vid=3d1fbce8-12b2-4afb-9dae-e841e4ae1b2e"},"vehicle_type_id":"4","last_reported":1743689373,"current_range_meters":11200,"station_id":"ce4bgip2rcd13ifvqbb0","pricing_plan_id":"cebpf4jnsgd1na2vs0mg"},{"bike_id":"85d52ac0-4bee-4257-89a0-86469614f9c1","system_id":"levelo_inurba_marseille","lat":43.28075,"lon":5.39631,"is_reserved":false,"is_disabled":false,"rental_uris":{"android":"levelo://app?vid=85d52ac0-4bee-4257-89a0-86469614f9c1","ios":"levelo://app?vid=85d52ac0-4bee-4257-89a0-86469614f9c1"},"vehicle_type_id":"4","last_reported":1743689373,"current_range_meters":11200,"station_id":"ce4bho12rcd13ifvqh2g","pricing_plan_id":"cebpf4jnsgd1na2vs0mg"},{"bike_id":"efddeda7-6eb2-4c14-868d-fa0ce0b35ef3","system_id":"levelo_inurba_marseille","lat":43.31284,"lon":5.38281,"is_reserved":false,"is_disabled":false,"rental_uris":{"android":"levelo://app?vid=efddeda7-6eb2-4c14-868d-fa0ce0b35ef3","ios":"levelo://app?vid=efddeda7-6eb2-4c14-868d-fa0ce0b35ef3"},"vehicle_type_id":"4","last_reported":1743689373,"current_range_meters":11200,"station_id":"","pricing_plan_id":"cebpf4jnsgd1na2vs0mg"},{"bike_id":"f820228a-5891-4e41-8edd-cd9fa9156c93","system_id":"levelo_inurba_marseille","lat":43.26216,"lon":5.37432,"is_reserved":false,"is_disabled":false,"rental_uris":{"android":"levelo://app?vid=f820228a-5891-4e41-8edd-cd9fa9156c93","ios":"levelo://app?vid=f820228a-5891-4e41-8edd-cd9fa9156c93"},"vehicle_type_id":"4","last_reported":1743689373,"current_range_meters":11200,"station_id":"ce4bhgp2rcd13ifvqfc0","pricing_plan_id":"cebpf4jnsgd1na2vs0mg"},{"bike_id":"03621e27-7737-4553-a20f-2f2e0e6120b9","system_id":"levelo_inurba_marseille","lat":43.26199,"lon":5.40425,"is_reserved":false,"is_disabled":false,"rental_uris":{"android":"levelo://app?vid=03621e27-7737-4553-a20f-2f2e0e6120b9","ios":"levelo://app?vid=03621e27-7737-4553-a20f-2f2e0e6120b9"},"vehicle_type_id":"4","last_reported":1743689373,"current_range_meters":11600,"station_id":"ce4bhmh2rcd13ifvqgmg","pricing_plan_id":"cebpf4jnsgd1na2vs0mg"},{"bike_id":"692f3245-71a2-4a5e-be47-09d1b72325ea","system_id":"levelo_inurba_marseille","lat":43.30533,"lon":5.3654,"is_reserved":false,"is_disabled":false,"rental_uris":{"android":"levelo://app?vid=692f3245-71a2-4a5e-be47-09d1b72325ea","ios":"levelo://app?vid=692f3245-71a2-4a5e-be47-09d1b72325ea"},"vehicle_type_id":"4","last_reported":1743689373,"current_range_meters":11600,"station_id":"ce4bgs12rcd13ifvqcag","pricing_plan_id":"cebpf4jnsgd1na2vs0mg"},{"bike_id":"0e9178ee-421e-4ad1-b261-1a609c072125","system_id":"levelo_inurba_marseille","lat":43.29019,"lon":5.38121,"is_reserved":false,"is_disabled":false,"rental_uris":{"android":"levelo://app?vid=0e9178ee-421e-4ad1-b261-1a609c072125","ios":"levelo://app?vid=0e9178ee-421e-4ad1-b261-1a609c072125"},"vehicle_type_id":"4","last_reported":1743689373,"current_range_meters":11600,"station_id":"ce4bh4p2rcd13ifvqe1g","pricing_plan_id":"cebpf4jnsgd1na2vs0mg"},{"bike_id":"2fabc298-50ef-49c0-9d8e-8cc9245f245a","system_id":"levelo_inurba_marseille","lat":43.29971,"lon":5.38505,"is_reserved":false,"is_disabled":false,"rental_uris":{"android":"levelo://app?vid=2fabc298-50ef-49c0-9d8e-8cc9245f245a","ios":"levelo://app?vid=2fabc298-50ef-49c0-9d8e-8cc9245f245a"},"vehicle_type_id":"4","last_reported":1743689373,"current_range_meters":11600,"station_id":"ce4bgj92rcd13ifvqbd0","pricing_plan_id":"cebpf4jnsgd1na2vs0mg"},{"bike_id":"8e4581a0-ac48-45f0-8881-72e126b8df71","system_id":"levelo_inurba_marseille","lat":43.3122,"lon":5.36855,"is_reserved":false,"is_disabled":false,"rental_uris":{"android":"levelo://app?vid=8e4581a0-ac48-45f0-8881-72e126b8df71","ios":"levelo://app?vid=8e4581a0-ac48-45f0-8881-72e126b8df71"},"vehicle_type_id":"4","last_reported":1743689373,"current_range_meters":11600,"station_id":"ce4bgl92rcd13ifvqbq0","pricing_plan_id":"cebpf4jnsgd1na2vs0mg"},{"bike_id":"28cdbccb-ca55-449c-b2f2-42c9c4dccd2f","system_id":"levelo_inurba_marseille","lat":43.31118,"lon":5.37775,"is_reserved":false,"is_disabled":false,"rental_uris":{"android":"levelo://app?vid=28cdbccb-ca55-449c-b2f2-42c9c4dccd2f","ios":"levelo://app?vid=28cdbccb-ca55-449c-b2f2-42c9c4dccd2f"},"vehicle_type_id":"4","last_reported":1743689373,"current_range_meters":12000,"station_id":"ce4bgt92rcd13ifvqcg0","pricing_plan_id":"cebpf4jnsgd1na2vs0mg"},{"bike_id":"88fe0602-5033-4610-b8b3-85d796ebfed7","system_id":"levelo_inurba_marseille","lat":43.26063,"lon":5.39401,"is_reserved":false,"is_disabled":false,"rental_uris":{"android":"levelo://app?vid=88fe0602-5033-4610-b8b3-85d796ebfed7","ios":"levelo://app?vid=88fe0602-5033-4610-b8b3-85d796ebfed7"},"vehicle_type_id":"4","last_reported":1743689373,"current_range_meters":12000,"station_id":"ce4bhh92rcd13ifvqfj0","pricing_plan_id":"cebpf4jnsgd1na2vs0mg"},{"bike_id":"26bfbb98-54cd-4e2c-bbfd-3cfa1608f24e","system_id":"levelo_inurba_marseille","lat":43.2871,"lon":5.3998,"is_reserved":false,"is_disabled":false,"rental_uris":{"android":"levelo://app?vid=26bfbb98-54cd-4e2c-bbfd-3cfa1608f24e","ios":"levelo://app?vid=26bfbb98-54cd-4e2c-bbfd-3cfa1608f24e"},"vehicle_type_id":"4","last_reported":1743689373,"current_range_meters":12000,"station_id":"ce4bho92rcd13ifvqh3g","pricing_plan_id":"cebpf4jnsgd1na2vs0mg"},{"bike_id":"e7748123-e42c-423e-a37d-5a1df5da89bb","system_id":"levelo_inurba_marseille","lat":43.31518,"lon":5.37299,"is_reserved":false,"is_disabled":false,"rental_uris":{"android":"levelo://app?vid=e7748123-e42c-423e-a37d-5a1df5da89bb","ios":"levelo://app?vid=e7748123-e42c-423e-a37d-5a1df5da89bb"},"vehicle_type_id":"4","last_reported":1743689373,"current_range_meters":12000,"station_id":"ce4bgt12rcd13ifvqcd0","pricing_plan_id":"cebpf4jnsgd1na2vs0mg"},{"bike_id":"2c036d83-05b1-4f2d-827b-4f2e35d29d20","system_id":"levelo_inurba_marseille","lat":43.26558,"lon":5.37288,"is_reserved":false,"is_disabled":false,"rental_uris":{"android":"levelo://app?vid=2c036d83-05b1-4f2d-827b-4f2e35d29d20","ios":"levelo://app?vid=2c036d83-05b1-4f2d-827b-4f2e35d29d20"},"vehicle_type_id":"4","last_reported":1743689373,"current_range_meters":12000,"station_id":"ce4bhg12rcd13ifvqf70","pricing_plan_id":"cebpf4jnsgd1na2vs0mg"},{"bike_id":"97c3901c-cabf-4693-b0ab-9e15136704c4","system_id":"levelo_inurba_marseille","lat":43.28701,"lon":5.39998,"is_reserved":false,"is_disabled":false,"rental_uris":{"android":"levelo://app?vid=97c3901c-cabf-4693-b0ab-9e15136704c4","ios":"levelo://app?vid=97c3901c-cabf-4693-b0ab-9e15136704c4"},"vehicle_type_id":"4","last_reported":1743689373,"current_range_meters":12000,"station_id":"ce4bho92rcd13ifvqh3g","pricing_plan_id":"cebpf4jnsgd1na2vs0mg"},{"bike_id":"3758ac9f-feb8-42c5-a7a1-01ec16b51b04","system_id":"levelo_inurba_marseille","lat":43.23064,"lon":5.35493,"is_reserved":false,"is_disabled":false,"rental_uris":{"android":"levelo://app?vid=3758ac9f-feb8-42c5-a7a1-01ec16b51b04","ios":"levelo://app?vid=3758ac9f-feb8-42c5-a7a1-01ec16b51b04"},"vehicle_type_id":"4","last_reported":1743689373,"current_range_meters":12400,"station_id":"cpo3342slgdg3j2ifvpg","pricing_plan_id":"cebpf4jnsgd1na2vs0mg"},{"bike_id":"301156b7-e9e2-4fbc-88ce-e2edf0d34844","system_id":"levelo_inurba_marseille","lat":43.29023,"lon":5.38129,"is_reserved":false,"is_disabled":true,"rental_uris":{"android":"levelo://app?vid=301156b7-e9e2-4fbc-88ce-e2edf0d34844","ios":"levelo://app?vid=301156b7-e9e2-4fbc-88ce-e2edf0d34844"},"vehicle_type_id":"4","last_reported":1743689373,"current_range_meters":12400,"station_id":"ce4bh4p2rcd13ifvqe1g","pricing_plan_id":"cebpf4jnsgd1na2vs0mg"},{"bike_id":"ff69d870-438f-4618-92a3-33d89709c94d","system_id":"levelo_inurba_marseille","lat":43.31175,"lon":5.38715,"is_reserved":false,"is_disabled":false,"rental_uris":{"android":"levelo://app?vid=ff69d870-438f-4618-92a3-33d89709c94d","ios":"levelo://app?vid=ff69d870-438f-4618-92a3-33d89709c94d"},"vehicle_type_id":"4","last_reported":1743689373,"current_range_meters":12400,"station_id":"ce4bgv12rcd13ifvqcp0","pricing_plan_id":"cebpf4jnsgd1na2vs0mg"},{"bike_id":"8ec90470-8713-47d4-a7c1-9d0f8420e7e0","system_id":"levelo_inurba_marseille","lat":43.29845,"lon":5.36278,"is_reserved":false,"is_disabled":false,"rental_uris":{"android":"levelo://app?vid=8ec90470-8713-47d4-a7c1-9d0f8420e7e0","ios":"levelo://app?vid=8ec90470-8713-47d4-a7c1-9d0f8420e7e0"},"vehicle_type_id":"4","last_reported":1743689373,"current_range_meters":12400,"station_id":"ce4bgpp2rcd13ifvqc3g","pricing_plan_id":"cebpf4jnsgd1na2vs0mg"},{"bike_id":"841946bd-6940-4794-9af4-41cbe287891a","system_id":"levelo_inurba_marseille","lat":43.27376,"lon":5.36229,"is_reserved":false,"is_disabled":false,"rental_uris":{"android":"levelo://app?vid=841946bd-6940-4794-9af4-41cbe287891a","ios":"levelo://app?vid=841946bd-6940-4794-9af4-41cbe287891a"},"vehicle_type_id":"4","last_reported":1743689373,"current_range_meters":12400,"station_id":"ce4bhbh2rcd13ifvqeo0","pricing_plan_id":"cebpf4jnsgd1na2vs0mg"},{"bike_id":"18a9d8f6-95fb-45e4-b66e-20f545cc6c15","system_id":"levelo_inurba_marseille","lat":43.30544,"lon":5.36682,"is_reserved":false,"is_disabled":false,"rental_uris":{"android":"levelo://app?vid=18a9d8f6-95fb-45e4-b66e-20f545cc6c15","ios":"levelo://app?vid=18a9d8f6-95fb-45e4-b66e-20f545cc6c15"},"vehicle_type_id":"4","last_reported":1743689373,"current_range_meters":12400,"station_id":"ce4bgrp2rcd13ifvqc9g","pricing_plan_id":"cebpf4jnsgd1na2vs0mg"},{"bike_id":"e3db3f3b-88a5-415d-9291-b0d936cb98bb","system_id":"levelo_inurba_marseille","lat":43.28114,"lon":5.37863,"is_reserved":false,"is_disabled":false,"rental_uris":{"android":"levelo://app?vid=e3db3f3b-88a5-415d-9291-b0d936cb98bb","ios":"levelo://app?vid=e3db3f3b-88a5-415d-9291-b0d936cb98bb"},"vehicle_type_id":"4","last_reported":1743689373,"current_range_meters":12400,"station_id":"ce4bha12rcd13ifvqee0","pricing_plan_id":"cebpf4jnsgd1na2vs0mg"},{"bike_id":"ba0f0dcf-0102-4753-a38f-c61a05ad1046","system_id":"levelo_inurba_marseille","lat":43.31757,"lon":5.39017,"is_reserved":false,"is_disabled":false,"rental_uris":{"android":"levelo://app?vid=ba0f0dcf-0102-4753-a38f-c61a05ad1046","ios":"levelo://app?vid=ba0f0dcf-0102-4753-a38f-c61a05ad1046"},"vehicle_type_id":"4","last_reported":1743689373,"current_range_meters":12800,"station_id":"ce4bhqp2rcd13ifvqhng","pricing_plan_id":"cebpf4jnsgd1na2vs0mg"},{"bike_id":"47cff9d0-11f4-42ec-926d-2914df10bcc4","system_id":"levelo_inurba_marseille","lat":43.28,"lon":5.40009,"is_reserved":false,"is_disabled":false,"rental_uris":{"android":"levelo://app?vid=47cff9d0-11f4-42ec-926d-2914df10bcc4","ios":"levelo://app?vid=47cff9d0-11f4-42ec-926d-2914df10bcc4"},"vehicle_type_id":"4","last_reported":1743689373,"current_range_meters":12800,"station_id":"ce4bho92rcd13ifvqh4g","pricing_plan_id":"cebpf4jnsgd1na2vs0mg"},{"bike_id":"63139285-137c-4e8d-8e95-6c2a275f8333","system_id":"levelo_inurba_marseille","lat":43.3212,"lon":5.36758,"is_reserved":false,"is_disabled":false,"rental_uris":{"android":"levelo://app?vid=63139285-137c-4e8d-8e95-6c2a275f8333","ios":"levelo://app?vid=63139285-137c-4e8d-8e95-6c2a275f8333"},"vehicle_type_id":"4","last_reported":1743689373,"current_range_meters":12800,"station_id":"ce4bhrh2rcd13ifvqhug","pricing_plan_id":"cebpf4jnsgd1na2vs0mg"},{"bike_id":"7d05682b-7611-4261-9f80-a784a651f3b6","system_id":"levelo_inurba_marseille","lat":43.30143,"lon":5.37401,"is_reserved":false,"is_disabled":false,"rental_uris":{"android":"levelo://app?vid=7d05682b-7611-4261-9f80-a784a651f3b6","ios":"levelo://app?vid=7d05682b-7611-4261-9f80-a784a651f3b6"},"vehicle_type_id":"4","last_reported":1743689373,"current_range_meters":12800,"station_id":"ce4bgs92rcd13ifvqcc0","pricing_plan_id":"cebpf4jnsgd1na2vs0mg"},{"bike_id":"1f439a6b-8917-4737-9f7e-4093d36fbd48","system_id":"levelo_inurba_marseille","lat":43.29433,"lon":5.39763,"is_reserved":false,"is_disabled":false,"rental_uris":{"android":"levelo://app?vid=1f439a6b-8917-4737-9f7e-4093d36fbd48","ios":"levelo://app?vid=1f439a6b-8917-4737-9f7e-4093d36fbd48"},"vehicle_type_id":"4","last_reported":1743689373,"current_range_meters":12800,"station_id":"ce4bh3h2rcd13ifvqdo0","pricing_plan_id":"cebpf4jnsgd1na2vs0mg"},{"bike_id":"74a13a18-430a-4f50-ba26-e7dfbad23482","system_id":"levelo_inurba_marseille","lat":43.2307,"lon":5.35494,"is_reserved":false,"is_disabled":false,"rental_uris":{"android":"levelo://app?vid=74a13a18-430a-4f50-ba26-e7dfbad23482","ios":"levelo://app?vid=74a13a18-430a-4f50-ba26-e7dfbad23482"},"vehicle_type_id":"4","last_reported":1743689373,"current_range_meters":12800,"station_id":"cpo3342slgdg3j2ifvpg","pricing_plan_id":"cebpf4jnsgd1na2vs0mg"},{"bike_id":"5f46717b-05d1-4f34-a220-8087932d755b","system_id":"levelo_inurba_marseille","lat":43.30104,"lon":5.36955,"is_reserved":false,"is_disabled":false,"rental_uris":{"android":"levelo://app?vid=5f46717b-05d1-4f34-a220-8087932d755b","ios":"levelo://app?vid=5f46717b-05d1-4f34-a220-8087932d755b"},"vehicle_type_id":"4","last_reported":1743689373,"current_range_meters":12800,"station_id":"","pricing_plan_id":"cebpf4jnsgd1na2vs0mg"},{"bike_id":"1f962412-902d-4aa7-afbb-f3190a07a0ab","system_id":"levelo_inurba_marseille","lat":43.29786,"lon":5.37091,"is_reserved":false,"is_disabled":false,"rental_uris":{"android":"levelo://app?vid=1f962412-902d-4aa7-afbb-f3190a07a0ab","ios":"levelo://app?vid=1f962412-902d-4aa7-afbb-f3190a07a0ab"},"vehicle_type_id":"4","last_reported":1743689373,"current_range_meters":13600,"station_id":"ce4bgop2rcd13ifvqc1g","pricing_plan_id":"cebpf4jnsgd1na2vs0mg"},{"bike_id":"22b8702c-0dfe-451a-841a-e968657038a3","system_id":"levelo_inurba_marseille","lat":43.32497,"lon":5.36546,"is_reserved":false,"is_disabled":false,"rental_uris":{"android":"levelo://app?vid=22b8702c-0dfe-451a-841a-e968657038a3","ios":"levelo://app?vid=22b8702c-0dfe-451a-841a-e968657038a3"},"vehicle_type_id":"4","last_reported":1743689373,"current_range_meters":13600,"station_id":"ce4bhs12rcd13ifvqhvg","pricing_plan_id":"cebpf4jnsgd1na2vs0mg"},{"bike_id":"21b65b62-2684-4fc7-8920-573a961d7a1b","system_id":"levelo_inurba_marseille","lat":43.28276,"lon":5.35065,"is_reserved":false,"is_disabled":false,"rental_uris":{"android":"levelo://app?vid=21b65b62-2684-4fc7-8920-573a961d7a1b","ios":"levelo://app?vid=21b65b62-2684-4fc7-8920-573a961d7a1b"},"vehicle_type_id":"4","last_reported":1743689373,"current_range_meters":13600,"station_id":"ce4bhbp2rcd13ifvqerg","pricing_plan_id":"cebpf4jnsgd1na2vs0mg"},{"bike_id":"a6303451-5b45-435c-bf0e-748f94cc010d","system_id":"levelo_inurba_marseille","lat":43.232011,"lon":5.355486,"is_reserved":false,"is_disabled":false,"rental_uris":{"android":"levelo://app?vid=a6303451-5b45-435c-bf0e-748f94cc010d","ios":"levelo://app?vid=a6303451-5b45-435c-bf0e-748f94cc010d"},"vehicle_type_id":"4","last_reported":1743689373,"current_range_meters":13600,"station_id":"ce4bhu92rcd13ifvqi70","pricing_plan_id":"cebpf4jnsgd1na2vs0mg"},{"bike_id":"69c0db05-6ded-4dc6-9720-2452c83c1020","system_id":"levelo_inurba_marseille","lat":43.22946,"lon":5.35386,"is_reserved":false,"is_disabled":false,"rental_uris":{"android":"levelo://app?vid=69c0db05-6ded-4dc6-9720-2452c83c1020","ios":"levelo://app?vid=69c0db05-6ded-4dc6-9720-2452c83c1020"},"vehicle_type_id":"4","last_reported":1743689373,"current_range_meters":13600,"station_id":"cpo3532slgdg3j2ikp40","pricing_plan_id":"cebpf4jnsgd1na2vs0mg"},{"bike_id":"0ccd20ef-0624-49ef-a3c5-417b229c5a30","system_id":"levelo_inurba_marseille","lat":43.31485,"lon":5.37301,"is_reserved":false,"is_disabled":false,"rental_uris":{"android":"levelo://app?vid=0ccd20ef-0624-49ef-a3c5-417b229c5a30","ios":"levelo://app?vid=0ccd20ef-0624-49ef-a3c5-417b229c5a30"},"vehicle_type_id":"4","last_reported":1743689373,"current_range_meters":13600,"station_id":"ce4bgt12rcd13ifvqcd0","pricing_plan_id":"cebpf4jnsgd1na2vs0mg"},{"bike_id":"493f4c79-38d2-4be9-a979-a474321b8ece","system_id":"levelo_inurba_marseille","lat":43.29252,"lon":5.3763,"is_reserved":false,"is_disabled":false,"rental_uris":{"android":"levelo://app?vid=493f4c79-38d2-4be9-a979-a474321b8ece","ios":"levelo://app?vid=493f4c79-38d2-4be9-a979-a474321b8ece"},"vehicle_type_id":"4","last_reported":1743689373,"current_range_meters":13600,"station_id":"ce4bgi12rcd13ifvqb80","pricing_plan_id":"cebpf4jnsgd1na2vs0mg"},{"bike_id":"33084556-c386-4fed-bcb3-71588aab549f","system_id":"levelo_inurba_marseille","lat":43.30873,"lon":5.3964,"is_reserved":false,"is_disabled":false,"rental_uris":{"android":"levelo://app?vid=33084556-c386-4fed-bcb3-71588aab549f","ios":"levelo://app?vid=33084556-c386-4fed-bcb3-71588aab549f"},"vehicle_type_id":"4","last_reported":1743689373,"current_range_meters":14000,"station_id":"ce4bh012rcd13ifvqcv0","pricing_plan_id":"cebpf4jnsgd1na2vs0mg"},{"bike_id":"7fc6a679-b983-4abd-bcbc-f0bba4c97e96","system_id":"levelo_inurba_marseille","lat":43.28478,"lon":5.38413,"is_reserved":false,"is_disabled":false,"rental_uris":{"android":"levelo://app?vid=7fc6a679-b983-4abd-bcbc-f0bba4c97e96","ios":"levelo://app?vid=7fc6a679-b983-4abd-bcbc-f0bba4c97e96"},"vehicle_type_id":"4","last_reported":1743689373,"current_range_meters":13600,"station_id":"ce4bh512rcd13ifvqe3g","pricing_plan_id":"cebpf4jnsgd1na2vs0mg"},{"bike_id":"0aa69f03-0878-4038-837b-a34d05729b70","system_id":"levelo_inurba_marseille","lat":43.30547,"lon":5.36699,"is_reserved":false,"is_disabled":false,"rental_uris":{"android":"levelo://app?vid=0aa69f03-0878-4038-837b-a34d05729b70","ios":"levelo://app?vid=0aa69f03-0878-4038-837b-a34d05729b70"},"vehicle_type_id":"4","last_reported":1743689373,"current_range_meters":14000,"station_id":"ce4bgrp2rcd13ifvqc9g","pricing_plan_id":"cebpf4jnsgd1na2vs0mg"},{"bike_id":"15dad4cd-33fe-4a8a-a1a6-a69612d93350","system_id":"levelo_inurba_marseille","lat":43.24652,"lon":5.38905,"is_reserved":false,"is_disabled":false,"rental_uris":{"android":"levelo://app?vid=15dad4cd-33fe-4a8a-a1a6-a69612d93350","ios":"levelo://app?vid=15dad4cd-33fe-4a8a-a1a6-a69612d93350"},"vehicle_type_id":"4","last_reported":1743689373,"current_range_meters":14000,"station_id":"ce4bhg12rcd13ifvqf60","pricing_plan_id":"cebpf4jnsgd1na2vs0mg"},{"bike_id":"e9947125-e4b1-4977-bee9-fb031515997e","system_id":"levelo_inurba_marseille","lat":43.24544,"lon":5.39522,"is_reserved":false,"is_disabled":false,"rental_uris":{"android":"levelo://app?vid=e9947125-e4b1-4977-bee9-fb031515997e","ios":"levelo://app?vid=e9947125-e4b1-4977-bee9-fb031515997e"},"vehicle_type_id":"4","last_reported":1743689373,"current_range_meters":14000,"station_id":"ce4bhlp2rcd13ifvqgjg","pricing_plan_id":"cebpf4jnsgd1na2vs0mg"},{"bike_id":"758c2355-846a-4f3d-bcd8-eac4b3145cd6","system_id":"levelo_inurba_marseille","lat":43.23194,"lon":5.35555,"is_reserved":false,"is_disabled":false,"rental_uris":{"android":"levelo://app?vid=758c2355-846a-4f3d-bcd8-eac4b3145cd6","ios":"levelo://app?vid=758c2355-846a-4f3d-bcd8-eac4b3145cd6"},"vehicle_type_id":"4","last_reported":1743689373,"current_range_meters":14000,"station_id":"ce4bhu92rcd13ifvqi70","pricing_plan_id":"cebpf4jnsgd1na2vs0mg"},{"bike_id":"d126d5b7-9b80-4545-ada9-e50bec254514","system_id":"levelo_inurba_marseille","lat":43.32341,"lon":5.40618,"is_reserved":false,"is_disabled":false,"rental_uris":{"android":"levelo://app?vid=d126d5b7-9b80-4545-ada9-e50bec254514","ios":"levelo://app?vid=d126d5b7-9b80-4545-ada9-e50bec254514"},"vehicle_type_id":"4","last_reported":1743689373,"current_range_meters":14000,"station_id":"ce4bhq92rcd13ifvqhjg","pricing_plan_id":"cebpf4jnsgd1na2vs0mg"},{"bike_id":"120cf26a-891f-4b3a-9956-b9b4ddd64360","system_id":"levelo_inurba_marseille","lat":43.28729,"lon":5.36079,"is_reserved":false,"is_disabled":false,"rental_uris":{"android":"levelo://app?vid=120cf26a-891f-4b3a-9956-b9b4ddd64360","ios":"levelo://app?vid=120cf26a-891f-4b3a-9956-b9b4ddd64360"},"vehicle_type_id":"4","last_reported":1743689373,"current_range_meters":14000,"station_id":"cki0cbj6b192h4jlfktg","pricing_plan_id":"cebpf4jnsgd1na2vs0mg"},{"bike_id":"c611372a-1bd7-4682-a269-9a02ba50eeab","system_id":"levelo_inurba_marseille","lat":43.29988,"lon":5.38497,"is_reserved":false,"is_disabled":true,"rental_uris":{"android":"levelo://app?vid=c611372a-1bd7-4682-a269-9a02ba50eeab","ios":"levelo://app?vid=c611372a-1bd7-4682-a269-9a02ba50eeab"},"vehicle_type_id":"4","last_reported":1743689373,"current_range_meters":14000,"station_id":"ce4bgj92rcd13ifvqbd0","pricing_plan_id":"cebpf4jnsgd1na2vs0mg"},{"bike_id":"f1e5f20d-e5bb-4349-9a72-f7ab8a004414","system_id":"levelo_inurba_marseille","lat":43.3032,"lon":5.40431,"is_reserved":false,"is_disabled":true,"rental_uris":{"android":"levelo://app?vid=f1e5f20d-e5bb-4349-9a72-f7ab8a004414","ios":"levelo://app?vid=f1e5f20d-e5bb-4349-9a72-f7ab8a004414"},"vehicle_type_id":"4","last_reported":1743689373,"current_range_meters":14000,"station_id":"ce4bh012rcd13ifvqd10","pricing_plan_id":"cebpf4jnsgd1na2vs0mg"},{"bike_id":"092effba-a356-42c6-aa90-34ee8a168129","system_id":"levelo_inurba_marseille","lat":43.30427,"lon":5.39751,"is_reserved":false,"is_disabled":false,"rental_uris":{"android":"levelo://app?vid=092effba-a356-42c6-aa90-34ee8a168129","ios":"levelo://app?vid=092effba-a356-42c6-aa90-34ee8a168129"},"vehicle_type_id":"4","last_reported":1743689373,"current_range_meters":14000,"station_id":"ce4bh092rcd13ifvqd20","pricing_plan_id":"cebpf4jnsgd1na2vs0mg"},{"bike_id":"c6dbfbad-c5e4-4444-9b15-94527aba01a5","system_id":"levelo_inurba_marseille","lat":43.30541,"lon":5.365337,"is_reserved":false,"is_disabled":true,"rental_uris":{"android":"levelo://app?vid=c6dbfbad-c5e4-4444-9b15-94527aba01a5","ios":"levelo://app?vid=c6dbfbad-c5e4-4444-9b15-94527aba01a5"},"vehicle_type_id":"4","last_reported":1743689373,"current_range_meters":14000,"station_id":"ce4bgs12rcd13ifvqcag","pricing_plan_id":"cebpf4jnsgd1na2vs0mg"},{"bike_id":"12b1167f-7815-4d17-91f8-d6004b8c46a0","system_id":"levelo_inurba_marseille","lat":43.29421,"lon":5.38626,"is_reserved":false,"is_disabled":false,"rental_uris":{"android":"levelo://app?vid=12b1167f-7815-4d17-91f8-d6004b8c46a0","ios":"levelo://app?vid=12b1167f-7815-4d17-91f8-d6004b8c46a0"},"vehicle_type_id":"4","last_reported":1743689373,"current_range_meters":14400,"station_id":"ce4bh2h2rcd13ifvqdh0","pricing_plan_id":"cebpf4jnsgd1na2vs0mg"},{"bike_id":"ddece980-9bf4-4cd1-87d5-3d4126bbcba8","system_id":"levelo_inurba_marseille","lat":43.23197,"lon":5.35559,"is_reserved":false,"is_disabled":false,"rental_uris":{"android":"levelo://app?vid=ddece980-9bf4-4cd1-87d5-3d4126bbcba8","ios":"levelo://app?vid=ddece980-9bf4-4cd1-87d5-3d4126bbcba8"},"vehicle_type_id":"4","last_reported":1743689373,"current_range_meters":14400,"station_id":"ce4bhu92rcd13ifvqi70","pricing_plan_id":"cebpf4jnsgd1na2vs0mg"},{"bike_id":"2d0e62e9-0c4a-44be-bd55-d65e087635ff","system_id":"levelo_inurba_marseille","lat":43.2971,"lon":5.36597,"is_reserved":false,"is_disabled":false,"rental_uris":{"android":"levelo://app?vid=2d0e62e9-0c4a-44be-bd55-d65e087635ff","ios":"levelo://app?vid=2d0e62e9-0c4a-44be-bd55-d65e087635ff"},"vehicle_type_id":"4","last_reported":1743689373,"current_range_meters":14400,"station_id":"ce4bgn12rcd13ifvqbt0","pricing_plan_id":"cebpf4jnsgd1na2vs0mg"},{"bike_id":"dd4387f6-a61f-4f9d-9a83-211dfda7070e","system_id":"levelo_inurba_marseille","lat":43.26193,"lon":5.37447,"is_reserved":false,"is_disabled":false,"rental_uris":{"android":"levelo://app?vid=dd4387f6-a61f-4f9d-9a83-211dfda7070e","ios":"levelo://app?vid=dd4387f6-a61f-4f9d-9a83-211dfda7070e"},"vehicle_type_id":"4","last_reported":1743689373,"current_range_meters":14400,"station_id":"ce4bhgp2rcd13ifvqfc0","pricing_plan_id":"cebpf4jnsgd1na2vs0mg"},{"bike_id":"0da307f0-a737-4f3f-8786-4dd451d57e79","system_id":"levelo_inurba_marseille","lat":43.30844,"lon":5.36761,"is_reserved":false,"is_disabled":false,"rental_uris":{"android":"levelo://app?vid=0da307f0-a737-4f3f-8786-4dd451d57e79","ios":"levelo://app?vid=0da307f0-a737-4f3f-8786-4dd451d57e79"},"vehicle_type_id":"4","last_reported":1743689373,"current_range_meters":14800,"station_id":"","pricing_plan_id":"cebpf4jnsgd1na2vs0mg"},{"bike_id":"adb6820f-98d5-4398-ac72-0657a0bb39ed","system_id":"levelo_inurba_marseille","lat":43.29179,"lon":5.37149,"is_reserved":false,"is_disabled":false,"rental_uris":{"android":"levelo://app?vid=adb6820f-98d5-4398-ac72-0657a0bb39ed","ios":"levelo://app?vid=adb6820f-98d5-4398-ac72-0657a0bb39ed"},"vehicle_type_id":"4","last_reported":1743689373,"current_range_meters":14800,"station_id":"ce4bha92rcd13ifvqeh0","pricing_plan_id":"cebpf4jnsgd1na2vs0mg"},{"bike_id":"cc331224-7a14-4336-b083-0eb1f00a3d23","system_id":"levelo_inurba_marseille","lat":43.30536,"lon":5.367,"is_reserved":false,"is_disabled":false,"rental_uris":{"android":"levelo://app?vid=cc331224-7a14-4336-b083-0eb1f00a3d23","ios":"levelo://app?vid=cc331224-7a14-4336-b083-0eb1f00a3d23"},"vehicle_type_id":"4","last_reported":1743689373,"current_range_meters":14800,"station_id":"ce4bgrp2rcd13ifvqc9g","pricing_plan_id":"cebpf4jnsgd1na2vs0mg"},{"bike_id":"bef8e331-3549-4f36-81e6-abc4e1f90545","system_id":"levelo_inurba_marseille","lat":43.24811,"lon":5.3745,"is_reserved":false,"is_disabled":false,"rental_uris":{"android":"levelo://app?vid=bef8e331-3549-4f36-81e6-abc4e1f90545","ios":"levelo://app?vid=bef8e331-3549-4f36-81e6-abc4e1f90545"},"vehicle_type_id":"4","last_reported":1743689373,"current_range_meters":14800,"station_id":"ce4bhgh2rcd13ifvqfb0","pricing_plan_id":"cebpf4jnsgd1na2vs0mg"},{"bike_id":"5a670507-1979-4b98-8c90-ecde60222578","system_id":"levelo_inurba_marseille","lat":43.26242,"lon":5.40446,"is_reserved":false,"is_disabled":false,"rental_uris":{"android":"levelo://app?vid=5a670507-1979-4b98-8c90-ecde60222578","ios":"levelo://app?vid=5a670507-1979-4b98-8c90-ecde60222578"},"vehicle_type_id":"4","last_reported":1743689373,"current_range_meters":14800,"station_id":"ce4bhmh2rcd13ifvqgmg","pricing_plan_id":"cebpf4jnsgd1na2vs0mg"},{"bike_id":"21bb0a6d-7ac6-400f-85fa-68146121b37a","system_id":"levelo_inurba_marseille","lat":43.31321,"lon":5.36746,"is_reserved":false,"is_disabled":false,"rental_uris":{"android":"levelo://app?vid=21bb0a6d-7ac6-400f-85fa-68146121b37a","ios":"levelo://app?vid=21bb0a6d-7ac6-400f-85fa-68146121b37a"},"vehicle_type_id":"4","last_reported":1743689373,"current_range_meters":15200,"station_id":"ce4bgr92rcd13ifvqc6g","pricing_plan_id":"cebpf4jnsgd1na2vs0mg"},{"bike_id":"cb29c5b9-4893-4508-bed3-7b83f38c16b1","system_id":"levelo_inurba_marseille","lat":43.26949,"lon":5.38635,"is_reserved":false,"is_disabled":false,"rental_uris":{"android":"levelo://app?vid=cb29c5b9-4893-4508-bed3-7b83f38c16b1","ios":"levelo://app?vid=cb29c5b9-4893-4508-bed3-7b83f38c16b1"},"vehicle_type_id":"4","last_reported":1743689373,"current_range_meters":15200,"station_id":"ce4bhh92rcd13ifvqfh0","pricing_plan_id":"cebpf4jnsgd1na2vs0mg"},{"bike_id":"a3c7f681-193c-4061-a2ae-2c5fcaac6ef9","system_id":"levelo_inurba_marseille","lat":43.30797,"lon":5.38159,"is_reserved":false,"is_disabled":false,"rental_uris":{"android":"levelo://app?vid=a3c7f681-193c-4061-a2ae-2c5fcaac6ef9","ios":"levelo://app?vid=a3c7f681-193c-4061-a2ae-2c5fcaac6ef9"},"vehicle_type_id":"4","last_reported":1743689373,"current_range_meters":15200,"station_id":"ce4bgt12rcd13ifvqce0","pricing_plan_id":"cebpf4jnsgd1na2vs0mg"},{"bike_id":"88ee95e2-983e-42e7-8445-90c24c3ad533","system_id":"levelo_inurba_marseille","lat":43.24806,"lon":5.37453,"is_reserved":false,"is_disabled":false,"rental_uris":{"android":"levelo://app?vid=88ee95e2-983e-42e7-8445-90c24c3ad533","ios":"levelo://app?vid=88ee95e2-983e-42e7-8445-90c24c3ad533"},"vehicle_type_id":"4","last_reported":1743689373,"current_range_meters":15200,"station_id":"ce4bhgh2rcd13ifvqfb0","pricing_plan_id":"cebpf4jnsgd1na2vs0mg"},{"bike_id":"849586c8-0186-4f99-9a92-b965e7d75bad","system_id":"levelo_inurba_marseille","lat":43.27237,"lon":5.39184,"is_reserved":false,"is_disabled":false,"rental_uris":{"android":"levelo://app?vid=849586c8-0186-4f99-9a92-b965e7d75bad","ios":"levelo://app?vid=849586c8-0186-4f99-9a92-b965e7d75bad"},"vehicle_type_id":"4","last_reported":1743689373,"current_range_meters":15200,"station_id":"ce4bhhp2rcd13ifvqfm0","pricing_plan_id":"cebpf4jnsgd1na2vs0mg"},{"bike_id":"65c86302-8ef0-46f4-ab6e-bac7149a2865","system_id":"levelo_inurba_marseille","lat":43.32118,"lon":5.36764,"is_reserved":false,"is_disabled":false,"rental_uris":{"android":"levelo://app?vid=65c86302-8ef0-46f4-ab6e-bac7149a2865","ios":"levelo://app?vid=65c86302-8ef0-46f4-ab6e-bac7149a2865"},"vehicle_type_id":"4","last_reported":1743689373,"current_range_meters":15200,"station_id":"ce4bhrh2rcd13ifvqhug","pricing_plan_id":"cebpf4jnsgd1na2vs0mg"},{"bike_id":"10dba690-16cc-4e3a-8cf1-837f9f6eb283","system_id":"levelo_inurba_marseille","lat":43.301361,"lon":5.374188,"is_reserved":false,"is_disabled":false,"rental_uris":{"android":"levelo://app?vid=10dba690-16cc-4e3a-8cf1-837f9f6eb283","ios":"levelo://app?vid=10dba690-16cc-4e3a-8cf1-837f9f6eb283"},"vehicle_type_id":"4","last_reported":1743689373,"current_range_meters":16000,"station_id":"ce4bgs92rcd13ifvqcc0","pricing_plan_id":"cebpf4jnsgd1na2vs0mg"},{"bike_id":"955338a0-012b-4e84-861b-8757cf81f287","system_id":"levelo_inurba_marseille","lat":43.22936,"lon":5.35381,"is_reserved":false,"is_disabled":false,"rental_uris":{"android":"levelo://app?vid=955338a0-012b-4e84-861b-8757cf81f287","ios":"levelo://app?vid=955338a0-012b-4e84-861b-8757cf81f287"},"vehicle_type_id":"4","last_reported":1743689373,"current_range_meters":16000,"station_id":"cpo3532slgdg3j2ikp40","pricing_plan_id":"cebpf4jnsgd1na2vs0mg"},{"bike_id":"fb348b09-6abb-47a4-a266-91f2eeaee291","system_id":"levelo_inurba_marseille","lat":43.32112,"lon":5.36769,"is_reserved":false,"is_disabled":false,"rental_uris":{"android":"levelo://app?vid=fb348b09-6abb-47a4-a266-91f2eeaee291","ios":"levelo://app?vid=fb348b09-6abb-47a4-a266-91f2eeaee291"},"vehicle_type_id":"4","last_reported":1743689373,"current_range_meters":16000,"station_id":"ce4bhrh2rcd13ifvqhug","pricing_plan_id":"cebpf4jnsgd1na2vs0mg"},{"bike_id":"74b7c940-8067-4378-b937-e33f8e9e21fb","system_id":"levelo_inurba_marseille","lat":43.32466,"lon":5.36527,"is_reserved":false,"is_disabled":false,"rental_uris":{"android":"levelo://app?vid=74b7c940-8067-4378-b937-e33f8e9e21fb","ios":"levelo://app?vid=74b7c940-8067-4378-b937-e33f8e9e21fb"},"vehicle_type_id":"4","last_reported":1743689373,"current_range_meters":16000,"station_id":"ce4bhs12rcd13ifvqhvg","pricing_plan_id":"cebpf4jnsgd1na2vs0mg"},{"bike_id":"02944d01-5378-4aaa-9c92-f97dccb2b1a7","system_id":"levelo_inurba_marseille","lat":43.29632,"lon":5.40594,"is_reserved":false,"is_disabled":false,"rental_uris":{"android":"levelo://app?vid=02944d01-5378-4aaa-9c92-f97dccb2b1a7","ios":"levelo://app?vid=02944d01-5378-4aaa-9c92-f97dccb2b1a7"},"vehicle_type_id":"4","last_reported":1743689373,"current_range_meters":15200,"station_id":"ce4bh0h2rcd13ifvqd60","pricing_plan_id":"cebpf4jnsgd1na2vs0mg"},{"bike_id":"9d7b4579-2f49-4625-9d98-42fe0dd225fc","system_id":"levelo_inurba_marseille","lat":43.30215,"lon":5.41899,"is_reserved":false,"is_disabled":false,"rental_uris":{"android":"levelo://app?vid=9d7b4579-2f49-4625-9d98-42fe0dd225fc","ios":"levelo://app?vid=9d7b4579-2f49-4625-9d98-42fe0dd225fc"},"vehicle_type_id":"4","last_reported":1743689373,"current_range_meters":16000,"station_id":"","pricing_plan_id":"cebpf4jnsgd1na2vs0mg"},{"bike_id":"72024263-002e-4ba0-8a6a-7546a3344766","system_id":"levelo_inurba_marseille","lat":43.31111,"lon":5.37764,"is_reserved":false,"is_disabled":false,"rental_uris":{"android":"levelo://app?vid=72024263-002e-4ba0-8a6a-7546a3344766","ios":"levelo://app?vid=72024263-002e-4ba0-8a6a-7546a3344766"},"vehicle_type_id":"4","last_reported":1743689373,"current_range_meters":16000,"station_id":"ce4bgt92rcd13ifvqcg0","pricing_plan_id":"cebpf4jnsgd1na2vs0mg"},{"bike_id":"b6293784-a635-49a8-afec-415658830fc4","system_id":"levelo_inurba_marseille","lat":43.30633,"lon":5.40089,"is_reserved":false,"is_disabled":false,"rental_uris":{"android":"levelo://app?vid=b6293784-a635-49a8-afec-415658830fc4","ios":"levelo://app?vid=b6293784-a635-49a8-afec-415658830fc4"},"vehicle_type_id":"4","last_reported":1743689373,"current_range_meters":14800,"station_id":"ce4bh112rcd13ifvqda0","pricing_plan_id":"cebpf4jnsgd1na2vs0mg"},{"bike_id":"8f611ba8-7812-4db2-9f22-5fa67057abba","system_id":"levelo_inurba_marseille","lat":43.27691,"lon":5.38891,"is_reserved":false,"is_disabled":false,"rental_uris":{"android":"levelo://app?vid=8f611ba8-7812-4db2-9f22-5fa67057abba","ios":"levelo://app?vid=8f611ba8-7812-4db2-9f22-5fa67057abba"},"vehicle_type_id":"4","last_reported":1743689373,"current_range_meters":16000,"station_id":"ce4bhi12rcd13ifvqfo0","pricing_plan_id":"cebpf4jnsgd1na2vs0mg"},{"bike_id":"c0e36771-dbe7-477f-9122-f8476f7b7779","system_id":"levelo_inurba_marseille","lat":43.32346,"lon":5.36726,"is_reserved":false,"is_disabled":false,"rental_uris":{"android":"levelo://app?vid=c0e36771-dbe7-477f-9122-f8476f7b7779","ios":"levelo://app?vid=c0e36771-dbe7-477f-9122-f8476f7b7779"},"vehicle_type_id":"4","last_reported":1743689373,"current_range_meters":16000,"station_id":"ce4bhsh2rcd13ifvqi2g","pricing_plan_id":"cebpf4jnsgd1na2vs0mg"},{"bike_id":"229ba492-02d9-4033-b935-7f43b75a8976","system_id":"levelo_inurba_marseille","lat":43.30546,"lon":5.36553,"is_reserved":false,"is_disabled":false,"rental_uris":{"android":"levelo://app?vid=229ba492-02d9-4033-b935-7f43b75a8976","ios":"levelo://app?vid=229ba492-02d9-4033-b935-7f43b75a8976"},"vehicle_type_id":"4","last_reported":1743689373,"current_range_meters":16000,"station_id":"ce4bgs12rcd13ifvqcag","pricing_plan_id":"cebpf4jnsgd1na2vs0mg"},{"bike_id":"0df0e7a9-81b2-41f8-8fc9-9278b36af5a7","system_id":"levelo_inurba_marseille","lat":43.25098,"lon":5.39522,"is_reserved":false,"is_disabled":false,"rental_uris":{"android":"levelo://app?vid=0df0e7a9-81b2-41f8-8fc9-9278b36af5a7","ios":"levelo://app?vid=0df0e7a9-81b2-41f8-8fc9-9278b36af5a7"},"vehicle_type_id":"4","last_reported":1743689373,"current_range_meters":16400,"station_id":"ce4bhm12rcd13ifvqgkg","pricing_plan_id":"cebpf4jnsgd1na2vs0mg"},{"bike_id":"b2f4490f-edf0-49ca-9d34-1b76be892ddc","system_id":"levelo_inurba_marseille","lat":43.26228,"lon":5.40459,"is_reserved":false,"is_disabled":false,"rental_uris":{"android":"levelo://app?vid=b2f4490f-edf0-49ca-9d34-1b76be892ddc","ios":"levelo://app?vid=b2f4490f-edf0-49ca-9d34-1b76be892ddc"},"vehicle_type_id":"4","last_reported":1743689373,"current_range_meters":16400,"station_id":"ce4bhmh2rcd13ifvqgmg","pricing_plan_id":"cebpf4jnsgd1na2vs0mg"},{"bike_id":"520e22be-4e8e-4abc-9dc5-206dfbb4c44f","system_id":"levelo_inurba_marseille","lat":43.292681,"lon":5.376338,"is_reserved":false,"is_disabled":false,"rental_uris":{"android":"levelo://app?vid=520e22be-4e8e-4abc-9dc5-206dfbb4c44f","ios":"levelo://app?vid=520e22be-4e8e-4abc-9dc5-206dfbb4c44f"},"vehicle_type_id":"4","last_reported":1743689373,"current_range_meters":16400,"station_id":"ce4bgi12rcd13ifvqb80","pricing_plan_id":"cebpf4jnsgd1na2vs0mg"},{"bike_id":"403dd03e-77f9-4fde-aef9-0293362afb60","system_id":"levelo_inurba_marseille","lat":43.31716,"lon":5.37763,"is_reserved":false,"is_disabled":false,"rental_uris":{"android":"levelo://app?vid=403dd03e-77f9-4fde-aef9-0293362afb60","ios":"levelo://app?vid=403dd03e-77f9-4fde-aef9-0293362afb60"},"vehicle_type_id":"4","last_reported":1743689373,"current_range_meters":16400,"station_id":"ce4bgth2rcd13ifvqch0","pricing_plan_id":"cebpf4jnsgd1na2vs0mg"},{"bike_id":"fb4cfac6-d54b-4f49-96fe-f3cb5cad9b95","system_id":"levelo_inurba_marseille","lat":43.30544,"lon":5.36523,"is_reserved":false,"is_disabled":false,"rental_uris":{"android":"levelo://app?vid=fb4cfac6-d54b-4f49-96fe-f3cb5cad9b95","ios":"levelo://app?vid=fb4cfac6-d54b-4f49-96fe-f3cb5cad9b95"},"vehicle_type_id":"4","last_reported":1743689373,"current_range_meters":16400,"station_id":"ce4bgs12rcd13ifvqcag","pricing_plan_id":"cebpf4jnsgd1na2vs0mg"},{"bike_id":"43541db4-ee87-46d2-b56d-1dccea10c45a","system_id":"levelo_inurba_marseille","lat":43.30547,"lon":5.36698,"is_reserved":false,"is_disabled":false,"rental_uris":{"android":"levelo://app?vid=43541db4-ee87-46d2-b56d-1dccea10c45a","ios":"levelo://app?vid=43541db4-ee87-46d2-b56d-1dccea10c45a"},"vehicle_type_id":"4","last_reported":1743689373,"current_range_meters":16400,"station_id":"ce4bgrp2rcd13ifvqc9g","pricing_plan_id":"cebpf4jnsgd1na2vs0mg"},{"bike_id":"19224d95-e048-4cbb-8884-43e0e6b3db9b","system_id":"levelo_inurba_marseille","lat":43.29889,"lon":5.39732,"is_reserved":false,"is_disabled":true,"rental_uris":{"android":"levelo://app?vid=19224d95-e048-4cbb-8884-43e0e6b3db9b","ios":"levelo://app?vid=19224d95-e048-4cbb-8884-43e0e6b3db9b"},"vehicle_type_id":"4","last_reported":1743689373,"current_range_meters":16400,"station_id":"ce4bh0h2rcd13ifvqd50","pricing_plan_id":"cebpf4jnsgd1na2vs0mg"},{"bike_id":"a18e3a8f-8b2b-4fc7-8701-e3970d220b04","system_id":"levelo_inurba_marseille","lat":43.29918,"lon":5.37477,"is_reserved":false,"is_disabled":false,"rental_uris":{"android":"levelo://app?vid=a18e3a8f-8b2b-4fc7-8701-e3970d220b04","ios":"levelo://app?vid=a18e3a8f-8b2b-4fc7-8701-e3970d220b04"},"vehicle_type_id":"4","last_reported":1743689373,"current_range_meters":16400,"station_id":"ce4bgjh2rcd13ifvqbg0","pricing_plan_id":"cebpf4jnsgd1na2vs0mg"},{"bike_id":"678cb0c1-8fa5-451e-846e-3af84d26cea0","system_id":"levelo_inurba_marseille","lat":43.26803,"lon":5.40266,"is_reserved":false,"is_disabled":false,"rental_uris":{"android":"levelo://app?vid=678cb0c1-8fa5-451e-846e-3af84d26cea0","ios":"levelo://app?vid=678cb0c1-8fa5-451e-846e-3af84d26cea0"},"vehicle_type_id":"4","last_reported":1743689373,"current_range_meters":16400,"station_id":"ce501612rcd8frsf0b60","pricing_plan_id":"cebpf4jnsgd1na2vs0mg"},{"bike_id":"4caff8e0-340c-490f-8a5a-b26f15704f76","system_id":"levelo_inurba_marseille","lat":43.28604,"lon":5.3841,"is_reserved":false,"is_disabled":false,"rental_uris":{"android":"levelo://app?vid=4caff8e0-340c-490f-8a5a-b26f15704f76","ios":"levelo://app?vid=4caff8e0-340c-490f-8a5a-b26f15704f76"},"vehicle_type_id":"4","last_reported":1743689373,"current_range_meters":16800,"station_id":"","pricing_plan_id":"cebpf4jnsgd1na2vs0mg"},{"bike_id":"ee071da7-ca94-4ce2-9e33-f50401452823","system_id":"levelo_inurba_marseille","lat":43.27494,"lon":5.42465,"is_reserved":false,"is_disabled":false,"rental_uris":{"android":"levelo://app?vid=ee071da7-ca94-4ce2-9e33-f50401452823","ios":"levelo://app?vid=ee071da7-ca94-4ce2-9e33-f50401452823"},"vehicle_type_id":"4","last_reported":1743689373,"current_range_meters":16800,"station_id":"ce4bhn92rcd13ifvqgrg","pricing_plan_id":"cebpf4jnsgd1na2vs0mg"},{"bike_id":"bfdead3d-14fb-467f-a5cf-e2895e874c08","system_id":"levelo_inurba_marseille","lat":43.29723,"lon":5.377,"is_reserved":false,"is_disabled":false,"rental_uris":{"android":"levelo://app?vid=bfdead3d-14fb-467f-a5cf-e2895e874c08","ios":"levelo://app?vid=bfdead3d-14fb-467f-a5cf-e2895e874c08"},"vehicle_type_id":"4","last_reported":1743689373,"current_range_meters":16800,"station_id":"ce4bgkh2rcd13ifvqbl0","pricing_plan_id":"cebpf4jnsgd1na2vs0mg"},{"bike_id":"a43f4572-7c57-46ee-8d96-a6774c3cba9d","system_id":"levelo_inurba_marseille","lat":43.229304,"lon":5.353731,"is_reserved":false,"is_disabled":false,"rental_uris":{"android":"levelo://app?vid=a43f4572-7c57-46ee-8d96-a6774c3cba9d","ios":"levelo://app?vid=a43f4572-7c57-46ee-8d96-a6774c3cba9d"},"vehicle_type_id":"4","last_reported":1743689373,"current_range_meters":16800,"station_id":"cpo3532slgdg3j2ikp40","pricing_plan_id":"cebpf4jnsgd1na2vs0mg"},{"bike_id":"46e40aa5-72ae-444f-9358-a676d369a477","system_id":"levelo_inurba_marseille","lat":43.33019,"lon":5.43806,"is_reserved":false,"is_disabled":false,"rental_uris":{"android":"levelo://app?vid=46e40aa5-72ae-444f-9358-a676d369a477","ios":"levelo://app?vid=46e40aa5-72ae-444f-9358-a676d369a477"},"vehicle_type_id":"4","last_reported":1743689373,"current_range_meters":16800,"station_id":"","pricing_plan_id":"cebpf4jnsgd1na2vs0mg"},{"bike_id":"4c6c26e9-c2c0-42ca-bbad-340608c64a5a","system_id":"levelo_inurba_marseille","lat":43.31389,"lon":5.36677,"is_reserved":false,"is_disabled":false,"rental_uris":{"android":"levelo://app?vid=4c6c26e9-c2c0-42ca-bbad-340608c64a5a","ios":"levelo://app?vid=4c6c26e9-c2c0-42ca-bbad-340608c64a5a"},"vehicle_type_id":"4","last_reported":1743689373,"current_range_meters":16800,"station_id":"","pricing_plan_id":"cebpf4jnsgd1na2vs0mg"},{"bike_id":"ba05521f-e8e5-4c85-877c-5542fdcfb429","system_id":"levelo_inurba_marseille","lat":43.26212,"lon":5.40486,"is_reserved":false,"is_disabled":false,"rental_uris":{"android":"levelo://app?vid=ba05521f-e8e5-4c85-877c-5542fdcfb429","ios":"levelo://app?vid=ba05521f-e8e5-4c85-877c-5542fdcfb429"},"vehicle_type_id":"4","last_reported":1743689373,"current_range_meters":16800,"station_id":"ce4bhmh2rcd13ifvqgmg","pricing_plan_id":"cebpf4jnsgd1na2vs0mg"},{"bike_id":"2b29f0f6-37ed-48d5-a08b-0973dc01e74b","system_id":"levelo_inurba_marseille","lat":43.27682,"lon":5.38868,"is_reserved":false,"is_disabled":false,"rental_uris":{"android":"levelo://app?vid=2b29f0f6-37ed-48d5-a08b-0973dc01e74b","ios":"levelo://app?vid=2b29f0f6-37ed-48d5-a08b-0973dc01e74b"},"vehicle_type_id":"4","last_reported":1743689373,"current_range_meters":16400,"station_id":"ce4bhi12rcd13ifvqfo0","pricing_plan_id":"cebpf4jnsgd1na2vs0mg"},{"bike_id":"f5d7baaf-c3b6-4714-ade1-a7553acc3f6e","system_id":"levelo_inurba_marseille","lat":43.30475,"lon":5.41712,"is_reserved":false,"is_disabled":false,"rental_uris":{"android":"levelo://app?vid=f5d7baaf-c3b6-4714-ade1-a7553acc3f6e","ios":"levelo://app?vid=f5d7baaf-c3b6-4714-ade1-a7553acc3f6e"},"vehicle_type_id":"4","last_reported":1743689373,"current_range_meters":16800,"station_id":"","pricing_plan_id":"cebpf4jnsgd1na2vs0mg"},{"bike_id":"ac61e745-071f-47f9-8b21-08818c85073b","system_id":"levelo_inurba_marseille","lat":43.271779,"lon":5.410013,"is_reserved":false,"is_disabled":false,"rental_uris":{"android":"levelo://app?vid=ac61e745-071f-47f9-8b21-08818c85073b","ios":"levelo://app?vid=ac61e745-071f-47f9-8b21-08818c85073b"},"vehicle_type_id":"4","last_reported":1743689373,"current_range_meters":16800,"station_id":"ce4bhl12rcd13ifvqgf0","pricing_plan_id":"cebpf4jnsgd1na2vs0mg"},{"bike_id":"2b3a7a5d-2e3b-46bd-a1f6-9bd096c5f58d","system_id":"levelo_inurba_marseille","lat":43.2623,"lon":5.40453,"is_reserved":false,"is_disabled":false,"rental_uris":{"android":"levelo://app?vid=2b3a7a5d-2e3b-46bd-a1f6-9bd096c5f58d","ios":"levelo://app?vid=2b3a7a5d-2e3b-46bd-a1f6-9bd096c5f58d"},"vehicle_type_id":"4","last_reported":1743689373,"current_range_meters":17200,"station_id":"ce4bhmh2rcd13ifvqgmg","pricing_plan_id":"cebpf4jnsgd1na2vs0mg"},{"bike_id":"8ccf70e2-ab78-4cc8-a0a7-9506b44dd07b","system_id":"levelo_inurba_marseille","lat":43.27362,"lon":5.42416,"is_reserved":false,"is_disabled":false,"rental_uris":{"android":"levelo://app?vid=8ccf70e2-ab78-4cc8-a0a7-9506b44dd07b","ios":"levelo://app?vid=8ccf70e2-ab78-4cc8-a0a7-9506b44dd07b"},"vehicle_type_id":"4","last_reported":1743689373,"current_range_meters":17200,"station_id":"","pricing_plan_id":"cebpf4jnsgd1na2vs0mg"},{"bike_id":"5bfd08fa-4b5d-4c7d-ac3b-56985151b85e","system_id":"levelo_inurba_marseille","lat":43.30378,"lon":5.42487,"is_reserved":false,"is_disabled":false,"rental_uris":{"android":"levelo://app?vid=5bfd08fa-4b5d-4c7d-ac3b-56985151b85e","ios":"levelo://app?vid=5bfd08fa-4b5d-4c7d-ac3b-56985151b85e"},"vehicle_type_id":"4","last_reported":1743689373,"current_range_meters":17200,"station_id":"ce4bhoh2rcd13ifvqh6g","pricing_plan_id":"cebpf4jnsgd1na2vs0mg"},{"bike_id":"0ddde6b8-0881-44bb-aa7b-31adc8f1bbaf","system_id":"levelo_inurba_marseille","lat":43.30581,"lon":5.36515,"is_reserved":false,"is_disabled":false,"rental_uris":{"android":"levelo://app?vid=0ddde6b8-0881-44bb-aa7b-31adc8f1bbaf","ios":"levelo://app?vid=0ddde6b8-0881-44bb-aa7b-31adc8f1bbaf"},"vehicle_type_id":"4","last_reported":1743689373,"current_range_meters":17200,"station_id":"ce4bgs12rcd13ifvqcag","pricing_plan_id":"cebpf4jnsgd1na2vs0mg"},{"bike_id":"8194e9f6-7f4e-4301-823e-09f4a5d8bfb2","system_id":"levelo_inurba_marseille","lat":43.33726,"lon":5.39189,"is_reserved":false,"is_disabled":false,"rental_uris":{"android":"levelo://app?vid=8194e9f6-7f4e-4301-823e-09f4a5d8bfb2","ios":"levelo://app?vid=8194e9f6-7f4e-4301-823e-09f4a5d8bfb2"},"vehicle_type_id":"4","last_reported":1743689373,"current_range_meters":17200,"station_id":"ce4bhr92rcd13ifvqhsg","pricing_plan_id":"cebpf4jnsgd1na2vs0mg"},{"bike_id":"bbbcccaa-b28a-42b3-a3be-775dbebd611e","system_id":"levelo_inurba_marseille","lat":43.29297,"lon":5.37457,"is_reserved":false,"is_disabled":false,"rental_uris":{"android":"levelo://app?vid=bbbcccaa-b28a-42b3-a3be-775dbebd611e","ios":"levelo://app?vid=bbbcccaa-b28a-42b3-a3be-775dbebd611e"},"vehicle_type_id":"4","last_reported":1743689373,"current_range_meters":16800,"station_id":"ce4bgi12rcd13ifvqb70","pricing_plan_id":"cebpf4jnsgd1na2vs0mg"},{"bike_id":"7763f7b3-b47f-44f0-a3ce-d9aca15810b3","system_id":"levelo_inurba_marseille","lat":43.22941,"lon":5.35366,"is_reserved":false,"is_disabled":false,"rental_uris":{"android":"levelo://app?vid=7763f7b3-b47f-44f0-a3ce-d9aca15810b3","ios":"levelo://app?vid=7763f7b3-b47f-44f0-a3ce-d9aca15810b3"},"vehicle_type_id":"4","last_reported":1743689373,"current_range_meters":17200,"station_id":"cpo3532slgdg3j2ikp40","pricing_plan_id":"cebpf4jnsgd1na2vs0mg"},{"bike_id":"0d7334b7-a6c7-4ffe-a01f-34a60181af26","system_id":"levelo_inurba_marseille","lat":43.26236,"lon":5.40441,"is_reserved":false,"is_disabled":false,"rental_uris":{"android":"levelo://app?vid=0d7334b7-a6c7-4ffe-a01f-34a60181af26","ios":"levelo://app?vid=0d7334b7-a6c7-4ffe-a01f-34a60181af26"},"vehicle_type_id":"4","last_reported":1743689373,"current_range_meters":17200,"station_id":"ce4bhmh2rcd13ifvqgmg","pricing_plan_id":"cebpf4jnsgd1na2vs0mg"},{"bike_id":"74a70d95-9d36-4dd0-8090-101583d038de","system_id":"levelo_inurba_marseille","lat":43.26684,"lon":5.38267,"is_reserved":false,"is_disabled":false,"rental_uris":{"android":"levelo://app?vid=74a70d95-9d36-4dd0-8090-101583d038de","ios":"levelo://app?vid=74a70d95-9d36-4dd0-8090-101583d038de"},"vehicle_type_id":"4","last_reported":1743689373,"current_range_meters":17200,"station_id":"ce4bhg92rcd13ifvqf90","pricing_plan_id":"cebpf4jnsgd1na2vs0mg"},{"bike_id":"14e848ec-19a8-4c23-9df3-7156a614176c","system_id":"levelo_inurba_marseille","lat":43.29935,"lon":5.37459,"is_reserved":false,"is_disabled":false,"rental_uris":{"android":"levelo://app?vid=14e848ec-19a8-4c23-9df3-7156a614176c","ios":"levelo://app?vid=14e848ec-19a8-4c23-9df3-7156a614176c"},"vehicle_type_id":"4","last_reported":1743689373,"current_range_meters":17200,"station_id":"ce4bgjh2rcd13ifvqbg0","pricing_plan_id":"cebpf4jnsgd1na2vs0mg"},{"bike_id":"9c0d242a-6359-4894-82d0-7b4395cea43d","system_id":"levelo_inurba_marseille","lat":43.284058,"lon":5.38789,"is_reserved":false,"is_disabled":false,"rental_uris":{"android":"levelo://app?vid=9c0d242a-6359-4894-82d0-7b4395cea43d","ios":"levelo://app?vid=9c0d242a-6359-4894-82d0-7b4395cea43d"},"vehicle_type_id":"4","last_reported":1743689373,"current_range_meters":17200,"station_id":"ce4bh392rcd13ifvqdl0","pricing_plan_id":"cebpf4jnsgd1na2vs0mg"},{"bike_id":"c9494fbf-7cdd-4618-a59b-c5a096c31d65","system_id":"levelo_inurba_marseille","lat":43.29066,"lon":5.37141,"is_reserved":false,"is_disabled":false,"rental_uris":{"android":"levelo://app?vid=c9494fbf-7cdd-4618-a59b-c5a096c31d65","ios":"levelo://app?vid=c9494fbf-7cdd-4618-a59b-c5a096c31d65"},"vehicle_type_id":"4","last_reported":1743689373,"current_range_meters":17200,"station_id":"ce4bh5p2rcd13ifvqe4g","pricing_plan_id":"cebpf4jnsgd1na2vs0mg"},{"bike_id":"0525c289-e666-4c0b-b33d-896369991ab2","system_id":"levelo_inurba_marseille","lat":43.24084,"lon":5.37763,"is_reserved":false,"is_disabled":false,"rental_uris":{"android":"levelo://app?vid=0525c289-e666-4c0b-b33d-896369991ab2","ios":"levelo://app?vid=0525c289-e666-4c0b-b33d-896369991ab2"},"vehicle_type_id":"4","last_reported":1743689373,"current_range_meters":17200,"station_id":"ce4bhnp2rcd13ifvqgvg","pricing_plan_id":"cebpf4jnsgd1na2vs0mg"},{"bike_id":"08d95562-e97a-4a51-a247-e00c7626513d","system_id":"levelo_inurba_marseille","lat":43.27326,"lon":5.39092,"is_reserved":false,"is_disabled":false,"rental_uris":{"android":"levelo://app?vid=08d95562-e97a-4a51-a247-e00c7626513d","ios":"levelo://app?vid=08d95562-e97a-4a51-a247-e00c7626513d"},"vehicle_type_id":"4","last_reported":1743689373,"current_range_meters":16800,"station_id":"ce4bhgp2rcd13ifvqfe0","pricing_plan_id":"cebpf4jnsgd1na2vs0mg"},{"bike_id":"efe6eb59-9469-4ada-a89a-1d69d5f5eeae","system_id":"levelo_inurba_marseille","lat":43.28863,"lon":5.35846,"is_reserved":false,"is_disabled":false,"rental_uris":{"android":"levelo://app?vid=efe6eb59-9469-4ada-a89a-1d69d5f5eeae","ios":"levelo://app?vid=efe6eb59-9469-4ada-a89a-1d69d5f5eeae"},"vehicle_type_id":"4","last_reported":1743689373,"current_range_meters":17200,"station_id":"ce4bhb12rcd13ifvqem0","pricing_plan_id":"cebpf4jnsgd1na2vs0mg"},{"bike_id":"264386b3-614e-4301-9608-3b573b153761","system_id":"levelo_inurba_marseille","lat":43.31388,"lon":5.36707,"is_reserved":false,"is_disabled":false,"rental_uris":{"android":"levelo://app?vid=264386b3-614e-4301-9608-3b573b153761","ios":"levelo://app?vid=264386b3-614e-4301-9608-3b573b153761"},"vehicle_type_id":"4","last_reported":1743689373,"current_range_meters":17200,"station_id":"ce4bgr92rcd13ifvqc6g","pricing_plan_id":"cebpf4jnsgd1na2vs0mg"},{"bike_id":"b8755bc2-7edf-490c-91a9-51a6e2730bf8","system_id":"levelo_inurba_marseille","lat":43.29712,"lon":5.36606,"is_reserved":false,"is_disabled":false,"rental_uris":{"android":"levelo://app?vid=b8755bc2-7edf-490c-91a9-51a6e2730bf8","ios":"levelo://app?vid=b8755bc2-7edf-490c-91a9-51a6e2730bf8"},"vehicle_type_id":"4","last_reported":1743689373,"current_range_meters":17600,"station_id":"ce4bgn12rcd13ifvqbt0","pricing_plan_id":"cebpf4jnsgd1na2vs0mg"},{"bike_id":"dfcbc06f-393a-4082-b8e3-5908f272108e","system_id":"levelo_inurba_marseille","lat":43.31386,"lon":5.36752,"is_reserved":false,"is_disabled":false,"rental_uris":{"android":"levelo://app?vid=dfcbc06f-393a-4082-b8e3-5908f272108e","ios":"levelo://app?vid=dfcbc06f-393a-4082-b8e3-5908f272108e"},"vehicle_type_id":"4","last_reported":1743689373,"current_range_meters":17600,"station_id":"","pricing_plan_id":"cebpf4jnsgd1na2vs0mg"},{"bike_id":"ed082ff9-6be2-40b2-9445-0442e383ec7f","system_id":"levelo_inurba_marseille","lat":43.29552,"lon":5.42291,"is_reserved":false,"is_disabled":false,"rental_uris":{"android":"levelo://app?vid=ed082ff9-6be2-40b2-9445-0442e383ec7f","ios":"levelo://app?vid=ed082ff9-6be2-40b2-9445-0442e383ec7f"},