{"last_updated":1687394516,"ttl":30,"version":"2.2","data":{"bikes":[{"bike_id":"fe7b337c-52cd-4734-a5c9-68e277c0ad43","system_id":"levelo_inurba_marseille","lat":43.31341,"lon":5.367098,"is_reserved":false,"is_disabled":false,"rental_uris":{"android":"levelo://app?vid=fe7b337c-52cd-4734-a5c9-68e277c0ad43","ios":"levelo://app?vid=fe7b337c-52cd-4734-a5c9-68e277c0ad43"},"vehicle_type_id":"4","last_reported":1687394517,"current_range_meters":14000,"station_id":"ce4bgr92rcd13ifvqc6g","pricing_plan_id":"free"},{"bike_id":"16d4aa41-b213-4b2e-b314-3a4c37b92ea8","system_id":"levelo_inurba_marseille","lat":43.312239,"lon":5.368562,"is_reserved":false,"is_disabled":false,"rental_uris":{"android":"levelo://app?vid=16d4aa41-b213-4b2e-b314-3a4c37b92ea8","ios":"levelo://app?vid=16d4aa41-b213-4b2e-b314-3a4c37b92ea8"},"vehicle_type_id":"4","last_reported":1687394517,"current_range_meters":20400,"station_id":"ce4bgl92rcd13ifvqbq0","pricing_plan_id":"free"},{"bike_id":"6e4fd040-1866-4783-872c-dd21a7ae18af","system_id":"levelo_inurba_marseille","lat":43.31345,"lon":5.37063,"is_reserved":false,"is_disabled":false,"rental_uris":{"android":"levelo://app?vid=6e4fd040-1866-4783-872c-dd21a7ae18af","ios":"levelo://app?vid=6e4fd040-1866-4783-872c-dd21a7ae18af"},"vehicle_type_id":"4","last_reported":1687394517,"current_range_meters":6800,"station_id":"","pricing_plan_id":"free"},{"bike_id":"8b6b7365-f04a-4f95-9fe5-9e47eabd8966","system_id":"levelo_inurba_marseille","lat":43.314811,"lon":5.373103,"is_reserved":false,"is_disabled":false,"rental_uris":{"android":"levelo://app?vid=8b6b7365-f04a-4f95-9fe5-9e47eabd8966","ios":"levelo://app?vid=8b6b7365-f04a-4f95-9fe5-9e47eabd8966"},"vehicle_type_id":"4","last_reported":1687394517,"current_range_meters":29600,"station_id":"ce4bgt12rcd13ifvqcd0","pricing_plan_id":"free"},{"bike_id":"f9bdecb1-4f6a-4fe8-b1ea-b4a58ee37053","system_id":"levelo_inurba_marseille","lat":43.314811,"lon":5.373103,"is_reserved":false,"is_disabled":false,"rental_uris":{"android":"levelo://app?vid=f9bdecb1-4f6a-4fe8-b1ea-b4a58ee37053","ios":"levelo://app?vid=f9bdecb1-4f6a-4fe8-b1ea-b4a58ee37053"},"vehicle_type_id":"4","last_reported":1687394517,"current_range_meters":16000,"station_id":"ce4bgt12rcd13ifvqcd0","pricing_plan_id":"free"},{"bike_id":"9439e32d-17a0-405f-9c12-2b96c82db2b8","system_id":"levelo_inurba_marseille","lat":43.314811,"lon":5.373103,"is_reserved":false,"is_disabled":false,"rental_uris":{"android":"levelo://app?vid=9439e32d-17a0-405f-9c12-2b96c82db2b8","ios":"levelo://app?vid=9439e32d-17a0-405f-9c12-2b96c82db2b8"},"vehicle_type_id":"4","last_reported":1687394517,"current_range_meters":10000,"station_id":"ce4bgt12rcd13ifvqcd0","pricing_plan_id":"free"},{"bike_id":"f819ce49-ebc9-4d1d-9eae-086bae32b593","system_id":"levelo_inurba_marseille","lat":43.314811,"lon":5.373103,"is_reserved":false,"is_disabled":false,"rental_uris":{"android":"levelo://app?vid=f819ce49-ebc9-4d1d-9eae-086bae32b593","ios":"levelo://app?vid=f819ce49-ebc9-4d1d-9eae-086bae32b593"},"vehicle_type_id":"4","last_reported":1687394517,"current_range_meters":26000,"station_id":"ce4bgt12rcd13ifvqcd0","pricing_plan_id":"free"},{"bike_id":"f1dbf916-e2b8-4f70-8da5-ce83ecd70984","system_id":"levelo_inurba_marseille","lat":43.308606,"lon":5.372099,"is_reserved":false,"is_disabled":false,"rental_uris":{"android":"levelo://app?vid=f1dbf916-e2b8-4f70-8da5-ce83ecd70984","ios":"levelo://app?vid=f1dbf916-e2b8-4f70-8da5-ce83ecd70984"},"vehicle_type_id":"4","last_reported":1687394517,"current_range_meters":4800,"station_id":"ce4bguh2rcd13ifvqckg","pricing_plan_id":"free"},{"bike_id":"f548d716-5132-4478-8feb-21bb1fc3e9d9","system_id":"levelo_inurba_marseille","lat":43.30891,"lon":5.37192,"is_reserved":false,"is_disabled":false,"rental_uris":{"android":"levelo://app?vid=f548d716-5132-4478-8feb-21bb1fc3e9d9","ios":"levelo://app?vid=f548d716-5132-4478-8feb-21bb1fc3e9d9"},"vehicle_type_id":"4","last_reported":1687394517,"current_range_meters":2000,"station_id":"","pricing_plan_id":"free"},{"bike_id":"11bfd3fe-e149-45d7-8fab-b36fe62e4e06","system_id":"levelo_inurba_marseille","lat":43.3091,"lon":5.373,"is_reserved":false,"is_disabled":false,"rental_uris":{"android":"levelo://app?vid=11bfd3fe-e149-45d7-8fab-b36fe62e4e06","ios":"levelo://app?vid=11bfd3fe-e149-45d7-8fab-b36fe62e4e06"},"vehicle_type_id":"4","last_reported":1687394517,"current_range_meters":26000,"station_id":"","pricing_plan_id":"free"},{"bike_id":"24c2af25-b152-4b5e-b1dd-2f4897d3cae3","system_id":"levelo_inurba_marseille","lat":43.30515,"lon":5.36716,"is_reserved":false,"is_disabled":false,"rental_uris":{"android":"levelo://app?vid=24c2af25-b152-4b5e-b1dd-2f4897d3cae3","ios":"levelo://app?vid=24c2af25-b152-4b5e-b1dd-2f4897d3cae3"},"vehicle_type_id":"4","last_reported":1687394517,"current_range_meters":14400,"station_id":"","pricing_plan_id":"free"},{"bike_id":"b5d274c9-3021-4477-b275-3794fd3c9a50","system_id":"levelo_inurba_marseille","lat":43.3033,"lon":5.36918,"is_reserved":false,"is_disabled":false,"rental_uris":{"android":"levelo://app?vid=b5d274c9-3021-4477-b275-3794fd3c9a50","ios":"levelo://app?vid=b5d274c9-3021-4477-b275-3794fd3c9a50"},"vehicle_type_id":"4","last_reported":1687394517,"current_range_meters":23200,"station_id":"ce4bgqh2rcd13ifvqc5g","pricing_plan_id":"free"},{"bike_id":"f8a0d0ce-39d4-448d-9143-12a938176f27","system_id":"levelo_inurba_marseille","lat":43.30304,"lon":5.36885,"is_reserved":false,"is_disabled":false,"rental_uris":{"android":"levelo://app?vid=f8a0d0ce-39d4-448d-9143-12a938176f27","ios":"levelo://app?vid=f8a0d0ce-39d4-448d-9143-12a938176f27"},"vehicle_type_id":"4","last_reported":1687394517,"current_range_meters":15600,"station_id":"ce4bgqh2rcd13ifvqc5g","pricing_plan_id":"free"},{"bike_id":"0671781d-44b9-45b7-a515-ef8f744d74f3","system_id":"levelo_inurba_marseille","lat":43.31537,"lon":5.38019,"is_reserved":false,"is_disabled":false,"rental_uris":{"android":"levelo://app?vid=0671781d-44b9-45b7-a515-ef8f744d74f3","ios":"levelo://app?vid=0671781d-44b9-45b7-a515-ef8f744d74f3"},"vehicle_type_id":"4","last_reported":1687394517,"current_range_meters":31200,"station_id":"ce4bhsp2rcd13ifvqi50","pricing_plan_id":"free"},{"bike_id":"9401679d-9d64-4719-bf3c-b3071e6afbfe","system_id":"levelo_inurba_marseille","lat":43.31525,"lon":5.38025,"is_reserved":false,"is_disabled":false,"rental_uris":{"android":"levelo://app?vid=9401679d-9d64-4719-bf3c-b3071e6afbfe","ios":"levelo://app?vid=9401679d-9d64-4719-bf3c-b3071e6afbfe"},"vehicle_type_id":"4","last_reported":1687394517,"current_range_meters":31200,"station_id":"ce4bhsp2rcd13ifvqi50","pricing_plan_id":"free"},{"bike_id":"5a2bd71e-bcca-45e4-a07d-b8f11ff93b8f","system_id":"levelo_inurba_marseille","lat":43.31536,"lon":5.38027,"is_reserved":false,"is_disabled":false,"rental_uris":{"android":"levelo://app?vid=5a2bd71e-bcca-45e4-a07d-b8f11ff93b8f","ios":"levelo://app?vid=5a2bd71e-bcca-45e4-a07d-b8f11ff93b8f"},"vehicle_type_id":"4","last_reported":1687394517,"current_range_meters":28400,"station_id":"ce4bhsp2rcd13ifvqi50","pricing_plan_id":"free"},{"bike_id":"747ed5ac-c06c-44e1-b144-47e49b2abd04","system_id":"levelo_inurba_marseille","lat":43.315289,"lon":5.380349,"is_reserved":false,"is_disabled":false,"rental_uris":{"android":"levelo://app?vid=747ed5ac-c06c-44e1-b144-47e49b2abd04","ios":"levelo://app?vid=747ed5ac-c06c-44e1-b144-47e49b2abd04"},"vehicle_type_id":"4","last_reported":1687394517,"current_range_meters":7600,"station_id":"ce4bhsp2rcd13ifvqi50","pricing_plan_id":"free"},{"bike_id":"1bb20b8c-d5e4-4bf2-82ac-59ffb2d2a6af","system_id":"levelo_inurba_marseille","lat":43.315293,"lon":5.380349,"is_reserved":false,"is_disabled":false,"rental_uris":{"android":"levelo://app?vid=1bb20b8c-d5e4-4bf2-82ac-59ffb2d2a6af","ios":"levelo://app?vid=1bb20b8c-d5e4-4bf2-82ac-59ffb2d2a6af"},"vehicle_type_id":"4","last_reported":1687394517,"current_range_meters":31200,"station_id":"ce4bhsp2rcd13ifvqi50","pricing_plan_id":"free"},{"bike_id":"5d6fa2da-4e60-46c2-85ca-f73fa165bbe9","system_id":"levelo_inurba_marseille","lat":43.315293,"lon":5.380349,"is_reserved":false,"is_disabled":false,"rental_uris":{"android":"levelo://app?vid=5d6fa2da-4e60-46c2-85ca-f73fa165bbe9","ios":"levelo://app?vid=5d6fa2da-4e60-46c2-85ca-f73fa165bbe9"},"vehicle_type_id":"4","last_reported":1687394517,"current_range_meters":31200,"station_id":"ce4bhsp2rcd13ifvqi50","pricing_plan_id":"free"},{"bike_id":"3171018c-6f91-44bb-b9ad-9d821917f15a","system_id":"levelo_inurba_marseille","lat":43.315293,"lon":5.380349,"is_reserved":false,"is_disabled":false,"rental_uris":{"android":"levelo://app?vid=3171018c-6f91-44bb-b9ad-9d821917f15a","ios":"levelo://app?vid=3171018c-6f91-44bb-b9ad-9d821917f15a"},"vehicle_type_id":"4","last_reported":1687394517,"current_range_meters":17200,"station_id":"ce4bhsp2rcd13ifvqi50","pricing_plan_id":"free"},{"bike_id":"8d540a52-663b-44eb-bf52-8546e20c1d98","system_id":"levelo_inurba_marseille","lat":43.315289,"lon":5.380349,"is_reserved":false,"is_disabled":false,"rental_uris":{"android":"levelo://app?vid=8d540a52-663b-44eb-bf52-8546e20c1d98","ios":"levelo://app?vid=8d540a52-663b-44eb-bf52-8546e20c1d98"},"vehicle_type_id":"4","last_reported":1687394517,"current_range_meters":16800,"station_id":"ce4bhsp2rcd13ifvqi50","pricing_plan_id":"free"},{"bike_id":"ae33307b-fcd5-479b-9ae1-9002ed226c6e","system_id":"levelo_inurba_marseille","lat":43.30804,"lon":5.38152,"is_reserved":false,"is_disabled":false,"rental_uris":{"android":"levelo://app?vid=ae33307b-fcd5-479b-9ae1-9002ed226c6e","ios":"levelo://app?vid=ae33307b-fcd5-479b-9ae1-9002ed226c6e"},"vehicle_type_id":"4","last_reported":1687394517,"current_range_meters":13600,"station_id":"ce4bgt12rcd13ifvqce0","pricing_plan_id":"free"},{"bike_id":"e68145f0-a455-4531-afe7-9678ee9789ef","system_id":"levelo_inurba_marseille","lat":43.30795,"lon":5.38155,"is_reserved":false,"is_disabled":false,"rental_uris":{"android":"levelo://app?vid=e68145f0-a455-4531-afe7-9678ee9789ef","ios":"levelo://app?vid=e68145f0-a455-4531-afe7-9678ee9789ef"},"vehicle_type_id":"4","last_reported":1687394517,"current_range_meters":4000,"station_id":"ce4bgt12rcd13ifvqce0","pricing_plan_id":"free"},{"bike_id":"43fc693e-f2a9-4aec-8fd9-d094bb02cb70","system_id":"levelo_inurba_marseille","lat":43.304606,"lon":5.379026,"is_reserved":false,"is_disabled":false,"rental_uris":{"android":"levelo://app?vid=43fc693e-f2a9-4aec-8fd9-d094bb02cb70","ios":"levelo://app?vid=43fc693e-f2a9-4aec-8fd9-d094bb02cb70"},"vehicle_type_id":"4","last_reported":1687394517,"current_range_meters":4000,"station_id":"ce4bgup2rcd13ifvqcn0","pricing_plan_id":"free"},{"bike_id":"7c841cef-9978-4cd3-8a69-91aaa293c1c3","system_id":"levelo_inurba_marseille","lat":43.314811,"lon":5.373103,"is_reserved":false,"is_disabled":false,"rental_uris":{"android":"levelo://app?vid=7c841cef-9978-4cd3-8a69-91aaa293c1c3","ios":"levelo://app?vid=7c841cef-9978-4cd3-8a69-91aaa293c1c3"},"vehicle_type_id":"4","last_reported":1687394517,"current_range_meters":18400,"station_id":"ce4bgt12rcd13ifvqcd0","pricing_plan_id":"free"},{"bike_id":"ad1883fa-cea8-4e58-ac93-ae326492fb08","system_id":"levelo_inurba_marseille","lat":43.30711,"lon":5.3824,"is_reserved":false,"is_disabled":false,"rental_uris":{"android":"levelo://app?vid=ad1883fa-cea8-4e58-ac93-ae326492fb08","ios":"levelo://app?vid=ad1883fa-cea8-4e58-ac93-ae326492fb08"},"vehicle_type_id":"4","last_reported":1687394517,"current_range_meters":23600,"station_id":"ce4bgt12rcd13ifvqce0","pricing_plan_id":"free"},{"bike_id":"42bc24f9-1b28-470f-9e48-4446fd83da54","system_id":"levelo_inurba_marseille","lat":43.319935,"lon":5.381699,"is_reserved":false,"is_disabled":false,"rental_uris":{"android":"levelo://app?vid=42bc24f9-1b28-470f-9e48-4446fd83da54","ios":"levelo://app?vid=42bc24f9-1b28-470f-9e48-4446fd83da54"},"vehicle_type_id":"4","last_reported":1687394517,"current_range_meters":20400,"station_id":"ce4bhr12rcd13ifvqhpg","pricing_plan_id":"free"},{"bike_id":"658403d7-3f6a-4ea2-bd5d-74d482608e9d","system_id":"levelo_inurba_marseille","lat":43.319935,"lon":5.381699,"is_reserved":false,"is_disabled":false,"rental_uris":{"android":"levelo://app?vid=658403d7-3f6a-4ea2-bd5d-74d482608e9d","ios":"levelo://app?vid=658403d7-3f6a-4ea2-bd5d-74d482608e9d"},"vehicle_type_id":"4","last_reported":1687394517,"current_range_meters":11600,"station_id":"ce4bhr12rcd13ifvqhpg","pricing_plan_id":"free"},{"bike_id":"b3d92297-9e36-4c2d-a4cb-46160e0b9cbc","system_id":"levelo_inurba_marseille","lat":43.313571,"lon":5.384829,"is_reserved":false,"is_disabled":false,"rental_uris":{"android":"levelo://app?vid=b3d92297-9e36-4c2d-a4cb-46160e0b9cbc","ios":"levelo://app?vid=b3d92297-9e36-4c2d-a4cb-46160e0b9cbc"},"vehicle_type_id":"4","last_reported":1687394517,"current_range_meters":21200,"station_id":"ce4bgt92rcd13ifvqcf0","pricing_plan_id":"free"},{"bike_id":"7cc3d1c9-e000-4134-8895-a745a081d56d","system_id":"levelo_inurba_marseille","lat":43.313571,"lon":5.384829,"is_reserved":false,"is_disabled":false,"rental_uris":{"android":"levelo://app?vid=7cc3d1c9-e000-4134-8895-a745a081d56d","ios":"levelo://app?vid=7cc3d1c9-e000-4134-8895-a745a081d56d"},"vehicle_type_id":"4","last_reported":1687394517,"current_range_meters":24000,"station_id":"ce4bgt92rcd13ifvqcf0","pricing_plan_id":"free"},{"bike_id":"b2b94788-86d2-4031-9872-16c836fafa94","system_id":"levelo_inurba_marseille","lat":43.313571,"lon":5.384829,"is_reserved":false,"is_disabled":false,"rental_uris":{"android":"levelo://app?vid=b2b94788-86d2-4031-9872-16c836fafa94","ios":"levelo://app?vid=b2b94788-86d2-4031-9872-16c836fafa94"},"vehicle_type_id":"4","last_reported":1687394517,"current_range_meters":13600,"station_id":"ce4bgt92rcd13ifvqcf0","pricing_plan_id":"free"},{"bike_id":"cd6e76e1-dc6d-48c2-b1f5-9caa1ac9a118","system_id":"levelo_inurba_marseille","lat":43.299222,"lon":5.365554,"is_reserved":false,"is_disabled":false,"rental_uris":{"android":"levelo://app?vid=cd6e76e1-dc6d-48c2-b1f5-9caa1ac9a118","ios":"levelo://app?vid=cd6e76e1-dc6d-48c2-b1f5-9caa1ac9a118"},"vehicle_type_id":"4","last_reported":1687394517,"current_range_meters":4800,"station_id":"ce4bgm92rcd13ifvqbr0","pricing_plan_id":"free"},{"bike_id":"1a160fbd-c036-4535-bc9e-95e6fe717c45","system_id":"levelo_inurba_marseille","lat":43.299222,"lon":5.365554,"is_reserved":false,"is_disabled":false,"rental_uris":{"android":"levelo://app?vid=1a160fbd-c036-4535-bc9e-95e6fe717c45","ios":"levelo://app?vid=1a160fbd-c036-4535-bc9e-95e6fe717c45"},"vehicle_type_id":"4","last_reported":1687394517,"current_range_meters":400,"station_id":"ce4bgm92rcd13ifvqbr0","pricing_plan_id":"free"},{"bike_id":"aa7d7a16-8be6-4b43-b87b-f2f7e338c34a","system_id":"levelo_inurba_marseille","lat":43.29848,"lon":5.36286,"is_reserved":false,"is_disabled":false,"rental_uris":{"android":"levelo://app?vid=aa7d7a16-8be6-4b43-b87b-f2f7e338c34a","ios":"levelo://app?vid=aa7d7a16-8be6-4b43-b87b-f2f7e338c34a"},"vehicle_type_id":"4","last_reported":1687394517,"current_range_meters":10400,"station_id":"ce4bgpp2rcd13ifvqc3g","pricing_plan_id":"free"},{"bike_id":"a74fd40c-3491-43b2-9922-cced8b6bbeba","system_id":"levelo_inurba_marseille","lat":43.311722,"lon":5.387247,"is_reserved":false,"is_disabled":false,"rental_uris":{"android":"levelo://app?vid=a74fd40c-3491-43b2-9922-cced8b6bbeba","ios":"levelo://app?vid=a74fd40c-3491-43b2-9922-cced8b6bbeba"},"vehicle_type_id":"4","last_reported":1687394517,"current_range_meters":13200,"station_id":"ce4bgv12rcd13ifvqcp0","pricing_plan_id":"free"},{"bike_id":"d8a5fa92-e615-403e-b7cc-5bbd3d5d8ee9","system_id":"levelo_inurba_marseille","lat":43.311722,"lon":5.387247,"is_reserved":false,"is_disabled":false,"rental_uris":{"android":"levelo://app?vid=d8a5fa92-e615-403e-b7cc-5bbd3d5d8ee9","ios":"levelo://app?vid=d8a5fa92-e615-403e-b7cc-5bbd3d5d8ee9"},"vehicle_type_id":"4","last_reported":1687394517,"current_range_meters":22400,"station_id":"ce4bgv12rcd13ifvqcp0","pricing_plan_id":"free"},{"bike_id":"d291654d-3fb4-4bde-bf41-60fa6aee0bf6","system_id":"levelo_inurba_marseille","lat":43.311722,"lon":5.387247,"is_reserved":false,"is_disabled":false,"rental_uris":{"android":"levelo://app?vid=d291654d-3fb4-4bde-bf41-60fa6aee0bf6","ios":"levelo://app?vid=d291654d-3fb4-4bde-bf41-60fa6aee0bf6"},"vehicle_type_id":"4","last_reported":1687394517,"current_range_meters":13600,"station_id":"ce4bgv12rcd13ifvqcp0","pricing_plan_id":"free"},{"bike_id":"43db1591-9191-4c23-828f-3ac332c46295","system_id":"levelo_inurba_marseille","lat":43.311722,"lon":5.387247,"is_reserved":false,"is_disabled":false,"rental_uris":{"android":"levelo://app?vid=43db1591-9191-4c23-828f-3ac332c46295","ios":"levelo://app?vid=43db1591-9191-4c23-828f-3ac332c46295"},"vehicle_type_id":"4","last_reported":1687394517,"current_range_meters":18000,"station_id":"ce4bgv12rcd13ifvqcp0","pricing_plan_id":"free"},{"bike_id":"c61c7dec-0ab0-441b-8d64-0933761ec167","system_id":"levelo_inurba_marseille","lat":43.311722,"lon":5.387247,"is_reserved":false,"is_disabled":false,"rental_uris":{"android":"levelo://app?vid=c61c7dec-0ab0-441b-8d64-0933761ec167","ios":"levelo://app?vid=c61c7dec-0ab0-441b-8d64-0933761ec167"},"vehicle_type_id":"4","last_reported":1687394517,"current_range_meters":16800,"station_id":"ce4bgv12rcd13ifvqcp0","pricing_plan_id":"free"},{"bike_id":"fe37723c-ec18-4c30-93e3-dc846491557f","system_id":"levelo_inurba_marseille","lat":43.311722,"lon":5.387247,"is_reserved":false,"is_disabled":false,"rental_uris":{"android":"levelo://app?vid=fe37723c-ec18-4c30-93e3-dc846491557f","ios":"levelo://app?vid=fe37723c-ec18-4c30-93e3-dc846491557f"},"vehicle_type_id":"4","last_reported":1687394517,"current_range_meters":13200,"station_id":"ce4bgv12rcd13ifvqcp0","pricing_plan_id":"free"},{"bike_id":"fcd6611f-e545-4435-b87c-77802ce0523c","system_id":"levelo_inurba_marseille","lat":43.311722,"lon":5.387247,"is_reserved":false,"is_disabled":false,"rental_uris":{"android":"levelo://app?vid=fcd6611f-e545-4435-b87c-77802ce0523c","ios":"levelo://app?vid=fcd6611f-e545-4435-b87c-77802ce0523c"},"vehicle_type_id":"4","last_reported":1687394517,"current_range_meters":12000,"station_id":"ce4bgv12rcd13ifvqcp0","pricing_plan_id":"free"},{"bike_id":"de9ff566-747e-42fc-8afd-2918a5b189ae","system_id":"levelo_inurba_marseille","lat":43.311722,"lon":5.387247,"is_reserved":false,"is_disabled":false,"rental_uris":{"android":"levelo://app?vid=de9ff566-747e-42fc-8afd-2918a5b189ae","ios":"levelo://app?vid=de9ff566-747e-42fc-8afd-2918a5b189ae"},"vehicle_type_id":"4","last_reported":1687394517,"current_range_meters":13600,"station_id":"ce4bgv12rcd13ifvqcp0","pricing_plan_id":"free"},{"bike_id":"535536ce-a1cf-4bfa-a81e-3413549dda5d","system_id":"levelo_inurba_marseille","lat":43.311722,"lon":5.387247,"is_reserved":false,"is_disabled":false,"rental_uris":{"android":"levelo://app?vid=535536ce-a1cf-4bfa-a81e-3413549dda5d","ios":"levelo://app?vid=535536ce-a1cf-4bfa-a81e-3413549dda5d"},"vehicle_type_id":"4","last_reported":1687394517,"current_range_meters":30000,"station_id":"ce4bgv12rcd13ifvqcp0","pricing_plan_id":"free"},{"bike_id":"ea372316-1322-4cab-adc8-27d2521d039c","system_id":"levelo_inurba_marseille","lat":43.32766,"lon":5.36709,"is_reserved":false,"is_disabled":false,"rental_uris":{"android":"levelo://app?vid=ea372316-1322-4cab-adc8-27d2521d039c","ios":"levelo://app?vid=ea372316-1322-4cab-adc8-27d2521d039c"},"vehicle_type_id":"4","last_reported":1687394517,"current_range_meters":24400,"station_id":"","pricing_plan_id":"free"},{"bike_id":"e6ea61d5-da20-4ad2-b344-94c2975133fa","system_id":"levelo_inurba_marseille","lat":43.32275,"lon":5.38238,"is_reserved":false,"is_disabled":false,"rental_uris":{"android":"levelo://app?vid=e6ea61d5-da20-4ad2-b344-94c2975133fa","ios":"levelo://app?vid=e6ea61d5-da20-4ad2-b344-94c2975133fa"},"vehicle_type_id":"4","last_reported":1687394517,"current_range_meters":4400,"station_id":"","pricing_plan_id":"free"},{"bike_id":"c3339efb-c603-45cb-8da9-01d5c529aca8","system_id":"levelo_inurba_marseille","lat":43.32352,"lon":5.38187,"is_reserved":false,"is_disabled":false,"rental_uris":{"android":"levelo://app?vid=c3339efb-c603-45cb-8da9-01d5c529aca8","ios":"levelo://app?vid=c3339efb-c603-45cb-8da9-01d5c529aca8"},"vehicle_type_id":"4","last_reported":1687394517,"current_range_meters":18000,"station_id":"","pricing_plan_id":"free"},{"bike_id":"e1ad168f-5f7b-4f0f-888d-c79a3bf47424","system_id":"levelo_inurba_marseille","lat":43.32829,"lon":5.36686,"is_reserved":false,"is_disabled":false,"rental_uris":{"android":"levelo://app?vid=e1ad168f-5f7b-4f0f-888d-c79a3bf47424","ios":"levelo://app?vid=e1ad168f-5f7b-4f0f-888d-c79a3bf47424"},"vehicle_type_id":"4","last_reported":1687394517,"current_range_meters":31200,"station_id":"ce4bhs92rcd13ifvqi0g","pricing_plan_id":"free"},{"bike_id":"8a3fafeb-fd15-400f-a057-26d14b76d300","system_id":"levelo_inurba_marseille","lat":43.32831,"lon":5.36687,"is_reserved":false,"is_disabled":false,"rental_uris":{"android":"levelo://app?vid=8a3fafeb-fd15-400f-a057-26d14b76d300","ios":"levelo://app?vid=8a3fafeb-fd15-400f-a057-26d14b76d300"},"vehicle_type_id":"4","last_reported":1687394517,"current_range_meters":6000,"station_id":"ce4bhs92rcd13ifvqi0g","pricing_plan_id":"free"},{"bike_id":"176f4894-d7fc-460e-aa5d-7c8c1e206dc3","system_id":"levelo_inurba_marseille","lat":43.29714,"lon":5.36618,"is_reserved":false,"is_disabled":false,"rental_uris":{"android":"levelo://app?vid=176f4894-d7fc-460e-aa5d-7c8c1e206dc3","ios":"levelo://app?vid=176f4894-d7fc-460e-aa5d-7c8c1e206dc3"},"vehicle_type_id":"4","last_reported":1687394517,"current_range_meters":16800,"station_id":"ce4bgn12rcd13ifvqbt0","pricing_plan_id":"free"},{"bike_id":"c8249588-4f49-4480-b59a-422f9645e027","system_id":"levelo_inurba_marseille","lat":43.313571,"lon":5.384829,"is_reserved":false,"is_disabled":false,"rental_uris":{"android":"levelo://app?vid=c8249588-4f49-4480-b59a-422f9645e027","ios":"levelo://app?vid=c8249588-4f49-4480-b59a-422f9645e027"},"vehicle_type_id":"4","last_reported":1687394517,"current_range_meters":5200,"station_id":"ce4bgt92rcd13ifvqcf0","pricing_plan_id":"free"},{"bike_id":"24f41ca5-b432-4feb-a0c8-a15026b97306","system_id":"levelo_inurba_marseille","lat":43.296131,"lon":5.370773,"is_reserved":false,"is_disabled":false,"rental_uris":{"android":"levelo://app?vid=24f41ca5-b432-4feb-a0c8-a15026b97306","ios":"levelo://app?vid=24f41ca5-b432-4feb-a0c8-a15026b97306"},"vehicle_type_id":"4","last_reported":1687394517,"current_range_meters":0,"station_id":"ce4bgnh2rcd13ifvqc0g","pricing_plan_id":"free"},{"bike_id":"041bc147-ef2f-419b-bb81-deca3bdf89e2","system_id":"levelo_inurba_marseille","lat":43.29611,"lon":5.36046,"is_reserved":false,"is_disabled":false,"rental_uris":{"android":"levelo://app?vid=041bc147-ef2f-419b-bb81-deca3bdf89e2","ios":"levelo://app?vid=041bc147-ef2f-419b-bb81-deca3bdf89e2"},"vehicle_type_id":"4","last_reported":1687394517,"current_range_meters":16400,"station_id":"","pricing_plan_id":"free"},{"bike_id":"5e45b494-23e7-4281-8516-dbac5bc32675","system_id":"levelo_inurba_marseille","lat":43.30955,"lon":5.39035,"is_reserved":false,"is_disabled":false,"rental_uris":{"android":"levelo://app?vid=5e45b494-23e7-4281-8516-dbac5bc32675","ios":"levelo://app?vid=5e45b494-23e7-4281-8516-dbac5bc32675"},"vehicle_type_id":"4","last_reported":1687394517,"current_range_meters":6800,"station_id":"ce4bgup2rcd13ifvqco0","pricing_plan_id":"free"},{"bike_id":"0b001132-d5b7-4838-b141-f10307dd1a49","system_id":"levelo_inurba_marseille","lat":43.30954,"lon":5.3904,"is_reserved":false,"is_disabled":false,"rental_uris":{"android":"levelo://app?vid=0b001132-d5b7-4838-b141-f10307dd1a49","ios":"levelo://app?vid=0b001132-d5b7-4838-b141-f10307dd1a49"},"vehicle_type_id":"4","last_reported":1687394517,"current_range_meters":2400,"station_id":"ce4bgup2rcd13ifvqco0","pricing_plan_id":"free"},{"bike_id":"68ef9127-a014-4212-aefa-4500fd272235","system_id":"levelo_inurba_marseille","lat":43.317557,"lon":5.390173,"is_reserved":false,"is_disabled":false,"rental_uris":{"android":"levelo://app?vid=68ef9127-a014-4212-aefa-4500fd272235","ios":"levelo://app?vid=68ef9127-a014-4212-aefa-4500fd272235"},"vehicle_type_id":"4","last_reported":1687394517,"current_range_meters":30400,"station_id":"ce4bhqp2rcd13ifvqhng","pricing_plan_id":"free"},{"bike_id":"d38c5de4-1b75-44fb-88b5-eb30bcdcd7d0","system_id":"levelo_inurba_marseille","lat":43.302008,"lon":5.394694,"is_reserved":false,"is_disabled":false,"rental_uris":{"android":"levelo://app?vid=d38c5de4-1b75-44fb-88b5-eb30bcdcd7d0","ios":"levelo://app?vid=d38c5de4-1b75-44fb-88b5-eb30bcdcd7d0"},"vehicle_type_id":"4","last_reported":1687394517,"current_range_meters":16400,"station_id":"ce4bh0p2rcd13ifvqd70","pricing_plan_id":"free"},{"bike_id":"a77fa531-c916-46d5-b2b6-dd228533b15e","system_id":"levelo_inurba_marseille","lat":43.31746,"lon":5.39009,"is_reserved":false,"is_disabled":false,"rental_uris":{"android":"levelo://app?vid=a77fa531-c916-46d5-b2b6-dd228533b15e","ios":"levelo://app?vid=a77fa531-c916-46d5-b2b6-dd228533b15e"},"vehicle_type_id":"4","last_reported":1687394517,"current_range_meters":31200,"station_id":"ce4bhqp2rcd13ifvqhng","pricing_plan_id":"free"},{"bike_id":"16e5fedd-6e86-436a-a0a2-72c7cd60a6ea","system_id":"levelo_inurba_marseille","lat":43.317557,"lon":5.390173,"is_reserved":false,"is_disabled":false,"rental_uris":{"android":"levelo://app?vid=16e5fedd-6e86-436a-a0a2-72c7cd60a6ea","ios":"levelo://app?vid=16e5fedd-6e86-436a-a0a2-72c7cd60a6ea"},"vehicle_type_id":"4","last_reported":1687394517,"current_range_meters":31200,"station_id":"ce4bhqp2rcd13ifvqhng","pricing_plan_id":"free"},{"bike_id":"8b9e3ba8-3a55-4cc5-9459-335ad26a44f2","system_id":"levelo_inurba_marseille","lat":43.317557,"lon":5.390173,"is_reserved":false,"is_disabled":false,"rental_uris":{"android":"levelo://app?vid=8b9e3ba8-3a55-4cc5-9459-335ad26a44f2","ios":"levelo://app?vid=8b9e3ba8-3a55-4cc5-9459-335ad26a44f2"},"vehicle_type_id":"4","last_reported":1687394517,"current_range_meters":31200,"station_id":"ce4bhqp2rcd13ifvqhng","pricing_plan_id":"free"},{"bike_id":"08825aa8-51a8-4d96-94bf-a64b9ffa0b57","system_id":"levelo_inurba_marseille","lat":43.317557,"lon":5.390173,"is_reserved":false,"is_disabled":false,"rental_uris":{"android":"levelo://app?vid=08825aa8-51a8-4d96-94bf-a64b9ffa0b57","ios":"levelo://app?vid=08825aa8-51a8-4d96-94bf-a64b9ffa0b57"},"vehicle_type_id":"4","last_reported":1687394517,"current_range_meters":26000,"station_id":"ce4bhqp2rcd13ifvqhng","pricing_plan_id":"free"},{"bike_id":"d72ba159-0834-498e-8761-b6706d8ba39b","system_id":"levelo_inurba_marseille","lat":43.317557,"lon":5.390173,"is_reserved":false,"is_disabled":false,"rental_uris":{"android":"levelo://app?vid=d72ba159-0834-498e-8761-b6706d8ba39b","ios":"levelo://app?vid=d72ba159-0834-498e-8761-b6706d8ba39b"},"vehicle_type_id":"4","last_reported":1687394517,"current_range_meters":16400,"station_id":"ce4bhqp2rcd13ifvqhng","pricing_plan_id":"free"},{"bike_id":"eb85464a-54c3-4a53-adf1-a25fe08d7c08","system_id":"levelo_inurba_marseille","lat":43.317557,"lon":5.390173,"is_reserved":false,"is_disabled":false,"rental_uris":{"android":"levelo://app?vid=eb85464a-54c3-4a53-adf1-a25fe08d7c08","ios":"levelo://app?vid=eb85464a-54c3-4a53-adf1-a25fe08d7c08"},"vehicle_type_id":"4","last_reported":1687394517,"current_range_meters":28000,"station_id":"ce4bhqp2rcd13ifvqhng","pricing_plan_id":"free"},{"bike_id":"246d16ee-9ea5-4dcb-9f30-988ab272e4f0","system_id":"levelo_inurba_marseille","lat":43.317557,"lon":5.390173,"is_reserved":false,"is_disabled":false,"rental_uris":{"android":"levelo://app?vid=246d16ee-9ea5-4dcb-9f30-988ab272e4f0","ios":"levelo://app?vid=246d16ee-9ea5-4dcb-9f30-988ab272e4f0"},"vehicle_type_id":"4","last_reported":1687394517,"current_range_meters":18400,"station_id":"ce4bhqp2rcd13ifvqhng","pricing_plan_id":"free"},{"bike_id":"a80b1fe8-e794-455a-bfa3-88c346d6f12d","system_id":"levelo_inurba_marseille","lat":43.29714,"lon":5.38122,"is_reserved":false,"is_disabled":false,"rental_uris":{"android":"levelo://app?vid=a80b1fe8-e794-455a-bfa3-88c346d6f12d","ios":"levelo://app?vid=a80b1fe8-e794-455a-bfa3-88c346d6f12d"},"vehicle_type_id":"4","last_reported":1687394517,"current_range_meters":14800,"station_id":"","pricing_plan_id":"free"},{"bike_id":"7ae0a70b-b34b-4619-b999-d91fc3badad9","system_id":"levelo_inurba_marseille","lat":43.32367,"lon":5.388836,"is_reserved":false,"is_disabled":false,"rental_uris":{"android":"levelo://app?vid=7ae0a70b-b34b-4619-b999-d91fc3badad9","ios":"levelo://app?vid=7ae0a70b-b34b-4619-b999-d91fc3badad9"},"vehicle_type_id":"4","last_reported":1687394517,"current_range_meters":21600,"station_id":"ce4bhqp2rcd13ifvqhog","pricing_plan_id":"free"},{"bike_id":"07e16fb3-d2a9-448f-a2bf-2b98a5617d56","system_id":"levelo_inurba_marseille","lat":43.32367,"lon":5.388836,"is_reserved":false,"is_disabled":false,"rental_uris":{"android":"levelo://app?vid=07e16fb3-d2a9-448f-a2bf-2b98a5617d56","ios":"levelo://app?vid=07e16fb3-d2a9-448f-a2bf-2b98a5617d56"},"vehicle_type_id":"4","last_reported":1687394517,"current_range_meters":19200,"station_id":"ce4bhqp2rcd13ifvqhog","pricing_plan_id":"free"},{"bike_id":"62e1e21f-3f88-43a4-83a5-bbb9f2a86bae","system_id":"levelo_inurba_marseille","lat":43.32367,"lon":5.388836,"is_reserved":false,"is_disabled":false,"rental_uris":{"android":"levelo://app?vid=62e1e21f-3f88-43a4-83a5-bbb9f2a86bae","ios":"levelo://app?vid=62e1e21f-3f88-43a4-83a5-bbb9f2a86bae"},"vehicle_type_id":"4","last_reported":1687394517,"current_range_meters":18400,"station_id":"ce4bhqp2rcd13ifvqhog","pricing_plan_id":"free"},{"bike_id":"12e839fe-f4b1-4c97-bd57-48a3271498ba","system_id":"levelo_inurba_marseille","lat":43.32367,"lon":5.388836,"is_reserved":false,"is_disabled":false,"rental_uris":{"android":"levelo://app?vid=12e839fe-f4b1-4c97-bd57-48a3271498ba","ios":"levelo://app?vid=12e839fe-f4b1-4c97-bd57-48a3271498ba"},"vehicle_type_id":"4","last_reported":1687394517,"current_range_meters":8400,"station_id":"ce4bhqp2rcd13ifvqhog","pricing_plan_id":"free"},{"bike_id":"2416699f-f4ca-4fd7-861f-2eb65620cbe4","system_id":"levelo_inurba_marseille","lat":43.32367,"lon":5.388836,"is_reserved":false,"is_disabled":false,"rental_uris":{"android":"levelo://app?vid=2416699f-f4ca-4fd7-861f-2eb65620cbe4","ios":"levelo://app?vid=2416699f-f4ca-4fd7-861f-2eb65620cbe4"},"vehicle_type_id":"4","last_reported":1687394517,"current_range_meters":21600,"station_id":"ce4bhqp2rcd13ifvqhog","pricing_plan_id":"free"},{"bike_id":"e9a5f79a-69b5-4c7c-81b9-81e43f3bff7b","system_id":"levelo_inurba_marseille","lat":43.32367,"lon":5.388836,"is_reserved":false,"is_disabled":false,"rental_uris":{"android":"levelo://app?vid=e9a5f79a-69b5-4c7c-81b9-81e43f3bff7b","ios":"levelo://app?vid=e9a5f79a-69b5-4c7c-81b9-81e43f3bff7b"},"vehicle_type_id":"4","last_reported":1687394517,"current_range_meters":23200,"station_id":"ce4bhqp2rcd13ifvqhog","pricing_plan_id":"free"},{"bike_id":"c09a0564-a6ad-47ee-bc58-22855057ac69","system_id":"levelo_inurba_marseille","lat":43.32367,"lon":5.388836,"is_reserved":false,"is_disabled":false,"rental_uris":{"android":"levelo://app?vid=c09a0564-a6ad-47ee-bc58-22855057ac69","ios":"levelo://app?vid=c09a0564-a6ad-47ee-bc58-22855057ac69"},"vehicle_type_id":"4","last_reported":1687394517,"current_range_meters":5600,"station_id":"ce4bhqp2rcd13ifvqhog","pricing_plan_id":"free"},{"bike_id":"e041460a-54ae-4871-ad9f-b6135e0ef88f","system_id":"levelo_inurba_marseille","lat":43.32367,"lon":5.388836,"is_reserved":false,"is_disabled":false,"rental_uris":{"android":"levelo://app?vid=e041460a-54ae-4871-ad9f-b6135e0ef88f","ios":"levelo://app?vid=e041460a-54ae-4871-ad9f-b6135e0ef88f"},"vehicle_type_id":"4","last_reported":1687394517,"current_range_meters":31200,"station_id":"ce4bhqp2rcd13ifvqhog","pricing_plan_id":"free"},{"bike_id":"13367228-245e-4a45-978f-b2d0d4e157c1","system_id":"levelo_inurba_marseille","lat":43.303045,"lon":5.392041,"is_reserved":false,"is_disabled":false,"rental_uris":{"android":"levelo://app?vid=13367228-245e-4a45-978f-b2d0d4e157c1","ios":"levelo://app?vid=13367228-245e-4a45-978f-b2d0d4e157c1"},"vehicle_type_id":"4","last_reported":1687394517,"current_range_meters":31200,"station_id":"ce4bgkh2rcd13ifvqbk0","pricing_plan_id":"free"},{"bike_id":"5ac6c27b-d5a0-4b1e-a92b-18bdae795bd4","system_id":"levelo_inurba_marseille","lat":43.303004,"lon":5.392077,"is_reserved":false,"is_disabled":false,"rental_uris":{"android":"levelo://app?vid=5ac6c27b-d5a0-4b1e-a92b-18bdae795bd4","ios":"levelo://app?vid=5ac6c27b-d5a0-4b1e-a92b-18bdae795bd4"},"vehicle_type_id":"4","last_reported":1687394517,"current_range_meters":31200,"station_id":"ce4bgkh2rcd13ifvqbk0","pricing_plan_id":"free"},{"bike_id":"1f52b085-2ab8-48f5-914b-f040a801b63f","system_id":"levelo_inurba_marseille","lat":43.303009,"lon":5.39209,"is_reserved":false,"is_disabled":false,"rental_uris":{"android":"levelo://app?vid=1f52b085-2ab8-48f5-914b-f040a801b63f","ios":"levelo://app?vid=1f52b085-2ab8-48f5-914b-f040a801b63f"},"vehicle_type_id":"4","last_reported":1687394517,"current_range_meters":31200,"station_id":"ce4bgkh2rcd13ifvqbk0","pricing_plan_id":"free"},{"bike_id":"66b480a6-9947-4496-98e2-93e61a3244b4","system_id":"levelo_inurba_marseille","lat":43.30385,"lon":5.39314,"is_reserved":false,"is_disabled":false,"rental_uris":{"android":"levelo://app?vid=66b480a6-9947-4496-98e2-93e61a3244b4","ios":"levelo://app?vid=66b480a6-9947-4496-98e2-93e61a3244b4"},"vehicle_type_id":"4","last_reported":1687394517,"current_range_meters":29200,"station_id":"","pricing_plan_id":"free"},{"bike_id":"70199198-7c81-463d-80d0-677bbeb37150","system_id":"levelo_inurba_marseille","lat":43.313291,"lon":5.396838,"is_reserved":false,"is_disabled":false,"rental_uris":{"android":"levelo://app?vid=70199198-7c81-463d-80d0-677bbeb37150","ios":"levelo://app?vid=70199198-7c81-463d-80d0-677bbeb37150"},"vehicle_type_id":"4","last_reported":1687394517,"current_range_meters":16000,"station_id":"ce4bgvp2rcd13ifvqcu0","pricing_plan_id":"free"},{"bike_id":"319e7585-d7f2-4068-bc08-1126e7bfa104","system_id":"levelo_inurba_marseille","lat":43.3089,"lon":5.39639,"is_reserved":false,"is_disabled":false,"rental_uris":{"android":"levelo://app?vid=319e7585-d7f2-4068-bc08-1126e7bfa104","ios":"levelo://app?vid=319e7585-d7f2-4068-bc08-1126e7bfa104"},"vehicle_type_id":"4","last_reported":1687394517,"current_range_meters":15600,"station_id":"","pricing_plan_id":"free"},{"bike_id":"ee2f40a2-d7e9-4cee-a6d9-31fce5a2d9c2","system_id":"levelo_inurba_marseille","lat":43.313291,"lon":5.396838,"is_reserved":false,"is_disabled":false,"rental_uris":{"android":"levelo://app?vid=ee2f40a2-d7e9-4cee-a6d9-31fce5a2d9c2","ios":"levelo://app?vid=ee2f40a2-d7e9-4cee-a6d9-31fce5a2d9c2"},"vehicle_type_id":"4","last_reported":1687394517,"current_range_meters":400,"station_id":"ce4bgvp2rcd13ifvqcu0","pricing_plan_id":"free"},{"bike_id":"56e6a27c-a874-491e-95c2-0c7175032b85","system_id":"levelo_inurba_marseille","lat":43.309038,"lon":5.396546,"is_reserved":false,"is_disabled":false,"rental_uris":{"android":"levelo://app?vid=56e6a27c-a874-491e-95c2-0c7175032b85","ios":"levelo://app?vid=56e6a27c-a874-491e-95c2-0c7175032b85"},"vehicle_type_id":"4","last_reported":1687394517,"current_range_meters":24400,"station_id":"ce4bh012rcd13ifvqcv0","pricing_plan_id":"free"},{"bike_id":"2bde102f-1080-44e5-9357-24e7cff9ce69","system_id":"levelo_inurba_marseille","lat":43.313291,"lon":5.396838,"is_reserved":false,"is_disabled":false,"rental_uris":{"android":"levelo://app?vid=2bde102f-1080-44e5-9357-24e7cff9ce69","ios":"levelo://app?vid=2bde102f-1080-44e5-9357-24e7cff9ce69"},"vehicle_type_id":"4","last_reported":1687394517,"current_range_meters":21600,"station_id":"ce4bgvp2rcd13ifvqcu0","pricing_plan_id":"free"},{"bike_id":"75682234-1163-401a-bb22-8791d08c523c","system_id":"levelo_inurba_marseille","lat":43.313291,"lon":5.396838,"is_reserved":false,"is_disabled":false,"rental_uris":{"android":"levelo://app?vid=75682234-1163-401a-bb22-8791d08c523c","ios":"levelo://app?vid=75682234-1163-401a-bb22-8791d08c523c"},"vehicle_type_id":"4","last_reported":1687394517,"current_range_meters":0,"station_id":"ce4bgvp2rcd13ifvqcu0","pricing_plan_id":"free"},{"bike_id":"4d9cad11-cebf-4007-813a-5e1459831021","system_id":"levelo_inurba_marseille","lat":43.313291,"lon":5.396838,"is_reserved":false,"is_disabled":false,"rental_uris":{"android":"levelo://app?vid=4d9cad11-cebf-4007-813a-5e1459831021","ios":"levelo://app?vid=4d9cad11-cebf-4007-813a-5e1459831021"},"vehicle_type_id":"4","last_reported":1687394517,"current_range_meters":18800,"station_id":"ce4bgvp2rcd13ifvqcu0","pricing_plan_id":"free"},{"bike_id":"22018e84-a28c-4a9c-a4cd-224d22b85f23","system_id":"levelo_inurba_marseille","lat":43.313291,"lon":5.396838,"is_reserved":false,"is_disabled":false,"rental_uris":{"android":"levelo://app?vid=22018e84-a28c-4a9c-a4cd-224d22b85f23","ios":"levelo://app?vid=22018e84-a28c-4a9c-a4cd-224d22b85f23"},"vehicle_type_id":"4","last_reported":1687394517,"current_range_meters":25600,"station_id":"ce4bgvp2rcd13ifvqcu0","pricing_plan_id":"free"},{"bike_id":"2a0d679a-2997-40cb-ab15-7086b8e11f5f","system_id":"levelo_inurba_marseille","lat":43.309038,"lon":5.396546,"is_reserved":false,"is_disabled":false,"rental_uris":{"android":"levelo://app?vid=2a0d679a-2997-40cb-ab15-7086b8e11f5f","ios":"levelo://app?vid=2a0d679a-2997-40cb-ab15-7086b8e11f5f"},"vehicle_type_id":"4","last_reported":1687394517,"current_range_meters":8400,"station_id":"ce4bh012rcd13ifvqcv0","pricing_plan_id":"free"},{"bike_id":"dcad718b-bdfb-467f-a3ba-b0d03762532f","system_id":"levelo_inurba_marseille","lat":43.309038,"lon":5.396546,"is_reserved":false,"is_disabled":false,"rental_uris":{"android":"levelo://app?vid=dcad718b-bdfb-467f-a3ba-b0d03762532f","ios":"levelo://app?vid=dcad718b-bdfb-467f-a3ba-b0d03762532f"},"vehicle_type_id":"4","last_reported":1687394517,"current_range_meters":21200,"station_id":"ce4bh012rcd13ifvqcv0","pricing_plan_id":"free"},{"bike_id":"0fe7d42f-35ad-4023-8853-77c0cd9df44d","system_id":"levelo_inurba_marseille","lat":43.309038,"lon":5.396546,"is_reserved":false,"is_disabled":false,"rental_uris":{"android":"levelo://app?vid=0fe7d42f-35ad-4023-8853-77c0cd9df44d","ios":"levelo://app?vid=0fe7d42f-35ad-4023-8853-77c0cd9df44d"},"vehicle_type_id":"4","last_reported":1687394517,"current_range_meters":10400,"station_id":"ce4bh012rcd13ifvqcv0","pricing_plan_id":"free"},{"bike_id":"44a3d3a5-99b5-4c95-a33e-4e52e00b990c","system_id":"levelo_inurba_marseille","lat":43.309038,"lon":5.396546,"is_reserved":false,"is_disabled":false,"rental_uris":{"android":"levelo://app?vid=44a3d3a5-99b5-4c95-a33e-4e52e00b990c","ios":"levelo://app?vid=44a3d3a5-99b5-4c95-a33e-4e52e00b990c"},"vehicle_type_id":"4","last_reported":1687394517,"current_range_meters":0,"station_id":"ce4bh012rcd13ifvqcv0","pricing_plan_id":"free"},{"bike_id":"068fc60f-4716-4cd0-afc2-556cc1723478","system_id":"levelo_inurba_marseille","lat":43.309038,"lon":5.396546,"is_reserved":false,"is_disabled":false,"rental_uris":{"android":"levelo://app?vid=068fc60f-4716-4cd0-afc2-556cc1723478","ios":"levelo://app?vid=068fc60f-4716-4cd0-afc2-556cc1723478"},"vehicle_type_id":"4","last_reported":1687394517,"current_range_meters":0,"station_id":"ce4bh012rcd13ifvqcv0","pricing_plan_id":"free"},{"bike_id":"d62c593e-9083-42d7-a285-da5123f976ce","system_id":"levelo_inurba_marseille","lat":43.309038,"lon":5.396546,"is_reserved":false,"is_disabled":false,"rental_uris":{"android":"levelo://app?vid=d62c593e-9083-42d7-a285-da5123f976ce","ios":"levelo://app?vid=d62c593e-9083-42d7-a285-da5123f976ce"},"vehicle_type_id":"4","last_reported":1687394517,"current_range_meters":12400,"station_id":"ce4bh012rcd13ifvqcv0","pricing_plan_id":"free"},{"bike_id":"61423b03-79b7-4c09-b186-4390c87673c9","system_id":"levelo_inurba_marseille","lat":43.3088,"lon":5.39654,"is_reserved":false,"is_disabled":false,"rental_uris":{"android":"levelo://app?vid=61423b03-79b7-4c09-b186-4390c87673c9","ios":"levelo://app?vid=61423b03-79b7-4c09-b186-4390c87673c9"},"vehicle_type_id":"4","last_reported":1687394517,"current_range_meters":22400,"station_id":"","pricing_plan_id":"free"},{"bike_id":"1842f4d5-a465-4c02-9901-329ad8433b18","system_id":"levelo_inurba_marseille","lat":43.309038,"lon":5.396546,"is_reserved":false,"is_disabled":false,"rental_uris":{"android":"levelo://app?vid=1842f4d5-a465-4c02-9901-329ad8433b18","ios":"levelo://app?vid=1842f4d5-a465-4c02-9901-329ad8433b18"},"vehicle_type_id":"4","last_reported":1687394517,"current_range_meters":28800,"station_id":"ce4bh012rcd13ifvqcv0","pricing_plan_id":"free"},{"bike_id":"28a68d3d-bb5d-4564-946b-21f40b529190","system_id":"levelo_inurba_marseille","lat":43.309038,"lon":5.396546,"is_reserved":false,"is_disabled":false,"rental_uris":{"android":"levelo://app?vid=28a68d3d-bb5d-4564-946b-21f40b529190","ios":"levelo://app?vid=28a68d3d-bb5d-4564-946b-21f40b529190"},"vehicle_type_id":"4","last_reported":1687394517,"current_range_meters":13600,"station_id":"ce4bh012rcd13ifvqcv0","pricing_plan_id":"free"},{"bike_id":"e7c16652-f03a-4248-80d9-002ae53e531a","system_id":"levelo_inurba_marseille","lat":43.30881,"lon":5.39659,"is_reserved":false,"is_disabled":false,"rental_uris":{"android":"levelo://app?vid=e7c16652-f03a-4248-80d9-002ae53e531a","ios":"levelo://app?vid=e7c16652-f03a-4248-80d9-002ae53e531a"},"vehicle_type_id":"4","last_reported":1687394517,"current_range_meters":16800,"station_id":"ce4bh012rcd13ifvqcv0","pricing_plan_id":"free"},{"bike_id":"ff1f164a-4f31-406d-89c6-d615ce910843","system_id":"levelo_inurba_marseille","lat":43.309038,"lon":5.396546,"is_reserved":false,"is_disabled":false,"rental_uris":{"android":"levelo://app?vid=ff1f164a-4f31-406d-89c6-d615ce910843","ios":"levelo://app?vid=ff1f164a-4f31-406d-89c6-d615ce910843"},"vehicle_type_id":"4","last_reported":1687394517,"current_range_meters":21200,"station_id":"ce4bh012rcd13ifvqcv0","pricing_plan_id":"free"},{"bike_id":"44629033-ae62-42bf-8a6d-331dda9953e7","system_id":"levelo_inurba_marseille","lat":43.290624,"lon":5.359245,"is_reserved":false,"is_disabled":false,"rental_uris":{"android":"levelo://app?vid=44629033-ae62-42bf-8a6d-331dda9953e7","ios":"levelo://app?vid=44629033-ae62-42bf-8a6d-331dda9953e7"},"vehicle_type_id":"4","last_reported":1687394517,"current_range_meters":4800,"station_id":"ce4bha92rcd13ifvqeg0","pricing_plan_id":"free"},{"bike_id":"8b5cbe52-fb9c-4495-95ac-dc7153af0e50","system_id":"levelo_inurba_marseille","lat":43.290631,"lon":5.359244,"is_reserved":false,"is_disabled":false,"rental_uris":{"android":"levelo://app?vid=8b5cbe52-fb9c-4495-95ac-dc7153af0e50","ios":"levelo://app?vid=8b5cbe52-fb9c-4495-95ac-dc7153af0e50"},"vehicle_type_id":"4","last_reported":1687394517,"current_range_meters":31200,"station_id":"ce4bha92rcd13ifvqeg0","pricing_plan_id":"free"},{"bike_id":"172169e9-a2c9-4f57-8c23-1675d36b25df","system_id":"levelo_inurba_marseille","lat":43.290624,"lon":5.359245,"is_reserved":false,"is_disabled":false,"rental_uris":{"android":"levelo://app?vid=172169e9-a2c9-4f57-8c23-1675d36b25df","ios":"levelo://app?vid=172169e9-a2c9-4f57-8c23-1675d36b25df"},"vehicle_type_id":"4","last_reported":1687394517,"current_range_meters":9600,"station_id":"ce4bha92rcd13ifvqeg0","pricing_plan_id":"free"},{"bike_id":"baece03d-8739-4749-bce0-2e3c2f987d79","system_id":"levelo_inurba_marseille","lat":43.294153,"lon":5.386305,"is_reserved":false,"is_disabled":false,"rental_uris":{"android":"levelo://app?vid=baece03d-8739-4749-bce0-2e3c2f987d79","ios":"levelo://app?vid=baece03d-8739-4749-bce0-2e3c2f987d79"},"vehicle_type_id":"4","last_reported":1687394517,"current_range_meters":30400,"station_id":"ce4bh2h2rcd13ifvqdh0","pricing_plan_id":"free"},{"bike_id":"0609f09b-61e5-40d1-a057-3a5b9409ddd1","system_id":"levelo_inurba_marseille","lat":43.294162,"lon":5.386292,"is_reserved":false,"is_disabled":false,"rental_uris":{"android":"levelo://app?vid=0609f09b-61e5-40d1-a057-3a5b9409ddd1","ios":"levelo://app?vid=0609f09b-61e5-40d1-a057-3a5b9409ddd1"},"vehicle_type_id":"4","last_reported":1687394517,"current_range_meters":29600,"station_id":"ce4bh2h2rcd13ifvqdh0","pricing_plan_id":"free"},{"bike_id":"acd8e058-6bab-404b-83e9-ec9278ead2e6","system_id":"levelo_inurba_marseille","lat":43.304296,"lon":5.397513,"is_reserved":false,"is_disabled":false,"rental_uris":{"android":"levelo://app?vid=acd8e058-6bab-404b-83e9-ec9278ead2e6","ios":"levelo://app?vid=acd8e058-6bab-404b-83e9-ec9278ead2e6"},"vehicle_type_id":"4","last_reported":1687394517,"current_range_meters":4000,"station_id":"ce4bh092rcd13ifvqd20","pricing_plan_id":"free"},{"bike_id":"38eb09af-7166-42b9-865e-84246929498f","system_id":"levelo_inurba_marseille","lat":43.292644,"lon":5.384257,"is_reserved":false,"is_disabled":false,"rental_uris":{"android":"levelo://app?vid=38eb09af-7166-42b9-865e-84246929498f","ios":"levelo://app?vid=38eb09af-7166-42b9-865e-84246929498f"},"vehicle_type_id":"4","last_reported":1687394517,"current_range_meters":31200,"station_id":"ce4bh692rcd13ifvqea0","pricing_plan_id":"free"},{"bike_id":"54f73f1d-38da-4ec9-aef9-10e2570c0881","system_id":"levelo_inurba_marseille","lat":43.3304,"lon":5.38917,"is_reserved":false,"is_disabled":false,"rental_uris":{"android":"levelo://app?vid=54f73f1d-38da-4ec9-aef9-10e2570c0881","ios":"levelo://app?vid=54f73f1d-38da-4ec9-aef9-10e2570c0881"},"vehicle_type_id":"4","last_reported":1687394517,"current_range_meters":22000,"station_id":"ce4bhr92rcd13ifvqhrg","pricing_plan_id":"free"},{"bike_id":"e1a45b0a-bebd-4c51-9017-f46b52c8e6b7","system_id":"levelo_inurba_marseille","lat":43.33042,"lon":5.38918,"is_reserved":false,"is_disabled":false,"rental_uris":{"android":"levelo://app?vid=e1a45b0a-bebd-4c51-9017-f46b52c8e6b7","ios":"levelo://app?vid=e1a45b0a-bebd-4c51-9017-f46b52c8e6b7"},"vehicle_type_id":"4","last_reported":1687394517,"current_range_meters":31200,"station_id":"ce4bhr92rcd13ifvqhrg","pricing_plan_id":"free"},{"bike_id":"18846a49-d402-46be-a78e-dde2aafef56d","system_id":"levelo_inurba_marseille","lat":43.33043,"lon":5.38917,"is_reserved":false,"is_disabled":false,"rental_uris":{"android":"levelo://app?vid=18846a49-d402-46be-a78e-dde2aafef56d","ios":"levelo://app?vid=18846a49-d402-46be-a78e-dde2aafef56d"},"vehicle_type_id":"4","last_reported":1687394517,"current_range_meters":17200,"station_id":"ce4bhr92rcd13ifvqhrg","pricing_plan_id":"free"},{"bike_id":"d622477d-12f6-4091-b8c6-5c8761bfd3d1","system_id":"levelo_inurba_marseille","lat":43.33041,"lon":5.38921,"is_reserved":false,"is_disabled":false,"rental_uris":{"android":"levelo://app?vid=d622477d-12f6-4091-b8c6-5c8761bfd3d1","ios":"levelo://app?vid=d622477d-12f6-4091-b8c6-5c8761bfd3d1"},"vehicle_type_id":"4","last_reported":1687394517,"current_range_meters":29200,"station_id":"ce4bhr92rcd13ifvqhrg","pricing_plan_id":"free"},{"bike_id":"59d125af-16ef-419c-b0b1-36a03e1202e7","system_id":"levelo_inurba_marseille","lat":43.33047,"lon":5.38912,"is_reserved":false,"is_disabled":false,"rental_uris":{"android":"levelo://app?vid=59d125af-16ef-419c-b0b1-36a03e1202e7","ios":"levelo://app?vid=59d125af-16ef-419c-b0b1-36a03e1202e7"},"vehicle_type_id":"4","last_reported":1687394517,"current_range_meters":28800,"station_id":"ce4bhr92rcd13ifvqhrg","pricing_plan_id":"free"},{"bike_id":"11c3ae0c-a5ad-4f08-bf43-0be240cadcb8","system_id":"levelo_inurba_marseille","lat":43.3304,"lon":5.38924,"is_reserved":false,"is_disabled":false,"rental_uris":{"android":"levelo://app?vid=11c3ae0c-a5ad-4f08-bf43-0be240cadcb8","ios":"levelo://app?vid=11c3ae0c-a5ad-4f08-bf43-0be240cadcb8"},"vehicle_type_id":"4","last_reported":1687394517,"current_range_meters":31200,"station_id":"ce4bhr92rcd13ifvqhrg","pricing_plan_id":"free"},{"bike_id":"64d533f9-d91b-46e3-b745-e7bd18ed4968","system_id":"levelo_inurba_marseille","lat":43.33043,"lon":5.3892,"is_reserved":false,"is_disabled":false,"rental_uris":{"android":"levelo://app?vid=64d533f9-d91b-46e3-b745-e7bd18ed4968","ios":"levelo://app?vid=64d533f9-d91b-46e3-b745-e7bd18ed4968"},"vehicle_type_id":"4","last_reported":1687394517,"current_range_meters":25600,"station_id":"ce4bhr92rcd13ifvqhrg","pricing_plan_id":"free"},{"bike_id":"82d6893e-eccb-4c72-a658-fa65b60e4f4a","system_id":"levelo_inurba_marseille","lat":43.33044,"lon":5.38921,"is_reserved":false,"is_disabled":false,"rental_uris":{"android":"levelo://app?vid=82d6893e-eccb-4c72-a658-fa65b60e4f4a","ios":"levelo://app?vid=82d6893e-eccb-4c72-a658-fa65b60e4f4a"},"vehicle_type_id":"4","last_reported":1687394517,"current_range_meters":30800,"station_id":"ce4bhr92rcd13ifvqhrg","pricing_plan_id":"free"},{"bike_id":"a05017bd-8dca-4b74-b233-685d6fab0ea2","system_id":"levelo_inurba_marseille","lat":43.33042,"lon":5.38924,"is_reserved":false,"is_disabled":false,"rental_uris":{"android":"levelo://app?vid=a05017bd-8dca-4b74-b233-685d6fab0ea2","ios":"levelo://app?vid=a05017bd-8dca-4b74-b233-685d6fab0ea2"},"vehicle_type_id":"4","last_reported":1687394517,"current_range_meters":31200,"station_id":"ce4bhr92rcd13ifvqhrg","pricing_plan_id":"free"},{"bike_id":"e30df84c-fcd4-405d-aca5-9af49ff5046e","system_id":"levelo_inurba_marseille","lat":43.30469,"lon":5.39802,"is_reserved":false,"is_disabled":false,"rental_uris":{"android":"levelo://app?vid=e30df84c-fcd4-405d-aca5-9af49ff5046e","ios":"levelo://app?vid=e30df84c-fcd4-405d-aca5-9af49ff5046e"},"vehicle_type_id":"4","last_reported":1687394517,"current_range_meters":16400,"station_id":"","pricing_plan_id":"free"},{"bike_id":"1371a3dd-3951-452b-9103-e8560e64052b","system_id":"levelo_inurba_marseille","lat":43.290104,"lon":5.356111,"is_reserved":false,"is_disabled":false,"rental_uris":{"android":"levelo://app?vid=1371a3dd-3951-452b-9103-e8560e64052b","ios":"levelo://app?vid=1371a3dd-3951-452b-9103-e8560e64052b"},"vehicle_type_id":"4","last_reported":1687394517,"current_range_meters":24400,"station_id":"ce4bhb92rcd13ifvqen0","pricing_plan_id":"free"},{"bike_id":"d1a55172-4f60-4d48-a4ba-b2b4b2101a30","system_id":"levelo_inurba_marseille","lat":43.289741,"lon":5.378306,"is_reserved":false,"is_disabled":false,"rental_uris":{"android":"levelo://app?vid=d1a55172-4f60-4d48-a4ba-b2b4b2101a30","ios":"levelo://app?vid=d1a55172-4f60-4d48-a4ba-b2b4b2101a30"},"vehicle_type_id":"4","last_reported":1687394517,"current_range_meters":0,"station_id":"ce4bh9p2rcd13ifvqed0","pricing_plan_id":"free"},{"bike_id":"3c403a6f-bf54-4b88-badb-fc10739d6ccd","system_id":"levelo_inurba_marseille","lat":43.28856,"lon":5.358371,"is_reserved":false,"is_disabled":false,"rental_uris":{"android":"levelo://app?vid=3c403a6f-bf54-4b88-badb-fc10739d6ccd","ios":"levelo://app?vid=3c403a6f-bf54-4b88-badb-fc10739d6ccd"},"vehicle_type_id":"4","last_reported":1687394517,"current_range_meters":31200,"station_id":"ce4bhb12rcd13ifvqem0","pricing_plan_id":"free"},{"bike_id":"920782a2-8a9d-4d1c-af2c-1049d257077f","system_id":"levelo_inurba_marseille","lat":43.28856,"lon":5.358371,"is_reserved":false,"is_disabled":false,"rental_uris":{"android":"levelo://app?vid=920782a2-8a9d-4d1c-af2c-1049d257077f","ios":"levelo://app?vid=920782a2-8a9d-4d1c-af2c-1049d257077f"},"vehicle_type_id":"4","last_reported":1687394517,"current_range_meters":13200,"station_id":"ce4bhb12rcd13ifvqem0","pricing_plan_id":"free"},{"bike_id":"b202817a-6635-4cc3-bc8b-f696dd9db6e5","system_id":"levelo_inurba_marseille","lat":43.28856,"lon":5.358371,"is_reserved":false,"is_disabled":false,"rental_uris":{"android":"levelo://app?vid=b202817a-6635-4cc3-bc8b-f696dd9db6e5","ios":"levelo://app?vid=b202817a-6635-4cc3-bc8b-f696dd9db6e5"},"vehicle_type_id":"4","last_reported":1687394517,"current_range_meters":26800,"station_id":"ce4bhb12rcd13ifvqem0","pricing_plan_id":"free"},{"bike_id":"cad6e485-a96a-40ad-a983-d3fce52c6448","system_id":"levelo_inurba_marseille","lat":43.28856,"lon":5.358371,"is_reserved":false,"is_disabled":false,"rental_uris":{"android":"levelo://app?vid=cad6e485-a96a-40ad-a983-d3fce52c6448","ios":"levelo://app?vid=cad6e485-a96a-40ad-a983-d3fce52c6448"},"vehicle_type_id":"4","last_reported":1687394517,"current_range_meters":9600,"station_id":"ce4bhb12rcd13ifvqem0","pricing_plan_id":"free"},{"bike_id":"35b16c01-92db-4959-803d-e9ddea57f09c","system_id":"levelo_inurba_marseille","lat":43.309371,"lon":5.401449,"is_reserved":false,"is_disabled":false,"rental_uris":{"android":"levelo://app?vid=35b16c01-92db-4959-803d-e9ddea57f09c","ios":"levelo://app?vid=35b16c01-92db-4959-803d-e9ddea57f09c"},"vehicle_type_id":"4","last_reported":1687394517,"current_range_meters":26400,"station_id":"ce4bgvp2rcd13ifvqct0","pricing_plan_id":"free"},{"bike_id":"3f8a925a-6a54-4259-a38f-9cf091aab246","system_id":"levelo_inurba_marseille","lat":43.29267,"lon":5.38737,"is_reserved":false,"is_disabled":false,"rental_uris":{"android":"levelo://app?vid=3f8a925a-6a54-4259-a38f-9cf091aab246","ios":"levelo://app?vid=3f8a925a-6a54-4259-a38f-9cf091aab246"},"vehicle_type_id":"4","last_reported":1687394517,"current_range_meters":31200,"station_id":"","pricing_plan_id":"free"},{"bike_id":"6350a039-c52a-4b63-a9c6-8c61ca35643d","system_id":"levelo_inurba_marseille","lat":43.309371,"lon":5.401449,"is_reserved":false,"is_disabled":false,"rental_uris":{"android":"levelo://app?vid=6350a039-c52a-4b63-a9c6-8c61ca35643d","ios":"levelo://app?vid=6350a039-c52a-4b63-a9c6-8c61ca35643d"},"vehicle_type_id":"4","last_reported":1687394517,"current_range_meters":0,"station_id":"ce4bgvp2rcd13ifvqct0","pricing_plan_id":"free"},{"bike_id":"c0b5c531-01eb-4a81-902c-38e78a88b616","system_id":"levelo_inurba_marseille","lat":43.309371,"lon":5.401449,"is_reserved":false,"is_disabled":false,"rental_uris":{"android":"levelo://app?vid=c0b5c531-01eb-4a81-902c-38e78a88b616","ios":"levelo://app?vid=c0b5c531-01eb-4a81-902c-38e78a88b616"},"vehicle_type_id":"4","last_reported":1687394517,"current_range_meters":16000,"station_id":"ce4bgvp2rcd13ifvqct0","pricing_plan_id":"free"},{"bike_id":"4ce319b0-1674-4a91-b6fb-dc57a87aebe0","system_id":"levelo_inurba_marseille","lat":43.309371,"lon":5.401449,"is_reserved":false,"is_disabled":false,"rental_uris":{"android":"levelo://app?vid=4ce319b0-1674-4a91-b6fb-dc57a87aebe0","ios":"levelo://app?vid=4ce319b0-1674-4a91-b6fb-dc57a87aebe0"},"vehicle_type_id":"4","last_reported":1687394517,"current_range_meters":13200,"station_id":"ce4bgvp2rcd13ifvqct0","pricing_plan_id":"free"},{"bike_id":"b456f868-0f03-4dc5-a873-699cb7b3a704","system_id":"levelo_inurba_marseille","lat":43.309371,"lon":5.401449,"is_reserved":false,"is_disabled":false,"rental_uris":{"android":"levelo://app?vid=b456f868-0f03-4dc5-a873-699cb7b3a704","ios":"levelo://app?vid=b456f868-0f03-4dc5-a873-699cb7b3a704"},"vehicle_type_id":"4","last_reported":1687394517,"current_range_meters":24800,"station_id":"ce4bgvp2rcd13ifvqct0","pricing_plan_id":"free"},{"bike_id":"83e2eba1-d37a-4a1c-9a92-02c6b1cd0f51","system_id":"levelo_inurba_marseille","lat":43.309371,"lon":5.401449,"is_reserved":false,"is_disabled":false,"rental_uris":{"android":"levelo://app?vid=83e2eba1-d37a-4a1c-9a92-02c6b1cd0f51","ios":"levelo://app?vid=83e2eba1-d37a-4a1c-9a92-02c6b1cd0f51"},"vehicle_type_id":"4","last_reported":1687394517,"current_range_meters":5600,"station_id":"ce4bgvp2rcd13ifvqct0","pricing_plan_id":"free"},{"bike_id":"a2709f1a-97f1-4a64-a18f-1c6984c1ac15","system_id":"levelo_inurba_marseille","lat":43.30933,"lon":5.40143,"is_reserved":false,"is_disabled":false,"rental_uris":{"android":"levelo://app?vid=a2709f1a-97f1-4a64-a18f-1c6984c1ac15","ios":"levelo://app?vid=a2709f1a-97f1-4a64-a18f-1c6984c1ac15"},"vehicle_type_id":"4","last_reported":1687394517,"current_range_meters":14400,"station_id":"ce4bgvp2rcd13ifvqct0","pricing_plan_id":"free"},{"bike_id":"63acad59-0211-4884-86e3-7f25cff296d6","system_id":"levelo_inurba_marseille","lat":43.30642,"lon":5.40067,"is_reserved":false,"is_disabled":false,"rental_uris":{"android":"levelo://app?vid=63acad59-0211-4884-86e3-7f25cff296d6","ios":"levelo://app?vid=63acad59-0211-4884-86e3-7f25cff296d6"},"vehicle_type_id":"4","last_reported":1687394517,"current_range_meters":16400,"station_id":"ce4bh112rcd13ifvqda0","pricing_plan_id":"free"},{"bike_id":"4e62bedd-b1a7-4ac6-ac2a-788b9430d861","system_id":"levelo_inurba_marseille","lat":43.30644,"lon":5.4007,"is_reserved":false,"is_disabled":false,"rental_uris":{"android":"levelo://app?vid=4e62bedd-b1a7-4ac6-ac2a-788b9430d861","ios":"levelo://app?vid=4e62bedd-b1a7-4ac6-ac2a-788b9430d861"},"vehicle_type_id":"4","last_reported":1687394517,"current_range_meters":20000,"station_id":"ce4bh112rcd13ifvqda0","pricing_plan_id":"free"},{"bike_id":"3d06d833-86af-4433-9cec-8d46901b9604","system_id":"levelo_inurba_marseille","lat":43.30637,"lon":5.40072,"is_reserved":false,"is_disabled":false,"rental_uris":{"android":"levelo://app?vid=3d06d833-86af-4433-9cec-8d46901b9604","ios":"levelo://app?vid=3d06d833-86af-4433-9cec-8d46901b9604"},"vehicle_type_id":"4","last_reported":1687394517,"current_range_meters":24400,"station_id":"ce4bh112rcd13ifvqda0","pricing_plan_id":"free"},{"bike_id":"ea13fcaa-4d20-4289-af71-8f4dbcd98934","system_id":"levelo_inurba_marseille","lat":43.30637,"lon":5.40075,"is_reserved":false,"is_disabled":false,"rental_uris":{"android":"levelo://app?vid=ea13fcaa-4d20-4289-af71-8f4dbcd98934","ios":"levelo://app?vid=ea13fcaa-4d20-4289-af71-8f4dbcd98934"},"vehicle_type_id":"4","last_reported":1687394517,"current_range_meters":21200,"station_id":"","pricing_plan_id":"free"},{"bike_id":"326999b6-8a34-4cf3-ad33-48bc9107cedc","system_id":"levelo_inurba_marseille","lat":43.30645,"lon":5.40078,"is_reserved":false,"is_disabled":false,"rental_uris":{"android":"levelo://app?vid=326999b6-8a34-4cf3-ad33-48bc9107cedc","ios":"levelo://app?vid=326999b6-8a34-4cf3-ad33-48bc9107cedc"},"vehicle_type_id":"4","last_reported":1687394517,"current_range_meters":19200,"station_id":"ce4bh112rcd13ifvqda0","pricing_plan_id":"free"},{"bike_id":"ebeb3295-d13a-43c4-a7fe-c6dda3efcec1","system_id":"levelo_inurba_marseille","lat":43.30645,"lon":5.40079,"is_reserved":false,"is_disabled":false,"rental_uris":{"android":"levelo://app?vid=ebeb3295-d13a-43c4-a7fe-c6dda3efcec1","ios":"levelo://app?vid=ebeb3295-d13a-43c4-a7fe-c6dda3efcec1"},"vehicle_type_id":"4","last_reported":1687394517,"current_range_meters":2800,"station_id":"ce4bh112rcd13ifvqda0","pricing_plan_id":"free"},{"bike_id":"e98fd470-ba5c-4335-83c7-0d48f777407a","system_id":"levelo_inurba_marseille","lat":43.33755,"lon":5.37462,"is_reserved":false,"is_disabled":false,"rental_uris":{"android":"levelo://app?vid=e98fd470-ba5c-4335-83c7-0d48f777407a","ios":"levelo://app?vid=e98fd470-ba5c-4335-83c7-0d48f777407a"},"vehicle_type_id":"4","last_reported":1687394517,"current_range_meters":29200,"station_id":"","pricing_plan_id":"free"},{"bike_id":"b0bd3bcb-bd35-4f75-8285-8f528f09b8d5","system_id":"levelo_inurba_marseille","lat":43.337575,"lon":5.374489,"is_reserved":false,"is_disabled":false,"rental_uris":{"android":"levelo://app?vid=b0bd3bcb-bd35-4f75-8285-8f528f09b8d5","ios":"levelo://app?vid=b0bd3bcb-bd35-4f75-8285-8f528f09b8d5"},"vehicle_type_id":"4","last_reported":1687394517,"current_range_meters":18000,"station_id":"","pricing_plan_id":"free"},{"bike_id":"5d0802c8-0a99-4342-a8cd-f4d15927f7e3","system_id":"levelo_inurba_marseille","lat":43.30646,"lon":5.40081,"is_reserved":false,"is_disabled":false,"rental_uris":{"android":"levelo://app?vid=5d0802c8-0a99-4342-a8cd-f4d15927f7e3","ios":"levelo://app?vid=5d0802c8-0a99-4342-a8cd-f4d15927f7e3"},"vehicle_type_id":"4","last_reported":1687394517,"current_range_meters":24000,"station_id":"ce4bh112rcd13ifvqda0","pricing_plan_id":"free"},{"bike_id":"1ecd2ed8-0046-419c-a081-291c4fbb545f","system_id":"levelo_inurba_marseille","lat":43.30657,"lon":5.40087,"is_reserved":false,"is_disabled":false,"rental_uris":{"android":"levelo://app?vid=1ecd2ed8-0046-419c-a081-291c4fbb545f","ios":"levelo://app?vid=1ecd2ed8-0046-419c-a081-291c4fbb545f"},"vehicle_type_id":"4","last_reported":1687394517,"current_range_meters":13200,"station_id":"ce4bh112rcd13ifvqda0","pricing_plan_id":"free"},{"bike_id":"fce65cf7-d62d-44ed-9325-57119c715b8e","system_id":"levelo_inurba_marseille","lat":43.30638,"lon":5.40087,"is_reserved":false,"is_disabled":false,"rental_uris":{"android":"levelo://app?vid=fce65cf7-d62d-44ed-9325-57119c715b8e","ios":"levelo://app?vid=fce65cf7-d62d-44ed-9325-57119c715b8e"},"vehicle_type_id":"4","last_reported":1687394517,"current_range_meters":12400,"station_id":"ce4bh112rcd13ifvqda0","pricing_plan_id":"free"},{"bike_id":"7a0e3aee-1621-4816-aa5a-a62a4ddfe540","system_id":"levelo_inurba_marseille","lat":43.30634,"lon":5.40088,"is_reserved":false,"is_disabled":false,"rental_uris":{"android":"levelo://app?vid=7a0e3aee-1621-4816-aa5a-a62a4ddfe540","ios":"levelo://app?vid=7a0e3aee-1621-4816-aa5a-a62a4ddfe540"},"vehicle_type_id":"4","last_reported":1687394517,"current_range_meters":400,"station_id":"ce4bh112rcd13ifvqda0","pricing_plan_id":"free"},{"bike_id":"eeea1aeb-e4c0-47cc-a08b-b9f88aa0bda6","system_id":"levelo_inurba_marseille","lat":43.30642,"lon":5.40092,"is_reserved":false,"is_disabled":false,"rental_uris":{"android":"levelo://app?vid=eeea1aeb-e4c0-47cc-a08b-b9f88aa0bda6","ios":"levelo://app?vid=eeea1aeb-e4c0-47cc-a08b-b9f88aa0bda6"},"vehicle_type_id":"4","last_reported":1687394517,"current_range_meters":6400,"station_id":"ce4bh112rcd13ifvqda0","pricing_plan_id":"free"},{"bike_id":"c5fd1661-969d-4d75-87aa-347e1777b7fd","system_id":"levelo_inurba_marseille","lat":43.30645,"lon":5.40097,"is_reserved":false,"is_disabled":false,"rental_uris":{"android":"levelo://app?vid=c5fd1661-969d-4d75-87aa-347e1777b7fd","ios":"levelo://app?vid=c5fd1661-969d-4d75-87aa-347e1777b7fd"},"vehicle_type_id":"4","last_reported":1687394517,"current_range_meters":22400,"station_id":"ce4bh112rcd13ifvqda0","pricing_plan_id":"free"},{"bike_id":"81c7c249-6620-4597-8d1b-cc83c4dff009","system_id":"levelo_inurba_marseille","lat":43.30641,"lon":5.40096,"is_reserved":false,"is_disabled":false,"rental_uris":{"android":"levelo://app?vid=81c7c249-6620-4597-8d1b-cc83c4dff009","ios":"levelo://app?vid=81c7c249-6620-4597-8d1b-cc83c4dff009"},"vehicle_type_id":"4","last_reported":1687394517,"current_range_meters":25200,"station_id":"ce4bh112rcd13ifvqda0","pricing_plan_id":"free"},{"bike_id":"2f8bc62c-cebd-40b7-b550-09580e847e5a","system_id":"levelo_inurba_marseille","lat":43.30635,"lon":5.40096,"is_reserved":false,"is_disabled":false,"rental_uris":{"android":"levelo://app?vid=2f8bc62c-cebd-40b7-b550-09580e847e5a","ios":"levelo://app?vid=2f8bc62c-cebd-40b7-b550-09580e847e5a"},"vehicle_type_id":"4","last_reported":1687394517,"current_range_meters":9200,"station_id":"ce4bh112rcd13ifvqda0","pricing_plan_id":"free"},{"bike_id":"ff56b473-ad68-4012-8103-f2c90b584314","system_id":"levelo_inurba_marseille","lat":43.3064,"lon":5.40099,"is_reserved":false,"is_disabled":false,"rental_uris":{"android":"levelo://app?vid=ff56b473-ad68-4012-8103-f2c90b584314","ios":"levelo://app?vid=ff56b473-ad68-4012-8103-f2c90b584314"},"vehicle_type_id":"4","last_reported":1687394517,"current_range_meters":6000,"station_id":"ce4bh112rcd13ifvqda0","pricing_plan_id":"free"},{"bike_id":"f1d9839d-e389-4573-a068-d3918056f537","system_id":"levelo_inurba_marseille","lat":43.30641,"lon":5.40101,"is_reserved":false,"is_disabled":false,"rental_uris":{"android":"levelo://app?vid=f1d9839d-e389-4573-a068-d3918056f537","ios":"levelo://app?vid=f1d9839d-e389-4573-a068-d3918056f537"},"vehicle_type_id":"4","last_reported":1687394517,"current_range_meters":2400,"station_id":"ce4bh112rcd13ifvqda0","pricing_plan_id":"free"},{"bike_id":"960bc347-24ea-490f-93d4-ea52089baa22","system_id":"levelo_inurba_marseille","lat":43.337758,"lon":5.374363,"is_reserved":false,"is_disabled":false,"rental_uris":{"android":"levelo://app?vid=960bc347-24ea-490f-93d4-ea52089baa22","ios":"levelo://app?vid=960bc347-24ea-490f-93d4-ea52089baa22"},"vehicle_type_id":"4","last_reported":1687394517,"current_range_meters":30800,"station_id":"","pricing_plan_id":"free"},{"bike_id":"8428b74e-1d70-4772-b5bd-18e42a565803","system_id":"levelo_inurba_marseille","lat":43.284538,"lon":5.358657,"is_reserved":false,"is_disabled":false,"rental_uris":{"android":"levelo://app?vid=8428b74e-1d70-4772-b5bd-18e42a565803","ios":"levelo://app?vid=8428b74e-1d70-4772-b5bd-18e42a565803"},"vehicle_type_id":"4","last_reported":1687394517,"current_range_meters":24000,"station_id":"ce4bhah2rcd13ifvqei0","pricing_plan_id":"free"},{"bike_id":"5ac9d796-b27a-4447-a4d6-792edb99c64a","system_id":"levelo_inurba_marseille","lat":43.286591,"lon":5.363346,"is_reserved":false,"is_disabled":false,"rental_uris":{"android":"levelo://app?vid=5ac9d796-b27a-4447-a4d6-792edb99c64a","ios":"levelo://app?vid=5ac9d796-b27a-4447-a4d6-792edb99c64a"},"vehicle_type_id":"4","last_reported":1687394517,"current_range_meters":22400,"station_id":"ce4bhah2rcd13ifvqej0","pricing_plan_id":"free"},{"bike_id":"831f7fac-f2ef-44d7-bad0-1ab9e090538f","system_id":"levelo_inurba_marseille","lat":43.286591,"lon":5.363346,"is_reserved":false,"is_disabled":false,"rental_uris":{"android":"levelo://app?vid=831f7fac-f2ef-44d7-bad0-1ab9e090538f","ios":"levelo://app?vid=831f7fac-f2ef-44d7-bad0-1ab9e090538f"},"vehicle_type_id":"4","last_reported":1687394517,"current_range_meters":16000,"station_id":"ce4bhah2rcd13ifvqej0","pricing_plan_id":"free"},{"bike_id":"1ab5336f-fee0-410b-8101-37804a467356","system_id":"levelo_inurba_marseille","lat":43.298681,"lon":5.397225,"is_reserved":false,"is_disabled":false,"rental_uris":{"android":"levelo://app?vid=1ab5336f-fee0-410b-8101-37804a467356","ios":"levelo://app?vid=1ab5336f-fee0-410b-8101-37804a467356"},"vehicle_type_id":"4","last_reported":1687394517,"current_range_meters":18800,"station_id":"ce4bh0h2rcd13ifvqd50","pricing_plan_id":"free"},{"bike_id":"10e07bbb-f609-413c-9c39-9ca0df52c65b","system_id":"levelo_inurba_marseille","lat":43.28662,"lon":5.36348,"is_reserved":false,"is_disabled":false,"rental_uris":{"android":"levelo://app?vid=10e07bbb-f609-413c-9c39-9ca0df52c65b","ios":"levelo://app?vid=10e07bbb-f609-413c-9c39-9ca0df52c65b"},"vehicle_type_id":"4","last_reported":1687394517,"current_range_meters":29600,"station_id":"ce4bhah2rcd13ifvqej0","pricing_plan_id":"free"},{"bike_id":"77acd233-2bc2-4b61-9669-0600a71fb45d","system_id":"levelo_inurba_marseille","lat":43.28661,"lon":5.36349,"is_reserved":false,"is_disabled":false,"rental_uris":{"android":"levelo://app?vid=77acd233-2bc2-4b61-9669-0600a71fb45d","ios":"levelo://app?vid=77acd233-2bc2-4b61-9669-0600a71fb45d"},"vehicle_type_id":"4","last_reported":1687394517,"current_range_meters":31200,"station_id":"ce4bhah2rcd13ifvqej0","pricing_plan_id":"free"},{"bike_id":"92a00377-91da-46aa-bdab-f9e2c4adc712","system_id":"levelo_inurba_marseille","lat":43.28661,"lon":5.36347,"is_reserved":false,"is_disabled":false,"rental_uris":{"android":"levelo://app?vid=92a00377-91da-46aa-bdab-f9e2c4adc712","ios":"levelo://app?vid=92a00377-91da-46aa-bdab-f9e2c4adc712"},"vehicle_type_id":"4","last_reported":1687394517,"current_range_meters":28800,"station_id":"ce4bhah2rcd13ifvqej0","pricing_plan_id":"free"},{"bike_id":"95baba30-79b4-4157-8f44-f30ce2a2f4fb","system_id":"levelo_inurba_marseille","lat":43.28661,"lon":5.36342,"is_reserved":false,"is_disabled":false,"rental_uris":{"android":"levelo://app?vid=95baba30-79b4-4157-8f44-f30ce2a2f4fb","ios":"levelo://app?vid=95baba30-79b4-4157-8f44-f30ce2a2f4fb"},"vehicle_type_id":"4","last_reported":1687394517,"current_range_meters":19200,"station_id":"ce4bhah2rcd13ifvqej0","pricing_plan_id":"free"},{"bike_id":"f7d620f4-c89b-4784-9fad-80449c08b470","system_id":"levelo_inurba_marseille","lat":43.286591,"lon":5.363346,"is_reserved":false,"is_disabled":false,"rental_uris":{"android":"levelo://app?vid=f7d620f4-c89b-4784-9fad-80449c08b470","ios":"levelo://app?vid=f7d620f4-c89b-4784-9fad-80449c08b470"},"vehicle_type_id":"4","last_reported":1687394517,"current_range_meters":30400,"station_id":"ce4bhah2rcd13ifvqej0","pricing_plan_id":"free"},{"bike_id":"b3eb7f47-390d-444b-956e-1f3209a3aa9b","system_id":"levelo_inurba_marseille","lat":43.28659,"lon":5.36359,"is_reserved":false,"is_disabled":false,"rental_uris":{"android":"levelo://app?vid=b3eb7f47-390d-444b-956e-1f3209a3aa9b","ios":"levelo://app?vid=b3eb7f47-390d-444b-956e-1f3209a3aa9b"},"vehicle_type_id":"4","last_reported":1687394517,"current_range_meters":30000,"station_id":"ce4bhah2rcd13ifvqej0","pricing_plan_id":"free"},{"bike_id":"580c2c75-12a9-4a07-8082-36b8e0cab91a","system_id":"levelo_inurba_marseille","lat":43.28655,"lon":5.36348,"is_reserved":false,"is_disabled":false,"rental_uris":{"android":"levelo://app?vid=580c2c75-12a9-4a07-8082-36b8e0cab91a","ios":"levelo://app?vid=580c2c75-12a9-4a07-8082-36b8e0cab91a"},"vehicle_type_id":"4","last_reported":1687394517,"current_range_meters":10000,"station_id":"ce4bhah2rcd13ifvqej0","pricing_plan_id":"free"},{"bike_id":"9cc327e9-bd4c-4198-bc2a-b96dad6a4d6e","system_id":"levelo_inurba_marseille","lat":43.30264,"lon":5.40078,"is_reserved":false,"is_disabled":false,"rental_uris":{"android":"levelo://app?vid=9cc327e9-bd4c-4198-bc2a-b96dad6a4d6e","ios":"levelo://app?vid=9cc327e9-bd4c-4198-bc2a-b96dad6a4d6e"},"vehicle_type_id":"4","last_reported":1687394517,"current_range_meters":8800,"station_id":"ce4bgvh2rcd13ifvqcs0","pricing_plan_id":"free"},{"bike_id":"19e6c8fe-ce69-4c0a-955d-b278bb2fa6f9","system_id":"levelo_inurba_marseille","lat":43.302759,"lon":5.400793,"is_reserved":false,"is_disabled":false,"rental_uris":{"android":"levelo://app?vid=19e6c8fe-ce69-4c0a-955d-b278bb2fa6f9","ios":"levelo://app?vid=19e6c8fe-ce69-4c0a-955d-b278bb2fa6f9"},"vehicle_type_id":"4","last_reported":1687394517,"current_range_meters":1600,"station_id":"ce4bgvh2rcd13ifvqcs0","pricing_plan_id":"free"},{"bike_id":"7862ce5b-f15b-4a27-bc10-8b45c89b530c","system_id":"levelo_inurba_marseille","lat":43.302759,"lon":5.400793,"is_reserved":false,"is_disabled":false,"rental_uris":{"android":"levelo://app?vid=7862ce5b-f15b-4a27-bc10-8b45c89b530c","ios":"levelo://app?vid=7862ce5b-f15b-4a27-bc10-8b45c89b530c"},"vehicle_type_id":"4","last_reported":1687394517,"current_range_meters":10000,"station_id":"ce4bgvh2rcd13ifvqcs0","pricing_plan_id":"free"},{"bike_id":"36dd4a24-89aa-4e84-94aa-2f6f7840b424","system_id":"levelo_inurba_marseille","lat":43.28654,"lon":5.37398,"is_reserved":false,"is_disabled":false,"rental_uris":{"android":"levelo://app?vid=36dd4a24-89aa-4e84-94aa-2f6f7840b424","ios":"levelo://app?vid=36dd4a24-89aa-4e84-94aa-2f6f7840b424"},"vehicle_type_id":"4","last_reported":1687394517,"current_range_meters":11200,"station_id":"","pricing_plan_id":"free"},{"bike_id":"b227c3c8-9f67-4180-9980-27b00f3dd199","system_id":"levelo_inurba_marseille","lat":43.30256,"lon":5.40091,"is_reserved":false,"is_disabled":false,"rental_uris":{"android":"levelo://app?vid=b227c3c8-9f67-4180-9980-27b00f3dd199","ios":"levelo://app?vid=b227c3c8-9f67-4180-9980-27b00f3dd199"},"vehicle_type_id":"4","last_reported":1687394517,"current_range_meters":0,"station_id":"ce4bgvh2rcd13ifvqcs0","pricing_plan_id":"free"},{"bike_id":"a69611a4-4427-48f1-8cf5-68e91a38613f","system_id":"levelo_inurba_marseille","lat":43.286132,"lon":5.370631,"is_reserved":false,"is_disabled":false,"rental_uris":{"android":"levelo://app?vid=a69611a4-4427-48f1-8cf5-68e91a38613f","ios":"levelo://app?vid=a69611a4-4427-48f1-8cf5-68e91a38613f"},"vehicle_type_id":"4","last_reported":1687394517,"current_range_meters":0,"station_id":"ce4bht12rcd13ifvqi60","pricing_plan_id":"free"},{"bike_id":"3ac9d0fe-77fd-4a93-b881-fe38b29f35bc","system_id":"levelo_inurba_marseille","lat":43.316517,"lon":5.404375,"is_reserved":false,"is_disabled":false,"rental_uris":{"android":"levelo://app?vid=3ac9d0fe-77fd-4a93-b881-fe38b29f35bc","ios":"levelo://app?vid=3ac9d0fe-77fd-4a93-b881-fe38b29f35bc"},"vehicle_type_id":"4","last_reported":1687394517,"current_range_meters":14000,"station_id":"ce4bh012rcd13ifvqd00","pricing_plan_id":"free"},{"bike_id":"1831d22d-2b5c-48e5-bdd9-d47bab21c9ff","system_id":"levelo_inurba_marseille","lat":43.316517,"lon":5.404375,"is_reserved":false,"is_disabled":false,"rental_uris":{"android":"levelo://app?vid=1831d22d-2b5c-48e5-bdd9-d47bab21c9ff","ios":"levelo://app?vid=1831d22d-2b5c-48e5-bdd9-d47bab21c9ff"},"vehicle_type_id":"4","last_reported":1687394517,"current_range_meters":16000,"station_id":"ce4bh012rcd13ifvqd00","pricing_plan_id":"free"},{"bike_id":"5c335db7-fb66-4410-865b-b9eb4cc137e2","system_id":"levelo_inurba_marseille","lat":43.29936,"lon":5.40111,"is_reserved":false,"is_disabled":false,"rental_uris":{"android":"levelo://app?vid=5c335db7-fb66-4410-865b-b9eb4cc137e2","ios":"levelo://app?vid=5c335db7-fb66-4410-865b-b9eb4cc137e2"},"vehicle_type_id":"4","last_reported":1687394517,"current_range_meters":4800,"station_id":"","pricing_plan_id":"free"},{"bike_id":"9304520b-2fd7-4a79-897c-961bcf023b33","system_id":"levelo_inurba_marseille","lat":43.284538,"lon":5.358657,"is_reserved":false,"is_disabled":false,"rental_uris":{"android":"levelo://app?vid=9304520b-2fd7-4a79-897c-961bcf023b33","ios":"levelo://app?vid=9304520b-2fd7-4a79-897c-961bcf023b33"},"vehicle_type_id":"4","last_reported":1687394517,"current_range_meters":31200,"station_id":"ce4bhah2rcd13ifvqei0","pricing_plan_id":"free"},{"bike_id":"4376cb64-11c4-46a5-87c0-bbe5b501c44b","system_id":"levelo_inurba_marseille","lat":43.284538,"lon":5.358657,"is_reserved":false,"is_disabled":false,"rental_uris":{"android":"levelo://app?vid=4376cb64-11c4-46a5-87c0-bbe5b501c44b","ios":"levelo://app?vid=4376cb64-11c4-46a5-87c0-bbe5b501c44b"},"vehicle_type_id":"4","last_reported":1687394517,"current_range_meters":25600,"station_id":"ce4bhah2rcd13ifvqei0","pricing_plan_id":"free"},{"bike_id":"261b8077-1a7d-4447-af2a-e6b98b123500","system_id":"levelo_inurba_marseille","lat":43.28466,"lon":5.35896,"is_reserved":false,"is_disabled":false,"rental_uris":{"android":"levelo://app?vid=261b8077-1a7d-4447-af2a-e6b98b123500","ios":"levelo://app?vid=261b8077-1a7d-4447-af2a-e6b98b123500"},"vehicle_type_id":"4","last_reported":1687394517,"current_range_meters":31200,"station_id":"","pricing_plan_id":"free"},{"bike_id":"89afea90-46d1-4477-9203-e5b7463e6163","system_id":"levelo_inurba_marseille","lat":43.28464,"lon":5.35895,"is_reserved":false,"is_disabled":false,"rental_uris":{"android":"levelo://app?vid=89afea90-46d1-4477-9203-e5b7463e6163","ios":"levelo://app?vid=89afea90-46d1-4477-9203-e5b7463e6163"},"vehicle_type_id":"4","last_reported":1687394517,"current_range_meters":18800,"station_id":"ce4bhah2rcd13ifvqei0","pricing_plan_id":"free"},{"bike_id":"4a6f9a44-042e-4d5d-98e7-79dcc12e144b","system_id":"levelo_inurba_marseille","lat":43.284538,"lon":5.358657,"is_reserved":false,"is_disabled":false,"rental_uris":{"android":"levelo://app?vid=4a6f9a44-042e-4d5d-98e7-79dcc12e144b","ios":"levelo://app?vid=4a6f9a44-042e-4d5d-98e7-79dcc12e144b"},"vehicle_type_id":"4","last_reported":1687394517,"current_range_meters":2400,"station_id":"ce4bhah2rcd13ifvqei0","pricing_plan_id":"free"},{"bike_id":"faeaab74-3ed0-4c6c-8b9f-b5295769f3d0","system_id":"levelo_inurba_marseille","lat":43.284538,"lon":5.358657,"is_reserved":false,"is_disabled":false,"rental_uris":{"android":"levelo://app?vid=faeaab74-3ed0-4c6c-8b9f-b5295769f3d0","ios":"levelo://app?vid=faeaab74-3ed0-4c6c-8b9f-b5295769f3d0"},"vehicle_type_id":"4","last_reported":1687394517,"current_range_meters":19600,"station_id":"ce4bhah2rcd13ifvqei0","pricing_plan_id":"free"},{"bike_id":"5dff3f96-450a-4f3e-af1e-375a8a0ea7f6","system_id":"levelo_inurba_marseille","lat":43.28462,"lon":5.35899,"is_reserved":false,"is_disabled":false,"rental_uris":{"android":"levelo://app?vid=5dff3f96-450a-4f3e-af1e-375a8a0ea7f6","ios":"levelo://app?vid=5dff3f96-450a-4f3e-af1e-375a8a0ea7f6"},"vehicle_type_id":"4","last_reported":1687394517,"current_range_meters":31200,"station_id":"","pricing_plan_id":"free"},{"bike_id":"a9108953-558a-493b-a03e-d9eda8cbbe41","system_id":"levelo_inurba_marseille","lat":43.28464,"lon":5.35883,"is_reserved":false,"is_disabled":false,"rental_uris":{"android":"levelo://app?vid=a9108953-558a-493b-a03e-d9eda8cbbe41","ios":"levelo://app?vid=a9108953-558a-493b-a03e-d9eda8cbbe41"},"vehicle_type_id":"4","last_reported":1687394517,"current_range_meters":31200,"station_id":"ce4bhah2rcd13ifvqei0","pricing_plan_id":"free"},{"bike_id":"d91e8a18-d878-4c4d-a65c-a6296d225a7e","system_id":"levelo_inurba_marseille","lat":43.284538,"lon":5.358657,"is_reserved":false,"is_disabled":false,"rental_uris":{"android":"levelo://app?vid=d91e8a18-d878-4c4d-a65c-a6296d225a7e","ios":"levelo://app?vid=d91e8a18-d878-4c4d-a65c-a6296d225a7e"},"vehicle_type_id":"4","last_reported":1687394517,"current_range_meters":12800,"station_id":"ce4bhah2rcd13ifvqei0","pricing_plan_id":"free"},{"bike_id":"c401227d-6db1-41ab-a328-0b6b7676183e","system_id":"levelo_inurba_marseille","lat":43.284538,"lon":5.358657,"is_reserved":false,"is_disabled":false,"rental_uris":{"android":"levelo://app?vid=c401227d-6db1-41ab-a328-0b6b7676183e","ios":"levelo://app?vid=c401227d-6db1-41ab-a328-0b6b7676183e"},"vehicle_type_id":"4","last_reported":1687394517,"current_range_meters":31200,"station_id":"ce4bhah2rcd13ifvqei0","pricing_plan_id":"free"},{"bike_id":"47c384b1-9e91-41c0-b214-8f715b4ff9b9","system_id":"levelo_inurba_marseille","lat":43.284538,"lon":5.358657,"is_reserved":false,"is_disabled":false,"rental_uris":{"android":"levelo://app?vid=47c384b1-9e91-41c0-b214-8f715b4ff9b9","ios":"levelo://app?vid=47c384b1-9e91-41c0-b214-8f715b4ff9b9"},"vehicle_type_id":"4","last_reported":1687394517,"current_range_meters":31200,"station_id":"ce4bhah2rcd13ifvqei0","pricing_plan_id":"free"},{"bike_id":"c90a6c2b-ae11-4332-8c18-771dea9a5e59","system_id":"levelo_inurba_marseille","lat":43.284538,"lon":5.358657,"is_reserved":false,"is_disabled":false,"rental_uris":{"android":"levelo://app?vid=c90a6c2b-ae11-4332-8c18-771dea9a5e59","ios":"levelo://app?vid=c90a6c2b-ae11-4332-8c18-771dea9a5e59"},"vehicle_type_id":"4","last_reported":1687394517,"current_range_meters":31200,"station_id":"ce4bhah2rcd13ifvqei0","pricing_plan_id":"free"},{"bike_id":"d5a02aec-1d42-40e6-ad78-527cece98e1c","system_id":"levelo_inurba_marseille","lat":43.284538,"lon":5.358657,"is_reserved":false,"is_disabled":false,"rental_uris":{"android":"levelo://app?vid=d5a02aec-1d42-40e6-ad78-527cece98e1c","ios":"levelo://app?vid=d5a02aec-1d42-40e6-ad78-527cece98e1c"},"vehicle_type_id":"4","last_reported":1687394517,"current_range_meters":22400,"station_id":"ce4bhah2rcd13ifvqei0","pricing_plan_id":"free"},{"bike_id":"e3474e11-6316-4037-aea9-4d39b83e3c65","system_id":"levelo_inurba_marseille","lat":43.28462,"lon":5.35885,"is_reserved":false,"is_disabled":false,"rental_uris":{"android":"levelo://app?vid=e3474e11-6316-4037-aea9-4d39b83e3c65","ios":"levelo://app?vid=e3474e11-6316-4037-aea9-4d39b83e3c65"},"vehicle_type_id":"4","last_reported":1687394517,"current_range_meters":13600,"station_id":"ce4bhah2rcd13ifvqei0","pricing_plan_id":"free"},{"bike_id":"ee7c4d16-7536-4cab-8358-60dbff2a21b8","system_id":"levelo_inurba_marseille","lat":43.28462,"lon":5.3588,"is_reserved":false,"is_disabled":false,"rental_uris":{"android":"levelo://app?vid=ee7c4d16-7536-4cab-8358-60dbff2a21b8","ios":"levelo://app?vid=ee7c4d16-7536-4cab-8358-60dbff2a21b8"},"vehicle_type_id":"4","last_reported":1687394517,"current_range_meters":800,"station_id":"ce4bhah2rcd13ifvqei0","pricing_plan_id":"free"},{"bike_id":"2590d415-e251-46c1-8eae-1c015e33b2fe","system_id":"levelo_inurba_marseille","lat":43.284534,"lon":5.358662,"is_reserved":false,"is_disabled":false,"rental_uris":{"android":"levelo://app?vid=2590d415-e251-46c1-8eae-1c015e33b2fe","ios":"levelo://app?vid=2590d415-e251-46c1-8eae-1c015e33b2fe"},"vehicle_type_id":"4","last_reported":1687394517,"current_range_meters":30000,"station_id":"ce4bhah2rcd13ifvqei0","pricing_plan_id":"free"},{"bike_id":"252e3e77-b14f-412b-aca5-bfae15c81a8a","system_id":"levelo_inurba_marseille","lat":43.28461,"lon":5.35883,"is_reserved":false,"is_disabled":false,"rental_uris":{"android":"levelo://app?vid=252e3e77-b14f-412b-aca5-bfae15c81a8a","ios":"levelo://app?vid=252e3e77-b14f-412b-aca5-bfae15c81a8a"},"vehicle_type_id":"4","last_reported":1687394517,"current_range_meters":30400,"station_id":"ce4bhah2rcd13ifvqei0","pricing_plan_id":"free"},{"bike_id":"752e14c8-f060-4121-b2c1-f2244ace1435","system_id":"levelo_inurba_marseille","lat":43.28458,"lon":5.35888,"is_reserved":false,"is_disabled":false,"rental_uris":{"android":"levelo://app?vid=752e14c8-f060-4121-b2c1-f2244ace1435","ios":"levelo://app?vid=752e14c8-f060-4121-b2c1-f2244ace1435"},"vehicle_type_id":"4","last_reported":1687394517,"current_range_meters":30400,"station_id":"ce4bhah2rcd13ifvqei0","pricing_plan_id":"free"},{"bike_id":"ce80551c-d21c-47cb-a3ab-c76a0e01b7f6","system_id":"levelo_inurba_marseille","lat":43.284534,"lon":5.358662,"is_reserved":false,"is_disabled":false,"rental_uris":{"android":"levelo://app?vid=ce80551c-d21c-47cb-a3ab-c76a0e01b7f6","ios":"levelo://app?vid=ce80551c-d21c-47cb-a3ab-c76a0e01b7f6"},"vehicle_type_id":"4","last_reported":1687394517,"current_range_meters":1600,"station_id":"ce4bhah2rcd13ifvqei0","pricing_plan_id":"free"},{"bike_id":"694f73e4-370b-4b0d-b06a-185a973dfd05","system_id":"levelo_inurba_marseille","lat":43.284538,"lon":5.358657,"is_reserved":false,"is_disabled":false,"rental_uris":{"android":"levelo://app?vid=694f73e4-370b-4b0d-b06a-185a973dfd05","ios":"levelo://app?vid=694f73e4-370b-4b0d-b06a-185a973dfd05"},"vehicle_type_id":"4","last_reported":1687394517,"current_range_meters":31200,"station_id":"ce4bhah2rcd13ifvqei0","pricing_plan_id":"free"},{"bike_id":"6cc801e6-838a-410b-bb7f-16d70b49dfe4","system_id":"levelo_inurba_marseille","lat":43.28454,"lon":5.35885,"is_reserved":false,"is_disabled":false,"rental_uris":{"android":"levelo://app?vid=6cc801e6-838a-410b-bb7f-16d70b49dfe4","ios":"levelo://app?vid=6cc801e6-838a-410b-bb7f-16d70b49dfe4"},"vehicle_type_id":"4","last_reported":1687394517,"current_range_meters":30000,"station_id":"ce4bhah2rcd13ifvqei0","pricing_plan_id":"free"},{"bike_id":"11bc603e-0ca9-45db-87be-6a1e497596ca","system_id":"levelo_inurba_marseille","lat":43.294314,"lon":5.397498,"is_reserved":false,"is_disabled":false,"rental_uris":{"android":"levelo://app?vid=11bc603e-0ca9-45db-87be-6a1e497596ca","ios":"levelo://app?vid=11bc603e-0ca9-45db-87be-6a1e497596ca"},"vehicle_type_id":"4","last_reported":1687394517,"current_range_meters":800,"station_id":"ce4bh3h2rcd13ifvqdo0","pricing_plan_id":"free"},{"bike_id":"ccffa8ac-2900-4d52-840e-20d03b8aff2b","system_id":"levelo_inurba_marseille","lat":43.285856,"lon":5.350771,"is_reserved":false,"is_disabled":false,"rental_uris":{"android":"levelo://app?vid=ccffa8ac-2900-4d52-840e-20d03b8aff2b","ios":"levelo://app?vid=ccffa8ac-2900-4d52-840e-20d03b8aff2b"},"vehicle_type_id":"4","last_reported":1687394517,"current_range_meters":0,"station_id":"ce4bhch2rcd13ifvqeug","pricing_plan_id":"free"},{"bike_id":"5967ea74-20b6-4ab7-9bdc-4ff5f0690d32","system_id":"levelo_inurba_marseille","lat":43.285856,"lon":5.350771,"is_reserved":false,"is_disabled":false,"rental_uris":{"android":"levelo://app?vid=5967ea74-20b6-4ab7-9bdc-4ff5f0690d32","ios":"levelo://app?vid=5967ea74-20b6-4ab7-9bdc-4ff5f0690d32"},"vehicle_type_id":"4","last_reported":1687394517,"current_range_meters":3200,"station_id":"ce4bhch2rcd13ifvqeug","pricing_plan_id":"free"},{"bike_id":"b0adf082-a400-460f-8437-c67b01e11a81","system_id":"levelo_inurba_marseille","lat":43.302759,"lon":5.400793,"is_reserved":false,"is_disabled":false,"rental_uris":{"android":"levelo://app?vid=b0adf082-a400-460f-8437-c67b01e11a81","ios":"levelo://app?vid=b0adf082-a400-460f-8437-c67b01e11a81"},"vehicle_type_id":"4","last_reported":1687394517,"current_range_meters":18800,"station_id":"ce4bgvh2rcd13ifvqcs0","pricing_plan_id":"free"},{"bike_id":"7343fd7e-22a3-4161-ad98-030ae357b090","system_id":"levelo_inurba_marseille","lat":43.283998,"lon":5.375062,"is_reserved":false,"is_disabled":false,"rental_uris":{"android":"levelo://app?vid=7343fd7e-22a3-4161-ad98-030ae357b090","ios":"levelo://app?vid=7343fd7e-22a3-4161-ad98-030ae357b090"},"vehicle_type_id":"4","last_reported":1687394517,"current_range_meters":31200,"station_id":"ce4bh412rcd13ifvqds0","pricing_plan_id":"free"},{"bike_id":"34a13efa-4d6e-4010-bd9a-f0637b153586","system_id":"levelo_inurba_marseille","lat":43.28416,"lon":5.37529,"is_reserved":false,"is_disabled":false,"rental_uris":{"android":"levelo://app?vid=34a13efa-4d6e-4010-bd9a-f0637b153586","ios":"levelo://app?vid=34a13efa-4d6e-4010-bd9a-f0637b153586"},"vehicle_type_id":"4","last_reported":1687394517,"current_range_meters":28400,"station_id":"ce4bh412rcd13ifvqds0","pricing_plan_id":"free"},{"bike_id":"f6fda2f2-04f1-4377-bae3-2fc212d95c47","system_id":"levelo_inurba_marseille","lat":43.34234,"lon":5.36167,"is_reserved":false,"is_disabled":false,"rental_uris":{"android":"levelo://app?vid=f6fda2f2-04f1-4377-bae3-2fc212d95c47","ios":"levelo://app?vid=f6fda2f2-04f1-4377-bae3-2fc212d95c47"},"vehicle_type_id":"4","last_reported":1687394517,"current_range_meters":4000,"station_id":"","pricing_plan_id":"free"},{"bike_id":"2565c74e-1add-4dee-bfa4-8f9138338453","system_id":"levelo_inurba_marseille","lat":43.323464,"lon":5.406297,"is_reserved":false,"is_disabled":false,"rental_uris":{"android":"levelo://app?vid=2565c74e-1add-4dee-bfa4-8f9138338453","ios":"levelo://app?vid=2565c74e-1add-4dee-bfa4-8f9138338453"},"vehicle_type_id":"4","last_reported":1687394517,"current_range_meters":13600,"station_id":"ce4bhq92rcd13ifvqhjg","pricing_plan_id":"free"},{"bike_id":"87dddf10-84ef-4c92-963f-13fd8975ced1","system_id":"levelo_inurba_marseille","lat":43.30672,"lon":5.40795,"is_reserved":false,"is_disabled":false,"rental_uris":{"android":"levelo://app?vid=87dddf10-84ef-4c92-963f-13fd8975ced1","ios":"levelo://app?vid=87dddf10-84ef-4c92-963f-13fd8975ced1"},"vehicle_type_id":"4","last_reported":1687394517,"current_range_meters":12000,"station_id":"","pricing_plan_id":"free"},{"bike_id":"12b45373-f60c-451a-9c96-185c6ffc675a","system_id":"levelo_inurba_marseille","lat":43.323464,"lon":5.406297,"is_reserved":false,"is_disabled":false,"rental_uris":{"android":"levelo://app?vid=12b45373-f60c-451a-9c96-185c6ffc675a","ios":"levelo://app?vid=12b45373-f60c-451a-9c96-185c6ffc675a"},"vehicle_type_id":"4","last_reported":1687394517,"current_range_meters":18000,"station_id":"ce4bhq92rcd13ifvqhjg","pricing_plan_id":"free"},{"bike_id":"e2187c70-de5b-4e96-9998-d888cb573979","system_id":"levelo_inurba_marseille","lat":43.323464,"lon":5.406297,"is_reserved":false,"is_disabled":false,"rental_uris":{"android":"levelo://app?vid=e2187c70-de5b-4e96-9998-d888cb573979","ios":"levelo://app?vid=e2187c70-de5b-4e96-9998-d888cb573979"},"vehicle_type_id":"4","last_reported":1687394517,"current_range_meters":5200,"station_id":"ce4bhq92rcd13ifvqhjg","pricing_plan_id":"free"},{"bike_id":"00b4d942-d645-4a17-a320-9c02b5ecca68","system_id":"levelo_inurba_marseille","lat":43.288501,"lon":5.393087,"is_reserved":false,"is_disabled":false,"rental_uris":{"android":"levelo://app?vid=00b4d942-d645-4a17-a320-9c02b5ecca68","ios":"levelo://app?vid=00b4d942-d645-4a17-a320-9c02b5ecca68"},"vehicle_type_id":"4","last_reported":1687394517,"current_range_meters":8400,"station_id":"ce4bh2p2rcd13ifvqdi0","pricing_plan_id":"free"},{"bike_id":"2ec83672-e256-4b89-8d8b-f91e6a0fcf93","system_id":"levelo_inurba_marseille","lat":43.288497,"lon":5.393089,"is_reserved":false,"is_disabled":false,"rental_uris":{"android":"levelo://app?vid=2ec83672-e256-4b89-8d8b-f91e6a0fcf93","ios":"levelo://app?vid=2ec83672-e256-4b89-8d8b-f91e6a0fcf93"},"vehicle_type_id":"4","last_reported":1687394517,"current_range_meters":0,"station_id":"ce4bh2p2rcd13ifvqdi0","pricing_plan_id":"free"},{"bike_id":"c6e91158-2835-4952-8eb7-2be179b3bee4","system_id":"levelo_inurba_marseille","lat":43.283498,"lon":5.380948,"is_reserved":false,"is_disabled":false,"rental_uris":{"android":"levelo://app?vid=c6e91158-2835-4952-8eb7-2be179b3bee4","ios":"levelo://app?vid=c6e91158-2835-4952-8eb7-2be179b3bee4"},"vehicle_type_id":"4","last_reported":1687394517,"current_range_meters":6800,"station_id":"ce4bh412rcd13ifvqdr0","pricing_plan_id":"free"},{"bike_id":"0c64c047-8ca3-43a7-8866-d681e4d80095","system_id":"levelo_inurba_marseille","lat":43.283498,"lon":5.380948,"is_reserved":false,"is_disabled":false,"rental_uris":{"android":"levelo://app?vid=0c64c047-8ca3-43a7-8866-d681e4d80095","ios":"levelo://app?vid=0c64c047-8ca3-43a7-8866-d681e4d80095"},"vehicle_type_id":"4","last_reported":1687394517,"current_range_meters":22400,"station_id":"ce4bh412rcd13ifvqdr0","pricing_plan_id":"free"},{"bike_id":"c4364775-a275-4858-aa16-e566e570de0f","system_id":"levelo_inurba_marseille","lat":43.283498,"lon":5.380948,"is_reserved":false,"is_disabled":false,"rental_uris":{"android":"levelo://app?vid=c4364775-a275-4858-aa16-e566e570de0f","ios":"levelo://app?vid=c4364775-a275-4858-aa16-e566e570de0f"},"vehicle_type_id":"4","last_reported":1687394517,"current_range_meters":23600,"station_id":"ce4bh412rcd13ifvqdr0","pricing_plan_id":"free"},{"bike_id":"f8e0896c-0625-40a6-af94-97cd722333f5","system_id":"levelo_inurba_marseille","lat":43.28039,"lon":5.369297,"is_reserved":false,"is_disabled":false,"rental_uris":{"android":"levelo://app?vid=f8e0896c-0625-40a6-af94-97cd722333f5","ios":"levelo://app?vid=f8e0896c-0625-40a6-af94-97cd722333f5"},"vehicle_type_id":"4","last_reported":1687394517,"current_range_meters":22000,"station_id":"ce4bha12rcd13ifvqef0","pricing_plan_id":"free"},{"bike_id":"de105a02-b076-4d3f-8e3e-5acf5e07842a","system_id":"levelo_inurba_marseille","lat":43.28039,"lon":5.369297,"is_reserved":false,"is_disabled":false,"rental_uris":{"android":"levelo://app?vid=de105a02-b076-4d3f-8e3e-5acf5e07842a","ios":"levelo://app?vid=de105a02-b076-4d3f-8e3e-5acf5e07842a"},"vehicle_type_id":"4","last_reported":1687394517,"current_range_meters":8400,"station_id":"ce4bha12rcd13ifvqef0","pricing_plan_id":"free"},{"bike_id":"cf41148a-0838-41a5-8b03-72f865f824bc","system_id":"levelo_inurba_marseille","lat":43.28039,"lon":5.369297,"is_reserved":false,"is_disabled":false,"rental_uris":{"android":"levelo://app?vid=cf41148a-0838-41a5-8b03-72f865f824bc","ios":"levelo://app?vid=cf41148a-0838-41a5-8b03-72f865f824bc"},"vehicle_type_id":"4","last_reported":1687394517,"current_range_meters":31600,"station_id":"ce4bha12rcd13ifvqef0","pricing_plan_id":"free"},{"bike_id":"b0fb0b28-a8af-431f-ae26-3025dfb14873","system_id":"levelo_inurba_marseille","lat":43.28039,"lon":5.369297,"is_reserved":false,"is_disabled":false,"rental_uris":{"android":"levelo://app?vid=b0fb0b28-a8af-431f-ae26-3025dfb14873","ios":"levelo://app?vid=b0fb0b28-a8af-431f-ae26-3025dfb14873"},"vehicle_type_id":"4","last_reported":1687394517,"current_range_meters":20000,"station_id":"ce4bha12rcd13ifvqef0","pricing_plan_id":"free"},{"bike_id":"99929adb-751a-4fdf-adff-5c0f0b174c60","system_id":"levelo_inurba_marseille","lat":43.280382,"lon":5.369291,"is_reserved":false,"is_disabled":false,"rental_uris":{"android":"levelo://app?vid=99929adb-751a-4fdf-adff-5c0f0b174c60","ios":"levelo://app?vid=99929adb-751a-4fdf-adff-5c0f0b174c60"},"vehicle_type_id":"4","last_reported":1687394517,"current_range_meters":28400,"station_id":"ce4bha12rcd13ifvqef0","pricing_plan_id":"free"},{"bike_id":"6c179ffd-910f-4e1f-ac88-b0178fa90681","system_id":"levelo_inurba_marseille","lat":43.29041,"lon":5.399634,"is_reserved":false,"is_disabled":false,"rental_uris":{"android":"levelo://app?vid=6c179ffd-910f-4e1f-ac88-b0178fa90681","ios":"levelo://app?vid=6c179ffd-910f-4e1f-ac88-b0178fa90681"},"vehicle_type_id":"4","last_reported":1687394517,"current_range_meters":28400,"station_id":"ce4bh392rcd13ifvqdm0","pricing_plan_id":"free"},{"bike_id":"bb9f1867-50cd-49ba-91ce-c4c9a6e8669c","system_id":"levelo_inurba_marseille","lat":43.28112,"lon":5.37827,"is_reserved":false,"is_disabled":false,"rental_uris":{"android":"levelo://app?vid=bb9f1867-50cd-49ba-91ce-c4c9a6e8669c","ios":"levelo://app?vid=bb9f1867-50cd-49ba-91ce-c4c9a6e8669c"},"vehicle_type_id":"4","last_reported":1687394517,"current_range_meters":0,"station_id":"ce4bha12rcd13ifvqee0","pricing_plan_id":"free"},{"bike_id":"bd153cb0-8a74-4f68-a317-c4ce083b13f5","system_id":"levelo_inurba_marseille","lat":43.28356,"lon":5.38715,"is_reserved":false,"is_disabled":false,"rental_uris":{"android":"levelo://app?vid=bd153cb0-8a74-4f68-a317-c4ce083b13f5","ios":"levelo://app?vid=bd153cb0-8a74-4f68-a317-c4ce083b13f5"},"vehicle_type_id":"4","last_reported":1687394517,"current_range_meters":16800,"station_id":"","pricing_plan_id":"free"},{"bike_id":"a27203df-6ab0-45c6-a73f-5bb6f7ece534","system_id":"levelo_inurba_marseille","lat":43.28109,"lon":5.37829,"is_reserved":false,"is_disabled":false,"rental_uris":{"android":"levelo://app?vid=a27203df-6ab0-45c6-a73f-5bb6f7ece534","ios":"levelo://app?vid=a27203df-6ab0-45c6-a73f-5bb6f7ece534"},"vehicle_type_id":"4","last_reported":1687394517,"current_range_meters":3200,"station_id":"ce4bha12rcd13ifvqee0","pricing_plan_id":"free"},{"bike_id":"74ae3289-896f-403c-ac3b-f84b9beac258","system_id":"levelo_inurba_marseille","lat":43.28105,"lon":5.378275,"is_reserved":false,"is_disabled":false,"rental_uris":{"android":"levelo://app?vid=74ae3289-896f-403c-ac3b-f84b9beac258","ios":"levelo://app?vid=74ae3289-896f-403c-ac3b-f84b9beac258"},"vehicle_type_id":"4","last_reported":1687394517,"current_range_meters":26800,"station_id":"ce4bha12rcd13ifvqee0","pricing_plan_id":"free"},{"bike_id":"69c6d6b5-519a-4df0-8fe6-82d00484e1af","system_id":"levelo_inurba_marseille","lat":43.281055,"lon":5.378309,"is_reserved":false,"is_disabled":false,"rental_uris":{"android":"levelo://app?vid=69c6d6b5-519a-4df0-8fe6-82d00484e1af","ios":"levelo://app?vid=69c6d6b5-519a-4df0-8fe6-82d00484e1af"},"vehicle_type_id":"4","last_reported":1687394517,"current_range_meters":2800,"station_id":"ce4bha12rcd13ifvqee0","pricing_plan_id":"free"},{"bike_id":"2b7a87f8-13ae-461c-8979-bd8772575fc0","system_id":"levelo_inurba_marseille","lat":43.281034,"lon":5.378334,"is_reserved":false,"is_disabled":false,"rental_uris":{"android":"levelo://app?vid=2b7a87f8-13ae-461c-8979-bd8772575fc0","ios":"levelo://app?vid=2b7a87f8-13ae-461c-8979-bd8772575fc0"},"vehicle_type_id":"4","last_reported":1687394517,"current_range_meters":6400,"station_id":"ce4bha12rcd13ifvqee0","pricing_plan_id":"free"},{"bike_id":"c52eb886-43f4-43ea-b6b4-c479bfe1fac1","system_id":"levelo_inurba_marseille","lat":43.281039,"lon":5.378364,"is_reserved":false,"is_disabled":false,"rental_uris":{"android":"levelo://app?vid=c52eb886-43f4-43ea-b6b4-c479bfe1fac1","ios":"levelo://app?vid=c52eb886-43f4-43ea-b6b4-c479bfe1fac1"},"vehicle_type_id":"4","last_reported":1687394517,"current_range_meters":23600,"station_id":"ce4bha12rcd13ifvqee0","pricing_plan_id":"free"},{"bike_id":"db6d55a2-c9a8-4fe7-8d6b-cf3d50fabcea","system_id":"levelo_inurba_marseille","lat":43.28104,"lon":5.37845,"is_reserved":false,"is_disabled":false,"rental_uris":{"android":"levelo://app?vid=db6d55a2-c9a8-4fe7-8d6b-cf3d50fabcea","ios":"levelo://app?vid=db6d55a2-c9a8-4fe7-8d6b-cf3d50fabcea"},"vehicle_type_id":"4","last_reported":1687394517,"current_range_meters":1600,"station_id":"ce4bha12rcd13ifvqee0","pricing_plan_id":"free"},{"bike_id":"4f519247-e812-4cd9-a7ee-40ee9cb12321","system_id":"levelo_inurba_marseille","lat":43.29625,"lon":5.40593,"is_reserved":false,"is_disabled":false,"rental_uris":{"android":"levelo://app?vid=4f519247-e812-4cd9-a7ee-40ee9cb12321","ios":"levelo://app?vid=4f519247-e812-4cd9-a7ee-40ee9cb12321"},"vehicle_type_id":"4","last_reported":1687394517,"current_range_meters":19600,"station_id":"","pricing_plan_id":"free"},{"bike_id":"3cd10ad7-a316-4ed6-a3d9-f31d3f3622ac","system_id":"levelo_inurba_marseille","lat":43.34478,"lon":5.37828,"is_reserved":false,"is_disabled":false,"rental_uris":{"android":"levelo://app?vid=3cd10ad7-a316-4ed6-a3d9-f31d3f3622ac","ios":"levelo://app?vid=3cd10ad7-a316-4ed6-a3d9-f31d3f3622ac"},"vehicle_type_id":"4","last_reported":1687394517,"current_range_meters":10000,"station_id":"","pricing_plan_id":"free"},{"bike_id":"5d9ded73-0842-4f01-b89b-d664679f507f","system_id":"levelo_inurba_marseille","lat":43.28438,"lon":5.39182,"is_reserved":false,"is_disabled":false,"rental_uris":{"android":"levelo://app?vid=5d9ded73-0842-4f01-b89b-d664679f507f","ios":"levelo://app?vid=5d9ded73-0842-4f01-b89b-d664679f507f"},"vehicle_type_id":"4","last_reported":1687394517,"current_range_meters":26800,"station_id":"ce4bhoh2rcd13ifvqh5g","pricing_plan_id":"free"},{"bike_id":"b53a43dd-4a61-4f39-8daa-9f0e6ed6d23c","system_id":"levelo_inurba_marseille","lat":43.284462,"lon":5.392121,"is_reserved":false,"is_disabled":false,"rental_uris":{"android":"levelo://app?vid=b53a43dd-4a61-4f39-8daa-9f0e6ed6d23c","ios":"levelo://app?vid=b53a43dd-4a61-4f39-8daa-9f0e6ed6d23c"},"vehicle_type_id":"4","last_reported":1687394517,"current_range_meters":24800,"station_id":"ce4bhoh2rcd13ifvqh5g","pricing_plan_id":"free"},{"bike_id":"20031e6d-fe1f-4839-b985-406bbdc18eed","system_id":"levelo_inurba_marseille","lat":43.27895,"lon":5.36801,"is_reserved":false,"is_disabled":false,"rental_uris":{"android":"levelo://app?vid=20031e6d-fe1f-4839-b985-406bbdc18eed","ios":"levelo://app?vid=20031e6d-fe1f-4839-b985-406bbdc18eed"},"vehicle_type_id":"4","last_reported":1687394517,"current_range_meters":20400,"station_id":"","pricing_plan_id":"free"},{"bike_id":"d0605c49-68ae-41f0-a63f-83512d2f5572","system_id":"levelo_inurba_marseille","lat":43.285742,"lon":5.395004,"is_reserved":false,"is_disabled":false,"rental_uris":{"android":"levelo://app?vid=d0605c49-68ae-41f0-a63f-83512d2f5572","ios":"levelo://app?vid=d0605c49-68ae-41f0-a63f-83512d2f5572"},"vehicle_type_id":"4","last_reported":1687394517,"current_range_meters":29600,"station_id":"ce4bh292rcd13ifvqdg0","pricing_plan_id":"free"},{"bike_id":"a574e6b9-b8b4-49e3-a3c5-498d1f6f4f57","system_id":"levelo_inurba_marseille","lat":43.28571,"lon":5.39492,"is_reserved":false,"is_disabled":false,"rental_uris":{"android":"levelo://app?vid=a574e6b9-b8b4-49e3-a3c5-498d1f6f4f57","ios":"levelo://app?vid=a574e6b9-b8b4-49e3-a3c5-498d1f6f4f57"},"vehicle_type_id":"4","last_reported":1687394517,"current_range_meters":13600,"station_id":"ce4bh292rcd13ifvqdg0","pricing_plan_id":"free"},{"bike_id":"ff22564b-7f59-4dba-a7bd-0f1bc5689db1","system_id":"levelo_inurba_marseille","lat":43.3266,"lon":5.40981,"is_reserved":false,"is_disabled":false,"rental_uris":{"android":"levelo://app?vid=ff22564b-7f59-4dba-a7bd-0f1bc5689db1","ios":"levelo://app?vid=ff22564b-7f59-4dba-a7bd-0f1bc5689db1"},"vehicle_type_id":"4","last_reported":1687394517,"current_range_meters":31200,"station_id":"ce4bhpp2rcd13ifvqhgg","pricing_plan_id":"free"},{"bike_id":"42b3680c-6022-4319-945e-27cb9e3f8446","system_id":"levelo_inurba_marseille","lat":43.326605,"lon":5.409903,"is_reserved":false,"is_disabled":false,"rental_uris":{"android":"levelo://app?vid=42b3680c-6022-4319-945e-27cb9e3f8446","ios":"levelo://app?vid=42b3680c-6022-4319-945e-27cb9e3f8446"},"vehicle_type_id":"4","last_reported":1687394517,"current_range_meters":20800,"station_id":"ce4bhpp2rcd13ifvqhgg","pricing_plan_id":"free"},{"bike_id":"bde14cc2-7f6e-431e-950b-953f49fac3a5","system_id":"levelo_inurba_marseille","lat":43.326605,"lon":5.409903,"is_reserved":false,"is_disabled":false,"rental_uris":{"android":"levelo://app?vid=bde14cc2-7f6e-431e-950b-953f49fac3a5","ios":"levelo://app?vid=bde14cc2-7f6e-431e-950b-953f49fac3a5"},"vehicle_type_id":"4","last_reported":1687394517,"current_range_meters":27600,"station_id":"ce4bhpp2rcd13ifvqhgg","pricing_plan_id":"free"},{"bike_id":"e878727b-84cd-42b1-a62e-cfdf05b0329c","system_id":"levelo_inurba_marseille","lat":43.3266,"lon":5.40987,"is_reserved":false,"is_disabled":false,"rental_uris":{"android":"levelo://app?vid=e878727b-84cd-42b1-a62e-cfdf05b0329c","ios":"levelo://app?vid=e878727b-84cd-42b1-a62e-cfdf05b0329c"},"vehicle_type_id":"4","last_reported":1687394517,"current_range_meters":29600,"station_id":"ce4bhpp2rcd13ifvqhgg","pricing_plan_id":"free"},