{"last_updated":1704204400,"ttl":30,"version":"2.2","data":{"bikes":[{"bike_id":"2732dea8-6485-45ff-9bb5-f8f4b244a1a2","system_id":"levelo_inurba_marseille","lat":43.31341,"lon":5.367098,"is_reserved":false,"is_disabled":false,"rental_uris":{"android":"levelo://app?vid=2732dea8-6485-45ff-9bb5-f8f4b244a1a2","ios":"levelo://app?vid=2732dea8-6485-45ff-9bb5-f8f4b244a1a2"},"vehicle_type_id":"4","last_reported":1704204400,"current_range_meters":14000,"station_id":"ce4bgr92rcd13ifvqc6g","pricing_plan_id":"free"},{"bike_id":"c1bb20c0-6380-4f3c-aed9-cff20efe3a85","system_id":"levelo_inurba_marseille","lat":43.313391,"lon":5.36706,"is_reserved":false,"is_disabled":false,"rental_uris":{"android":"levelo://app?vid=c1bb20c0-6380-4f3c-aed9-cff20efe3a85","ios":"levelo://app?vid=c1bb20c0-6380-4f3c-aed9-cff20efe3a85"},"vehicle_type_id":"4","last_reported":1704204400,"current_range_meters":28000,"station_id":"ce4bgr92rcd13ifvqc6g","pricing_plan_id":"free"},{"bike_id":"0f9aea24-df7b-452e-9ec9-508a486be078","system_id":"levelo_inurba_marseille","lat":43.313391,"lon":5.36706,"is_reserved":false,"is_disabled":false,"rental_uris":{"android":"levelo://app?vid=0f9aea24-df7b-452e-9ec9-508a486be078","ios":"levelo://app?vid=0f9aea24-df7b-452e-9ec9-508a486be078"},"vehicle_type_id":"4","last_reported":1704204400,"current_range_meters":31200,"station_id":"ce4bgr92rcd13ifvqc6g","pricing_plan_id":"free"},{"bike_id":"4ca3c03b-77c4-4cab-a5ac-9bdadef7281d","system_id":"levelo_inurba_marseille","lat":43.31341,"lon":5.367098,"is_reserved":false,"is_disabled":false,"rental_uris":{"android":"levelo://app?vid=4ca3c03b-77c4-4cab-a5ac-9bdadef7281d","ios":"levelo://app?vid=4ca3c03b-77c4-4cab-a5ac-9bdadef7281d"},"vehicle_type_id":"4","last_reported":1704204400,"current_range_meters":13200,"station_id":"ce4bgr92rcd13ifvqc6g","pricing_plan_id":"free"},{"bike_id":"50ffb39d-c405-4192-ba10-8fe04060eef3","system_id":"levelo_inurba_marseille","lat":43.31341,"lon":5.367098,"is_reserved":false,"is_disabled":false,"rental_uris":{"android":"levelo://app?vid=50ffb39d-c405-4192-ba10-8fe04060eef3","ios":"levelo://app?vid=50ffb39d-c405-4192-ba10-8fe04060eef3"},"vehicle_type_id":"4","last_reported":1704204400,"current_range_meters":31600,"station_id":"ce4bgr92rcd13ifvqc6g","pricing_plan_id":"free"},{"bike_id":"35565607-172d-4dea-a0a2-86b98321545b","system_id":"levelo_inurba_marseille","lat":43.312239,"lon":5.368562,"is_reserved":false,"is_disabled":false,"rental_uris":{"android":"levelo://app?vid=35565607-172d-4dea-a0a2-86b98321545b","ios":"levelo://app?vid=35565607-172d-4dea-a0a2-86b98321545b"},"vehicle_type_id":"4","last_reported":1704204400,"current_range_meters":18800,"station_id":"ce4bgl92rcd13ifvqbq0","pricing_plan_id":"free"},{"bike_id":"ab65979a-b67f-4fcc-9ce8-e9b5f3c8c97e","system_id":"levelo_inurba_marseille","lat":43.312239,"lon":5.368562,"is_reserved":false,"is_disabled":false,"rental_uris":{"android":"levelo://app?vid=ab65979a-b67f-4fcc-9ce8-e9b5f3c8c97e","ios":"levelo://app?vid=ab65979a-b67f-4fcc-9ce8-e9b5f3c8c97e"},"vehicle_type_id":"4","last_reported":1704204400,"current_range_meters":31600,"station_id":"ce4bgl92rcd13ifvqbq0","pricing_plan_id":"free"},{"bike_id":"d84b4337-d35d-4290-a812-d91d2101cf7e","system_id":"levelo_inurba_marseille","lat":43.312239,"lon":5.368562,"is_reserved":false,"is_disabled":false,"rental_uris":{"android":"levelo://app?vid=d84b4337-d35d-4290-a812-d91d2101cf7e","ios":"levelo://app?vid=d84b4337-d35d-4290-a812-d91d2101cf7e"},"vehicle_type_id":"4","last_reported":1704204400,"current_range_meters":23200,"station_id":"ce4bgl92rcd13ifvqbq0","pricing_plan_id":"free"},{"bike_id":"6e8160c9-a3e9-405d-970b-f9a8ed2693f1","system_id":"levelo_inurba_marseille","lat":43.31219,"lon":5.368587,"is_reserved":false,"is_disabled":false,"rental_uris":{"android":"levelo://app?vid=6e8160c9-a3e9-405d-970b-f9a8ed2693f1","ios":"levelo://app?vid=6e8160c9-a3e9-405d-970b-f9a8ed2693f1"},"vehicle_type_id":"4","last_reported":1704204400,"current_range_meters":19200,"station_id":"","pricing_plan_id":"free"},{"bike_id":"16e2b7ca-bbc9-4f1f-8d8e-64f8e49944d9","system_id":"levelo_inurba_marseille","lat":43.312239,"lon":5.368562,"is_reserved":false,"is_disabled":false,"rental_uris":{"android":"levelo://app?vid=16e2b7ca-bbc9-4f1f-8d8e-64f8e49944d9","ios":"levelo://app?vid=16e2b7ca-bbc9-4f1f-8d8e-64f8e49944d9"},"vehicle_type_id":"4","last_reported":1704204400,"current_range_meters":30400,"station_id":"ce4bgl92rcd13ifvqbq0","pricing_plan_id":"free"},{"bike_id":"f32145bc-90d8-4d9a-810d-718a27d457e6","system_id":"levelo_inurba_marseille","lat":43.312239,"lon":5.368562,"is_reserved":false,"is_disabled":false,"rental_uris":{"android":"levelo://app?vid=f32145bc-90d8-4d9a-810d-718a27d457e6","ios":"levelo://app?vid=f32145bc-90d8-4d9a-810d-718a27d457e6"},"vehicle_type_id":"4","last_reported":1704204400,"current_range_meters":31200,"station_id":"ce4bgl92rcd13ifvqbq0","pricing_plan_id":"free"},{"bike_id":"8267dbea-2a54-4384-b91d-21cbc74b0c21","system_id":"levelo_inurba_marseille","lat":43.309076,"lon":5.368465,"is_reserved":false,"is_disabled":false,"rental_uris":{"android":"levelo://app?vid=8267dbea-2a54-4384-b91d-21cbc74b0c21","ios":"levelo://app?vid=8267dbea-2a54-4384-b91d-21cbc74b0c21"},"vehicle_type_id":"4","last_reported":1704204400,"current_range_meters":25200,"station_id":"ce4bgn92rcd13ifvqbvg","pricing_plan_id":"free"},{"bike_id":"e4ded75e-0c76-422e-a6d9-7bf57e0b6643","system_id":"levelo_inurba_marseille","lat":43.309076,"lon":5.368465,"is_reserved":false,"is_disabled":false,"rental_uris":{"android":"levelo://app?vid=e4ded75e-0c76-422e-a6d9-7bf57e0b6643","ios":"levelo://app?vid=e4ded75e-0c76-422e-a6d9-7bf57e0b6643"},"vehicle_type_id":"4","last_reported":1704204400,"current_range_meters":31200,"station_id":"ce4bgn92rcd13ifvqbvg","pricing_plan_id":"free"},{"bike_id":"a36a5d30-24b0-4a20-9b95-389930d7ba77","system_id":"levelo_inurba_marseille","lat":43.314811,"lon":5.373104,"is_reserved":false,"is_disabled":false,"rental_uris":{"android":"levelo://app?vid=a36a5d30-24b0-4a20-9b95-389930d7ba77","ios":"levelo://app?vid=a36a5d30-24b0-4a20-9b95-389930d7ba77"},"vehicle_type_id":"4","last_reported":1704204400,"current_range_meters":26400,"station_id":"ce4bgt12rcd13ifvqcd0","pricing_plan_id":"free"},{"bike_id":"22fb813e-c050-464e-987a-a16d5b5c3ca9","system_id":"levelo_inurba_marseille","lat":43.314811,"lon":5.373103,"is_reserved":false,"is_disabled":false,"rental_uris":{"android":"levelo://app?vid=22fb813e-c050-464e-987a-a16d5b5c3ca9","ios":"levelo://app?vid=22fb813e-c050-464e-987a-a16d5b5c3ca9"},"vehicle_type_id":"4","last_reported":1704204400,"current_range_meters":19600,"station_id":"ce4bgt12rcd13ifvqcd0","pricing_plan_id":"free"},{"bike_id":"760f406c-aa17-46d7-88bc-f6e093de9a02","system_id":"levelo_inurba_marseille","lat":43.309039,"lon":5.371797,"is_reserved":false,"is_disabled":false,"rental_uris":{"android":"levelo://app?vid=760f406c-aa17-46d7-88bc-f6e093de9a02","ios":"levelo://app?vid=760f406c-aa17-46d7-88bc-f6e093de9a02"},"vehicle_type_id":"4","last_reported":1704204400,"current_range_meters":15200,"station_id":"ce4bguh2rcd13ifvqckg","pricing_plan_id":"free"},{"bike_id":"6929ef31-ef85-48f7-b4e8-0e1c6bf6bc70","system_id":"levelo_inurba_marseille","lat":43.309039,"lon":5.371797,"is_reserved":false,"is_disabled":false,"rental_uris":{"android":"levelo://app?vid=6929ef31-ef85-48f7-b4e8-0e1c6bf6bc70","ios":"levelo://app?vid=6929ef31-ef85-48f7-b4e8-0e1c6bf6bc70"},"vehicle_type_id":"4","last_reported":1704204400,"current_range_meters":13200,"station_id":"ce4bguh2rcd13ifvqckg","pricing_plan_id":"free"},{"bike_id":"7382b5da-0d10-40ed-aa01-bea75a98967a","system_id":"levelo_inurba_marseille","lat":43.309039,"lon":5.371797,"is_reserved":false,"is_disabled":false,"rental_uris":{"android":"levelo://app?vid=7382b5da-0d10-40ed-aa01-bea75a98967a","ios":"levelo://app?vid=7382b5da-0d10-40ed-aa01-bea75a98967a"},"vehicle_type_id":"4","last_reported":1704204400,"current_range_meters":25600,"station_id":"ce4bguh2rcd13ifvqckg","pricing_plan_id":"free"},{"bike_id":"fd335f6a-d87a-4625-8af4-cd6eac3360f3","system_id":"levelo_inurba_marseille","lat":43.309039,"lon":5.371797,"is_reserved":false,"is_disabled":false,"rental_uris":{"android":"levelo://app?vid=fd335f6a-d87a-4625-8af4-cd6eac3360f3","ios":"levelo://app?vid=fd335f6a-d87a-4625-8af4-cd6eac3360f3"},"vehicle_type_id":"4","last_reported":1704204400,"current_range_meters":22400,"station_id":"ce4bguh2rcd13ifvqckg","pricing_plan_id":"free"},{"bike_id":"9a8e6e51-c2f2-4f3f-98d9-5d14427a3618","system_id":"levelo_inurba_marseille","lat":43.305714,"lon":5.365633,"is_reserved":false,"is_disabled":false,"rental_uris":{"android":"levelo://app?vid=9a8e6e51-c2f2-4f3f-98d9-5d14427a3618","ios":"levelo://app?vid=9a8e6e51-c2f2-4f3f-98d9-5d14427a3618"},"vehicle_type_id":"4","last_reported":1704204400,"current_range_meters":30000,"station_id":"ce4bgs12rcd13ifvqcag","pricing_plan_id":"free"},{"bike_id":"77bd4a0c-d1ca-414a-ac38-f248f12f13f0","system_id":"levelo_inurba_marseille","lat":43.305712,"lon":5.365641,"is_reserved":false,"is_disabled":false,"rental_uris":{"android":"levelo://app?vid=77bd4a0c-d1ca-414a-ac38-f248f12f13f0","ios":"levelo://app?vid=77bd4a0c-d1ca-414a-ac38-f248f12f13f0"},"vehicle_type_id":"4","last_reported":1704204400,"current_range_meters":24800,"station_id":"ce4bgs12rcd13ifvqcag","pricing_plan_id":"free"},{"bike_id":"01a815ad-bef9-4183-b398-27314af7a673","system_id":"levelo_inurba_marseille","lat":43.305368,"lon":5.367343,"is_reserved":false,"is_disabled":false,"rental_uris":{"android":"levelo://app?vid=01a815ad-bef9-4183-b398-27314af7a673","ios":"levelo://app?vid=01a815ad-bef9-4183-b398-27314af7a673"},"vehicle_type_id":"4","last_reported":1704204400,"current_range_meters":27200,"station_id":"ce4bgrp2rcd13ifvqc9g","pricing_plan_id":"free"},{"bike_id":"9365ead4-2654-4c17-9775-a29b9e22e4a0","system_id":"levelo_inurba_marseille","lat":43.305368,"lon":5.367343,"is_reserved":false,"is_disabled":false,"rental_uris":{"android":"levelo://app?vid=9365ead4-2654-4c17-9775-a29b9e22e4a0","ios":"levelo://app?vid=9365ead4-2654-4c17-9775-a29b9e22e4a0"},"vehicle_type_id":"4","last_reported":1704204400,"current_range_meters":26800,"station_id":"ce4bgrp2rcd13ifvqc9g","pricing_plan_id":"free"},{"bike_id":"1981d35a-1a63-49a0-93e7-3ab3c0d92059","system_id":"levelo_inurba_marseille","lat":43.305368,"lon":5.367343,"is_reserved":false,"is_disabled":false,"rental_uris":{"android":"levelo://app?vid=1981d35a-1a63-49a0-93e7-3ab3c0d92059","ios":"levelo://app?vid=1981d35a-1a63-49a0-93e7-3ab3c0d92059"},"vehicle_type_id":"4","last_reported":1704204400,"current_range_meters":22000,"station_id":"ce4bgrp2rcd13ifvqc9g","pricing_plan_id":"free"},{"bike_id":"ed6f5133-402d-47db-bc33-b41f2fd18f7c","system_id":"levelo_inurba_marseille","lat":43.305712,"lon":5.365641,"is_reserved":false,"is_disabled":false,"rental_uris":{"android":"levelo://app?vid=ed6f5133-402d-47db-bc33-b41f2fd18f7c","ios":"levelo://app?vid=ed6f5133-402d-47db-bc33-b41f2fd18f7c"},"vehicle_type_id":"4","last_reported":1704204400,"current_range_meters":26800,"station_id":"ce4bgs12rcd13ifvqcag","pricing_plan_id":"free"},{"bike_id":"56d4ff2f-40d7-462f-aa5b-edb0b9eac959","system_id":"levelo_inurba_marseille","lat":43.305714,"lon":5.365633,"is_reserved":false,"is_disabled":false,"rental_uris":{"android":"levelo://app?vid=56d4ff2f-40d7-462f-aa5b-edb0b9eac959","ios":"levelo://app?vid=56d4ff2f-40d7-462f-aa5b-edb0b9eac959"},"vehicle_type_id":"4","last_reported":1704204400,"current_range_meters":29200,"station_id":"ce4bgs12rcd13ifvqcag","pricing_plan_id":"free"},{"bike_id":"02bdf85f-9059-4e46-8d68-827eb201a907","system_id":"levelo_inurba_marseille","lat":43.305706,"lon":5.365654,"is_reserved":false,"is_disabled":false,"rental_uris":{"android":"levelo://app?vid=02bdf85f-9059-4e46-8d68-827eb201a907","ios":"levelo://app?vid=02bdf85f-9059-4e46-8d68-827eb201a907"},"vehicle_type_id":"4","last_reported":1704204400,"current_range_meters":24800,"station_id":"ce4bgs12rcd13ifvqcag","pricing_plan_id":"free"},{"bike_id":"25382dfb-df7f-4309-a44b-9d96cec9518e","system_id":"levelo_inurba_marseille","lat":43.305706,"lon":5.365654,"is_reserved":false,"is_disabled":false,"rental_uris":{"android":"levelo://app?vid=25382dfb-df7f-4309-a44b-9d96cec9518e","ios":"levelo://app?vid=25382dfb-df7f-4309-a44b-9d96cec9518e"},"vehicle_type_id":"4","last_reported":1704204400,"current_range_meters":20000,"station_id":"ce4bgs12rcd13ifvqcag","pricing_plan_id":"free"},{"bike_id":"4ee27fea-d3d6-46a7-8ff3-703e3115c654","system_id":"levelo_inurba_marseille","lat":43.305368,"lon":5.367343,"is_reserved":false,"is_disabled":false,"rental_uris":{"android":"levelo://app?vid=4ee27fea-d3d6-46a7-8ff3-703e3115c654","ios":"levelo://app?vid=4ee27fea-d3d6-46a7-8ff3-703e3115c654"},"vehicle_type_id":"4","last_reported":1704204400,"current_range_meters":24000,"station_id":"ce4bgrp2rcd13ifvqc9g","pricing_plan_id":"free"},{"bike_id":"d423e74d-e063-41b7-a2a0-c9c50a10abfa","system_id":"levelo_inurba_marseille","lat":43.305368,"lon":5.367343,"is_reserved":false,"is_disabled":false,"rental_uris":{"android":"levelo://app?vid=d423e74d-e063-41b7-a2a0-c9c50a10abfa","ios":"levelo://app?vid=d423e74d-e063-41b7-a2a0-c9c50a10abfa"},"vehicle_type_id":"4","last_reported":1704204400,"current_range_meters":28000,"station_id":"ce4bgrp2rcd13ifvqc9g","pricing_plan_id":"free"},{"bike_id":"26e17563-4b80-419d-9e7d-ca16490e0a2e","system_id":"levelo_inurba_marseille","lat":43.305296,"lon":5.367083,"is_reserved":false,"is_disabled":false,"rental_uris":{"android":"levelo://app?vid=26e17563-4b80-419d-9e7d-ca16490e0a2e","ios":"levelo://app?vid=26e17563-4b80-419d-9e7d-ca16490e0a2e"},"vehicle_type_id":"4","last_reported":1704204400,"current_range_meters":16000,"station_id":"","pricing_plan_id":"free"},{"bike_id":"0c5c06ff-25e2-4376-bc73-55cfa06efb17","system_id":"levelo_inurba_marseille","lat":43.305706,"lon":5.365654,"is_reserved":false,"is_disabled":false,"rental_uris":{"android":"levelo://app?vid=0c5c06ff-25e2-4376-bc73-55cfa06efb17","ios":"levelo://app?vid=0c5c06ff-25e2-4376-bc73-55cfa06efb17"},"vehicle_type_id":"4","last_reported":1704204400,"current_range_meters":21600,"station_id":"ce4bgs12rcd13ifvqcag","pricing_plan_id":"free"},{"bike_id":"ac25c690-f8be-438c-a426-5ca9bd06b85e","system_id":"levelo_inurba_marseille","lat":43.305706,"lon":5.365654,"is_reserved":false,"is_disabled":false,"rental_uris":{"android":"levelo://app?vid=ac25c690-f8be-438c-a426-5ca9bd06b85e","ios":"levelo://app?vid=ac25c690-f8be-438c-a426-5ca9bd06b85e"},"vehicle_type_id":"4","last_reported":1704204400,"current_range_meters":30000,"station_id":"ce4bgs12rcd13ifvqcag","pricing_plan_id":"free"},{"bike_id":"edd189bd-e63f-4880-b785-c1463635efa6","system_id":"levelo_inurba_marseille","lat":43.305706,"lon":5.365654,"is_reserved":false,"is_disabled":false,"rental_uris":{"android":"levelo://app?vid=edd189bd-e63f-4880-b785-c1463635efa6","ios":"levelo://app?vid=edd189bd-e63f-4880-b785-c1463635efa6"},"vehicle_type_id":"4","last_reported":1704204400,"current_range_meters":25200,"station_id":"ce4bgs12rcd13ifvqcag","pricing_plan_id":"free"},{"bike_id":"b30c0912-cae2-483b-a693-19578ecaab16","system_id":"levelo_inurba_marseille","lat":43.305706,"lon":5.365654,"is_reserved":false,"is_disabled":false,"rental_uris":{"android":"levelo://app?vid=b30c0912-cae2-483b-a693-19578ecaab16","ios":"levelo://app?vid=b30c0912-cae2-483b-a693-19578ecaab16"},"vehicle_type_id":"4","last_reported":1704204400,"current_range_meters":1200,"station_id":"ce4bgs12rcd13ifvqcag","pricing_plan_id":"free"},{"bike_id":"66606ac8-e12d-4a05-b5a5-b1f3b85138d5","system_id":"levelo_inurba_marseille","lat":43.305706,"lon":5.365654,"is_reserved":false,"is_disabled":false,"rental_uris":{"android":"levelo://app?vid=66606ac8-e12d-4a05-b5a5-b1f3b85138d5","ios":"levelo://app?vid=66606ac8-e12d-4a05-b5a5-b1f3b85138d5"},"vehicle_type_id":"4","last_reported":1704204400,"current_range_meters":29600,"station_id":"ce4bgs12rcd13ifvqcag","pricing_plan_id":"free"},{"bike_id":"de8d4f07-f88a-4365-97c3-5c2dc652ca27","system_id":"levelo_inurba_marseille","lat":43.305989,"lon":5.37225,"is_reserved":false,"is_disabled":false,"rental_uris":{"android":"levelo://app?vid=de8d4f07-f88a-4365-97c3-5c2dc652ca27","ios":"levelo://app?vid=de8d4f07-f88a-4365-97c3-5c2dc652ca27"},"vehicle_type_id":"4","last_reported":1704204400,"current_range_meters":31200,"station_id":"ce4bgqh2rcd13ifvqc4g","pricing_plan_id":"free"},{"bike_id":"25af9e1c-886c-4f64-92f2-5ca68e46ae4a","system_id":"levelo_inurba_marseille","lat":43.31722,"lon":5.37668,"is_reserved":false,"is_disabled":false,"rental_uris":{"android":"levelo://app?vid=25af9e1c-886c-4f64-92f2-5ca68e46ae4a","ios":"levelo://app?vid=25af9e1c-886c-4f64-92f2-5ca68e46ae4a"},"vehicle_type_id":"4","last_reported":1704204400,"current_range_meters":14400,"station_id":"","pricing_plan_id":"free"},{"bike_id":"1da73efd-a1f7-4849-8e90-c9677bf0d42c","system_id":"levelo_inurba_marseille","lat":43.307945,"lon":5.376487,"is_reserved":false,"is_disabled":false,"rental_uris":{"android":"levelo://app?vid=1da73efd-a1f7-4849-8e90-c9677bf0d42c","ios":"levelo://app?vid=1da73efd-a1f7-4849-8e90-c9677bf0d42c"},"vehicle_type_id":"4","last_reported":1704204400,"current_range_meters":24800,"station_id":"ce4bgv92rcd13ifvqcq0","pricing_plan_id":"free"},{"bike_id":"7f219175-74c7-4c6d-b3bc-41a4d1991120","system_id":"levelo_inurba_marseille","lat":43.307945,"lon":5.376487,"is_reserved":false,"is_disabled":false,"rental_uris":{"android":"levelo://app?vid=7f219175-74c7-4c6d-b3bc-41a4d1991120","ios":"levelo://app?vid=7f219175-74c7-4c6d-b3bc-41a4d1991120"},"vehicle_type_id":"4","last_reported":1704204400,"current_range_meters":23600,"station_id":"ce4bgv92rcd13ifvqcq0","pricing_plan_id":"free"},{"bike_id":"4c370830-1655-41b2-b8b5-245284bde269","system_id":"levelo_inurba_marseille","lat":43.317075,"lon":5.377367,"is_reserved":false,"is_disabled":false,"rental_uris":{"android":"levelo://app?vid=4c370830-1655-41b2-b8b5-245284bde269","ios":"levelo://app?vid=4c370830-1655-41b2-b8b5-245284bde269"},"vehicle_type_id":"4","last_reported":1704204400,"current_range_meters":26000,"station_id":"ce4bgth2rcd13ifvqch0","pricing_plan_id":"free"},{"bike_id":"07602442-7a96-4d7d-8bbe-202fdb427ebb","system_id":"levelo_inurba_marseille","lat":43.317123,"lon":5.37752,"is_reserved":false,"is_disabled":false,"rental_uris":{"android":"levelo://app?vid=07602442-7a96-4d7d-8bbe-202fdb427ebb","ios":"levelo://app?vid=07602442-7a96-4d7d-8bbe-202fdb427ebb"},"vehicle_type_id":"4","last_reported":1704204400,"current_range_meters":30800,"station_id":"ce4bgth2rcd13ifvqch0","pricing_plan_id":"free"},{"bike_id":"b7ff084e-c3f5-4ef2-a806-7f1e557d33c4","system_id":"levelo_inurba_marseille","lat":43.303046,"lon":5.368981,"is_reserved":false,"is_disabled":false,"rental_uris":{"android":"levelo://app?vid=b7ff084e-c3f5-4ef2-a806-7f1e557d33c4","ios":"levelo://app?vid=b7ff084e-c3f5-4ef2-a806-7f1e557d33c4"},"vehicle_type_id":"4","last_reported":1704204400,"current_range_meters":24800,"station_id":"ce4bgqh2rcd13ifvqc5g","pricing_plan_id":"free"},{"bike_id":"76dc47ee-7a34-41c2-b20f-b0463d1a7723","system_id":"levelo_inurba_marseille","lat":43.301939,"lon":5.366286,"is_reserved":false,"is_disabled":false,"rental_uris":{"android":"levelo://app?vid=76dc47ee-7a34-41c2-b20f-b0463d1a7723","ios":"levelo://app?vid=76dc47ee-7a34-41c2-b20f-b0463d1a7723"},"vehicle_type_id":"4","last_reported":1704204400,"current_range_meters":25200,"station_id":"ce4bgrh2rcd13ifvqc8g","pricing_plan_id":"free"},{"bike_id":"e800137d-8bc1-41db-a55b-239d453391c6","system_id":"levelo_inurba_marseille","lat":43.308012,"lon":5.381511,"is_reserved":false,"is_disabled":false,"rental_uris":{"android":"levelo://app?vid=e800137d-8bc1-41db-a55b-239d453391c6","ios":"levelo://app?vid=e800137d-8bc1-41db-a55b-239d453391c6"},"vehicle_type_id":"4","last_reported":1704204400,"current_range_meters":20400,"station_id":"ce4bgt12rcd13ifvqce0","pricing_plan_id":"free"},{"bike_id":"c92d47b1-5eb1-4b43-8fbe-9245908a3bdc","system_id":"levelo_inurba_marseille","lat":43.304606,"lon":5.379026,"is_reserved":false,"is_disabled":false,"rental_uris":{"android":"levelo://app?vid=c92d47b1-5eb1-4b43-8fbe-9245908a3bdc","ios":"levelo://app?vid=c92d47b1-5eb1-4b43-8fbe-9245908a3bdc"},"vehicle_type_id":"4","last_reported":1704204400,"current_range_meters":28800,"station_id":"ce4bgup2rcd13ifvqcn0","pricing_plan_id":"free"},{"bike_id":"c5de6598-575a-4390-80cf-a843d891e46f","system_id":"levelo_inurba_marseille","lat":43.304606,"lon":5.379026,"is_reserved":false,"is_disabled":false,"rental_uris":{"android":"levelo://app?vid=c5de6598-575a-4390-80cf-a843d891e46f","ios":"levelo://app?vid=c5de6598-575a-4390-80cf-a843d891e46f"},"vehicle_type_id":"4","last_reported":1704204400,"current_range_meters":22400,"station_id":"ce4bgup2rcd13ifvqcn0","pricing_plan_id":"free"},{"bike_id":"5377074b-30e2-4d67-825b-9deb3b1dbed3","system_id":"levelo_inurba_marseille","lat":43.304708,"lon":5.379039,"is_reserved":false,"is_disabled":false,"rental_uris":{"android":"levelo://app?vid=5377074b-30e2-4d67-825b-9deb3b1dbed3","ios":"levelo://app?vid=5377074b-30e2-4d67-825b-9deb3b1dbed3"},"vehicle_type_id":"4","last_reported":1704204400,"current_range_meters":10800,"station_id":"","pricing_plan_id":"free"},{"bike_id":"575d9d6a-2088-4e2f-94e1-a2124d0537d8","system_id":"levelo_inurba_marseille","lat":43.3047,"lon":5.37909,"is_reserved":false,"is_disabled":false,"rental_uris":{"android":"levelo://app?vid=575d9d6a-2088-4e2f-94e1-a2124d0537d8","ios":"levelo://app?vid=575d9d6a-2088-4e2f-94e1-a2124d0537d8"},"vehicle_type_id":"4","last_reported":1704204400,"current_range_meters":29600,"station_id":"ce4bgup2rcd13ifvqcn0","pricing_plan_id":"free"},{"bike_id":"fdbbb2f4-51ba-426c-a156-9909f1fa584c","system_id":"levelo_inurba_marseille","lat":43.3046,"lon":5.37902,"is_reserved":false,"is_disabled":false,"rental_uris":{"android":"levelo://app?vid=fdbbb2f4-51ba-426c-a156-9909f1fa584c","ios":"levelo://app?vid=fdbbb2f4-51ba-426c-a156-9909f1fa584c"},"vehicle_type_id":"4","last_reported":1704204400,"current_range_meters":10800,"station_id":"ce4bgup2rcd13ifvqcn0","pricing_plan_id":"free"},{"bike_id":"e8ed4a3b-4438-4018-b3d3-c3d64a945ab6","system_id":"levelo_inurba_marseille","lat":43.304606,"lon":5.379026,"is_reserved":false,"is_disabled":false,"rental_uris":{"android":"levelo://app?vid=e8ed4a3b-4438-4018-b3d3-c3d64a945ab6","ios":"levelo://app?vid=e8ed4a3b-4438-4018-b3d3-c3d64a945ab6"},"vehicle_type_id":"4","last_reported":1704204400,"current_range_meters":27600,"station_id":"ce4bgup2rcd13ifvqcn0","pricing_plan_id":"free"},{"bike_id":"22c522dc-a80b-4206-9f4f-800ae9e694b5","system_id":"levelo_inurba_marseille","lat":43.304606,"lon":5.379026,"is_reserved":false,"is_disabled":false,"rental_uris":{"android":"levelo://app?vid=22c522dc-a80b-4206-9f4f-800ae9e694b5","ios":"levelo://app?vid=22c522dc-a80b-4206-9f4f-800ae9e694b5"},"vehicle_type_id":"4","last_reported":1704204400,"current_range_meters":31200,"station_id":"ce4bgup2rcd13ifvqcn0","pricing_plan_id":"free"},{"bike_id":"0c2b249e-d8f1-47f2-a03b-6b90fd0e2ac1","system_id":"levelo_inurba_marseille","lat":43.304602,"lon":5.379079,"is_reserved":false,"is_disabled":false,"rental_uris":{"android":"levelo://app?vid=0c2b249e-d8f1-47f2-a03b-6b90fd0e2ac1","ios":"levelo://app?vid=0c2b249e-d8f1-47f2-a03b-6b90fd0e2ac1"},"vehicle_type_id":"4","last_reported":1704204400,"current_range_meters":25600,"station_id":"ce4bgup2rcd13ifvqcn0","pricing_plan_id":"free"},{"bike_id":"4c4910a8-b87e-4c13-b856-37ef8615c163","system_id":"levelo_inurba_marseille","lat":43.324844,"lon":5.365666,"is_reserved":false,"is_disabled":false,"rental_uris":{"android":"levelo://app?vid=4c4910a8-b87e-4c13-b856-37ef8615c163","ios":"levelo://app?vid=4c4910a8-b87e-4c13-b856-37ef8615c163"},"vehicle_type_id":"4","last_reported":1704204400,"current_range_meters":18800,"station_id":"ce4bhs12rcd13ifvqhvg","pricing_plan_id":"free"},{"bike_id":"2cc9b7e4-06d1-4c51-a576-c2f751e2f1c3","system_id":"levelo_inurba_marseille","lat":43.30143,"lon":5.37413,"is_reserved":false,"is_disabled":false,"rental_uris":{"android":"levelo://app?vid=2cc9b7e4-06d1-4c51-a576-c2f751e2f1c3","ios":"levelo://app?vid=2cc9b7e4-06d1-4c51-a576-c2f751e2f1c3"},"vehicle_type_id":"4","last_reported":1704204400,"current_range_meters":30800,"station_id":"ce4bgs92rcd13ifvqcc0","pricing_plan_id":"free"},{"bike_id":"17504bde-947a-4cd6-98b3-9a4c66aca99b","system_id":"levelo_inurba_marseille","lat":43.313827,"lon":5.385007,"is_reserved":false,"is_disabled":false,"rental_uris":{"android":"levelo://app?vid=17504bde-947a-4cd6-98b3-9a4c66aca99b","ios":"levelo://app?vid=17504bde-947a-4cd6-98b3-9a4c66aca99b"},"vehicle_type_id":"4","last_reported":1704204400,"current_range_meters":20800,"station_id":"ce4bgt92rcd13ifvqcf0","pricing_plan_id":"free"},{"bike_id":"732844ed-a881-441a-a447-1f232222d6ca","system_id":"levelo_inurba_marseille","lat":43.299243,"lon":5.374807,"is_reserved":false,"is_disabled":false,"rental_uris":{"android":"levelo://app?vid=732844ed-a881-441a-a447-1f232222d6ca","ios":"levelo://app?vid=732844ed-a881-441a-a447-1f232222d6ca"},"vehicle_type_id":"4","last_reported":1704204400,"current_range_meters":14000,"station_id":"ce4bgjh2rcd13ifvqbg0","pricing_plan_id":"free"},{"bike_id":"13e13b1c-f060-4bb3-b7ae-91da76be0f2d","system_id":"levelo_inurba_marseille","lat":43.311722,"lon":5.387247,"is_reserved":false,"is_disabled":false,"rental_uris":{"android":"levelo://app?vid=13e13b1c-f060-4bb3-b7ae-91da76be0f2d","ios":"levelo://app?vid=13e13b1c-f060-4bb3-b7ae-91da76be0f2d"},"vehicle_type_id":"4","last_reported":1704204400,"current_range_meters":18400,"station_id":"ce4bgv12rcd13ifvqcp0","pricing_plan_id":"free"},{"bike_id":"f3bb5cd7-e91f-4293-9bb7-ef35d3e7ac1f","system_id":"levelo_inurba_marseille","lat":43.299243,"lon":5.374807,"is_reserved":false,"is_disabled":false,"rental_uris":{"android":"levelo://app?vid=f3bb5cd7-e91f-4293-9bb7-ef35d3e7ac1f","ios":"levelo://app?vid=f3bb5cd7-e91f-4293-9bb7-ef35d3e7ac1f"},"vehicle_type_id":"4","last_reported":1704204400,"current_range_meters":22800,"station_id":"ce4bgjh2rcd13ifvqbg0","pricing_plan_id":"free"},{"bike_id":"a82325de-7a61-4cd0-a538-662b248657e3","system_id":"levelo_inurba_marseille","lat":43.299243,"lon":5.37481,"is_reserved":false,"is_disabled":false,"rental_uris":{"android":"levelo://app?vid=a82325de-7a61-4cd0-a538-662b248657e3","ios":"levelo://app?vid=a82325de-7a61-4cd0-a538-662b248657e3"},"vehicle_type_id":"4","last_reported":1704204400,"current_range_meters":15600,"station_id":"ce4bgjh2rcd13ifvqbg0","pricing_plan_id":"free"},{"bike_id":"303c5bb8-30f0-4a27-ba6c-7c9d5750dbcf","system_id":"levelo_inurba_marseille","lat":43.311722,"lon":5.387247,"is_reserved":false,"is_disabled":false,"rental_uris":{"android":"levelo://app?vid=303c5bb8-30f0-4a27-ba6c-7c9d5750dbcf","ios":"levelo://app?vid=303c5bb8-30f0-4a27-ba6c-7c9d5750dbcf"},"vehicle_type_id":"4","last_reported":1704204400,"current_range_meters":23600,"station_id":"ce4bgv12rcd13ifvqcp0","pricing_plan_id":"free"},{"bike_id":"9eeb3e1c-793d-4238-af96-069eb387b7d2","system_id":"levelo_inurba_marseille","lat":43.297794,"lon":5.370888,"is_reserved":false,"is_disabled":false,"rental_uris":{"android":"levelo://app?vid=9eeb3e1c-793d-4238-af96-069eb387b7d2","ios":"levelo://app?vid=9eeb3e1c-793d-4238-af96-069eb387b7d2"},"vehicle_type_id":"4","last_reported":1704204400,"current_range_meters":17200,"station_id":"ce4bgop2rcd13ifvqc1g","pricing_plan_id":"free"},{"bike_id":"8752a032-5a63-4551-8b69-590b5f45408e","system_id":"levelo_inurba_marseille","lat":43.322872,"lon":5.382756,"is_reserved":false,"is_disabled":false,"rental_uris":{"android":"levelo://app?vid=8752a032-5a63-4551-8b69-590b5f45408e","ios":"levelo://app?vid=8752a032-5a63-4551-8b69-590b5f45408e"},"vehicle_type_id":"4","last_reported":1704204400,"current_range_meters":23200,"station_id":"ce4bhr12rcd13ifvqhqg","pricing_plan_id":"free"},{"bike_id":"0a99af18-dfe6-49d4-bc90-0038ead01ebf","system_id":"levelo_inurba_marseille","lat":43.328371,"lon":5.366909,"is_reserved":false,"is_disabled":false,"rental_uris":{"android":"levelo://app?vid=0a99af18-dfe6-49d4-bc90-0038ead01ebf","ios":"levelo://app?vid=0a99af18-dfe6-49d4-bc90-0038ead01ebf"},"vehicle_type_id":"4","last_reported":1704204400,"current_range_meters":22800,"station_id":"ce4bhs92rcd13ifvqi0g","pricing_plan_id":"free"},{"bike_id":"370cccf7-c9ba-46c2-819b-c8e8cacc4c21","system_id":"levelo_inurba_marseille","lat":43.3277,"lon":5.37458,"is_reserved":false,"is_disabled":false,"rental_uris":{"android":"levelo://app?vid=370cccf7-c9ba-46c2-819b-c8e8cacc4c21","ios":"levelo://app?vid=370cccf7-c9ba-46c2-819b-c8e8cacc4c21"},"vehicle_type_id":"4","last_reported":1704204400,"current_range_meters":8800,"station_id":"","pricing_plan_id":"free"},{"bike_id":"36989266-de8b-4ad2-9dea-b076aa6a9bfd","system_id":"levelo_inurba_marseille","lat":43.296921,"lon":5.376579,"is_reserved":false,"is_disabled":false,"rental_uris":{"android":"levelo://app?vid=36989266-de8b-4ad2-9dea-b076aa6a9bfd","ios":"levelo://app?vid=36989266-de8b-4ad2-9dea-b076aa6a9bfd"},"vehicle_type_id":"4","last_reported":1704204400,"current_range_meters":2800,"station_id":"ce4bgkh2rcd13ifvqbl0","pricing_plan_id":"free"},{"bike_id":"f2f96cc4-d07e-4508-931f-1214e5579128","system_id":"levelo_inurba_marseille","lat":43.296921,"lon":5.376579,"is_reserved":false,"is_disabled":false,"rental_uris":{"android":"levelo://app?vid=f2f96cc4-d07e-4508-931f-1214e5579128","ios":"levelo://app?vid=f2f96cc4-d07e-4508-931f-1214e5579128"},"vehicle_type_id":"4","last_reported":1704204400,"current_range_meters":26800,"station_id":"ce4bgkh2rcd13ifvqbl0","pricing_plan_id":"free"},{"bike_id":"6fae1fa6-f2a7-492f-9dea-e7c7c22ac1ca","system_id":"levelo_inurba_marseille","lat":43.296935,"lon":5.376544,"is_reserved":false,"is_disabled":false,"rental_uris":{"android":"levelo://app?vid=6fae1fa6-f2a7-492f-9dea-e7c7c22ac1ca","ios":"levelo://app?vid=6fae1fa6-f2a7-492f-9dea-e7c7c22ac1ca"},"vehicle_type_id":"4","last_reported":1704204400,"current_range_meters":28000,"station_id":"ce4bgkh2rcd13ifvqbl0","pricing_plan_id":"free"},{"bike_id":"db3e697c-c091-4c17-8912-f99d56ed02b6","system_id":"levelo_inurba_marseille","lat":43.296921,"lon":5.376579,"is_reserved":false,"is_disabled":false,"rental_uris":{"android":"levelo://app?vid=db3e697c-c091-4c17-8912-f99d56ed02b6","ios":"levelo://app?vid=db3e697c-c091-4c17-8912-f99d56ed02b6"},"vehicle_type_id":"4","last_reported":1704204400,"current_range_meters":7600,"station_id":"ce4bgkh2rcd13ifvqbl0","pricing_plan_id":"free"},{"bike_id":"7c70f539-3ed4-405d-8c0c-283a8359bfc4","system_id":"levelo_inurba_marseille","lat":43.309589,"lon":5.390258,"is_reserved":false,"is_disabled":false,"rental_uris":{"android":"levelo://app?vid=7c70f539-3ed4-405d-8c0c-283a8359bfc4","ios":"levelo://app?vid=7c70f539-3ed4-405d-8c0c-283a8359bfc4"},"vehicle_type_id":"4","last_reported":1704204400,"current_range_meters":8800,"station_id":"ce4bgup2rcd13ifvqco0","pricing_plan_id":"free"},{"bike_id":"04bb135b-cccb-4f31-ac3f-a19ba4a5c0f1","system_id":"levelo_inurba_marseille","lat":43.296921,"lon":5.376579,"is_reserved":false,"is_disabled":false,"rental_uris":{"android":"levelo://app?vid=04bb135b-cccb-4f31-ac3f-a19ba4a5c0f1","ios":"levelo://app?vid=04bb135b-cccb-4f31-ac3f-a19ba4a5c0f1"},"vehicle_type_id":"4","last_reported":1704204400,"current_range_meters":25600,"station_id":"ce4bgkh2rcd13ifvqbl0","pricing_plan_id":"free"},{"bike_id":"6beea299-d870-45cb-b52f-776af0fea606","system_id":"levelo_inurba_marseille","lat":43.299028,"lon":5.381509,"is_reserved":false,"is_disabled":false,"rental_uris":{"android":"levelo://app?vid=6beea299-d870-45cb-b52f-776af0fea606","ios":"levelo://app?vid=6beea299-d870-45cb-b52f-776af0fea606"},"vehicle_type_id":"4","last_reported":1704204400,"current_range_meters":14000,"station_id":"ce4bgj12rcd13ifvqbc0","pricing_plan_id":"free"},{"bike_id":"42e4e9da-77a2-4be1-ad4e-63af299fdec6","system_id":"levelo_inurba_marseille","lat":43.299028,"lon":5.381509,"is_reserved":false,"is_disabled":false,"rental_uris":{"android":"levelo://app?vid=42e4e9da-77a2-4be1-ad4e-63af299fdec6","ios":"levelo://app?vid=42e4e9da-77a2-4be1-ad4e-63af299fdec6"},"vehicle_type_id":"4","last_reported":1704204400,"current_range_meters":25600,"station_id":"ce4bgj12rcd13ifvqbc0","pricing_plan_id":"free"},{"bike_id":"ea89879e-ec49-4891-be08-c4927eac1f7c","system_id":"levelo_inurba_marseille","lat":43.296921,"lon":5.376579,"is_reserved":false,"is_disabled":false,"rental_uris":{"android":"levelo://app?vid=ea89879e-ec49-4891-be08-c4927eac1f7c","ios":"levelo://app?vid=ea89879e-ec49-4891-be08-c4927eac1f7c"},"vehicle_type_id":"4","last_reported":1704204400,"current_range_meters":18400,"station_id":"ce4bgkh2rcd13ifvqbl0","pricing_plan_id":"free"},{"bike_id":"3f2dd212-7137-4dbc-be4c-d0450e7b540a","system_id":"levelo_inurba_marseille","lat":43.296921,"lon":5.376579,"is_reserved":false,"is_disabled":false,"rental_uris":{"android":"levelo://app?vid=3f2dd212-7137-4dbc-be4c-d0450e7b540a","ios":"levelo://app?vid=3f2dd212-7137-4dbc-be4c-d0450e7b540a"},"vehicle_type_id":"4","last_reported":1704204400,"current_range_meters":28800,"station_id":"ce4bgkh2rcd13ifvqbl0","pricing_plan_id":"free"},{"bike_id":"95ac8a79-6c52-4633-9c15-630069dbf666","system_id":"levelo_inurba_marseille","lat":43.299028,"lon":5.381509,"is_reserved":false,"is_disabled":false,"rental_uris":{"android":"levelo://app?vid=95ac8a79-6c52-4633-9c15-630069dbf666","ios":"levelo://app?vid=95ac8a79-6c52-4633-9c15-630069dbf666"},"vehicle_type_id":"4","last_reported":1704204400,"current_range_meters":16800,"station_id":"ce4bgj12rcd13ifvqbc0","pricing_plan_id":"free"},{"bike_id":"934df303-6780-4e74-997f-0f9cc28c8803","system_id":"levelo_inurba_marseille","lat":43.299028,"lon":5.381509,"is_reserved":false,"is_disabled":false,"rental_uris":{"android":"levelo://app?vid=934df303-6780-4e74-997f-0f9cc28c8803","ios":"levelo://app?vid=934df303-6780-4e74-997f-0f9cc28c8803"},"vehicle_type_id":"4","last_reported":1704204400,"current_range_meters":24800,"station_id":"ce4bgj12rcd13ifvqbc0","pricing_plan_id":"free"},{"bike_id":"a0820920-fecb-4e79-847c-a02a752db850","system_id":"levelo_inurba_marseille","lat":43.309589,"lon":5.390258,"is_reserved":false,"is_disabled":false,"rental_uris":{"android":"levelo://app?vid=a0820920-fecb-4e79-847c-a02a752db850","ios":"levelo://app?vid=a0820920-fecb-4e79-847c-a02a752db850"},"vehicle_type_id":"4","last_reported":1704204400,"current_range_meters":26800,"station_id":"ce4bgup2rcd13ifvqco0","pricing_plan_id":"free"},{"bike_id":"35fa5c13-ee6e-45bf-b33b-f22c965eba6e","system_id":"levelo_inurba_marseille","lat":43.317557,"lon":5.390173,"is_reserved":false,"is_disabled":false,"rental_uris":{"android":"levelo://app?vid=35fa5c13-ee6e-45bf-b33b-f22c965eba6e","ios":"levelo://app?vid=35fa5c13-ee6e-45bf-b33b-f22c965eba6e"},"vehicle_type_id":"4","last_reported":1704204400,"current_range_meters":25200,"station_id":"ce4bhqp2rcd13ifvqhng","pricing_plan_id":"free"},{"bike_id":"2a89f780-3738-4730-b9fe-23c708ee8b55","system_id":"levelo_inurba_marseille","lat":43.295748,"lon":5.37522,"is_reserved":false,"is_disabled":false,"rental_uris":{"android":"levelo://app?vid=2a89f780-3738-4730-b9fe-23c708ee8b55","ios":"levelo://app?vid=2a89f780-3738-4730-b9fe-23c708ee8b55"},"vehicle_type_id":"4","last_reported":1704204400,"current_range_meters":17600,"station_id":"ce4bgh92rcd13ifvqb50","pricing_plan_id":"free"},{"bike_id":"d357e776-9cd9-4e90-a3e4-7d37c3db84c2","system_id":"levelo_inurba_marseille","lat":43.298037,"lon":5.381066,"is_reserved":false,"is_disabled":false,"rental_uris":{"android":"levelo://app?vid=d357e776-9cd9-4e90-a3e4-7d37c3db84c2","ios":"levelo://app?vid=d357e776-9cd9-4e90-a3e4-7d37c3db84c2"},"vehicle_type_id":"4","last_reported":1704204400,"current_range_meters":19600,"station_id":"ce4bgip2rcd13ifvqbb0","pricing_plan_id":"free"},{"bike_id":"58db789a-5f68-4fde-b5c3-fe984640b7ab","system_id":"levelo_inurba_marseille","lat":43.298037,"lon":5.381066,"is_reserved":false,"is_disabled":false,"rental_uris":{"android":"levelo://app?vid=58db789a-5f68-4fde-b5c3-fe984640b7ab","ios":"levelo://app?vid=58db789a-5f68-4fde-b5c3-fe984640b7ab"},"vehicle_type_id":"4","last_reported":1704204400,"current_range_meters":16000,"station_id":"ce4bgip2rcd13ifvqbb0","pricing_plan_id":"free"},{"bike_id":"3a9ad704-8c94-4993-9110-39e894518d01","system_id":"levelo_inurba_marseille","lat":43.298037,"lon":5.381066,"is_reserved":false,"is_disabled":false,"rental_uris":{"android":"levelo://app?vid=3a9ad704-8c94-4993-9110-39e894518d01","ios":"levelo://app?vid=3a9ad704-8c94-4993-9110-39e894518d01"},"vehicle_type_id":"4","last_reported":1704204400,"current_range_meters":32000,"station_id":"ce4bgip2rcd13ifvqbb0","pricing_plan_id":"free"},{"bike_id":"9cd9ff9e-0f43-4c94-a914-8c2ed52e48ab","system_id":"levelo_inurba_marseille","lat":43.298037,"lon":5.381066,"is_reserved":false,"is_disabled":false,"rental_uris":{"android":"levelo://app?vid=9cd9ff9e-0f43-4c94-a914-8c2ed52e48ab","ios":"levelo://app?vid=9cd9ff9e-0f43-4c94-a914-8c2ed52e48ab"},"vehicle_type_id":"4","last_reported":1704204400,"current_range_meters":28000,"station_id":"ce4bgip2rcd13ifvqbb0","pricing_plan_id":"free"},{"bike_id":"3b2dd60e-9e72-4c75-885a-eede1525b37c","system_id":"levelo_inurba_marseille","lat":43.29578,"lon":5.37501,"is_reserved":false,"is_disabled":false,"rental_uris":{"android":"levelo://app?vid=3b2dd60e-9e72-4c75-885a-eede1525b37c","ios":"levelo://app?vid=3b2dd60e-9e72-4c75-885a-eede1525b37c"},"vehicle_type_id":"4","last_reported":1704204400,"current_range_meters":29600,"station_id":"ce4bgh92rcd13ifvqb50","pricing_plan_id":"free"},{"bike_id":"b441e5f9-101a-4893-a3f5-c2a16e5abd56","system_id":"levelo_inurba_marseille","lat":43.298037,"lon":5.381066,"is_reserved":false,"is_disabled":false,"rental_uris":{"android":"levelo://app?vid=b441e5f9-101a-4893-a3f5-c2a16e5abd56","ios":"levelo://app?vid=b441e5f9-101a-4893-a3f5-c2a16e5abd56"},"vehicle_type_id":"4","last_reported":1704204400,"current_range_meters":16400,"station_id":"ce4bgip2rcd13ifvqbb0","pricing_plan_id":"free"},{"bike_id":"5d0550a2-7c16-4e45-92f5-5a1166ae998e","system_id":"levelo_inurba_marseille","lat":43.298037,"lon":5.381066,"is_reserved":false,"is_disabled":false,"rental_uris":{"android":"levelo://app?vid=5d0550a2-7c16-4e45-92f5-5a1166ae998e","ios":"levelo://app?vid=5d0550a2-7c16-4e45-92f5-5a1166ae998e"},"vehicle_type_id":"4","last_reported":1704204400,"current_range_meters":20400,"station_id":"ce4bgip2rcd13ifvqbb0","pricing_plan_id":"free"},{"bike_id":"d60802d6-4f47-444a-b234-883690eec05b","system_id":"levelo_inurba_marseille","lat":43.33062,"lon":5.3627,"is_reserved":false,"is_disabled":false,"rental_uris":{"android":"levelo://app?vid=d60802d6-4f47-444a-b234-883690eec05b","ios":"levelo://app?vid=d60802d6-4f47-444a-b234-883690eec05b"},"vehicle_type_id":"4","last_reported":1704204400,"current_range_meters":15600,"station_id":"","pricing_plan_id":"free"},{"bike_id":"59df64fa-c0cb-4cb8-84f6-2891d0f6f15e","system_id":"levelo_inurba_marseille","lat":43.304278,"lon":5.388868,"is_reserved":false,"is_disabled":false,"rental_uris":{"android":"levelo://app?vid=59df64fa-c0cb-4cb8-84f6-2891d0f6f15e","ios":"levelo://app?vid=59df64fa-c0cb-4cb8-84f6-2891d0f6f15e"},"vehicle_type_id":"4","last_reported":1704204400,"current_range_meters":30000,"station_id":"ce4bgk12rcd13ifvqbi0","pricing_plan_id":"free"},{"bike_id":"74d1a84f-730a-444b-9652-104b6fafa291","system_id":"levelo_inurba_marseille","lat":43.296277,"lon":5.377108,"is_reserved":false,"is_disabled":false,"rental_uris":{"android":"levelo://app?vid=74d1a84f-730a-444b-9652-104b6fafa291","ios":"levelo://app?vid=74d1a84f-730a-444b-9652-104b6fafa291"},"vehicle_type_id":"4","last_reported":1704204400,"current_range_meters":9600,"station_id":"ce4bgi92rcd13ifvqb90","pricing_plan_id":"free"},{"bike_id":"5cb74384-fd98-46eb-9706-a2fd7c5e7161","system_id":"levelo_inurba_marseille","lat":43.29618,"lon":5.37727,"is_reserved":false,"is_disabled":false,"rental_uris":{"android":"levelo://app?vid=5cb74384-fd98-46eb-9706-a2fd7c5e7161","ios":"levelo://app?vid=5cb74384-fd98-46eb-9706-a2fd7c5e7161"},"vehicle_type_id":"4","last_reported":1704204400,"current_range_meters":23600,"station_id":"ce4bgi92rcd13ifvqb90","pricing_plan_id":"free"},{"bike_id":"820c8f1f-f6c1-48bc-be07-64440d5a8f8e","system_id":"levelo_inurba_marseille","lat":43.29617,"lon":5.37728,"is_reserved":false,"is_disabled":false,"rental_uris":{"android":"levelo://app?vid=820c8f1f-f6c1-48bc-be07-64440d5a8f8e","ios":"levelo://app?vid=820c8f1f-f6c1-48bc-be07-64440d5a8f8e"},"vehicle_type_id":"4","last_reported":1704204400,"current_range_meters":28000,"station_id":"ce4bgi92rcd13ifvqb90","pricing_plan_id":"free"},{"bike_id":"f67b4ce4-0c9c-4cd2-b119-b472dfee5204","system_id":"levelo_inurba_marseille","lat":43.29538,"lon":5.375,"is_reserved":false,"is_disabled":false,"rental_uris":{"android":"levelo://app?vid=f67b4ce4-0c9c-4cd2-b119-b472dfee5204","ios":"levelo://app?vid=f67b4ce4-0c9c-4cd2-b119-b472dfee5204"},"vehicle_type_id":"4","last_reported":1704204400,"current_range_meters":22000,"station_id":"ce4bgi92rcd13ifvqb90","pricing_plan_id":"free"},{"bike_id":"7119845d-00aa-4d9f-be8c-fc97d41f1380","system_id":"levelo_inurba_marseille","lat":43.297594,"lon":5.381134,"is_reserved":false,"is_disabled":false,"rental_uris":{"android":"levelo://app?vid=7119845d-00aa-4d9f-be8c-fc97d41f1380","ios":"levelo://app?vid=7119845d-00aa-4d9f-be8c-fc97d41f1380"},"vehicle_type_id":"4","last_reported":1704204400,"current_range_meters":4000,"station_id":"ce4bgip2rcd13ifvqbb0","pricing_plan_id":"free"},{"bike_id":"9a2471a3-a7cd-4f76-be1e-dc0c2fbf1cd1","system_id":"levelo_inurba_marseille","lat":43.299724,"lon":5.384848,"is_reserved":false,"is_disabled":false,"rental_uris":{"android":"levelo://app?vid=9a2471a3-a7cd-4f76-be1e-dc0c2fbf1cd1","ios":"levelo://app?vid=9a2471a3-a7cd-4f76-be1e-dc0c2fbf1cd1"},"vehicle_type_id":"4","last_reported":1704204400,"current_range_meters":23600,"station_id":"ce4bgj92rcd13ifvqbd0","pricing_plan_id":"free"},{"bike_id":"27283545-7031-4100-a152-8597ebbf8a43","system_id":"levelo_inurba_marseille","lat":43.29601,"lon":5.381084,"is_reserved":false,"is_disabled":false,"rental_uris":{"android":"levelo://app?vid=27283545-7031-4100-a152-8597ebbf8a43","ios":"levelo://app?vid=27283545-7031-4100-a152-8597ebbf8a43"},"vehicle_type_id":"4","last_reported":1704204400,"current_range_meters":25600,"station_id":"ce4bgl12rcd13ifvqbo0","pricing_plan_id":"free"},{"bike_id":"70717f1a-8247-4672-b7a3-4cf1a2cf0f5d","system_id":"levelo_inurba_marseille","lat":43.29601,"lon":5.381084,"is_reserved":false,"is_disabled":false,"rental_uris":{"android":"levelo://app?vid=70717f1a-8247-4672-b7a3-4cf1a2cf0f5d","ios":"levelo://app?vid=70717f1a-8247-4672-b7a3-4cf1a2cf0f5d"},"vehicle_type_id":"4","last_reported":1704204400,"current_range_meters":22400,"station_id":"ce4bgl12rcd13ifvqbo0","pricing_plan_id":"free"},{"bike_id":"fbe6b379-6851-4cb5-af5e-b86c66f1f3bf","system_id":"levelo_inurba_marseille","lat":43.292749,"lon":5.368402,"is_reserved":false,"is_disabled":false,"rental_uris":{"android":"levelo://app?vid=fbe6b379-6851-4cb5-af5e-b86c66f1f3bf","ios":"levelo://app?vid=fbe6b379-6851-4cb5-af5e-b86c66f1f3bf"},"vehicle_type_id":"4","last_reported":1704204400,"current_range_meters":20800,"station_id":"ce4bhbp2rcd13ifvqesg","pricing_plan_id":"free"},{"bike_id":"acc97d99-9558-46dc-8d6e-60312041e470","system_id":"levelo_inurba_marseille","lat":43.293249,"lon":5.371578,"is_reserved":false,"is_disabled":false,"rental_uris":{"android":"levelo://app?vid=acc97d99-9558-46dc-8d6e-60312041e470","ios":"levelo://app?vid=acc97d99-9558-46dc-8d6e-60312041e470"},"vehicle_type_id":"4","last_reported":1704204400,"current_range_meters":21200,"station_id":"ce4bgh92rcd13ifvqb40","pricing_plan_id":"free"},{"bike_id":"bd8e1d8e-3962-4e29-940d-48ef9eef38f0","system_id":"levelo_inurba_marseille","lat":43.293009,"lon":5.374584,"is_reserved":false,"is_disabled":false,"rental_uris":{"android":"levelo://app?vid=bd8e1d8e-3962-4e29-940d-48ef9eef38f0","ios":"levelo://app?vid=bd8e1d8e-3962-4e29-940d-48ef9eef38f0"},"vehicle_type_id":"4","last_reported":1704204400,"current_range_meters":18000,"station_id":"ce4bgi12rcd13ifvqb70","pricing_plan_id":"free"},{"bike_id":"612dc036-d194-4a64-9fbe-b570e6cea558","system_id":"levelo_inurba_marseille","lat":43.2936,"lon":5.37835,"is_reserved":false,"is_disabled":false,"rental_uris":{"android":"levelo://app?vid=612dc036-d194-4a64-9fbe-b570e6cea558","ios":"levelo://app?vid=612dc036-d194-4a64-9fbe-b570e6cea558"},"vehicle_type_id":"4","last_reported":1704204400,"current_range_meters":22000,"station_id":"ce4bgjh2rcd13ifvqbf0","pricing_plan_id":"free"},{"bike_id":"3ee781e2-b087-42e2-8f43-52c66b3338fe","system_id":"levelo_inurba_marseille","lat":43.2936,"lon":5.37835,"is_reserved":false,"is_disabled":false,"rental_uris":{"android":"levelo://app?vid=3ee781e2-b087-42e2-8f43-52c66b3338fe","ios":"levelo://app?vid=3ee781e2-b087-42e2-8f43-52c66b3338fe"},"vehicle_type_id":"4","last_reported":1704204400,"current_range_meters":9600,"station_id":"ce4bgjh2rcd13ifvqbf0","pricing_plan_id":"free"},{"bike_id":"1a1481de-040b-486d-8984-45afdbe85ebb","system_id":"levelo_inurba_marseille","lat":43.29253,"lon":5.3739,"is_reserved":false,"is_disabled":false,"rental_uris":{"android":"levelo://app?vid=1a1481de-040b-486d-8984-45afdbe85ebb","ios":"levelo://app?vid=1a1481de-040b-486d-8984-45afdbe85ebb"},"vehicle_type_id":"4","last_reported":1704204400,"current_range_meters":16000,"station_id":"","pricing_plan_id":"free"},{"bike_id":"f4cec07f-16dd-4612-82b0-9b0b850dded3","system_id":"levelo_inurba_marseille","lat":43.29263,"lon":5.37623,"is_reserved":false,"is_disabled":false,"rental_uris":{"android":"levelo://app?vid=f4cec07f-16dd-4612-82b0-9b0b850dded3","ios":"levelo://app?vid=f4cec07f-16dd-4612-82b0-9b0b850dded3"},"vehicle_type_id":"4","last_reported":1704204400,"current_range_meters":21600,"station_id":"ce4bgi12rcd13ifvqb70","pricing_plan_id":"free"},{"bike_id":"b867ee5d-18ed-4142-b5f4-c3f22497a1ef","system_id":"levelo_inurba_marseille","lat":43.291671,"lon":5.371575,"is_reserved":false,"is_disabled":false,"rental_uris":{"android":"levelo://app?vid=b867ee5d-18ed-4142-b5f4-c3f22497a1ef","ios":"levelo://app?vid=b867ee5d-18ed-4142-b5f4-c3f22497a1ef"},"vehicle_type_id":"4","last_reported":1704204400,"current_range_meters":28400,"station_id":"ce4bha92rcd13ifvqeh0","pricing_plan_id":"free"},{"bike_id":"e9727f4e-b2e9-4344-8d95-fefccd64ec6a","system_id":"levelo_inurba_marseille","lat":43.291994,"lon":5.357886,"is_reserved":false,"is_disabled":false,"rental_uris":{"android":"levelo://app?vid=e9727f4e-b2e9-4344-8d95-fefccd64ec6a","ios":"levelo://app?vid=e9727f4e-b2e9-4344-8d95-fefccd64ec6a"},"vehicle_type_id":"4","last_reported":1704204400,"current_range_meters":3600,"station_id":"ce4bhb12rcd13ifvqel0","pricing_plan_id":"free"},{"bike_id":"0ac49266-7d7d-4993-9a4e-fdd968f87ddf","system_id":"levelo_inurba_marseille","lat":43.309047,"lon":5.396551,"is_reserved":false,"is_disabled":false,"rental_uris":{"android":"levelo://app?vid=0ac49266-7d7d-4993-9a4e-fdd968f87ddf","ios":"levelo://app?vid=0ac49266-7d7d-4993-9a4e-fdd968f87ddf"},"vehicle_type_id":"4","last_reported":1704204400,"current_range_meters":11200,"station_id":"ce4bh012rcd13ifvqcv0","pricing_plan_id":"free"},{"bike_id":"1f4c3be8-4d4e-41bf-ae17-4ef3d2a188a3","system_id":"levelo_inurba_marseille","lat":43.309047,"lon":5.396551,"is_reserved":false,"is_disabled":false,"rental_uris":{"android":"levelo://app?vid=1f4c3be8-4d4e-41bf-ae17-4ef3d2a188a3","ios":"levelo://app?vid=1f4c3be8-4d4e-41bf-ae17-4ef3d2a188a3"},"vehicle_type_id":"4","last_reported":1704204400,"current_range_meters":3200,"station_id":"ce4bh012rcd13ifvqcv0","pricing_plan_id":"free"},{"bike_id":"e13c6992-34a1-448d-82ad-1f142bd50f7f","system_id":"levelo_inurba_marseille","lat":43.290631,"lon":5.359244,"is_reserved":false,"is_disabled":false,"rental_uris":{"android":"levelo://app?vid=e13c6992-34a1-448d-82ad-1f142bd50f7f","ios":"levelo://app?vid=e13c6992-34a1-448d-82ad-1f142bd50f7f"},"vehicle_type_id":"4","last_reported":1704204400,"current_range_meters":20000,"station_id":"ce4bha92rcd13ifvqeg0","pricing_plan_id":"free"},{"bike_id":"b0f0513b-d8e7-4ec1-a349-21e9f82bf0b1","system_id":"levelo_inurba_marseille","lat":43.290327,"lon":5.375711,"is_reserved":false,"is_disabled":false,"rental_uris":{"android":"levelo://app?vid=b0f0513b-d8e7-4ec1-a349-21e9f82bf0b1","ios":"levelo://app?vid=b0f0513b-d8e7-4ec1-a349-21e9f82bf0b1"},"vehicle_type_id":"4","last_reported":1704204400,"current_range_meters":19600,"station_id":"ce4bh692rcd13ifvqe90","pricing_plan_id":"free"},{"bike_id":"0ad44e0c-43e7-494c-826d-289a2fbbd48b","system_id":"levelo_inurba_marseille","lat":43.290327,"lon":5.375711,"is_reserved":false,"is_disabled":false,"rental_uris":{"android":"levelo://app?vid=0ad44e0c-43e7-494c-826d-289a2fbbd48b","ios":"levelo://app?vid=0ad44e0c-43e7-494c-826d-289a2fbbd48b"},"vehicle_type_id":"4","last_reported":1704204400,"current_range_meters":30400,"station_id":"ce4bh692rcd13ifvqe90","pricing_plan_id":"free"},{"bike_id":"5d8966b2-3f51-44c0-bd3f-d5620129451c","system_id":"levelo_inurba_marseille","lat":43.292644,"lon":5.384257,"is_reserved":false,"is_disabled":false,"rental_uris":{"android":"levelo://app?vid=5d8966b2-3f51-44c0-bd3f-d5620129451c","ios":"levelo://app?vid=5d8966b2-3f51-44c0-bd3f-d5620129451c"},"vehicle_type_id":"4","last_reported":1704204400,"current_range_meters":19200,"station_id":"ce4bh692rcd13ifvqea0","pricing_plan_id":"free"},{"bike_id":"0b0bd529-ae40-4b91-a9f1-4533dcd9b635","system_id":"levelo_inurba_marseille","lat":43.290104,"lon":5.356111,"is_reserved":false,"is_disabled":false,"rental_uris":{"android":"levelo://app?vid=0b0bd529-ae40-4b91-a9f1-4533dcd9b635","ios":"levelo://app?vid=0b0bd529-ae40-4b91-a9f1-4533dcd9b635"},"vehicle_type_id":"4","last_reported":1704204400,"current_range_meters":6800,"station_id":"ce4bhb92rcd13ifvqen0","pricing_plan_id":"free"},{"bike_id":"87eb9d67-0c4f-45fe-b9d8-759c0f51d99e","system_id":"levelo_inurba_marseille","lat":43.290104,"lon":5.356111,"is_reserved":false,"is_disabled":false,"rental_uris":{"android":"levelo://app?vid=87eb9d67-0c4f-45fe-b9d8-759c0f51d99e","ios":"levelo://app?vid=87eb9d67-0c4f-45fe-b9d8-759c0f51d99e"},"vehicle_type_id":"4","last_reported":1704204400,"current_range_meters":18000,"station_id":"ce4bhb92rcd13ifvqen0","pricing_plan_id":"free"},{"bike_id":"ae5b5b57-653e-40b4-bd40-ef32133abe07","system_id":"levelo_inurba_marseille","lat":43.290995,"lon":5.381361,"is_reserved":false,"is_disabled":false,"rental_uris":{"android":"levelo://app?vid=ae5b5b57-653e-40b4-bd40-ef32133abe07","ios":"levelo://app?vid=ae5b5b57-653e-40b4-bd40-ef32133abe07"},"vehicle_type_id":"4","last_reported":1704204400,"current_range_meters":23200,"station_id":"ce4bh512rcd13ifvqe2g","pricing_plan_id":"free"},{"bike_id":"ced06cf6-abb0-44fb-bfa3-85a8baeba05d","system_id":"levelo_inurba_marseille","lat":43.290995,"lon":5.381361,"is_reserved":false,"is_disabled":false,"rental_uris":{"android":"levelo://app?vid=ced06cf6-abb0-44fb-bfa3-85a8baeba05d","ios":"levelo://app?vid=ced06cf6-abb0-44fb-bfa3-85a8baeba05d"},"vehicle_type_id":"4","last_reported":1704204400,"current_range_meters":26000,"station_id":"ce4bh512rcd13ifvqe2g","pricing_plan_id":"free"},{"bike_id":"ce54682a-1cd8-435c-918b-70e32572784f","system_id":"levelo_inurba_marseille","lat":43.290995,"lon":5.381361,"is_reserved":false,"is_disabled":false,"rental_uris":{"android":"levelo://app?vid=ce54682a-1cd8-435c-918b-70e32572784f","ios":"levelo://app?vid=ce54682a-1cd8-435c-918b-70e32572784f"},"vehicle_type_id":"4","last_reported":1704204400,"current_range_meters":28800,"station_id":"ce4bh512rcd13ifvqe2g","pricing_plan_id":"free"},{"bike_id":"5cd2adfb-e82b-4471-adef-fdf7f7b8e9f5","system_id":"levelo_inurba_marseille","lat":43.297815,"lon":5.393548,"is_reserved":false,"is_disabled":false,"rental_uris":{"android":"levelo://app?vid=5cd2adfb-e82b-4471-adef-fdf7f7b8e9f5","ios":"levelo://app?vid=5cd2adfb-e82b-4471-adef-fdf7f7b8e9f5"},"vehicle_type_id":"4","last_reported":1704204400,"current_range_meters":22800,"station_id":"chh1huq6cuj3fo74tm60","pricing_plan_id":"free"},{"bike_id":"b89c734d-574a-46e5-b7c2-e9f8d779a3ba","system_id":"levelo_inurba_marseille","lat":43.289741,"lon":5.378306,"is_reserved":false,"is_disabled":false,"rental_uris":{"android":"levelo://app?vid=b89c734d-574a-46e5-b7c2-e9f8d779a3ba","ios":"levelo://app?vid=b89c734d-574a-46e5-b7c2-e9f8d779a3ba"},"vehicle_type_id":"4","last_reported":1704204400,"current_range_meters":17600,"station_id":"ce4bh9p2rcd13ifvqed0","pricing_plan_id":"free"},{"bike_id":"26fcc41f-7ec0-44af-9f05-97eaa302e035","system_id":"levelo_inurba_marseille","lat":43.2901,"lon":5.381269,"is_reserved":false,"is_disabled":false,"rental_uris":{"android":"levelo://app?vid=26fcc41f-7ec0-44af-9f05-97eaa302e035","ios":"levelo://app?vid=26fcc41f-7ec0-44af-9f05-97eaa302e035"},"vehicle_type_id":"4","last_reported":1704204400,"current_range_meters":20800,"station_id":"ce4bh4p2rcd13ifvqe1g","pricing_plan_id":"free"},{"bike_id":"33fd0f60-53fb-4c49-9d10-ea1624516de6","system_id":"levelo_inurba_marseille","lat":43.290094,"lon":5.381264,"is_reserved":false,"is_disabled":false,"rental_uris":{"android":"levelo://app?vid=33fd0f60-53fb-4c49-9d10-ea1624516de6","ios":"levelo://app?vid=33fd0f60-53fb-4c49-9d10-ea1624516de6"},"vehicle_type_id":"4","last_reported":1704204400,"current_range_meters":19200,"station_id":"ce4bh4p2rcd13ifvqe1g","pricing_plan_id":"free"},{"bike_id":"dc04173c-0dd1-4399-9a19-ab9853c742c0","system_id":"levelo_inurba_marseille","lat":43.312609,"lon":5.401662,"is_reserved":false,"is_disabled":false,"rental_uris":{"android":"levelo://app?vid=dc04173c-0dd1-4399-9a19-ab9853c742c0","ios":"levelo://app?vid=dc04173c-0dd1-4399-9a19-ab9853c742c0"},"vehicle_type_id":"4","last_reported":1704204400,"current_range_meters":23200,"station_id":"ce4bh092rcd13ifvqd30","pricing_plan_id":"free"},{"bike_id":"1c86c5a0-cffc-4faa-94a1-6cf5f93206ea","system_id":"levelo_inurba_marseille","lat":43.337605,"lon":5.374572,"is_reserved":false,"is_disabled":false,"rental_uris":{"android":"levelo://app?vid=1c86c5a0-cffc-4faa-94a1-6cf5f93206ea","ios":"levelo://app?vid=1c86c5a0-cffc-4faa-94a1-6cf5f93206ea"},"vehicle_type_id":"4","last_reported":1704204400,"current_range_meters":6400,"station_id":"","pricing_plan_id":"free"},{"bike_id":"7bff5d96-c9da-413f-9076-7fbeec946e12","system_id":"levelo_inurba_marseille","lat":43.33763,"lon":5.37464,"is_reserved":false,"is_disabled":false,"rental_uris":{"android":"levelo://app?vid=7bff5d96-c9da-413f-9076-7fbeec946e12","ios":"levelo://app?vid=7bff5d96-c9da-413f-9076-7fbeec946e12"},"vehicle_type_id":"4","last_reported":1704204400,"current_range_meters":26800,"station_id":"","pricing_plan_id":"free"},{"bike_id":"0fbcba89-d3a6-40d2-90bf-8ffea7187276","system_id":"levelo_inurba_marseille","lat":43.337698,"lon":5.374298,"is_reserved":false,"is_disabled":false,"rental_uris":{"android":"levelo://app?vid=0fbcba89-d3a6-40d2-90bf-8ffea7187276","ios":"levelo://app?vid=0fbcba89-d3a6-40d2-90bf-8ffea7187276"},"vehicle_type_id":"4","last_reported":1704204400,"current_range_meters":26800,"station_id":"","pricing_plan_id":"free"},{"bike_id":"ed40a5cb-0854-435c-b417-fa044e72c8df","system_id":"levelo_inurba_marseille","lat":43.337678,"lon":5.374562,"is_reserved":false,"is_disabled":false,"rental_uris":{"android":"levelo://app?vid=ed40a5cb-0854-435c-b417-fa044e72c8df","ios":"levelo://app?vid=ed40a5cb-0854-435c-b417-fa044e72c8df"},"vehicle_type_id":"4","last_reported":1704204400,"current_range_meters":6000,"station_id":"","pricing_plan_id":"free"},{"bike_id":"46bcbd8a-0b5f-4b89-aac9-34812a85cd49","system_id":"levelo_inurba_marseille","lat":43.337681,"lon":5.374847,"is_reserved":false,"is_disabled":false,"rental_uris":{"android":"levelo://app?vid=46bcbd8a-0b5f-4b89-aac9-34812a85cd49","ios":"levelo://app?vid=46bcbd8a-0b5f-4b89-aac9-34812a85cd49"},"vehicle_type_id":"4","last_reported":1704204400,"current_range_meters":14800,"station_id":"","pricing_plan_id":"free"},{"bike_id":"c7b84929-b4e6-451e-81d4-26c2964e0c40","system_id":"levelo_inurba_marseille","lat":43.33784,"lon":5.37424,"is_reserved":false,"is_disabled":false,"rental_uris":{"android":"levelo://app?vid=c7b84929-b4e6-451e-81d4-26c2964e0c40","ios":"levelo://app?vid=c7b84929-b4e6-451e-81d4-26c2964e0c40"},"vehicle_type_id":"4","last_reported":1704204400,"current_range_meters":30000,"station_id":"","pricing_plan_id":"free"},{"bike_id":"48648c20-0baa-4183-a292-a62cef42eb01","system_id":"levelo_inurba_marseille","lat":43.28727,"lon":5.36078,"is_reserved":false,"is_disabled":false,"rental_uris":{"android":"levelo://app?vid=48648c20-0baa-4183-a292-a62cef42eb01","ios":"levelo://app?vid=48648c20-0baa-4183-a292-a62cef42eb01"},"vehicle_type_id":"4","last_reported":1704204400,"current_range_meters":20000,"station_id":"cki0cbj6b192h4jlfktg","pricing_plan_id":"free"},{"bike_id":"dc820d4e-ceef-4ec4-b8a7-0d4f7b2eca38","system_id":"levelo_inurba_marseille","lat":43.2989,"lon":5.39734,"is_reserved":false,"is_disabled":false,"rental_uris":{"android":"levelo://app?vid=dc820d4e-ceef-4ec4-b8a7-0d4f7b2eca38","ios":"levelo://app?vid=dc820d4e-ceef-4ec4-b8a7-0d4f7b2eca38"},"vehicle_type_id":"4","last_reported":1704204400,"current_range_meters":4400,"station_id":"ce4bh0h2rcd13ifvqd50","pricing_plan_id":"free"},{"bike_id":"813fe313-9c4c-406c-a1f4-f633c07a42fe","system_id":"levelo_inurba_marseille","lat":43.286961,"lon":5.373785,"is_reserved":false,"is_disabled":false,"rental_uris":{"android":"levelo://app?vid=813fe313-9c4c-406c-a1f4-f633c07a42fe","ios":"levelo://app?vid=813fe313-9c4c-406c-a1f4-f633c07a42fe"},"vehicle_type_id":"4","last_reported":1704204400,"current_range_meters":0,"station_id":"ce4bh3p2rcd13ifvqdq0","pricing_plan_id":"free"},{"bike_id":"9005b660-2432-4cb8-8bba-1c746f3e46c7","system_id":"levelo_inurba_marseille","lat":43.298681,"lon":5.397225,"is_reserved":false,"is_disabled":false,"rental_uris":{"android":"levelo://app?vid=9005b660-2432-4cb8-8bba-1c746f3e46c7","ios":"levelo://app?vid=9005b660-2432-4cb8-8bba-1c746f3e46c7"},"vehicle_type_id":"4","last_reported":1704204400,"current_range_meters":15200,"station_id":"ce4bh0h2rcd13ifvqd50","pricing_plan_id":"free"},{"bike_id":"8b4729c5-a77e-4628-9bb9-5917925b87b0","system_id":"levelo_inurba_marseille","lat":43.298681,"lon":5.397225,"is_reserved":false,"is_disabled":false,"rental_uris":{"android":"levelo://app?vid=8b4729c5-a77e-4628-9bb9-5917925b87b0","ios":"levelo://app?vid=8b4729c5-a77e-4628-9bb9-5917925b87b0"},"vehicle_type_id":"4","last_reported":1704204400,"current_range_meters":15600,"station_id":"ce4bh0h2rcd13ifvqd50","pricing_plan_id":"free"},{"bike_id":"bee34aec-2d4b-4c84-b9b3-3f715e350c52","system_id":"levelo_inurba_marseille","lat":43.295194,"lon":5.39397,"is_reserved":false,"is_disabled":false,"rental_uris":{"android":"levelo://app?vid=bee34aec-2d4b-4c84-b9b3-3f715e350c52","ios":"levelo://app?vid=bee34aec-2d4b-4c84-b9b3-3f715e350c52"},"vehicle_type_id":"4","last_reported":1704204400,"current_range_meters":17200,"station_id":"ce4bh292rcd13ifvqdf0","pricing_plan_id":"free"},{"bike_id":"9eea5210-5028-4639-82c5-9d970f015239","system_id":"levelo_inurba_marseille","lat":43.302759,"lon":5.400793,"is_reserved":false,"is_disabled":false,"rental_uris":{"android":"levelo://app?vid=9eea5210-5028-4639-82c5-9d970f015239","ios":"levelo://app?vid=9eea5210-5028-4639-82c5-9d970f015239"},"vehicle_type_id":"4","last_reported":1704204400,"current_range_meters":30000,"station_id":"ce4bgvh2rcd13ifvqcs0","pricing_plan_id":"free"},{"bike_id":"083753fd-4022-4fac-a06e-4bd2a91229b3","system_id":"levelo_inurba_marseille","lat":43.286039,"lon":5.370679,"is_reserved":false,"is_disabled":false,"rental_uris":{"android":"levelo://app?vid=083753fd-4022-4fac-a06e-4bd2a91229b3","ios":"levelo://app?vid=083753fd-4022-4fac-a06e-4bd2a91229b3"},"vehicle_type_id":"4","last_reported":1704204400,"current_range_meters":6000,"station_id":"ce4bht12rcd13ifvqi60","pricing_plan_id":"free"},{"bike_id":"f04c0197-8bb7-4d15-ac5b-e74e1042e935","system_id":"levelo_inurba_marseille","lat":43.286039,"lon":5.370679,"is_reserved":false,"is_disabled":false,"rental_uris":{"android":"levelo://app?vid=f04c0197-8bb7-4d15-ac5b-e74e1042e935","ios":"levelo://app?vid=f04c0197-8bb7-4d15-ac5b-e74e1042e935"},"vehicle_type_id":"4","last_reported":1704204400,"current_range_meters":28400,"station_id":"ce4bht12rcd13ifvqi60","pricing_plan_id":"free"},{"bike_id":"40579999-f28a-4f53-8fc1-32606a609e63","system_id":"levelo_inurba_marseille","lat":43.286039,"lon":5.370679,"is_reserved":false,"is_disabled":false,"rental_uris":{"android":"levelo://app?vid=40579999-f28a-4f53-8fc1-32606a609e63","ios":"levelo://app?vid=40579999-f28a-4f53-8fc1-32606a609e63"},"vehicle_type_id":"4","last_reported":1704204400,"current_range_meters":31200,"station_id":"ce4bht12rcd13ifvqi60","pricing_plan_id":"free"},{"bike_id":"102b8121-ee53-408e-8829-c9b9fc6aef90","system_id":"levelo_inurba_marseille","lat":43.286039,"lon":5.370679,"is_reserved":false,"is_disabled":false,"rental_uris":{"android":"levelo://app?vid=102b8121-ee53-408e-8829-c9b9fc6aef90","ios":"levelo://app?vid=102b8121-ee53-408e-8829-c9b9fc6aef90"},"vehicle_type_id":"4","last_reported":1704204400,"current_range_meters":13600,"station_id":"ce4bht12rcd13ifvqi60","pricing_plan_id":"free"},{"bike_id":"5ba095be-c22e-46ae-acdf-2bd533150f28","system_id":"levelo_inurba_marseille","lat":43.287184,"lon":5.37937,"is_reserved":false,"is_disabled":false,"rental_uris":{"android":"levelo://app?vid=5ba095be-c22e-46ae-acdf-2bd533150f28","ios":"levelo://app?vid=5ba095be-c22e-46ae-acdf-2bd533150f28"},"vehicle_type_id":"4","last_reported":1704204400,"current_range_meters":26400,"station_id":"ce4bh9p2rcd13ifvqec0","pricing_plan_id":"free"},{"bike_id":"3701fb5d-30df-4581-b5cb-927b79af4882","system_id":"levelo_inurba_marseille","lat":43.287185,"lon":5.379373,"is_reserved":false,"is_disabled":false,"rental_uris":{"android":"levelo://app?vid=3701fb5d-30df-4581-b5cb-927b79af4882","ios":"levelo://app?vid=3701fb5d-30df-4581-b5cb-927b79af4882"},"vehicle_type_id":"4","last_reported":1704204400,"current_range_meters":17200,"station_id":"ce4bh9p2rcd13ifvqec0","pricing_plan_id":"free"},{"bike_id":"e88245d1-2fa8-4cd3-bddc-b6e35e52c439","system_id":"levelo_inurba_marseille","lat":43.31689,"lon":5.40464,"is_reserved":false,"is_disabled":false,"rental_uris":{"android":"levelo://app?vid=e88245d1-2fa8-4cd3-bddc-b6e35e52c439","ios":"levelo://app?vid=e88245d1-2fa8-4cd3-bddc-b6e35e52c439"},"vehicle_type_id":"4","last_reported":1704204400,"current_range_meters":19200,"station_id":"ce4bh012rcd13ifvqd00","pricing_plan_id":"free"},{"bike_id":"9b0c9e9e-977c-43ca-8676-217c423ef706","system_id":"levelo_inurba_marseille","lat":43.31692,"lon":5.40464,"is_reserved":false,"is_disabled":false,"rental_uris":{"android":"levelo://app?vid=9b0c9e9e-977c-43ca-8676-217c423ef706","ios":"levelo://app?vid=9b0c9e9e-977c-43ca-8676-217c423ef706"},"vehicle_type_id":"4","last_reported":1704204400,"current_range_meters":28000,"station_id":"ce4bh012rcd13ifvqd00","pricing_plan_id":"free"},{"bike_id":"775a5eb1-8527-4b7a-856d-9cc4ec232a6b","system_id":"levelo_inurba_marseille","lat":43.31684,"lon":5.40468,"is_reserved":false,"is_disabled":false,"rental_uris":{"android":"levelo://app?vid=775a5eb1-8527-4b7a-856d-9cc4ec232a6b","ios":"levelo://app?vid=775a5eb1-8527-4b7a-856d-9cc4ec232a6b"},"vehicle_type_id":"4","last_reported":1704204400,"current_range_meters":23200,"station_id":"ce4bh012rcd13ifvqd00","pricing_plan_id":"free"},{"bike_id":"fe9d9231-9266-42cd-b245-ed8ea3c0bdbb","system_id":"levelo_inurba_marseille","lat":43.31689,"lon":5.4047,"is_reserved":false,"is_disabled":false,"rental_uris":{"android":"levelo://app?vid=fe9d9231-9266-42cd-b245-ed8ea3c0bdbb","ios":"levelo://app?vid=fe9d9231-9266-42cd-b245-ed8ea3c0bdbb"},"vehicle_type_id":"4","last_reported":1704204400,"current_range_meters":19600,"station_id":"ce4bh012rcd13ifvqd00","pricing_plan_id":"free"},{"bike_id":"d2f95539-63f0-42a2-8998-f3f609c9cc11","system_id":"levelo_inurba_marseille","lat":43.31686,"lon":5.40474,"is_reserved":false,"is_disabled":false,"rental_uris":{"android":"levelo://app?vid=d2f95539-63f0-42a2-8998-f3f609c9cc11","ios":"levelo://app?vid=d2f95539-63f0-42a2-8998-f3f609c9cc11"},"vehicle_type_id":"4","last_reported":1704204400,"current_range_meters":25600,"station_id":"ce4bh012rcd13ifvqd00","pricing_plan_id":"free"},{"bike_id":"8cd894e2-8c83-4e85-8692-98dc08192e48","system_id":"levelo_inurba_marseille","lat":43.316821,"lon":5.404737,"is_reserved":false,"is_disabled":false,"rental_uris":{"android":"levelo://app?vid=8cd894e2-8c83-4e85-8692-98dc08192e48","ios":"levelo://app?vid=8cd894e2-8c83-4e85-8692-98dc08192e48"},"vehicle_type_id":"4","last_reported":1704204400,"current_range_meters":20400,"station_id":"ce4bh012rcd13ifvqd00","pricing_plan_id":"free"},{"bike_id":"190a1cf5-eaab-4332-b21a-9067b5988ace","system_id":"levelo_inurba_marseille","lat":43.294314,"lon":5.397498,"is_reserved":false,"is_disabled":false,"rental_uris":{"android":"levelo://app?vid=190a1cf5-eaab-4332-b21a-9067b5988ace","ios":"levelo://app?vid=190a1cf5-eaab-4332-b21a-9067b5988ace"},"vehicle_type_id":"4","last_reported":1704204400,"current_range_meters":12000,"station_id":"ce4bh3h2rcd13ifvqdo0","pricing_plan_id":"free"},{"bike_id":"82386d3f-0030-496e-a5d3-12dcde4b08de","system_id":"levelo_inurba_marseille","lat":43.283998,"lon":5.375062,"is_reserved":false,"is_disabled":false,"rental_uris":{"android":"levelo://app?vid=82386d3f-0030-496e-a5d3-12dcde4b08de","ios":"levelo://app?vid=82386d3f-0030-496e-a5d3-12dcde4b08de"},"vehicle_type_id":"4","last_reported":1704204400,"current_range_meters":22800,"station_id":"ce4bh412rcd13ifvqds0","pricing_plan_id":"free"},{"bike_id":"a2b385f1-24bf-45ee-ba34-97b396569084","system_id":"levelo_inurba_marseille","lat":43.283998,"lon":5.375062,"is_reserved":false,"is_disabled":false,"rental_uris":{"android":"levelo://app?vid=a2b385f1-24bf-45ee-ba34-97b396569084","ios":"levelo://app?vid=a2b385f1-24bf-45ee-ba34-97b396569084"},"vehicle_type_id":"4","last_reported":1704204400,"current_range_meters":23600,"station_id":"ce4bh412rcd13ifvqds0","pricing_plan_id":"free"},{"bike_id":"99236565-c002-4a8c-803a-d52cac48af55","system_id":"levelo_inurba_marseille","lat":43.28673,"lon":5.3866,"is_reserved":false,"is_disabled":false,"rental_uris":{"android":"levelo://app?vid=99236565-c002-4a8c-803a-d52cac48af55","ios":"levelo://app?vid=99236565-c002-4a8c-803a-d52cac48af55"},"vehicle_type_id":"4","last_reported":1704204400,"current_range_meters":23600,"station_id":"ce4bh492rcd13ifvqdug","pricing_plan_id":"free"},{"bike_id":"5e9d0e18-6bcc-4ee6-bfe3-9cec4c270c52","system_id":"levelo_inurba_marseille","lat":43.286595,"lon":5.386795,"is_reserved":false,"is_disabled":false,"rental_uris":{"android":"levelo://app?vid=5e9d0e18-6bcc-4ee6-bfe3-9cec4c270c52","ios":"levelo://app?vid=5e9d0e18-6bcc-4ee6-bfe3-9cec4c270c52"},"vehicle_type_id":"4","last_reported":1704204400,"current_range_meters":6800,"station_id":"ce4bh492rcd13ifvqdug","pricing_plan_id":"free"},{"bike_id":"89112d64-ccbf-4364-afe6-d1338820fb67","system_id":"levelo_inurba_marseille","lat":43.319179,"lon":5.407725,"is_reserved":false,"is_disabled":false,"rental_uris":{"android":"levelo://app?vid=89112d64-ccbf-4364-afe6-d1338820fb67","ios":"levelo://app?vid=89112d64-ccbf-4364-afe6-d1338820fb67"},"vehicle_type_id":"4","last_reported":1704204400,"current_range_meters":29200,"station_id":"ce4bhq12rcd13ifvqhig","pricing_plan_id":"free"},{"bike_id":"64bacc72-9edb-4a5e-abb0-652670371019","system_id":"levelo_inurba_marseille","lat":43.319179,"lon":5.407725,"is_reserved":false,"is_disabled":false,"rental_uris":{"android":"levelo://app?vid=64bacc72-9edb-4a5e-abb0-652670371019","ios":"levelo://app?vid=64bacc72-9edb-4a5e-abb0-652670371019"},"vehicle_type_id":"4","last_reported":1704204400,"current_range_meters":27200,"station_id":"ce4bhq12rcd13ifvqhig","pricing_plan_id":"free"},{"bike_id":"57aa4e80-760d-4e3c-a199-3d58309f5f3c","system_id":"levelo_inurba_marseille","lat":43.261782,"lon":5.374515,"is_reserved":false,"is_disabled":false,"rental_uris":{"android":"levelo://app?vid=57aa4e80-760d-4e3c-a199-3d58309f5f3c","ios":"levelo://app?vid=57aa4e80-760d-4e3c-a199-3d58309f5f3c"},"vehicle_type_id":"4","last_reported":1704204400,"current_range_meters":31600,"station_id":"ce4bhgp2rcd13ifvqfc0","pricing_plan_id":"free"},{"bike_id":"3a34192a-8b34-47a6-8d79-245a33690514","system_id":"levelo_inurba_marseille","lat":43.33717,"lon":5.391857,"is_reserved":false,"is_disabled":false,"rental_uris":{"android":"levelo://app?vid=3a34192a-8b34-47a6-8d79-245a33690514","ios":"levelo://app?vid=3a34192a-8b34-47a6-8d79-245a33690514"},"vehicle_type_id":"4","last_reported":1704204400,"current_range_meters":30000,"station_id":"ce4bhr92rcd13ifvqhsg","pricing_plan_id":"free"},{"bike_id":"78bb1215-3373-4d3f-b7bd-f79703d6e8c0","system_id":"levelo_inurba_marseille","lat":43.323464,"lon":5.406297,"is_reserved":false,"is_disabled":false,"rental_uris":{"android":"levelo://app?vid=78bb1215-3373-4d3f-b7bd-f79703d6e8c0","ios":"levelo://app?vid=78bb1215-3373-4d3f-b7bd-f79703d6e8c0"},"vehicle_type_id":"4","last_reported":1704204400,"current_range_meters":26800,"station_id":"ce4bhq92rcd13ifvqhjg","pricing_plan_id":"free"},{"bike_id":"1860c054-e673-4084-804e-8832a59aeb53","system_id":"levelo_inurba_marseille","lat":43.33727,"lon":5.3918,"is_reserved":false,"is_disabled":false,"rental_uris":{"android":"levelo://app?vid=1860c054-e673-4084-804e-8832a59aeb53","ios":"levelo://app?vid=1860c054-e673-4084-804e-8832a59aeb53"},"vehicle_type_id":"4","last_reported":1704204400,"current_range_meters":23600,"station_id":"ce4bhr92rcd13ifvqhsg","pricing_plan_id":"free"},{"bike_id":"d3837f57-b992-4c84-a0a7-b545d2582111","system_id":"levelo_inurba_marseille","lat":43.323464,"lon":5.406297,"is_reserved":false,"is_disabled":false,"rental_uris":{"android":"levelo://app?vid=d3837f57-b992-4c84-a0a7-b545d2582111","ios":"levelo://app?vid=d3837f57-b992-4c84-a0a7-b545d2582111"},"vehicle_type_id":"4","last_reported":1704204400,"current_range_meters":29200,"station_id":"ce4bhq92rcd13ifvqhjg","pricing_plan_id":"free"},{"bike_id":"7ffe7b4b-307e-42e5-bc51-ec41e0cee17e","system_id":"levelo_inurba_marseille","lat":43.33717,"lon":5.391857,"is_reserved":false,"is_disabled":false,"rental_uris":{"android":"levelo://app?vid=7ffe7b4b-307e-42e5-bc51-ec41e0cee17e","ios":"levelo://app?vid=7ffe7b4b-307e-42e5-bc51-ec41e0cee17e"},"vehicle_type_id":"4","last_reported":1704204400,"current_range_meters":22800,"station_id":"ce4bhr92rcd13ifvqhsg","pricing_plan_id":"free"},{"bike_id":"78d9aca3-f653-4647-b11c-8e8564e11b88","system_id":"levelo_inurba_marseille","lat":43.284793,"lon":5.384119,"is_reserved":false,"is_disabled":false,"rental_uris":{"android":"levelo://app?vid=78d9aca3-f653-4647-b11c-8e8564e11b88","ios":"levelo://app?vid=78d9aca3-f653-4647-b11c-8e8564e11b88"},"vehicle_type_id":"4","last_reported":1704204400,"current_range_meters":20400,"station_id":"ce4bh512rcd13ifvqe3g","pricing_plan_id":"free"},{"bike_id":"d8e3b223-cd43-4438-b882-79e07c77287a","system_id":"levelo_inurba_marseille","lat":43.284793,"lon":5.384119,"is_reserved":false,"is_disabled":false,"rental_uris":{"android":"levelo://app?vid=d8e3b223-cd43-4438-b882-79e07c77287a","ios":"levelo://app?vid=d8e3b223-cd43-4438-b882-79e07c77287a"},"vehicle_type_id":"4","last_reported":1704204400,"current_range_meters":27200,"station_id":"ce4bh512rcd13ifvqe3g","pricing_plan_id":"free"},{"bike_id":"2f1b45be-d3a1-42a4-a736-b56379149f9a","system_id":"levelo_inurba_marseille","lat":43.28424,"lon":5.34995,"is_reserved":false,"is_disabled":false,"rental_uris":{"android":"levelo://app?vid=2f1b45be-d3a1-42a4-a736-b56379149f9a","ios":"levelo://app?vid=2f1b45be-d3a1-42a4-a736-b56379149f9a"},"vehicle_type_id":"4","last_reported":1704204400,"current_range_meters":27200,"station_id":"ce4bhbh2rcd13ifvqepg","pricing_plan_id":"free"},{"bike_id":"21080396-864c-439d-883c-a3baed753ad0","system_id":"levelo_inurba_marseille","lat":43.284158,"lon":5.349921,"is_reserved":false,"is_disabled":false,"rental_uris":{"android":"levelo://app?vid=21080396-864c-439d-883c-a3baed753ad0","ios":"levelo://app?vid=21080396-864c-439d-883c-a3baed753ad0"},"vehicle_type_id":"4","last_reported":1704204400,"current_range_meters":30800,"station_id":"ce4bhbh2rcd13ifvqepg","pricing_plan_id":"free"},{"bike_id":"b123a07f-9e39-4c16-8d32-c46290c686bb","system_id":"levelo_inurba_marseille","lat":43.283502,"lon":5.386471,"is_reserved":false,"is_disabled":false,"rental_uris":{"android":"levelo://app?vid=b123a07f-9e39-4c16-8d32-c46290c686bb","ios":"levelo://app?vid=b123a07f-9e39-4c16-8d32-c46290c686bb"},"vehicle_type_id":"4","last_reported":1704204400,"current_range_meters":24800,"station_id":"ce4bh492rcd13ifvqdvg","pricing_plan_id":"free"},{"bike_id":"a2da659e-94fb-4802-956e-e87074b79efa","system_id":"levelo_inurba_marseille","lat":43.28367,"lon":5.38637,"is_reserved":false,"is_disabled":false,"rental_uris":{"android":"levelo://app?vid=a2da659e-94fb-4802-956e-e87074b79efa","ios":"levelo://app?vid=a2da659e-94fb-4802-956e-e87074b79efa"},"vehicle_type_id":"4","last_reported":1704204400,"current_range_meters":0,"station_id":"ce4bh492rcd13ifvqdvg","pricing_plan_id":"free"},{"bike_id":"332c3611-0f85-4e15-abee-b189df74b2df","system_id":"levelo_inurba_marseille","lat":43.28039,"lon":5.369297,"is_reserved":false,"is_disabled":false,"rental_uris":{"android":"levelo://app?vid=332c3611-0f85-4e15-abee-b189df74b2df","ios":"levelo://app?vid=332c3611-0f85-4e15-abee-b189df74b2df"},"vehicle_type_id":"4","last_reported":1704204400,"current_range_meters":22800,"station_id":"ce4bha12rcd13ifvqef0","pricing_plan_id":"free"},{"bike_id":"4bdc8865-411b-437e-8d59-83dc7e75394f","system_id":"levelo_inurba_marseille","lat":43.28104,"lon":5.3784,"is_reserved":false,"is_disabled":false,"rental_uris":{"android":"levelo://app?vid=4bdc8865-411b-437e-8d59-83dc7e75394f","ios":"levelo://app?vid=4bdc8865-411b-437e-8d59-83dc7e75394f"},"vehicle_type_id":"4","last_reported":1704204400,"current_range_meters":22400,"station_id":"ce4bha12rcd13ifvqee0","pricing_plan_id":"free"},{"bike_id":"1c8ad76f-7190-4f90-bdab-d7fd0a24d975","system_id":"levelo_inurba_marseille","lat":43.281044,"lon":5.378308,"is_reserved":false,"is_disabled":false,"rental_uris":{"android":"levelo://app?vid=1c8ad76f-7190-4f90-bdab-d7fd0a24d975","ios":"levelo://app?vid=1c8ad76f-7190-4f90-bdab-d7fd0a24d975"},"vehicle_type_id":"4","last_reported":1704204400,"current_range_meters":22800,"station_id":"ce4bha12rcd13ifvqee0","pricing_plan_id":"free"},{"bike_id":"170e22b9-423a-47cf-8330-c80ab4abc807","system_id":"levelo_inurba_marseille","lat":43.290327,"lon":5.375711,"is_reserved":false,"is_disabled":false,"rental_uris":{"android":"levelo://app?vid=170e22b9-423a-47cf-8330-c80ab4abc807","ios":"levelo://app?vid=170e22b9-423a-47cf-8330-c80ab4abc807"},"vehicle_type_id":"4","last_reported":1704204400,"current_range_meters":27200,"station_id":"ce4bh692rcd13ifvqe90","pricing_plan_id":"free"},{"bike_id":"63ef493a-db4b-4496-ad1b-ba396f3c1336","system_id":"levelo_inurba_marseille","lat":43.336134,"lon":5.410341,"is_reserved":false,"is_disabled":false,"rental_uris":{"android":"levelo://app?vid=63ef493a-db4b-4496-ad1b-ba396f3c1336","ios":"levelo://app?vid=63ef493a-db4b-4496-ad1b-ba396f3c1336"},"vehicle_type_id":"4","last_reported":1704204400,"current_range_meters":27600,"station_id":"ce4bhqh2rcd13ifvqhmg","pricing_plan_id":"free"},{"bike_id":"b2d47e27-8ad4-40f8-94a5-51558d9c1ca6","system_id":"levelo_inurba_marseille","lat":43.30415,"lon":5.41283,"is_reserved":false,"is_disabled":false,"rental_uris":{"android":"levelo://app?vid=b2d47e27-8ad4-40f8-94a5-51558d9c1ca6","ios":"levelo://app?vid=b2d47e27-8ad4-40f8-94a5-51558d9c1ca6"},"vehicle_type_id":"4","last_reported":1704204400,"current_range_meters":22400,"station_id":"ce4bhop2rcd13ifvqh8g","pricing_plan_id":"free"},{"bike_id":"fcf5eff5-55a0-4afa-9285-6bf588544984","system_id":"levelo_inurba_marseille","lat":43.304188,"lon":5.412904,"is_reserved":false,"is_disabled":false,"rental_uris":{"android":"levelo://app?vid=fcf5eff5-55a0-4afa-9285-6bf588544984","ios":"levelo://app?vid=fcf5eff5-55a0-4afa-9285-6bf588544984"},"vehicle_type_id":"4","last_reported":1704204400,"current_range_meters":12000,"station_id":"ce4bhop2rcd13ifvqh8g","pricing_plan_id":"free"},{"bike_id":"8571ddf1-8157-46ba-b747-ea46713afd05","system_id":"levelo_inurba_marseille","lat":43.292798,"lon":5.406529,"is_reserved":false,"is_disabled":false,"rental_uris":{"android":"levelo://app?vid=8571ddf1-8157-46ba-b747-ea46713afd05","ios":"levelo://app?vid=8571ddf1-8157-46ba-b747-ea46713afd05"},"vehicle_type_id":"4","last_reported":1704204400,"current_range_meters":0,"station_id":"","pricing_plan_id":"free"},{"bike_id":"9f6b12c3-ec03-42b9-b927-e710b2cfcf63","system_id":"levelo_inurba_marseille","lat":43.279087,"lon":5.380114,"is_reserved":false,"is_disabled":false,"rental_uris":{"android":"levelo://app?vid=9f6b12c3-ec03-42b9-b927-e710b2cfcf63","ios":"levelo://app?vid=9f6b12c3-ec03-42b9-b927-e710b2cfcf63"},"vehicle_type_id":"4","last_reported":1704204400,"current_range_meters":25600,"station_id":"ce4bhf92rcd13ifvqf50","pricing_plan_id":"free"},{"bike_id":"e5adf89a-10ee-4e07-b9b2-4771808f9929","system_id":"levelo_inurba_marseille","lat":43.287154,"lon":5.399979,"is_reserved":false,"is_disabled":false,"rental_uris":{"android":"levelo://app?vid=e5adf89a-10ee-4e07-b9b2-4771808f9929","ios":"levelo://app?vid=e5adf89a-10ee-4e07-b9b2-4771808f9929"},"vehicle_type_id":"4","last_reported":1704204400,"current_range_meters":30000,"station_id":"ce4bho92rcd13ifvqh3g","pricing_plan_id":"free"},{"bike_id":"45120a21-f343-45ce-8fb6-e06904f75898","system_id":"levelo_inurba_marseille","lat":43.320045,"lon":5.415046,"is_reserved":false,"is_disabled":false,"rental_uris":{"android":"levelo://app?vid=45120a21-f343-45ce-8fb6-e06904f75898","ios":"levelo://app?vid=45120a21-f343-45ce-8fb6-e06904f75898"},"vehicle_type_id":"4","last_reported":1704204400,"current_range_meters":31200,"station_id":"ce4bhq92rcd13ifvqhkg","pricing_plan_id":"free"},{"bike_id":"e9e342a5-71f4-448a-a0e1-6ff4791eca67","system_id":"levelo_inurba_marseille","lat":43.320045,"lon":5.415046,"is_reserved":false,"is_disabled":false,"rental_uris":{"android":"levelo://app?vid=e9e342a5-71f4-448a-a0e1-6ff4791eca67","ios":"levelo://app?vid=e9e342a5-71f4-448a-a0e1-6ff4791eca67"},"vehicle_type_id":"4","last_reported":1704204400,"current_range_meters":31200,"station_id":"ce4bhq92rcd13ifvqhkg","pricing_plan_id":"free"},{"bike_id":"493c529d-4816-4d54-82ca-cf1d3517820d","system_id":"levelo_inurba_marseille","lat":43.325233,"lon":5.414318,"is_reserved":false,"is_disabled":false,"rental_uris":{"android":"levelo://app?vid=493c529d-4816-4d54-82ca-cf1d3517820d","ios":"levelo://app?vid=493c529d-4816-4d54-82ca-cf1d3517820d"},"vehicle_type_id":"4","last_reported":1704204400,"current_range_meters":28000,"station_id":"ce4bhq12rcd13ifvqhhg","pricing_plan_id":"free"},{"bike_id":"93965c1d-cbd8-4a4c-953d-b0143e662572","system_id":"levelo_inurba_marseille","lat":43.303837,"lon":5.418724,"is_reserved":false,"is_disabled":false,"rental_uris":{"android":"levelo://app?vid=93965c1d-cbd8-4a4c-953d-b0143e662572","ios":"levelo://app?vid=93965c1d-cbd8-4a4c-953d-b0143e662572"},"vehicle_type_id":"4","last_reported":1704204400,"current_range_meters":29200,"station_id":"ce4bhop2rcd13ifvqh7g","pricing_plan_id":"free"},{"bike_id":"05bbd940-c13c-4b67-963f-f514950bf80a","system_id":"levelo_inurba_marseille","lat":43.273609,"lon":5.362708,"is_reserved":false,"is_disabled":false,"rental_uris":{"android":"levelo://app?vid=05bbd940-c13c-4b67-963f-f514950bf80a","ios":"levelo://app?vid=05bbd940-c13c-4b67-963f-f514950bf80a"},"vehicle_type_id":"4","last_reported":1704204400,"current_range_meters":19600,"station_id":"ce4bhbh2rcd13ifvqeo0","pricing_plan_id":"free"},{"bike_id":"a444d6e2-8b2f-4c06-a832-f8458cd681a6","system_id":"levelo_inurba_marseille","lat":43.336134,"lon":5.410341,"is_reserved":false,"is_disabled":false,"rental_uris":{"android":"levelo://app?vid=a444d6e2-8b2f-4c06-a832-f8458cd681a6","ios":"levelo://app?vid=a444d6e2-8b2f-4c06-a832-f8458cd681a6"},"vehicle_type_id":"4","last_reported":1704204400,"current_range_meters":28000,"station_id":"ce4bhqh2rcd13ifvqhmg","pricing_plan_id":"free"},{"bike_id":"f217a821-b4ff-43b6-ba89-9ffa8be851b4","system_id":"levelo_inurba_marseille","lat":43.275625,"lon":5.384392,"is_reserved":false,"is_disabled":false,"rental_uris":{"android":"levelo://app?vid=f217a821-b4ff-43b6-ba89-9ffa8be851b4","ios":"levelo://app?vid=f217a821-b4ff-43b6-ba89-9ffa8be851b4"},"vehicle_type_id":"4","last_reported":1704204400,"current_range_meters":28800,"station_id":"ce4bhh92rcd13ifvqfi0","pricing_plan_id":"free"},{"bike_id":"69452f3b-b641-4092-90d1-5fae53c45d43","system_id":"levelo_inurba_marseille","lat":43.279975,"lon":5.40009,"is_reserved":false,"is_disabled":false,"rental_uris":{"android":"levelo://app?vid=69452f3b-b641-4092-90d1-5fae53c45d43","ios":"levelo://app?vid=69452f3b-b641-4092-90d1-5fae53c45d43"},"vehicle_type_id":"4","last_reported":1704204400,"current_range_meters":26400,"station_id":"ce4bho92rcd13ifvqh4g","pricing_plan_id":"free"},{"bike_id":"b2e64161-bed0-442d-9e12-361d365ea82c","system_id":"levelo_inurba_marseille","lat":43.279952,"lon":5.400085,"is_reserved":false,"is_disabled":false,"rental_uris":{"android":"levelo://app?vid=b2e64161-bed0-442d-9e12-361d365ea82c","ios":"levelo://app?vid=b2e64161-bed0-442d-9e12-361d365ea82c"},"vehicle_type_id":"4","last_reported":1704204400,"current_range_meters":31200,"station_id":"ce4bho92rcd13ifvqh4g","pricing_plan_id":"free"},{"bike_id":"4760841b-4fd7-4b7d-aef3-782de75b0909","system_id":"levelo_inurba_marseille","lat":43.317121,"lon":5.423936,"is_reserved":false,"is_disabled":false,"rental_uris":{"android":"levelo://app?vid=4760841b-4fd7-4b7d-aef3-782de75b0909","ios":"levelo://app?vid=4760841b-4fd7-4b7d-aef3-782de75b0909"},"vehicle_type_id":"4","last_reported":1704204400,"current_range_meters":21600,"station_id":"ce4bhp92rcd13ifvqhbg","pricing_plan_id":"free"},{"bike_id":"5e3452d0-bbc8-463b-8852-ec98e809d5a0","system_id":"levelo_inurba_marseille","lat":43.317121,"lon":5.423936,"is_reserved":false,"is_disabled":false,"rental_uris":{"android":"levelo://app?vid=5e3452d0-bbc8-463b-8852-ec98e809d5a0","ios":"levelo://app?vid=5e3452d0-bbc8-463b-8852-ec98e809d5a0"},"vehicle_type_id":"4","last_reported":1704204400,"current_range_meters":31600,"station_id":"ce4bhp92rcd13ifvqhbg","pricing_plan_id":"free"},{"bike_id":"65179593-0d97-4074-9fea-cfecd33adb90","system_id":"levelo_inurba_marseille","lat":43.310909,"lon":5.424283,"is_reserved":false,"is_disabled":false,"rental_uris":{"android":"levelo://app?vid=65179593-0d97-4074-9fea-cfecd33adb90","ios":"levelo://app?vid=65179593-0d97-4074-9fea-cfecd33adb90"},"vehicle_type_id":"4","last_reported":1704204400,"current_range_meters":16000,"station_id":"","pricing_plan_id":"free"},{"bike_id":"631dbf73-7707-4210-bb68-6471796fccb3","system_id":"levelo_inurba_marseille","lat":43.310785,"lon":5.424305,"is_reserved":false,"is_disabled":false,"rental_uris":{"android":"levelo://app?vid=631dbf73-7707-4210-bb68-6471796fccb3","ios":"levelo://app?vid=631dbf73-7707-4210-bb68-6471796fccb3"},"vehicle_type_id":"4","last_reported":1704204400,"current_range_meters":31600,"station_id":"ce4bhp92rcd13ifvqhag","pricing_plan_id":"free"},{"bike_id":"27069f3d-7d0a-4623-9f37-1f04f341a2d7","system_id":"levelo_inurba_marseille","lat":43.310873,"lon":5.424314,"is_reserved":false,"is_disabled":false,"rental_uris":{"android":"levelo://app?vid=27069f3d-7d0a-4623-9f37-1f04f341a2d7","ios":"levelo://app?vid=27069f3d-7d0a-4623-9f37-1f04f341a2d7"},"vehicle_type_id":"4","last_reported":1704204400,"current_range_meters":15600,"station_id":"","pricing_plan_id":"free"},{"bike_id":"f3e351f0-7ca3-497e-a450-69da3118abd7","system_id":"levelo_inurba_marseille","lat":43.317225,"lon":5.42405,"is_reserved":false,"is_disabled":false,"rental_uris":{"android":"levelo://app?vid=f3e351f0-7ca3-497e-a450-69da3118abd7","ios":"levelo://app?vid=f3e351f0-7ca3-497e-a450-69da3118abd7"},"vehicle_type_id":"4","last_reported":1704204400,"current_range_meters":24400,"station_id":"ce4bhp92rcd13ifvqhbg","pricing_plan_id":"free"},{"bike_id":"c2f050c8-5829-4d0e-9d3b-560f9daeb30d","system_id":"levelo_inurba_marseille","lat":43.310866,"lon":5.424329,"is_reserved":false,"is_disabled":false,"rental_uris":{"android":"levelo://app?vid=c2f050c8-5829-4d0e-9d3b-560f9daeb30d","ios":"levelo://app?vid=c2f050c8-5829-4d0e-9d3b-560f9daeb30d"},"vehicle_type_id":"4","last_reported":1704204400,"current_range_meters":16000,"station_id":"","pricing_plan_id":"free"},{"bike_id":"36f25244-c073-431e-af5c-31e26c6f0289","system_id":"levelo_inurba_marseille","lat":43.310847,"lon":5.424344,"is_reserved":false,"is_disabled":false,"rental_uris":{"android":"levelo://app?vid=36f25244-c073-431e-af5c-31e26c6f0289","ios":"levelo://app?vid=36f25244-c073-431e-af5c-31e26c6f0289"},"vehicle_type_id":"4","last_reported":1704204400,"current_range_meters":16000,"station_id":"","pricing_plan_id":"free"},{"bike_id":"de29d213-8e39-4159-9019-2b5e52baefe3","system_id":"levelo_inurba_marseille","lat":43.31085,"lon":5.424345,"is_reserved":false,"is_disabled":false,"rental_uris":{"android":"levelo://app?vid=de29d213-8e39-4159-9019-2b5e52baefe3","ios":"levelo://app?vid=de29d213-8e39-4159-9019-2b5e52baefe3"},"vehicle_type_id":"4","last_reported":1704204400,"current_range_meters":16000,"station_id":"","pricing_plan_id":"free"},{"bike_id":"e2340435-a767-4a07-9db0-637fd4bce462","system_id":"levelo_inurba_marseille","lat":43.317121,"lon":5.423936,"is_reserved":false,"is_disabled":false,"rental_uris":{"android":"levelo://app?vid=e2340435-a767-4a07-9db0-637fd4bce462","ios":"levelo://app?vid=e2340435-a767-4a07-9db0-637fd4bce462"},"vehicle_type_id":"4","last_reported":1704204400,"current_range_meters":9600,"station_id":"ce4bhp92rcd13ifvqhbg","pricing_plan_id":"free"},{"bike_id":"47f8cb60-186e-4e83-96aa-050d47af2974","system_id":"levelo_inurba_marseille","lat":43.34137,"lon":5.409076,"is_reserved":false,"is_disabled":false,"rental_uris":{"android":"levelo://app?vid=47f8cb60-186e-4e83-96aa-050d47af2974","ios":"levelo://app?vid=47f8cb60-186e-4e83-96aa-050d47af2974"},"vehicle_type_id":"4","last_reported":1704204400,"current_range_meters":12000,"station_id":"ce4bhqh2rcd13ifvqhlg","pricing_plan_id":"free"},{"bike_id":"d7a0f436-4a10-430d-9dfa-fb613b9a9e9c","system_id":"levelo_inurba_marseille","lat":43.340804,"lon":5.410219,"is_reserved":false,"is_disabled":false,"rental_uris":{"android":"levelo://app?vid=d7a0f436-4a10-430d-9dfa-fb613b9a9e9c","ios":"levelo://app?vid=d7a0f436-4a10-430d-9dfa-fb613b9a9e9c"},"vehicle_type_id":"4","last_reported":1704204400,"current_range_meters":19600,"station_id":"ce4bhqh2rcd13ifvqhlg","pricing_plan_id":"free"},{"bike_id":"d6f95a70-c9ed-433f-92b8-5e4ba4dca2e4","system_id":"levelo_inurba_marseille","lat":43.274099,"lon":5.394019,"is_reserved":false,"is_disabled":false,"rental_uris":{"android":"levelo://app?vid=d6f95a70-c9ed-433f-92b8-5e4ba4dca2e4","ios":"levelo://app?vid=d6f95a70-c9ed-433f-92b8-5e4ba4dca2e4"},"vehicle_type_id":"4","last_reported":1704204400,"current_range_meters":30800,"station_id":"ce4bhdp2rcd13ifvqf20","pricing_plan_id":"free"},{"bike_id":"63ffe5be-fdc6-454d-8bdc-d4e9ccf37b71","system_id":"levelo_inurba_marseille","lat":43.27428,"lon":5.39418,"is_reserved":false,"is_disabled":false,"rental_uris":{"android":"levelo://app?vid=63ffe5be-fdc6-454d-8bdc-d4e9ccf37b71","ios":"levelo://app?vid=63ffe5be-fdc6-454d-8bdc-d4e9ccf37b71"},"vehicle_type_id":"4","last_reported":1704204400,"current_range_meters":12000,"station_id":"ce4bhdp2rcd13ifvqf20","pricing_plan_id":"free"},{"bike_id":"869c07aa-9636-4993-abef-43a869317df4","system_id":"levelo_inurba_marseille","lat":43.273125,"lon":5.390731,"is_reserved":false,"is_disabled":false,"rental_uris":{"android":"levelo://app?vid=869c07aa-9636-4993-abef-43a869317df4","ios":"levelo://app?vid=869c07aa-9636-4993-abef-43a869317df4"},"vehicle_type_id":"4","last_reported":1704204400,"current_range_meters":23600,"station_id":"ce4bhgp2rcd13ifvqfe0","pricing_plan_id":"free"},{"bike_id":"9f9807cf-4802-49be-be63-ff88464ec2c7","system_id":"levelo_inurba_marseille","lat":43.304096,"lon":5.425385,"is_reserved":false,"is_disabled":false,"rental_uris":{"android":"levelo://app?vid=9f9807cf-4802-49be-be63-ff88464ec2c7","ios":"levelo://app?vid=9f9807cf-4802-49be-be63-ff88464ec2c7"},"vehicle_type_id":"4","last_reported":1704204400,"current_range_meters":6400,"station_id":"ce4bhoh2rcd13ifvqh6g","pricing_plan_id":"free"},{"bike_id":"f994f680-eb76-4a27-9d7f-25e53ac21f6e","system_id":"levelo_inurba_marseille","lat":43.304096,"lon":5.425385,"is_reserved":false,"is_disabled":false,"rental_uris":{"android":"levelo://app?vid=f994f680-eb76-4a27-9d7f-25e53ac21f6e","ios":"levelo://app?vid=f994f680-eb76-4a27-9d7f-25e53ac21f6e"},"vehicle_type_id":"4","last_reported":1704204400,"current_range_meters":10800,"station_id":"ce4bhoh2rcd13ifvqh6g","pricing_plan_id":"free"},{"bike_id":"943bcc48-e632-4273-b6e8-5dbbdadd3d07","system_id":"levelo_inurba_marseille","lat":43.304096,"lon":5.425385,"is_reserved":false,"is_disabled":false,"rental_uris":{"android":"levelo://app?vid=943bcc48-e632-4273-b6e8-5dbbdadd3d07","ios":"levelo://app?vid=943bcc48-e632-4273-b6e8-5dbbdadd3d07"},"vehicle_type_id":"4","last_reported":1704204400,"current_range_meters":15600,"station_id":"ce4bhoh2rcd13ifvqh6g","pricing_plan_id":"free"},{"bike_id":"d97f32bb-ebf7-4775-aba0-4259227bf342","system_id":"levelo_inurba_marseille","lat":43.295523,"lon":5.422926,"is_reserved":false,"is_disabled":false,"rental_uris":{"android":"levelo://app?vid=d97f32bb-ebf7-4775-aba0-4259227bf342","ios":"levelo://app?vid=d97f32bb-ebf7-4775-aba0-4259227bf342"},"vehicle_type_id":"4","last_reported":1704204400,"current_range_meters":30000,"station_id":"ce4bhph2rcd13ifvqhdg","pricing_plan_id":"free"},{"bike_id":"3ef2c173-ee0e-4073-bc60-bb9d332c3b1f","system_id":"levelo_inurba_marseille","lat":43.272116,"lon":5.391763,"is_reserved":false,"is_disabled":false,"rental_uris":{"android":"levelo://app?vid=3ef2c173-ee0e-4073-bc60-bb9d332c3b1f","ios":"levelo://app?vid=3ef2c173-ee0e-4073-bc60-bb9d332c3b1f"},"vehicle_type_id":"4","last_reported":1704204400,"current_range_meters":27600,"station_id":"ce4bhhp2rcd13ifvqfm0","pricing_plan_id":"free"},{"bike_id":"96249a31-e0dd-4261-9ed4-7c202f6b3304","system_id":"levelo_inurba_marseille","lat":43.272118,"lon":5.391758,"is_reserved":false,"is_disabled":false,"rental_uris":{"android":"levelo://app?vid=96249a31-e0dd-4261-9ed4-7c202f6b3304","ios":"levelo://app?vid=96249a31-e0dd-4261-9ed4-7c202f6b3304"},"vehicle_type_id":"4","last_reported":1704204400,"current_range_meters":26800,"station_id":"ce4bhhp2rcd13ifvqfm0","pricing_plan_id":"free"},{"bike_id":"4aff2ddb-28a9-4338-a1a5-c143a26093b1","system_id":"levelo_inurba_marseille","lat":43.272118,"lon":5.391758,"is_reserved":false,"is_disabled":false,"rental_uris":{"android":"levelo://app?vid=4aff2ddb-28a9-4338-a1a5-c143a26093b1","ios":"levelo://app?vid=4aff2ddb-28a9-4338-a1a5-c143a26093b1"},"vehicle_type_id":"4","last_reported":1704204400,"current_range_meters":18800,"station_id":"ce4bhhp2rcd13ifvqfm0","pricing_plan_id":"free"},{"bike_id":"07583672-0ff3-406f-9c57-92569d7a8692","system_id":"levelo_inurba_marseille","lat":43.278128,"lon":5.407195,"is_reserved":false,"is_disabled":false,"rental_uris":{"android":"levelo://app?vid=07583672-0ff3-406f-9c57-92569d7a8692","ios":"levelo://app?vid=07583672-0ff3-406f-9c57-92569d7a8692"},"vehicle_type_id":"4","last_reported":1704204400,"current_range_meters":21200,"station_id":"ce4bhnh2rcd13ifvqgtg","pricing_plan_id":"free"},{"bike_id":"aa5f56cb-8ab9-4a2e-a412-48f9ab65de73","system_id":"levelo_inurba_marseille","lat":43.269467,"lon":5.386439,"is_reserved":false,"is_disabled":false,"rental_uris":{"android":"levelo://app?vid=aa5f56cb-8ab9-4a2e-a412-48f9ab65de73","ios":"levelo://app?vid=aa5f56cb-8ab9-4a2e-a412-48f9ab65de73"},"vehicle_type_id":"4","last_reported":1704204400,"current_range_meters":18000,"station_id":"ce4bhh92rcd13ifvqfh0","pricing_plan_id":"free"},{"bike_id":"425f9578-de78-4e61-bdf4-7cfac3cad89a","system_id":"levelo_inurba_marseille","lat":43.279465,"lon":5.410561,"is_reserved":false,"is_disabled":false,"rental_uris":{"android":"levelo://app?vid=425f9578-de78-4e61-bdf4-7cfac3cad89a","ios":"levelo://app?vid=425f9578-de78-4e61-bdf4-7cfac3cad89a"},"vehicle_type_id":"4","last_reported":1704204400,"current_range_meters":21600,"station_id":"ce4bhnp2rcd13ifvqh0g","pricing_plan_id":"free"},{"bike_id":"c76e9561-9dd7-4271-b9f0-31dea395083a","system_id":"levelo_inurba_marseille","lat":43.279465,"lon":5.410561,"is_reserved":false,"is_disabled":false,"rental_uris":{"android":"levelo://app?vid=c76e9561-9dd7-4271-b9f0-31dea395083a","ios":"levelo://app?vid=c76e9561-9dd7-4271-b9f0-31dea395083a"},"vehicle_type_id":"4","last_reported":1704204400,"current_range_meters":20800,"station_id":"ce4bhnp2rcd13ifvqh0g","pricing_plan_id":"free"},{"bike_id":"7e432e9d-55d3-4fba-822f-e80ea86465d8","system_id":"levelo_inurba_marseille","lat":43.269319,"lon":5.389397,"is_reserved":false,"is_disabled":false,"rental_uris":{"android":"levelo://app?vid=7e432e9d-55d3-4fba-822f-e80ea86465d8","ios":"levelo://app?vid=7e432e9d-55d3-4fba-822f-e80ea86465d8"},"vehicle_type_id":"4","last_reported":1704204400,"current_range_meters":25600,"station_id":"ce4bhhh2rcd13ifvqfl0","pricing_plan_id":"free"},{"bike_id":"6beee4bc-9e90-4161-be63-15ce7dd5d717","system_id":"levelo_inurba_marseille","lat":43.26681,"lon":5.382694,"is_reserved":false,"is_disabled":false,"rental_uris":{"android":"levelo://app?vid=6beee4bc-9e90-4161-be63-15ce7dd5d717","ios":"levelo://app?vid=6beee4bc-9e90-4161-be63-15ce7dd5d717"},"vehicle_type_id":"4","last_reported":1704204400,"current_range_meters":31600,"station_id":"ce4bhg92rcd13ifvqf90","pricing_plan_id":"free"},{"bike_id":"5c3ff558-bdff-4a53-a387-7ee7228a9144","system_id":"levelo_inurba_marseille","lat":43.26681,"lon":5.382694,"is_reserved":false,"is_disabled":false,"rental_uris":{"android":"levelo://app?vid=5c3ff558-bdff-4a53-a387-7ee7228a9144","ios":"levelo://app?vid=5c3ff558-bdff-4a53-a387-7ee7228a9144"},"vehicle_type_id":"4","last_reported":1704204400,"current_range_meters":31600,"station_id":"ce4bhg92rcd13ifvqf90","pricing_plan_id":"free"},{"bike_id":"12170de5-4c21-4130-873d-28ad121da3f2","system_id":"levelo_inurba_marseille","lat":43.26681,"lon":5.382694,"is_reserved":false,"is_disabled":false,"rental_uris":{"android":"levelo://app?vid=12170de5-4c21-4130-873d-28ad121da3f2","ios":"levelo://app?vid=12170de5-4c21-4130-873d-28ad121da3f2"},"vehicle_type_id":"4","last_reported":1704204400,"current_range_meters":21200,"station_id":"ce4bhg92rcd13ifvqf90","pricing_plan_id":"free"},{"bike_id":"5a669397-3d7e-4ea5-ac52-98ad619398b4","system_id":"levelo_inurba_marseille","lat":43.26681,"lon":5.382694,"is_reserved":false,"is_disabled":false,"rental_uris":{"android":"levelo://app?vid=5a669397-3d7e-4ea5-ac52-98ad619398b4","ios":"levelo://app?vid=5a669397-3d7e-4ea5-ac52-98ad619398b4"},"vehicle_type_id":"4","last_reported":1704204400,"current_range_meters":31600,"station_id":"ce4bhg92rcd13ifvqf90","pricing_plan_id":"free"},{"bike_id":"dadd7647-1cee-4bbe-a24e-bd2cebbe25cf","system_id":"levelo_inurba_marseille","lat":43.26681,"lon":5.382694,"is_reserved":false,"is_disabled":false,"rental_uris":{"android":"levelo://app?vid=dadd7647-1cee-4bbe-a24e-bd2cebbe25cf","ios":"levelo://app?vid=dadd7647-1cee-4bbe-a24e-bd2cebbe25cf"},"vehicle_type_id":"4","last_reported":1704204400,"current_range_meters":14400,"station_id":"ce4bhg92rcd13ifvqf90","pricing_plan_id":"free"},{"bike_id":"2f430b38-bd4e-4e20-913d-b8bd045901e2","system_id":"levelo_inurba_marseille","lat":43.26681,"lon":5.382694,"is_reserved":false,"is_disabled":false,"rental_uris":{"android":"levelo://app?vid=2f430b38-bd4e-4e20-913d-b8bd045901e2","ios":"levelo://app?vid=2f430b38-bd4e-4e20-913d-b8bd045901e2"},"vehicle_type_id":"4","last_reported":1704204400,"current_range_meters":24000,"station_id":"ce4bhg92rcd13ifvqf90","pricing_plan_id":"free"},{"bike_id":"2166b04b-f1a7-45ce-98ff-0c701103b92e","system_id":"levelo_inurba_marseille","lat":43.265554,"lon":5.372842,"is_reserved":false,"is_disabled":false,"rental_uris":{"android":"levelo://app?vid=2166b04b-f1a7-45ce-98ff-0c701103b92e","ios":"levelo://app?vid=2166b04b-f1a7-45ce-98ff-0c701103b92e"},"vehicle_type_id":"4","last_reported":1704204400,"current_range_meters":31200,"station_id":"","pricing_plan_id":"free"},{"bike_id":"53beda1f-c4ee-4912-b9a0-6a11c2007eb2","system_id":"levelo_inurba_marseille","lat":43.265548,"lon":5.37285,"is_reserved":false,"is_disabled":false,"rental_uris":{"android":"levelo://app?vid=53beda1f-c4ee-4912-b9a0-6a11c2007eb2","ios":"levelo://app?vid=53beda1f-c4ee-4912-b9a0-6a11c2007eb2"},"vehicle_type_id":"4","last_reported":1704204400,"current_range_meters":8000,"station_id":"","pricing_plan_id":"free"},{"bike_id":"cce0e60c-e2c2-456a-96ca-f0a93fb4d8bd","system_id":"levelo_inurba_marseille","lat":43.26681,"lon":5.382694,"is_reserved":false,"is_disabled":false,"rental_uris":{"android":"levelo://app?vid=cce0e60c-e2c2-456a-96ca-f0a93fb4d8bd","ios":"levelo://app?vid=cce0e60c-e2c2-456a-96ca-f0a93fb4d8bd"},"vehicle_type_id":"4","last_reported":1704204400,"current_range_meters":31600,"station_id":"ce4bhg92rcd13ifvqf90","pricing_plan_id":"free"},{"bike_id":"34ff520e-3dce-4f9f-91f3-64d97398e7af","system_id":"levelo_inurba_marseille","lat":43.26681,"lon":5.382694,"is_reserved":false,"is_disabled":false,"rental_uris":{"android":"levelo://app?vid=34ff520e-3dce-4f9f-91f3-64d97398e7af","ios":"levelo://app?vid=34ff520e-3dce-4f9f-91f3-64d97398e7af"},"vehicle_type_id":"4","last_reported":1704204400,"current_range_meters":31200,"station_id":"ce4bhg92rcd13ifvqf90","pricing_plan_id":"free"},{"bike_id":"cd6f2f3e-9585-43f5-b881-381b3bdf7910","system_id":"levelo_inurba_marseille","lat":43.26553,"lon":5.37287,"is_reserved":false,"is_disabled":false,"rental_uris":{"android":"levelo://app?vid=cd6f2f3e-9585-43f5-b881-381b3bdf7910","ios":"levelo://app?vid=cd6f2f3e-9585-43f5-b881-381b3bdf7910"},"vehicle_type_id":"4","last_reported":1704204400,"current_range_meters":30000,"station_id":"","pricing_plan_id":"free"},{"bike_id":"e14bc4a6-c07b-47be-b599-c1b9be32a9dc","system_id":"levelo_inurba_marseille","lat":43.265714,"lon":5.372891,"is_reserved":false,"is_disabled":false,"rental_uris":{"android":"levelo://app?vid=e14bc4a6-c07b-47be-b599-c1b9be32a9dc","ios":"levelo://app?vid=e14bc4a6-c07b-47be-b599-c1b9be32a9dc"},"vehicle_type_id":"4","last_reported":1704204400,"current_range_meters":21200,"station_id":"ce4bhg12rcd13ifvqf70","pricing_plan_id":"free"},{"bike_id":"7c3c75f3-2f79-4900-bc2d-1b5579762775","system_id":"levelo_inurba_marseille","lat":43.265527,"lon":5.372854,"is_reserved":false,"is_disabled":false,"rental_uris":{"android":"levelo://app?vid=7c3c75f3-2f79-4900-bc2d-1b5579762775","ios":"levelo://app?vid=7c3c75f3-2f79-4900-bc2d-1b5579762775"},"vehicle_type_id":"4","last_reported":1704204400,"current_range_meters":31200,"station_id":"","pricing_plan_id":"free"},{"bike_id":"e7eddb2f-e2c9-47ad-b39a-faa09ae6cda1","system_id":"levelo_inurba_marseille","lat":43.265522,"lon":5.372848,"is_reserved":false,"is_disabled":false,"rental_uris":{"android":"levelo://app?vid=e7eddb2f-e2c9-47ad-b39a-faa09ae6cda1","ios":"levelo://app?vid=e7eddb2f-e2c9-47ad-b39a-faa09ae6cda1"},"vehicle_type_id":"4","last_reported":1704204400,"current_range_meters":31200,"station_id":"","pricing_plan_id":"free"},{"bike_id":"311ad92f-d5ba-419f-bfdd-b31627b40f3c","system_id":"levelo_inurba_marseille","lat":43.265522,"lon":5.372848,"is_reserved":false,"is_disabled":false,"rental_uris":{"android":"levelo://app?vid=311ad92f-d5ba-419f-bfdd-b31627b40f3c","ios":"levelo://app?vid=311ad92f-d5ba-419f-bfdd-b31627b40f3c"},