{"last_updated":1685376493,"ttl":30,"version":"2.2","data":{"bikes":[{"bike_id":"0077bbf9-38f1-4511-907e-3972b2141d66","system_id":"levelo_inurba_marseille","lat":43.31231,"lon":5.36854,"is_reserved":false,"is_disabled":false,"rental_uris":{"android":"levelo://app?vid=0077bbf9-38f1-4511-907e-3972b2141d66","ios":"levelo://app?vid=0077bbf9-38f1-4511-907e-3972b2141d66"},"vehicle_type_id":"4","last_reported":1685376493,"current_range_meters":29600,"station_id":"ce4bgl92rcd13ifvqbq0","pricing_plan_id":"free"},{"bike_id":"6506bcc2-b846-45f6-a165-8fb31e4eea8e","system_id":"levelo_inurba_marseille","lat":43.31224,"lon":5.36855,"is_reserved":false,"is_disabled":false,"rental_uris":{"android":"levelo://app?vid=6506bcc2-b846-45f6-a165-8fb31e4eea8e","ios":"levelo://app?vid=6506bcc2-b846-45f6-a165-8fb31e4eea8e"},"vehicle_type_id":"4","last_reported":1685376493,"current_range_meters":7600,"station_id":"ce4bgl92rcd13ifvqbq0","pricing_plan_id":"free"},{"bike_id":"88313250-2a13-4920-a509-1d70618dd328","system_id":"levelo_inurba_marseille","lat":43.31224,"lon":5.36856,"is_reserved":false,"is_disabled":false,"rental_uris":{"android":"levelo://app?vid=88313250-2a13-4920-a509-1d70618dd328","ios":"levelo://app?vid=88313250-2a13-4920-a509-1d70618dd328"},"vehicle_type_id":"4","last_reported":1685376493,"current_range_meters":31200,"station_id":"ce4bgl92rcd13ifvqbq0","pricing_plan_id":"free"},{"bike_id":"f5283d3b-cdd9-431d-b947-2400e1e55a44","system_id":"levelo_inurba_marseille","lat":43.31225,"lon":5.36857,"is_reserved":false,"is_disabled":false,"rental_uris":{"android":"levelo://app?vid=f5283d3b-cdd9-431d-b947-2400e1e55a44","ios":"levelo://app?vid=f5283d3b-cdd9-431d-b947-2400e1e55a44"},"vehicle_type_id":"4","last_reported":1685376493,"current_range_meters":31200,"station_id":"ce4bgl92rcd13ifvqbq0","pricing_plan_id":"free"},{"bike_id":"9325ecf4-ff47-40c3-bdbb-ecbdb9361211","system_id":"levelo_inurba_marseille","lat":43.31225,"lon":5.36858,"is_reserved":false,"is_disabled":false,"rental_uris":{"android":"levelo://app?vid=9325ecf4-ff47-40c3-bdbb-ecbdb9361211","ios":"levelo://app?vid=9325ecf4-ff47-40c3-bdbb-ecbdb9361211"},"vehicle_type_id":"4","last_reported":1685376493,"current_range_meters":31200,"station_id":"ce4bgl92rcd13ifvqbq0","pricing_plan_id":"free"},{"bike_id":"0bba8573-3f77-43aa-8aa5-98e355b01617","system_id":"levelo_inurba_marseille","lat":43.309076,"lon":5.368465,"is_reserved":false,"is_disabled":false,"rental_uris":{"android":"levelo://app?vid=0bba8573-3f77-43aa-8aa5-98e355b01617","ios":"levelo://app?vid=0bba8573-3f77-43aa-8aa5-98e355b01617"},"vehicle_type_id":"4","last_reported":1685376493,"current_range_meters":21200,"station_id":"ce4bgn92rcd13ifvqbvg","pricing_plan_id":"free"},{"bike_id":"d7794d8e-799f-40cf-bc17-0f2d998c2c21","system_id":"levelo_inurba_marseille","lat":43.314811,"lon":5.373103,"is_reserved":false,"is_disabled":false,"rental_uris":{"android":"levelo://app?vid=d7794d8e-799f-40cf-bc17-0f2d998c2c21","ios":"levelo://app?vid=d7794d8e-799f-40cf-bc17-0f2d998c2c21"},"vehicle_type_id":"4","last_reported":1685376493,"current_range_meters":8800,"station_id":"ce4bgt12rcd13ifvqcd0","pricing_plan_id":"free"},{"bike_id":"d226e977-3f0b-4b0c-a0e0-157c44aec210","system_id":"levelo_inurba_marseille","lat":43.31498,"lon":5.37298,"is_reserved":false,"is_disabled":false,"rental_uris":{"android":"levelo://app?vid=d226e977-3f0b-4b0c-a0e0-157c44aec210","ios":"levelo://app?vid=d226e977-3f0b-4b0c-a0e0-157c44aec210"},"vehicle_type_id":"4","last_reported":1685376493,"current_range_meters":27600,"station_id":"ce4bgt12rcd13ifvqcd0","pricing_plan_id":"free"},{"bike_id":"8ea6502d-4a81-4ca3-b0e7-1950d605e5e6","system_id":"levelo_inurba_marseille","lat":43.314811,"lon":5.373103,"is_reserved":false,"is_disabled":false,"rental_uris":{"android":"levelo://app?vid=8ea6502d-4a81-4ca3-b0e7-1950d605e5e6","ios":"levelo://app?vid=8ea6502d-4a81-4ca3-b0e7-1950d605e5e6"},"vehicle_type_id":"4","last_reported":1685376493,"current_range_meters":800,"station_id":"ce4bgt12rcd13ifvqcd0","pricing_plan_id":"free"},{"bike_id":"5790cdcb-d6d8-4df5-aae1-1b4ba144221e","system_id":"levelo_inurba_marseille","lat":43.30542,"lon":5.36702,"is_reserved":false,"is_disabled":false,"rental_uris":{"android":"levelo://app?vid=5790cdcb-d6d8-4df5-aae1-1b4ba144221e","ios":"levelo://app?vid=5790cdcb-d6d8-4df5-aae1-1b4ba144221e"},"vehicle_type_id":"4","last_reported":1685376493,"current_range_meters":0,"station_id":"ce4bgrp2rcd13ifvqc9g","pricing_plan_id":"free"},{"bike_id":"e81d3a31-2d5f-432d-b394-27746946d762","system_id":"levelo_inurba_marseille","lat":43.305989,"lon":5.37225,"is_reserved":false,"is_disabled":false,"rental_uris":{"android":"levelo://app?vid=e81d3a31-2d5f-432d-b394-27746946d762","ios":"levelo://app?vid=e81d3a31-2d5f-432d-b394-27746946d762"},"vehicle_type_id":"4","last_reported":1685376493,"current_range_meters":400,"station_id":"ce4bgqh2rcd13ifvqc4g","pricing_plan_id":"free"},{"bike_id":"c0c98d83-ced6-4cd9-b011-d97055786a5d","system_id":"levelo_inurba_marseille","lat":43.305989,"lon":5.37225,"is_reserved":false,"is_disabled":false,"rental_uris":{"android":"levelo://app?vid=c0c98d83-ced6-4cd9-b011-d97055786a5d","ios":"levelo://app?vid=c0c98d83-ced6-4cd9-b011-d97055786a5d"},"vehicle_type_id":"4","last_reported":1685376493,"current_range_meters":10000,"station_id":"ce4bgqh2rcd13ifvqc4g","pricing_plan_id":"free"},{"bike_id":"cfe8b94b-e6f8-4730-bb47-d0b7129b7594","system_id":"levelo_inurba_marseille","lat":43.30912,"lon":5.37664,"is_reserved":false,"is_disabled":false,"rental_uris":{"android":"levelo://app?vid=cfe8b94b-e6f8-4730-bb47-d0b7129b7594","ios":"levelo://app?vid=cfe8b94b-e6f8-4730-bb47-d0b7129b7594"},"vehicle_type_id":"4","last_reported":1685376493,"current_range_meters":20400,"station_id":"","pricing_plan_id":"free"},{"bike_id":"22787323-3cf7-4edc-93b0-8e47a35fb2f6","system_id":"levelo_inurba_marseille","lat":43.311125,"lon":5.377624,"is_reserved":false,"is_disabled":false,"rental_uris":{"android":"levelo://app?vid=22787323-3cf7-4edc-93b0-8e47a35fb2f6","ios":"levelo://app?vid=22787323-3cf7-4edc-93b0-8e47a35fb2f6"},"vehicle_type_id":"4","last_reported":1685376493,"current_range_meters":20400,"station_id":"ce4bgt92rcd13ifvqcg0","pricing_plan_id":"free"},{"bike_id":"3fa6f6c1-b242-4e61-8d25-a528762ff648","system_id":"levelo_inurba_marseille","lat":43.317075,"lon":5.377367,"is_reserved":false,"is_disabled":false,"rental_uris":{"android":"levelo://app?vid=3fa6f6c1-b242-4e61-8d25-a528762ff648","ios":"levelo://app?vid=3fa6f6c1-b242-4e61-8d25-a528762ff648"},"vehicle_type_id":"4","last_reported":1685376493,"current_range_meters":14000,"station_id":"ce4bgth2rcd13ifvqch0","pricing_plan_id":"free"},{"bike_id":"ac46bd21-4552-4c0d-9719-e4d4af40510d","system_id":"levelo_inurba_marseille","lat":43.317075,"lon":5.377367,"is_reserved":false,"is_disabled":false,"rental_uris":{"android":"levelo://app?vid=ac46bd21-4552-4c0d-9719-e4d4af40510d","ios":"levelo://app?vid=ac46bd21-4552-4c0d-9719-e4d4af40510d"},"vehicle_type_id":"4","last_reported":1685376493,"current_range_meters":22800,"station_id":"ce4bgth2rcd13ifvqch0","pricing_plan_id":"free"},{"bike_id":"d03dfde3-848d-4a12-b8c5-302f4c16e8c3","system_id":"levelo_inurba_marseille","lat":43.31554,"lon":5.38054,"is_reserved":false,"is_disabled":false,"rental_uris":{"android":"levelo://app?vid=d03dfde3-848d-4a12-b8c5-302f4c16e8c3","ios":"levelo://app?vid=d03dfde3-848d-4a12-b8c5-302f4c16e8c3"},"vehicle_type_id":"4","last_reported":1685376493,"current_range_meters":17200,"station_id":"","pricing_plan_id":"free"},{"bike_id":"4179a864-5663-41f8-9bfa-d75035c4a3ee","system_id":"levelo_inurba_marseille","lat":43.30803,"lon":5.38137,"is_reserved":false,"is_disabled":false,"rental_uris":{"android":"levelo://app?vid=4179a864-5663-41f8-9bfa-d75035c4a3ee","ios":"levelo://app?vid=4179a864-5663-41f8-9bfa-d75035c4a3ee"},"vehicle_type_id":"4","last_reported":1685376493,"current_range_meters":0,"station_id":"ce4bgt12rcd13ifvqce0","pricing_plan_id":"free"},{"bike_id":"2b651255-47da-4042-afe0-11acc45c33d6","system_id":"levelo_inurba_marseille","lat":43.30809,"lon":5.38143,"is_reserved":false,"is_disabled":false,"rental_uris":{"android":"levelo://app?vid=2b651255-47da-4042-afe0-11acc45c33d6","ios":"levelo://app?vid=2b651255-47da-4042-afe0-11acc45c33d6"},"vehicle_type_id":"4","last_reported":1685376493,"current_range_meters":0,"station_id":"ce4bgt12rcd13ifvqce0","pricing_plan_id":"free"},{"bike_id":"476d951e-7489-4c63-adc8-e9ce8ce2a56c","system_id":"levelo_inurba_marseille","lat":43.30798,"lon":5.38144,"is_reserved":false,"is_disabled":false,"rental_uris":{"android":"levelo://app?vid=476d951e-7489-4c63-adc8-e9ce8ce2a56c","ios":"levelo://app?vid=476d951e-7489-4c63-adc8-e9ce8ce2a56c"},"vehicle_type_id":"4","last_reported":1685376493,"current_range_meters":800,"station_id":"ce4bgt12rcd13ifvqce0","pricing_plan_id":"free"},{"bike_id":"ed272adf-e0b4-44bb-9df7-6fcd25ff38c8","system_id":"levelo_inurba_marseille","lat":43.304606,"lon":5.379026,"is_reserved":false,"is_disabled":false,"rental_uris":{"android":"levelo://app?vid=ed272adf-e0b4-44bb-9df7-6fcd25ff38c8","ios":"levelo://app?vid=ed272adf-e0b4-44bb-9df7-6fcd25ff38c8"},"vehicle_type_id":"4","last_reported":1685376493,"current_range_meters":4400,"station_id":"ce4bgup2rcd13ifvqcn0","pricing_plan_id":"free"},{"bike_id":"433f9d66-633a-442c-8668-8df701999835","system_id":"levelo_inurba_marseille","lat":43.304606,"lon":5.379026,"is_reserved":false,"is_disabled":false,"rental_uris":{"android":"levelo://app?vid=433f9d66-633a-442c-8668-8df701999835","ios":"levelo://app?vid=433f9d66-633a-442c-8668-8df701999835"},"vehicle_type_id":"4","last_reported":1685376493,"current_range_meters":20000,"station_id":"ce4bgup2rcd13ifvqcn0","pricing_plan_id":"free"},{"bike_id":"14f2d4ab-ef49-4fce-a47b-7cdf9b51c3ed","system_id":"levelo_inurba_marseille","lat":43.29854,"lon":5.36287,"is_reserved":false,"is_disabled":false,"rental_uris":{"android":"levelo://app?vid=14f2d4ab-ef49-4fce-a47b-7cdf9b51c3ed","ios":"levelo://app?vid=14f2d4ab-ef49-4fce-a47b-7cdf9b51c3ed"},"vehicle_type_id":"4","last_reported":1685376493,"current_range_meters":31200,"station_id":"ce4bgpp2rcd13ifvqc3g","pricing_plan_id":"free"},{"bike_id":"226dcba4-9693-498f-8518-6b75c1570c99","system_id":"levelo_inurba_marseille","lat":43.29852,"lon":5.3629,"is_reserved":false,"is_disabled":false,"rental_uris":{"android":"levelo://app?vid=226dcba4-9693-498f-8518-6b75c1570c99","ios":"levelo://app?vid=226dcba4-9693-498f-8518-6b75c1570c99"},"vehicle_type_id":"4","last_reported":1685376493,"current_range_meters":21600,"station_id":"ce4bgpp2rcd13ifvqc3g","pricing_plan_id":"free"},{"bike_id":"7cdac6dd-5d85-4226-945f-203f35ef9548","system_id":"levelo_inurba_marseille","lat":43.298433,"lon":5.362774,"is_reserved":false,"is_disabled":false,"rental_uris":{"android":"levelo://app?vid=7cdac6dd-5d85-4226-945f-203f35ef9548","ios":"levelo://app?vid=7cdac6dd-5d85-4226-945f-203f35ef9548"},"vehicle_type_id":"4","last_reported":1685376493,"current_range_meters":10800,"station_id":"ce4bgpp2rcd13ifvqc3g","pricing_plan_id":"free"},{"bike_id":"97d4b127-7df8-4e1e-9399-c4dfb009e1b2","system_id":"levelo_inurba_marseille","lat":43.29849,"lon":5.36269,"is_reserved":false,"is_disabled":false,"rental_uris":{"android":"levelo://app?vid=97d4b127-7df8-4e1e-9399-c4dfb009e1b2","ios":"levelo://app?vid=97d4b127-7df8-4e1e-9399-c4dfb009e1b2"},"vehicle_type_id":"4","last_reported":1685376493,"current_range_meters":5600,"station_id":"","pricing_plan_id":"free"},{"bike_id":"55aaf67e-519b-4a7f-9881-fa9730870cf9","system_id":"levelo_inurba_marseille","lat":43.30531,"lon":5.38423,"is_reserved":false,"is_disabled":false,"rental_uris":{"android":"levelo://app?vid=55aaf67e-519b-4a7f-9881-fa9730870cf9","ios":"levelo://app?vid=55aaf67e-519b-4a7f-9881-fa9730870cf9"},"vehicle_type_id":"4","last_reported":1685376493,"current_range_meters":0,"station_id":"ce4bgg92rcd13ifvqb30","pricing_plan_id":"free"},{"bike_id":"7dee2c10-1fcb-496f-bf01-7f562687c263","system_id":"levelo_inurba_marseille","lat":43.298433,"lon":5.362774,"is_reserved":false,"is_disabled":false,"rental_uris":{"android":"levelo://app?vid=7dee2c10-1fcb-496f-bf01-7f562687c263","ios":"levelo://app?vid=7dee2c10-1fcb-496f-bf01-7f562687c263"},"vehicle_type_id":"4","last_reported":1685376493,"current_range_meters":24800,"station_id":"ce4bgpp2rcd13ifvqc3g","pricing_plan_id":"free"},{"bike_id":"2c1f1ba8-11ba-40c1-a350-3178b495eb53","system_id":"levelo_inurba_marseille","lat":43.298433,"lon":5.362774,"is_reserved":false,"is_disabled":false,"rental_uris":{"android":"levelo://app?vid=2c1f1ba8-11ba-40c1-a350-3178b495eb53","ios":"levelo://app?vid=2c1f1ba8-11ba-40c1-a350-3178b495eb53"},"vehicle_type_id":"4","last_reported":1685376493,"current_range_meters":4800,"station_id":"ce4bgpp2rcd13ifvqc3g","pricing_plan_id":"free"},{"bike_id":"d11da2d4-50ab-475d-a497-999f76f85bd5","system_id":"levelo_inurba_marseille","lat":43.32745,"lon":5.36701,"is_reserved":false,"is_disabled":false,"rental_uris":{"android":"levelo://app?vid=d11da2d4-50ab-475d-a497-999f76f85bd5","ios":"levelo://app?vid=d11da2d4-50ab-475d-a497-999f76f85bd5"},"vehicle_type_id":"4","last_reported":1685376493,"current_range_meters":21600,"station_id":"","pricing_plan_id":"free"},{"bike_id":"eaaaca8a-5144-400c-a545-6580a399e6dc","system_id":"levelo_inurba_marseille","lat":43.32825,"lon":5.36682,"is_reserved":false,"is_disabled":false,"rental_uris":{"android":"levelo://app?vid=eaaaca8a-5144-400c-a545-6580a399e6dc","ios":"levelo://app?vid=eaaaca8a-5144-400c-a545-6580a399e6dc"},"vehicle_type_id":"4","last_reported":1685376493,"current_range_meters":15600,"station_id":"ce4bhs92rcd13ifvqi0g","pricing_plan_id":"free"},{"bike_id":"c411fcec-14f2-4650-b657-d5fd41572356","system_id":"levelo_inurba_marseille","lat":43.32826,"lon":5.36689,"is_reserved":false,"is_disabled":false,"rental_uris":{"android":"levelo://app?vid=c411fcec-14f2-4650-b657-d5fd41572356","ios":"levelo://app?vid=c411fcec-14f2-4650-b657-d5fd41572356"},"vehicle_type_id":"4","last_reported":1685376493,"current_range_meters":0,"station_id":"ce4bhs92rcd13ifvqi0g","pricing_plan_id":"free"},{"bike_id":"5895156f-f83a-4b54-a0b5-57f02c18ef1a","system_id":"levelo_inurba_marseille","lat":43.32826,"lon":5.36679,"is_reserved":false,"is_disabled":false,"rental_uris":{"android":"levelo://app?vid=5895156f-f83a-4b54-a0b5-57f02c18ef1a","ios":"levelo://app?vid=5895156f-f83a-4b54-a0b5-57f02c18ef1a"},"vehicle_type_id":"4","last_reported":1685376493,"current_range_meters":21600,"station_id":"ce4bhs92rcd13ifvqi0g","pricing_plan_id":"free"},{"bike_id":"c400e462-a4de-4542-ac86-b99081db2f1e","system_id":"levelo_inurba_marseille","lat":43.32826,"lon":5.36675,"is_reserved":false,"is_disabled":false,"rental_uris":{"android":"levelo://app?vid=c400e462-a4de-4542-ac86-b99081db2f1e","ios":"levelo://app?vid=c400e462-a4de-4542-ac86-b99081db2f1e"},"vehicle_type_id":"4","last_reported":1685376493,"current_range_meters":9600,"station_id":"ce4bhs92rcd13ifvqi0g","pricing_plan_id":"free"},{"bike_id":"6afd2251-95ae-444b-b246-c09edb72787d","system_id":"levelo_inurba_marseille","lat":43.32828,"lon":5.3669,"is_reserved":false,"is_disabled":false,"rental_uris":{"android":"levelo://app?vid=6afd2251-95ae-444b-b246-c09edb72787d","ios":"levelo://app?vid=6afd2251-95ae-444b-b246-c09edb72787d"},"vehicle_type_id":"4","last_reported":1685376493,"current_range_meters":7600,"station_id":"ce4bhs92rcd13ifvqi0g","pricing_plan_id":"free"},{"bike_id":"60edb3b2-d8e9-4c71-b2fa-9e940834a4e9","system_id":"levelo_inurba_marseille","lat":43.3283,"lon":5.36694,"is_reserved":false,"is_disabled":false,"rental_uris":{"android":"levelo://app?vid=60edb3b2-d8e9-4c71-b2fa-9e940834a4e9","ios":"levelo://app?vid=60edb3b2-d8e9-4c71-b2fa-9e940834a4e9"},"vehicle_type_id":"4","last_reported":1685376493,"current_range_meters":24400,"station_id":"ce4bhs92rcd13ifvqi0g","pricing_plan_id":"free"},{"bike_id":"5fb1cb99-24bd-4294-8cf9-3b619effb82d","system_id":"levelo_inurba_marseille","lat":43.3283,"lon":5.36681,"is_reserved":false,"is_disabled":false,"rental_uris":{"android":"levelo://app?vid=5fb1cb99-24bd-4294-8cf9-3b619effb82d","ios":"levelo://app?vid=5fb1cb99-24bd-4294-8cf9-3b619effb82d"},"vehicle_type_id":"4","last_reported":1685376493,"current_range_meters":23200,"station_id":"ce4bhs92rcd13ifvqi0g","pricing_plan_id":"free"},{"bike_id":"c535c152-66f1-4490-a5f6-9a4013f1e820","system_id":"levelo_inurba_marseille","lat":43.296921,"lon":5.376579,"is_reserved":false,"is_disabled":false,"rental_uris":{"android":"levelo://app?vid=c535c152-66f1-4490-a5f6-9a4013f1e820","ios":"levelo://app?vid=c535c152-66f1-4490-a5f6-9a4013f1e820"},"vehicle_type_id":"4","last_reported":1685376493,"current_range_meters":2800,"station_id":"ce4bgkh2rcd13ifvqbl0","pricing_plan_id":"free"},{"bike_id":"0d9e0a75-a974-4592-92a8-2df6f72550d9","system_id":"levelo_inurba_marseille","lat":43.317557,"lon":5.390173,"is_reserved":false,"is_disabled":false,"rental_uris":{"android":"levelo://app?vid=0d9e0a75-a974-4592-92a8-2df6f72550d9","ios":"levelo://app?vid=0d9e0a75-a974-4592-92a8-2df6f72550d9"},"vehicle_type_id":"4","last_reported":1685376493,"current_range_meters":13600,"station_id":"ce4bhqp2rcd13ifvqhng","pricing_plan_id":"free"},{"bike_id":"ed9e4011-64d0-4443-8340-10c40b9d828f","system_id":"levelo_inurba_marseille","lat":43.295748,"lon":5.37522,"is_reserved":false,"is_disabled":false,"rental_uris":{"android":"levelo://app?vid=ed9e4011-64d0-4443-8340-10c40b9d828f","ios":"levelo://app?vid=ed9e4011-64d0-4443-8340-10c40b9d828f"},"vehicle_type_id":"4","last_reported":1685376493,"current_range_meters":0,"station_id":"ce4bgh92rcd13ifvqb50","pricing_plan_id":"free"},{"bike_id":"e585847d-c07b-4b20-8f11-edba78c948a9","system_id":"levelo_inurba_marseille","lat":43.295748,"lon":5.37522,"is_reserved":false,"is_disabled":false,"rental_uris":{"android":"levelo://app?vid=e585847d-c07b-4b20-8f11-edba78c948a9","ios":"levelo://app?vid=e585847d-c07b-4b20-8f11-edba78c948a9"},"vehicle_type_id":"4","last_reported":1685376493,"current_range_meters":18400,"station_id":"ce4bgh92rcd13ifvqb50","pricing_plan_id":"free"},{"bike_id":"2de6a6b3-0020-4417-b2ab-6fc974c820b6","system_id":"levelo_inurba_marseille","lat":43.299724,"lon":5.384848,"is_reserved":false,"is_disabled":false,"rental_uris":{"android":"levelo://app?vid=2de6a6b3-0020-4417-b2ab-6fc974c820b6","ios":"levelo://app?vid=2de6a6b3-0020-4417-b2ab-6fc974c820b6"},"vehicle_type_id":"4","last_reported":1685376493,"current_range_meters":12800,"station_id":"ce4bgj92rcd13ifvqbd0","pricing_plan_id":"free"},{"bike_id":"0171d8ad-bb16-4643-ac9c-57280febc488","system_id":"levelo_inurba_marseille","lat":43.296263,"lon":5.377094,"is_reserved":false,"is_disabled":false,"rental_uris":{"android":"levelo://app?vid=0171d8ad-bb16-4643-ac9c-57280febc488","ios":"levelo://app?vid=0171d8ad-bb16-4643-ac9c-57280febc488"},"vehicle_type_id":"4","last_reported":1685376493,"current_range_meters":0,"station_id":"ce4bgi92rcd13ifvqb90","pricing_plan_id":"free"},{"bike_id":"02600ba2-82ef-4cd8-8268-7d7474885a4f","system_id":"levelo_inurba_marseille","lat":43.295279,"lon":5.375048,"is_reserved":false,"is_disabled":false,"rental_uris":{"android":"levelo://app?vid=02600ba2-82ef-4cd8-8268-7d7474885a4f","ios":"levelo://app?vid=02600ba2-82ef-4cd8-8268-7d7474885a4f"},"vehicle_type_id":"4","last_reported":1685376493,"current_range_meters":0,"station_id":"ce4bgkp2rcd13ifvqbmg","pricing_plan_id":"free"},{"bike_id":"76bc90e9-b067-49c3-bf07-0368cf9043ce","system_id":"levelo_inurba_marseille","lat":43.29977,"lon":5.38489,"is_reserved":false,"is_disabled":false,"rental_uris":{"android":"levelo://app?vid=76bc90e9-b067-49c3-bf07-0368cf9043ce","ios":"levelo://app?vid=76bc90e9-b067-49c3-bf07-0368cf9043ce"},"vehicle_type_id":"4","last_reported":1685376493,"current_range_meters":22400,"station_id":"","pricing_plan_id":"free"},{"bike_id":"fd1c6c24-e1b4-44d7-9752-d7716fc9cd77","system_id":"levelo_inurba_marseille","lat":43.295279,"lon":5.375048,"is_reserved":false,"is_disabled":false,"rental_uris":{"android":"levelo://app?vid=fd1c6c24-e1b4-44d7-9752-d7716fc9cd77","ios":"levelo://app?vid=fd1c6c24-e1b4-44d7-9752-d7716fc9cd77"},"vehicle_type_id":"4","last_reported":1685376493,"current_range_meters":21600,"station_id":"ce4bgkp2rcd13ifvqbmg","pricing_plan_id":"free"},{"bike_id":"3d8c5027-7a07-41e3-9d9d-e29f7ebbc803","system_id":"levelo_inurba_marseille","lat":43.2996,"lon":5.38495,"is_reserved":false,"is_disabled":false,"rental_uris":{"android":"levelo://app?vid=3d8c5027-7a07-41e3-9d9d-e29f7ebbc803","ios":"levelo://app?vid=3d8c5027-7a07-41e3-9d9d-e29f7ebbc803"},"vehicle_type_id":"4","last_reported":1685376493,"current_range_meters":21200,"station_id":"ce4bgj92rcd13ifvqbd0","pricing_plan_id":"free"},{"bike_id":"db9d0b8c-a66e-4144-a40d-f2a5f8a93f17","system_id":"levelo_inurba_marseille","lat":43.29658,"lon":5.38024,"is_reserved":false,"is_disabled":false,"rental_uris":{"android":"levelo://app?vid=db9d0b8c-a66e-4144-a40d-f2a5f8a93f17","ios":"levelo://app?vid=db9d0b8c-a66e-4144-a40d-f2a5f8a93f17"},"vehicle_type_id":"4","last_reported":1685376493,"current_range_meters":6000,"station_id":"","pricing_plan_id":"free"},{"bike_id":"950f3a0b-8466-40bf-8f81-5f5cf1a96632","system_id":"levelo_inurba_marseille","lat":43.32367,"lon":5.388836,"is_reserved":false,"is_disabled":false,"rental_uris":{"android":"levelo://app?vid=950f3a0b-8466-40bf-8f81-5f5cf1a96632","ios":"levelo://app?vid=950f3a0b-8466-40bf-8f81-5f5cf1a96632"},"vehicle_type_id":"4","last_reported":1685376493,"current_range_meters":8400,"station_id":"ce4bhqp2rcd13ifvqhog","pricing_plan_id":"free"},{"bike_id":"79bcb976-512e-453a-a5e2-5d0c9013a824","system_id":"levelo_inurba_marseille","lat":43.292749,"lon":5.368398,"is_reserved":false,"is_disabled":false,"rental_uris":{"android":"levelo://app?vid=79bcb976-512e-453a-a5e2-5d0c9013a824","ios":"levelo://app?vid=79bcb976-512e-453a-a5e2-5d0c9013a824"},"vehicle_type_id":"4","last_reported":1685376493,"current_range_meters":14400,"station_id":"ce4bhbp2rcd13ifvqesg","pricing_plan_id":"free"},{"bike_id":"4ad52d75-d821-4bc3-8470-0f0a1f5bf560","system_id":"levelo_inurba_marseille","lat":43.292749,"lon":5.368398,"is_reserved":false,"is_disabled":false,"rental_uris":{"android":"levelo://app?vid=4ad52d75-d821-4bc3-8470-0f0a1f5bf560","ios":"levelo://app?vid=4ad52d75-d821-4bc3-8470-0f0a1f5bf560"},"vehicle_type_id":"4","last_reported":1685376493,"current_range_meters":16000,"station_id":"ce4bhbp2rcd13ifvqesg","pricing_plan_id":"free"},{"bike_id":"2864b228-43d0-4231-b5e1-cbf00754dae3","system_id":"levelo_inurba_marseille","lat":43.292749,"lon":5.368402,"is_reserved":false,"is_disabled":false,"rental_uris":{"android":"levelo://app?vid=2864b228-43d0-4231-b5e1-cbf00754dae3","ios":"levelo://app?vid=2864b228-43d0-4231-b5e1-cbf00754dae3"},"vehicle_type_id":"4","last_reported":1685376493,"current_range_meters":800,"station_id":"ce4bhbp2rcd13ifvqesg","pricing_plan_id":"free"},{"bike_id":"3f8942d7-6f83-4409-8da3-2f8ee581d3c1","system_id":"levelo_inurba_marseille","lat":43.292749,"lon":5.368402,"is_reserved":false,"is_disabled":false,"rental_uris":{"android":"levelo://app?vid=3f8942d7-6f83-4409-8da3-2f8ee581d3c1","ios":"levelo://app?vid=3f8942d7-6f83-4409-8da3-2f8ee581d3c1"},"vehicle_type_id":"4","last_reported":1685376493,"current_range_meters":23600,"station_id":"ce4bhbp2rcd13ifvqesg","pricing_plan_id":"free"},{"bike_id":"cced82ab-58b7-4ce1-b687-4c776e11f5f0","system_id":"levelo_inurba_marseille","lat":43.292749,"lon":5.368402,"is_reserved":false,"is_disabled":false,"rental_uris":{"android":"levelo://app?vid=cced82ab-58b7-4ce1-b687-4c776e11f5f0","ios":"levelo://app?vid=cced82ab-58b7-4ce1-b687-4c776e11f5f0"},"vehicle_type_id":"4","last_reported":1685376493,"current_range_meters":28000,"station_id":"ce4bhbp2rcd13ifvqesg","pricing_plan_id":"free"},{"bike_id":"4bd74419-2037-4e2a-bc58-255b777ac20b","system_id":"levelo_inurba_marseille","lat":43.305994,"lon":5.393687,"is_reserved":false,"is_disabled":false,"rental_uris":{"android":"levelo://app?vid=4bd74419-2037-4e2a-bc58-255b777ac20b","ios":"levelo://app?vid=4bd74419-2037-4e2a-bc58-255b777ac20b"},"vehicle_type_id":"4","last_reported":1685376493,"current_range_meters":4400,"station_id":"ce4bh0p2rcd13ifvqd80","pricing_plan_id":"free"},{"bike_id":"b7181b3f-df9f-4e8f-8eb0-ec31f1f5aab5","system_id":"levelo_inurba_marseille","lat":43.299707,"lon":5.384859,"is_reserved":false,"is_disabled":false,"rental_uris":{"android":"levelo://app?vid=b7181b3f-df9f-4e8f-8eb0-ec31f1f5aab5","ios":"levelo://app?vid=b7181b3f-df9f-4e8f-8eb0-ec31f1f5aab5"},"vehicle_type_id":"4","last_reported":1685376493,"current_range_meters":17600,"station_id":"ce4bgj92rcd13ifvqbd0","pricing_plan_id":"free"},{"bike_id":"62306909-0585-4149-b394-e68c467a41bb","system_id":"levelo_inurba_marseille","lat":43.293009,"lon":5.374584,"is_reserved":false,"is_disabled":false,"rental_uris":{"android":"levelo://app?vid=62306909-0585-4149-b394-e68c467a41bb","ios":"levelo://app?vid=62306909-0585-4149-b394-e68c467a41bb"},"vehicle_type_id":"4","last_reported":1685376493,"current_range_meters":7200,"station_id":"ce4bgi12rcd13ifvqb70","pricing_plan_id":"free"},{"bike_id":"ed7cce94-d45f-49a8-a396-ffbe6d7488b4","system_id":"levelo_inurba_marseille","lat":43.302992,"lon":5.392136,"is_reserved":false,"is_disabled":false,"rental_uris":{"android":"levelo://app?vid=ed7cce94-d45f-49a8-a396-ffbe6d7488b4","ios":"levelo://app?vid=ed7cce94-d45f-49a8-a396-ffbe6d7488b4"},"vehicle_type_id":"4","last_reported":1685376493,"current_range_meters":13600,"station_id":"ce4bgkh2rcd13ifvqbk0","pricing_plan_id":"free"},{"bike_id":"b965b690-c2ed-4149-a197-ce0f49f3ec9a","system_id":"levelo_inurba_marseille","lat":43.292663,"lon":5.376389,"is_reserved":false,"is_disabled":false,"rental_uris":{"android":"levelo://app?vid=b965b690-c2ed-4149-a197-ce0f49f3ec9a","ios":"levelo://app?vid=b965b690-c2ed-4149-a197-ce0f49f3ec9a"},"vehicle_type_id":"4","last_reported":1685376493,"current_range_meters":0,"station_id":"ce4bgi12rcd13ifvqb80","pricing_plan_id":"free"},{"bike_id":"7c89b6c8-3809-4c69-a95d-092e81f354bf","system_id":"levelo_inurba_marseille","lat":43.291675,"lon":5.371583,"is_reserved":false,"is_disabled":false,"rental_uris":{"android":"levelo://app?vid=7c89b6c8-3809-4c69-a95d-092e81f354bf","ios":"levelo://app?vid=7c89b6c8-3809-4c69-a95d-092e81f354bf"},"vehicle_type_id":"4","last_reported":1685376493,"current_range_meters":15600,"station_id":"ce4bha92rcd13ifvqeh0","pricing_plan_id":"free"},{"bike_id":"f2736fee-074e-4387-9c63-295d3e8f9d6d","system_id":"levelo_inurba_marseille","lat":43.291671,"lon":5.371575,"is_reserved":false,"is_disabled":false,"rental_uris":{"android":"levelo://app?vid=f2736fee-074e-4387-9c63-295d3e8f9d6d","ios":"levelo://app?vid=f2736fee-074e-4387-9c63-295d3e8f9d6d"},"vehicle_type_id":"4","last_reported":1685376493,"current_range_meters":15600,"station_id":"ce4bha92rcd13ifvqeh0","pricing_plan_id":"free"},{"bike_id":"c55f8778-a548-4851-8fdb-9a588c27a7d3","system_id":"levelo_inurba_marseille","lat":43.291994,"lon":5.357886,"is_reserved":false,"is_disabled":false,"rental_uris":{"android":"levelo://app?vid=c55f8778-a548-4851-8fdb-9a588c27a7d3","ios":"levelo://app?vid=c55f8778-a548-4851-8fdb-9a588c27a7d3"},"vehicle_type_id":"4","last_reported":1685376493,"current_range_meters":8800,"station_id":"ce4bhb12rcd13ifvqel0","pricing_plan_id":"free"},{"bike_id":"1efcf2dd-7c9c-42cb-b285-ea90668dd297","system_id":"levelo_inurba_marseille","lat":43.29193,"lon":5.35806,"is_reserved":false,"is_disabled":false,"rental_uris":{"android":"levelo://app?vid=1efcf2dd-7c9c-42cb-b285-ea90668dd297","ios":"levelo://app?vid=1efcf2dd-7c9c-42cb-b285-ea90668dd297"},"vehicle_type_id":"4","last_reported":1685376493,"current_range_meters":0,"station_id":"ce4bhb12rcd13ifvqel0","pricing_plan_id":"free"},{"bike_id":"8500a34d-04ff-4426-af93-5248b1462c75","system_id":"levelo_inurba_marseille","lat":43.291994,"lon":5.357886,"is_reserved":false,"is_disabled":false,"rental_uris":{"android":"levelo://app?vid=8500a34d-04ff-4426-af93-5248b1462c75","ios":"levelo://app?vid=8500a34d-04ff-4426-af93-5248b1462c75"},"vehicle_type_id":"4","last_reported":1685376493,"current_range_meters":2400,"station_id":"ce4bhb12rcd13ifvqel0","pricing_plan_id":"free"},{"bike_id":"0404e416-2f8c-4031-b4c4-f66002083d91","system_id":"levelo_inurba_marseille","lat":43.309038,"lon":5.396546,"is_reserved":false,"is_disabled":false,"rental_uris":{"android":"levelo://app?vid=0404e416-2f8c-4031-b4c4-f66002083d91","ios":"levelo://app?vid=0404e416-2f8c-4031-b4c4-f66002083d91"},"vehicle_type_id":"4","last_reported":1685376493,"current_range_meters":4000,"station_id":"ce4bh012rcd13ifvqcv0","pricing_plan_id":"free"},{"bike_id":"fca796a2-4785-43ae-ae69-e854761a2867","system_id":"levelo_inurba_marseille","lat":43.309038,"lon":5.396546,"is_reserved":false,"is_disabled":false,"rental_uris":{"android":"levelo://app?vid=fca796a2-4785-43ae-ae69-e854761a2867","ios":"levelo://app?vid=fca796a2-4785-43ae-ae69-e854761a2867"},"vehicle_type_id":"4","last_reported":1685376493,"current_range_meters":0,"station_id":"ce4bh012rcd13ifvqcv0","pricing_plan_id":"free"},{"bike_id":"958323ad-eb77-4095-9d1c-7b63b9ec4329","system_id":"levelo_inurba_marseille","lat":43.29529,"lon":5.385581,"is_reserved":false,"is_disabled":false,"rental_uris":{"android":"levelo://app?vid=958323ad-eb77-4095-9d1c-7b63b9ec4329","ios":"levelo://app?vid=958323ad-eb77-4095-9d1c-7b63b9ec4329"},"vehicle_type_id":"4","last_reported":1685376493,"current_range_meters":3600,"station_id":"ce4bgih2rcd13ifvqba0","pricing_plan_id":"free"},{"bike_id":"d096a7f8-7605-448f-bec6-ee0277581c10","system_id":"levelo_inurba_marseille","lat":43.29529,"lon":5.385581,"is_reserved":false,"is_disabled":false,"rental_uris":{"android":"levelo://app?vid=d096a7f8-7605-448f-bec6-ee0277581c10","ios":"levelo://app?vid=d096a7f8-7605-448f-bec6-ee0277581c10"},"vehicle_type_id":"4","last_reported":1685376493,"current_range_meters":10000,"station_id":"ce4bgih2rcd13ifvqba0","pricing_plan_id":"free"},{"bike_id":"c1c1ea9f-3395-4e9e-b351-80ec1eccdd8a","system_id":"levelo_inurba_marseille","lat":43.29529,"lon":5.385581,"is_reserved":false,"is_disabled":false,"rental_uris":{"android":"levelo://app?vid=c1c1ea9f-3395-4e9e-b351-80ec1eccdd8a","ios":"levelo://app?vid=c1c1ea9f-3395-4e9e-b351-80ec1eccdd8a"},"vehicle_type_id":"4","last_reported":1685376493,"current_range_meters":16800,"station_id":"ce4bgih2rcd13ifvqba0","pricing_plan_id":"free"},{"bike_id":"face3bb4-df28-434c-bb05-4e1d6f2821ac","system_id":"levelo_inurba_marseille","lat":43.290779,"lon":5.371482,"is_reserved":false,"is_disabled":false,"rental_uris":{"android":"levelo://app?vid=face3bb4-df28-434c-bb05-4e1d6f2821ac","ios":"levelo://app?vid=face3bb4-df28-434c-bb05-4e1d6f2821ac"},"vehicle_type_id":"4","last_reported":1685376493,"current_range_meters":0,"station_id":"ce4bh5p2rcd13ifvqe4g","pricing_plan_id":"free"},{"bike_id":"e91450e0-1e9d-450e-a2c3-aa03d5949b53","system_id":"levelo_inurba_marseille","lat":43.290779,"lon":5.371482,"is_reserved":false,"is_disabled":false,"rental_uris":{"android":"levelo://app?vid=e91450e0-1e9d-450e-a2c3-aa03d5949b53","ios":"levelo://app?vid=e91450e0-1e9d-450e-a2c3-aa03d5949b53"},"vehicle_type_id":"4","last_reported":1685376493,"current_range_meters":19200,"station_id":"ce4bh5p2rcd13ifvqe4g","pricing_plan_id":"free"},{"bike_id":"a9dd67d2-daed-409b-b0ff-927a5fb47e85","system_id":"levelo_inurba_marseille","lat":43.302008,"lon":5.394694,"is_reserved":false,"is_disabled":false,"rental_uris":{"android":"levelo://app?vid=a9dd67d2-daed-409b-b0ff-927a5fb47e85","ios":"levelo://app?vid=a9dd67d2-daed-409b-b0ff-927a5fb47e85"},"vehicle_type_id":"4","last_reported":1685376493,"current_range_meters":14800,"station_id":"ce4bh0p2rcd13ifvqd70","pricing_plan_id":"free"},{"bike_id":"a1c38d32-132b-411b-be87-7a28b0a5a6ff","system_id":"levelo_inurba_marseille","lat":43.294153,"lon":5.386305,"is_reserved":false,"is_disabled":false,"rental_uris":{"android":"levelo://app?vid=a1c38d32-132b-411b-be87-7a28b0a5a6ff","ios":"levelo://app?vid=a1c38d32-132b-411b-be87-7a28b0a5a6ff"},"vehicle_type_id":"4","last_reported":1685376493,"current_range_meters":4400,"station_id":"ce4bh2h2rcd13ifvqdh0","pricing_plan_id":"free"},{"bike_id":"dec06da9-2fb6-4d87-8f84-718ca1dbe056","system_id":"levelo_inurba_marseille","lat":43.289184,"lon":5.366408,"is_reserved":false,"is_disabled":false,"rental_uris":{"android":"levelo://app?vid=dec06da9-2fb6-4d87-8f84-718ca1dbe056","ios":"levelo://app?vid=dec06da9-2fb6-4d87-8f84-718ca1dbe056"},"vehicle_type_id":"4","last_reported":1685376493,"current_range_meters":2000,"station_id":"ce4bhap2rcd13ifvqek0","pricing_plan_id":"free"},{"bike_id":"0535e68b-f7fa-494d-9eb4-e5f8d5798343","system_id":"levelo_inurba_marseille","lat":43.289184,"lon":5.366408,"is_reserved":false,"is_disabled":false,"rental_uris":{"android":"levelo://app?vid=0535e68b-f7fa-494d-9eb4-e5f8d5798343","ios":"levelo://app?vid=0535e68b-f7fa-494d-9eb4-e5f8d5798343"},"vehicle_type_id":"4","last_reported":1685376493,"current_range_meters":31600,"station_id":"ce4bhap2rcd13ifvqek0","pricing_plan_id":"free"},{"bike_id":"952a3c64-c158-4b84-893e-a25af01492f5","system_id":"levelo_inurba_marseille","lat":43.289184,"lon":5.366408,"is_reserved":false,"is_disabled":false,"rental_uris":{"android":"levelo://app?vid=952a3c64-c158-4b84-893e-a25af01492f5","ios":"levelo://app?vid=952a3c64-c158-4b84-893e-a25af01492f5"},"vehicle_type_id":"4","last_reported":1685376493,"current_range_meters":0,"station_id":"ce4bhap2rcd13ifvqek0","pricing_plan_id":"free"},{"bike_id":"32e19bdf-5482-4436-9e8b-17bd53a51ac2","system_id":"levelo_inurba_marseille","lat":43.289184,"lon":5.366408,"is_reserved":false,"is_disabled":false,"rental_uris":{"android":"levelo://app?vid=32e19bdf-5482-4436-9e8b-17bd53a51ac2","ios":"levelo://app?vid=32e19bdf-5482-4436-9e8b-17bd53a51ac2"},"vehicle_type_id":"4","last_reported":1685376493,"current_range_meters":3200,"station_id":"ce4bhap2rcd13ifvqek0","pricing_plan_id":"free"},{"bike_id":"46a6b625-cd67-4f6c-9213-9fd3303fc7ad","system_id":"levelo_inurba_marseille","lat":43.289184,"lon":5.366408,"is_reserved":false,"is_disabled":false,"rental_uris":{"android":"levelo://app?vid=46a6b625-cd67-4f6c-9213-9fd3303fc7ad","ios":"levelo://app?vid=46a6b625-cd67-4f6c-9213-9fd3303fc7ad"},"vehicle_type_id":"4","last_reported":1685376493,"current_range_meters":29200,"station_id":"ce4bhap2rcd13ifvqek0","pricing_plan_id":"free"},{"bike_id":"98f63197-6aa6-4d28-82ac-6c2f65a6bd5b","system_id":"levelo_inurba_marseille","lat":43.304296,"lon":5.397513,"is_reserved":false,"is_disabled":false,"rental_uris":{"android":"levelo://app?vid=98f63197-6aa6-4d28-82ac-6c2f65a6bd5b","ios":"levelo://app?vid=98f63197-6aa6-4d28-82ac-6c2f65a6bd5b"},"vehicle_type_id":"4","last_reported":1685376493,"current_range_meters":12800,"station_id":"ce4bh092rcd13ifvqd20","pricing_plan_id":"free"},{"bike_id":"c5194173-a335-4b5b-962b-c36449dcc51b","system_id":"levelo_inurba_marseille","lat":43.304274,"lon":5.397513,"is_reserved":false,"is_disabled":false,"rental_uris":{"android":"levelo://app?vid=c5194173-a335-4b5b-962b-c36449dcc51b","ios":"levelo://app?vid=c5194173-a335-4b5b-962b-c36449dcc51b"},"vehicle_type_id":"4","last_reported":1685376493,"current_range_meters":0,"station_id":"ce4bh092rcd13ifvqd20","pricing_plan_id":"free"},{"bike_id":"7d14732a-8d84-45d2-a6ae-1fd2adc01489","system_id":"levelo_inurba_marseille","lat":43.292644,"lon":5.384257,"is_reserved":false,"is_disabled":false,"rental_uris":{"android":"levelo://app?vid=7d14732a-8d84-45d2-a6ae-1fd2adc01489","ios":"levelo://app?vid=7d14732a-8d84-45d2-a6ae-1fd2adc01489"},"vehicle_type_id":"4","last_reported":1685376493,"current_range_meters":20400,"station_id":"ce4bh692rcd13ifvqea0","pricing_plan_id":"free"},{"bike_id":"a0be221e-c85b-4f48-b3ea-a72e70428708","system_id":"levelo_inurba_marseille","lat":43.290995,"lon":5.381361,"is_reserved":false,"is_disabled":false,"rental_uris":{"android":"levelo://app?vid=a0be221e-c85b-4f48-b3ea-a72e70428708","ios":"levelo://app?vid=a0be221e-c85b-4f48-b3ea-a72e70428708"},"vehicle_type_id":"4","last_reported":1685376493,"current_range_meters":31200,"station_id":"ce4bh512rcd13ifvqe2g","pricing_plan_id":"free"},{"bike_id":"3b6d1a4f-76df-4fa6-b340-5cdf78557d20","system_id":"levelo_inurba_marseille","lat":43.29101,"lon":5.38131,"is_reserved":false,"is_disabled":false,"rental_uris":{"android":"levelo://app?vid=3b6d1a4f-76df-4fa6-b340-5cdf78557d20","ios":"levelo://app?vid=3b6d1a4f-76df-4fa6-b340-5cdf78557d20"},"vehicle_type_id":"4","last_reported":1685376493,"current_range_meters":19200,"station_id":"ce4bh512rcd13ifvqe2g","pricing_plan_id":"free"},{"bike_id":"f2259342-97de-4264-a659-a66d34870580","system_id":"levelo_inurba_marseille","lat":43.290995,"lon":5.381361,"is_reserved":false,"is_disabled":false,"rental_uris":{"android":"levelo://app?vid=f2259342-97de-4264-a659-a66d34870580","ios":"levelo://app?vid=f2259342-97de-4264-a659-a66d34870580"},"vehicle_type_id":"4","last_reported":1685376493,"current_range_meters":27600,"station_id":"ce4bh512rcd13ifvqe2g","pricing_plan_id":"free"},{"bike_id":"141c14ea-594b-43ee-894e-8c44af1dcd73","system_id":"levelo_inurba_marseille","lat":43.33741,"lon":5.37457,"is_reserved":false,"is_disabled":false,"rental_uris":{"android":"levelo://app?vid=141c14ea-594b-43ee-894e-8c44af1dcd73","ios":"levelo://app?vid=141c14ea-594b-43ee-894e-8c44af1dcd73"},"vehicle_type_id":"4","last_reported":1685376493,"current_range_meters":31200,"station_id":"","pricing_plan_id":"free"},{"bike_id":"c67b547c-3fcb-4384-8614-e15f558fec55","system_id":"levelo_inurba_marseille","lat":43.33744,"lon":5.37451,"is_reserved":false,"is_disabled":false,"rental_uris":{"android":"levelo://app?vid=c67b547c-3fcb-4384-8614-e15f558fec55","ios":"levelo://app?vid=c67b547c-3fcb-4384-8614-e15f558fec55"},"vehicle_type_id":"4","last_reported":1685376493,"current_range_meters":22800,"station_id":"","pricing_plan_id":"free"},{"bike_id":"493860ce-e063-4684-ab33-c360eaf64153","system_id":"levelo_inurba_marseille","lat":43.33744,"lon":5.37451,"is_reserved":false,"is_disabled":false,"rental_uris":{"android":"levelo://app?vid=493860ce-e063-4684-ab33-c360eaf64153","ios":"levelo://app?vid=493860ce-e063-4684-ab33-c360eaf64153"},"vehicle_type_id":"4","last_reported":1685376493,"current_range_meters":14000,"station_id":"","pricing_plan_id":"free"},{"bike_id":"556c6db1-2600-4c2b-9521-aae8453517c1","system_id":"levelo_inurba_marseille","lat":43.33748,"lon":5.37434,"is_reserved":false,"is_disabled":false,"rental_uris":{"android":"levelo://app?vid=556c6db1-2600-4c2b-9521-aae8453517c1","ios":"levelo://app?vid=556c6db1-2600-4c2b-9521-aae8453517c1"},"vehicle_type_id":"4","last_reported":1685376493,"current_range_meters":9600,"station_id":"","pricing_plan_id":"free"},{"bike_id":"5aaf445f-f097-4041-99e9-0b2edc8a39b1","system_id":"levelo_inurba_marseille","lat":43.33754,"lon":5.37444,"is_reserved":false,"is_disabled":false,"rental_uris":{"android":"levelo://app?vid=5aaf445f-f097-4041-99e9-0b2edc8a39b1","ios":"levelo://app?vid=5aaf445f-f097-4041-99e9-0b2edc8a39b1"},"vehicle_type_id":"4","last_reported":1685376493,"current_range_meters":29200,"station_id":"","pricing_plan_id":"free"},{"bike_id":"ee587f63-7471-4f48-85cd-4be45e352d21","system_id":"levelo_inurba_marseille","lat":43.301117,"lon":5.398795,"is_reserved":false,"is_disabled":false,"rental_uris":{"android":"levelo://app?vid=ee587f63-7471-4f48-85cd-4be45e352d21","ios":"levelo://app?vid=ee587f63-7471-4f48-85cd-4be45e352d21"},"vehicle_type_id":"4","last_reported":1685376493,"current_range_meters":1600,"station_id":"ce4bh0h2rcd13ifvqd40","pricing_plan_id":"free"},{"bike_id":"e9e884b6-e469-48fc-9235-6a91d4e50ee0","system_id":"levelo_inurba_marseille","lat":43.298681,"lon":5.397225,"is_reserved":false,"is_disabled":false,"rental_uris":{"android":"levelo://app?vid=e9e884b6-e469-48fc-9235-6a91d4e50ee0","ios":"levelo://app?vid=e9e884b6-e469-48fc-9235-6a91d4e50ee0"},"vehicle_type_id":"4","last_reported":1685376493,"current_range_meters":3200,"station_id":"ce4bh0h2rcd13ifvqd50","pricing_plan_id":"free"},{"bike_id":"bee0dbc3-7dec-4b3a-9a84-90b21162bffe","system_id":"levelo_inurba_marseille","lat":43.298681,"lon":5.397225,"is_reserved":false,"is_disabled":false,"rental_uris":{"android":"levelo://app?vid=bee0dbc3-7dec-4b3a-9a84-90b21162bffe","ios":"levelo://app?vid=bee0dbc3-7dec-4b3a-9a84-90b21162bffe"},"vehicle_type_id":"4","last_reported":1685376493,"current_range_meters":0,"station_id":"ce4bh0h2rcd13ifvqd50","pricing_plan_id":"free"},{"bike_id":"a38a90f9-4ce4-49a4-84f7-00438bdaf184","system_id":"levelo_inurba_marseille","lat":43.295194,"lon":5.39397,"is_reserved":false,"is_disabled":false,"rental_uris":{"android":"levelo://app?vid=a38a90f9-4ce4-49a4-84f7-00438bdaf184","ios":"levelo://app?vid=a38a90f9-4ce4-49a4-84f7-00438bdaf184"},"vehicle_type_id":"4","last_reported":1685376493,"current_range_meters":0,"station_id":"ce4bh292rcd13ifvqdf0","pricing_plan_id":"free"},{"bike_id":"68394fdb-8588-4861-800b-2a74db89a5fe","system_id":"levelo_inurba_marseille","lat":43.295194,"lon":5.39397,"is_reserved":false,"is_disabled":false,"rental_uris":{"android":"levelo://app?vid=68394fdb-8588-4861-800b-2a74db89a5fe","ios":"levelo://app?vid=68394fdb-8588-4861-800b-2a74db89a5fe"},"vehicle_type_id":"4","last_reported":1685376493,"current_range_meters":15200,"station_id":"ce4bh292rcd13ifvqdf0","pricing_plan_id":"free"},{"bike_id":"5b2e6a47-8e61-4115-a30a-ff64a4ee576f","system_id":"levelo_inurba_marseille","lat":43.302759,"lon":5.400793,"is_reserved":false,"is_disabled":false,"rental_uris":{"android":"levelo://app?vid=5b2e6a47-8e61-4115-a30a-ff64a4ee576f","ios":"levelo://app?vid=5b2e6a47-8e61-4115-a30a-ff64a4ee576f"},"vehicle_type_id":"4","last_reported":1685376493,"current_range_meters":12400,"station_id":"ce4bgvh2rcd13ifvqcs0","pricing_plan_id":"free"},{"bike_id":"24d2a623-6e1e-42ba-bf3f-0490901da1d6","system_id":"levelo_inurba_marseille","lat":43.290336,"lon":5.386425,"is_reserved":false,"is_disabled":false,"rental_uris":{"android":"levelo://app?vid=24d2a623-6e1e-42ba-bf3f-0490901da1d6","ios":"levelo://app?vid=24d2a623-6e1e-42ba-bf3f-0490901da1d6"},"vehicle_type_id":"4","last_reported":1685376493,"current_range_meters":14000,"station_id":"ce4bh4p2rcd13ifvqe0g","pricing_plan_id":"free"},{"bike_id":"f134b70a-92ba-4c91-b58b-0054e3786f2a","system_id":"levelo_inurba_marseille","lat":43.286039,"lon":5.370679,"is_reserved":false,"is_disabled":false,"rental_uris":{"android":"levelo://app?vid=f134b70a-92ba-4c91-b58b-0054e3786f2a","ios":"levelo://app?vid=f134b70a-92ba-4c91-b58b-0054e3786f2a"},"vehicle_type_id":"4","last_reported":1685376493,"current_range_meters":24400,"station_id":"ce4bht12rcd13ifvqi60","pricing_plan_id":"free"},{"bike_id":"55a24541-7e28-4ebe-b2e4-a5f1908f245f","system_id":"levelo_inurba_marseille","lat":43.286039,"lon":5.370679,"is_reserved":false,"is_disabled":false,"rental_uris":{"android":"levelo://app?vid=55a24541-7e28-4ebe-b2e4-a5f1908f245f","ios":"levelo://app?vid=55a24541-7e28-4ebe-b2e4-a5f1908f245f"},"vehicle_type_id":"4","last_reported":1685376493,"current_range_meters":7200,"station_id":"ce4bht12rcd13ifvqi60","pricing_plan_id":"free"},{"bike_id":"ded3ba71-3619-4741-951c-4cad1ff259ac","system_id":"levelo_inurba_marseille","lat":43.286039,"lon":5.370679,"is_reserved":false,"is_disabled":false,"rental_uris":{"android":"levelo://app?vid=ded3ba71-3619-4741-951c-4cad1ff259ac","ios":"levelo://app?vid=ded3ba71-3619-4741-951c-4cad1ff259ac"},"vehicle_type_id":"4","last_reported":1685376493,"current_range_meters":14000,"station_id":"ce4bht12rcd13ifvqi60","pricing_plan_id":"free"},{"bike_id":"86f11074-c291-4cc2-af61-fc62075eb1c7","system_id":"levelo_inurba_marseille","lat":43.316517,"lon":5.404375,"is_reserved":false,"is_disabled":false,"rental_uris":{"android":"levelo://app?vid=86f11074-c291-4cc2-af61-fc62075eb1c7","ios":"levelo://app?vid=86f11074-c291-4cc2-af61-fc62075eb1c7"},"vehicle_type_id":"4","last_reported":1685376493,"current_range_meters":11600,"station_id":"ce4bh012rcd13ifvqd00","pricing_plan_id":"free"},{"bike_id":"bd878fd0-f039-41ca-920c-89ecf886c324","system_id":"levelo_inurba_marseille","lat":43.31646,"lon":5.40441,"is_reserved":false,"is_disabled":false,"rental_uris":{"android":"levelo://app?vid=bd878fd0-f039-41ca-920c-89ecf886c324","ios":"levelo://app?vid=bd878fd0-f039-41ca-920c-89ecf886c324"},"vehicle_type_id":"4","last_reported":1685376493,"current_range_meters":22400,"station_id":"ce4bh012rcd13ifvqd00","pricing_plan_id":"free"},{"bike_id":"bc34ad78-fd69-4216-8ffb-3990d26b4fb9","system_id":"levelo_inurba_marseille","lat":43.291994,"lon":5.392907,"is_reserved":false,"is_disabled":false,"rental_uris":{"android":"levelo://app?vid=bc34ad78-fd69-4216-8ffb-3990d26b4fb9","ios":"levelo://app?vid=bc34ad78-fd69-4216-8ffb-3990d26b4fb9"},"vehicle_type_id":"4","last_reported":1685376493,"current_range_meters":6800,"station_id":"ce4bh192rcd13ifvqdd0","pricing_plan_id":"free"},{"bike_id":"fe752201-c96b-4ae8-a073-9a092ab6cf8b","system_id":"levelo_inurba_marseille","lat":43.2846,"lon":5.35883,"is_reserved":false,"is_disabled":false,"rental_uris":{"android":"levelo://app?vid=fe752201-c96b-4ae8-a073-9a092ab6cf8b","ios":"levelo://app?vid=fe752201-c96b-4ae8-a073-9a092ab6cf8b"},"vehicle_type_id":"4","last_reported":1685376493,"current_range_meters":11600,"station_id":"ce4bhah2rcd13ifvqei0","pricing_plan_id":"free"},{"bike_id":"8c7d59a6-b32e-40b7-9b7a-1d4cf14ca343","system_id":"levelo_inurba_marseille","lat":43.285848,"lon":5.350787,"is_reserved":false,"is_disabled":false,"rental_uris":{"android":"levelo://app?vid=8c7d59a6-b32e-40b7-9b7a-1d4cf14ca343","ios":"levelo://app?vid=8c7d59a6-b32e-40b7-9b7a-1d4cf14ca343"},"vehicle_type_id":"4","last_reported":1685376493,"current_range_meters":13200,"station_id":"ce4bhch2rcd13ifvqeug","pricing_plan_id":"free"},{"bike_id":"b6374d7a-e18f-496d-9a26-3f5aded0e316","system_id":"levelo_inurba_marseille","lat":43.28616,"lon":5.35107,"is_reserved":false,"is_disabled":false,"rental_uris":{"android":"levelo://app?vid=b6374d7a-e18f-496d-9a26-3f5aded0e316","ios":"levelo://app?vid=b6374d7a-e18f-496d-9a26-3f5aded0e316"},"vehicle_type_id":"4","last_reported":1685376493,"current_range_meters":7200,"station_id":"","pricing_plan_id":"free"},{"bike_id":"7b2c84d8-6da9-4604-ad58-7200b9a4409c","system_id":"levelo_inurba_marseille","lat":43.286595,"lon":5.386795,"is_reserved":false,"is_disabled":false,"rental_uris":{"android":"levelo://app?vid=7b2c84d8-6da9-4604-ad58-7200b9a4409c","ios":"levelo://app?vid=7b2c84d8-6da9-4604-ad58-7200b9a4409c"},"vehicle_type_id":"4","last_reported":1685376493,"current_range_meters":25600,"station_id":"ce4bh492rcd13ifvqdug","pricing_plan_id":"free"},{"bike_id":"93d246d3-7457-4164-96ed-65f7134b67fa","system_id":"levelo_inurba_marseille","lat":43.286595,"lon":5.386795,"is_reserved":false,"is_disabled":false,"rental_uris":{"android":"levelo://app?vid=93d246d3-7457-4164-96ed-65f7134b67fa","ios":"levelo://app?vid=93d246d3-7457-4164-96ed-65f7134b67fa"},"vehicle_type_id":"4","last_reported":1685376493,"current_range_meters":18400,"station_id":"ce4bh492rcd13ifvqdug","pricing_plan_id":"free"},{"bike_id":"1d384483-6df2-41fc-afc9-2a1e002e8edd","system_id":"levelo_inurba_marseille","lat":43.286595,"lon":5.386795,"is_reserved":false,"is_disabled":false,"rental_uris":{"android":"levelo://app?vid=1d384483-6df2-41fc-afc9-2a1e002e8edd","ios":"levelo://app?vid=1d384483-6df2-41fc-afc9-2a1e002e8edd"},"vehicle_type_id":"4","last_reported":1685376493,"current_range_meters":17600,"station_id":"ce4bh492rcd13ifvqdug","pricing_plan_id":"free"},{"bike_id":"6ca20a80-f81b-431a-93de-0dcfe9765a88","system_id":"levelo_inurba_marseille","lat":43.286595,"lon":5.386795,"is_reserved":false,"is_disabled":false,"rental_uris":{"android":"levelo://app?vid=6ca20a80-f81b-431a-93de-0dcfe9765a88","ios":"levelo://app?vid=6ca20a80-f81b-431a-93de-0dcfe9765a88"},"vehicle_type_id":"4","last_reported":1685376493,"current_range_meters":13600,"station_id":"ce4bh492rcd13ifvqdug","pricing_plan_id":"free"},{"bike_id":"417b252c-a44b-41f3-9a61-1078fac6a214","system_id":"levelo_inurba_marseille","lat":43.288497,"lon":5.393089,"is_reserved":false,"is_disabled":false,"rental_uris":{"android":"levelo://app?vid=417b252c-a44b-41f3-9a61-1078fac6a214","ios":"levelo://app?vid=417b252c-a44b-41f3-9a61-1078fac6a214"},"vehicle_type_id":"4","last_reported":1685376493,"current_range_meters":18400,"station_id":"ce4bh2p2rcd13ifvqdi0","pricing_plan_id":"free"},{"bike_id":"23d630d2-e64f-4414-a66e-69526f156db5","system_id":"levelo_inurba_marseille","lat":43.288497,"lon":5.393089,"is_reserved":false,"is_disabled":false,"rental_uris":{"android":"levelo://app?vid=23d630d2-e64f-4414-a66e-69526f156db5","ios":"levelo://app?vid=23d630d2-e64f-4414-a66e-69526f156db5"},"vehicle_type_id":"4","last_reported":1685376493,"current_range_meters":31200,"station_id":"ce4bh2p2rcd13ifvqdi0","pricing_plan_id":"free"},{"bike_id":"fb5f1ce8-f88e-4aee-a6a9-8920542c80b9","system_id":"levelo_inurba_marseille","lat":43.289363,"lon":5.396322,"is_reserved":false,"is_disabled":false,"rental_uris":{"android":"levelo://app?vid=fb5f1ce8-f88e-4aee-a6a9-8920542c80b9","ios":"levelo://app?vid=fb5f1ce8-f88e-4aee-a6a9-8920542c80b9"},"vehicle_type_id":"4","last_reported":1685376493,"current_range_meters":15200,"station_id":"ce4bh3h2rcd13ifvqdn0","pricing_plan_id":"free"},{"bike_id":"fbc09ef1-e9d1-4e39-9640-277176981eb5","system_id":"levelo_inurba_marseille","lat":43.282744,"lon":5.350533,"is_reserved":false,"is_disabled":false,"rental_uris":{"android":"levelo://app?vid=fbc09ef1-e9d1-4e39-9640-277176981eb5","ios":"levelo://app?vid=fbc09ef1-e9d1-4e39-9640-277176981eb5"},"vehicle_type_id":"4","last_reported":1685376493,"current_range_meters":14400,"station_id":"ce4bhbp2rcd13ifvqerg","pricing_plan_id":"free"},{"bike_id":"b8f67fd7-6b2a-4029-b9af-922792b8d6a5","system_id":"levelo_inurba_marseille","lat":43.282754,"lon":5.350519,"is_reserved":false,"is_disabled":false,"rental_uris":{"android":"levelo://app?vid=b8f67fd7-6b2a-4029-b9af-922792b8d6a5","ios":"levelo://app?vid=b8f67fd7-6b2a-4029-b9af-922792b8d6a5"},"vehicle_type_id":"4","last_reported":1685376493,"current_range_meters":7600,"station_id":"ce4bhbp2rcd13ifvqerg","pricing_plan_id":"free"},{"bike_id":"387486ca-8a9c-4a6a-9fe7-0b6f5b3bb822","system_id":"levelo_inurba_marseille","lat":43.28363,"lon":5.38625,"is_reserved":false,"is_disabled":false,"rental_uris":{"android":"levelo://app?vid=387486ca-8a9c-4a6a-9fe7-0b6f5b3bb822","ios":"levelo://app?vid=387486ca-8a9c-4a6a-9fe7-0b6f5b3bb822"},"vehicle_type_id":"4","last_reported":1685376493,"current_range_meters":3600,"station_id":"ce4bh492rcd13ifvqdvg","pricing_plan_id":"free"},{"bike_id":"e9e4765d-4182-4bdb-9c9b-48ede1deb493","system_id":"levelo_inurba_marseille","lat":43.28039,"lon":5.369297,"is_reserved":false,"is_disabled":false,"rental_uris":{"android":"levelo://app?vid=e9e4765d-4182-4bdb-9c9b-48ede1deb493","ios":"levelo://app?vid=e9e4765d-4182-4bdb-9c9b-48ede1deb493"},"vehicle_type_id":"4","last_reported":1685376493,"current_range_meters":10400,"station_id":"ce4bha12rcd13ifvqef0","pricing_plan_id":"free"},{"bike_id":"448b7e4e-0538-423e-82f5-0ac70407a8b3","system_id":"levelo_inurba_marseille","lat":43.280364,"lon":5.369408,"is_reserved":false,"is_disabled":false,"rental_uris":{"android":"levelo://app?vid=448b7e4e-0538-423e-82f5-0ac70407a8b3","ios":"levelo://app?vid=448b7e4e-0538-423e-82f5-0ac70407a8b3"},"vehicle_type_id":"4","last_reported":1685376493,"current_range_meters":800,"station_id":"","pricing_plan_id":"free"},{"bike_id":"b8907cd2-3250-46e3-a545-a1297cb83df6","system_id":"levelo_inurba_marseille","lat":43.280382,"lon":5.369291,"is_reserved":false,"is_disabled":false,"rental_uris":{"android":"levelo://app?vid=b8907cd2-3250-46e3-a545-a1297cb83df6","ios":"levelo://app?vid=b8907cd2-3250-46e3-a545-a1297cb83df6"},"vehicle_type_id":"4","last_reported":1685376493,"current_range_meters":18000,"station_id":"ce4bha12rcd13ifvqef0","pricing_plan_id":"free"},{"bike_id":"b9916d61-b6d1-408b-89ee-d2fbd4eec631","system_id":"levelo_inurba_marseille","lat":43.280382,"lon":5.369291,"is_reserved":false,"is_disabled":false,"rental_uris":{"android":"levelo://app?vid=b9916d61-b6d1-408b-89ee-d2fbd4eec631","ios":"levelo://app?vid=b9916d61-b6d1-408b-89ee-d2fbd4eec631"},"vehicle_type_id":"4","last_reported":1685376493,"current_range_meters":27200,"station_id":"ce4bha12rcd13ifvqef0","pricing_plan_id":"free"},{"bike_id":"4a0de7a5-87ae-4cd8-9a72-0ad7e6d5749e","system_id":"levelo_inurba_marseille","lat":43.281364,"lon":5.378501,"is_reserved":false,"is_disabled":false,"rental_uris":{"android":"levelo://app?vid=4a0de7a5-87ae-4cd8-9a72-0ad7e6d5749e","ios":"levelo://app?vid=4a0de7a5-87ae-4cd8-9a72-0ad7e6d5749e"},"vehicle_type_id":"4","last_reported":1685376493,"current_range_meters":3200,"station_id":"","pricing_plan_id":"free"},{"bike_id":"c37e6134-fced-48c6-9333-f62b2820272e","system_id":"levelo_inurba_marseille","lat":43.29041,"lon":5.399634,"is_reserved":false,"is_disabled":false,"rental_uris":{"android":"levelo://app?vid=c37e6134-fced-48c6-9333-f62b2820272e","ios":"levelo://app?vid=c37e6134-fced-48c6-9333-f62b2820272e"},"vehicle_type_id":"4","last_reported":1685376493,"current_range_meters":15200,"station_id":"ce4bh392rcd13ifvqdm0","pricing_plan_id":"free"},{"bike_id":"498ce454-56cc-4684-9068-3a6abb7c3cd1","system_id":"levelo_inurba_marseille","lat":43.29041,"lon":5.399634,"is_reserved":false,"is_disabled":false,"rental_uris":{"android":"levelo://app?vid=498ce454-56cc-4684-9068-3a6abb7c3cd1","ios":"levelo://app?vid=498ce454-56cc-4684-9068-3a6abb7c3cd1"},"vehicle_type_id":"4","last_reported":1685376493,"current_range_meters":15600,"station_id":"ce4bh392rcd13ifvqdm0","pricing_plan_id":"free"},{"bike_id":"16499759-0710-438b-a4de-6231f5050afa","system_id":"levelo_inurba_marseille","lat":43.28105,"lon":5.37838,"is_reserved":false,"is_disabled":false,"rental_uris":{"android":"levelo://app?vid=16499759-0710-438b-a4de-6231f5050afa","ios":"levelo://app?vid=16499759-0710-438b-a4de-6231f5050afa"},"vehicle_type_id":"4","last_reported":1685376493,"current_range_meters":0,"station_id":"ce4bha12rcd13ifvqee0","pricing_plan_id":"free"},{"bike_id":"134a1f95-fd22-4bcf-9705-705a2bcb896a","system_id":"levelo_inurba_marseille","lat":43.281044,"lon":5.378308,"is_reserved":false,"is_disabled":false,"rental_uris":{"android":"levelo://app?vid=134a1f95-fd22-4bcf-9705-705a2bcb896a","ios":"levelo://app?vid=134a1f95-fd22-4bcf-9705-705a2bcb896a"},"vehicle_type_id":"4","last_reported":1685376493,"current_range_meters":17200,"station_id":"ce4bha12rcd13ifvqee0","pricing_plan_id":"free"},{"bike_id":"971ed3cc-3b28-4216-81fe-046c44a956ec","system_id":"levelo_inurba_marseille","lat":43.281044,"lon":5.378308,"is_reserved":false,"is_disabled":false,"rental_uris":{"android":"levelo://app?vid=971ed3cc-3b28-4216-81fe-046c44a956ec","ios":"levelo://app?vid=971ed3cc-3b28-4216-81fe-046c44a956ec"},"vehicle_type_id":"4","last_reported":1685376493,"current_range_meters":7200,"station_id":"ce4bha12rcd13ifvqee0","pricing_plan_id":"free"},{"bike_id":"f76c0686-61f9-4a8a-be7a-ab685e168a08","system_id":"levelo_inurba_marseille","lat":43.281044,"lon":5.378308,"is_reserved":false,"is_disabled":false,"rental_uris":{"android":"levelo://app?vid=f76c0686-61f9-4a8a-be7a-ab685e168a08","ios":"levelo://app?vid=f76c0686-61f9-4a8a-be7a-ab685e168a08"},"vehicle_type_id":"4","last_reported":1685376493,"current_range_meters":2800,"station_id":"ce4bha12rcd13ifvqee0","pricing_plan_id":"free"},{"bike_id":"a58a5910-b4f5-490a-bbd7-038ce7c04af8","system_id":"levelo_inurba_marseille","lat":43.281044,"lon":5.378308,"is_reserved":false,"is_disabled":false,"rental_uris":{"android":"levelo://app?vid=a58a5910-b4f5-490a-bbd7-038ce7c04af8","ios":"levelo://app?vid=a58a5910-b4f5-490a-bbd7-038ce7c04af8"},"vehicle_type_id":"4","last_reported":1685376493,"current_range_meters":24000,"station_id":"ce4bha12rcd13ifvqee0","pricing_plan_id":"free"},{"bike_id":"caa21cc0-dee7-4c23-b1cf-9dac9fbadfb0","system_id":"levelo_inurba_marseille","lat":43.281044,"lon":5.378308,"is_reserved":false,"is_disabled":false,"rental_uris":{"android":"levelo://app?vid=caa21cc0-dee7-4c23-b1cf-9dac9fbadfb0","ios":"levelo://app?vid=caa21cc0-dee7-4c23-b1cf-9dac9fbadfb0"},"vehicle_type_id":"4","last_reported":1685376493,"current_range_meters":27600,"station_id":"ce4bha12rcd13ifvqee0","pricing_plan_id":"free"},{"bike_id":"56411c74-edf9-47ad-bae6-cdd455d8c98e","system_id":"levelo_inurba_marseille","lat":43.284462,"lon":5.392121,"is_reserved":false,"is_disabled":false,"rental_uris":{"android":"levelo://app?vid=56411c74-edf9-47ad-bae6-cdd455d8c98e","ios":"levelo://app?vid=56411c74-edf9-47ad-bae6-cdd455d8c98e"},"vehicle_type_id":"4","last_reported":1685376493,"current_range_meters":4800,"station_id":"ce4bhoh2rcd13ifvqh5g","pricing_plan_id":"free"},{"bike_id":"6ed02a0d-2112-4faf-bc2b-5dca32f17c8f","system_id":"levelo_inurba_marseille","lat":43.292571,"lon":5.409107,"is_reserved":false,"is_disabled":false,"rental_uris":{"android":"levelo://app?vid=6ed02a0d-2112-4faf-bc2b-5dca32f17c8f","ios":"levelo://app?vid=6ed02a0d-2112-4faf-bc2b-5dca32f17c8f"},"vehicle_type_id":"4","last_reported":1685376493,"current_range_meters":1200,"station_id":"ce4bh192rcd13ifvqdc0","pricing_plan_id":"free"},{"bike_id":"dc1f2978-ae4d-402e-a4cb-225fb14a8ddd","system_id":"levelo_inurba_marseille","lat":43.325233,"lon":5.414318,"is_reserved":false,"is_disabled":false,"rental_uris":{"android":"levelo://app?vid=dc1f2978-ae4d-402e-a4cb-225fb14a8ddd","ios":"levelo://app?vid=dc1f2978-ae4d-402e-a4cb-225fb14a8ddd"},"vehicle_type_id":"4","last_reported":1685376493,"current_range_meters":16400,"station_id":"ce4bhq12rcd13ifvqhhg","pricing_plan_id":"free"},{"bike_id":"13c9d48f-9282-4062-868d-00077776583c","system_id":"levelo_inurba_marseille","lat":43.27617,"lon":5.36113,"is_reserved":false,"is_disabled":false,"rental_uris":{"android":"levelo://app?vid=13c9d48f-9282-4062-868d-00077776583c","ios":"levelo://app?vid=13c9d48f-9282-4062-868d-00077776583c"},"vehicle_type_id":"4","last_reported":1685376493,"current_range_meters":4400,"station_id":"ce4bgj92rcd13ifvqbe0","pricing_plan_id":"free"},{"bike_id":"a3e4cd10-0f2b-41fb-abb8-9b3b97d4e219","system_id":"levelo_inurba_marseille","lat":43.278399,"lon":5.392139,"is_reserved":false,"is_disabled":false,"rental_uris":{"android":"levelo://app?vid=a3e4cd10-0f2b-41fb-abb8-9b3b97d4e219","ios":"levelo://app?vid=a3e4cd10-0f2b-41fb-abb8-9b3b97d4e219"},"vehicle_type_id":"4","last_reported":1685376493,"current_range_meters":18400,"station_id":"ce4bhjp2rcd13ifvqga0","pricing_plan_id":"free"},{"bike_id":"20443529-89de-4e9f-a60c-d20f103965b6","system_id":"levelo_inurba_marseille","lat":43.278399,"lon":5.392139,"is_reserved":false,"is_disabled":false,"rental_uris":{"android":"levelo://app?vid=20443529-89de-4e9f-a60c-d20f103965b6","ios":"levelo://app?vid=20443529-89de-4e9f-a60c-d20f103965b6"},"vehicle_type_id":"4","last_reported":1685376493,"current_range_meters":24400,"station_id":"ce4bhjp2rcd13ifvqga0","pricing_plan_id":"free"},{"bike_id":"e8581760-45b9-404f-acc0-d29df0fc177d","system_id":"levelo_inurba_marseille","lat":43.2738,"lon":5.3625,"is_reserved":false,"is_disabled":false,"rental_uris":{"android":"levelo://app?vid=e8581760-45b9-404f-acc0-d29df0fc177d","ios":"levelo://app?vid=e8581760-45b9-404f-acc0-d29df0fc177d"},"vehicle_type_id":"4","last_reported":1685376493,"current_range_meters":0,"station_id":"","pricing_plan_id":"free"},{"bike_id":"f5b69eb0-f0c9-4fa6-baf0-f5b79a83d020","system_id":"levelo_inurba_marseille","lat":43.27378,"lon":5.36253,"is_reserved":false,"is_disabled":false,"rental_uris":{"android":"levelo://app?vid=f5b69eb0-f0c9-4fa6-baf0-f5b79a83d020","ios":"levelo://app?vid=f5b69eb0-f0c9-4fa6-baf0-f5b79a83d020"},"vehicle_type_id":"4","last_reported":1685376493,"current_range_meters":3600,"station_id":"ce4bhbh2rcd13ifvqeo0","pricing_plan_id":"free"},{"bike_id":"94023db1-6bb7-415c-8a3e-28a4f1a183de","system_id":"levelo_inurba_marseille","lat":43.27377,"lon":5.36251,"is_reserved":false,"is_disabled":false,"rental_uris":{"android":"levelo://app?vid=94023db1-6bb7-415c-8a3e-28a4f1a183de","ios":"levelo://app?vid=94023db1-6bb7-415c-8a3e-28a4f1a183de"},"vehicle_type_id":"4","last_reported":1685376493,"current_range_meters":19200,"station_id":"ce4bhbh2rcd13ifvqeo0","pricing_plan_id":"free"},{"bike_id":"6bac119f-7fdc-462a-b9aa-b2ea52a69389","system_id":"levelo_inurba_marseille","lat":43.27377,"lon":5.36249,"is_reserved":false,"is_disabled":false,"rental_uris":{"android":"levelo://app?vid=6bac119f-7fdc-462a-b9aa-b2ea52a69389","ios":"levelo://app?vid=6bac119f-7fdc-462a-b9aa-b2ea52a69389"},"vehicle_type_id":"4","last_reported":1685376493,"current_range_meters":22000,"station_id":"ce4bhbh2rcd13ifvqeo0","pricing_plan_id":"free"},{"bike_id":"c9479f6c-dd6a-43b7-86d1-59fddd68cfd8","system_id":"levelo_inurba_marseille","lat":43.27376,"lon":5.3625,"is_reserved":false,"is_disabled":false,"rental_uris":{"android":"levelo://app?vid=c9479f6c-dd6a-43b7-86d1-59fddd68cfd8","ios":"levelo://app?vid=c9479f6c-dd6a-43b7-86d1-59fddd68cfd8"},"vehicle_type_id":"4","last_reported":1685376493,"current_range_meters":27600,"station_id":"ce4bhbh2rcd13ifvqeo0","pricing_plan_id":"free"},{"bike_id":"90028714-f1a0-4dbd-8ede-050aa4b12b73","system_id":"levelo_inurba_marseille","lat":43.27375,"lon":5.36249,"is_reserved":false,"is_disabled":false,"rental_uris":{"android":"levelo://app?vid=90028714-f1a0-4dbd-8ede-050aa4b12b73","ios":"levelo://app?vid=90028714-f1a0-4dbd-8ede-050aa4b12b73"},"vehicle_type_id":"4","last_reported":1685376493,"current_range_meters":18400,"station_id":"ce4bhbh2rcd13ifvqeo0","pricing_plan_id":"free"},{"bike_id":"ce642950-5e47-488d-a46b-baffa23ef8b9","system_id":"levelo_inurba_marseille","lat":43.273609,"lon":5.362708,"is_reserved":false,"is_disabled":false,"rental_uris":{"android":"levelo://app?vid=ce642950-5e47-488d-a46b-baffa23ef8b9","ios":"levelo://app?vid=ce642950-5e47-488d-a46b-baffa23ef8b9"},"vehicle_type_id":"4","last_reported":1685376493,"current_range_meters":2000,"station_id":"ce4bhbh2rcd13ifvqeo0","pricing_plan_id":"free"},{"bike_id":"52c94ac5-7ccf-4f20-b2f3-6496b1d72af2","system_id":"levelo_inurba_marseille","lat":43.27372,"lon":5.36253,"is_reserved":false,"is_disabled":false,"rental_uris":{"android":"levelo://app?vid=52c94ac5-7ccf-4f20-b2f3-6496b1d72af2","ios":"levelo://app?vid=52c94ac5-7ccf-4f20-b2f3-6496b1d72af2"},"vehicle_type_id":"4","last_reported":1685376493,"current_range_meters":31200,"station_id":"ce4bhbh2rcd13ifvqeo0","pricing_plan_id":"free"},{"bike_id":"b17318f2-8ca9-44be-9033-bcc68967c998","system_id":"levelo_inurba_marseille","lat":43.27372,"lon":5.36251,"is_reserved":false,"is_disabled":false,"rental_uris":{"android":"levelo://app?vid=b17318f2-8ca9-44be-9033-bcc68967c998","ios":"levelo://app?vid=b17318f2-8ca9-44be-9033-bcc68967c998"},"vehicle_type_id":"4","last_reported":1685376493,"current_range_meters":24800,"station_id":"ce4bhbh2rcd13ifvqeo0","pricing_plan_id":"free"},{"bike_id":"91b49189-18df-431a-bbbf-f0b2350181de","system_id":"levelo_inurba_marseille","lat":43.28411,"lon":5.40782,"is_reserved":false,"is_disabled":false,"rental_uris":{"android":"levelo://app?vid=91b49189-18df-431a-bbbf-f0b2350181de","ios":"levelo://app?vid=91b49189-18df-431a-bbbf-f0b2350181de"},"vehicle_type_id":"4","last_reported":1685376493,"current_range_meters":2800,"station_id":"","pricing_plan_id":"free"},{"bike_id":"98172518-dea8-4e78-b33c-b9743c466fc8","system_id":"levelo_inurba_marseille","lat":43.310785,"lon":5.424305,"is_reserved":false,"is_disabled":false,"rental_uris":{"android":"levelo://app?vid=98172518-dea8-4e78-b33c-b9743c466fc8","ios":"levelo://app?vid=98172518-dea8-4e78-b33c-b9743c466fc8"},"vehicle_type_id":"4","last_reported":1685376493,"current_range_meters":28400,"station_id":"ce4bhp92rcd13ifvqhag","pricing_plan_id":"free"},{"bike_id":"fc0cdf68-cc05-4db0-b8a7-47952e628815","system_id":"levelo_inurba_marseille","lat":43.310785,"lon":5.424305,"is_reserved":false,"is_disabled":false,"rental_uris":{"android":"levelo://app?vid=fc0cdf68-cc05-4db0-b8a7-47952e628815","ios":"levelo://app?vid=fc0cdf68-cc05-4db0-b8a7-47952e628815"},"vehicle_type_id":"4","last_reported":1685376493,"current_range_meters":27200,"station_id":"ce4bhp92rcd13ifvqhag","pricing_plan_id":"free"},{"bike_id":"4db05ee5-9505-4e11-898b-b85a424c1c05","system_id":"levelo_inurba_marseille","lat":43.273129,"lon":5.390725,"is_reserved":false,"is_disabled":false,"rental_uris":{"android":"levelo://app?vid=4db05ee5-9505-4e11-898b-b85a424c1c05","ios":"levelo://app?vid=4db05ee5-9505-4e11-898b-b85a424c1c05"},"vehicle_type_id":"4","last_reported":1685376493,"current_range_meters":3600,"station_id":"ce4bhgp2rcd13ifvqfe0","pricing_plan_id":"free"},{"bike_id":"a836af40-09af-4eb0-8db9-1fc5b0f18843","system_id":"levelo_inurba_marseille","lat":43.27322,"lon":5.39112,"is_reserved":false,"is_disabled":false,"rental_uris":{"android":"levelo://app?vid=a836af40-09af-4eb0-8db9-1fc5b0f18843","ios":"levelo://app?vid=a836af40-09af-4eb0-8db9-1fc5b0f18843"},"vehicle_type_id":"4","last_reported":1685376493,"current_range_meters":0,"station_id":"ce4bhgp2rcd13ifvqfe0","pricing_plan_id":"free"},{"bike_id":"ca098e2d-91fb-40d5-88e4-0d02e8e239f2","system_id":"levelo_inurba_marseille","lat":43.29551,"lon":5.42283,"is_reserved":false,"is_disabled":false,"rental_uris":{"android":"levelo://app?vid=ca098e2d-91fb-40d5-88e4-0d02e8e239f2","ios":"levelo://app?vid=ca098e2d-91fb-40d5-88e4-0d02e8e239f2"},"vehicle_type_id":"4","last_reported":1685376493,"current_range_meters":20800,"station_id":"ce4bhph2rcd13ifvqhdg","pricing_plan_id":"free"},{"bike_id":"ce47724b-eedb-4156-8f60-d6d60d2093ed","system_id":"levelo_inurba_marseille","lat":43.272124,"lon":5.391768,"is_reserved":false,"is_disabled":false,"rental_uris":{"android":"levelo://app?vid=ce47724b-eedb-4156-8f60-d6d60d2093ed","ios":"levelo://app?vid=ce47724b-eedb-4156-8f60-d6d60d2093ed"},"vehicle_type_id":"4","last_reported":1685376493,"current_range_meters":17200,"station_id":"ce4bhhp2rcd13ifvqfm0","pricing_plan_id":"free"},{"bike_id":"2604a04d-1d45-4a02-9454-9b944a544e28","system_id":"levelo_inurba_marseille","lat":43.272124,"lon":5.391768,"is_reserved":false,"is_disabled":false,"rental_uris":{"android":"levelo://app?vid=2604a04d-1d45-4a02-9454-9b944a544e28","ios":"levelo://app?vid=2604a04d-1d45-4a02-9454-9b944a544e28"},"vehicle_type_id":"4","last_reported":1685376493,"current_range_meters":22800,"station_id":"ce4bhhp2rcd13ifvqfm0","pricing_plan_id":"free"},{"bike_id":"a4a7e215-71ab-4f80-9327-726235804863","system_id":"levelo_inurba_marseille","lat":43.272118,"lon":5.391758,"is_reserved":false,"is_disabled":false,"rental_uris":{"android":"levelo://app?vid=a4a7e215-71ab-4f80-9327-726235804863","ios":"levelo://app?vid=a4a7e215-71ab-4f80-9327-726235804863"},"vehicle_type_id":"4","last_reported":1685376493,"current_range_meters":22000,"station_id":"ce4bhhp2rcd13ifvqfm0","pricing_plan_id":"free"},{"bike_id":"006b1477-59d9-4abf-bf30-fe468e8a0337","system_id":"levelo_inurba_marseille","lat":43.30688,"lon":5.42865,"is_reserved":false,"is_disabled":false,"rental_uris":{"android":"levelo://app?vid=006b1477-59d9-4abf-bf30-fe468e8a0337","ios":"levelo://app?vid=006b1477-59d9-4abf-bf30-fe468e8a0337"},"vehicle_type_id":"4","last_reported":1685376493,"current_range_meters":26000,"station_id":"","pricing_plan_id":"free"},{"bike_id":"0f017e38-1240-478f-92c4-d9bcc9b156cc","system_id":"levelo_inurba_marseille","lat":43.265714,"lon":5.372891,"is_reserved":false,"is_disabled":false,"rental_uris":{"android":"levelo://app?vid=0f017e38-1240-478f-92c4-d9bcc9b156cc","ios":"levelo://app?vid=0f017e38-1240-478f-92c4-d9bcc9b156cc"},"vehicle_type_id":"4","last_reported":1685376493,"current_range_meters":17600,"station_id":"ce4bhg12rcd13ifvqf70","pricing_plan_id":"free"},{"bike_id":"1fc0e04d-15a0-469c-ae6d-3f3892006942","system_id":"levelo_inurba_marseille","lat":43.265714,"lon":5.372891,"is_reserved":false,"is_disabled":false,"rental_uris":{"android":"levelo://app?vid=1fc0e04d-15a0-469c-ae6d-3f3892006942","ios":"levelo://app?vid=1fc0e04d-15a0-469c-ae6d-3f3892006942"},"vehicle_type_id":"4","last_reported":1685376493,"current_range_meters":14800,"station_id":"ce4bhg12rcd13ifvqf70","pricing_plan_id":"free"},{"bike_id":"d9d9b657-7cdd-4600-acb5-7fc6140ff404","system_id":"levelo_inurba_marseille","lat":43.26548,"lon":5.372857,"is_reserved":false,"is_disabled":false,"rental_uris":{"android":"levelo://app?vid=d9d9b657-7cdd-4600-acb5-7fc6140ff404","ios":"levelo://app?vid=d9d9b657-7cdd-4600-acb5-7fc6140ff404"},"vehicle_type_id":"4","last_reported":1685376493,"current_range_meters":2400,"station_id":"ce4bh492rcd13ifvqdvg","pricing_plan_id":"free"},{"bike_id":"97f92444-dc7f-4ac8-885e-43ac50454dc0","system_id":"levelo_inurba_marseille","lat":43.31679,"lon":5.4333,"is_reserved":false,"is_disabled":false,"rental_uris":{"android":"levelo://app?vid=97f92444-dc7f-4ac8-885e-43ac50454dc0","ios":"levelo://app?vid=97f92444-dc7f-4ac8-885e-43ac50454dc0"},"vehicle_type_id":"4","last_reported":1685376493,"current_range_meters":0,"station_id":"","pricing_plan_id":"free"},{"bike_id":"631b5c09-ae57-435b-8941-29cd778234a7","system_id":"levelo_inurba_marseille","lat":43.27996,"lon":5.416624,"is_reserved":false,"is_disabled":false,"rental_uris":{"android":"levelo://app?vid=631b5c09-ae57-435b-8941-29cd778234a7","ios":"levelo://app?vid=631b5c09-ae57-435b-8941-29cd778234a7"},"vehicle_type_id":"4","last_reported":1685376493,"current_range_meters":1200,"station_id":"ce4bho12rcd13ifvqh1g","pricing_plan_id":"free"},{"bike_id":"97d5066a-56de-49c2-943d-327af80bceb8","system_id":"levelo_inurba_marseille","lat":43.267966,"lon":5.393976,"is_reserved":false,"is_disabled":false,"rental_uris":{"android":"levelo://app?vid=97d5066a-56de-49c2-943d-327af80bceb8","ios":"levelo://app?vid=97d5066a-56de-49c2-943d-327af80bceb8"},"vehicle_type_id":"4","last_reported":1685376493,"current_range_meters":13200,"station_id":"ce4bhh12rcd13ifvqfg0","pricing_plan_id":"free"},{"bike_id":"b6143414-0c84-4ac8-ba8f-a9e25217434f","system_id":"levelo_inurba_marseille","lat":43.267966,"lon":5.393976,"is_reserved":false,"is_disabled":false,"rental_uris":{"android":"levelo://app?vid=b6143414-0c84-4ac8-ba8f-a9e25217434f","ios":"levelo://app?vid=b6143414-0c84-4ac8-ba8f-a9e25217434f"},"vehicle_type_id":"4","last_reported":1685376493,"current_range_meters":16000,"station_id":"ce4bhh12rcd13ifvqfg0","pricing_plan_id":"free"},{"bike_id":"d4787eb9-48ad-4378-9099-7af96fc43f66","system_id":"levelo_inurba_marseille","lat":43.267966,"lon":5.393976,"is_reserved":false,"is_disabled":false,"rental_uris":{"android":"levelo://app?vid=d4787eb9-48ad-4378-9099-7af96fc43f66","ios":"levelo://app?vid=d4787eb9-48ad-4378-9099-7af96fc43f66"},"vehicle_type_id":"4","last_reported":1685376493,"current_range_meters":11600,"station_id":"ce4bhh12rcd13ifvqfg0","pricing_plan_id":"free"},{"bike_id":"d1851c0a-6e9b-458b-921f-ce85e914c0c7","system_id":"levelo_inurba_marseille","lat":43.308,"lon":5.43516,"is_reserved":false,"is_disabled":false,"rental_uris":{"android":"levelo://app?vid=d1851c0a-6e9b-458b-921f-ce85e914c0c7","ios":"levelo://app?vid=d1851c0a-6e9b-458b-921f-ce85e914c0c7"},"vehicle_type_id":"4","last_reported":1685376493,"current_range_meters":12000,"station_id":"","pricing_plan_id":"free"},{"bike_id":"f6466c8d-298a-40d6-bdd7-475fd1d4c4df","system_id":"levelo_inurba_marseille","lat":43.265571,"lon":5.390032,"is_reserved":false,"is_disabled":false,"rental_uris":{"android":"levelo://app?vid=f6466c8d-298a-40d6-bdd7-475fd1d4c4df","ios":"levelo://app?vid=f6466c8d-298a-40d6-bdd7-475fd1d4c4df"},"vehicle_type_id":"4","last_reported":1685376493,"current_range_meters":13600,"station_id":"ce4bhe12rcd13ifvqf30","pricing_plan_id":"free"},{"bike_id":"020e9bac-1d44-4b98-b809-6bfdeb9de9d1","system_id":"levelo_inurba_marseille","lat":43.30798,"lon":5.43527,"is_reserved":false,"is_disabled":false,"rental_uris":{"android":"levelo://app?vid=020e9bac-1d44-4b98-b809-6bfdeb9de9d1","ios":"levelo://app?vid=020e9bac-1d44-4b98-b809-6bfdeb9de9d1"},"vehicle_type_id":"4","last_reported":1685376493,"current_range_meters":4400,"station_id":"","pricing_plan_id":"free"},{"bike_id":"60c18c84-3649-4205-947b-702d8f650b02","system_id":"levelo_inurba_marseille","lat":43.30797,"lon":5.43534,"is_reserved":false,"is_disabled":false,"rental_uris":{"android":"levelo://app?vid=60c18c84-3649-4205-947b-702d8f650b02","ios":"levelo://app?vid=60c18c84-3649-4205-947b-702d8f650b02"},"vehicle_type_id":"4","last_reported":1685376493,"current_range_meters":22800,"station_id":"","pricing_plan_id":"free"},{"bike_id":"2fcc0c23-ac53-41eb-a2d4-d3336177ee7b","system_id":"levelo_inurba_marseille","lat":43.32316,"lon":5.4357,"is_reserved":false,"is_disabled":false,"rental_uris":{"android":"levelo://app?vid=2fcc0c23-ac53-41eb-a2d4-d3336177ee7b","ios":"levelo://app?vid=2fcc0c23-ac53-41eb-a2d4-d3336177ee7b"},"vehicle_type_id":"4","last_reported":1685376493,"current_range_meters":11200,"station_id":"","pricing_plan_id":"free"},{"bike_id":"c2ed7e93-cb21-4ad2-925d-9a27801d9f2a","system_id":"levelo_inurba_marseille","lat":43.26186,"lon":5.37441,"is_reserved":false,"is_disabled":false,"rental_uris":{"android":"levelo://app?vid=c2ed7e93-cb21-4ad2-925d-9a27801d9f2a","ios":"levelo://app?vid=c2ed7e93-cb21-4ad2-925d-9a27801d9f2a"},"vehicle_type_id":"4","last_reported":1685376493,"current_range_meters":0,"station_id":"ce4bhgp2rcd13ifvqfc0","pricing_plan_id":"free"},{"bike_id":"ba588863-20c3-4710-b60f-3d6b35c5caa2","system_id":"levelo_inurba_marseille","lat":43.262012,"lon":5.379307,"is_reserved":false,"is_disabled":false,"rental_uris":{"android":"levelo://app?vid=ba588863-20c3-4710-b60f-3d6b35c5caa2","ios":"levelo://app?vid=ba588863-20c3-4710-b60f-3d6b35c5caa2"},"vehicle_type_id":"4","last_reported":1685376493,"current_range_meters":2000,"station_id":"ce4bhjp2rcd13ifvqg90","pricing_plan_id":"free"},{"bike_id":"c886b0d7-6fb9-4c3b-80f3-9117998d8bdb","system_id":"levelo_inurba_marseille","lat":43.27182,"lon":5.40994,"is_reserved":false,"is_disabled":false,"rental_uris":{"android":"levelo://app?vid=c886b0d7-6fb9-4c3b-80f3-9117998d8bdb","ios":"levelo://app?vid=c886b0d7-6fb9-4c3b-80f3-9117998d8bdb"},"vehicle_type_id":"4","last_reported":1685376493,"current_range_meters":23600,"station_id":"","pricing_plan_id":"free"},{"bike_id":"4be642e2-f871-4e33-bb4a-fb2b0004c8cf","system_id":"levelo_inurba_marseille","lat":43.27173,"lon":5.40993,"is_reserved":false,"is_disabled":false,"rental_uris":{"android":"levelo://app?vid=4be642e2-f871-4e33-bb4a-fb2b0004c8cf","ios":"levelo://app?vid=4be642e2-f871-4e33-bb4a-fb2b0004c8cf"},"vehicle_type_id":"4","last_reported":1685376493,"current_range_meters":7600,"station_id":"","pricing_plan_id":"free"},{"bike_id":"01e3bdd2-e33f-49e8-83e3-caafd20a574a","system_id":"levelo_inurba_marseille","lat":43.267959,"lon":5.402685,"is_reserved":false,"is_disabled":false,"rental_uris":{"android":"levelo://app?vid=01e3bdd2-e33f-49e8-83e3-caafd20a574a","ios":"levelo://app?vid=01e3bdd2-e33f-49e8-83e3-caafd20a574a"},"vehicle_type_id":"4","last_reported":1685376493,"current_range_meters":14000,"station_id":"ce501612rcd8frsf0b60","pricing_plan_id":"free"},{"bike_id":"bfeded0a-2bd2-4b07-89f2-470113647832","system_id":"levelo_inurba_marseille","lat":43.267959,"lon":5.402685,"is_reserved":false,"is_disabled":false,"rental_uris":{"android":"levelo://app?vid=bfeded0a-2bd2-4b07-89f2-470113647832","ios":"levelo://app?vid=bfeded0a-2bd2-4b07-89f2-470113647832"},"vehicle_type_id":"4","last_reported":1685376493,"current_range_meters":23600,"station_id":"ce501612rcd8frsf0b60","pricing_plan_id":"free"},{"bike_id":"d5d7c90c-6818-4808-a42b-96107f21122e","system_id":"levelo_inurba_marseille","lat":43.267959,"lon":5.402687,"is_reserved":false,"is_disabled":false,"rental_uris":{"android":"levelo://app?vid=d5d7c90c-6818-4808-a42b-96107f21122e","ios":"levelo://app?vid=d5d7c90c-6818-4808-a42b-96107f21122e"},"vehicle_type_id":"4","last_reported":1685376493,"current_range_meters":31200,"station_id":"ce501612rcd8frsf0b60","pricing_plan_id":"free"},{"bike_id":"a82f1f3d-cf3e-4acf-b3a8-5051bcebffad","system_id":"levelo_inurba_marseille","lat":43.267959,"lon":5.402687,"is_reserved":false,"is_disabled":false,"rental_uris":{"android":"levelo://app?vid=a82f1f3d-cf3e-4acf-b3a8-5051bcebffad","ios":"levelo://app?vid=a82f1f3d-cf3e-4acf-b3a8-5051bcebffad"},"vehicle_type_id":"4","last_reported":1685376493,"current_range_meters":25200,"station_id":"ce501612rcd8frsf0b60","pricing_plan_id":"free"},{"bike_id":"df85447a-72cb-4e99-847d-22b67a95212a","system_id":"levelo_inurba_marseille","lat":43.267959,"lon":5.402687,"is_reserved":false,"is_disabled":false,"rental_uris":{"android":"levelo://app?vid=df85447a-72cb-4e99-847d-22b67a95212a","ios":"levelo://app?vid=df85447a-72cb-4e99-847d-22b67a95212a"},"vehicle_type_id":"4","last_reported":1685376493,"current_range_meters":23600,"station_id":"ce501612rcd8frsf0b60","pricing_plan_id":"free"},{"bike_id":"a3caeaaf-bcf4-404f-b917-458bebacb3ac","system_id":"levelo_inurba_marseille","lat":43.298768,"lon":5.43643,"is_reserved":false,"is_disabled":false,"rental_uris":{"android":"levelo://app?vid=a3caeaaf-bcf4-404f-b917-458bebacb3ac","ios":"levelo://app?vid=a3caeaaf-bcf4-404f-b917-458bebacb3ac"},"vehicle_type_id":"4","last_reported":1685376493,"current_range_meters":15600,"station_id":"ce4bhpp2rcd13ifvqhfg","pricing_plan_id":"free"},{"bike_id":"74474b43-2943-4493-a56d-39da3fa8faaa","system_id":"levelo_inurba_marseille","lat":43.267959,"lon":5.402687,"is_reserved":false,"is_disabled":false,"rental_uris":{"android":"levelo://app?vid=74474b43-2943-4493-a56d-39da3fa8faaa","ios":"levelo://app?vid=74474b43-2943-4493-a56d-39da3fa8faaa"},"vehicle_type_id":"4","last_reported":1685376493,"current_range_meters":14400,"station_id":"ce501612rcd8frsf0b60","pricing_plan_id":"free"},{"bike_id":"ea63656a-6907-4f78-b505-38d1c2695311","system_id":"levelo_inurba_marseille","lat":43.298768,"lon":5.43643,"is_reserved":false,"is_disabled":false,"rental_uris":{"android":"levelo://app?vid=ea63656a-6907-4f78-b505-38d1c2695311","ios":"levelo://app?vid=ea63656a-6907-4f78-b505-38d1c2695311"},"vehicle_type_id":"4","last_reported":1685376493,"current_range_meters":19200,"station_id":"ce4bhpp2rcd13ifvqhfg","pricing_plan_id":"free"},{"bike_id":"ff3b32cb-6f33-4034-bdc8-f24be637b8b6","system_id":"levelo_inurba_marseille","lat":43.260225,"lon":5.375455,"is_reserved":false,"is_disabled":false,"rental_uris":{"android":"levelo://app?vid=ff3b32cb-6f33-4034-bdc8-f24be637b8b6","ios":"levelo://app?vid=ff3b32cb-6f33-4034-bdc8-f24be637b8b6"},"vehicle_type_id":"4","last_reported":1685376493,"current_range_meters":31600,"station_id":"ce4bhgh2rcd13ifvqfa0","pricing_plan_id":"free"},{"bike_id":"6b404443-757b-4b8d-9a78-a03ca59013fb","system_id":"levelo_inurba_marseille","lat":43.2592,"lon":5.37283,"is_reserved":false,"is_disabled":false,"rental_uris":{"android":"levelo://app?vid=6b404443-757b-4b8d-9a78-a03ca59013fb","ios":"levelo://app?vid=6b404443-757b-4b8d-9a78-a03ca59013fb"},"vehicle_type_id":"4","last_reported":1685376493,"current_range_meters":6000,"station_id":"","pricing_plan_id":"free"},{"bike_id":"a7719dfa-fb9f-41c7-b3ad-1fa956ebcb31","system_id":"levelo_inurba_marseille","lat":43.2607,"lon":5.393983,"is_reserved":false,"is_disabled":false,"rental_uris":{"android":"levelo://app?vid=a7719dfa-fb9f-41c7-b3ad-1fa956ebcb31","ios":"levelo://app?vid=a7719dfa-fb9f-41c7-b3ad-1fa956ebcb31"},"vehicle_type_id":"4","last_reported":1685376493,"current_range_meters":800,"station_id":"ce4bhh92rcd13ifvqfj0","pricing_plan_id":"free"},{"bike_id":"1aaa9893-ecfb-47b5-96a7-5161ee9c37b4","system_id":"levelo_inurba_marseille","lat":43.2607,"lon":5.393983,"is_reserved":false,"is_disabled":false,"rental_uris":{"android":"levelo://app?vid=1aaa9893-ecfb-47b5-96a7-5161ee9c37b4","ios":"levelo://app?vid=1aaa9893-ecfb-47b5-96a7-5161ee9c37b4"},"vehicle_type_id":"4","last_reported":1685376493,"current_range_meters":31200,"station_id":"ce4bhh92rcd13ifvqfj0","pricing_plan_id":"free"},{"bike_id":"0a71265a-eb94-410f-95ac-474355102964","system_id":"levelo_inurba_marseille","lat":43.2607,"lon":5.393983,"is_reserved":false,"is_disabled":false,"rental_uris":{"android":"levelo://app?vid=0a71265a-eb94-410f-95ac-474355102964","ios":"levelo://app?vid=0a71265a-eb94-410f-95ac-474355102964"},"vehicle_type_id":"4","last_reported":1685376493,"current_range_meters":8000,"station_id":"ce4bhh92rcd13ifvqfj0","pricing_plan_id":"free"},{"bike_id":"742fde37-35af-4e7b-b404-34e146c1a8a0","system_id":"levelo_inurba_marseille","lat":43.2607,"lon":5.393983,"is_reserved":false,"is_disabled":false,"rental_uris":{"android":"levelo://app?vid=742fde37-35af-4e7b-b404-34e146c1a8a0","ios":"levelo://app?vid=742fde37-35af-4e7b-b404-34e146c1a8a0"},"vehicle_type_id":"4","last_reported":1685376493,"current_range_meters":8800,"station_id":"ce4bhh92rcd13ifvqfj0","pricing_plan_id":"free"},{"bike_id":"fe5826b0-36ac-4cfa-bf57-d2f591e47a53","system_id":"levelo_inurba_marseille","lat":43.2607,"lon":5.393983,"is_reserved":false,"is_disabled":false,"rental_uris":{"android":"levelo://app?vid=fe5826b0-36ac-4cfa-bf57-d2f591e47a53","ios":"levelo://app?vid=fe5826b0-36ac-4cfa-bf57-d2f591e47a53"},"vehicle_type_id":"4","last_reported":1685376493,"current_range_meters":18800,"station_id":"ce4bhh92rcd13ifvqfj0","pricing_plan_id":"free"},{"bike_id":"45e18a47-944f-4248-9fe9-df4e0ba7ad4e","system_id":"levelo_inurba_marseille","lat":43.260909,"lon":5.397591,"is_reserved":false,"is_disabled":false,"rental_uris":{"android":"levelo://app?vid=45e18a47-944f-4248-9fe9-df4e0ba7ad4e","ios":"levelo://app?vid=45e18a47-944f-4248-9fe9-df4e0ba7ad4e"},"vehicle_type_id":"4","last_reported":1685376493,"current_range_meters":19600,"station_id":"ce4bhi12rcd13ifvqfq0","pricing_plan_id":"free"},{"bike_id":"930e162a-54eb-4d34-a258-4248e03e271f","system_id":"levelo_inurba_marseille","lat":43.255756,"lon":5.382303,"is_reserved":false,"is_disabled":false,"rental_uris":{"android":"levelo://app?vid=930e162a-54eb-4d34-a258-4248e03e271f","ios":"levelo://app?vid=930e162a-54eb-4d34-a258-4248e03e271f"},"vehicle_type_id":"4","last_reported":1685376493,"current_range_meters":18400,"station_id":"ce4bhih2rcd13ifvqfs0","pricing_plan_id":"free"},{"bike_id":"e3818fd3-d07a-4e34-b777-0a1453b723fd","system_id":"levelo_inurba_marseille","lat":43.255756,"lon":5.382303,"is_reserved":false,"is_disabled":false,"rental_uris":{"android":"levelo://app?vid=e3818fd3-d07a-4e34-b777-0a1453b723fd","ios":"levelo://app?vid=e3818fd3-d07a-4e34-b777-0a1453b723fd"},"vehicle_type_id":"4","last_reported":1685376493,"current_range_meters":24400,"station_id":"ce4bhih2rcd13ifvqfs0","pricing_plan_id":"free"},{"bike_id":"2c97b257-d928-4bd1-92f7-687718d6ad94","system_id":"levelo_inurba_marseille","lat":43.255756,"lon":5.382303,"is_reserved":false,"is_disabled":false,"rental_uris":{"android":"levelo://app?vid=2c97b257-d928-4bd1-92f7-687718d6ad94","ios":"levelo://app?vid=2c97b257-d928-4bd1-92f7-687718d6ad94"},"vehicle_type_id":"4","last_reported":1685376493,"current_range_meters":14000,"station_id":"ce4bhih2rcd13ifvqfs0","pricing_plan_id":"free"},{"bike_id":"698ab0fb-273c-45db-8f26-8de622cbb28a","system_id":"levelo_inurba_marseille","lat":43.255756,"lon":5.382303,"is_reserved":false,"is_disabled":false,"rental_uris":{"android":"levelo://app?vid=698ab0fb-273c-45db-8f26-8de622cbb28a","ios":"levelo://app?vid=698ab0fb-273c-45db-8f26-8de622cbb28a"},"vehicle_type_id":"4","last_reported":1685376493,"current_range_meters":3600,"station_id":"ce4bhih2rcd13ifvqfs0","pricing_plan_id":"free"},{"bike_id":"986d8381-a7b9-4ab2-ab0b-039c6f318ff1","system_id":"levelo_inurba_marseille","lat":43.25583,"lon":5.38229,"is_reserved":false,"is_disabled":false,"rental_uris":{"android":"levelo://app?vid=986d8381-a7b9-4ab2-ab0b-039c6f318ff1","ios":"levelo://app?vid=986d8381-a7b9-4ab2-ab0b-039c6f318ff1"},"vehicle_type_id":"4","last_reported":1685376493,"current_range_meters":19600,"station_id":"ce4bhih2rcd13ifvqfs0","pricing_plan_id":"free"},{"bike_id":"320444f4-1c61-485c-9675-20784f63c106","system_id":"levelo_inurba_marseille","lat":43.255756,"lon":5.382303,"is_reserved":false,"is_disabled":false,"rental_uris":{"android":"levelo://app?vid=320444f4-1c61-485c-9675-20784f63c106","ios":"levelo://app?vid=320444f4-1c61-485c-9675-20784f63c106"},"vehicle_type_id":"4","last_reported":1685376493,"current_range_meters":25600,"station_id":"ce4bhih2rcd13ifvqfs0","pricing_plan_id":"free"},{"bike_id":"1189cdf1-c11e-4098-a686-4bc23d05fa21","system_id":"levelo_inurba_marseille","lat":43.255756,"lon":5.382303,"is_reserved":false,"is_disabled":false,"rental_uris":{"android":"levelo://app?vid=1189cdf1-c11e-4098-a686-4bc23d05fa21","ios":"levelo://app?vid=1189cdf1-c11e-4098-a686-4bc23d05fa21"},"vehicle_type_id":"4","last_reported":1685376493,"current_range_meters":24800,"station_id":"ce4bhih2rcd13ifvqfs0","pricing_plan_id":"free"},{"bike_id":"8f078afa-c399-4168-806d-5fc08ee83d10","system_id":"levelo_inurba_marseille","lat":43.254947,"lon":5.376454,"is_reserved":false,"is_disabled":false,"rental_uris":{"android":"levelo://app?vid=8f078afa-c399-4168-806d-5fc08ee83d10","ios":"levelo://app?vid=8f078afa-c399-4168-806d-5fc08ee83d10"},"vehicle_type_id":"4","last_reported":1685376493,"current_range_meters":28000,"station_id":"ce4bhh12rcd13ifvqff0","pricing_plan_id":"free"},{"bike_id":"fdfbaa66-4bda-4941-a506-0bc438065cfb","system_id":"levelo_inurba_marseille","lat":43.254945,"lon":5.376454,"is_reserved":false,"is_disabled":false,"rental_uris":{"android":"levelo://app?vid=fdfbaa66-4bda-4941-a506-0bc438065cfb","ios":"levelo://app?vid=fdfbaa66-4bda-4941-a506-0bc438065cfb"},"vehicle_type_id":"4","last_reported":1685376493,"current_range_meters":23600,"station_id":"ce4bhh12rcd13ifvqff0","pricing_plan_id":"free"},{"bike_id":"bb65b131-f18a-4157-90d1-b23f090c5d0d","system_id":"levelo_inurba_marseille","lat":43.254945,"lon":5.376454,"is_reserved":false,"is_disabled":false,"rental_uris":{"android":"levelo://app?vid=bb65b131-f18a-4157-90d1-b23f090c5d0d","ios":"levelo://app?vid=bb65b131-f18a-4157-90d1-b23f090c5d0d"},"vehicle_type_id":"4","last_reported":1685376493,"current_range_meters":18000,"station_id":"ce4bhh12rcd13ifvqff0","pricing_plan_id":"free"},{"bike_id":"fcca066a-15ac-4074-81db-b8a19219d8c2","system_id":"levelo_inurba_marseille","lat":43.25495,"lon":5.37645,"is_reserved":false,"is_disabled":false,"rental_uris":{"android":"levelo://app?vid=fcca066a-15ac-4074-81db-b8a19219d8c2","ios":"levelo://app?vid=fcca066a-15ac-4074-81db-b8a19219d8c2"},"vehicle_type_id":"4","last_reported":1685376493,"current_range_meters":19200,"station_id":"ce4bhh12rcd13ifvqff0","pricing_plan_id":"free"},{"bike_id":"f640bcc9-4bc5-4fe8-add3-1ed476939702","system_id":"levelo_inurba_marseille","lat":43.254947,"lon":5.376454,"is_reserved":false,"is_disabled":false,"rental_uris":{"android":"levelo://app?vid=f640bcc9-4bc5-4fe8-add3-1ed476939702","ios":"levelo://app?vid=f640bcc9-4bc5-4fe8-add3-1ed476939702"},"vehicle_type_id":"4","last_reported":1685376493,"current_range_meters":23600,"station_id":"ce4bhh12rcd13ifvqff0","pricing_plan_id":"free"},{"bike_id":"2f545072-cf41-4cbc-b961-8057f3fc5928","system_id":"levelo_inurba_marseille","lat":43.25493,"lon":5.37645,"is_reserved":false,"is_disabled":false,"rental_uris":{"android":"levelo://app?vid=2f545072-cf41-4cbc-b961-8057f3fc5928","ios":"levelo://app?vid=2f545072-cf41-4cbc-b961-8057f3fc5928"},"vehicle_type_id":"4","last_reported":1685376493,"current_range_meters":7600,"station_id":"ce4bhh12rcd13ifvqff0","pricing_plan_id":"free"},{"bike_id":"0d0615a7-cb38-4042-b08c-bc34f4db89a8","system_id":"levelo_inurba_marseille","lat":43.270721,"lon":5.422764,"is_reserved":false,"is_disabled":false,"rental_uris":{"android":"levelo://app?vid=0d0615a7-cb38-4042-b08c-bc34f4db89a8","ios":"levelo://app?vid=0d0615a7-cb38-4042-b08c-bc34f4db89a8"},"vehicle_type_id":"4","last_reported":1685376493,"current_range_meters":20800,"station_id":"ce4bhk92rcd13ifvqgb0","pricing_plan_id":"free"},{"bike_id":"365d299c-3a09-446e-8378-12a1596b901d","system_id":"levelo_inurba_marseille","lat":43.2587,"lon":5.39889,"is_reserved":false,"is_disabled":false,"rental_uris":{"android":"levelo://app?vid=365d299c-3a09-446e-8378-12a1596b901d","ios":"levelo://app?vid=365d299c-3a09-446e-8378-12a1596b901d"},"vehicle_type_id":"4","last_reported":1685376493,"current_range_meters":30000,"station_id":"ce4bhl92rcd13ifvqghg","pricing_plan_id":"free"},{"bike_id":"a8e61f92-042f-49c5-ba90-c0c1d336c795","system_id":"levelo_inurba_marseille","lat":43.258658,"lon":5.398935,"is_reserved":false,"is_disabled":false,"rental_uris":{"android":"levelo://app?vid=a8e61f92-042f-49c5-ba90-c0c1d336c795","ios":"levelo://app?vid=a8e61f92-042f-49c5-ba90-c0c1d336c795"},"vehicle_type_id":"4","last_reported":1685376493,"current_range_meters":19200,"station_id":"ce4bhl92rcd13ifvqghg","pricing_plan_id":"free"},{"bike_id":"bf07edbb-b830-4667-9faf-2a1fa4e949f9","system_id":"levelo_inurba_marseille","lat":43.25379,"lon":5.38409,"is_reserved":false,"is_disabled":false,"rental_uris":{"android":"levelo://app?vid=bf07edbb-b830-4667-9faf-2a1fa4e949f9","ios":"levelo://app?vid=bf07edbb-b830-4667-9faf-2a1fa4e949f9"},"vehicle_type_id":"4","last_reported":1685376493,"current_range_meters":19600,"station_id":"","pricing_plan_id":"free"},{"bike_id":"8045018d-bfcc-4261-bc9e-370a5aebdec5","system_id":"levelo_inurba_marseille","lat":43.25338,"lon":5.38472,"is_reserved":false,"is_disabled":false,"rental_uris":{"android":"levelo://app?vid=8045018d-bfcc-4261-bc9e-370a5aebdec5","ios":"levelo://app?vid=8045018d-bfcc-4261-bc9e-370a5aebdec5"},"vehicle_type_id":"4","last_reported":1685376493,"current_range_meters":31200,"station_id":"","pricing_plan_id":"free"},{"bike_id":"00e2361c-189c-475c-8e5b-f01c1a61421d","system_id":"levelo_inurba_marseille","lat":43.259013,"lon":5.409301,"is_reserved":false,"is_disabled":false,"rental_uris":{"android":"levelo://app?vid=00e2361c-189c-475c-8e5b-f01c1a61421d","ios":"levelo://app?vid=00e2361c-189c-475c-8e5b-f01c1a61421d"},"vehicle_type_id":"4","last_reported":1685376493,"current_range_meters":25200,"station_id":"ce4bhm92rcd13ifvqglg","pricing_plan_id":"free"},{"bike_id":"29e9259c-f693-4eda-ba06-08bf5314fab0","system_id":"levelo_inurba_marseille","lat":43.250009,"lon":5.389195,"is_reserved":false,"is_disabled":false,"rental_uris":{"android":"levelo://app?vid=29e9259c-f693-4eda-ba06-08bf5314fab0","ios":"levelo://app?vid=29e9259c-f693-4eda-ba06-08bf5314fab0"},"vehicle_type_id":"4","last_reported":1685376493,"current_range_meters":31200,"station_id":"ce4bhgp2rcd13ifvqfd0","pricing_plan_id":"free"},{"bike_id":"0714ebc4-5725-493c-8c71-f4b0a121f603","system_id":"levelo_inurba_marseille","lat":43.250023,"lon":5.38919,"is_reserved":false,"is_disabled":false,"rental_uris":{"android":"levelo://app?vid=0714ebc4-5725-493c-8c71-f4b0a121f603","ios":"levelo://app?vid=0714ebc4-5725-493c-8c71-f4b0a121f603"},"vehicle_type_id":"4","last_reported":1685376493,"current_range_meters":31200,"station_id":"ce4bhgp2rcd13ifvqfd0","pricing_plan_id":"free"},{"bike_id":"ffdbd5bd-875d-4ab5-afdb-2cb57bac7917","system_id":"levelo_inurba_marseille","lat":43.250009,"lon":5.389195,"is_reserved":false,"is_disabled":false,"rental_uris":{"android":"levelo://app?vid=ffdbd5bd-875d-4ab5-afdb-2cb57bac7917","ios":"levelo://app?vid=ffdbd5bd-875d-4ab5-afdb-2cb57bac7917"},"vehicle_type_id":"4","last_reported":1685376493,"current_range_meters":31200,"station_id":"ce4bhgp2rcd13ifvqfd0","pricing_plan_id":"free"},{"bike_id":"42056446-ad33-4fba-aad2-5e24e5d9964c","system_id":"levelo_inurba_marseille","lat":43.250009,"lon":5.389195,"is_reserved":false,"is_disabled":false,"rental_uris":{"android":"levelo://app?vid=42056446-ad33-4fba-aad2-5e24e5d9964c","ios":"levelo://app?vid=42056446-ad33-4fba-aad2-5e24e5d9964c"},"vehicle_type_id":"4","last_reported":1685376493,"current_range_meters":31200,"station_id":"ce4bhgp2rcd13ifvqfd0","pricing_plan_id":"free"},{"bike_id":"b1877dab-da46-46d0-a0a9-88af62e9285c","system_id":"levelo_inurba_marseille","lat":43.25003,"lon":5.38934,"is_reserved":false,"is_disabled":false,"rental_uris":{"android":"levelo://app?vid=b1877dab-da46-46d0-a0a9-88af62e9285c","ios":"levelo://app?vid=b1877dab-da46-46d0-a0a9-88af62e9285c"},"vehicle_type_id":"4","last_reported":1685376493,"current_range_meters":26400,"station_id":"ce4bhgp2rcd13ifvqfd0","pricing_plan_id":"free"},{"bike_id":"6dea6b28-d430-4fe9-87e7-e8b749cc19b9","system_id":"levelo_inurba_marseille","lat":43.25002,"lon":5.38941,"is_reserved":false,"is_disabled":false,"rental_uris":{"android":"levelo://app?vid=6dea6b28-d430-4fe9-87e7-e8b749cc19b9","ios":"levelo://app?vid=6dea6b28-d430-4fe9-87e7-e8b749cc19b9"},"vehicle_type_id":"4","last_reported":1685376493,"current_range_meters":16800,"station_id":"ce4bhgp2rcd13ifvqfd0","pricing_plan_id":"free"},{"bike_id":"a732e2ee-0ecf-41ed-95ea-aa300ae3f57b","system_id":"levelo_inurba_marseille","lat":43.24813,"lon":5.37458,"is_reserved":false,"is_disabled":false,"rental_uris":{"android":"levelo://app?vid=a732e2ee-0ecf-41ed-95ea-aa300ae3f57b","ios":"levelo://app?vid=a732e2ee-0ecf-41ed-95ea-aa300ae3f57b"},"vehicle_type_id":"4","last_reported":1685376493,"current_range_meters":9600,"station_id":"ce4bhgh2rcd13ifvqfb0","pricing_plan_id":"free"},{"bike_id":"9ad648bc-e8ed-49e2-a5ec-add1b46f412b","system_id":"levelo_inurba_marseille","lat":43.250023,"lon":5.38919,"is_reserved":false,"is_disabled":false,"rental_uris":{"android":"levelo://app?vid=9ad648bc-e8ed-49e2-a5ec-add1b46f412b","ios":"levelo://app?vid=9ad648bc-e8ed-49e2-a5ec-add1b46f412b"},"vehicle_type_id":"4","last_reported":1685376493,"current_range_meters":29200,"station_id":"ce4bhgp2rcd13ifvqfd0","pricing_plan_id":"free"},{"bike_id":"bdbb93fa-3922-4584-9aec-a29c4fbd281a","system_id":"levelo_inurba_marseille","lat":43.24804,"lon":5.37451,"is_reserved":false,"is_disabled":false,"rental_uris":{"android":"levelo://app?vid=bdbb93fa-3922-4584-9aec-a29c4fbd281a","ios":"levelo://app?vid=bdbb93fa-3922-4584-9aec-a29c4fbd281a"},"vehicle_type_id":"4","last_reported":1685376493,"current_range_meters":1200,"station_id":"ce4bhgh2rcd13ifvqfb0","pricing_plan_id":"free"},{"bike_id":"047986d9-f1f9-4d82-ac0b-457c1084b159","system_id":"levelo_inurba_marseille","lat":43.2479,"lon":5.374457,"is_reserved":false,"is_disabled":false,"rental_uris":{"android":"levelo://app?vid=047986d9-f1f9-4d82-ac0b-457c1084b159","ios":"levelo://app?vid=047986d9-f1f9-4d82-ac0b-457c1084b159"},"vehicle_type_id":"4","last_reported":1685376493,"current_range_meters":24800,"station_id":"ce4bhgh2rcd13ifvqfb0","pricing_plan_id":"free"},{"bike_id":"82d1e72a-cb9d-43c8-b998-be140ba8b41c","system_id":"levelo_inurba_marseille","lat":43.2479,"lon":5.374457,"is_reserved":false,"is_disabled":false,"rental_uris":{"android":"levelo://app?vid=82d1e72a-cb9d-43c8-b998-be140ba8b41c","ios":"levelo://app?vid=82d1e72a-cb9d-43c8-b998-be140ba8b41c"},"vehicle_type_id":"4","last_reported":1685376493,"current_range_meters":15600,"station_id":"ce4bhgh2rcd13ifvqfb0","pricing_plan_id":"free"},{"bike_id":"075a8db1-0b2c-4e6a-87df-5021835f8c6b","system_id":"levelo_inurba_marseille","lat":43.2479,"lon":5.374457,"is_reserved":false,"is_disabled":false,"rental_uris":{"android":"levelo://app?vid=075a8db1-0b2c-4e6a-87df-5021835f8c6b","ios":"levelo://app?vid=075a8db1-0b2c-4e6a-87df-5021835f8c6b"},"vehicle_type_id":"4","last_reported":1685376493,"current_range_meters":12400,"station_id":"ce4bhgh2rcd13ifvqfb0","pricing_plan_id":"free"},{"bike_id":"44937c0e-4019-4eca-a556-bf25959ffa29","system_id":"levelo_inurba_marseille","lat":43.250966,"lon":5.395186,"is_reserved":false,"is_disabled":false,"rental_uris":{"android":"levelo://app?vid=44937c0e-4019-4eca-a556-bf25959ffa29","ios":"levelo://app?vid=44937c0e-4019-4eca-a556-bf25959ffa29"},"vehicle_type_id":"4","last_reported":1685376493,"current_range_meters":6000,"station_id":"ce4bhm12rcd13ifvqgkg","pricing_plan_id":"free"},{"bike_id":"160e258e-87ef-489f-ae61-3993f6dfa453","system_id":"levelo_inurba_marseille","lat":43.250966,"lon":5.395186,"is_reserved":false,"is_disabled":false,"rental_uris":{"android":"levelo://app?vid=160e258e-87ef-489f-ae61-3993f6dfa453","ios":"levelo://app?vid=160e258e-87ef-489f-ae61-3993f6dfa453"},"vehicle_type_id":"4","last_reported":1685376493,"current_range_meters":15600,"station_id":"ce4bhm12rcd13ifvqgkg","pricing_plan_id":"free"},{"bike_id":"2083719c-d28b-4a58-a603-44bd8cbfaddc","system_id":"levelo_inurba_marseille","lat":43.250966,"lon":5.395186,"is_reserved":false,"is_disabled":false,"rental_uris":{"android":"levelo://app?vid=2083719c-d28b-4a58-a603-44bd8cbfaddc","ios":"levelo://app?vid=2083719c-d28b-4a58-a603-44bd8cbfaddc"},"vehicle_type_id":"4","last_reported":1685376493,"current_range_meters":11600,"station_id":"ce4bhm12rcd13ifvqgkg","pricing_plan_id":"free"},{"bike_id":"a05b00ef-7236-40a3-99bf-6c85ac4556e8","system_id":"levelo_inurba_marseille","lat":43.250966,"lon":5.395186,"is_reserved":false,"is_disabled":false,"rental_uris":{"android":"levelo://app?vid=a05b00ef-7236-40a3-99bf-6c85ac4556e8","ios":"levelo://app?vid=a05b00ef-7236-40a3-99bf-6c85ac4556e8"},"vehicle_type_id":"4","last_reported":1685376493,"current_range_meters":22400,"station_id":"ce4bhm12rcd13ifvqgkg","pricing_plan_id":"free"},{"bike_id":"7b006c35-5d45-4bce-8ad9-ca21301da14b","system_id":"levelo_inurba_marseille","lat":43.250966,"lon":5.395186,"is_reserved":false,"is_disabled":false,"rental_uris":{"android":"levelo://app?vid=7b006c35-5d45-4bce-8ad9-ca21301da14b","ios":"levelo://app?vid=7b006c35-5d45-4bce-8ad9-ca21301da14b"},"vehicle_type_id":"4","last_reported":1685376493,"current_range_meters":31200,"station_id":"ce4bhm12rcd13ifvqgkg","pricing_plan_id":"free"},{"bike_id":"1b41f02f-e50a-4cab-8910-42a7f65fa9b2","system_id":"levelo_inurba_marseille","lat":43.250966,"lon":5.395186,"is_reserved":false,"is_disabled":false,"rental_uris":{"android":"levelo://app?vid=1b41f02f-e50a-4cab-8910-42a7f65fa9b2","ios":"levelo://app?vid=1b41f02f-e50a-4cab-8910-42a7f65fa9b2"},"vehicle_type_id":"4","last_reported":1685376493,"current_range_meters":15200,"station_id":"ce4bhm12rcd13ifvqgkg","pricing_plan_id":"free"},{"bike_id":"e356dcfd-325a-41ae-86cc-6b609e92c5fb","system_id":"levelo_inurba_marseille","lat":43.25102,"lon":5.403214,"is_reserved":false,"is_disabled":false,"rental_uris":{"android":"levelo://app?vid=e356dcfd-325a-41ae-86cc-6b609e92c5fb","ios":"levelo://app?vid=e356dcfd-325a-41ae-86cc-6b609e92c5fb"},"vehicle_type_id":"4","last_reported":1685376493,"current_range_meters":31200,"station_id":"ce4bhlh2rcd13ifvqgig","pricing_plan_id":"free"},{"bike_id":"f0f34558-87ba-4daf-894f-6ef924b9176d","system_id":"levelo_inurba_marseille","lat":43.24693,"lon":5.382096,"is_reserved":false,"is_disabled":false,"rental_uris":{"android":"levelo://app?vid=f0f34558-87ba-4daf-894f-6ef924b9176d","ios":"levelo://app?vid=f0f34558-87ba-4daf-894f-6ef924b9176d"},"vehicle_type_id":"4","last_reported":1685376493,"current_range_meters":31600,"station_id":"ce4bhih2rcd13ifvqfr0","pricing_plan_id":"free"},{"bike_id":"295109d7-8f32-447b-a32d-fdd4a3375719","system_id":"levelo_inurba_marseille","lat":43.24669,"lon":5.38157,"is_reserved":false,"is_disabled":false,"rental_uris":{"android":"levelo://app?vid=295109d7-8f32-447b-a32d-fdd4a3375719","ios":"levelo://app?vid=295109d7-8f32-447b-a32d-fdd4a3375719"},"vehicle_type_id":"4","last_reported":1685376493,"current_range_meters":21600,"station_id":"","pricing_plan_id":"free"},{"bike_id":"6d2073a6-d325-48b2-a6bc-c5f818f0cdb3","system_id":"levelo_inurba_marseille","lat":43.24668,"lon":5.38157,"is_reserved":false,"is_disabled":false,"rental_uris":{"android":"levelo://app?vid=6d2073a6-d325-48b2-a6bc-c5f818f0cdb3","ios":"levelo://app?vid=6d2073a6-d325-48b2-a6bc-c5f818f0cdb3"},"vehicle_type_id":"4","last_reported":1685376493,"current_range_meters":20000,"station_id":"","pricing_plan_id":"free"},