{"last_updated":1728162427,"ttl":60,"version":"2.2","data":{"bikes":[{"bike_id":"b3fb91ee-2552-4bb1-b638-e1c008f0fbc7","system_id":"levelo_inurba_marseille","lat":43.26062,"lon":5.39398,"is_reserved":false,"is_disabled":false,"rental_uris":{"android":"levelo://app?vid=b3fb91ee-2552-4bb1-b638-e1c008f0fbc7","ios":"levelo://app?vid=b3fb91ee-2552-4bb1-b638-e1c008f0fbc7"},"vehicle_type_id":"4","last_reported":1728162427,"current_range_meters":38800,"station_id":"ce4bhh92rcd13ifvqfj0","pricing_plan_id":"cebpf4jnsgd1na2vs0mg"},{"bike_id":"70bcdf73-9c71-4b17-a544-9dd69e820cfe","system_id":"levelo_inurba_marseille","lat":43.25124,"lon":5.40321,"is_reserved":false,"is_disabled":false,"rental_uris":{"android":"levelo://app?vid=70bcdf73-9c71-4b17-a544-9dd69e820cfe","ios":"levelo://app?vid=70bcdf73-9c71-4b17-a544-9dd69e820cfe"},"vehicle_type_id":"4","last_reported":1728162427,"current_range_meters":38800,"station_id":"ce4bhlh2rcd13ifvqgig","pricing_plan_id":"cebpf4jnsgd1na2vs0mg"},{"bike_id":"442824c6-8b63-4a71-93f0-6531329b40f0","system_id":"levelo_inurba_marseille","lat":43.29192,"lon":5.35783,"is_reserved":false,"is_disabled":false,"rental_uris":{"android":"levelo://app?vid=442824c6-8b63-4a71-93f0-6531329b40f0","ios":"levelo://app?vid=442824c6-8b63-4a71-93f0-6531329b40f0"},"vehicle_type_id":"4","last_reported":1728162427,"current_range_meters":31200,"station_id":"ce4bhb12rcd13ifvqel0","pricing_plan_id":"cebpf4jnsgd1na2vs0mg"},{"bike_id":"3edccbad-c604-40df-acb2-6e9d91b67298","system_id":"levelo_inurba_marseille","lat":43.33775,"lon":5.37437,"is_reserved":false,"is_disabled":false,"rental_uris":{"android":"levelo://app?vid=3edccbad-c604-40df-acb2-6e9d91b67298","ios":"levelo://app?vid=3edccbad-c604-40df-acb2-6e9d91b67298"},"vehicle_type_id":"4","last_reported":1728162427,"current_range_meters":32400,"station_id":"","pricing_plan_id":"cebpf4jnsgd1na2vs0mg"},{"bike_id":"90c234fc-865b-4f7d-bb51-af389487d03a","system_id":"levelo_inurba_marseille","lat":43.24179,"lon":5.39736,"is_reserved":false,"is_disabled":false,"rental_uris":{"android":"levelo://app?vid=90c234fc-865b-4f7d-bb51-af389487d03a","ios":"levelo://app?vid=90c234fc-865b-4f7d-bb51-af389487d03a"},"vehicle_type_id":"4","last_reported":1728162427,"current_range_meters":13600,"station_id":"ce4bhn12rcd13ifvqgpg","pricing_plan_id":"cebpf4jnsgd1na2vs0mg"},{"bike_id":"f42ba909-c6af-4d4c-bcad-ee9c6f8944ff","system_id":"levelo_inurba_marseille","lat":43.317466,"lon":5.390246,"is_reserved":false,"is_disabled":false,"rental_uris":{"android":"levelo://app?vid=f42ba909-c6af-4d4c-bcad-ee9c6f8944ff","ios":"levelo://app?vid=f42ba909-c6af-4d4c-bcad-ee9c6f8944ff"},"vehicle_type_id":"4","last_reported":1728162427,"current_range_meters":30400,"station_id":"ce4bhqp2rcd13ifvqhng","pricing_plan_id":"cebpf4jnsgd1na2vs0mg"},{"bike_id":"53379d75-accb-442a-bf25-e75e20f4bf6d","system_id":"levelo_inurba_marseille","lat":43.251251,"lon":5.403339,"is_reserved":false,"is_disabled":false,"rental_uris":{"android":"levelo://app?vid=53379d75-accb-442a-bf25-e75e20f4bf6d","ios":"levelo://app?vid=53379d75-accb-442a-bf25-e75e20f4bf6d"},"vehicle_type_id":"4","last_reported":1728162427,"current_range_meters":12400,"station_id":"ce4bhlh2rcd13ifvqgig","pricing_plan_id":"cebpf4jnsgd1na2vs0mg"},{"bike_id":"a98fb55e-0288-42a2-bfca-12990e3e9703","system_id":"levelo_inurba_marseille","lat":43.29576,"lon":5.39974,"is_reserved":false,"is_disabled":false,"rental_uris":{"android":"levelo://app?vid=a98fb55e-0288-42a2-bfca-12990e3e9703","ios":"levelo://app?vid=a98fb55e-0288-42a2-bfca-12990e3e9703"},"vehicle_type_id":"4","last_reported":1728162427,"current_range_meters":33200,"station_id":"ce4bh312rcd13ifvqdj0","pricing_plan_id":"cebpf4jnsgd1na2vs0mg"},{"bike_id":"dc13d204-8928-41f4-9005-5c7bf9a25f08","system_id":"levelo_inurba_marseille","lat":43.30538,"lon":5.36702,"is_reserved":false,"is_disabled":false,"rental_uris":{"android":"levelo://app?vid=dc13d204-8928-41f4-9005-5c7bf9a25f08","ios":"levelo://app?vid=dc13d204-8928-41f4-9005-5c7bf9a25f08"},"vehicle_type_id":"4","last_reported":1728162427,"current_range_meters":34000,"station_id":"ce4bgrp2rcd13ifvqc9g","pricing_plan_id":"cebpf4jnsgd1na2vs0mg"},{"bike_id":"e3675e8b-d30c-4768-b5c0-f611e4a9ed99","system_id":"levelo_inurba_marseille","lat":43.29044,"lon":5.39946,"is_reserved":false,"is_disabled":false,"rental_uris":{"android":"levelo://app?vid=e3675e8b-d30c-4768-b5c0-f611e4a9ed99","ios":"levelo://app?vid=e3675e8b-d30c-4768-b5c0-f611e4a9ed99"},"vehicle_type_id":"4","last_reported":1728162427,"current_range_meters":38400,"station_id":"ce4bh392rcd13ifvqdm0","pricing_plan_id":"cebpf4jnsgd1na2vs0mg"},{"bike_id":"31ea6b97-9b1b-4830-91db-ea5d9e36526f","system_id":"levelo_inurba_marseille","lat":43.28042,"lon":5.36948,"is_reserved":false,"is_disabled":false,"rental_uris":{"android":"levelo://app?vid=31ea6b97-9b1b-4830-91db-ea5d9e36526f","ios":"levelo://app?vid=31ea6b97-9b1b-4830-91db-ea5d9e36526f"},"vehicle_type_id":"4","last_reported":1728162427,"current_range_meters":10000,"station_id":"ce4bha12rcd13ifvqef0","pricing_plan_id":"cebpf4jnsgd1na2vs0mg"},{"bike_id":"ba0180d4-cf64-48df-8270-0db5fe20d0c7","system_id":"levelo_inurba_marseille","lat":43.29547,"lon":5.42296,"is_reserved":false,"is_disabled":false,"rental_uris":{"android":"levelo://app?vid=ba0180d4-cf64-48df-8270-0db5fe20d0c7","ios":"levelo://app?vid=ba0180d4-cf64-48df-8270-0db5fe20d0c7"},"vehicle_type_id":"4","last_reported":1728162427,"current_range_meters":34800,"station_id":"ce4bhph2rcd13ifvqhdg","pricing_plan_id":"cebpf4jnsgd1na2vs0mg"},{"bike_id":"6f219d43-2f61-458f-b923-dc635dbbf499","system_id":"levelo_inurba_marseille","lat":43.30917,"lon":5.36843,"is_reserved":false,"is_disabled":false,"rental_uris":{"android":"levelo://app?vid=6f219d43-2f61-458f-b923-dc635dbbf499","ios":"levelo://app?vid=6f219d43-2f61-458f-b923-dc635dbbf499"},"vehicle_type_id":"4","last_reported":1728162427,"current_range_meters":20000,"station_id":"ce4bgn92rcd13ifvqbvg","pricing_plan_id":"cebpf4jnsgd1na2vs0mg"},{"bike_id":"74f9773c-bc34-4f20-b692-a88fbf26ba94","system_id":"levelo_inurba_marseille","lat":43.28716,"lon":5.36086,"is_reserved":false,"is_disabled":false,"rental_uris":{"android":"levelo://app?vid=74f9773c-bc34-4f20-b692-a88fbf26ba94","ios":"levelo://app?vid=74f9773c-bc34-4f20-b692-a88fbf26ba94"},"vehicle_type_id":"4","last_reported":1728162427,"current_range_meters":20800,"station_id":"cki0cbj6b192h4jlfktg","pricing_plan_id":"cebpf4jnsgd1na2vs0mg"},{"bike_id":"5ef3c31e-c35f-40aa-b8c1-6220ed55888e","system_id":"levelo_inurba_marseille","lat":43.25085,"lon":5.39525,"is_reserved":false,"is_disabled":false,"rental_uris":{"android":"levelo://app?vid=5ef3c31e-c35f-40aa-b8c1-6220ed55888e","ios":"levelo://app?vid=5ef3c31e-c35f-40aa-b8c1-6220ed55888e"},"vehicle_type_id":"4","last_reported":1728162427,"current_range_meters":38800,"station_id":"ce4bhm12rcd13ifvqgkg","pricing_plan_id":"cebpf4jnsgd1na2vs0mg"},{"bike_id":"12552dde-90a3-4ae7-a6f1-24bd3ab71291","system_id":"levelo_inurba_marseille","lat":43.29252,"lon":5.38453,"is_reserved":false,"is_disabled":false,"rental_uris":{"android":"levelo://app?vid=12552dde-90a3-4ae7-a6f1-24bd3ab71291","ios":"levelo://app?vid=12552dde-90a3-4ae7-a6f1-24bd3ab71291"},"vehicle_type_id":"4","last_reported":1728162427,"current_range_meters":38800,"station_id":"ce4bh692rcd13ifvqea0","pricing_plan_id":"cebpf4jnsgd1na2vs0mg"},{"bike_id":"f11dd066-6b94-4d0b-8a87-cb59e5dabda0","system_id":"levelo_inurba_marseille","lat":43.31271,"lon":5.4017,"is_reserved":false,"is_disabled":false,"rental_uris":{"android":"levelo://app?vid=f11dd066-6b94-4d0b-8a87-cb59e5dabda0","ios":"levelo://app?vid=f11dd066-6b94-4d0b-8a87-cb59e5dabda0"},"vehicle_type_id":"4","last_reported":1728162427,"current_range_meters":33200,"station_id":"ce4bh092rcd13ifvqd30","pricing_plan_id":"cebpf4jnsgd1na2vs0mg"},{"bike_id":"e944e2c8-3cc4-4553-bf9c-19fb03b060de","system_id":"levelo_inurba_marseille","lat":43.3123,"lon":5.36865,"is_reserved":false,"is_disabled":false,"rental_uris":{"android":"levelo://app?vid=e944e2c8-3cc4-4553-bf9c-19fb03b060de","ios":"levelo://app?vid=e944e2c8-3cc4-4553-bf9c-19fb03b060de"},"vehicle_type_id":"4","last_reported":1728162427,"current_range_meters":24400,"station_id":"ce4bgl92rcd13ifvqbq0","pricing_plan_id":"cebpf4jnsgd1na2vs0mg"},{"bike_id":"c699d83b-0c7f-460c-8d7c-78b821d44bd9","system_id":"levelo_inurba_marseille","lat":43.292573,"lon":5.384387,"is_reserved":false,"is_disabled":false,"rental_uris":{"android":"levelo://app?vid=c699d83b-0c7f-460c-8d7c-78b821d44bd9","ios":"levelo://app?vid=c699d83b-0c7f-460c-8d7c-78b821d44bd9"},"vehicle_type_id":"4","last_reported":1728162427,"current_range_meters":24800,"station_id":"ce4bh692rcd13ifvqea0","pricing_plan_id":"cebpf4jnsgd1na2vs0mg"},{"bike_id":"a013fc0e-79f4-4493-bf94-abf4fcb0118b","system_id":"levelo_inurba_marseille","lat":43.28103,"lon":5.3785,"is_reserved":false,"is_disabled":false,"rental_uris":{"android":"levelo://app?vid=a013fc0e-79f4-4493-bf94-abf4fcb0118b","ios":"levelo://app?vid=a013fc0e-79f4-4493-bf94-abf4fcb0118b"},"vehicle_type_id":"4","last_reported":1728162427,"current_range_meters":14400,"station_id":"ce4bha12rcd13ifvqee0","pricing_plan_id":"cebpf4jnsgd1na2vs0mg"},{"bike_id":"8f568ac0-6709-4e1b-976a-2ebd965361a0","system_id":"levelo_inurba_marseille","lat":43.31531,"lon":5.38029,"is_reserved":false,"is_disabled":false,"rental_uris":{"android":"levelo://app?vid=8f568ac0-6709-4e1b-976a-2ebd965361a0","ios":"levelo://app?vid=8f568ac0-6709-4e1b-976a-2ebd965361a0"},"vehicle_type_id":"4","last_reported":1728162427,"current_range_meters":6800,"station_id":"ce4bhsp2rcd13ifvqi50","pricing_plan_id":"cebpf4jnsgd1na2vs0mg"},{"bike_id":"03ebdfef-60b9-4383-b780-f6e10ef5dff9","system_id":"levelo_inurba_marseille","lat":43.33751,"lon":5.37439,"is_reserved":false,"is_disabled":false,"rental_uris":{"android":"levelo://app?vid=03ebdfef-60b9-4383-b780-f6e10ef5dff9","ios":"levelo://app?vid=03ebdfef-60b9-4383-b780-f6e10ef5dff9"},"vehicle_type_id":"4","last_reported":1728162427,"current_range_meters":30800,"station_id":"","pricing_plan_id":"cebpf4jnsgd1na2vs0mg"},{"bike_id":"d820525c-0b8c-4fbf-bb7e-aed45f7d261a","system_id":"levelo_inurba_marseille","lat":43.25858,"lon":5.39904,"is_reserved":false,"is_disabled":false,"rental_uris":{"android":"levelo://app?vid=d820525c-0b8c-4fbf-bb7e-aed45f7d261a","ios":"levelo://app?vid=d820525c-0b8c-4fbf-bb7e-aed45f7d261a"},"vehicle_type_id":"4","last_reported":1728162427,"current_range_meters":38800,"station_id":"ce4bhl92rcd13ifvqghg","pricing_plan_id":"cebpf4jnsgd1na2vs0mg"},{"bike_id":"6d82d605-3438-4847-bee8-866e6cf5d24c","system_id":"levelo_inurba_marseille","lat":43.28978,"lon":5.37824,"is_reserved":false,"is_disabled":false,"rental_uris":{"android":"levelo://app?vid=6d82d605-3438-4847-bee8-866e6cf5d24c","ios":"levelo://app?vid=6d82d605-3438-4847-bee8-866e6cf5d24c"},"vehicle_type_id":"4","last_reported":1728162427,"current_range_meters":38000,"station_id":"ce4bh9p2rcd13ifvqed0","pricing_plan_id":"cebpf4jnsgd1na2vs0mg"},{"bike_id":"8f7f6f45-3748-479f-b795-6ab1b137f800","system_id":"levelo_inurba_marseille","lat":43.29849,"lon":5.36278,"is_reserved":false,"is_disabled":false,"rental_uris":{"android":"levelo://app?vid=8f7f6f45-3748-479f-b795-6ab1b137f800","ios":"levelo://app?vid=8f7f6f45-3748-479f-b795-6ab1b137f800"},"vehicle_type_id":"4","last_reported":1728162427,"current_range_meters":30800,"station_id":"ce4bgpp2rcd13ifvqc3g","pricing_plan_id":"cebpf4jnsgd1na2vs0mg"},{"bike_id":"0952ea56-7f44-4708-ab22-7a7a98985b63","system_id":"levelo_inurba_marseille","lat":43.33029,"lon":5.39042,"is_reserved":false,"is_disabled":false,"rental_uris":{"android":"levelo://app?vid=0952ea56-7f44-4708-ab22-7a7a98985b63","ios":"levelo://app?vid=0952ea56-7f44-4708-ab22-7a7a98985b63"},"vehicle_type_id":"4","last_reported":1728162427,"current_range_meters":34800,"station_id":"ce4bhr92rcd13ifvqhrg","pricing_plan_id":"cebpf4jnsgd1na2vs0mg"},{"bike_id":"8c4ede2a-8479-4951-912b-e9104b176599","system_id":"levelo_inurba_marseille","lat":43.33723,"lon":5.39198,"is_reserved":false,"is_disabled":false,"rental_uris":{"android":"levelo://app?vid=8c4ede2a-8479-4951-912b-e9104b176599","ios":"levelo://app?vid=8c4ede2a-8479-4951-912b-e9104b176599"},"vehicle_type_id":"4","last_reported":1728162427,"current_range_meters":10800,"station_id":"ce4bhr92rcd13ifvqhsg","pricing_plan_id":"cebpf4jnsgd1na2vs0mg"},{"bike_id":"a209a971-131e-491a-94c0-3302688dd8c9","system_id":"levelo_inurba_marseille","lat":43.30809,"lon":5.43487,"is_reserved":false,"is_disabled":false,"rental_uris":{"android":"levelo://app?vid=a209a971-131e-491a-94c0-3302688dd8c9","ios":"levelo://app?vid=a209a971-131e-491a-94c0-3302688dd8c9"},"vehicle_type_id":"4","last_reported":1728162427,"current_range_meters":16000,"station_id":"ce4bhph2rcd13ifvqheg","pricing_plan_id":"cebpf4jnsgd1na2vs0mg"},{"bike_id":"4018fa26-9a2a-4214-af21-76b3667a940b","system_id":"levelo_inurba_marseille","lat":43.33784,"lon":5.37426,"is_reserved":false,"is_disabled":false,"rental_uris":{"android":"levelo://app?vid=4018fa26-9a2a-4214-af21-76b3667a940b","ios":"levelo://app?vid=4018fa26-9a2a-4214-af21-76b3667a940b"},"vehicle_type_id":"4","last_reported":1728162427,"current_range_meters":31200,"station_id":"","pricing_plan_id":"cebpf4jnsgd1na2vs0mg"},{"bike_id":"ac7477e2-647f-4698-b2f1-05ac6bd7ca79","system_id":"levelo_inurba_marseille","lat":43.2738,"lon":5.36257,"is_reserved":false,"is_disabled":false,"rental_uris":{"android":"levelo://app?vid=ac7477e2-647f-4698-b2f1-05ac6bd7ca79","ios":"levelo://app?vid=ac7477e2-647f-4698-b2f1-05ac6bd7ca79"},"vehicle_type_id":"4","last_reported":1728162427,"current_range_meters":36800,"station_id":"ce4bhbh2rcd13ifvqeo0","pricing_plan_id":"cebpf4jnsgd1na2vs0mg"},{"bike_id":"69b330ae-1dc4-4893-985f-b03e6f6b07e8","system_id":"levelo_inurba_marseille","lat":43.31241,"lon":5.36849,"is_reserved":false,"is_disabled":false,"rental_uris":{"android":"levelo://app?vid=69b330ae-1dc4-4893-985f-b03e6f6b07e8","ios":"levelo://app?vid=69b330ae-1dc4-4893-985f-b03e6f6b07e8"},"vehicle_type_id":"4","last_reported":1728162427,"current_range_meters":22800,"station_id":"ce4bgl92rcd13ifvqbq0","pricing_plan_id":"cebpf4jnsgd1na2vs0mg"},{"bike_id":"40e38b6a-2bd7-4c7d-a0d0-e49ed511d27f","system_id":"levelo_inurba_marseille","lat":43.31495,"lon":5.37315,"is_reserved":false,"is_disabled":false,"rental_uris":{"android":"levelo://app?vid=40e38b6a-2bd7-4c7d-a0d0-e49ed511d27f","ios":"levelo://app?vid=40e38b6a-2bd7-4c7d-a0d0-e49ed511d27f"},"vehicle_type_id":"4","last_reported":1728162427,"current_range_meters":23200,"station_id":"ce4bgt12rcd13ifvqcd0","pricing_plan_id":"cebpf4jnsgd1na2vs0mg"},{"bike_id":"a24313a9-d696-47d6-9d0b-13e5f7b5f217","system_id":"levelo_inurba_marseille","lat":43.29538,"lon":5.3855,"is_reserved":false,"is_disabled":false,"rental_uris":{"android":"levelo://app?vid=a24313a9-d696-47d6-9d0b-13e5f7b5f217","ios":"levelo://app?vid=a24313a9-d696-47d6-9d0b-13e5f7b5f217"},"vehicle_type_id":"4","last_reported":1728162427,"current_range_meters":36400,"station_id":"ce4bgih2rcd13ifvqba0","pricing_plan_id":"cebpf4jnsgd1na2vs0mg"},{"bike_id":"66db2cca-c213-46a0-ae64-d4f50d79c48a","system_id":"levelo_inurba_marseille","lat":43.29035,"lon":5.39963,"is_reserved":false,"is_disabled":false,"rental_uris":{"android":"levelo://app?vid=66db2cca-c213-46a0-ae64-d4f50d79c48a","ios":"levelo://app?vid=66db2cca-c213-46a0-ae64-d4f50d79c48a"},"vehicle_type_id":"4","last_reported":1728162427,"current_range_meters":22400,"station_id":"ce4bh392rcd13ifvqdm0","pricing_plan_id":"cebpf4jnsgd1na2vs0mg"},{"bike_id":"be80d8a2-d07f-4e97-a19e-421069027a70","system_id":"levelo_inurba_marseille","lat":43.24543,"lon":5.39522,"is_reserved":false,"is_disabled":false,"rental_uris":{"android":"levelo://app?vid=be80d8a2-d07f-4e97-a19e-421069027a70","ios":"levelo://app?vid=be80d8a2-d07f-4e97-a19e-421069027a70"},"vehicle_type_id":"4","last_reported":1728162427,"current_range_meters":38800,"station_id":"ce4bhlp2rcd13ifvqgjg","pricing_plan_id":"cebpf4jnsgd1na2vs0mg"},{"bike_id":"491813ec-5bcd-4eda-acb2-c01ccb4e9894","system_id":"levelo_inurba_marseille","lat":43.33776,"lon":5.37428,"is_reserved":false,"is_disabled":false,"rental_uris":{"android":"levelo://app?vid=491813ec-5bcd-4eda-acb2-c01ccb4e9894","ios":"levelo://app?vid=491813ec-5bcd-4eda-acb2-c01ccb4e9894"},"vehicle_type_id":"4","last_reported":1728162427,"current_range_meters":33600,"station_id":"","pricing_plan_id":"cebpf4jnsgd1na2vs0mg"},{"bike_id":"12d29c90-3eda-4490-b3b4-4a5920083b11","system_id":"levelo_inurba_marseille","lat":43.2894,"lon":5.39634,"is_reserved":false,"is_disabled":false,"rental_uris":{"android":"levelo://app?vid=12d29c90-3eda-4490-b3b4-4a5920083b11","ios":"levelo://app?vid=12d29c90-3eda-4490-b3b4-4a5920083b11"},"vehicle_type_id":"4","last_reported":1728162427,"current_range_meters":1600,"station_id":"ce4bh3h2rcd13ifvqdn0","pricing_plan_id":"cebpf4jnsgd1na2vs0mg"},{"bike_id":"3e73745e-f9be-4060-862f-b92f1ee6a9ab","system_id":"levelo_inurba_marseille","lat":43.31367,"lon":5.38499,"is_reserved":false,"is_disabled":false,"rental_uris":{"android":"levelo://app?vid=3e73745e-f9be-4060-862f-b92f1ee6a9ab","ios":"levelo://app?vid=3e73745e-f9be-4060-862f-b92f1ee6a9ab"},"vehicle_type_id":"4","last_reported":1728162427,"current_range_meters":30000,"station_id":"ce4bgt92rcd13ifvqcf0","pricing_plan_id":"cebpf4jnsgd1na2vs0mg"},{"bike_id":"87be7a17-4302-4965-8336-821c2174ed32","system_id":"levelo_inurba_marseille","lat":43.25118,"lon":5.40316,"is_reserved":false,"is_disabled":false,"rental_uris":{"android":"levelo://app?vid=87be7a17-4302-4965-8336-821c2174ed32","ios":"levelo://app?vid=87be7a17-4302-4965-8336-821c2174ed32"},"vehicle_type_id":"4","last_reported":1728162427,"current_range_meters":38800,"station_id":"ce4bhlh2rcd13ifvqgig","pricing_plan_id":"cebpf4jnsgd1na2vs0mg"},{"bike_id":"c56a7f6d-1c51-4af0-848a-53ce2371dbf4","system_id":"levelo_inurba_marseille","lat":43.31723,"lon":5.42406,"is_reserved":false,"is_disabled":false,"rental_uris":{"android":"levelo://app?vid=c56a7f6d-1c51-4af0-848a-53ce2371dbf4","ios":"levelo://app?vid=c56a7f6d-1c51-4af0-848a-53ce2371dbf4"},"vehicle_type_id":"4","last_reported":1728162427,"current_range_meters":19600,"station_id":"ce4bhp92rcd13ifvqhbg","pricing_plan_id":"cebpf4jnsgd1na2vs0mg"},{"bike_id":"baba7691-81ff-4c7d-90d9-c89eba9696cb","system_id":"levelo_inurba_marseille","lat":43.25929,"lon":5.40912,"is_reserved":false,"is_disabled":false,"rental_uris":{"android":"levelo://app?vid=baba7691-81ff-4c7d-90d9-c89eba9696cb","ios":"levelo://app?vid=baba7691-81ff-4c7d-90d9-c89eba9696cb"},"vehicle_type_id":"4","last_reported":1728162427,"current_range_meters":35600,"station_id":"ce4bhm92rcd13ifvqglg","pricing_plan_id":"cebpf4jnsgd1na2vs0mg"},{"bike_id":"6427f48f-0f7d-442d-b2b0-c25d5d7e382f","system_id":"levelo_inurba_marseille","lat":43.29534,"lon":5.38553,"is_reserved":false,"is_disabled":false,"rental_uris":{"android":"levelo://app?vid=6427f48f-0f7d-442d-b2b0-c25d5d7e382f","ios":"levelo://app?vid=6427f48f-0f7d-442d-b2b0-c25d5d7e382f"},"vehicle_type_id":"4","last_reported":1728162427,"current_range_meters":38400,"station_id":"ce4bgih2rcd13ifvqba0","pricing_plan_id":"cebpf4jnsgd1na2vs0mg"},{"bike_id":"adece041-c588-4e40-8c29-85d4912aed9d","system_id":"levelo_inurba_marseille","lat":43.27071,"lon":5.42282,"is_reserved":false,"is_disabled":false,"rental_uris":{"android":"levelo://app?vid=adece041-c588-4e40-8c29-85d4912aed9d","ios":"levelo://app?vid=adece041-c588-4e40-8c29-85d4912aed9d"},"vehicle_type_id":"4","last_reported":1728162427,"current_range_meters":38000,"station_id":"ce4bhk92rcd13ifvqgb0","pricing_plan_id":"cebpf4jnsgd1na2vs0mg"},{"bike_id":"be1fc320-dd97-4954-ac7c-7de9b96a03e0","system_id":"levelo_inurba_marseille","lat":43.29555,"lon":5.42296,"is_reserved":false,"is_disabled":false,"rental_uris":{"android":"levelo://app?vid=be1fc320-dd97-4954-ac7c-7de9b96a03e0","ios":"levelo://app?vid=be1fc320-dd97-4954-ac7c-7de9b96a03e0"},"vehicle_type_id":"4","last_reported":1728162427,"current_range_meters":14800,"station_id":"ce4bhph2rcd13ifvqhdg","pricing_plan_id":"cebpf4jnsgd1na2vs0mg"},{"bike_id":"5cdb568d-e06d-4868-a035-8a83bc4fda55","system_id":"levelo_inurba_marseille","lat":43.27461,"lon":5.40896,"is_reserved":false,"is_disabled":false,"rental_uris":{"android":"levelo://app?vid=5cdb568d-e06d-4868-a035-8a83bc4fda55","ios":"levelo://app?vid=5cdb568d-e06d-4868-a035-8a83bc4fda55"},"vehicle_type_id":"4","last_reported":1728162427,"current_range_meters":37600,"station_id":"","pricing_plan_id":"cebpf4jnsgd1na2vs0mg"},{"bike_id":"2eecc969-58aa-4895-aa6e-67a0a5e1437f","system_id":"levelo_inurba_marseille","lat":43.2926,"lon":5.38449,"is_reserved":false,"is_disabled":false,"rental_uris":{"android":"levelo://app?vid=2eecc969-58aa-4895-aa6e-67a0a5e1437f","ios":"levelo://app?vid=2eecc969-58aa-4895-aa6e-67a0a5e1437f"},"vehicle_type_id":"4","last_reported":1728162427,"current_range_meters":26800,"station_id":"ce4bh692rcd13ifvqea0","pricing_plan_id":"cebpf4jnsgd1na2vs0mg"},{"bike_id":"d23ddbe4-840b-4d6d-8e13-a20922334a77","system_id":"levelo_inurba_marseille","lat":43.32478,"lon":5.36565,"is_reserved":false,"is_disabled":false,"rental_uris":{"android":"levelo://app?vid=d23ddbe4-840b-4d6d-8e13-a20922334a77","ios":"levelo://app?vid=d23ddbe4-840b-4d6d-8e13-a20922334a77"},"vehicle_type_id":"4","last_reported":1728162427,"current_range_meters":30800,"station_id":"ce4bhs12rcd13ifvqhvg","pricing_plan_id":"cebpf4jnsgd1na2vs0mg"},{"bike_id":"0e3cf241-7527-4f7c-ae18-430d3dc049bd","system_id":"levelo_inurba_marseille","lat":43.31343,"lon":5.3672,"is_reserved":false,"is_disabled":false,"rental_uris":{"android":"levelo://app?vid=0e3cf241-7527-4f7c-ae18-430d3dc049bd","ios":"levelo://app?vid=0e3cf241-7527-4f7c-ae18-430d3dc049bd"},"vehicle_type_id":"4","last_reported":1728162427,"current_range_meters":38800,"station_id":"ce4bgr92rcd13ifvqc6g","pricing_plan_id":"cebpf4jnsgd1na2vs0mg"},{"bike_id":"4af55307-045f-4c66-a045-a91d88bb4c16","system_id":"levelo_inurba_marseille","lat":43.33767,"lon":5.37429,"is_reserved":false,"is_disabled":false,"rental_uris":{"android":"levelo://app?vid=4af55307-045f-4c66-a045-a91d88bb4c16","ios":"levelo://app?vid=4af55307-045f-4c66-a045-a91d88bb4c16"},"vehicle_type_id":"4","last_reported":1728162427,"current_range_meters":34800,"station_id":"","pricing_plan_id":"cebpf4jnsgd1na2vs0mg"},{"bike_id":"90a09094-6396-4924-a91b-071b4893d12c","system_id":"levelo_inurba_marseille","lat":43.30304,"lon":5.36902,"is_reserved":false,"is_disabled":false,"rental_uris":{"android":"levelo://app?vid=90a09094-6396-4924-a91b-071b4893d12c","ios":"levelo://app?vid=90a09094-6396-4924-a91b-071b4893d12c"},"vehicle_type_id":"4","last_reported":1728162427,"current_range_meters":38800,"station_id":"ce4bgqh2rcd13ifvqc5g","pricing_plan_id":"cebpf4jnsgd1na2vs0mg"},{"bike_id":"67f54536-42f1-4c4f-9ebe-5c62b3e5335e","system_id":"levelo_inurba_marseille","lat":43.29205,"lon":5.39324,"is_reserved":false,"is_disabled":false,"rental_uris":{"android":"levelo://app?vid=67f54536-42f1-4c4f-9ebe-5c62b3e5335e","ios":"levelo://app?vid=67f54536-42f1-4c4f-9ebe-5c62b3e5335e"},"vehicle_type_id":"4","last_reported":1728162427,"current_range_meters":18000,"station_id":"ce4bh192rcd13ifvqdd0","pricing_plan_id":"cebpf4jnsgd1na2vs0mg"},{"bike_id":"068f5cf8-0245-4579-be7c-07da2b81e056","system_id":"levelo_inurba_marseille","lat":43.31239,"lon":5.36858,"is_reserved":false,"is_disabled":false,"rental_uris":{"android":"levelo://app?vid=068f5cf8-0245-4579-be7c-07da2b81e056","ios":"levelo://app?vid=068f5cf8-0245-4579-be7c-07da2b81e056"},"vehicle_type_id":"4","last_reported":1728162427,"current_range_meters":38800,"station_id":"ce4bgl92rcd13ifvqbq0","pricing_plan_id":"cebpf4jnsgd1na2vs0mg"},{"bike_id":"13a35d1a-1c21-4cdd-9282-17040c700716","system_id":"levelo_inurba_marseille","lat":43.32558,"lon":5.4144,"is_reserved":false,"is_disabled":false,"rental_uris":{"android":"levelo://app?vid=13a35d1a-1c21-4cdd-9282-17040c700716","ios":"levelo://app?vid=13a35d1a-1c21-4cdd-9282-17040c700716"},"vehicle_type_id":"4","last_reported":1728162427,"current_range_meters":37600,"station_id":"ce4bhq12rcd13ifvqhhg","pricing_plan_id":"cebpf4jnsgd1na2vs0mg"},{"bike_id":"c6975053-f013-4898-a343-cefaa1311a0d","system_id":"levelo_inurba_marseille","lat":43.31349,"lon":5.36708,"is_reserved":false,"is_disabled":false,"rental_uris":{"android":"levelo://app?vid=c6975053-f013-4898-a343-cefaa1311a0d","ios":"levelo://app?vid=c6975053-f013-4898-a343-cefaa1311a0d"},"vehicle_type_id":"4","last_reported":1728162427,"current_range_meters":24800,"station_id":"ce4bgr92rcd13ifvqc6g","pricing_plan_id":"cebpf4jnsgd1na2vs0mg"},{"bike_id":"544c5222-5e5f-424c-97d9-902e66ffec96","system_id":"levelo_inurba_marseille","lat":43.311053,"lon":5.377598,"is_reserved":false,"is_disabled":false,"rental_uris":{"android":"levelo://app?vid=544c5222-5e5f-424c-97d9-902e66ffec96","ios":"levelo://app?vid=544c5222-5e5f-424c-97d9-902e66ffec96"},"vehicle_type_id":"4","last_reported":1728162427,"current_range_meters":38800,"station_id":"ce4bgt92rcd13ifvqcg0","pricing_plan_id":"cebpf4jnsgd1na2vs0mg"},{"bike_id":"ec6e251e-99d1-4ac4-a075-545dbd029bdc","system_id":"levelo_inurba_marseille","lat":43.28894,"lon":5.36213,"is_reserved":false,"is_disabled":false,"rental_uris":{"android":"levelo://app?vid=ec6e251e-99d1-4ac4-a075-545dbd029bdc","ios":"levelo://app?vid=ec6e251e-99d1-4ac4-a075-545dbd029bdc"},"vehicle_type_id":"4","last_reported":1728162427,"current_range_meters":32400,"station_id":"","pricing_plan_id":"cebpf4jnsgd1na2vs0mg"},{"bike_id":"32de8690-8902-45d9-9261-1a5a54055b39","system_id":"levelo_inurba_marseille","lat":43.33028,"lon":5.39039,"is_reserved":false,"is_disabled":false,"rental_uris":{"android":"levelo://app?vid=32de8690-8902-45d9-9261-1a5a54055b39","ios":"levelo://app?vid=32de8690-8902-45d9-9261-1a5a54055b39"},"vehicle_type_id":"4","last_reported":1728162427,"current_range_meters":4400,"station_id":"ce4bhr92rcd13ifvqhrg","pricing_plan_id":"cebpf4jnsgd1na2vs0mg"},{"bike_id":"7d3f5ac7-3994-427e-95e6-8c663c0f360b","system_id":"levelo_inurba_marseille","lat":43.27207,"lon":5.39185,"is_reserved":false,"is_disabled":false,"rental_uris":{"android":"levelo://app?vid=7d3f5ac7-3994-427e-95e6-8c663c0f360b","ios":"levelo://app?vid=7d3f5ac7-3994-427e-95e6-8c663c0f360b"},"vehicle_type_id":"4","last_reported":1728162427,"current_range_meters":38800,"station_id":"ce4bhhp2rcd13ifvqfm0","pricing_plan_id":"cebpf4jnsgd1na2vs0mg"},{"bike_id":"f41af709-4741-45bf-a75a-e5e2fdef89e3","system_id":"levelo_inurba_marseille","lat":43.2872,"lon":5.360877,"is_reserved":false,"is_disabled":false,"rental_uris":{"android":"levelo://app?vid=f41af709-4741-45bf-a75a-e5e2fdef89e3","ios":"levelo://app?vid=f41af709-4741-45bf-a75a-e5e2fdef89e3"},"vehicle_type_id":"4","last_reported":1728162427,"current_range_meters":38800,"station_id":"cki0cbj6b192h4jlfktg","pricing_plan_id":"cebpf4jnsgd1na2vs0mg"},{"bike_id":"e02a32f4-7ccf-4757-a318-fbbbca006162","system_id":"levelo_inurba_marseille","lat":43.29846,"lon":5.36273,"is_reserved":false,"is_disabled":false,"rental_uris":{"android":"levelo://app?vid=e02a32f4-7ccf-4757-a318-fbbbca006162","ios":"levelo://app?vid=e02a32f4-7ccf-4757-a318-fbbbca006162"},"vehicle_type_id":"4","last_reported":1728162427,"current_range_meters":18000,"station_id":"ce4bgpp2rcd13ifvqc3g","pricing_plan_id":"cebpf4jnsgd1na2vs0mg"},{"bike_id":"15bf1254-2bb2-439b-ba1e-8166e797eacb","system_id":"levelo_inurba_marseille","lat":43.30594,"lon":5.37241,"is_reserved":false,"is_disabled":false,"rental_uris":{"android":"levelo://app?vid=15bf1254-2bb2-439b-ba1e-8166e797eacb","ios":"levelo://app?vid=15bf1254-2bb2-439b-ba1e-8166e797eacb"},"vehicle_type_id":"4","last_reported":1728162427,"current_range_meters":2000,"station_id":"ce4bgkh2rcd13ifvqbk0","pricing_plan_id":"cebpf4jnsgd1na2vs0mg"},{"bike_id":"6523aff1-cbeb-4846-9c84-ae894f2096ad","system_id":"levelo_inurba_marseille","lat":43.30534,"lon":5.36706,"is_reserved":false,"is_disabled":false,"rental_uris":{"android":"levelo://app?vid=6523aff1-cbeb-4846-9c84-ae894f2096ad","ios":"levelo://app?vid=6523aff1-cbeb-4846-9c84-ae894f2096ad"},"vehicle_type_id":"4","last_reported":1728162427,"current_range_meters":14400,"station_id":"ce4bgrp2rcd13ifvqc9g","pricing_plan_id":"cebpf4jnsgd1na2vs0mg"},{"bike_id":"8c6a0be2-0152-483a-86d2-d05da606d921","system_id":"levelo_inurba_marseille","lat":43.303131,"lon":5.391977,"is_reserved":false,"is_disabled":false,"rental_uris":{"android":"levelo://app?vid=8c6a0be2-0152-483a-86d2-d05da606d921","ios":"levelo://app?vid=8c6a0be2-0152-483a-86d2-d05da606d921"},"vehicle_type_id":"4","last_reported":1728162427,"current_range_meters":6000,"station_id":"ce4bgkh2rcd13ifvqbk0","pricing_plan_id":"cebpf4jnsgd1na2vs0mg"},{"bike_id":"69ddd7db-718a-454d-b5ba-e08f2ff3fb06","system_id":"levelo_inurba_marseille","lat":43.3189,"lon":5.40735,"is_reserved":false,"is_disabled":false,"rental_uris":{"android":"levelo://app?vid=69ddd7db-718a-454d-b5ba-e08f2ff3fb06","ios":"levelo://app?vid=69ddd7db-718a-454d-b5ba-e08f2ff3fb06"},"vehicle_type_id":"4","last_reported":1728162427,"current_range_meters":28800,"station_id":"ce4bhq12rcd13ifvqhig","pricing_plan_id":"cebpf4jnsgd1na2vs0mg"},{"bike_id":"c5eceda9-4c11-4f19-8da2-b68f55801b52","system_id":"levelo_inurba_marseille","lat":43.26943,"lon":5.40245,"is_reserved":false,"is_disabled":false,"rental_uris":{"android":"levelo://app?vid=c5eceda9-4c11-4f19-8da2-b68f55801b52","ios":"levelo://app?vid=c5eceda9-4c11-4f19-8da2-b68f55801b52"},"vehicle_type_id":"4","last_reported":1728162427,"current_range_meters":11200,"station_id":"cjm6bp8fraef2m0cb0m0","pricing_plan_id":"cebpf4jnsgd1na2vs0mg"},{"bike_id":"7bdb7c2b-f8c2-4053-a533-394af5695c37","system_id":"levelo_inurba_marseille","lat":43.29267,"lon":5.36696,"is_reserved":false,"is_disabled":false,"rental_uris":{"android":"levelo://app?vid=7bdb7c2b-f8c2-4053-a533-394af5695c37","ios":"levelo://app?vid=7bdb7c2b-f8c2-4053-a533-394af5695c37"},"vehicle_type_id":"4","last_reported":1728162427,"current_range_meters":19200,"station_id":"","pricing_plan_id":"cebpf4jnsgd1na2vs0mg"},{"bike_id":"f495d872-4d89-400d-b3a8-14cdea358d2d","system_id":"levelo_inurba_marseille","lat":43.31068,"lon":5.38353,"is_reserved":false,"is_disabled":false,"rental_uris":{"android":"levelo://app?vid=f495d872-4d89-400d-b3a8-14cdea358d2d","ios":"levelo://app?vid=f495d872-4d89-400d-b3a8-14cdea358d2d"},"vehicle_type_id":"4","last_reported":1728162427,"current_range_meters":7200,"station_id":"ce4bgv92rcd13ifvqcr0","pricing_plan_id":"cebpf4jnsgd1na2vs0mg"},{"bike_id":"2223b6cf-60c6-41bf-b1cd-7d09873a1aa5","system_id":"levelo_inurba_marseille","lat":43.26059,"lon":5.39395,"is_reserved":false,"is_disabled":false,"rental_uris":{"android":"levelo://app?vid=2223b6cf-60c6-41bf-b1cd-7d09873a1aa5","ios":"levelo://app?vid=2223b6cf-60c6-41bf-b1cd-7d09873a1aa5"},"vehicle_type_id":"4","last_reported":1728162427,"current_range_meters":38800,"station_id":"ce4bhh92rcd13ifvqfj0","pricing_plan_id":"cebpf4jnsgd1na2vs0mg"},{"bike_id":"4f4e9e0c-e903-4be6-82e9-f28e71a7523f","system_id":"levelo_inurba_marseille","lat":43.30316,"lon":5.36899,"is_reserved":false,"is_disabled":false,"rental_uris":{"android":"levelo://app?vid=4f4e9e0c-e903-4be6-82e9-f28e71a7523f","ios":"levelo://app?vid=4f4e9e0c-e903-4be6-82e9-f28e71a7523f"},"vehicle_type_id":"4","last_reported":1728162427,"current_range_meters":6800,"station_id":"ce4bgqh2rcd13ifvqc5g","pricing_plan_id":"cebpf4jnsgd1na2vs0mg"},{"bike_id":"57ffa585-11f6-4ab5-8b24-fd17944ddaf3","system_id":"levelo_inurba_marseille","lat":43.28608,"lon":5.3705,"is_reserved":false,"is_disabled":false,"rental_uris":{"android":"levelo://app?vid=57ffa585-11f6-4ab5-8b24-fd17944ddaf3","ios":"levelo://app?vid=57ffa585-11f6-4ab5-8b24-fd17944ddaf3"},"vehicle_type_id":"4","last_reported":1728162427,"current_range_meters":6800,"station_id":"ce4bht12rcd13ifvqi60","pricing_plan_id":"cebpf4jnsgd1na2vs0mg"},{"bike_id":"c8bd1f1a-18a3-4a8b-a733-d2264af926d1","system_id":"levelo_inurba_marseille","lat":43.27171,"lon":5.40995,"is_reserved":false,"is_disabled":false,"rental_uris":{"android":"levelo://app?vid=c8bd1f1a-18a3-4a8b-a733-d2264af926d1","ios":"levelo://app?vid=c8bd1f1a-18a3-4a8b-a733-d2264af926d1"},"vehicle_type_id":"4","last_reported":1728162427,"current_range_meters":31200,"station_id":"ce4bhl12rcd13ifvqgf0","pricing_plan_id":"cebpf4jnsgd1na2vs0mg"},{"bike_id":"0f31b650-5d8a-4ce3-8b7b-f58a043d62c2","system_id":"levelo_inurba_marseille","lat":43.28434,"lon":5.39175,"is_reserved":false,"is_disabled":false,"rental_uris":{"android":"levelo://app?vid=0f31b650-5d8a-4ce3-8b7b-f58a043d62c2","ios":"levelo://app?vid=0f31b650-5d8a-4ce3-8b7b-f58a043d62c2"},"vehicle_type_id":"4","last_reported":1728162427,"current_range_meters":17600,"station_id":"ce4bhoh2rcd13ifvqh5g","pricing_plan_id":"cebpf4jnsgd1na2vs0mg"},{"bike_id":"682c8c83-ca16-4ef7-9e5a-cfc439b078e7","system_id":"levelo_inurba_marseille","lat":43.29253,"lon":5.38447,"is_reserved":false,"is_disabled":false,"rental_uris":{"android":"levelo://app?vid=682c8c83-ca16-4ef7-9e5a-cfc439b078e7","ios":"levelo://app?vid=682c8c83-ca16-4ef7-9e5a-cfc439b078e7"},"vehicle_type_id":"4","last_reported":1728162427,"current_range_meters":30800,"station_id":"ce4bh692rcd13ifvqea0","pricing_plan_id":"cebpf4jnsgd1na2vs0mg"},{"bike_id":"9ca4ad83-eaa6-4426-baca-3a3e8322b7ea","system_id":"levelo_inurba_marseille","lat":43.279175,"lon":5.382991,"is_reserved":false,"is_disabled":false,"rental_uris":{"android":"levelo://app?vid=9ca4ad83-eaa6-4426-baca-3a3e8322b7ea","ios":"levelo://app?vid=9ca4ad83-eaa6-4426-baca-3a3e8322b7ea"},"vehicle_type_id":"4","last_reported":1728162427,"current_range_meters":38800,"station_id":"ce4bhf92rcd13ifvqf50","pricing_plan_id":"cebpf4jnsgd1na2vs0mg"},{"bike_id":"65c59103-0b30-4b4d-8ddd-ed1931c22228","system_id":"levelo_inurba_marseille","lat":43.30352,"lon":5.41874,"is_reserved":false,"is_disabled":false,"rental_uris":{"android":"levelo://app?vid=65c59103-0b30-4b4d-8ddd-ed1931c22228","ios":"levelo://app?vid=65c59103-0b30-4b4d-8ddd-ed1931c22228"},"vehicle_type_id":"4","last_reported":1728162427,"current_range_meters":24800,"station_id":"ce4bhop2rcd13ifvqh7g","pricing_plan_id":"cebpf4jnsgd1na2vs0mg"},{"bike_id":"4c2a78ff-5e19-4415-b598-12a605b00155","system_id":"levelo_inurba_marseille","lat":43.31076,"lon":5.38364,"is_reserved":false,"is_disabled":false,"rental_uris":{"android":"levelo://app?vid=4c2a78ff-5e19-4415-b598-12a605b00155","ios":"levelo://app?vid=4c2a78ff-5e19-4415-b598-12a605b00155"},"vehicle_type_id":"4","last_reported":1728162427,"current_range_meters":25200,"station_id":"ce4bgv92rcd13ifvqcr0","pricing_plan_id":"cebpf4jnsgd1na2vs0mg"},{"bike_id":"47621e2f-ba5b-4443-b46a-45b64d00053b","system_id":"levelo_inurba_marseille","lat":43.297913,"lon":5.393473,"is_reserved":false,"is_disabled":false,"rental_uris":{"android":"levelo://app?vid=47621e2f-ba5b-4443-b46a-45b64d00053b","ios":"levelo://app?vid=47621e2f-ba5b-4443-b46a-45b64d00053b"},"vehicle_type_id":"4","last_reported":1728162427,"current_range_meters":23200,"station_id":"chh1huq6cuj3fo74tm60","pricing_plan_id":"cebpf4jnsgd1na2vs0mg"},{"bike_id":"4058e864-6ec7-402d-97d3-b76727077c49","system_id":"levelo_inurba_marseille","lat":43.298819,"lon":5.389045,"is_reserved":false,"is_disabled":false,"rental_uris":{"android":"levelo://app?vid=4058e864-6ec7-402d-97d3-b76727077c49","ios":"levelo://app?vid=4058e864-6ec7-402d-97d3-b76727077c49"},"vehicle_type_id":"4","last_reported":1728162427,"current_range_meters":12000,"station_id":"ce4bh392rcd13ifvqdl0","pricing_plan_id":"cebpf4jnsgd1na2vs0mg"},{"bike_id":"f1a31902-bf1f-4725-91b5-b9d9818e5407","system_id":"levelo_inurba_marseille","lat":43.29553,"lon":5.4228,"is_reserved":false,"is_disabled":false,"rental_uris":{"android":"levelo://app?vid=f1a31902-bf1f-4725-91b5-b9d9818e5407","ios":"levelo://app?vid=f1a31902-bf1f-4725-91b5-b9d9818e5407"},"vehicle_type_id":"4","last_reported":1728162427,"current_range_meters":32800,"station_id":"ce4bhph2rcd13ifvqhdg","pricing_plan_id":"cebpf4jnsgd1na2vs0mg"},{"bike_id":"c6c31bbd-5646-4d3a-a979-b8a900bc1b88","system_id":"levelo_inurba_marseille","lat":43.279266,"lon":5.410409,"is_reserved":false,"is_disabled":false,"rental_uris":{"android":"levelo://app?vid=c6c31bbd-5646-4d3a-a979-b8a900bc1b88","ios":"levelo://app?vid=c6c31bbd-5646-4d3a-a979-b8a900bc1b88"},"vehicle_type_id":"4","last_reported":1728162427,"current_range_meters":32400,"station_id":"ce4bhnp2rcd13ifvqh0g","pricing_plan_id":"cebpf4jnsgd1na2vs0mg"},{"bike_id":"6e682aff-ab24-4760-885d-e8647a0901f1","system_id":"levelo_inurba_marseille","lat":43.31086,"lon":5.42432,"is_reserved":false,"is_disabled":false,"rental_uris":{"android":"levelo://app?vid=6e682aff-ab24-4760-885d-e8647a0901f1","ios":"levelo://app?vid=6e682aff-ab24-4760-885d-e8647a0901f1"},"vehicle_type_id":"4","last_reported":1728162427,"current_range_meters":23200,"station_id":"ce4bhp92rcd13ifvqhag","pricing_plan_id":"cebpf4jnsgd1na2vs0mg"},{"bike_id":"6c322f07-a888-438c-9551-0fd0b089a768","system_id":"levelo_inurba_marseille","lat":43.30089,"lon":5.39086,"is_reserved":false,"is_disabled":false,"rental_uris":{"android":"levelo://app?vid=6c322f07-a888-438c-9551-0fd0b089a768","ios":"levelo://app?vid=6c322f07-a888-438c-9551-0fd0b089a768"},"vehicle_type_id":"4","last_reported":1728162427,"current_range_meters":18800,"station_id":"ce4bh192rcd13ifvqdb0","pricing_plan_id":"cebpf4jnsgd1na2vs0mg"},{"bike_id":"d4f00691-ae28-48f0-bc51-220a8c95b298","system_id":"levelo_inurba_marseille","lat":43.29606,"lon":5.38106,"is_reserved":false,"is_disabled":false,"rental_uris":{"android":"levelo://app?vid=d4f00691-ae28-48f0-bc51-220a8c95b298","ios":"levelo://app?vid=d4f00691-ae28-48f0-bc51-220a8c95b298"},"vehicle_type_id":"4","last_reported":1728162427,"current_range_meters":28800,"station_id":"ce4bgl12rcd13ifvqbo0","pricing_plan_id":"cebpf4jnsgd1na2vs0mg"},{"bike_id":"e43c15e0-f95d-4641-8582-bca4567b7538","system_id":"levelo_inurba_marseille","lat":43.29255,"lon":5.38452,"is_reserved":false,"is_disabled":false,"rental_uris":{"android":"levelo://app?vid=e43c15e0-f95d-4641-8582-bca4567b7538","ios":"levelo://app?vid=e43c15e0-f95d-4641-8582-bca4567b7538"},"vehicle_type_id":"4","last_reported":1728162427,"current_range_meters":32000,"station_id":"ce4bh692rcd13ifvqea0","pricing_plan_id":"cebpf4jnsgd1na2vs0mg"},{"bike_id":"490889b1-cee9-4892-9db5-299333956c90","system_id":"levelo_inurba_marseille","lat":43.34141,"lon":5.40912,"is_reserved":false,"is_disabled":false,"rental_uris":{"android":"levelo://app?vid=490889b1-cee9-4892-9db5-299333956c90","ios":"levelo://app?vid=490889b1-cee9-4892-9db5-299333956c90"},"vehicle_type_id":"4","last_reported":1728162427,"current_range_meters":38000,"station_id":"ce4bhqh2rcd13ifvqhlg","pricing_plan_id":"cebpf4jnsgd1na2vs0mg"},{"bike_id":"66fedc60-fd06-4d58-b678-6017e9448cb2","system_id":"levelo_inurba_marseille","lat":43.29382,"lon":5.37849,"is_reserved":false,"is_disabled":false,"rental_uris":{"android":"levelo://app?vid=66fedc60-fd06-4d58-b678-6017e9448cb2","ios":"levelo://app?vid=66fedc60-fd06-4d58-b678-6017e9448cb2"},"vehicle_type_id":"4","last_reported":1728162427,"current_range_meters":38800,"station_id":"ce4bgjh2rcd13ifvqbf0","pricing_plan_id":"cebpf4jnsgd1na2vs0mg"},{"bike_id":"0aaa5910-75ac-47ee-bd8a-1006e609a763","system_id":"levelo_inurba_marseille","lat":43.28931,"lon":5.36643,"is_reserved":false,"is_disabled":false,"rental_uris":{"android":"levelo://app?vid=0aaa5910-75ac-47ee-bd8a-1006e609a763","ios":"levelo://app?vid=0aaa5910-75ac-47ee-bd8a-1006e609a763"},"vehicle_type_id":"4","last_reported":1728162427,"current_range_meters":38800,"station_id":"ce4bhap2rcd13ifvqek0","pricing_plan_id":"cebpf4jnsgd1na2vs0mg"},{"bike_id":"60691382-7106-444d-8e5a-7dd811382b4e","system_id":"levelo_inurba_marseille","lat":43.29416,"lon":5.38631,"is_reserved":false,"is_disabled":false,"rental_uris":{"android":"levelo://app?vid=60691382-7106-444d-8e5a-7dd811382b4e","ios":"levelo://app?vid=60691382-7106-444d-8e5a-7dd811382b4e"},"vehicle_type_id":"4","last_reported":1728162427,"current_range_meters":38800,"station_id":"ce4bh2h2rcd13ifvqdh0","pricing_plan_id":"cebpf4jnsgd1na2vs0mg"},{"bike_id":"85ef83d9-fec6-405f-8a01-7a2d5ed9a2a1","system_id":"levelo_inurba_marseille","lat":43.29259,"lon":5.40901,"is_reserved":false,"is_disabled":false,"rental_uris":{"android":"levelo://app?vid=85ef83d9-fec6-405f-8a01-7a2d5ed9a2a1","ios":"levelo://app?vid=85ef83d9-fec6-405f-8a01-7a2d5ed9a2a1"},"vehicle_type_id":"4","last_reported":1728162427,"current_range_meters":28000,"station_id":"ce4bh192rcd13ifvqdc0","pricing_plan_id":"cebpf4jnsgd1na2vs0mg"},{"bike_id":"6b9a91ec-91de-48ab-ab57-2edc5d204765","system_id":"levelo_inurba_marseille","lat":43.27495,"lon":5.42458,"is_reserved":false,"is_disabled":false,"rental_uris":{"android":"levelo://app?vid=6b9a91ec-91de-48ab-ab57-2edc5d204765","ios":"levelo://app?vid=6b9a91ec-91de-48ab-ab57-2edc5d204765"},"vehicle_type_id":"4","last_reported":1728162427,"current_range_meters":3200,"station_id":"ce4bhn92rcd13ifvqgrg","pricing_plan_id":"cebpf4jnsgd1na2vs0mg"},{"bike_id":"624638fa-4c5e-4cb1-a268-3d18dfc8a970","system_id":"levelo_inurba_marseille","lat":43.2927,"lon":5.38438,"is_reserved":false,"is_disabled":false,"rental_uris":{"android":"levelo://app?vid=624638fa-4c5e-4cb1-a268-3d18dfc8a970","ios":"levelo://app?vid=624638fa-4c5e-4cb1-a268-3d18dfc8a970"},"vehicle_type_id":"4","last_reported":1728162427,"current_range_meters":18000,"station_id":"ce4bh692rcd13ifvqea0","pricing_plan_id":"cebpf4jnsgd1na2vs0mg"},{"bike_id":"256fa177-60ee-45a2-a2aa-de47baeac3b4","system_id":"levelo_inurba_marseille","lat":43.322237,"lon":5.413557,"is_reserved":false,"is_disabled":false,"rental_uris":{"android":"levelo://app?vid=256fa177-60ee-45a2-a2aa-de47baeac3b4","ios":"levelo://app?vid=256fa177-60ee-45a2-a2aa-de47baeac3b4"},"vehicle_type_id":"4","last_reported":1728162427,"current_range_meters":38800,"station_id":"","pricing_plan_id":"cebpf4jnsgd1na2vs0mg"},{"bike_id":"098fc1dd-3708-4cb4-9657-6fa37881924f","system_id":"levelo_inurba_marseille","lat":43.31488,"lon":5.37293,"is_reserved":false,"is_disabled":false,"rental_uris":{"android":"levelo://app?vid=098fc1dd-3708-4cb4-9657-6fa37881924f","ios":"levelo://app?vid=098fc1dd-3708-4cb4-9657-6fa37881924f"},"vehicle_type_id":"4","last_reported":1728162427,"current_range_meters":38800,"station_id":"ce4bgt12rcd13ifvqcd0","pricing_plan_id":"cebpf4jnsgd1na2vs0mg"},{"bike_id":"8da5e341-6cab-4468-9790-0734e5cf3e0b","system_id":"levelo_inurba_marseille","lat":43.24081,"lon":5.37741,"is_reserved":false,"is_disabled":false,"rental_uris":{"android":"levelo://app?vid=8da5e341-6cab-4468-9790-0734e5cf3e0b","ios":"levelo://app?vid=8da5e341-6cab-4468-9790-0734e5cf3e0b"},"vehicle_type_id":"4","last_reported":1728162427,"current_range_meters":38800,"station_id":"ce4bhnp2rcd13ifvqgvg","pricing_plan_id":"cebpf4jnsgd1na2vs0mg"},{"bike_id":"428f793c-4121-423c-8663-6edf254533e0","system_id":"levelo_inurba_marseille","lat":43.2757,"lon":5.38404,"is_reserved":false,"is_disabled":false,"rental_uris":{"android":"levelo://app?vid=428f793c-4121-423c-8663-6edf254533e0","ios":"levelo://app?vid=428f793c-4121-423c-8663-6edf254533e0"},"vehicle_type_id":"4","last_reported":1728162427,"current_range_meters":12800,"station_id":"ce4bhh92rcd13ifvqfi0","pricing_plan_id":"cebpf4jnsgd1na2vs0mg"},{"bike_id":"e2374ffd-c3d3-4c84-832c-de4b34154ac4","system_id":"levelo_inurba_marseille","lat":43.3089,"lon":5.37194,"is_reserved":false,"is_disabled":false,"rental_uris":{"android":"levelo://app?vid=e2374ffd-c3d3-4c84-832c-de4b34154ac4","ios":"levelo://app?vid=e2374ffd-c3d3-4c84-832c-de4b34154ac4"},"vehicle_type_id":"4","last_reported":1728162427,"current_range_meters":38800,"station_id":"ce4bguh2rcd13ifvqckg","pricing_plan_id":"cebpf4jnsgd1na2vs0mg"},{"bike_id":"8b84af80-d3a4-478e-b641-468e3cced42b","system_id":"levelo_inurba_marseille","lat":43.26945,"lon":5.40259,"is_reserved":false,"is_disabled":false,"rental_uris":{"android":"levelo://app?vid=8b84af80-d3a4-478e-b641-468e3cced42b","ios":"levelo://app?vid=8b84af80-d3a4-478e-b641-468e3cced42b"},"vehicle_type_id":"4","last_reported":1728162427,"current_range_meters":38800,"station_id":"cjm6bp8fraef2m0cb0m0","pricing_plan_id":"cebpf4jnsgd1na2vs0mg"},{"bike_id":"489d3596-b98a-4cf0-a057-455f16d5e96d","system_id":"levelo_inurba_marseille","lat":43.3133,"lon":5.39693,"is_reserved":false,"is_disabled":false,"rental_uris":{"android":"levelo://app?vid=489d3596-b98a-4cf0-a057-455f16d5e96d","ios":"levelo://app?vid=489d3596-b98a-4cf0-a057-455f16d5e96d"},"vehicle_type_id":"4","last_reported":1728162427,"current_range_meters":38800,"station_id":"ce4bgvp2rcd13ifvqcu0","pricing_plan_id":"cebpf4jnsgd1na2vs0mg"},{"bike_id":"15da5cfe-7522-491a-8d61-b67d336bca55","system_id":"levelo_inurba_marseille","lat":43.29362,"lon":5.37841,"is_reserved":false,"is_disabled":false,"rental_uris":{"android":"levelo://app?vid=15da5cfe-7522-491a-8d61-b67d336bca55","ios":"levelo://app?vid=15da5cfe-7522-491a-8d61-b67d336bca55"},"vehicle_type_id":"4","last_reported":1728162427,"current_range_meters":0,"station_id":"ce4bgjh2rcd13ifvqbf0","pricing_plan_id":"cebpf4jnsgd1na2vs0mg"},{"bike_id":"3266eba0-92d3-41f0-970c-318b5df2890b","system_id":"levelo_inurba_marseille","lat":43.28612,"lon":5.37064,"is_reserved":false,"is_disabled":false,"rental_uris":{"android":"levelo://app?vid=3266eba0-92d3-41f0-970c-318b5df2890b","ios":"levelo://app?vid=3266eba0-92d3-41f0-970c-318b5df2890b"},"vehicle_type_id":"4","last_reported":1728162427,"current_range_meters":8000,"station_id":"ce4bht12rcd13ifvqi60","pricing_plan_id":"cebpf4jnsgd1na2vs0mg"},{"bike_id":"704d9481-6ec3-47be-8efb-df494f367ab6","system_id":"levelo_inurba_marseille","lat":43.29551,"lon":5.42288,"is_reserved":false,"is_disabled":false,"rental_uris":{"android":"levelo://app?vid=704d9481-6ec3-47be-8efb-df494f367ab6","ios":"levelo://app?vid=704d9481-6ec3-47be-8efb-df494f367ab6"},"vehicle_type_id":"4","last_reported":1728162427,"current_range_meters":38800,"station_id":"ce4bhph2rcd13ifvqhdg","pricing_plan_id":"cebpf4jnsgd1na2vs0mg"},{"bike_id":"e0336ac3-d554-4c6c-a5fa-2a7486e8ac7d","system_id":"levelo_inurba_marseille","lat":43.29528,"lon":5.38541,"is_reserved":false,"is_disabled":false,"rental_uris":{"android":"levelo://app?vid=e0336ac3-d554-4c6c-a5fa-2a7486e8ac7d","ios":"levelo://app?vid=e0336ac3-d554-4c6c-a5fa-2a7486e8ac7d"},"vehicle_type_id":"4","last_reported":1728162427,"current_range_meters":14800,"station_id":"ce4bgih2rcd13ifvqba0","pricing_plan_id":"cebpf4jnsgd1na2vs0mg"},{"bike_id":"0415b336-f3d6-4a5c-abf5-c7b5ab3586d4","system_id":"levelo_inurba_marseille","lat":43.28268,"lon":5.35075,"is_reserved":false,"is_disabled":false,"rental_uris":{"android":"levelo://app?vid=0415b336-f3d6-4a5c-abf5-c7b5ab3586d4","ios":"levelo://app?vid=0415b336-f3d6-4a5c-abf5-c7b5ab3586d4"},"vehicle_type_id":"4","last_reported":1728162427,"current_range_meters":38800,"station_id":"ce4bhbp2rcd13ifvqerg","pricing_plan_id":"cebpf4jnsgd1na2vs0mg"},{"bike_id":"50664332-acea-42b1-93f9-00345c7cf3b8","system_id":"levelo_inurba_marseille","lat":43.31224,"lon":5.36842,"is_reserved":false,"is_disabled":false,"rental_uris":{"android":"levelo://app?vid=50664332-acea-42b1-93f9-00345c7cf3b8","ios":"levelo://app?vid=50664332-acea-42b1-93f9-00345c7cf3b8"},"vehicle_type_id":"4","last_reported":1728162427,"current_range_meters":38000,"station_id":"ce4bgl92rcd13ifvqbq0","pricing_plan_id":"cebpf4jnsgd1na2vs0mg"},{"bike_id":"ede69a45-2638-4c7f-bc66-89083bc792d6","system_id":"levelo_inurba_marseille","lat":43.26205,"lon":5.37933,"is_reserved":false,"is_disabled":false,"rental_uris":{"android":"levelo://app?vid=ede69a45-2638-4c7f-bc66-89083bc792d6","ios":"levelo://app?vid=ede69a45-2638-4c7f-bc66-89083bc792d6"},"vehicle_type_id":"4","last_reported":1728162427,"current_range_meters":22800,"station_id":"ce4bhjp2rcd13ifvqg90","pricing_plan_id":"cebpf4jnsgd1na2vs0mg"},{"bike_id":"fd3fac36-0f62-4b8f-9e9f-151f93b460e5","system_id":"levelo_inurba_marseille","lat":43.28269,"lon":5.35062,"is_reserved":false,"is_disabled":false,"rental_uris":{"android":"levelo://app?vid=fd3fac36-0f62-4b8f-9e9f-151f93b460e5","ios":"levelo://app?vid=fd3fac36-0f62-4b8f-9e9f-151f93b460e5"},"vehicle_type_id":"4","last_reported":1728162427,"current_range_meters":38800,"station_id":"ce4bhbp2rcd13ifvqerg","pricing_plan_id":"cebpf4jnsgd1na2vs0mg"},{"bike_id":"e7341701-5d04-4cdb-84d0-b90046595e3c","system_id":"levelo_inurba_marseille","lat":43.29262,"lon":5.40139,"is_reserved":false,"is_disabled":false,"rental_uris":{"android":"levelo://app?vid=e7341701-5d04-4cdb-84d0-b90046595e3c","ios":"levelo://app?vid=e7341701-5d04-4cdb-84d0-b90046595e3c"},"vehicle_type_id":"4","last_reported":1728162427,"current_range_meters":35200,"station_id":"ce4bh312rcd13ifvqdk0","pricing_plan_id":"cebpf4jnsgd1na2vs0mg"},{"bike_id":"bb5f5452-4b9b-417d-b148-b396a874f3d9","system_id":"levelo_inurba_marseille","lat":43.33784,"lon":5.37428,"is_reserved":false,"is_disabled":false,"rental_uris":{"android":"levelo://app?vid=bb5f5452-4b9b-417d-b148-b396a874f3d9","ios":"levelo://app?vid=bb5f5452-4b9b-417d-b148-b396a874f3d9"},"vehicle_type_id":"4","last_reported":1728162427,"current_range_meters":30000,"station_id":"","pricing_plan_id":"cebpf4jnsgd1na2vs0mg"},{"bike_id":"ab83fadf-d068-4c8e-b6a0-a2c4cd43bc9b","system_id":"levelo_inurba_marseille","lat":43.31994,"lon":5.38148,"is_reserved":false,"is_disabled":false,"rental_uris":{"android":"levelo://app?vid=ab83fadf-d068-4c8e-b6a0-a2c4cd43bc9b","ios":"levelo://app?vid=ab83fadf-d068-4c8e-b6a0-a2c4cd43bc9b"},"vehicle_type_id":"4","last_reported":1728162427,"current_range_meters":32000,"station_id":"ce4bhr12rcd13ifvqhpg","pricing_plan_id":"cebpf4jnsgd1na2vs0mg"},{"bike_id":"73a5307d-3e7d-4037-8357-25200e33a5e5","system_id":"levelo_inurba_marseille","lat":43.28414,"lon":5.37517,"is_reserved":false,"is_disabled":false,"rental_uris":{"android":"levelo://app?vid=73a5307d-3e7d-4037-8357-25200e33a5e5","ios":"levelo://app?vid=73a5307d-3e7d-4037-8357-25200e33a5e5"},"vehicle_type_id":"4","last_reported":1728162427,"current_range_meters":33200,"station_id":"ce4bh412rcd13ifvqds0","pricing_plan_id":"cebpf4jnsgd1na2vs0mg"},{"bike_id":"d5bd4fc9-b596-4a66-8faa-61c6a5dce860","system_id":"levelo_inurba_marseille","lat":43.29895,"lon":5.43667,"is_reserved":false,"is_disabled":false,"rental_uris":{"android":"levelo://app?vid=d5bd4fc9-b596-4a66-8faa-61c6a5dce860","ios":"levelo://app?vid=d5bd4fc9-b596-4a66-8faa-61c6a5dce860"},"vehicle_type_id":"4","last_reported":1728162427,"current_range_meters":26800,"station_id":"ce4bhpp2rcd13ifvqhfg","pricing_plan_id":"cebpf4jnsgd1na2vs0mg"},{"bike_id":"568e1eb8-b369-4854-b123-5f304c903766","system_id":"levelo_inurba_marseille","lat":43.30359,"lon":5.41882,"is_reserved":false,"is_disabled":false,"rental_uris":{"android":"levelo://app?vid=568e1eb8-b369-4854-b123-5f304c903766","ios":"levelo://app?vid=568e1eb8-b369-4854-b123-5f304c903766"},"vehicle_type_id":"4","last_reported":1728162427,"current_range_meters":24000,"station_id":"ce4bhop2rcd13ifvqh7g","pricing_plan_id":"cebpf4jnsgd1na2vs0mg"},{"bike_id":"e7d8955f-00b5-41ee-9fe6-b1b91ffc4e27","system_id":"levelo_inurba_marseille","lat":43.28926,"lon":5.38392,"is_reserved":false,"is_disabled":false,"rental_uris":{"android":"levelo://app?vid=e7d8955f-00b5-41ee-9fe6-b1b91ffc4e27","ios":"levelo://app?vid=e7d8955f-00b5-41ee-9fe6-b1b91ffc4e27"},"vehicle_type_id":"4","last_reported":1728162427,"current_range_meters":12400,"station_id":"ce4bh612rcd13ifvqe6g","pricing_plan_id":"cebpf4jnsgd1na2vs0mg"},{"bike_id":"3fcbd708-2b74-42ae-a074-adfc6842b05d","system_id":"levelo_inurba_marseille","lat":43.29255,"lon":5.38439,"is_reserved":false,"is_disabled":false,"rental_uris":{"android":"levelo://app?vid=3fcbd708-2b74-42ae-a074-adfc6842b05d","ios":"levelo://app?vid=3fcbd708-2b74-42ae-a074-adfc6842b05d"},"vehicle_type_id":"4","last_reported":1728162427,"current_range_meters":35200,"station_id":"ce4bh692rcd13ifvqea0","pricing_plan_id":"cebpf4jnsgd1na2vs0mg"},{"bike_id":"f23b9fc5-480a-4f0d-929e-9e7a62c04c66","system_id":"levelo_inurba_marseille","lat":43.29365,"lon":5.37836,"is_reserved":false,"is_disabled":false,"rental_uris":{"android":"levelo://app?vid=f23b9fc5-480a-4f0d-929e-9e7a62c04c66","ios":"levelo://app?vid=f23b9fc5-480a-4f0d-929e-9e7a62c04c66"},"vehicle_type_id":"4","last_reported":1728162427,"current_range_meters":38800,"station_id":"ce4bgjh2rcd13ifvqbf0","pricing_plan_id":"cebpf4jnsgd1na2vs0mg"},{"bike_id":"244d3018-e40d-4387-9961-c40d009170c5","system_id":"levelo_inurba_marseille","lat":43.30356,"lon":5.41887,"is_reserved":false,"is_disabled":false,"rental_uris":{"android":"levelo://app?vid=244d3018-e40d-4387-9961-c40d009170c5","ios":"levelo://app?vid=244d3018-e40d-4387-9961-c40d009170c5"},"vehicle_type_id":"4","last_reported":1728162427,"current_range_meters":20400,"station_id":"ce4bhop2rcd13ifvqh7g","pricing_plan_id":"cebpf4jnsgd1na2vs0mg"},{"bike_id":"e5fcf45a-f933-4445-ba9f-7982af208b97","system_id":"levelo_inurba_marseille","lat":43.28701,"lon":5.39982,"is_reserved":false,"is_disabled":false,"rental_uris":{"android":"levelo://app?vid=e5fcf45a-f933-4445-ba9f-7982af208b97","ios":"levelo://app?vid=e5fcf45a-f933-4445-ba9f-7982af208b97"},"vehicle_type_id":"4","last_reported":1728162427,"current_range_meters":6800,"station_id":"ce4bho92rcd13ifvqh3g","pricing_plan_id":"cebpf4jnsgd1na2vs0mg"},{"bike_id":"5995fabf-2f24-441f-af17-697a20dfbe0e","system_id":"levelo_inurba_marseille","lat":43.33739,"lon":5.37455,"is_reserved":false,"is_disabled":false,"rental_uris":{"android":"levelo://app?vid=5995fabf-2f24-441f-af17-697a20dfbe0e","ios":"levelo://app?vid=5995fabf-2f24-441f-af17-697a20dfbe0e"},"vehicle_type_id":"4","last_reported":1728162427,"current_range_meters":34000,"station_id":"ce4bh092rcd13ifvqd30","pricing_plan_id":"cebpf4jnsgd1na2vs0mg"},{"bike_id":"c3e08dc8-697a-4a01-b19d-ee61f8e6e89d","system_id":"levelo_inurba_marseille","lat":43.28357,"lon":5.38096,"is_reserved":false,"is_disabled":false,"rental_uris":{"android":"levelo://app?vid=c3e08dc8-697a-4a01-b19d-ee61f8e6e89d","ios":"levelo://app?vid=c3e08dc8-697a-4a01-b19d-ee61f8e6e89d"},"vehicle_type_id":"4","last_reported":1728162427,"current_range_meters":12000,"station_id":"ce4bh412rcd13ifvqdr0","pricing_plan_id":"cebpf4jnsgd1na2vs0mg"},{"bike_id":"2f1f7e56-c6cd-448e-b406-4d3dfc3a4de4","system_id":"levelo_inurba_marseille","lat":43.2573,"lon":5.41112,"is_reserved":false,"is_disabled":false,"rental_uris":{"android":"levelo://app?vid=2f1f7e56-c6cd-448e-b406-4d3dfc3a4de4","ios":"levelo://app?vid=2f1f7e56-c6cd-448e-b406-4d3dfc3a4de4"},"vehicle_type_id":"4","last_reported":1728162427,"current_range_meters":35200,"station_id":"ce4bhkp2rcd13ifvqgd0","pricing_plan_id":"cebpf4jnsgd1na2vs0mg"},{"bike_id":"ac6c78f7-2566-4cf7-acd4-3dfb019ad68b","system_id":"levelo_inurba_marseille","lat":43.27418,"lon":5.39412,"is_reserved":false,"is_disabled":false,"rental_uris":{"android":"levelo://app?vid=ac6c78f7-2566-4cf7-acd4-3dfb019ad68b","ios":"levelo://app?vid=ac6c78f7-2566-4cf7-acd4-3dfb019ad68b"},"vehicle_type_id":"4","last_reported":1728162427,"current_range_meters":26800,"station_id":"ce4bhdp2rcd13ifvqf20","pricing_plan_id":"cebpf4jnsgd1na2vs0mg"},{"bike_id":"0c5d7f23-345b-48b2-a085-8eed2784cf72","system_id":"levelo_inurba_marseille","lat":43.28274,"lon":5.35079,"is_reserved":false,"is_disabled":false,"rental_uris":{"android":"levelo://app?vid=0c5d7f23-345b-48b2-a085-8eed2784cf72","ios":"levelo://app?vid=0c5d7f23-345b-48b2-a085-8eed2784cf72"},"vehicle_type_id":"4","last_reported":1728162427,"current_range_meters":38800,"station_id":"ce4bhbp2rcd13ifvqerg","pricing_plan_id":"cebpf4jnsgd1na2vs0mg"},{"bike_id":"1624fb10-17a2-4e84-b5f0-28be2a98cb84","system_id":"levelo_inurba_marseille","lat":43.29986,"lon":5.37186,"is_reserved":false,"is_disabled":false,"rental_uris":{"android":"levelo://app?vid=1624fb10-17a2-4e84-b5f0-28be2a98cb84","ios":"levelo://app?vid=1624fb10-17a2-4e84-b5f0-28be2a98cb84"},"vehicle_type_id":"4","last_reported":1728162427,"current_range_meters":27600,"station_id":"ce4bgr92rcd13ifvqc7g","pricing_plan_id":"cebpf4jnsgd1na2vs0mg"},{"bike_id":"79111656-462b-4311-a6f7-0601847fde43","system_id":"levelo_inurba_marseille","lat":43.30319,"lon":5.36897,"is_reserved":false,"is_disabled":false,"rental_uris":{"android":"levelo://app?vid=79111656-462b-4311-a6f7-0601847fde43","ios":"levelo://app?vid=79111656-462b-4311-a6f7-0601847fde43"},"vehicle_type_id":"4","last_reported":1728162427,"current_range_meters":38800,"station_id":"ce4bgqh2rcd13ifvqc5g","pricing_plan_id":"cebpf4jnsgd1na2vs0mg"},{"bike_id":"d1c22bff-dd8f-4c55-9db0-fa59411a2072","system_id":"levelo_inurba_marseille","lat":43.31368,"lon":5.36697,"is_reserved":false,"is_disabled":false,"rental_uris":{"android":"levelo://app?vid=d1c22bff-dd8f-4c55-9db0-fa59411a2072","ios":"levelo://app?vid=d1c22bff-dd8f-4c55-9db0-fa59411a2072"},"vehicle_type_id":"4","last_reported":1728162427,"current_range_meters":32000,"station_id":"ce4bgr92rcd13ifvqc6g","pricing_plan_id":"cebpf4jnsgd1na2vs0mg"},{"bike_id":"1d7e584d-d9bd-4a40-880d-10ef72bd85dc","system_id":"levelo_inurba_marseille","lat":43.28076,"lon":5.39657,"is_reserved":false,"is_disabled":false,"rental_uris":{"android":"levelo://app?vid=1d7e584d-d9bd-4a40-880d-10ef72bd85dc","ios":"levelo://app?vid=1d7e584d-d9bd-4a40-880d-10ef72bd85dc"},"vehicle_type_id":"4","last_reported":1728162427,"current_range_meters":20000,"station_id":"ce4bho12rcd13ifvqh2g","pricing_plan_id":"cebpf4jnsgd1na2vs0mg"},{"bike_id":"2358db1c-e9b3-49fe-b06f-88c362276595","system_id":"levelo_inurba_marseille","lat":43.29987,"lon":5.3719,"is_reserved":false,"is_disabled":false,"rental_uris":{"android":"levelo://app?vid=2358db1c-e9b3-49fe-b06f-88c362276595","ios":"levelo://app?vid=2358db1c-e9b3-49fe-b06f-88c362276595"},"vehicle_type_id":"4","last_reported":1728162427,"current_range_meters":5600,"station_id":"ce4bgr92rcd13ifvqc7g","pricing_plan_id":"cebpf4jnsgd1na2vs0mg"},{"bike_id":"a94f106c-921c-40e5-90b8-0a0b7d3f49ab","system_id":"levelo_inurba_marseille","lat":43.33359,"lon":5.35836,"is_reserved":false,"is_disabled":false,"rental_uris":{"android":"levelo://app?vid=a94f106c-921c-40e5-90b8-0a0b7d3f49ab","ios":"levelo://app?vid=a94f106c-921c-40e5-90b8-0a0b7d3f49ab"},"vehicle_type_id":"4","last_reported":1728162427,"current_range_meters":22400,"station_id":"","pricing_plan_id":"cebpf4jnsgd1na2vs0mg"},{"bike_id":"f1543ab5-4e23-417f-809a-d8a6268dedc7","system_id":"levelo_inurba_marseille","lat":43.24548,"lon":5.39521,"is_reserved":false,"is_disabled":false,"rental_uris":{"android":"levelo://app?vid=f1543ab5-4e23-417f-809a-d8a6268dedc7","ios":"levelo://app?vid=f1543ab5-4e23-417f-809a-d8a6268dedc7"},"vehicle_type_id":"4","last_reported":1728162427,"current_range_meters":35600,"station_id":"ce4bhlp2rcd13ifvqgjg","pricing_plan_id":"cebpf4jnsgd1na2vs0mg"},{"bike_id":"c1b14137-b80b-426f-9228-a681011d0473","system_id":"levelo_inurba_marseille","lat":43.30317,"lon":5.40448,"is_reserved":false,"is_disabled":false,"rental_uris":{"android":"levelo://app?vid=c1b14137-b80b-426f-9228-a681011d0473","ios":"levelo://app?vid=c1b14137-b80b-426f-9228-a681011d0473"},"vehicle_type_id":"4","last_reported":1728162427,"current_range_meters":16400,"station_id":"ce4bh012rcd13ifvqd10","pricing_plan_id":"cebpf4jnsgd1na2vs0mg"},{"bike_id":"0d97ac33-e04e-41c8-8dab-462546d7c56b","system_id":"levelo_inurba_marseille","lat":43.28726,"lon":5.3608,"is_reserved":false,"is_disabled":false,"rental_uris":{"android":"levelo://app?vid=0d97ac33-e04e-41c8-8dab-462546d7c56b","ios":"levelo://app?vid=0d97ac33-e04e-41c8-8dab-462546d7c56b"},"vehicle_type_id":"4","last_reported":1728162427,"current_range_meters":3600,"station_id":"cki0cbj6b192h4jlfktg","pricing_plan_id":"cebpf4jnsgd1na2vs0mg"},{"bike_id":"b94b1e47-5b93-4bb5-b89a-5452990752e0","system_id":"levelo_inurba_marseille","lat":43.3015,"lon":5.38104,"is_reserved":false,"is_disabled":false,"rental_uris":{"android":"levelo://app?vid=b94b1e47-5b93-4bb5-b89a-5452990752e0","ios":"levelo://app?vid=b94b1e47-5b93-4bb5-b89a-5452990752e0"},"vehicle_type_id":"4","last_reported":1728162427,"current_range_meters":38800,"station_id":"ce4bgjp2rcd13ifvqbh0","pricing_plan_id":"cebpf4jnsgd1na2vs0mg"},{"bike_id":"1121dded-5bdc-4095-b903-1711383b0169","system_id":"levelo_inurba_marseille","lat":43.28935,"lon":5.3639,"is_reserved":false,"is_disabled":false,"rental_uris":{"android":"levelo://app?vid=1121dded-5bdc-4095-b903-1711383b0169","ios":"levelo://app?vid=1121dded-5bdc-4095-b903-1711383b0169"},"vehicle_type_id":"4","last_reported":1728162427,"current_range_meters":7200,"station_id":"ce4bhc92rcd13ifvqetg","pricing_plan_id":"cebpf4jnsgd1na2vs0mg"},{"bike_id":"5e9722b9-527e-4896-955a-569ed40eb913","system_id":"levelo_inurba_marseille","lat":43.3211,"lon":5.36777,"is_reserved":false,"is_disabled":false,"rental_uris":{"android":"levelo://app?vid=5e9722b9-527e-4896-955a-569ed40eb913","ios":"levelo://app?vid=5e9722b9-527e-4896-955a-569ed40eb913"},"vehicle_type_id":"4","last_reported":1728162427,"current_range_meters":28400,"station_id":"ce4bhrh2rcd13ifvqhug","pricing_plan_id":"cebpf4jnsgd1na2vs0mg"},{"bike_id":"be44f353-6851-49ee-bd82-7cea18e6ea6d","system_id":"levelo_inurba_marseille","lat":43.24646,"lon":5.38894,"is_reserved":false,"is_disabled":false,"rental_uris":{"android":"levelo://app?vid=be44f353-6851-49ee-bd82-7cea18e6ea6d","ios":"levelo://app?vid=be44f353-6851-49ee-bd82-7cea18e6ea6d"},"vehicle_type_id":"4","last_reported":1728162427,"current_range_meters":37600,"station_id":"ce4bhg12rcd13ifvqf60","pricing_plan_id":"cebpf4jnsgd1na2vs0mg"},{"bike_id":"68b77a88-2067-422a-ab7b-e29094a40dcc","system_id":"levelo_inurba_marseille","lat":43.25122,"lon":5.40315,"is_reserved":false,"is_disabled":false,"rental_uris":{"android":"levelo://app?vid=68b77a88-2067-422a-ab7b-e29094a40dcc","ios":"levelo://app?vid=68b77a88-2067-422a-ab7b-e29094a40dcc"},"vehicle_type_id":"4","last_reported":1728162427,"current_range_meters":28800,"station_id":"ce4bhlh2rcd13ifvqgig","pricing_plan_id":"cebpf4jnsgd1na2vs0mg"},{"bike_id":"8f333e64-a742-4f16-9e41-4e5404724006","system_id":"levelo_inurba_marseille","lat":43.31223,"lon":5.36847,"is_reserved":false,"is_disabled":false,"rental_uris":{"android":"levelo://app?vid=8f333e64-a742-4f16-9e41-4e5404724006","ios":"levelo://app?vid=8f333e64-a742-4f16-9e41-4e5404724006"},"vehicle_type_id":"4","last_reported":1728162427,"current_range_meters":26800,"station_id":"ce4bgl92rcd13ifvqbq0","pricing_plan_id":"cebpf4jnsgd1na2vs0mg"},{"bike_id":"1374a405-7c5e-46b8-bf05-3c26f459f866","system_id":"levelo_inurba_marseille","lat":43.23972,"lon":5.3663,"is_reserved":false,"is_disabled":false,"rental_uris":{"android":"levelo://app?vid=1374a405-7c5e-46b8-bf05-3c26f459f866","ios":"levelo://app?vid=1374a405-7c5e-46b8-bf05-3c26f459f866"},"vehicle_type_id":"4","last_reported":1728162427,"current_range_meters":30000,"station_id":"ce4bhi12rcd13ifvqfp0","pricing_plan_id":"cebpf4jnsgd1na2vs0mg"},{"bike_id":"32f86a09-32da-4c66-bbdf-f2b0edb3c65c","system_id":"levelo_inurba_marseille","lat":43.29531,"lon":5.38536,"is_reserved":false,"is_disabled":false,"rental_uris":{"android":"levelo://app?vid=32f86a09-32da-4c66-bbdf-f2b0edb3c65c","ios":"levelo://app?vid=32f86a09-32da-4c66-bbdf-f2b0edb3c65c"},"vehicle_type_id":"4","last_reported":1728162427,"current_range_meters":0,"station_id":"ce4bgih2rcd13ifvqba0","pricing_plan_id":"cebpf4jnsgd1na2vs0mg"},{"bike_id":"78cfcc3c-2061-4c54-8e9a-c4d9b3a845c4","system_id":"levelo_inurba_marseille","lat":43.29552,"lon":5.42288,"is_reserved":false,"is_disabled":false,"rental_uris":{"android":"levelo://app?vid=78cfcc3c-2061-4c54-8e9a-c4d9b3a845c4","ios":"levelo://app?vid=78cfcc3c-2061-4c54-8e9a-c4d9b3a845c4"},"vehicle_type_id":"4","last_reported":1728162427,"current_range_meters":10800,"station_id":"ce4bhph2rcd13ifvqhdg","pricing_plan_id":"cebpf4jnsgd1na2vs0mg"},{"bike_id":"c7741dda-522d-4da7-83bc-92f93d33ab57","system_id":"levelo_inurba_marseille","lat":43.31229,"lon":5.36854,"is_reserved":false,"is_disabled":false,"rental_uris":{"android":"levelo://app?vid=c7741dda-522d-4da7-83bc-92f93d33ab57","ios":"levelo://app?vid=c7741dda-522d-4da7-83bc-92f93d33ab57"},"vehicle_type_id":"4","last_reported":1728162427,"current_range_meters":9600,"station_id":"ce4bgl92rcd13ifvqbq0","pricing_plan_id":"cebpf4jnsgd1na2vs0mg"},{"bike_id":"69427285-cc1b-47b4-aa06-dce04005c878","system_id":"levelo_inurba_marseille","lat":43.31341,"lon":5.36722,"is_reserved":false,"is_disabled":false,"rental_uris":{"android":"levelo://app?vid=69427285-cc1b-47b4-aa06-dce04005c878","ios":"levelo://app?vid=69427285-cc1b-47b4-aa06-dce04005c878"},"vehicle_type_id":"4","last_reported":1728162427,"current_range_meters":37600,"station_id":"ce4bgr92rcd13ifvqc6g","pricing_plan_id":"cebpf4jnsgd1na2vs0mg"},{"bike_id":"a0867223-e2cf-49a2-bb70-12696eadfb28","system_id":"levelo_inurba_marseille","lat":43.29558,"lon":5.42275,"is_reserved":false,"is_disabled":false,"rental_uris":{"android":"levelo://app?vid=a0867223-e2cf-49a2-bb70-12696eadfb28","ios":"levelo://app?vid=a0867223-e2cf-49a2-bb70-12696eadfb28"},"vehicle_type_id":"4","last_reported":1728162427,"current_range_meters":38800,"station_id":"ce4bhph2rcd13ifvqhdg","pricing_plan_id":"cebpf4jnsgd1na2vs0mg"},{"bike_id":"553b6585-4dea-467e-8d6f-6d0a56281456","system_id":"levelo_inurba_marseille","lat":43.28611,"lon":5.3706,"is_reserved":false,"is_disabled":false,"rental_uris":{"android":"levelo://app?vid=553b6585-4dea-467e-8d6f-6d0a56281456","ios":"levelo://app?vid=553b6585-4dea-467e-8d6f-6d0a56281456"},"vehicle_type_id":"4","last_reported":1728162427,"current_range_meters":21600,"station_id":"ce4bht12rcd13ifvqi60","pricing_plan_id":"cebpf4jnsgd1na2vs0mg"},{"bike_id":"9f19e14f-fab5-49bf-878b-9a40978f6235","system_id":"levelo_inurba_marseille","lat":43.28438,"lon":5.39192,"is_reserved":false,"is_disabled":false,"rental_uris":{"android":"levelo://app?vid=9f19e14f-fab5-49bf-878b-9a40978f6235","ios":"levelo://app?vid=9f19e14f-fab5-49bf-878b-9a40978f6235"},"vehicle_type_id":"4","last_reported":1728162427,"current_range_meters":31200,"station_id":"ce4bhoh2rcd13ifvqh5g","pricing_plan_id":"cebpf4jnsgd1na2vs0mg"},{"bike_id":"77c54a51-1d31-4691-a268-008118027e1e","system_id":"levelo_inurba_marseille","lat":43.28935,"lon":5.38382,"is_reserved":false,"is_disabled":false,"rental_uris":{"android":"levelo://app?vid=77c54a51-1d31-4691-a268-008118027e1e","ios":"levelo://app?vid=77c54a51-1d31-4691-a268-008118027e1e"},"vehicle_type_id":"4","last_reported":1728162427,"current_range_meters":36800,"station_id":"ce4bh612rcd13ifvqe6g","pricing_plan_id":"cebpf4jnsgd1na2vs0mg"},{"bike_id":"61932ec3-5691-45ee-87cf-baf5c1d29d14","system_id":"levelo_inurba_marseille","lat":43.26487,"lon":5.39542,"is_reserved":false,"is_disabled":false,"rental_uris":{"android":"levelo://app?vid=61932ec3-5691-45ee-87cf-baf5c1d29d14","ios":"levelo://app?vid=61932ec3-5691-45ee-87cf-baf5c1d29d14"},"vehicle_type_id":"4","last_reported":1728162427,"current_range_meters":38800,"station_id":"ce4bhi12rcd13ifvqfq0","pricing_plan_id":"cebpf4jnsgd1na2vs0mg"},{"bike_id":"eb00cb14-ac0d-4ce7-9af4-8381dec81ba4","system_id":"levelo_inurba_marseille","lat":43.29447,"lon":5.39747,"is_reserved":false,"is_disabled":false,"rental_uris":{"android":"levelo://app?vid=eb00cb14-ac0d-4ce7-9af4-8381dec81ba4","ios":"levelo://app?vid=eb00cb14-ac0d-4ce7-9af4-8381dec81ba4"},"vehicle_type_id":"4","last_reported":1728162427,"current_range_meters":36800,"station_id":"ce4bh3h2rcd13ifvqdo0","pricing_plan_id":"cebpf4jnsgd1na2vs0mg"},{"bike_id":"2b25ae74-2b10-4923-9eaf-5f71ae244e47","system_id":"levelo_inurba_marseille","lat":43.2621,"lon":5.37928,"is_reserved":false,"is_disabled":false,"rental_uris":{"android":"levelo://app?vid=2b25ae74-2b10-4923-9eaf-5f71ae244e47","ios":"levelo://app?vid=2b25ae74-2b10-4923-9eaf-5f71ae244e47"},"vehicle_type_id":"4","last_reported":1728162427,"current_range_meters":32800,"station_id":"ce4bhjp2rcd13ifvqg90","pricing_plan_id":"cebpf4jnsgd1na2vs0mg"},{"bike_id":"8794c195-e130-4253-b90a-58b4fad67568","system_id":"levelo_inurba_marseille","lat":43.29601,"lon":5.37731,"is_reserved":false,"is_disabled":false,"rental_uris":{"android":"levelo://app?vid=8794c195-e130-4253-b90a-58b4fad67568","ios":"levelo://app?vid=8794c195-e130-4253-b90a-58b4fad67568"},"vehicle_type_id":"4","last_reported":1728162427,"current_range_meters":30800,"station_id":"ce4bgi92rcd13ifvqb90","pricing_plan_id":"cebpf4jnsgd1na2vs0mg"},{"bike_id":"e52556a0-eec0-42f8-9dff-bfa9d9b67ba6","system_id":"levelo_inurba_marseille","lat":43.32489,"lon":5.36562,"is_reserved":false,"is_disabled":false,"rental_uris":{"android":"levelo://app?vid=e52556a0-eec0-42f8-9dff-bfa9d9b67ba6","ios":"levelo://app?vid=e52556a0-eec0-42f8-9dff-bfa9d9b67ba6"},"vehicle_type_id":"4","last_reported":1728162427,"current_range_meters":24400,"station_id":"ce4bhs12rcd13ifvqhvg","pricing_plan_id":"cebpf4jnsgd1na2vs0mg"},{"bike_id":"49d7e93d-7441-47be-a4ea-489c5bc25e8a","system_id":"levelo_inurba_marseille","lat":43.29259,"lon":5.38442,"is_reserved":false,"is_disabled":false,"rental_uris":{"android":"levelo://app?vid=49d7e93d-7441-47be-a4ea-489c5bc25e8a","ios":"levelo://app?vid=49d7e93d-7441-47be-a4ea-489c5bc25e8a"},"vehicle_type_id":"4","last_reported":1728162427,"current_range_meters":38800,"station_id":"ce4bh692rcd13ifvqea0","pricing_plan_id":"cebpf4jnsgd1na2vs0mg"},{"bike_id":"a88de313-6a6c-466a-8431-ca561f3e0c73","system_id":"levelo_inurba_marseille","lat":43.3211,"lon":5.36779,"is_reserved":false,"is_disabled":false,"rental_uris":{"android":"levelo://app?vid=a88de313-6a6c-466a-8431-ca561f3e0c73","ios":"levelo://app?vid=a88de313-6a6c-466a-8431-ca561f3e0c73"},"vehicle_type_id":"4","last_reported":1728162427,"current_range_meters":8800,"station_id":"ce4bhrh2rcd13ifvqhug","pricing_plan_id":"cebpf4jnsgd1na2vs0mg"},{"bike_id":"ff782131-7799-4ae4-a0e8-55c561c1ba34","system_id":"levelo_inurba_marseille","lat":43.281,"lon":5.37844,"is_reserved":false,"is_disabled":false,"rental_uris":{"android":"levelo://app?vid=ff782131-7799-4ae4-a0e8-55c561c1ba34","ios":"levelo://app?vid=ff782131-7799-4ae4-a0e8-55c561c1ba34"},"vehicle_type_id":"4","last_reported":1728162427,"current_range_meters":38400,"station_id":"ce4bha12rcd13ifvqee0","pricing_plan_id":"cebpf4jnsgd1na2vs0mg"},{"bike_id":"57404f81-9bbf-4801-926b-58431093b8a9","system_id":"levelo_inurba_marseille","lat":43.313489,"lon":5.366979,"is_reserved":false,"is_disabled":false,"rental_uris":{"android":"levelo://app?vid=57404f81-9bbf-4801-926b-58431093b8a9","ios":"levelo://app?vid=57404f81-9bbf-4801-926b-58431093b8a9"},"vehicle_type_id":"4","last_reported":1728162427,"current_range_meters":12000,"station_id":"ce4bgr92rcd13ifvqc6g","pricing_plan_id":"cebpf4jnsgd1na2vs0mg"},{"bike_id":"0ba0c298-17f4-4f13-977e-26136fae283b","system_id":"levelo_inurba_marseille","lat":43.26787,"lon":5.39421,"is_reserved":false,"is_disabled":false,"rental_uris":{"android":"levelo://app?vid=0ba0c298-17f4-4f13-977e-26136fae283b","ios":"levelo://app?vid=0ba0c298-17f4-4f13-977e-26136fae283b"},"vehicle_type_id":"4","last_reported":1728162427,"current_range_meters":38800,"station_id":"ce4bhh12rcd13ifvqfg0","pricing_plan_id":"cebpf4jnsgd1na2vs0mg"},{"bike_id":"ec38d8f9-aa1b-4e35-bb46-079045598071","system_id":"levelo_inurba_marseille","lat":43.31493,"lon":5.37309,"is_reserved":false,"is_disabled":false,"rental_uris":{"android":"levelo://app?vid=ec38d8f9-aa1b-4e35-bb46-079045598071","ios":"levelo://app?vid=ec38d8f9-aa1b-4e35-bb46-079045598071"},"vehicle_type_id":"4","last_reported":1728162427,"current_range_meters":14800,"station_id":"ce4bgt12rcd13ifvqcd0","pricing_plan_id":"cebpf4jnsgd1na2vs0mg"},{"bike_id":"68788143-3525-40be-94dd-ffa183ac0343","system_id":"levelo_inurba_marseille","lat":43.28944,"lon":5.3664,"is_reserved":false,"is_disabled":false,"rental_uris":{"android":"levelo://app?vid=68788143-3525-40be-94dd-ffa183ac0343","ios":"levelo://app?vid=68788143-3525-40be-94dd-ffa183ac0343"},"vehicle_type_id":"4","last_reported":1728162427,"current_range_meters":32000,"station_id":"ce4bhap2rcd13ifvqek0","pricing_plan_id":"cebpf4jnsgd1na2vs0mg"},{"bike_id":"9a0e12dd-8157-43af-95de-4c4aa779fc52","system_id":"levelo_inurba_marseille","lat":43.23181,"lon":5.39983,"is_reserved":false,"is_disabled":false,"rental_uris":{"android":"levelo://app?vid=9a0e12dd-8157-43af-95de-4c4aa779fc52","ios":"levelo://app?vid=9a0e12dd-8157-43af-95de-4c4aa779fc52"},"vehicle_type_id":"4","last_reported":1728162427,"current_range_meters":10800,"station_id":"ce4bhn12rcd13ifvqgqg","pricing_plan_id":"cebpf4jnsgd1na2vs0mg"},{"bike_id":"0b02dcea-c378-4519-ac45-e07296800d33","system_id":"levelo_inurba_marseille","lat":43.2953,"lon":5.3854,"is_reserved":false,"is_disabled":false,"rental_uris":{"android":"levelo://app?vid=0b02dcea-c378-4519-ac45-e07296800d33","ios":"levelo://app?vid=0b02dcea-c378-4519-ac45-e07296800d33"},"vehicle_type_id":"4","last_reported":1728162427,"current_range_meters":36800,"station_id":"ce4bgih2rcd13ifvqba0","pricing_plan_id":"cebpf4jnsgd1na2vs0mg"},{"bike_id":"d9ec0cda-ce20-4e6c-973e-d2f602c3d2c0","system_id":"levelo_inurba_marseille","lat":43.25824,"lon":5.39433,"is_reserved":false,"is_disabled":false,"rental_uris":{"android":"levelo://app?vid=d9ec0cda-ce20-4e6c-973e-d2f602c3d2c0","ios":"levelo://app?vid=d9ec0cda-ce20-4e6c-973e-d2f602c3d2c0"},"vehicle_type_id":"4","last_reported":1728162427,"current_range_meters":20400,"station_id":"ce4bhip2rcd13ifvqft0","pricing_plan_id":"cebpf4jnsgd1na2vs0mg"},{"bike_id":"4e0c83a2-b0c3-4894-8559-e509681998d3","system_id":"levelo_inurba_marseille","lat":43.31118,"lon":5.38325,"is_reserved":false,"is_disabled":false,"rental_uris":{"android":"levelo://app?vid=4e0c83a2-b0c3-4894-8559-e509681998d3","ios":"levelo://app?vid=4e0c83a2-b0c3-4894-8559-e509681998d3"},"vehicle_type_id":"4","last_reported":1728162427,"current_range_meters":14000,"station_id":"","pricing_plan_id":"cebpf4jnsgd1na2vs0mg"},{"bike_id":"6af29806-47b6-4985-966f-7e091b704e6e","system_id":"levelo_inurba_marseille","lat":43.31884,"lon":5.40735,"is_reserved":false,"is_disabled":false,"rental_uris":{"android":"levelo://app?vid=6af29806-47b6-4985-966f-7e091b704e6e","ios":"levelo://app?vid=6af29806-47b6-4985-966f-7e091b704e6e"},"vehicle_type_id":"4","last_reported":1728162427,"current_range_meters":14400,"station_id":"ce4bhq12rcd13ifvqhig","pricing_plan_id":"cebpf4jnsgd1na2vs0mg"},{"bike_id":"8d4950f1-b301-449d-bcd0-f0ac70cb73de","system_id":"levelo_inurba_marseille","lat":43.28495,"lon":5.42195,"is_reserved":false,"is_disabled":false,"rental_uris":{"android":"levelo://app?vid=8d4950f1-b301-449d-bcd0-f0ac70cb73de","ios":"levelo://app?vid=8d4950f1-b301-449d-bcd0-f0ac70cb73de"},"vehicle_type_id":"4","last_reported":1728162427,"current_range_meters":7200,"station_id":"","pricing_plan_id":"cebpf4jnsgd1na2vs0mg"},{"bike_id":"d287a3f0-5c77-4f01-b127-db518b8d0c12","system_id":"levelo_inurba_marseille","lat":43.30455,"lon":5.37908,"is_reserved":false,"is_disabled":false,"rental_uris":{"android":"levelo://app?vid=d287a3f0-5c77-4f01-b127-db518b8d0c12","ios":"levelo://app?vid=d287a3f0-5c77-4f01-b127-db518b8d0c12"},"vehicle_type_id":"4","last_reported":1728162427,"current_range_meters":0,"station_id":"ce4bgup2rcd13ifvqcn0","pricing_plan_id":"cebpf4jnsgd1na2vs0mg"},{"bike_id":"01f44c5a-808d-486c-a9ef-8c49d1a6371c","system_id":"levelo_inurba_marseille","lat":43.29261,"lon":5.38439,"is_reserved":false,"is_disabled":false,"rental_uris":{"android":"levelo://app?vid=01f44c5a-808d-486c-a9ef-8c49d1a6371c","ios":"levelo://app?vid=01f44c5a-808d-486c-a9ef-8c49d1a6371c"},"vehicle_type_id":"4","last_reported":1728162427,"current_range_meters":32000,"station_id":"ce4bh692rcd13ifvqea0","pricing_plan_id":"cebpf4jnsgd1na2vs0mg"},{"bike_id":"4562355b-36d5-44a4-ac1a-fda5c02cd815","system_id":"levelo_inurba_marseille","lat":43.30784,"lon":5.37657,"is_reserved":false,"is_disabled":false,"rental_uris":{"android":"levelo://app?vid=4562355b-36d5-44a4-ac1a-fda5c02cd815","ios":"levelo://app?vid=4562355b-36d5-44a4-ac1a-fda5c02cd815"},"vehicle_type_id":"4","last_reported":1728162427,"current_range_meters":6800,"station_id":"","pricing_plan_id":"cebpf4jnsgd1na2vs0mg"},{"bike_id":"517316bd-93a5-40ca-8ea5-d0ca3888fe9e","system_id":"levelo_inurba_marseille","lat":43.31272,"lon":5.40164,"is_reserved":false,"is_disabled":false,"rental_uris":{"android":"levelo://app?vid=517316bd-93a5-40ca-8ea5-d0ca3888fe9e","ios":"levelo://app?vid=517316bd-93a5-40ca-8ea5-d0ca3888fe9e"},"vehicle_type_id":"4","last_reported":1728162427,"current_range_meters":36400,"station_id":"ce4bh092rcd13ifvqd30","pricing_plan_id":"cebpf4jnsgd1na2vs0mg"},{"bike_id":"3792f516-29a5-4676-801c-e31b15bf74b8","system_id":"levelo_inurba_marseille","lat":43.26207,"lon":5.37929,"is_reserved":false,"is_disabled":false,"rental_uris":{"android":"levelo://app?vid=3792f516-29a5-4676-801c-e31b15bf74b8","ios":"levelo://app?vid=3792f516-29a5-4676-801c-e31b15bf74b8"},"vehicle_type_id":"4","last_reported":1728162427,"current_range_meters":10800,"station_id":"ce4bhjp2rcd13ifvqg90","pricing_plan_id":"cebpf4jnsgd1na2vs0mg"},{"bike_id":"ee70354b-9fb1-40d1-b0cb-a7c37bf963b6","system_id":"levelo_inurba_marseille","lat":43.28158,"lon":5.42648,"is_reserved":false,"is_disabled":false,"rental_uris":{"android":"levelo://app?vid=ee70354b-9fb1-40d1-b0cb-a7c37bf963b6","ios":"levelo://app?vid=ee70354b-9fb1-40d1-b0cb-a7c37bf963b6"},"vehicle_type_id":"4","last_reported":1728162427,"current_range_meters":6400,"station_id":"ce4bhnh2rcd13ifvqgug","pricing_plan_id":"cebpf4jnsgd1na2vs0mg"},{"bike_id":"bd492169-7f80-46c6-8668-835ff9ef5f6c","system_id":"levelo_inurba_marseille","lat":43.29715,"lon":5.37699,"is_reserved":false,"is_disabled":false,"rental_uris":{"android":"levelo://app?vid=bd492169-7f80-46c6-8668-835ff9ef5f6c","ios":"levelo://app?vid=bd492169-7f80-46c6-8668-835ff9ef5f6c"},"vehicle_type_id":"4","last_reported":1728162427,"current_range_meters":14000,"station_id":"ce4bgkh2rcd13ifvqbl0","pricing_plan_id":"cebpf4jnsgd1na2vs0mg"},{"bike_id":"342316ae-28ec-4a00-9fef-57766c633440","system_id":"levelo_inurba_marseille","lat":43.31342,"lon":5.36707,"is_reserved":false,"is_disabled":false,"rental_uris":{"android":"levelo://app?vid=342316ae-28ec-4a00-9fef-57766c633440","ios":"levelo://app?vid=342316ae-28ec-4a00-9fef-57766c633440"},"vehicle_type_id":"4","last_reported":1728162427,"current_range_meters":38800,"station_id":"ce4bgr92rcd13ifvqc6g","pricing_plan_id":"cebpf4jnsgd1na2vs0mg"},{"bike_id":"5d1461fe-0d31-4496-88f1-2f8286e5856d","system_id":"levelo_inurba_marseille","lat":43.28037,"lon":5.36944,"is_reserved":false,"is_disabled":false,"rental_uris":{"android":"levelo://app?vid=5d1461fe-0d31-4496-88f1-2f8286e5856d","ios":"levelo://app?vid=5d1461fe-0d31-4496-88f1-2f8286e5856d"},"vehicle_type_id":"4","last_reported":1728162427,"current_range_meters":22800,"station_id":"ce4bha12rcd13ifvqef0","pricing_plan_id":"cebpf4jnsgd1na2vs0mg"},{"bike_id":"32769f71-4fba-4dd5-b7c9-e24cf4795e4e","system_id":"levelo_inurba_marseille","lat":43.29523,"lon":5.37499,"is_reserved":false,"is_disabled":false,"rental_uris":{"android":"levelo://app?vid=32769f71-4fba-4dd5-b7c9-e24cf4795e4e","ios":"levelo://app?vid=32769f71-4fba-4dd5-b7c9-e24cf4795e4e"},"vehicle_type_id":"4","last_reported":1728162427,"current_range_meters":37600,"station_id":"ce4bgkp2rcd13ifvqbmg","pricing_plan_id":"cebpf4jnsgd1na2vs0mg"},{"bike_id":"f4eff509-782f-41e8-bd3e-8669034bc994","system_id":"levelo_inurba_marseille","lat":43.30354,"lon":5.4188,"is_reserved":false,"is_disabled":false,"rental_uris":{"android":"levelo://app?vid=f4eff509-782f-41e8-bd3e-8669034bc994","ios":"levelo://app?vid=f4eff509-782f-41e8-bd3e-8669034bc994"},"vehicle_type_id":"4","last_reported":1728162427,"current_range_meters":22400,"station_id":"ce4bhop2rcd13ifvqh7g","pricing_plan_id":"cebpf4jnsgd1na2vs0mg"},{"bike_id":"bdefae95-7cc5-4880-bfcb-b1af39586be0","system_id":"levelo_inurba_marseille","lat":43.32662,"lon":5.40995,"is_reserved":false,"is_disabled":false,"rental_uris":{"android":"levelo://app?vid=bdefae95-7cc5-4880-bfcb-b1af39586be0","ios":"levelo://app?vid=bdefae95-7cc5-4880-bfcb-b1af39586be0"},"vehicle_type_id":"4","last_reported":1728162427,"current_range_meters":38400,"station_id":"ce4bhpp2rcd13ifvqhgg","pricing_plan_id":"cebpf4jnsgd1na2vs0mg"},{"bike_id":"a6e78734-4545-489b-ace9-fb7abaa923bb","system_id":"levelo_inurba_marseille","lat":43.30314,"lon":5.36894,"is_reserved":false,"is_disabled":false,"rental_uris":{"android":"levelo://app?vid=a6e78734-4545-489b-ace9-fb7abaa923bb","ios":"levelo://app?vid=a6e78734-4545-489b-ace9-fb7abaa923bb"},"vehicle_type_id":"4","last_reported":1728162427,"current_range_meters":38800,"station_id":"ce4bgqh2rcd13ifvqc5g","pricing_plan_id":"cebpf4jnsgd1na2vs0mg"},{"bike_id":"12afc8f1-2acf-4c0e-b1d3-c57bea2e71f3","system_id":"levelo_inurba_marseille","lat":43.26065,"lon":5.39398,"is_reserved":false,"is_disabled":false,"rental_uris":{"android":"levelo://app?vid=12afc8f1-2acf-4c0e-b1d3-c57bea2e71f3","ios":"levelo://app?vid=12afc8f1-2acf-4c0e-b1d3-c57bea2e71f3"},"vehicle_type_id":"4","last_reported":1728162427,"current_range_meters":38800,"station_id":"ce4bhh92rcd13ifvqfj0","pricing_plan_id":"cebpf4jnsgd1na2vs0mg"},{"bike_id":"7cfddf95-163a-471b-a8a5-602ec645f4d7","system_id":"levelo_inurba_marseille","lat":43.31226,"lon":5.36855,"is_reserved":false,"is_disabled":false,"rental_uris":{"android":"levelo://app?vid=7cfddf95-163a-471b-a8a5-602ec645f4d7","ios":"levelo://app?vid=7cfddf95-163a-471b-a8a5-602ec645f4d7"},"vehicle_type_id":"4","last_reported":1728162427,"current_range_meters":17600,"station_id":"ce4bgl92rcd13ifvqbq0","pricing_plan_id":"cebpf4jnsgd1na2vs0mg"},{"bike_id":"0fe7f6cc-a221-43e5-9718-492d396fd13a","system_id":"levelo_inurba_marseille","lat":43.2867,"lon":5.38667,"is_reserved":false,"is_disabled":false,"rental_uris":{"android":"levelo://app?vid=0fe7f6cc-a221-43e5-9718-492d396fd13a","ios":"levelo://app?vid=0fe7f6cc-a221-43e5-9718-492d396fd13a"},"vehicle_type_id":"4","last_reported":1728162427,"current_range_meters":30000,"station_id":"ce4bh492rcd13ifvqdug","pricing_plan_id":"cebpf4jnsgd1na2vs0mg"},{"bike_id":"19f85a2b-1e5c-4bc3-8a40-bd1b097209ed","system_id":"levelo_inurba_marseille","lat":43.33022,"lon":5.39041,"is_reserved":false,"is_disabled":false,"rental_uris":{"android":"levelo://app?vid=19f85a2b-1e5c-4bc3-8a40-bd1b097209ed","ios":"levelo://app?vid=19f85a2b-1e5c-4bc3-8a40-bd1b097209ed"},"vehicle_type_id":"4","last_reported":1728162427,"current_range_meters":16800,"station_id":"ce4bhr92rcd13ifvqhrg","pricing_plan_id":"cebpf4jnsgd1na2vs0mg"},{"bike_id":"e03c9d0c-17ae-4003-b903-fd8aa9951041","system_id":"levelo_inurba_marseille","lat":43.33753,"lon":5.37453,"is_reserved":false,"is_disabled":false,"rental_uris":{"android":"levelo://app?vid=e03c9d0c-17ae-4003-b903-fd8aa9951041","ios":"levelo://app?vid=e03c9d0c-17ae-4003-b903-fd8aa9951041"},"vehicle_type_id":"4","last_reported":1728162427,"current_range_meters":37600,"station_id":"","pricing_plan_id":"cebpf4jnsgd1na2vs0mg"},{"bike_id":"51db2887-aa63-4eab-95f5-d79ed8a9be8d","system_id":"levelo_inurba_marseille","lat":43.30807,"lon":5.43517,"is_reserved":false,"is_disabled":false,"rental_uris":{"android":"levelo://app?vid=51db2887-aa63-4eab-95f5-d79ed8a9be8d","ios":"levelo://app?vid=51db2887-aa63-4eab-95f5-d79ed8a9be8d"},"vehicle_type_id":"4","last_reported":1728162427,"current_range_meters":17600,"station_id":"ce4bhph2rcd13ifvqheg","pricing_plan_id":"cebpf4jnsgd1na2vs0mg"},{"bike_id":"04e0dd85-95d9-4f83-a056-c2c2f9219ecc","system_id":"levelo_inurba_marseille","lat":43.28936,"lon":5.3664,"is_reserved":false,"is_disabled":false,"rental_uris":{"android":"levelo://app?vid=04e0dd85-95d9-4f83-a056-c2c2f9219ecc","ios":"levelo://app?vid=04e0dd85-95d9-4f83-a056-c2c2f9219ecc"},"vehicle_type_id":"4","last_reported":1728162427,"current_range_meters":35600,"station_id":"ce4bhap2rcd13ifvqek0","pricing_plan_id":"cebpf4jnsgd1na2vs0mg"},{"bike_id":"9a1b28ed-71e8-4ea2-8570-05d0cd18763b","system_id":"levelo_inurba_marseille","lat":43.28104,"lon":5.37834,"is_reserved":false,"is_disabled":false,"rental_uris":{"android":"levelo://app?vid=9a1b28ed-71e8-4ea2-8570-05d0cd18763b","ios":"levelo://app?vid=9a1b28ed-71e8-4ea2-8570-05d0cd18763b"},"vehicle_type_id":"4","last_reported":1728162427,"current_range_meters":29600,"station_id":"ce4bha12rcd13ifvqee0","pricing_plan_id":"cebpf4jnsgd1na2vs0mg"},{"bike_id":"103a37c8-2782-4cfb-9624-d3079add74c4","system_id":"levelo_inurba_marseille","lat":43.298485,"lon":5.362893,"is_reserved":false,"is_disabled":false,"rental_uris":{"android":"levelo://app?vid=103a37c8-2782-4cfb-9624-d3079add74c4","ios":"levelo://app?vid=103a37c8-2782-4cfb-9624-d3079add74c4"},"vehicle_type_id":"4","last_reported":1728162427,"current_range_meters":10000,"station_id":"ce4bgpp2rcd13ifvqc3g","pricing_plan_id":"cebpf4jnsgd1na2vs0mg"},{"bike_id":"37e127f3-ccb3-41c0-b965-a477de8e02a5","system_id":"levelo_inurba_marseille","lat":43.31101,"lon":5.42422,"is_reserved":false,"is_disabled":false,"rental_uris":{"android":"levelo://app?vid=37e127f3-ccb3-41c0-b965-a477de8e02a5","ios":"levelo://app?vid=37e127f3-ccb3-41c0-b965-a477de8e02a5"},"vehicle_type_id":"4","last_reported":1728162427,"current_range_meters":30000,"station_id":"ce4bhp92rcd13ifvqhag","pricing_plan_id":"cebpf4jnsgd1na2vs0mg"},{"bike_id":"757607c4-c8a7-49c5-8f8a-3de1b142729e","system_id":"levelo_inurba_marseille","lat":43.30197,"lon":5.36631,"is_reserved":false,"is_disabled":false,"rental_uris":{"android":"levelo://app?vid=757607c4-c8a7-49c5-8f8a-3de1b142729e","ios":"levelo://app?vid=757607c4-c8a7-49c5-8f8a-3de1b142729e"},"vehicle_type_id":"4","last_reported":1728162427,"current_range_meters":38800,"station_id":"ce4bgqh2rcd13ifvqc5g","pricing_plan_id":"cebpf4jnsgd1na2vs0mg"},{"bike_id":"34407b21-b783-4c8e-a165-3861362948cd","system_id":"levelo_inurba_marseille","lat":43.30534,"lon":5.36712,"is_reserved":false,"is_disabled":false,"rental_uris":{"android":"levelo://app?vid=34407b21-b783-4c8e-a165-3861362948cd","ios":"levelo://app?vid=34407b21-b783-4c8e-a165-3861362948cd"},"vehicle_type_id":"4","last_reported":1728162427,"current_range_meters":7200,"station_id":"ce4bgrp2rcd13ifvqc9g","pricing_plan_id":"cebpf4jnsgd1na2vs0mg"},{"bike_id":"954c0a78-f2ce-4e32-ab87-edcb8ca5e8d6","system_id":"levelo_inurba_marseille","lat":43.31356,"lon":5.36703,"is_reserved":false,"is_disabled":false,"rental_uris":{"android":"levelo://app?vid=954c0a78-f2ce-4e32-ab87-edcb8ca5e8d6","ios":"levelo://app?vid=954c0a78-f2ce-4e32-ab87-edcb8ca5e8d6"},"vehicle_type_id":"4","last_reported":1728162427,"current_range_meters":16400,"station_id":"ce4bgr92rcd13ifvqc6g","pricing_plan_id":"cebpf4jnsgd1na2vs0mg"},{"bike_id":"fa156ca4-4ffc-45d6-844b-36e5558b87a0","system_id":"levelo_inurba_marseille","lat":43.24548,"lon":5.39521,"is_reserved":false,"is_disabled":false,"rental_uris":{"android":"levelo://app?vid=fa156ca4-4ffc-45d6-844b-36e5558b87a0","ios":"levelo://app?vid=fa156ca4-4ffc-45d6-844b-36e5558b87a0"},"vehicle_type_id":"4","last_reported":1728162427,"current_range_meters":26800,"station_id":"ce4bhlp2rcd13ifvqgjg","pricing_plan_id":"cebpf4jnsgd1na2vs0mg"},{"bike_id":"44e782a5-2237-4d6a-a802-cc2564a48a1f","system_id":"levelo_inurba_marseille","lat":43.29439,"lon":5.39756,"is_reserved":false,"is_disabled":false,"rental_uris":{"android":"levelo://app?vid=44e782a5-2237-4d6a-a802-cc2564a48a1f","ios":"levelo://app?vid=44e782a5-2237-4d6a-a802-cc2564a48a1f"},"vehicle_type_id":"4","last_reported":1728162427,"current_range_meters":37600,"station_id":"ce4bh3h2rcd13ifvqdo0","pricing_plan_id":"cebpf4jnsgd1na2vs0mg"},{"bike_id":"eb9fa51e-1a1e-42df-8783-64da448fc489","system_id":"levelo_inurba_marseille","lat":43.29311,"lon":5.37166,"is_reserved":false,"is_disabled":false,"rental_uris":{"android":"levelo://app?vid=eb9fa51e-1a1e-42df-8783-64da448fc489","ios":"levelo://app?vid=eb9fa51e-1a1e-42df-8783-64da448fc489"},"vehicle_type_id":"4","last_reported":1728162427,"current_range_meters":9600,"station_id":"ce4bgh92rcd13ifvqb40","pricing_plan_id":"cebpf4jnsgd1na2vs0mg"},{"bike_id":"b6a817d8-5787-46a3-898e-0b46c75fc481","system_id":"levelo_inurba_marseille","lat":43.32965,"lon":5.40344,"is_reserved":false,"is_disabled":false,"rental_uris":{"android":"levelo://app?vid=b6a817d8-5787-46a3-898e-0b46c75fc481","ios":"levelo://app?vid=b6a817d8-5787-46a3-898e-0b46c75fc481"},"vehicle_type_id":"4","last_reported":1728162427,"current_range_meters":4400,"station_id":"","pricing_plan_id":"cebpf4jnsgd1na2vs0mg"},{"bike_id":"541f98d3-54fb-4c66-8f50-7b29cf9dcd75","system_id":"levelo_inurba_marseille","lat":43.31268,"lon":5.4016,"is_reserved":false,"is_disabled":false,"rental_uris":{"android":"levelo://app?vid=541f98d3-54fb-4c66-8f50-7b29cf9dcd75","ios":"levelo://app?vid=541f98d3-54fb-4c66-8f50-7b29cf9dcd75"},"vehicle_type_id":"4","last_reported":1728162427,"current_range_meters":32800,"station_id":"ce4bh092rcd13ifvqd30","pricing_plan_id":"cebpf4jnsgd1na2vs0mg"},{"bike_id":"077a481a-af23-4754-9882-53304dbe26d1","system_id":"levelo_inurba_marseille","lat":43.3136,"lon":5.36712,"is_reserved":false,"is_disabled":false,"rental_uris":{"android":"levelo://app?vid=077a481a-af23-4754-9882-53304dbe26d1","ios":"levelo://app?vid=077a481a-af23-4754-9882-53304dbe26d1"},"vehicle_type_id":"4","last_reported":1728162427,"current_range_meters":38800,"station_id":"ce4bgr92rcd13ifvqc6g","pricing_plan_id":"cebpf4jnsgd1na2vs0mg"},{"bike_id":"6856d22e-440d-40d9-809f-3167dacdbdc3","system_id":"levelo_inurba_marseille","lat":43.337444,"lon":5.374475,"is_reserved":false,"is_disabled":false,"rental_uris":{"android":"levelo://app?vid=6856d22e-440d-40d9-809f-3167dacdbdc3","ios":"levelo://app?vid=6856d22e-440d-40d9-809f-3167dacdbdc3"},"vehicle_type_id":"4","last_reported":1728162427,"current_range_meters":17600,"station_id":"","pricing_plan_id":"cebpf4jnsgd1na2vs0mg"},{"bike_id":"f3092f0e-4809-4cf9-a7af-dcf776eb7bb4","system_id":"levelo_inurba_marseille","lat":43.28713,"lon":5.37374,"is_reserved":false,"is_disabled":false,"rental_uris":{"android":"levelo://app?vid=f3092f0e-4809-4cf9-a7af-dcf776eb7bb4","ios":"levelo://app?vid=f3092f0e-4809-4cf9-a7af-dcf776eb7bb4"},"vehicle_type_id":"4","last_reported":1728162427,"current_range_meters":38800,"station_id":"ce4bh3p2rcd13ifvqdq0","pricing_plan_id":"cebpf4jnsgd1na2vs0mg"},{"bike_id":"64bd957e-b978-44cb-a85c-928d627d24ec","system_id":"levelo_inurba_marseille","lat":43.35424,"lon":5.35869,"is_reserved":false,"is_disabled":false,"rental_uris":{"android":"levelo://app?vid=64bd957e-b978-44cb-a85c-928d627d24ec","ios":"levelo://app?vid=64bd957e-b978-44cb-a85c-928d627d24ec"},"vehicle_type_id":"4","last_reported":1728162427,"current_range_meters":6000,"station_id":"","pricing_plan_id":"cebpf4jnsgd1na2vs0mg"},{"bike_id":"64995d1a-0a95-43c1-8426-b3115325266b","system_id":"levelo_inurba_marseille","lat":43.27921,"lon":5.42314,"is_reserved":false,"is_disabled":false,"rental_uris":{"android":"levelo://app?vid=64995d1a-0a95-43c1-8426-b3115325266b","ios":"levelo://app?vid=64995d1a-0a95-43c1-8426-b3115325266b"},"vehicle_type_id":"4","last_reported":1728162427,"current_range_meters":17200,"station_id":"","pricing_plan_id":"cebpf4jnsgd1na2vs0mg"},{"bike_id":"0f93df67-7cc1-42db-983f-48f5f97c1553","system_id":"levelo_inurba_marseille","lat":43.30175,"lon":5.36618,"is_reserved":false,"is_disabled":false,"rental_uris":{"android":"levelo://app?vid=0f93df67-7cc1-42db-983f-48f5f97c1553","ios":"levelo://app?vid=0f93df67-7cc1-42db-983f-48f5f97c1553"},"vehicle_type_id":"4","last_reported":1728162427,"current_range_meters":38000,"station_id":"ce4bgrh2rcd13ifvqc8g","pricing_plan_id":"cebpf4jnsgd1na2vs0mg"},{"bike_id":"3087cbb8-89ad-4937-9daf-65c8b2772aa2","system_id":"levelo_inurba_marseille","lat":43.33729,"lon":5.39182,"is_reserved":false,"is_disabled":false,"rental_uris":{"android":"levelo://app?vid=3087cbb8-89ad-4937-9daf-65c8b2772aa2","ios":"levelo://app?vid=3087cbb8-89ad-4937-9daf-65c8b2772aa2"},"vehicle_type_id":"4","last_reported":1728162427,"current_range_meters":38400,"station_id":"ce4bhr92rcd13ifvqhsg","pricing_plan_id":"cebpf4jnsgd1na2vs0mg"},{"bike_id":"72cdf711-2663-46e4-8d5b-b95ee2f5dde3","system_id":"levelo_inurba_marseille","lat":43.31225,"lon":5.36859,"is_reserved":false,"is_disabled":false,"rental_uris":{"android":"levelo://app?vid=72cdf711-2663-46e4-8d5b-b95ee2f5dde3","ios":"levelo://app?vid=72cdf711-2663-46e4-8d5b-b95ee2f5dde3"},"vehicle_type_id":"4","last_reported":1728162427,"current_range_meters":11600,"station_id":"ce4bgl92rcd13ifvqbq0","pricing_plan_id":"cebpf4jnsgd1na2vs0mg"},{"bike_id":"95dcba61-8317-44f9-88fa-f26b433bcc7a","system_id":"levelo_inurba_marseille","lat":43.29259,"lon":5.38443,"is_reserved":false,"is_disabled":false,"rental_uris":{"android":"levelo://app?vid=95dcba61-8317-44f9-88fa-f26b433bcc7a","ios":"levelo://app?vid=95dcba61-8317-44f9-88fa-f26b433bcc7a"},"vehicle_type_id":"4","last_reported":1728162427,"current_range_meters":38800,"station_id":"ce4bh692rcd13ifvqea0","pricing_plan_id":"cebpf4jnsgd1na2vs0mg"},{"bike_id":"42754fdf-4824-4d58-b277-b58b632b865d","system_id":"levelo_inurba_marseille","lat":43.311147,"lon":5.37768,"is_reserved":false,"is_disabled":false,"rental_uris":{"android":"levelo://app?vid=42754fdf-4824-4d58-b277-b58b632b865d","ios":"levelo://app?vid=42754fdf-4824-4d58-b277-b58b632b865d"},"vehicle_type_id":"4","last_reported":1728162427,"current_range_meters":16800,"station_id":"ce4bgt92rcd13ifvqcg0","pricing_plan_id":"cebpf4jnsgd1na2vs0mg"},{"bike_id":"57e67165-b85c-405b-a732-679f9f1eebc5","system_id":"levelo_inurba_marseille","lat":43.31889,"lon":5.40738,"is_reserved":false,"is_disabled":false,"rental_uris":{"android":"levelo://app?vid=57e67165-b85c-405b-a732-679f9f1eebc5","ios":"levelo://app?vid=57e67165-b85c-405b-a732-679f9f1eebc5"},"vehicle_type_id":"4","last_reported":1728162427,"current_range_meters":35600,"station_id":"ce4bhq12rcd13ifvqhig","pricing_plan_id":"cebpf4jnsgd1na2vs0mg"},{"bike_id":"79d4ce44-dde0-4856-adfb-9d048612b764","system_id":"levelo_inurba_marseille","lat":43.33771,"lon":5.37426,"is_reserved":false,"is_disabled":false,"rental_uris":{"android":"levelo://app?vid=79d4ce44-dde0-4856-adfb-9d048612b764","ios":"levelo://app?vid=79d4ce44-dde0-4856-adfb-9d048612b764"},"vehicle_type_id":"4","last_reported":1728162427,"current_range_meters":37600,"station_id":"","pricing_plan_id":"cebpf4jnsgd1na2vs0mg"},{"bike_id":"6362dd7e-711b-4b82-af8e-291ea8f6ea1e","system_id":"levelo_inurba_marseille","lat":43.33774,"lon":5.37435,"is_reserved":false,"is_disabled":false,"rental_uris":{"android":"levelo://app?vid=6362dd7e-711b-4b82-af8e-291ea8f6ea1e","ios":"levelo://app?vid=6362dd7e-711b-4b82-af8e-291ea8f6ea1e"},"vehicle_type_id":"4","last_reported":1728162427,"current_range_meters":35600,"station_id":"","pricing_plan_id":"cebpf4jnsgd1na2vs0mg"},{"bike_id":"c7ec8820-b76c-4b2d-a9fa-ad344f0044c8","system_id":"levelo_inurba_marseille","lat":43.31536,"lon":5.38024,"is_reserved":false,"is_disabled":false,"rental_uris":{"android":"levelo://app?vid=c7ec8820-b76c-4b2d-a9fa-ad344f0044c8","ios":"levelo://app?vid=c7ec8820-b76c-4b2d-a9fa-ad344f0044c8"},"vehicle_type_id":"4","last_reported":1728162427,"current_range_meters":16800,"station_id":"ce4bhsp2rcd13ifvqi50","pricing_plan_id":"cebpf4jnsgd1na2vs0mg"},{"bike_id":"d366c603-0baa-4130-aa14-9de1acc340c3","system_id":"levelo_inurba_marseille","lat":43.31273,"lon":5.36854,"is_reserved":false,"is_disabled":false,"rental_uris":{"android":"levelo://app?vid=d366c603-0baa-4130-aa14-9de1acc340c3","ios":"levelo://app?vid=d366c603-0baa-4130-aa14-9de1acc340c3"},"vehicle_type_id":"4","last_reported":1728162427,"current_range_meters":10000,"station_id":"ce4bgl92rcd13ifvqbq0","pricing_plan_id":"cebpf4jnsgd1na2vs0mg"},{"bike_id":"4cb8f73c-7cae-450c-b47e-8a4210b46dcf","system_id":"levelo_inurba_marseille","lat":43.25582,"lon":5.38228,"is_reserved":false,"is_disabled":false,"rental_uris":{"android":"levelo://app?vid=4cb8f73c-7cae-450c-b47e-8a4210b46dcf","ios":"levelo://app?vid=4cb8f73c-7cae-450c-b47e-8a4210b46dcf"},"vehicle_type_id":"4","last_reported":1728162427,"current_range_meters":4800,"station_id":"ce4bhih2rcd13ifvqfs0","pricing_plan_id":"cebpf4jnsgd1na2vs0mg"},{"bike_id":"e6ae0d20-95f0-43fa-8142-615292335a78","system_id":"levelo_inurba_marseille","lat":43.30883,"lon":5.37182,"is_reserved":false,"is_disabled":false,"rental_uris":{"android":"levelo://app?vid=e6ae0d20-95f0-43fa-8142-615292335a78","ios":"levelo://app?vid=e6ae0d20-95f0-43fa-8142-615292335a78"},"vehicle_type_id":"4","last_reported":1728162427,"current_range_meters":6000,"station_id":"ce4bguh2rcd13ifvqckg","pricing_plan_id":"cebpf4jnsgd1na2vs0mg"},{"bike_id":"5305316b-eb43-43cb-bedf-3a735be36892","system_id":"levelo_inurba_marseille","lat":43.31715,"lon":5.43706,"is_reserved":false,"is_disabled":false,"rental_uris":{"android":"levelo://app?vid=5305316b-eb43-43cb-bedf-3a735be36892","ios":"levelo://app?vid=5305316b-eb43-43cb-bedf-3a735be36892"},"vehicle_type_id":"4","last_reported":1728162427,"current_range_meters":36400,"station_id":"ce4bhp92rcd13ifvqhcg","pricing_plan_id":"cebpf4jnsgd1na2vs0mg"},{"bike_id":"eee34d31-ec3d-4ac9-a98f-ccdfd67473c9","system_id":"levelo_inurba_marseille","lat":43.29554,"lon":5.42285,"is_reserved":false,"is_disabled":false,"rental_uris":{"android":"levelo://app?vid=eee34d31-ec3d-4ac9-a98f-ccdfd67473c9","ios":"levelo://app?vid=eee34d31-ec3d-4ac9-a98f-ccdfd67473c9"},"vehicle_type_id":"4","last_reported":1728162427,"current_range_meters":25200,"station_id":"ce4bhph2rcd13ifvqhdg","pricing_plan_id":"cebpf4jnsgd1na2vs0mg"},{"bike_id":"5bedbf98-9dc2-4ca3-b9b0-def39b3139ad","system_id":"levelo_inurba_marseille","lat":43.27826,"lon":5.39201,"is_reserved":false,"is_disabled":false,"rental_uris":{"android":"levelo://app?vid=5bedbf98-9dc2-4ca3-b9b0-def39b3139ad","ios":"levelo://app?vid=5bedbf98-9dc2-4ca3-b9b0-def39b3139ad"},"vehicle_type_id":"4","last_reported":1728162427,"current_range_meters":6000,"station_id":"ce4bhjp2rcd13ifvqga0","pricing_plan_id":"cebpf4jnsgd1na2vs0mg"},{"bike_id":"794fd757-8f78-4dba-84ef-d777e00f85e3","system_id":"levelo_inurba_marseille","lat":43.27981,"lon":5.38726,"is_reserved":false,"is_disabled":false,"rental_uris":{"android":"levelo://app?vid=794fd757-8f78-4dba-84ef-d777e00f85e3","ios":"levelo://app?vid=794fd757-8f78-4dba-84ef-d777e00f85e3"},"vehicle_type_id":"4","last_reported":1728162427,"current_range_meters":18800,"station_id":"ce4bhg12rcd13ifvqf80","pricing_plan_id":"cebpf4jnsgd1na2vs0mg"},{"bike_id":"87832641-6c2f-4cba-9da2-d90ed4710cfb","system_id":"levelo_inurba_marseille","lat":43.29876,"lon":5.39733,"is_reserved":false,"is_disabled":false,"rental_uris":{"android":"levelo://app?vid=87832641-6c2f-4cba-9da2-d90ed4710cfb","ios":"levelo://app?vid=87832641-6c2f-4cba-9da2-d90ed4710cfb"},"vehicle_type_id":"4","last_reported":1728162427,"current_range_meters":26800,"station_id":"ce4bh0h2rcd13ifvqd50","pricing_plan_id":"cebpf4jnsgd1na2vs0mg"},{"bike_id":"7b036207-8eea-43bf-a27b-8589126bb180","system_id":"levelo_inurba_marseille","lat":43.31485,"lon":5.37305,"is_reserved":false,"is_disabled":false,"rental_uris":{"android":"levelo://app?vid=7b036207-8eea-43bf-a27b-8589126bb180","ios":"levelo://app?vid=7b036207-8eea-43bf-a27b-8589126bb180"},"vehicle_type_id":"4","last_reported":1728162427,"current_range_meters":7200,"station_id":"ce4bgt12rcd13ifvqcd0","pricing_plan_id":"cebpf4jnsgd1na2vs0mg"},{"bike_id":"10f62f05-9ab7-4ff5-b18f-5a8aea638b28","system_id":"levelo_inurba_marseille","lat":43.31363,"lon":5.38505,"is_reserved":false,"is_disabled":false,"rental_uris":{"android":"levelo://app?vid=10f62f05-9ab7-4ff5-b18f-5a8aea638b28","ios":"levelo://app?vid=10f62f05-9ab7-4ff5-b18f-5a8aea638b28"},"vehicle_type_id":"4","last_reported":1728162427,"current_range_meters":19600,"station_id":"ce4bgt92rcd13ifvqcf0","pricing_plan_id":"cebpf4jnsgd1na2vs0mg"},{"bike_id":"a6e80516-5ecf-469d-885f-cd27ce20e77b","system_id":"levelo_inurba_marseille","lat":43.24176,"lon":5.36399,"is_reserved":false,"is_disabled":false,"rental_uris":{"android":"levelo://app?vid=a6e80516-5ecf-469d-885f-cd27ce20e77b","ios":"levelo://app?vid=a6e80516-5ecf-469d-885f-cd27ce20e77b"},