{"last_updated":1741267091,"ttl":60,"version":"2.2","data":{"bikes":[{"bike_id":"64ad3f0d-e2ae-4204-9e7f-203143b622b5","system_id":"levelo_inurba_marseille","lat":43.25572,"lon":5.38222,"is_reserved":false,"is_disabled":false,"rental_uris":{"android":"levelo://app?vid=64ad3f0d-e2ae-4204-9e7f-203143b622b5","ios":"levelo://app?vid=64ad3f0d-e2ae-4204-9e7f-203143b622b5"},"vehicle_type_id":"4","last_reported":1741267091,"current_range_meters":2800,"station_id":"ce4bhih2rcd13ifvqfs0","pricing_plan_id":"cebpf4jnsgd1na2vs0mg"},{"bike_id":"370a3e96-e335-475e-b8c4-d820c2031e58","system_id":"levelo_inurba_marseille","lat":43.29291,"lon":5.37448,"is_reserved":false,"is_disabled":false,"rental_uris":{"android":"levelo://app?vid=370a3e96-e335-475e-b8c4-d820c2031e58","ios":"levelo://app?vid=370a3e96-e335-475e-b8c4-d820c2031e58"},"vehicle_type_id":"4","last_reported":1741267091,"current_range_meters":2800,"station_id":"ce4bgi12rcd13ifvqb70","pricing_plan_id":"cebpf4jnsgd1na2vs0mg"},{"bike_id":"a00f651c-d582-402b-9470-0a80e01a8715","system_id":"levelo_inurba_marseille","lat":43.30144,"lon":5.39895,"is_reserved":false,"is_disabled":true,"rental_uris":{"android":"levelo://app?vid=a00f651c-d582-402b-9470-0a80e01a8715","ios":"levelo://app?vid=a00f651c-d582-402b-9470-0a80e01a8715"},"vehicle_type_id":"4","last_reported":1741267091,"current_range_meters":2800,"station_id":"ce4bh0h2rcd13ifvqd40","pricing_plan_id":"cebpf4jnsgd1na2vs0mg"},{"bike_id":"c03170f2-0136-4dd8-9846-5c8836a1824e","system_id":"levelo_inurba_marseille","lat":43.24668,"lon":5.43207,"is_reserved":false,"is_disabled":false,"rental_uris":{"android":"levelo://app?vid=c03170f2-0136-4dd8-9846-5c8836a1824e","ios":"levelo://app?vid=c03170f2-0136-4dd8-9846-5c8836a1824e"},"vehicle_type_id":"4","last_reported":1741267091,"current_range_meters":2800,"station_id":"","pricing_plan_id":"cebpf4jnsgd1na2vs0mg"},{"bike_id":"0f183cb6-6598-4c54-8280-853e81dcb286","system_id":"levelo_inurba_marseille","lat":43.27973,"lon":5.38738,"is_reserved":false,"is_disabled":false,"rental_uris":{"android":"levelo://app?vid=0f183cb6-6598-4c54-8280-853e81dcb286","ios":"levelo://app?vid=0f183cb6-6598-4c54-8280-853e81dcb286"},"vehicle_type_id":"4","last_reported":1741267091,"current_range_meters":3200,"station_id":"ce4bhg12rcd13ifvqf80","pricing_plan_id":"cebpf4jnsgd1na2vs0mg"},{"bike_id":"ff4c0e43-2823-47ee-adad-49bbb5289237","system_id":"levelo_inurba_marseille","lat":43.27809,"lon":5.40706,"is_reserved":false,"is_disabled":false,"rental_uris":{"android":"levelo://app?vid=ff4c0e43-2823-47ee-adad-49bbb5289237","ios":"levelo://app?vid=ff4c0e43-2823-47ee-adad-49bbb5289237"},"vehicle_type_id":"4","last_reported":1741267091,"current_range_meters":3200,"station_id":"ce4bhnh2rcd13ifvqgtg","pricing_plan_id":"cebpf4jnsgd1na2vs0mg"},{"bike_id":"f6662bde-1632-4b0f-a966-f86b33b7c3b9","system_id":"levelo_inurba_marseille","lat":43.33756,"lon":5.3745,"is_reserved":false,"is_disabled":false,"rental_uris":{"android":"levelo://app?vid=f6662bde-1632-4b0f-a966-f86b33b7c3b9","ios":"levelo://app?vid=f6662bde-1632-4b0f-a966-f86b33b7c3b9"},"vehicle_type_id":"4","last_reported":1741267091,"current_range_meters":3600,"station_id":"","pricing_plan_id":"cebpf4jnsgd1na2vs0mg"},{"bike_id":"95780694-258b-4c99-ae0f-9d2b38832307","system_id":"levelo_inurba_marseille","lat":43.28937,"lon":5.36636,"is_reserved":false,"is_disabled":false,"rental_uris":{"android":"levelo://app?vid=95780694-258b-4c99-ae0f-9d2b38832307","ios":"levelo://app?vid=95780694-258b-4c99-ae0f-9d2b38832307"},"vehicle_type_id":"4","last_reported":1741267091,"current_range_meters":3600,"station_id":"ce4bhap2rcd13ifvqek0","pricing_plan_id":"cebpf4jnsgd1na2vs0mg"},{"bike_id":"8922fede-acd6-4c12-931e-04ace08e5651","system_id":"levelo_inurba_marseille","lat":43.26952,"lon":5.38634,"is_reserved":false,"is_disabled":false,"rental_uris":{"android":"levelo://app?vid=8922fede-acd6-4c12-931e-04ace08e5651","ios":"levelo://app?vid=8922fede-acd6-4c12-931e-04ace08e5651"},"vehicle_type_id":"4","last_reported":1741267091,"current_range_meters":3600,"station_id":"ce4bhh92rcd13ifvqfh0","pricing_plan_id":"cebpf4jnsgd1na2vs0mg"},{"bike_id":"cdb2cc2f-42cf-4709-a031-7475c24fe039","system_id":"levelo_inurba_marseille","lat":43.25652,"lon":5.38249,"is_reserved":false,"is_disabled":false,"rental_uris":{"android":"levelo://app?vid=cdb2cc2f-42cf-4709-a031-7475c24fe039","ios":"levelo://app?vid=cdb2cc2f-42cf-4709-a031-7475c24fe039"},"vehicle_type_id":"4","last_reported":1741267091,"current_range_meters":4000,"station_id":"ce4bhgp2rcd13ifvqfd0","pricing_plan_id":"cebpf4jnsgd1na2vs0mg"},{"bike_id":"a38b76f8-6129-42f8-8e09-bbfc8a7d766b","system_id":"levelo_inurba_marseille","lat":43.28403,"lon":5.37512,"is_reserved":false,"is_disabled":false,"rental_uris":{"android":"levelo://app?vid=a38b76f8-6129-42f8-8e09-bbfc8a7d766b","ios":"levelo://app?vid=a38b76f8-6129-42f8-8e09-bbfc8a7d766b"},"vehicle_type_id":"4","last_reported":1741267091,"current_range_meters":4000,"station_id":"ce4bh412rcd13ifvqds0","pricing_plan_id":"cebpf4jnsgd1na2vs0mg"},{"bike_id":"ad8db6b3-2c07-47ff-a3a6-3eb7c7f05bb8","system_id":"levelo_inurba_marseille","lat":43.28713,"lon":5.37943,"is_reserved":false,"is_disabled":false,"rental_uris":{"android":"levelo://app?vid=ad8db6b3-2c07-47ff-a3a6-3eb7c7f05bb8","ios":"levelo://app?vid=ad8db6b3-2c07-47ff-a3a6-3eb7c7f05bb8"},"vehicle_type_id":"4","last_reported":1741267091,"current_range_meters":4000,"station_id":"ce4bh9p2rcd13ifvqec0","pricing_plan_id":"cebpf4jnsgd1na2vs0mg"},{"bike_id":"ee249383-1d30-4331-bbc0-10579563c324","system_id":"levelo_inurba_marseille","lat":43.26212,"lon":5.37434,"is_reserved":false,"is_disabled":false,"rental_uris":{"android":"levelo://app?vid=ee249383-1d30-4331-bbc0-10579563c324","ios":"levelo://app?vid=ee249383-1d30-4331-bbc0-10579563c324"},"vehicle_type_id":"4","last_reported":1741267091,"current_range_meters":4400,"station_id":"ce4bhgp2rcd13ifvqfc0","pricing_plan_id":"cebpf4jnsgd1na2vs0mg"},{"bike_id":"c9181474-071a-48c1-9e23-dc6456f80bde","system_id":"levelo_inurba_marseille","lat":43.32104,"lon":5.36772,"is_reserved":false,"is_disabled":false,"rental_uris":{"android":"levelo://app?vid=c9181474-071a-48c1-9e23-dc6456f80bde","ios":"levelo://app?vid=c9181474-071a-48c1-9e23-dc6456f80bde"},"vehicle_type_id":"4","last_reported":1741267091,"current_range_meters":4400,"station_id":"ce4bhrh2rcd13ifvqhug","pricing_plan_id":"cebpf4jnsgd1na2vs0mg"},{"bike_id":"d1769ab3-4963-4637-b720-96c25018635d","system_id":"levelo_inurba_marseille","lat":43.26213,"lon":5.37438,"is_reserved":false,"is_disabled":false,"rental_uris":{"android":"levelo://app?vid=d1769ab3-4963-4637-b720-96c25018635d","ios":"levelo://app?vid=d1769ab3-4963-4637-b720-96c25018635d"},"vehicle_type_id":"4","last_reported":1741267091,"current_range_meters":4400,"station_id":"ce4bhgp2rcd13ifvqfc0","pricing_plan_id":"cebpf4jnsgd1na2vs0mg"},{"bike_id":"26346da0-1a2b-4a57-8ea7-3053d2a3edc9","system_id":"levelo_inurba_marseille","lat":43.29261,"lon":5.40898,"is_reserved":false,"is_disabled":false,"rental_uris":{"android":"levelo://app?vid=26346da0-1a2b-4a57-8ea7-3053d2a3edc9","ios":"levelo://app?vid=26346da0-1a2b-4a57-8ea7-3053d2a3edc9"},"vehicle_type_id":"4","last_reported":1741267091,"current_range_meters":5600,"station_id":"ce4bh192rcd13ifvqdc0","pricing_plan_id":"cebpf4jnsgd1na2vs0mg"},{"bike_id":"adfca881-2638-43ee-933e-d9e17205d395","system_id":"levelo_inurba_marseille","lat":43.26502,"lon":5.39528,"is_reserved":false,"is_disabled":false,"rental_uris":{"android":"levelo://app?vid=adfca881-2638-43ee-933e-d9e17205d395","ios":"levelo://app?vid=adfca881-2638-43ee-933e-d9e17205d395"},"vehicle_type_id":"4","last_reported":1741267091,"current_range_meters":2000,"station_id":"ce4bhi12rcd13ifvqfq0","pricing_plan_id":"cebpf4jnsgd1na2vs0mg"},{"bike_id":"68e06086-89a2-47ad-86f6-9b4a96773981","system_id":"levelo_inurba_marseille","lat":43.26577,"lon":5.38998,"is_reserved":false,"is_disabled":false,"rental_uris":{"android":"levelo://app?vid=68e06086-89a2-47ad-86f6-9b4a96773981","ios":"levelo://app?vid=68e06086-89a2-47ad-86f6-9b4a96773981"},"vehicle_type_id":"4","last_reported":1741267091,"current_range_meters":4800,"station_id":"ce4bhe12rcd13ifvqf30","pricing_plan_id":"cebpf4jnsgd1na2vs0mg"},{"bike_id":"6ea067ad-0927-492e-ad44-171812dd1748","system_id":"levelo_inurba_marseille","lat":43.26261,"lon":5.40382,"is_reserved":false,"is_disabled":false,"rental_uris":{"android":"levelo://app?vid=6ea067ad-0927-492e-ad44-171812dd1748","ios":"levelo://app?vid=6ea067ad-0927-492e-ad44-171812dd1748"},"vehicle_type_id":"4","last_reported":1741267091,"current_range_meters":5600,"station_id":"ce4bhmh2rcd13ifvqgmg","pricing_plan_id":"cebpf4jnsgd1na2vs0mg"},{"bike_id":"62ca344f-279d-49f3-b7b3-477fa7870e6d","system_id":"levelo_inurba_marseille","lat":43.28442,"lon":5.3919,"is_reserved":false,"is_disabled":false,"rental_uris":{"android":"levelo://app?vid=62ca344f-279d-49f3-b7b3-477fa7870e6d","ios":"levelo://app?vid=62ca344f-279d-49f3-b7b3-477fa7870e6d"},"vehicle_type_id":"4","last_reported":1741267091,"current_range_meters":5600,"station_id":"ce4bhoh2rcd13ifvqh5g","pricing_plan_id":"cebpf4jnsgd1na2vs0mg"},{"bike_id":"cc2a72f0-483f-483e-b89d-7581bcebe52d","system_id":"levelo_inurba_marseille","lat":43.28716,"lon":5.37921,"is_reserved":false,"is_disabled":false,"rental_uris":{"android":"levelo://app?vid=cc2a72f0-483f-483e-b89d-7581bcebe52d","ios":"levelo://app?vid=cc2a72f0-483f-483e-b89d-7581bcebe52d"},"vehicle_type_id":"4","last_reported":1741267091,"current_range_meters":5600,"station_id":"ce4bh9p2rcd13ifvqec0","pricing_plan_id":"cebpf4jnsgd1na2vs0mg"},{"bike_id":"8f5fab38-6ebb-4ece-9439-5a8f4d759662","system_id":"levelo_inurba_marseille","lat":43.2608,"lon":5.39391,"is_reserved":false,"is_disabled":false,"rental_uris":{"android":"levelo://app?vid=8f5fab38-6ebb-4ece-9439-5a8f4d759662","ios":"levelo://app?vid=8f5fab38-6ebb-4ece-9439-5a8f4d759662"},"vehicle_type_id":"4","last_reported":1741267091,"current_range_meters":5600,"station_id":"ce4bhh92rcd13ifvqfj0","pricing_plan_id":"cebpf4jnsgd1na2vs0mg"},{"bike_id":"3439a580-4b13-4596-bc3a-9d40342307f1","system_id":"levelo_inurba_marseille","lat":43.32113,"lon":5.3676,"is_reserved":false,"is_disabled":false,"rental_uris":{"android":"levelo://app?vid=3439a580-4b13-4596-bc3a-9d40342307f1","ios":"levelo://app?vid=3439a580-4b13-4596-bc3a-9d40342307f1"},"vehicle_type_id":"4","last_reported":1741267091,"current_range_meters":5600,"station_id":"ce4bhrh2rcd13ifvqhug","pricing_plan_id":"cebpf4jnsgd1na2vs0mg"},{"bike_id":"9a4ee881-5327-475b-a07b-46e6fc0999e0","system_id":"levelo_inurba_marseille","lat":43.30911,"lon":5.3685,"is_reserved":false,"is_disabled":false,"rental_uris":{"android":"levelo://app?vid=9a4ee881-5327-475b-a07b-46e6fc0999e0","ios":"levelo://app?vid=9a4ee881-5327-475b-a07b-46e6fc0999e0"},"vehicle_type_id":"4","last_reported":1741267091,"current_range_meters":6000,"station_id":"ce4bgn92rcd13ifvqbvg","pricing_plan_id":"cebpf4jnsgd1na2vs0mg"},{"bike_id":"7872a017-bcf6-4f1b-8b30-7922da2f3220","system_id":"levelo_inurba_marseille","lat":43.26566,"lon":5.37273,"is_reserved":false,"is_disabled":false,"rental_uris":{"android":"levelo://app?vid=7872a017-bcf6-4f1b-8b30-7922da2f3220","ios":"levelo://app?vid=7872a017-bcf6-4f1b-8b30-7922da2f3220"},"vehicle_type_id":"4","last_reported":1741267091,"current_range_meters":6000,"station_id":"ce4bhg12rcd13ifvqf70","pricing_plan_id":"cebpf4jnsgd1na2vs0mg"},{"bike_id":"798acd2b-25fe-4105-b652-b2441316d3ae","system_id":"levelo_inurba_marseille","lat":43.26677,"lon":5.38262,"is_reserved":false,"is_disabled":false,"rental_uris":{"android":"levelo://app?vid=798acd2b-25fe-4105-b652-b2441316d3ae","ios":"levelo://app?vid=798acd2b-25fe-4105-b652-b2441316d3ae"},"vehicle_type_id":"4","last_reported":1741267091,"current_range_meters":6000,"station_id":"ce4bhg92rcd13ifvqf90","pricing_plan_id":"cebpf4jnsgd1na2vs0mg"},{"bike_id":"1c0978b7-e0b0-4c04-8863-236630968acd","system_id":"levelo_inurba_marseille","lat":43.25929,"lon":5.40902,"is_reserved":false,"is_disabled":false,"rental_uris":{"android":"levelo://app?vid=1c0978b7-e0b0-4c04-8863-236630968acd","ios":"levelo://app?vid=1c0978b7-e0b0-4c04-8863-236630968acd"},"vehicle_type_id":"4","last_reported":1741267091,"current_range_meters":6400,"station_id":"ce4bhm92rcd13ifvqglg","pricing_plan_id":"cebpf4jnsgd1na2vs0mg"},{"bike_id":"0072baa2-5ee5-490a-aff5-898d4f86e5f0","system_id":"levelo_inurba_marseille","lat":43.25817,"lon":5.3944,"is_reserved":false,"is_disabled":false,"rental_uris":{"android":"levelo://app?vid=0072baa2-5ee5-490a-aff5-898d4f86e5f0","ios":"levelo://app?vid=0072baa2-5ee5-490a-aff5-898d4f86e5f0"},"vehicle_type_id":"4","last_reported":1741267091,"current_range_meters":6000,"station_id":"ce4bhip2rcd13ifvqft0","pricing_plan_id":"cebpf4jnsgd1na2vs0mg"},{"bike_id":"ed658983-ed9c-4fca-8a9d-4be7f4b03ae1","system_id":"levelo_inurba_marseille","lat":43.26691,"lon":5.38261,"is_reserved":false,"is_disabled":false,"rental_uris":{"android":"levelo://app?vid=ed658983-ed9c-4fca-8a9d-4be7f4b03ae1","ios":"levelo://app?vid=ed658983-ed9c-4fca-8a9d-4be7f4b03ae1"},"vehicle_type_id":"4","last_reported":1741267091,"current_range_meters":6400,"station_id":"ce4bhg92rcd13ifvqf90","pricing_plan_id":"cebpf4jnsgd1na2vs0mg"},{"bike_id":"9cf4424a-d652-4e52-8386-b9160d81072b","system_id":"levelo_inurba_marseille","lat":43.30306,"lon":5.369,"is_reserved":false,"is_disabled":false,"rental_uris":{"android":"levelo://app?vid=9cf4424a-d652-4e52-8386-b9160d81072b","ios":"levelo://app?vid=9cf4424a-d652-4e52-8386-b9160d81072b"},"vehicle_type_id":"4","last_reported":1741267091,"current_range_meters":6400,"station_id":"ce4bgqh2rcd13ifvqc5g","pricing_plan_id":"cebpf4jnsgd1na2vs0mg"},{"bike_id":"bef2af2a-4b13-4f10-8d0b-f6100cb40ac2","system_id":"levelo_inurba_marseille","lat":43.26223,"lon":5.4045,"is_reserved":false,"is_disabled":false,"rental_uris":{"android":"levelo://app?vid=bef2af2a-4b13-4f10-8d0b-f6100cb40ac2","ios":"levelo://app?vid=bef2af2a-4b13-4f10-8d0b-f6100cb40ac2"},"vehicle_type_id":"4","last_reported":1741267091,"current_range_meters":6400,"station_id":"ce4bhmh2rcd13ifvqgmg","pricing_plan_id":"cebpf4jnsgd1na2vs0mg"},{"bike_id":"c5e96314-9982-4085-b922-0389ce3f9cd4","system_id":"levelo_inurba_marseille","lat":43.30138,"lon":5.3742,"is_reserved":false,"is_disabled":false,"rental_uris":{"android":"levelo://app?vid=c5e96314-9982-4085-b922-0389ce3f9cd4","ios":"levelo://app?vid=c5e96314-9982-4085-b922-0389ce3f9cd4"},"vehicle_type_id":"4","last_reported":1741267091,"current_range_meters":6400,"station_id":"ce4bgs92rcd13ifvqcc0","pricing_plan_id":"cebpf4jnsgd1na2vs0mg"},{"bike_id":"686a6f4f-5826-4dff-9b15-679ea02be469","system_id":"levelo_inurba_marseille","lat":43.30134,"lon":5.39868,"is_reserved":false,"is_disabled":false,"rental_uris":{"android":"levelo://app?vid=686a6f4f-5826-4dff-9b15-679ea02be469","ios":"levelo://app?vid=686a6f4f-5826-4dff-9b15-679ea02be469"},"vehicle_type_id":"4","last_reported":1741267091,"current_range_meters":6400,"station_id":"ce4bh0h2rcd13ifvqd40","pricing_plan_id":"cebpf4jnsgd1na2vs0mg"},{"bike_id":"e3ac38ef-8b84-4a36-b6cf-bacb45daba21","system_id":"levelo_inurba_marseille","lat":43.28477,"lon":5.38415,"is_reserved":false,"is_disabled":false,"rental_uris":{"android":"levelo://app?vid=e3ac38ef-8b84-4a36-b6cf-bacb45daba21","ios":"levelo://app?vid=e3ac38ef-8b84-4a36-b6cf-bacb45daba21"},"vehicle_type_id":"4","last_reported":1741267091,"current_range_meters":6400,"station_id":"ce4bhjp2rcd13ifvqg90","pricing_plan_id":"cebpf4jnsgd1na2vs0mg"},{"bike_id":"a508c450-2471-4823-b989-5917711248cb","system_id":"levelo_inurba_marseille","lat":43.27063,"lon":5.40259,"is_reserved":false,"is_disabled":false,"rental_uris":{"android":"levelo://app?vid=a508c450-2471-4823-b989-5917711248cb","ios":"levelo://app?vid=a508c450-2471-4823-b989-5917711248cb"},"vehicle_type_id":"4","last_reported":1741267091,"current_range_meters":6800,"station_id":"ce4bhk92rcd13ifvqgc0","pricing_plan_id":"cebpf4jnsgd1na2vs0mg"},{"bike_id":"fc7a23e3-fdb7-4c76-bbff-751f483bcc9a","system_id":"levelo_inurba_marseille","lat":43.28974,"lon":5.37836,"is_reserved":false,"is_disabled":false,"rental_uris":{"android":"levelo://app?vid=fc7a23e3-fdb7-4c76-bbff-751f483bcc9a","ios":"levelo://app?vid=fc7a23e3-fdb7-4c76-bbff-751f483bcc9a"},"vehicle_type_id":"4","last_reported":1741267091,"current_range_meters":6800,"station_id":"ce4bh9p2rcd13ifvqed0","pricing_plan_id":"cebpf4jnsgd1na2vs0mg"},{"bike_id":"19efd70f-ded3-49b8-bb74-e9ec18104730","system_id":"levelo_inurba_marseille","lat":43.29252,"lon":5.37625,"is_reserved":false,"is_disabled":false,"rental_uris":{"android":"levelo://app?vid=19efd70f-ded3-49b8-bb74-e9ec18104730","ios":"levelo://app?vid=19efd70f-ded3-49b8-bb74-e9ec18104730"},"vehicle_type_id":"4","last_reported":1741267091,"current_range_meters":6800,"station_id":"ce4bgi12rcd13ifvqb80","pricing_plan_id":"cebpf4jnsgd1na2vs0mg"},{"bike_id":"59b68460-f270-4c7d-a6b9-c0f7a4155701","system_id":"levelo_inurba_marseille","lat":43.28844,"lon":5.39326,"is_reserved":false,"is_disabled":false,"rental_uris":{"android":"levelo://app?vid=59b68460-f270-4c7d-a6b9-c0f7a4155701","ios":"levelo://app?vid=59b68460-f270-4c7d-a6b9-c0f7a4155701"},"vehicle_type_id":"4","last_reported":1741267091,"current_range_meters":6800,"station_id":"ce4bh2p2rcd13ifvqdi0","pricing_plan_id":"cebpf4jnsgd1na2vs0mg"},{"bike_id":"6d5c19bb-bfbf-43be-b5e9-ed3f4497cd4b","system_id":"levelo_inurba_marseille","lat":43.26563,"lon":5.37286,"is_reserved":false,"is_disabled":false,"rental_uris":{"android":"levelo://app?vid=6d5c19bb-bfbf-43be-b5e9-ed3f4497cd4b","ios":"levelo://app?vid=6d5c19bb-bfbf-43be-b5e9-ed3f4497cd4b"},"vehicle_type_id":"4","last_reported":1741267091,"current_range_meters":6800,"station_id":"ce4bhg12rcd13ifvqf70","pricing_plan_id":"cebpf4jnsgd1na2vs0mg"},{"bike_id":"7a9136d8-ff26-492a-bfc3-14d6b4036cce","system_id":"levelo_inurba_marseille","lat":43.27197,"lon":5.40955,"is_reserved":false,"is_disabled":false,"rental_uris":{"android":"levelo://app?vid=7a9136d8-ff26-492a-bfc3-14d6b4036cce","ios":"levelo://app?vid=7a9136d8-ff26-492a-bfc3-14d6b4036cce"},"vehicle_type_id":"4","last_reported":1741267091,"current_range_meters":6800,"station_id":"ce4bhl12rcd13ifvqgf0","pricing_plan_id":"cebpf4jnsgd1na2vs0mg"},{"bike_id":"a1d5ac6f-2c73-4018-826f-9a22635bffc6","system_id":"levelo_inurba_marseille","lat":43.28727,"lon":5.37933,"is_reserved":false,"is_disabled":false,"rental_uris":{"android":"levelo://app?vid=a1d5ac6f-2c73-4018-826f-9a22635bffc6","ios":"levelo://app?vid=a1d5ac6f-2c73-4018-826f-9a22635bffc6"},"vehicle_type_id":"4","last_reported":1741267091,"current_range_meters":6800,"station_id":"ce4bh9p2rcd13ifvqec0","pricing_plan_id":"cebpf4jnsgd1na2vs0mg"},{"bike_id":"8084e1f1-202c-4aa0-9f76-e1e9ccd31c08","system_id":"levelo_inurba_marseille","lat":43.28351,"lon":5.38098,"is_reserved":false,"is_disabled":false,"rental_uris":{"android":"levelo://app?vid=8084e1f1-202c-4aa0-9f76-e1e9ccd31c08","ios":"levelo://app?vid=8084e1f1-202c-4aa0-9f76-e1e9ccd31c08"},"vehicle_type_id":"4","last_reported":1741267091,"current_range_meters":6800,"station_id":"ce4bh412rcd13ifvqdr0","pricing_plan_id":"cebpf4jnsgd1na2vs0mg"},{"bike_id":"e59fccdd-f60b-4fcf-8101-4a747bffb1c1","system_id":"levelo_inurba_marseille","lat":43.244,"lon":5.37049,"is_reserved":false,"is_disabled":false,"rental_uris":{"android":"levelo://app?vid=e59fccdd-f60b-4fcf-8101-4a747bffb1c1","ios":"levelo://app?vid=e59fccdd-f60b-4fcf-8101-4a747bffb1c1"},"vehicle_type_id":"4","last_reported":1741267091,"current_range_meters":6800,"station_id":"ce4bhhh2rcd13ifvqfk0","pricing_plan_id":"cebpf4jnsgd1na2vs0mg"},{"bike_id":"f09e644f-772b-4eb1-9590-20c4ee26323b","system_id":"levelo_inurba_marseille","lat":43.2985,"lon":5.36288,"is_reserved":false,"is_disabled":true,"rental_uris":{"android":"levelo://app?vid=f09e644f-772b-4eb1-9590-20c4ee26323b","ios":"levelo://app?vid=f09e644f-772b-4eb1-9590-20c4ee26323b"},"vehicle_type_id":"4","last_reported":1741267091,"current_range_meters":7200,"station_id":"ce4bgpp2rcd13ifvqc3g","pricing_plan_id":"cebpf4jnsgd1na2vs0mg"},{"bike_id":"58f3a552-9cb3-45ec-abb4-78742954dab2","system_id":"levelo_inurba_marseille","lat":43.29777,"lon":5.39336,"is_reserved":false,"is_disabled":false,"rental_uris":{"android":"levelo://app?vid=58f3a552-9cb3-45ec-abb4-78742954dab2","ios":"levelo://app?vid=58f3a552-9cb3-45ec-abb4-78742954dab2"},"vehicle_type_id":"4","last_reported":1741267091,"current_range_meters":6800,"station_id":"chh1huq6cuj3fo74tm60","pricing_plan_id":"cebpf4jnsgd1na2vs0mg"},{"bike_id":"f5023c05-3266-41c5-bd0b-7f6c199177f5","system_id":"levelo_inurba_marseille","lat":43.31482,"lon":5.37309,"is_reserved":false,"is_disabled":false,"rental_uris":{"android":"levelo://app?vid=f5023c05-3266-41c5-bd0b-7f6c199177f5","ios":"levelo://app?vid=f5023c05-3266-41c5-bd0b-7f6c199177f5"},"vehicle_type_id":"4","last_reported":1741267091,"current_range_meters":7200,"station_id":"ce4bgt12rcd13ifvqcd0","pricing_plan_id":"cebpf4jnsgd1na2vs0mg"},{"bike_id":"93ca3b70-81fd-4606-b0f0-eacd4f8b03b3","system_id":"levelo_inurba_marseille","lat":43.28449,"lon":5.35895,"is_reserved":false,"is_disabled":false,"rental_uris":{"android":"levelo://app?vid=93ca3b70-81fd-4606-b0f0-eacd4f8b03b3","ios":"levelo://app?vid=93ca3b70-81fd-4606-b0f0-eacd4f8b03b3"},"vehicle_type_id":"4","last_reported":1741267091,"current_range_meters":7200,"station_id":"ce4bhah2rcd13ifvqei0","pricing_plan_id":"cebpf4jnsgd1na2vs0mg"},{"bike_id":"b85d017b-6a01-4685-aff5-ab816144f26c","system_id":"levelo_inurba_marseille","lat":43.297103,"lon":5.366057,"is_reserved":false,"is_disabled":false,"rental_uris":{"android":"levelo://app?vid=b85d017b-6a01-4685-aff5-ab816144f26c","ios":"levelo://app?vid=b85d017b-6a01-4685-aff5-ab816144f26c"},"vehicle_type_id":"4","last_reported":1741267091,"current_range_meters":7200,"station_id":"ce4bgn12rcd13ifvqbt0","pricing_plan_id":"cebpf4jnsgd1na2vs0mg"},{"bike_id":"949c7525-6c99-4873-99e4-3cc4741ac7cd","system_id":"levelo_inurba_marseille","lat":43.30457,"lon":5.37899,"is_reserved":false,"is_disabled":false,"rental_uris":{"android":"levelo://app?vid=949c7525-6c99-4873-99e4-3cc4741ac7cd","ios":"levelo://app?vid=949c7525-6c99-4873-99e4-3cc4741ac7cd"},"vehicle_type_id":"4","last_reported":1741267091,"current_range_meters":8000,"station_id":"ce4bgup2rcd13ifvqcn0","pricing_plan_id":"cebpf4jnsgd1na2vs0mg"},{"bike_id":"3b56de4a-494d-4a53-becf-aa2a3f986b1b","system_id":"levelo_inurba_marseille","lat":43.2695,"lon":5.38628,"is_reserved":false,"is_disabled":false,"rental_uris":{"android":"levelo://app?vid=3b56de4a-494d-4a53-becf-aa2a3f986b1b","ios":"levelo://app?vid=3b56de4a-494d-4a53-becf-aa2a3f986b1b"},"vehicle_type_id":"4","last_reported":1741267091,"current_range_meters":8000,"station_id":"ce4bhh92rcd13ifvqfh0","pricing_plan_id":"cebpf4jnsgd1na2vs0mg"},{"bike_id":"87cc2b62-b442-4215-a043-611256d11643","system_id":"levelo_inurba_marseille","lat":43.3109,"lon":5.42419,"is_reserved":false,"is_disabled":false,"rental_uris":{"android":"levelo://app?vid=87cc2b62-b442-4215-a043-611256d11643","ios":"levelo://app?vid=87cc2b62-b442-4215-a043-611256d11643"},"vehicle_type_id":"4","last_reported":1741267091,"current_range_meters":8000,"station_id":"ce4bhp92rcd13ifvqhag","pricing_plan_id":"cebpf4jnsgd1na2vs0mg"},{"bike_id":"423bf051-8930-4ea7-a1eb-89c6f2901cdd","system_id":"levelo_inurba_marseille","lat":43.30544,"lon":5.3653,"is_reserved":false,"is_disabled":false,"rental_uris":{"android":"levelo://app?vid=423bf051-8930-4ea7-a1eb-89c6f2901cdd","ios":"levelo://app?vid=423bf051-8930-4ea7-a1eb-89c6f2901cdd"},"vehicle_type_id":"4","last_reported":1741267091,"current_range_meters":8000,"station_id":"ce4bgs12rcd13ifvqcag","pricing_plan_id":"cebpf4jnsgd1na2vs0mg"},{"bike_id":"820e2ccc-27d1-4a08-aee8-2f7720b333c2","system_id":"levelo_inurba_marseille","lat":43.2884,"lon":5.39311,"is_reserved":false,"is_disabled":false,"rental_uris":{"android":"levelo://app?vid=820e2ccc-27d1-4a08-aee8-2f7720b333c2","ios":"levelo://app?vid=820e2ccc-27d1-4a08-aee8-2f7720b333c2"},"vehicle_type_id":"4","last_reported":1741267091,"current_range_meters":8000,"station_id":"ce4bh2p2rcd13ifvqdi0","pricing_plan_id":"cebpf4jnsgd1na2vs0mg"},{"bike_id":"c40b1ded-ef53-4898-9531-22cef0944718","system_id":"levelo_inurba_marseille","lat":43.290131,"lon":5.38124,"is_reserved":false,"is_disabled":false,"rental_uris":{"android":"levelo://app?vid=c40b1ded-ef53-4898-9531-22cef0944718","ios":"levelo://app?vid=c40b1ded-ef53-4898-9531-22cef0944718"},"vehicle_type_id":"4","last_reported":1741267091,"current_range_meters":8000,"station_id":"ce4bh4p2rcd13ifvqe1g","pricing_plan_id":"cebpf4jnsgd1na2vs0mg"},{"bike_id":"0070241e-6485-4656-afab-17d6a706db90","system_id":"levelo_inurba_marseille","lat":43.30592,"lon":5.39358,"is_reserved":false,"is_disabled":false,"rental_uris":{"android":"levelo://app?vid=0070241e-6485-4656-afab-17d6a706db90","ios":"levelo://app?vid=0070241e-6485-4656-afab-17d6a706db90"},"vehicle_type_id":"4","last_reported":1741267091,"current_range_meters":8400,"station_id":"ce4bh0p2rcd13ifvqd80","pricing_plan_id":"cebpf4jnsgd1na2vs0mg"},{"bike_id":"1320cb7f-03a0-4950-ad1f-e831f6d28142","system_id":"levelo_inurba_marseille","lat":43.27945,"lon":5.41035,"is_reserved":false,"is_disabled":false,"rental_uris":{"android":"levelo://app?vid=1320cb7f-03a0-4950-ad1f-e831f6d28142","ios":"levelo://app?vid=1320cb7f-03a0-4950-ad1f-e831f6d28142"},"vehicle_type_id":"4","last_reported":1741267091,"current_range_meters":8400,"station_id":"ce4bhnp2rcd13ifvqh0g","pricing_plan_id":"cebpf4jnsgd1na2vs0mg"},{"bike_id":"140f2fe1-b00a-4cfa-9bb3-beab07803fc0","system_id":"levelo_inurba_marseille","lat":43.29265,"lon":5.40121,"is_reserved":false,"is_disabled":false,"rental_uris":{"android":"levelo://app?vid=140f2fe1-b00a-4cfa-9bb3-beab07803fc0","ios":"levelo://app?vid=140f2fe1-b00a-4cfa-9bb3-beab07803fc0"},"vehicle_type_id":"4","last_reported":1741267091,"current_range_meters":8400,"station_id":"ce4bh312rcd13ifvqdk0","pricing_plan_id":"cebpf4jnsgd1na2vs0mg"},{"bike_id":"14ec57cb-179b-4206-812f-fe514bf8347a","system_id":"levelo_inurba_marseille","lat":43.31241,"lon":5.36858,"is_reserved":false,"is_disabled":false,"rental_uris":{"android":"levelo://app?vid=14ec57cb-179b-4206-812f-fe514bf8347a","ios":"levelo://app?vid=14ec57cb-179b-4206-812f-fe514bf8347a"},"vehicle_type_id":"4","last_reported":1741267091,"current_range_meters":8400,"station_id":"ce4bgl92rcd13ifvqbq0","pricing_plan_id":"cebpf4jnsgd1na2vs0mg"},{"bike_id":"ab82db10-e088-420a-abad-5538633943e3","system_id":"levelo_inurba_marseille","lat":43.28359,"lon":5.38627,"is_reserved":false,"is_disabled":false,"rental_uris":{"android":"levelo://app?vid=ab82db10-e088-420a-abad-5538633943e3","ios":"levelo://app?vid=ab82db10-e088-420a-abad-5538633943e3"},"vehicle_type_id":"4","last_reported":1741267091,"current_range_meters":8400,"station_id":"ce4bh492rcd13ifvqdvg","pricing_plan_id":"cebpf4jnsgd1na2vs0mg"},{"bike_id":"ffc7e381-cf33-4d0e-ba96-b534aed4f192","system_id":"levelo_inurba_marseille","lat":43.291,"lon":5.38137,"is_reserved":false,"is_disabled":false,"rental_uris":{"android":"levelo://app?vid=ffc7e381-cf33-4d0e-ba96-b534aed4f192","ios":"levelo://app?vid=ffc7e381-cf33-4d0e-ba96-b534aed4f192"},"vehicle_type_id":"4","last_reported":1741267091,"current_range_meters":8000,"station_id":"ce4bh512rcd13ifvqe2g","pricing_plan_id":"cebpf4jnsgd1na2vs0mg"},{"bike_id":"86723d49-325c-4da0-97b3-2b48647b3a72","system_id":"levelo_inurba_marseille","lat":43.29963,"lon":5.413249,"is_reserved":false,"is_disabled":false,"rental_uris":{"android":"levelo://app?vid=86723d49-325c-4da0-97b3-2b48647b3a72","ios":"levelo://app?vid=86723d49-325c-4da0-97b3-2b48647b3a72"},"vehicle_type_id":"4","last_reported":1741267091,"current_range_meters":8400,"station_id":"ce4bhp12rcd13ifvqh9g","pricing_plan_id":"cebpf4jnsgd1na2vs0mg"},{"bike_id":"91788c44-174b-45b7-9224-1d532cdfec4d","system_id":"levelo_inurba_marseille","lat":43.25867,"lon":5.39904,"is_reserved":false,"is_disabled":false,"rental_uris":{"android":"levelo://app?vid=91788c44-174b-45b7-9224-1d532cdfec4d","ios":"levelo://app?vid=91788c44-174b-45b7-9224-1d532cdfec4d"},"vehicle_type_id":"4","last_reported":1741267091,"current_range_meters":8000,"station_id":"ce4bhl92rcd13ifvqghg","pricing_plan_id":"cebpf4jnsgd1na2vs0mg"},{"bike_id":"85ee9588-f81a-4c88-802c-f27bbd0c8743","system_id":"levelo_inurba_marseille","lat":43.24652,"lon":5.38893,"is_reserved":false,"is_disabled":false,"rental_uris":{"android":"levelo://app?vid=85ee9588-f81a-4c88-802c-f27bbd0c8743","ios":"levelo://app?vid=85ee9588-f81a-4c88-802c-f27bbd0c8743"},"vehicle_type_id":"4","last_reported":1741267091,"current_range_meters":8000,"station_id":"ce4bhg12rcd13ifvqf60","pricing_plan_id":"cebpf4jnsgd1na2vs0mg"},{"bike_id":"6a466a18-6158-47da-9e87-6f9644a55fbd","system_id":"levelo_inurba_marseille","lat":43.31349,"lon":5.36696,"is_reserved":false,"is_disabled":false,"rental_uris":{"android":"levelo://app?vid=6a466a18-6158-47da-9e87-6f9644a55fbd","ios":"levelo://app?vid=6a466a18-6158-47da-9e87-6f9644a55fbd"},"vehicle_type_id":"4","last_reported":1741267091,"current_range_meters":8800,"station_id":"ce4bgr92rcd13ifvqc6g","pricing_plan_id":"cebpf4jnsgd1na2vs0mg"},{"bike_id":"4745ff99-6e02-48bd-bb85-324b653b0068","system_id":"levelo_inurba_marseille","lat":43.26213,"lon":5.37441,"is_reserved":false,"is_disabled":false,"rental_uris":{"android":"levelo://app?vid=4745ff99-6e02-48bd-bb85-324b653b0068","ios":"levelo://app?vid=4745ff99-6e02-48bd-bb85-324b653b0068"},"vehicle_type_id":"4","last_reported":1741267091,"current_range_meters":8800,"station_id":"ce4bhgp2rcd13ifvqfc0","pricing_plan_id":"cebpf4jnsgd1na2vs0mg"},{"bike_id":"7be10eac-e616-4904-8cdc-c543b04d589f","system_id":"levelo_inurba_marseille","lat":43.2417,"lon":5.364,"is_reserved":false,"is_disabled":false,"rental_uris":{"android":"levelo://app?vid=7be10eac-e616-4904-8cdc-c543b04d589f","ios":"levelo://app?vid=7be10eac-e616-4904-8cdc-c543b04d589f"},"vehicle_type_id":"4","last_reported":1741267091,"current_range_meters":8800,"station_id":"cpo36qri1sfpv3e86is0","pricing_plan_id":"cebpf4jnsgd1na2vs0mg"},{"bike_id":"24cdf152-42fe-4f34-80ac-7bdbcee9ddb4","system_id":"levelo_inurba_marseille","lat":43.2417,"lon":5.39727,"is_reserved":false,"is_disabled":false,"rental_uris":{"android":"levelo://app?vid=24cdf152-42fe-4f34-80ac-7bdbcee9ddb4","ios":"levelo://app?vid=24cdf152-42fe-4f34-80ac-7bdbcee9ddb4"},"vehicle_type_id":"4","last_reported":1741267091,"current_range_meters":8800,"station_id":"ce4bhn12rcd13ifvqgpg","pricing_plan_id":"cebpf4jnsgd1na2vs0mg"},{"bike_id":"482499a3-ad00-4fa3-b719-6aaa9a426891","system_id":"levelo_inurba_marseille","lat":43.23147,"lon":5.43721,"is_reserved":false,"is_disabled":false,"rental_uris":{"android":"levelo://app?vid=482499a3-ad00-4fa3-b719-6aaa9a426891","ios":"levelo://app?vid=482499a3-ad00-4fa3-b719-6aaa9a426891"},"vehicle_type_id":"4","last_reported":1741267091,"current_range_meters":8400,"station_id":"ce4bhmp2rcd13ifvqgog","pricing_plan_id":"cebpf4jnsgd1na2vs0mg"},{"bike_id":"951b107f-f0eb-40e8-8c2d-ed26e73d0648","system_id":"levelo_inurba_marseille","lat":43.28143,"lon":5.4261,"is_reserved":false,"is_disabled":false,"rental_uris":{"android":"levelo://app?vid=951b107f-f0eb-40e8-8c2d-ed26e73d0648","ios":"levelo://app?vid=951b107f-f0eb-40e8-8c2d-ed26e73d0648"},"vehicle_type_id":"4","last_reported":1741267091,"current_range_meters":9200,"station_id":"ce4bhnh2rcd13ifvqgug","pricing_plan_id":"cebpf4jnsgd1na2vs0mg"},{"bike_id":"ffef89c5-5826-4942-bf94-a15b9822e41c","system_id":"levelo_inurba_marseille","lat":43.32044,"lon":5.41547,"is_reserved":false,"is_disabled":false,"rental_uris":{"android":"levelo://app?vid=ffef89c5-5826-4942-bf94-a15b9822e41c","ios":"levelo://app?vid=ffef89c5-5826-4942-bf94-a15b9822e41c"},"vehicle_type_id":"4","last_reported":1741267091,"current_range_meters":8800,"station_id":"ce4bhq92rcd13ifvqhkg","pricing_plan_id":"cebpf4jnsgd1na2vs0mg"},{"bike_id":"565c699f-172b-4fa9-b14b-91624dd55667","system_id":"levelo_inurba_marseille","lat":43.27278,"lon":5.423741,"is_reserved":false,"is_disabled":false,"rental_uris":{"android":"levelo://app?vid=565c699f-172b-4fa9-b14b-91624dd55667","ios":"levelo://app?vid=565c699f-172b-4fa9-b14b-91624dd55667"},"vehicle_type_id":"4","last_reported":1741267091,"current_range_meters":9200,"station_id":"ce4bhn92rcd13ifvqgrg","pricing_plan_id":"cebpf4jnsgd1na2vs0mg"},{"bike_id":"fdde8103-1f2a-4455-bcfa-e1d74ecb0194","system_id":"levelo_inurba_marseille","lat":43.27814,"lon":5.40704,"is_reserved":false,"is_disabled":false,"rental_uris":{"android":"levelo://app?vid=fdde8103-1f2a-4455-bcfa-e1d74ecb0194","ios":"levelo://app?vid=fdde8103-1f2a-4455-bcfa-e1d74ecb0194"},"vehicle_type_id":"4","last_reported":1741267091,"current_range_meters":9200,"station_id":"ce4bhnh2rcd13ifvqgtg","pricing_plan_id":"cebpf4jnsgd1na2vs0mg"},{"bike_id":"e0c0bec3-454a-410d-a60f-3aed516ec149","system_id":"levelo_inurba_marseille","lat":43.23192,"lon":5.35553,"is_reserved":false,"is_disabled":false,"rental_uris":{"android":"levelo://app?vid=e0c0bec3-454a-410d-a60f-3aed516ec149","ios":"levelo://app?vid=e0c0bec3-454a-410d-a60f-3aed516ec149"},"vehicle_type_id":"4","last_reported":1741267091,"current_range_meters":9600,"station_id":"ce4bhu92rcd13ifvqi70","pricing_plan_id":"cebpf4jnsgd1na2vs0mg"},{"bike_id":"3b33c8c2-0dee-4de3-878e-83aee00ed1e8","system_id":"levelo_inurba_marseille","lat":43.30948,"lon":5.39035,"is_reserved":false,"is_disabled":false,"rental_uris":{"android":"levelo://app?vid=3b33c8c2-0dee-4de3-878e-83aee00ed1e8","ios":"levelo://app?vid=3b33c8c2-0dee-4de3-878e-83aee00ed1e8"},"vehicle_type_id":"4","last_reported":1741267091,"current_range_meters":10000,"station_id":"ce4bgup2rcd13ifvqco0","pricing_plan_id":"cebpf4jnsgd1na2vs0mg"},{"bike_id":"3aa3c7c6-5d08-4fe3-b4a1-aab678ef2008","system_id":"levelo_inurba_marseille","lat":43.28935,"lon":5.3663,"is_reserved":false,"is_disabled":false,"rental_uris":{"android":"levelo://app?vid=3aa3c7c6-5d08-4fe3-b4a1-aab678ef2008","ios":"levelo://app?vid=3aa3c7c6-5d08-4fe3-b4a1-aab678ef2008"},"vehicle_type_id":"4","last_reported":1741267091,"current_range_meters":9200,"station_id":"ce4bhap2rcd13ifvqek0","pricing_plan_id":"cebpf4jnsgd1na2vs0mg"},{"bike_id":"bfec0831-cf8f-40a3-b576-b0a769dfdbbb","system_id":"levelo_inurba_marseille","lat":43.29968,"lon":5.41335,"is_reserved":false,"is_disabled":true,"rental_uris":{"android":"levelo://app?vid=bfec0831-cf8f-40a3-b576-b0a769dfdbbb","ios":"levelo://app?vid=bfec0831-cf8f-40a3-b576-b0a769dfdbbb"},"vehicle_type_id":"4","last_reported":1741267091,"current_range_meters":9600,"station_id":"ce4bhp12rcd13ifvqh9g","pricing_plan_id":"cebpf4jnsgd1na2vs0mg"},{"bike_id":"16063099-28c1-42d4-a56e-3be9f5bb543c","system_id":"levelo_inurba_marseille","lat":43.26212,"lon":5.37439,"is_reserved":false,"is_disabled":false,"rental_uris":{"android":"levelo://app?vid=16063099-28c1-42d4-a56e-3be9f5bb543c","ios":"levelo://app?vid=16063099-28c1-42d4-a56e-3be9f5bb543c"},"vehicle_type_id":"4","last_reported":1741267091,"current_range_meters":9600,"station_id":"ce4bhgp2rcd13ifvqfc0","pricing_plan_id":"cebpf4jnsgd1na2vs0mg"},{"bike_id":"ac5edf20-7073-4c82-ac7d-6938212dd5e2","system_id":"levelo_inurba_marseille","lat":43.29193,"lon":5.35799,"is_reserved":false,"is_disabled":false,"rental_uris":{"android":"levelo://app?vid=ac5edf20-7073-4c82-ac7d-6938212dd5e2","ios":"levelo://app?vid=ac5edf20-7073-4c82-ac7d-6938212dd5e2"},"vehicle_type_id":"4","last_reported":1741267091,"current_range_meters":9600,"station_id":"ce4bhb12rcd13ifvqel0","pricing_plan_id":"cebpf4jnsgd1na2vs0mg"},{"bike_id":"9208d63c-369f-4c4e-a7fc-9ad972621275","system_id":"levelo_inurba_marseille","lat":43.2594,"lon":5.40873,"is_reserved":false,"is_disabled":false,"rental_uris":{"android":"levelo://app?vid=9208d63c-369f-4c4e-a7fc-9ad972621275","ios":"levelo://app?vid=9208d63c-369f-4c4e-a7fc-9ad972621275"},"vehicle_type_id":"4","last_reported":1741267091,"current_range_meters":9600,"station_id":"ce4bhm92rcd13ifvqglg","pricing_plan_id":"cebpf4jnsgd1na2vs0mg"},{"bike_id":"40d727b2-72cb-498c-8c1a-9c33ec2a16cb","system_id":"levelo_inurba_marseille","lat":43.28148,"lon":5.42644,"is_reserved":false,"is_disabled":false,"rental_uris":{"android":"levelo://app?vid=40d727b2-72cb-498c-8c1a-9c33ec2a16cb","ios":"levelo://app?vid=40d727b2-72cb-498c-8c1a-9c33ec2a16cb"},"vehicle_type_id":"4","last_reported":1741267091,"current_range_meters":9600,"station_id":"ce4bhnh2rcd13ifvqgug","pricing_plan_id":"cebpf4jnsgd1na2vs0mg"},{"bike_id":"cbef79a0-9215-4d9c-af7a-1290faf12d6d","system_id":"levelo_inurba_marseille","lat":43.31685,"lon":5.40472,"is_reserved":false,"is_disabled":false,"rental_uris":{"android":"levelo://app?vid=cbef79a0-9215-4d9c-af7a-1290faf12d6d","ios":"levelo://app?vid=cbef79a0-9215-4d9c-af7a-1290faf12d6d"},"vehicle_type_id":"4","last_reported":1741267091,"current_range_meters":9200,"station_id":"ce4bh012rcd13ifvqd00","pricing_plan_id":"cebpf4jnsgd1na2vs0mg"},{"bike_id":"c5401971-b31d-41f0-9a4f-99d7926e8592","system_id":"levelo_inurba_marseille","lat":43.28844,"lon":5.39317,"is_reserved":false,"is_disabled":false,"rental_uris":{"android":"levelo://app?vid=c5401971-b31d-41f0-9a4f-99d7926e8592","ios":"levelo://app?vid=c5401971-b31d-41f0-9a4f-99d7926e8592"},"vehicle_type_id":"4","last_reported":1741267091,"current_range_meters":10000,"station_id":"ce4bh2p2rcd13ifvqdi0","pricing_plan_id":"cebpf4jnsgd1na2vs0mg"},{"bike_id":"f6d97c97-a9c7-4685-a7c7-9119daa3f02b","system_id":"levelo_inurba_marseille","lat":43.2998,"lon":5.38493,"is_reserved":false,"is_disabled":false,"rental_uris":{"android":"levelo://app?vid=f6d97c97-a9c7-4685-a7c7-9119daa3f02b","ios":"levelo://app?vid=f6d97c97-a9c7-4685-a7c7-9119daa3f02b"},"vehicle_type_id":"4","last_reported":1741267091,"current_range_meters":10000,"station_id":"ce4bgj92rcd13ifvqbd0","pricing_plan_id":"cebpf4jnsgd1na2vs0mg"},{"bike_id":"d042490b-89be-4965-8498-025836790f65","system_id":"levelo_inurba_marseille","lat":43.25927,"lon":5.40903,"is_reserved":false,"is_disabled":false,"rental_uris":{"android":"levelo://app?vid=d042490b-89be-4965-8498-025836790f65","ios":"levelo://app?vid=d042490b-89be-4965-8498-025836790f65"},"vehicle_type_id":"4","last_reported":1741267091,"current_range_meters":10000,"station_id":"ce4bhm92rcd13ifvqglg","pricing_plan_id":"cebpf4jnsgd1na2vs0mg"},{"bike_id":"7f1905bf-da4d-4f13-af14-c5d46804e585","system_id":"levelo_inurba_marseille","lat":43.23187,"lon":5.35555,"is_reserved":false,"is_disabled":false,"rental_uris":{"android":"levelo://app?vid=7f1905bf-da4d-4f13-af14-c5d46804e585","ios":"levelo://app?vid=7f1905bf-da4d-4f13-af14-c5d46804e585"},"vehicle_type_id":"4","last_reported":1741267091,"current_range_meters":10000,"station_id":"ce4bhu92rcd13ifvqi70","pricing_plan_id":"cebpf4jnsgd1na2vs0mg"},{"bike_id":"0399def7-ac31-4454-9b12-7c5d5b5b1b72","system_id":"levelo_inurba_marseille","lat":43.28458,"lon":5.35881,"is_reserved":false,"is_disabled":false,"rental_uris":{"android":"levelo://app?vid=0399def7-ac31-4454-9b12-7c5d5b5b1b72","ios":"levelo://app?vid=0399def7-ac31-4454-9b12-7c5d5b5b1b72"},"vehicle_type_id":"4","last_reported":1741267091,"current_range_meters":10000,"station_id":"ce4bhah2rcd13ifvqei0","pricing_plan_id":"cebpf4jnsgd1na2vs0mg"},{"bike_id":"d67a152d-eb7b-4bf9-9ac4-ec2dd31397fa","system_id":"levelo_inurba_marseille","lat":43.2919,"lon":5.3932,"is_reserved":false,"is_disabled":false,"rental_uris":{"android":"levelo://app?vid=d67a152d-eb7b-4bf9-9ac4-ec2dd31397fa","ios":"levelo://app?vid=d67a152d-eb7b-4bf9-9ac4-ec2dd31397fa"},"vehicle_type_id":"4","last_reported":1741267091,"current_range_meters":10000,"station_id":"ce4bh192rcd13ifvqdd0","pricing_plan_id":"cebpf4jnsgd1na2vs0mg"},{"bike_id":"f4a9b063-e070-437f-9fba-9edf97433ed7","system_id":"levelo_inurba_marseille","lat":43.27937,"lon":5.41035,"is_reserved":false,"is_disabled":false,"rental_uris":{"android":"levelo://app?vid=f4a9b063-e070-437f-9fba-9edf97433ed7","ios":"levelo://app?vid=f4a9b063-e070-437f-9fba-9edf97433ed7"},"vehicle_type_id":"4","last_reported":1741267091,"current_range_meters":10000,"station_id":"ce4bhnp2rcd13ifvqh0g","pricing_plan_id":"cebpf4jnsgd1na2vs0mg"},{"bike_id":"c738f12d-e3a3-49a2-90a6-56758e105a91","system_id":"levelo_inurba_marseille","lat":43.29875,"lon":5.39722,"is_reserved":false,"is_disabled":false,"rental_uris":{"android":"levelo://app?vid=c738f12d-e3a3-49a2-90a6-56758e105a91","ios":"levelo://app?vid=c738f12d-e3a3-49a2-90a6-56758e105a91"},"vehicle_type_id":"4","last_reported":1741267091,"current_range_meters":10000,"station_id":"ce4bh0h2rcd13ifvqd50","pricing_plan_id":"cebpf4jnsgd1na2vs0mg"},{"bike_id":"bc1ff28f-0226-4fe1-bb42-0a1e2869659e","system_id":"levelo_inurba_marseille","lat":43.3237,"lon":5.3888,"is_reserved":false,"is_disabled":false,"rental_uris":{"android":"levelo://app?vid=bc1ff28f-0226-4fe1-bb42-0a1e2869659e","ios":"levelo://app?vid=bc1ff28f-0226-4fe1-bb42-0a1e2869659e"},"vehicle_type_id":"4","last_reported":1741267091,"current_range_meters":10000,"station_id":"ce4bhqp2rcd13ifvqhog","pricing_plan_id":"cebpf4jnsgd1na2vs0mg"},{"bike_id":"81cfbbb5-e872-435f-a072-e51eb494a44b","system_id":"levelo_inurba_marseille","lat":43.30553,"lon":5.36554,"is_reserved":false,"is_disabled":false,"rental_uris":{"android":"levelo://app?vid=81cfbbb5-e872-435f-a072-e51eb494a44b","ios":"levelo://app?vid=81cfbbb5-e872-435f-a072-e51eb494a44b"},"vehicle_type_id":"4","last_reported":1741267091,"current_range_meters":10800,"station_id":"ce4bgs12rcd13ifvqcag","pricing_plan_id":"cebpf4jnsgd1na2vs0mg"},{"bike_id":"5c12340f-8628-4a2a-be97-5dacdfd162ae","system_id":"levelo_inurba_marseille","lat":43.32484,"lon":5.36568,"is_reserved":false,"is_disabled":false,"rental_uris":{"android":"levelo://app?vid=5c12340f-8628-4a2a-be97-5dacdfd162ae","ios":"levelo://app?vid=5c12340f-8628-4a2a-be97-5dacdfd162ae"},"vehicle_type_id":"4","last_reported":1741267091,"current_range_meters":10800,"station_id":"ce4bhs12rcd13ifvqhvg","pricing_plan_id":"cebpf4jnsgd1na2vs0mg"},{"bike_id":"63815b6e-f9bf-4ae0-9cc4-53a2a981b401","system_id":"levelo_inurba_marseille","lat":43.26821,"lon":5.40254,"is_reserved":false,"is_disabled":false,"rental_uris":{"android":"levelo://app?vid=63815b6e-f9bf-4ae0-9cc4-53a2a981b401","ios":"levelo://app?vid=63815b6e-f9bf-4ae0-9cc4-53a2a981b401"},"vehicle_type_id":"4","last_reported":1741267091,"current_range_meters":10800,"station_id":"ce501612rcd8frsf0b60","pricing_plan_id":"cebpf4jnsgd1na2vs0mg"},{"bike_id":"4b494c34-91a4-4833-8163-e2901a7f1b21","system_id":"levelo_inurba_marseille","lat":43.2306,"lon":5.35492,"is_reserved":false,"is_disabled":false,"rental_uris":{"android":"levelo://app?vid=4b494c34-91a4-4833-8163-e2901a7f1b21","ios":"levelo://app?vid=4b494c34-91a4-4833-8163-e2901a7f1b21"},"vehicle_type_id":"4","last_reported":1741267091,"current_range_meters":10800,"station_id":"cpo3342slgdg3j2ifvpg","pricing_plan_id":"cebpf4jnsgd1na2vs0mg"},{"bike_id":"d931c513-fde2-4d6c-8f11-ebbc1fd1dcf1","system_id":"levelo_inurba_marseille","lat":43.302368,"lon":5.400534,"is_reserved":false,"is_disabled":false,"rental_uris":{"android":"levelo://app?vid=d931c513-fde2-4d6c-8f11-ebbc1fd1dcf1","ios":"levelo://app?vid=d931c513-fde2-4d6c-8f11-ebbc1fd1dcf1"},"vehicle_type_id":"4","last_reported":1741267091,"current_range_meters":10000,"station_id":"ce4bhph2rcd13ifvqhdg","pricing_plan_id":"cebpf4jnsgd1na2vs0mg"},{"bike_id":"1597a1a3-4748-4ba5-a324-8f75101e5c0e","system_id":"levelo_inurba_marseille","lat":43.29897,"lon":5.38889,"is_reserved":false,"is_disabled":false,"rental_uris":{"android":"levelo://app?vid=1597a1a3-4748-4ba5-a324-8f75101e5c0e","ios":"levelo://app?vid=1597a1a3-4748-4ba5-a324-8f75101e5c0e"},"vehicle_type_id":"4","last_reported":1741267091,"current_range_meters":10000,"station_id":"ce4bh392rcd13ifvqdl0","pricing_plan_id":"cebpf4jnsgd1na2vs0mg"},{"bike_id":"00821c13-0023-4eed-a29d-c9d9d043bfb5","system_id":"levelo_inurba_marseille","lat":43.26924,"lon":5.3893,"is_reserved":false,"is_disabled":false,"rental_uris":{"android":"levelo://app?vid=00821c13-0023-4eed-a29d-c9d9d043bfb5","ios":"levelo://app?vid=00821c13-0023-4eed-a29d-c9d9d043bfb5"},"vehicle_type_id":"4","last_reported":1741267091,"current_range_meters":10000,"station_id":"ce4bhhh2rcd13ifvqfl0","pricing_plan_id":"cebpf4jnsgd1na2vs0mg"},{"bike_id":"b5201f16-fa95-4713-880d-fc83c0a56119","system_id":"levelo_inurba_marseille","lat":43.31265,"lon":5.36829,"is_reserved":false,"is_disabled":false,"rental_uris":{"android":"levelo://app?vid=b5201f16-fa95-4713-880d-fc83c0a56119","ios":"levelo://app?vid=b5201f16-fa95-4713-880d-fc83c0a56119"},"vehicle_type_id":"4","last_reported":1741267091,"current_range_meters":11200,"station_id":"ce4bgl92rcd13ifvqbq0","pricing_plan_id":"cebpf4jnsgd1na2vs0mg"},{"bike_id":"21b00a54-4e29-48af-82d5-6aa688c17fc3","system_id":"levelo_inurba_marseille","lat":43.26559,"lon":5.39005,"is_reserved":false,"is_disabled":false,"rental_uris":{"android":"levelo://app?vid=21b00a54-4e29-48af-82d5-6aa688c17fc3","ios":"levelo://app?vid=21b00a54-4e29-48af-82d5-6aa688c17fc3"},"vehicle_type_id":"4","last_reported":1741267091,"current_range_meters":11200,"station_id":"ce4bhe12rcd13ifvqf30","pricing_plan_id":"cebpf4jnsgd1na2vs0mg"},{"bike_id":"1629132a-a702-4681-8548-2949993d2e93","system_id":"levelo_inurba_marseille","lat":43.29602,"lon":5.38081,"is_reserved":false,"is_disabled":false,"rental_uris":{"android":"levelo://app?vid=1629132a-a702-4681-8548-2949993d2e93","ios":"levelo://app?vid=1629132a-a702-4681-8548-2949993d2e93"},"vehicle_type_id":"4","last_reported":1741267091,"current_range_meters":11200,"station_id":"ce4bgl12rcd13ifvqbo0","pricing_plan_id":"cebpf4jnsgd1na2vs0mg"},{"bike_id":"0e28d931-d9b4-41ba-af82-10d7f8401dd0","system_id":"levelo_inurba_marseille","lat":43.29054,"lon":5.37152,"is_reserved":false,"is_disabled":false,"rental_uris":{"android":"levelo://app?vid=0e28d931-d9b4-41ba-af82-10d7f8401dd0","ios":"levelo://app?vid=0e28d931-d9b4-41ba-af82-10d7f8401dd0"},"vehicle_type_id":"4","last_reported":1741267091,"current_range_meters":11200,"station_id":"ce4bh5p2rcd13ifvqe4g","pricing_plan_id":"cebpf4jnsgd1na2vs0mg"},{"bike_id":"9ed60a22-42b3-4e9d-bf75-676adf1f82a5","system_id":"levelo_inurba_marseille","lat":43.24059,"lon":5.37739,"is_reserved":false,"is_disabled":false,"rental_uris":{"android":"levelo://app?vid=9ed60a22-42b3-4e9d-bf75-676adf1f82a5","ios":"levelo://app?vid=9ed60a22-42b3-4e9d-bf75-676adf1f82a5"},"vehicle_type_id":"4","last_reported":1741267091,"current_range_meters":11200,"station_id":"ce4bhnp2rcd13ifvqgvg","pricing_plan_id":"cebpf4jnsgd1na2vs0mg"},{"bike_id":"42d9e620-b281-4cb9-8a16-42c2483c8306","system_id":"levelo_inurba_marseille","lat":43.28721,"lon":5.3794,"is_reserved":false,"is_disabled":false,"rental_uris":{"android":"levelo://app?vid=42d9e620-b281-4cb9-8a16-42c2483c8306","ios":"levelo://app?vid=42d9e620-b281-4cb9-8a16-42c2483c8306"},"vehicle_type_id":"4","last_reported":1741267091,"current_range_meters":11200,"station_id":"ce4bh9p2rcd13ifvqec0","pricing_plan_id":"cebpf4jnsgd1na2vs0mg"},{"bike_id":"55b374aa-4b3c-4970-8951-6116a5ccc9c7","system_id":"levelo_inurba_marseille","lat":43.29564,"lon":5.3752,"is_reserved":false,"is_disabled":false,"rental_uris":{"android":"levelo://app?vid=55b374aa-4b3c-4970-8951-6116a5ccc9c7","ios":"levelo://app?vid=55b374aa-4b3c-4970-8951-6116a5ccc9c7"},"vehicle_type_id":"4","last_reported":1741267091,"current_range_meters":11200,"station_id":"ce4bgh92rcd13ifvqb50","pricing_plan_id":"cebpf4jnsgd1na2vs0mg"},{"bike_id":"9a34ab41-8851-4891-81c5-2d8be79eea49","system_id":"levelo_inurba_marseille","lat":43.31712,"lon":5.37763,"is_reserved":false,"is_disabled":false,"rental_uris":{"android":"levelo://app?vid=9a34ab41-8851-4891-81c5-2d8be79eea49","ios":"levelo://app?vid=9a34ab41-8851-4891-81c5-2d8be79eea49"},"vehicle_type_id":"4","last_reported":1741267091,"current_range_meters":11200,"station_id":"ce4bgth2rcd13ifvqch0","pricing_plan_id":"cebpf4jnsgd1na2vs0mg"},{"bike_id":"fb878ffe-48c4-493f-bea4-dad92b2ed37e","system_id":"levelo_inurba_marseille","lat":43.25927,"lon":5.40899,"is_reserved":false,"is_disabled":false,"rental_uris":{"android":"levelo://app?vid=fb878ffe-48c4-493f-bea4-dad92b2ed37e","ios":"levelo://app?vid=fb878ffe-48c4-493f-bea4-dad92b2ed37e"},"vehicle_type_id":"4","last_reported":1741267091,"current_range_meters":11600,"station_id":"ce4bhm92rcd13ifvqglg","pricing_plan_id":"cebpf4jnsgd1na2vs0mg"},{"bike_id":"99ebdb3d-6c95-47d2-952e-602bd9e30216","system_id":"levelo_inurba_marseille","lat":43.29058,"lon":5.35906,"is_reserved":false,"is_disabled":false,"rental_uris":{"android":"levelo://app?vid=99ebdb3d-6c95-47d2-952e-602bd9e30216","ios":"levelo://app?vid=99ebdb3d-6c95-47d2-952e-602bd9e30216"},"vehicle_type_id":"4","last_reported":1741267091,"current_range_meters":11200,"station_id":"ce4bha92rcd13ifvqeg0","pricing_plan_id":"cebpf4jnsgd1na2vs0mg"},{"bike_id":"f927a9c8-5d84-472f-b8fd-88f2fc3bc3e6","system_id":"levelo_inurba_marseille","lat":43.29903,"lon":5.43658,"is_reserved":false,"is_disabled":false,"rental_uris":{"android":"levelo://app?vid=f927a9c8-5d84-472f-b8fd-88f2fc3bc3e6","ios":"levelo://app?vid=f927a9c8-5d84-472f-b8fd-88f2fc3bc3e6"},"vehicle_type_id":"4","last_reported":1741267091,"current_range_meters":11600,"station_id":"ce4bhpp2rcd13ifvqhfg","pricing_plan_id":"cebpf4jnsgd1na2vs0mg"},{"bike_id":"88f1cdf8-d5f9-4bd1-9807-7495f7918208","system_id":"levelo_inurba_marseille","lat":43.31222,"lon":5.36896,"is_reserved":false,"is_disabled":false,"rental_uris":{"android":"levelo://app?vid=88f1cdf8-d5f9-4bd1-9807-7495f7918208","ios":"levelo://app?vid=88f1cdf8-d5f9-4bd1-9807-7495f7918208"},"vehicle_type_id":"4","last_reported":1741267091,"current_range_meters":11600,"station_id":"ce4bgl92rcd13ifvqbq0","pricing_plan_id":"cebpf4jnsgd1na2vs0mg"},{"bike_id":"74ef305b-8c9c-452f-bc4a-15f57e847ae0","system_id":"levelo_inurba_marseille","lat":43.25722,"lon":5.41119,"is_reserved":false,"is_disabled":false,"rental_uris":{"android":"levelo://app?vid=74ef305b-8c9c-452f-bc4a-15f57e847ae0","ios":"levelo://app?vid=74ef305b-8c9c-452f-bc4a-15f57e847ae0"},"vehicle_type_id":"4","last_reported":1741267091,"current_range_meters":11600,"station_id":"ce4bhkp2rcd13ifvqgd0","pricing_plan_id":"cebpf4jnsgd1na2vs0mg"},{"bike_id":"4ffbde8a-41dc-4f53-95be-d85324e7130e","system_id":"levelo_inurba_marseille","lat":43.28342,"lon":5.38102,"is_reserved":false,"is_disabled":false,"rental_uris":{"android":"levelo://app?vid=4ffbde8a-41dc-4f53-95be-d85324e7130e","ios":"levelo://app?vid=4ffbde8a-41dc-4f53-95be-d85324e7130e"},"vehicle_type_id":"4","last_reported":1741267091,"current_range_meters":12000,"station_id":"ce4bh412rcd13ifvqdr0","pricing_plan_id":"cebpf4jnsgd1na2vs0mg"},{"bike_id":"5f63bc06-ff47-4ab3-b928-ccedf2d75ad0","system_id":"levelo_inurba_marseille","lat":43.23151,"lon":5.43715,"is_reserved":false,"is_disabled":false,"rental_uris":{"android":"levelo://app?vid=5f63bc06-ff47-4ab3-b928-ccedf2d75ad0","ios":"levelo://app?vid=5f63bc06-ff47-4ab3-b928-ccedf2d75ad0"},"vehicle_type_id":"4","last_reported":1741267091,"current_range_meters":12000,"station_id":"ce4bhmp2rcd13ifvqgog","pricing_plan_id":"cebpf4jnsgd1na2vs0mg"},{"bike_id":"8280d1f4-b4ed-46a6-bd27-cc019d66b7c9","system_id":"levelo_inurba_marseille","lat":43.29275,"lon":5.38448,"is_reserved":false,"is_disabled":false,"rental_uris":{"android":"levelo://app?vid=8280d1f4-b4ed-46a6-bd27-cc019d66b7c9","ios":"levelo://app?vid=8280d1f4-b4ed-46a6-bd27-cc019d66b7c9"},"vehicle_type_id":"4","last_reported":1741267091,"current_range_meters":12000,"station_id":"ce4bh692rcd13ifvqea0","pricing_plan_id":"cebpf4jnsgd1na2vs0mg"},{"bike_id":"fb17b47e-3c41-4002-8ae3-c72bd0a49aa8","system_id":"levelo_inurba_marseille","lat":43.30475,"lon":5.37884,"is_reserved":false,"is_disabled":false,"rental_uris":{"android":"levelo://app?vid=fb17b47e-3c41-4002-8ae3-c72bd0a49aa8","ios":"levelo://app?vid=fb17b47e-3c41-4002-8ae3-c72bd0a49aa8"},"vehicle_type_id":"4","last_reported":1741267091,"current_range_meters":12000,"station_id":"ce4bgup2rcd13ifvqcn0","pricing_plan_id":"cebpf4jnsgd1na2vs0mg"},{"bike_id":"76ccea9c-0963-4678-bd6c-2ee15628fca7","system_id":"levelo_inurba_marseille","lat":43.30529,"lon":5.36752,"is_reserved":false,"is_disabled":false,"rental_uris":{"android":"levelo://app?vid=76ccea9c-0963-4678-bd6c-2ee15628fca7","ios":"levelo://app?vid=76ccea9c-0963-4678-bd6c-2ee15628fca7"},"vehicle_type_id":"4","last_reported":1741267091,"current_range_meters":12000,"station_id":"ce4bgrp2rcd13ifvqc9g","pricing_plan_id":"cebpf4jnsgd1na2vs0mg"},{"bike_id":"c847df0b-d5ea-4935-928c-14ed1eca219e","system_id":"levelo_inurba_marseille","lat":43.29618,"lon":5.37697,"is_reserved":false,"is_disabled":false,"rental_uris":{"android":"levelo://app?vid=c847df0b-d5ea-4935-928c-14ed1eca219e","ios":"levelo://app?vid=c847df0b-d5ea-4935-928c-14ed1eca219e"},"vehicle_type_id":"4","last_reported":1741267091,"current_range_meters":12000,"station_id":"ce4bgi92rcd13ifvqb90","pricing_plan_id":"cebpf4jnsgd1na2vs0mg"},{"bike_id":"5e52bdf0-ccb2-4e8e-ab97-d68d4edb3097","system_id":"levelo_inurba_marseille","lat":43.26559,"lon":5.37295,"is_reserved":false,"is_disabled":false,"rental_uris":{"android":"levelo://app?vid=5e52bdf0-ccb2-4e8e-ab97-d68d4edb3097","ios":"levelo://app?vid=5e52bdf0-ccb2-4e8e-ab97-d68d4edb3097"},"vehicle_type_id":"4","last_reported":1741267091,"current_range_meters":12000,"station_id":"ce4bhg12rcd13ifvqf70","pricing_plan_id":"cebpf4jnsgd1na2vs0mg"},{"bike_id":"3503b4af-2db6-47c1-876e-f82db3bfc75b","system_id":"levelo_inurba_marseille","lat":43.30591,"lon":5.39356,"is_reserved":false,"is_disabled":false,"rental_uris":{"android":"levelo://app?vid=3503b4af-2db6-47c1-876e-f82db3bfc75b","ios":"levelo://app?vid=3503b4af-2db6-47c1-876e-f82db3bfc75b"},"vehicle_type_id":"4","last_reported":1741267091,"current_range_meters":12000,"station_id":"ce4bh0p2rcd13ifvqd80","pricing_plan_id":"cebpf4jnsgd1na2vs0mg"},{"bike_id":"ec5aab33-2763-4eab-9fd6-47f01a2e4526","system_id":"levelo_inurba_marseille","lat":43.29969,"lon":5.37175,"is_reserved":false,"is_disabled":false,"rental_uris":{"android":"levelo://app?vid=ec5aab33-2763-4eab-9fd6-47f01a2e4526","ios":"levelo://app?vid=ec5aab33-2763-4eab-9fd6-47f01a2e4526"},"vehicle_type_id":"4","last_reported":1741267091,"current_range_meters":12400,"station_id":"ce4bgr92rcd13ifvqc7g","pricing_plan_id":"cebpf4jnsgd1na2vs0mg"},{"bike_id":"012fc385-e739-4b0e-a248-83bf9d2b6bac","system_id":"levelo_inurba_marseille","lat":43.30901,"lon":5.3684,"is_reserved":false,"is_disabled":false,"rental_uris":{"android":"levelo://app?vid=012fc385-e739-4b0e-a248-83bf9d2b6bac","ios":"levelo://app?vid=012fc385-e739-4b0e-a248-83bf9d2b6bac"},"vehicle_type_id":"4","last_reported":1741267091,"current_range_meters":12000,"station_id":"ce4bgn92rcd13ifvqbvg","pricing_plan_id":"cebpf4jnsgd1na2vs0mg"},{"bike_id":"7d90bab6-8eaa-45bf-b411-a730181c17b7","system_id":"levelo_inurba_marseille","lat":43.231482,"lon":5.437276,"is_reserved":false,"is_disabled":false,"rental_uris":{"android":"levelo://app?vid=7d90bab6-8eaa-45bf-b411-a730181c17b7","ios":"levelo://app?vid=7d90bab6-8eaa-45bf-b411-a730181c17b7"},"vehicle_type_id":"4","last_reported":1741267091,"current_range_meters":12400,"station_id":"ce4bhmp2rcd13ifvqgog","pricing_plan_id":"cebpf4jnsgd1na2vs0mg"},{"bike_id":"e9ea0b14-f81c-40e0-9aad-18b138d7f8c8","system_id":"levelo_inurba_marseille","lat":43.30119,"lon":5.37408,"is_reserved":false,"is_disabled":false,"rental_uris":{"android":"levelo://app?vid=e9ea0b14-f81c-40e0-9aad-18b138d7f8c8","ios":"levelo://app?vid=e9ea0b14-f81c-40e0-9aad-18b138d7f8c8"},"vehicle_type_id":"4","last_reported":1741267091,"current_range_meters":12400,"station_id":"ce4bgs92rcd13ifvqcc0","pricing_plan_id":"cebpf4jnsgd1na2vs0mg"},{"bike_id":"680115eb-a6e4-4d4c-a087-a6555fdf8cad","system_id":"levelo_inurba_marseille","lat":43.27071,"lon":5.42275,"is_reserved":false,"is_disabled":false,"rental_uris":{"android":"levelo://app?vid=680115eb-a6e4-4d4c-a087-a6555fdf8cad","ios":"levelo://app?vid=680115eb-a6e4-4d4c-a087-a6555fdf8cad"},"vehicle_type_id":"4","last_reported":1741267091,"current_range_meters":12000,"station_id":"ce4bhk92rcd13ifvqgb0","pricing_plan_id":"cebpf4jnsgd1na2vs0mg"},{"bike_id":"671f4368-7e9c-4033-8f02-174088e10b35","system_id":"levelo_inurba_marseille","lat":43.29193,"lon":5.39318,"is_reserved":false,"is_disabled":false,"rental_uris":{"android":"levelo://app?vid=671f4368-7e9c-4033-8f02-174088e10b35","ios":"levelo://app?vid=671f4368-7e9c-4033-8f02-174088e10b35"},"vehicle_type_id":"4","last_reported":1741267091,"current_range_meters":12400,"station_id":"ce4bh192rcd13ifvqdd0","pricing_plan_id":"cebpf4jnsgd1na2vs0mg"},{"bike_id":"f9354a4c-391d-4b54-8832-f5ba0c4c05cf","system_id":"levelo_inurba_marseille","lat":43.284625,"lon":5.35893,"is_reserved":false,"is_disabled":false,"rental_uris":{"android":"levelo://app?vid=f9354a4c-391d-4b54-8832-f5ba0c4c05cf","ios":"levelo://app?vid=f9354a4c-391d-4b54-8832-f5ba0c4c05cf"},"vehicle_type_id":"4","last_reported":1741267091,"current_range_meters":12800,"station_id":"ce4bhah2rcd13ifvqei0","pricing_plan_id":"cebpf4jnsgd1na2vs0mg"},{"bike_id":"0fd15513-1c3e-443d-8fc1-867495994c6c","system_id":"levelo_inurba_marseille","lat":43.29975,"lon":5.41316,"is_reserved":false,"is_disabled":false,"rental_uris":{"android":"levelo://app?vid=0fd15513-1c3e-443d-8fc1-867495994c6c","ios":"levelo://app?vid=0fd15513-1c3e-443d-8fc1-867495994c6c"},"vehicle_type_id":"4","last_reported":1741267091,"current_range_meters":12800,"station_id":"ce4bhp12rcd13ifvqh9g","pricing_plan_id":"cebpf4jnsgd1na2vs0mg"},{"bike_id":"bf58d102-5f79-4fe1-a6b1-3d04079d1032","system_id":"levelo_inurba_marseille","lat":43.24693,"lon":5.38143,"is_reserved":false,"is_disabled":false,"rental_uris":{"android":"levelo://app?vid=bf58d102-5f79-4fe1-a6b1-3d04079d1032","ios":"levelo://app?vid=bf58d102-5f79-4fe1-a6b1-3d04079d1032"},"vehicle_type_id":"4","last_reported":1741267091,"current_range_meters":12800,"station_id":"ce4bhih2rcd13ifvqfr0","pricing_plan_id":"cebpf4jnsgd1na2vs0mg"},{"bike_id":"0215b218-f040-4999-9f1b-4d49e23d6279","system_id":"levelo_inurba_marseille","lat":43.28347,"lon":5.38102,"is_reserved":false,"is_disabled":false,"rental_uris":{"android":"levelo://app?vid=0215b218-f040-4999-9f1b-4d49e23d6279","ios":"levelo://app?vid=0215b218-f040-4999-9f1b-4d49e23d6279"},"vehicle_type_id":"4","last_reported":1741267091,"current_range_meters":12800,"station_id":"ce4bh412rcd13ifvqdr0","pricing_plan_id":"cebpf4jnsgd1na2vs0mg"},{"bike_id":"63103f47-b772-4a88-ba86-2d2dd36204d9","system_id":"levelo_inurba_marseille","lat":43.26576,"lon":5.39016,"is_reserved":false,"is_disabled":false,"rental_uris":{"android":"levelo://app?vid=63103f47-b772-4a88-ba86-2d2dd36204d9","ios":"levelo://app?vid=63103f47-b772-4a88-ba86-2d2dd36204d9"},"vehicle_type_id":"4","last_reported":1741267091,"current_range_meters":12800,"station_id":"ce4bhe12rcd13ifvqf30","pricing_plan_id":"cebpf4jnsgd1na2vs0mg"},{"bike_id":"67a12570-ff86-434d-9d13-83586e6ec37c","system_id":"levelo_inurba_marseille","lat":43.29376,"lon":5.37861,"is_reserved":false,"is_disabled":false,"rental_uris":{"android":"levelo://app?vid=67a12570-ff86-434d-9d13-83586e6ec37c","ios":"levelo://app?vid=67a12570-ff86-434d-9d13-83586e6ec37c"},"vehicle_type_id":"4","last_reported":1741267091,"current_range_meters":13600,"station_id":"ce4bgjh2rcd13ifvqbf0","pricing_plan_id":"cebpf4jnsgd1na2vs0mg"},{"bike_id":"ff07e600-78e5-4934-a970-5ca3d0f97cc6","system_id":"levelo_inurba_marseille","lat":43.23154,"lon":5.43703,"is_reserved":false,"is_disabled":false,"rental_uris":{"android":"levelo://app?vid=ff07e600-78e5-4934-a970-5ca3d0f97cc6","ios":"levelo://app?vid=ff07e600-78e5-4934-a970-5ca3d0f97cc6"},"vehicle_type_id":"4","last_reported":1741267091,"current_range_meters":13600,"station_id":"ce4bhmp2rcd13ifvqgog","pricing_plan_id":"cebpf4jnsgd1na2vs0mg"},{"bike_id":"0683a293-51f0-4d0e-abbf-5ca227d6f896","system_id":"levelo_inurba_marseille","lat":43.32477,"lon":5.3656,"is_reserved":false,"is_disabled":false,"rental_uris":{"android":"levelo://app?vid=0683a293-51f0-4d0e-abbf-5ca227d6f896","ios":"levelo://app?vid=0683a293-51f0-4d0e-abbf-5ca227d6f896"},"vehicle_type_id":"4","last_reported":1741267091,"current_range_meters":13600,"station_id":"ce4bhs12rcd13ifvqhvg","pricing_plan_id":"cebpf4jnsgd1na2vs0mg"},{"bike_id":"5812af6e-1fb0-4189-91a3-4bc74a5f9351","system_id":"levelo_inurba_marseille","lat":43.28852,"lon":5.3932,"is_reserved":false,"is_disabled":false,"rental_uris":{"android":"levelo://app?vid=5812af6e-1fb0-4189-91a3-4bc74a5f9351","ios":"levelo://app?vid=5812af6e-1fb0-4189-91a3-4bc74a5f9351"},"vehicle_type_id":"4","last_reported":1741267091,"current_range_meters":13600,"station_id":"ce4bh2p2rcd13ifvqdi0","pricing_plan_id":"cebpf4jnsgd1na2vs0mg"},{"bike_id":"2216e051-e33d-4669-9b95-11940fe95e6a","system_id":"levelo_inurba_marseille","lat":43.30887,"lon":5.37184,"is_reserved":false,"is_disabled":false,"rental_uris":{"android":"levelo://app?vid=2216e051-e33d-4669-9b95-11940fe95e6a","ios":"levelo://app?vid=2216e051-e33d-4669-9b95-11940fe95e6a"},"vehicle_type_id":"4","last_reported":1741267091,"current_range_meters":12800,"station_id":"ce4bguh2rcd13ifvqckg","pricing_plan_id":"cebpf4jnsgd1na2vs0mg"},{"bike_id":"407f65b0-b184-427e-8d5a-055a5a633125","system_id":"levelo_inurba_marseille","lat":43.26689,"lon":5.38249,"is_reserved":false,"is_disabled":false,"rental_uris":{"android":"levelo://app?vid=407f65b0-b184-427e-8d5a-055a5a633125","ios":"levelo://app?vid=407f65b0-b184-427e-8d5a-055a5a633125"},"vehicle_type_id":"4","last_reported":1741267091,"current_range_meters":14000,"station_id":"ce4bhg92rcd13ifvqf90","pricing_plan_id":"cebpf4jnsgd1na2vs0mg"},{"bike_id":"4f010ebc-b518-4755-8362-bd39d3f72f51","system_id":"levelo_inurba_marseille","lat":43.23151,"lon":5.43722,"is_reserved":false,"is_disabled":false,"rental_uris":{"android":"levelo://app?vid=4f010ebc-b518-4755-8362-bd39d3f72f51","ios":"levelo://app?vid=4f010ebc-b518-4755-8362-bd39d3f72f51"},"vehicle_type_id":"4","last_reported":1741267091,"current_range_meters":14000,"station_id":"ce4bhmp2rcd13ifvqgog","pricing_plan_id":"cebpf4jnsgd1na2vs0mg"},{"bike_id":"0799081a-0fb3-40ee-b1df-4c2c74a231ba","system_id":"levelo_inurba_marseille","lat":43.30913,"lon":5.36964,"is_reserved":false,"is_disabled":false,"rental_uris":{"android":"levelo://app?vid=0799081a-0fb3-40ee-b1df-4c2c74a231ba","ios":"levelo://app?vid=0799081a-0fb3-40ee-b1df-4c2c74a231ba"},"vehicle_type_id":"4","last_reported":1741267091,"current_range_meters":14000,"station_id":"","pricing_plan_id":"cebpf4jnsgd1na2vs0mg"},{"bike_id":"9f0f0224-b72b-4ee3-a38d-b5ba80204629","system_id":"levelo_inurba_marseille","lat":43.23188,"lon":5.35535,"is_reserved":false,"is_disabled":false,"rental_uris":{"android":"levelo://app?vid=9f0f0224-b72b-4ee3-a38d-b5ba80204629","ios":"levelo://app?vid=9f0f0224-b72b-4ee3-a38d-b5ba80204629"},"vehicle_type_id":"4","last_reported":1741267091,"current_range_meters":14000,"station_id":"ce4bhu92rcd13ifvqi70","pricing_plan_id":"cebpf4jnsgd1na2vs0mg"},{"bike_id":"a3e97fef-38fb-4fc6-b6d9-58e550d4835b","system_id":"levelo_inurba_marseille","lat":43.2952,"lon":5.390379,"is_reserved":false,"is_disabled":false,"rental_uris":{"android":"levelo://app?vid=a3e97fef-38fb-4fc6-b6d9-58e550d4835b","ios":"levelo://app?vid=a3e97fef-38fb-4fc6-b6d9-58e550d4835b"},"vehicle_type_id":"4","last_reported":1741267091,"current_range_meters":14000,"station_id":"ce4bh112rcd13ifvqda0","pricing_plan_id":"cebpf4jnsgd1na2vs0mg"},{"bike_id":"92935230-f8ca-4501-a298-65d7e38b5e21","system_id":"levelo_inurba_marseille","lat":43.28913,"lon":5.384107,"is_reserved":false,"is_disabled":false,"rental_uris":{"android":"levelo://app?vid=92935230-f8ca-4501-a298-65d7e38b5e21","ios":"levelo://app?vid=92935230-f8ca-4501-a298-65d7e38b5e21"},"vehicle_type_id":"4","last_reported":1741267091,"current_range_meters":13600,"station_id":"ce4bh612rcd13ifvqe6g","pricing_plan_id":"cebpf4jnsgd1na2vs0mg"},{"bike_id":"75e132d9-5d1a-422c-a075-9f44ef62fb9b","system_id":"levelo_inurba_marseille","lat":43.28718,"lon":5.37935,"is_reserved":false,"is_disabled":false,"rental_uris":{"android":"levelo://app?vid=75e132d9-5d1a-422c-a075-9f44ef62fb9b","ios":"levelo://app?vid=75e132d9-5d1a-422c-a075-9f44ef62fb9b"},"vehicle_type_id":"4","last_reported":1741267091,"current_range_meters":14000,"station_id":"ce4bh9p2rcd13ifvqec0","pricing_plan_id":"cebpf4jnsgd1na2vs0mg"},{"bike_id":"42799173-f7c7-4b35-acfb-0b8fc5282cea","system_id":"levelo_inurba_marseille","lat":43.27821,"lon":5.40691,"is_reserved":false,"is_disabled":false,"rental_uris":{"android":"levelo://app?vid=42799173-f7c7-4b35-acfb-0b8fc5282cea","ios":"levelo://app?vid=42799173-f7c7-4b35-acfb-0b8fc5282cea"},"vehicle_type_id":"4","last_reported":1741267091,"current_range_meters":14000,"station_id":"ce4bhnh2rcd13ifvqgtg","pricing_plan_id":"cebpf4jnsgd1na2vs0mg"},{"bike_id":"bdb29e19-9881-4ae3-8e3a-27c16fdc3a3c","system_id":"levelo_inurba_marseille","lat":43.28706,"lon":5.39996,"is_reserved":false,"is_disabled":false,"rental_uris":{"android":"levelo://app?vid=bdb29e19-9881-4ae3-8e3a-27c16fdc3a3c","ios":"levelo://app?vid=bdb29e19-9881-4ae3-8e3a-27c16fdc3a3c"},"vehicle_type_id":"4","last_reported":1741267091,"current_range_meters":14000,"station_id":"ce4bho92rcd13ifvqh3g","pricing_plan_id":"cebpf4jnsgd1na2vs0mg"},{"bike_id":"684a20c3-4eb4-49e9-bdda-cdaca37116ee","system_id":"levelo_inurba_marseille","lat":43.31233,"lon":5.36883,"is_reserved":false,"is_disabled":false,"rental_uris":{"android":"levelo://app?vid=684a20c3-4eb4-49e9-bdda-cdaca37116ee","ios":"levelo://app?vid=684a20c3-4eb4-49e9-bdda-cdaca37116ee"},"vehicle_type_id":"4","last_reported":1741267091,"current_range_meters":14400,"station_id":"ce4bgl92rcd13ifvqbq0","pricing_plan_id":"cebpf4jnsgd1na2vs0mg"},{"bike_id":"c16ccb51-1ff7-4b93-8e4d-d5c1c6809677","system_id":"levelo_inurba_marseille","lat":43.30419,"lon":5.41285,"is_reserved":false,"is_disabled":false,"rental_uris":{"android":"levelo://app?vid=c16ccb51-1ff7-4b93-8e4d-d5c1c6809677","ios":"levelo://app?vid=c16ccb51-1ff7-4b93-8e4d-d5c1c6809677"},"vehicle_type_id":"4","last_reported":1741267091,"current_range_meters":14400,"station_id":"ce4bhop2rcd13ifvqh8g","pricing_plan_id":"cebpf4jnsgd1na2vs0mg"},{"bike_id":"c4afb286-08d7-4be7-bcdf-4e625046e836","system_id":"levelo_inurba_marseille","lat":43.32374,"lon":5.38881,"is_reserved":false,"is_disabled":false,"rental_uris":{"android":"levelo://app?vid=c4afb286-08d7-4be7-bcdf-4e625046e836","ios":"levelo://app?vid=c4afb286-08d7-4be7-bcdf-4e625046e836"},"vehicle_type_id":"4","last_reported":1741267091,"current_range_meters":14400,"station_id":"ce4bhqp2rcd13ifvqhog","pricing_plan_id":"cebpf4jnsgd1na2vs0mg"},{"bike_id":"f36455d8-7d9d-4b2c-b47b-a231152330bd","system_id":"levelo_inurba_marseille","lat":43.313263,"lon":5.385074,"is_reserved":false,"is_disabled":false,"rental_uris":{"android":"levelo://app?vid=f36455d8-7d9d-4b2c-b47b-a231152330bd","ios":"levelo://app?vid=f36455d8-7d9d-4b2c-b47b-a231152330bd"},"vehicle_type_id":"4","last_reported":1741267091,"current_range_meters":14400,"station_id":"ce4bgt92rcd13ifvqcf0","pricing_plan_id":"cebpf4jnsgd1na2vs0mg"},{"bike_id":"47df52c5-e35f-48fb-baca-7d1e015990f8","system_id":"levelo_inurba_marseille","lat":43.23139,"lon":5.43716,"is_reserved":false,"is_disabled":false,"rental_uris":{"android":"levelo://app?vid=47df52c5-e35f-48fb-baca-7d1e015990f8","ios":"levelo://app?vid=47df52c5-e35f-48fb-baca-7d1e015990f8"},"vehicle_type_id":"4","last_reported":1741267091,"current_range_meters":14800,"station_id":"ce4bhmp2rcd13ifvqgog","pricing_plan_id":"cebpf4jnsgd1na2vs0mg"},{"bike_id":"ce51e43d-08e5-4352-a6bd-d7aa7e8463bf","system_id":"levelo_inurba_marseille","lat":43.32469,"lon":5.36558,"is_reserved":false,"is_disabled":false,"rental_uris":{"android":"levelo://app?vid=ce51e43d-08e5-4352-a6bd-d7aa7e8463bf","ios":"levelo://app?vid=ce51e43d-08e5-4352-a6bd-d7aa7e8463bf"},"vehicle_type_id":"4","last_reported":1741267091,"current_range_meters":14800,"station_id":"ce4bhs12rcd13ifvqhvg","pricing_plan_id":"cebpf4jnsgd1na2vs0mg"},{"bike_id":"dd000f27-f48a-463e-8ed0-7883903adac3","system_id":"levelo_inurba_marseille","lat":43.3046,"lon":5.37906,"is_reserved":false,"is_disabled":false,"rental_uris":{"android":"levelo://app?vid=dd000f27-f48a-463e-8ed0-7883903adac3","ios":"levelo://app?vid=dd000f27-f48a-463e-8ed0-7883903adac3"},"vehicle_type_id":"4","last_reported":1741267091,"current_range_meters":14800,"station_id":"ce4bgup2rcd13ifvqcn0","pricing_plan_id":"cebpf4jnsgd1na2vs0mg"},{"bike_id":"e1a93dfa-76d7-4bc0-aad1-22c7a384b60a","system_id":"levelo_inurba_marseille","lat":43.25004,"lon":5.38912,"is_reserved":false,"is_disabled":false,"rental_uris":{"android":"levelo://app?vid=e1a93dfa-76d7-4bc0-aad1-22c7a384b60a","ios":"levelo://app?vid=e1a93dfa-76d7-4bc0-aad1-22c7a384b60a"},"vehicle_type_id":"4","last_reported":1741267091,"current_range_meters":14800,"station_id":"ce4bhgp2rcd13ifvqfd0","pricing_plan_id":"cebpf4jnsgd1na2vs0mg"},{"bike_id":"0236009d-b83e-4481-b97e-6a8e1f189885","system_id":"levelo_inurba_marseille","lat":43.29776,"lon":5.38112,"is_reserved":false,"is_disabled":false,"rental_uris":{"android":"levelo://app?vid=0236009d-b83e-4481-b97e-6a8e1f189885","ios":"levelo://app?vid=0236009d-b83e-4481-b97e-6a8e1f189885"},"vehicle_type_id":"4","last_reported":1741267091,"current_range_meters":15200,"station_id":"ce4bgip2rcd13ifvqbb0","pricing_plan_id":"cebpf4jnsgd1na2vs0mg"},{"bike_id":"73f15c14-8d63-49a0-80a4-2e2dc3783872","system_id":"levelo_inurba_marseille","lat":43.29266,"lon":5.37606,"is_reserved":false,"is_disabled":false,"rental_uris":{"android":"levelo://app?vid=73f15c14-8d63-49a0-80a4-2e2dc3783872","ios":"levelo://app?vid=73f15c14-8d63-49a0-80a4-2e2dc3783872"},"vehicle_type_id":"4","last_reported":1741267091,"current_range_meters":15200,"station_id":"ce4bgi12rcd13ifvqb80","pricing_plan_id":"cebpf4jnsgd1na2vs0mg"},{"bike_id":"85bc5fac-f35f-4a8b-9e3d-49e759820e0d","system_id":"levelo_inurba_marseille","lat":43.27428,"lon":5.39415,"is_reserved":false,"is_disabled":false,"rental_uris":{"android":"levelo://app?vid=85bc5fac-f35f-4a8b-9e3d-49e759820e0d","ios":"levelo://app?vid=85bc5fac-f35f-4a8b-9e3d-49e759820e0d"},"vehicle_type_id":"4","last_reported":1741267091,"current_range_meters":15200,"station_id":"ce4bhdp2rcd13ifvqf20","pricing_plan_id":"cebpf4jnsgd1na2vs0mg"},{"bike_id":"53fee224-a0ec-4a3e-ba0e-24305fe83f24","system_id":"levelo_inurba_marseille","lat":43.292664,"lon":5.384332,"is_reserved":false,"is_disabled":false,"rental_uris":{"android":"levelo://app?vid=53fee224-a0ec-4a3e-ba0e-24305fe83f24","ios":"levelo://app?vid=53fee224-a0ec-4a3e-ba0e-24305fe83f24"},"vehicle_type_id":"4","last_reported":1741267091,"current_range_meters":15200,"station_id":"ce4bh312rcd13ifvqdk0","pricing_plan_id":"cebpf4jnsgd1na2vs0mg"},{"bike_id":"4cba11cf-7699-4166-9e1c-6e224ad942e2","system_id":"levelo_inurba_marseille","lat":43.29298,"lon":5.37166,"is_reserved":false,"is_disabled":false,"rental_uris":{"android":"levelo://app?vid=4cba11cf-7699-4166-9e1c-6e224ad942e2","ios":"levelo://app?vid=4cba11cf-7699-4166-9e1c-6e224ad942e2"},"vehicle_type_id":"4","last_reported":1741267091,"current_range_meters":14800,"station_id":"ce4bgh92rcd13ifvqb40","pricing_plan_id":"cebpf4jnsgd1na2vs0mg"},{"bike_id":"7adea85c-7f31-4ee6-bbf0-9d680f12c313","system_id":"levelo_inurba_marseille","lat":43.2827,"lon":5.35083,"is_reserved":false,"is_disabled":false,"rental_uris":{"android":"levelo://app?vid=7adea85c-7f31-4ee6-bbf0-9d680f12c313","ios":"levelo://app?vid=7adea85c-7f31-4ee6-bbf0-9d680f12c313"},"vehicle_type_id":"4","last_reported":1741267091,"current_range_meters":16000,"station_id":"ce4bhbp2rcd13ifvqerg","pricing_plan_id":"cebpf4jnsgd1na2vs0mg"},{"bike_id":"44f6f9d0-736d-4d41-bbe3-81b58bdcff46","system_id":"levelo_inurba_marseille","lat":43.31342,"lon":5.36773,"is_reserved":false,"is_disabled":false,"rental_uris":{"android":"levelo://app?vid=44f6f9d0-736d-4d41-bbe3-81b58bdcff46","ios":"levelo://app?vid=44f6f9d0-736d-4d41-bbe3-81b58bdcff46"},"vehicle_type_id":"4","last_reported":1741267091,"current_range_meters":16000,"station_id":"ce4bgr92rcd13ifvqc6g","pricing_plan_id":"cebpf4jnsgd1na2vs0mg"},{"bike_id":"b3eaca3c-3e02-4788-8e1c-7df7f67f5818","system_id":"levelo_inurba_marseille","lat":43.29843,"lon":5.36277,"is_reserved":false,"is_disabled":false,"rental_uris":{"android":"levelo://app?vid=b3eaca3c-3e02-4788-8e1c-7df7f67f5818","ios":"levelo://app?vid=b3eaca3c-3e02-4788-8e1c-7df7f67f5818"},"vehicle_type_id":"4","last_reported":1741267091,"current_range_meters":16000,"station_id":"ce4bgpp2rcd13ifvqc3g","pricing_plan_id":"cebpf4jnsgd1na2vs0mg"},{"bike_id":"a21a2bd8-5bf4-4722-aba8-9a9dc9fb2a97","system_id":"levelo_inurba_marseille","lat":43.3053,"lon":5.36535,"is_reserved":false,"is_disabled":false,"rental_uris":{"android":"levelo://app?vid=a21a2bd8-5bf4-4722-aba8-9a9dc9fb2a97","ios":"levelo://app?vid=a21a2bd8-5bf4-4722-aba8-9a9dc9fb2a97"},"vehicle_type_id":"4","last_reported":1741267091,"current_range_meters":16000,"station_id":"ce4bgs12rcd13ifvqcag","pricing_plan_id":"cebpf4jnsgd1na2vs0mg"},{"bike_id":"64e62cd7-6360-4df6-ac6e-27f63035d0d2","system_id":"levelo_inurba_marseille","lat":43.29023,"lon":5.37175,"is_reserved":false,"is_disabled":false,"rental_uris":{"android":"levelo://app?vid=64e62cd7-6360-4df6-ac6e-27f63035d0d2","ios":"levelo://app?vid=64e62cd7-6360-4df6-ac6e-27f63035d0d2"},"vehicle_type_id":"4","last_reported":1741267091,"current_range_meters":16000,"station_id":"ce4bh5p2rcd13ifvqe4g","pricing_plan_id":"cebpf4jnsgd1na2vs0mg"},{"bike_id":"396b3c83-63a7-4e9f-81bd-e5810b939dad","system_id":"levelo_inurba_marseille","lat":43.28624,"lon":5.35099,"is_reserved":false,"is_disabled":false,"rental_uris":{"android":"levelo://app?vid=396b3c83-63a7-4e9f-81bd-e5810b939dad","ios":"levelo://app?vid=396b3c83-63a7-4e9f-81bd-e5810b939dad"},"vehicle_type_id":"4","last_reported":1741267091,"current_range_meters":16000,"station_id":"ce4bhch2rcd13ifvqeug","pricing_plan_id":"cebpf4jnsgd1na2vs0mg"},{"bike_id":"2b335451-2759-471c-83e1-a5a099aba791","system_id":"levelo_inurba_marseille","lat":43.25824,"lon":5.39422,"is_reserved":false,"is_disabled":false,"rental_uris":{"android":"levelo://app?vid=2b335451-2759-471c-83e1-a5a099aba791","ios":"levelo://app?vid=2b335451-2759-471c-83e1-a5a099aba791"},"vehicle_type_id":"4","last_reported":1741267091,"current_range_meters":16000,"station_id":"ce4bhip2rcd13ifvqft0","pricing_plan_id":"cebpf4jnsgd1na2vs0mg"},{"bike_id":"68c19fc9-ba1c-4395-a7d2-1805fe31ec71","system_id":"levelo_inurba_marseille","lat":43.24169,"lon":5.39726,"is_reserved":false,"is_disabled":false,"rental_uris":{"android":"levelo://app?vid=68c19fc9-ba1c-4395-a7d2-1805fe31ec71","ios":"levelo://app?vid=68c19fc9-ba1c-4395-a7d2-1805fe31ec71"},"vehicle_type_id":"4","last_reported":1741267091,"current_range_meters":16000,"station_id":"ce4bhn12rcd13ifvqgpg","pricing_plan_id":"cebpf4jnsgd1na2vs0mg"},{"bike_id":"50c0582c-c29a-4761-8f14-e4c3c5fe5292","system_id":"levelo_inurba_marseille","lat":43.28935,"lon":5.36622,"is_reserved":false,"is_disabled":false,"rental_uris":{"android":"levelo://app?vid=50c0582c-c29a-4761-8f14-e4c3c5fe5292","ios":"levelo://app?vid=50c0582c-c29a-4761-8f14-e4c3c5fe5292"},"vehicle_type_id":"4","last_reported":1741267091,"current_range_meters":16000,"station_id":"ce4bhap2rcd13ifvqek0","pricing_plan_id":"cebpf4jnsgd1na2vs0mg"},{"bike_id":"50d9570c-efeb-4cb9-a07a-8e34c1ddf373","system_id":"levelo_inurba_marseille","lat":43.29314,"lon":5.3718,"is_reserved":false,"is_disabled":false,"rental_uris":{"android":"levelo://app?vid=50d9570c-efeb-4cb9-a07a-8e34c1ddf373","ios":"levelo://app?vid=50d9570c-efeb-4cb9-a07a-8e34c1ddf373"},"vehicle_type_id":"4","last_reported":1741267091,"current_range_meters":15200,"station_id":"ce4bgh92rcd13ifvqb40","pricing_plan_id":"cebpf4jnsgd1na2vs0mg"},{"bike_id":"3596b9c7-1449-4694-9061-505eed52be57","system_id":"levelo_inurba_marseille","lat":43.28845,"lon":5.39307,"is_reserved":false,"is_disabled":false,"rental_uris":{"android":"levelo://app?vid=3596b9c7-1449-4694-9061-505eed52be57","ios":"levelo://app?vid=3596b9c7-1449-4694-9061-505eed52be57"},"vehicle_type_id":"4","last_reported":1741267091,"current_range_meters":16000,"station_id":"ce4bh2p2rcd13ifvqdi0","pricing_plan_id":"cebpf4jnsgd1na2vs0mg"},{"bike_id":"c082b34c-df86-4f99-adec-46c5877abd4e","system_id":"levelo_inurba_marseille","lat":43.27836,"lon":5.39215,"is_reserved":false,"is_disabled":false,"rental_uris":{"android":"levelo://app?vid=c082b34c-df86-4f99-adec-46c5877abd4e","ios":"levelo://app?vid=c082b34c-df86-4f99-adec-46c5877abd4e"},"vehicle_type_id":"4","last_reported":1741267091,"current_range_meters":16000,"station_id":"ce4bhjp2rcd13ifvqga0","pricing_plan_id":"cebpf4jnsgd1na2vs0mg"},{"bike_id":"43b2b82d-afbe-4a95-9a4b-705b1fbdbe66","system_id":"levelo_inurba_marseille","lat":43.23974,"lon":5.3662,"is_reserved":false,"is_disabled":false,"rental_uris":{"android":"levelo://app?vid=43b2b82d-afbe-4a95-9a4b-705b1fbdbe66","ios":"levelo://app?vid=43b2b82d-afbe-4a95-9a4b-705b1fbdbe66"},"vehicle_type_id":"4","last_reported":1741267091,"current_range_meters":16000,"station_id":"ce4bhi12rcd13ifvqfp0","pricing_plan_id":"cebpf4jnsgd1na2vs0mg"},{"bike_id":"b67068ed-97b9-4219-ae31-01d05e5cf69e","system_id":"levelo_inurba_marseille","lat":43.32675,"lon":5.40976,"is_reserved":false,"is_disabled":false,"rental_uris":{"android":"levelo://app?vid=b67068ed-97b9-4219-ae31-01d05e5cf69e","ios":"levelo://app?vid=b67068ed-97b9-4219-ae31-01d05e5cf69e"},"vehicle_type_id":"4","last_reported":1741267091,"current_range_meters":16000,"station_id":"ce4bhpp2rcd13ifvqhgg","pricing_plan_id":"cebpf4jnsgd1na2vs0mg"},{"bike_id":"a8ef096b-11aa-4e63-89f0-aabc9a9c086b","system_id":"levelo_inurba_marseille","lat":43.29914,"lon":5.37467,"is_reserved":false,"is_disabled":false,"rental_uris":{"android":"levelo://app?vid=a8ef096b-11aa-4e63-89f0-aabc9a9c086b","ios":"levelo://app?vid=a8ef096b-11aa-4e63-89f0-aabc9a9c086b"},"vehicle_type_id":"4","last_reported":1741267091,"current_range_meters":16400,"station_id":"ce4bgjh2rcd13ifvqbg0","pricing_plan_id":"cebpf4jnsgd1na2vs0mg"},{"bike_id":"82dc1250-3133-44ae-ab67-1eae2b3ebd4d","system_id":"levelo_inurba_marseille","lat":43.32488,"lon":5.36566,"is_reserved":false,"is_disabled":false,"rental_uris":{"android":"levelo://app?vid=82dc1250-3133-44ae-ab67-1eae2b3ebd4d","ios":"levelo://app?vid=82dc1250-3133-44ae-ab67-1eae2b3ebd4d"},"vehicle_type_id":"4","last_reported":1741267091,"current_range_meters":16400,"station_id":"ce4bhs12rcd13ifvqhvg","pricing_plan_id":"cebpf4jnsgd1na2vs0mg"},{"bike_id":"cc5a77be-1f54-4338-8211-056af6658f44","system_id":"levelo_inurba_marseille","lat":43.29974,"lon":5.37174,"is_reserved":false,"is_disabled":false,"rental_uris":{"android":"levelo://app?vid=cc5a77be-1f54-4338-8211-056af6658f44","ios":"levelo://app?vid=cc5a77be-1f54-4338-8211-056af6658f44"},"vehicle_type_id":"4","last_reported":1741267091,"current_range_meters":16400,"station_id":"ce4bgr92rcd13ifvqc7g","pricing_plan_id":"cebpf4jnsgd1na2vs0mg"},{"bike_id":"acb01695-3aa8-47e2-8873-ad6047fd837f","system_id":"levelo_inurba_marseille","lat":43.26557,"lon":5.37286,"is_reserved":false,"is_disabled":false,"rental_uris":{"android":"levelo://app?vid=acb01695-3aa8-47e2-8873-ad6047fd837f","ios":"levelo://app?vid=acb01695-3aa8-47e2-8873-ad6047fd837f"},"vehicle_type_id":"4","last_reported":1741267091,"current_range_meters":16400,"station_id":"ce4bhg12rcd13ifvqf70","pricing_plan_id":"cebpf4jnsgd1na2vs0mg"},{"bike_id":"fd005411-fc0b-4419-a182-330c4d3471e2","system_id":"levelo_inurba_marseille","lat":43.28146,"lon":5.42645,"is_reserved":false,"is_disabled":false,"rental_uris":{"android":"levelo://app?vid=fd005411-fc0b-4419-a182-330c4d3471e2","ios":"levelo://app?vid=fd005411-fc0b-4419-a182-330c4d3471e2"},"vehicle_type_id":"4","last_reported":1741267091,"current_range_meters":16400,"station_id":"ce4bhnh2rcd13ifvqgug","pricing_plan_id":"cebpf4jnsgd1na2vs0mg"},{"bike_id":"3051c4d5-4c9c-4da3-b1b4-f0b027471483","system_id":"levelo_inurba_marseille","lat":43.2871,"lon":5.37949,"is_reserved":false,"is_disabled":false,"rental_uris":{"android":"levelo://app?vid=3051c4d5-4c9c-4da3-b1b4-f0b027471483","ios":"levelo://app?vid=3051c4d5-4c9c-4da3-b1b4-f0b027471483"},"vehicle_type_id":"4","last_reported":1741267091,"current_range_meters":16400,"station_id":"ce4bh9p2rcd13ifvqec0","pricing_plan_id":"cebpf4jnsgd1na2vs0mg"},{"bike_id":"0c2c61d1-0db7-4ae9-8d11-0c0780b8b4ea","system_id":"levelo_inurba_marseille","lat":43.26564,"lon":5.37282,"is_reserved":false,"is_disabled":false,"rental_uris":{"android":"levelo://app?vid=0c2c61d1-0db7-4ae9-8d11-0c0780b8b4ea","ios":"levelo://app?vid=0c2c61d1-0db7-4ae9-8d11-0c0780b8b4ea"},"vehicle_type_id":"4","last_reported":1741267091,"current_range_meters":16800,"station_id":"ce4bhg12rcd13ifvqf70","pricing_plan_id":"cebpf4jnsgd1na2vs0mg"},{"bike_id":"850ca576-eb14-414d-8f30-27f82395695f","system_id":"levelo_inurba_marseille","lat":43.26567,"lon":5.39006,"is_reserved":false,"is_disabled":false,"rental_uris":{"android":"levelo://app?vid=850ca576-eb14-414d-8f30-27f82395695f","ios":"levelo://app?vid=850ca576-eb14-414d-8f30-27f82395695f"},"vehicle_type_id":"4","last_reported":1741267091,"current_range_meters":16800,"station_id":"ce4bhe12rcd13ifvqf30","pricing_plan_id":"cebpf4jnsgd1na2vs0mg"},{"bike_id":"11e06683-8fbf-4e8d-be1a-c9322e803342","system_id":"levelo_inurba_marseille","lat":43.2314,"lon":5.43708,"is_reserved":false,"is_disabled":false,"rental_uris":{"android":"levelo://app?vid=11e06683-8fbf-4e8d-be1a-c9322e803342","ios":"levelo://app?vid=11e06683-8fbf-4e8d-be1a-c9322e803342"},"vehicle_type_id":"4","last_reported":1741267091,"current_range_meters":16800,"station_id":"ce4bhmp2rcd13ifvqgog","pricing_plan_id":"cebpf4jnsgd1na2vs0mg"},{"bike_id":"71715f46-73e0-40c1-a35b-96898e09f9e4","system_id":"levelo_inurba_marseille","lat":43.28349,"lon":5.38109,"is_reserved":false,"is_disabled":false,"rental_uris":{"android":"levelo://app?vid=71715f46-73e0-40c1-a35b-96898e09f9e4","ios":"levelo://app?vid=71715f46-73e0-40c1-a35b-96898e09f9e4"},"vehicle_type_id":"4","last_reported":1741267091,"current_range_meters":16800,"station_id":"ce4bh412rcd13ifvqdr0","pricing_plan_id":"cebpf4jnsgd1na2vs0mg"},{"bike_id":"9e6acd30-5458-4971-b8a0-116d587606c9","system_id":"levelo_inurba_marseille","lat":43.23153,"lon":5.43726,"is_reserved":false,"is_disabled":false,"rental_uris":{"android":"levelo://app?vid=9e6acd30-5458-4971-b8a0-116d587606c9","ios":"levelo://app?vid=9e6acd30-5458-4971-b8a0-116d587606c9"},"vehicle_type_id":"4","last_reported":1741267091,"current_range_meters":16800,"station_id":"ce4bhmp2rcd13ifvqgog","pricing_plan_id":"cebpf4jnsgd1na2vs0mg"},{"bike_id":"c4ab1e1c-3c0b-435d-947e-c99be46d2523","system_id":"levelo_inurba_marseille","lat":43.30425,"lon":5.38886,"is_reserved":false,"is_disabled":false,"rental_uris":{"android":"levelo://app?vid=c4ab1e1c-3c0b-435d-947e-c99be46d2523","ios":"levelo://app?vid=c4ab1e1c-3c0b-435d-947e-c99be46d2523"},"vehicle_type_id":"4","last_reported":1741267091,"current_range_meters":16800,"station_id":"ce4bgk12rcd13ifvqbi0","pricing_plan_id":"cebpf4jnsgd1na2vs0mg"},{"bike_id":"75b12a26-b396-4ff0-a45c-4035d76f6ada","system_id":"levelo_inurba_marseille","lat":43.29045,"lon":5.37545,"is_reserved":false,"is_disabled":false,"rental_uris":{"android":"levelo://app?vid=75b12a26-b396-4ff0-a45c-4035d76f6ada","ios":"levelo://app?vid=75b12a26-b396-4ff0-a45c-4035d76f6ada"},"vehicle_type_id":"4","last_reported":1741267091,"current_range_meters":16800,"station_id":"ce4bh692rcd13ifvqe90","pricing_plan_id":"cebpf4jnsgd1na2vs0mg"},{"bike_id":"d0a9e0b6-7460-48af-b167-fa241d6b44c3","system_id":"levelo_inurba_marseille","lat":43.32105,"lon":5.36774,"is_reserved":false,"is_disabled":false,"rental_uris":{"android":"levelo://app?vid=d0a9e0b6-7460-48af-b167-fa241d6b44c3","ios":"levelo://app?vid=d0a9e0b6-7460-48af-b167-fa241d6b44c3"},"vehicle_type_id":"4","last_reported":1741267091,"current_range_meters":16800,"station_id":"ce4bhrh2rcd13ifvqhug","pricing_plan_id":"cebpf4jnsgd1na2vs0mg"},{"bike_id":"a29797bc-5837-458c-9f34-2ffa36d5afaa","system_id":"levelo_inurba_marseille","lat":43.25819,"lon":5.39418,"is_reserved":false,"is_disabled":false,"rental_uris":{"android":"levelo://app?vid=a29797bc-5837-458c-9f34-2ffa36d5afaa","ios":"levelo://app?vid=a29797bc-5837-458c-9f34-2ffa36d5afaa"},"vehicle_type_id":"4","last_reported":1741267091,"current_range_meters":17200,"station_id":"ce4bhip2rcd13ifvqft0","pricing_plan_id":"cebpf4jnsgd1na2vs0mg"},{"bike_id":"3974fe57-a38c-4d39-ad72-20ade2c2a42b","system_id":"levelo_inurba_marseille","lat":43.290039,"lon":5.356105,"is_reserved":false,"is_disabled":false,"rental_uris":{"android":"levelo://app?vid=3974fe57-a38c-4d39-ad72-20ade2c2a42b","ios":"levelo://app?vid=3974fe57-a38c-4d39-ad72-20ade2c2a42b"},"vehicle_type_id":"4","last_reported":1741267091,"current_range_meters":17200,"station_id":"ce4bh3h2rcd13ifvqdn0","pricing_plan_id":"cebpf4jnsgd1na2vs0mg"},{"bike_id":"0f09371c-17f4-45b9-8287-041b50e27cd9","system_id":"levelo_inurba_marseille","lat":43.29096,"lon":5.38127,"is_reserved":false,"is_disabled":false,"rental_uris":{"android":"levelo://app?vid=0f09371c-17f4-45b9-8287-041b50e27cd9","ios":"levelo://app?vid=0f09371c-17f4-45b9-8287-041b50e27cd9"},"vehicle_type_id":"4","last_reported":1741267091,"current_range_meters":17200,"station_id":"ce4bh512rcd13ifvqe2g","pricing_plan_id":"cebpf4jnsgd1na2vs0mg"},{"bike_id":"4f6aa123-0765-4d7d-abc6-b6eeae4aa79d","system_id":"levelo_inurba_marseille","lat":43.28352,"lon":5.381,"is_reserved":false,"is_disabled":false,"rental_uris":{"android":"levelo://app?vid=4f6aa123-0765-4d7d-abc6-b6eeae4aa79d","ios":"levelo://app?vid=4f6aa123-0765-4d7d-abc6-b6eeae4aa79d"},"vehicle_type_id":"4","last_reported":1741267091,"current_range_meters":17200,"station_id":"ce4bh412rcd13ifvqdr0","pricing_plan_id":"cebpf4jnsgd1na2vs0mg"},{"bike_id":"129163d7-f332-4a81-832c-432e6b20bf63","system_id":"levelo_inurba_marseille","lat":43.28844,"lon":5.39312,"is_reserved":false,"is_disabled":false,"rental_uris":{"android":"levelo://app?vid=129163d7-f332-4a81-832c-432e6b20bf63","ios":"levelo://app?vid=129163d7-f332-4a81-832c-432e6b20bf63"},"vehicle_type_id":"4","last_reported":1741267091,"current_range_meters":16800,"station_id":"ce4bh2p2rcd13ifvqdi0","pricing_plan_id":"cebpf4jnsgd1na2vs0mg"},{"bike_id":"ee73aecc-ee00-4d0c-ae8b-633359487765","system_id":"levelo_inurba_marseille","lat":43.29248,"lon":5.37633,"is_reserved":false,"is_disabled":false,"rental_uris":{"android":"levelo://app?vid=ee73aecc-ee00-4d0c-ae8b-633359487765","ios":"levelo://app?vid=ee73aecc-ee00-4d0c-ae8b-633359487765"},"vehicle_type_id":"4","last_reported":1741267091,"current_range_meters":17200,"station_id":"ce4bgi12rcd13ifvqb80","pricing_plan_id":"cebpf4jnsgd1na2vs0mg"},{"bike_id":"10b74c6d-04bc-43c8-b892-4a1d3e03c2bd","system_id":"levelo_inurba_marseille","lat":43.2306,"lon":5.35493,"is_reserved":false,"is_disabled":false,"rental_uris":{"android":"levelo://app?vid=10b74c6d-04bc-43c8-b892-4a1d3e03c2bd","ios":"levelo://app?vid=10b74c6d-04bc-43c8-b892-4a1d3e03c2bd"},"vehicle_type_id":"4","last_reported":1741267091,"current_range_meters":17200,"station_id":"cpo3342slgdg3j2ifvpg","pricing_plan_id":"cebpf4jnsgd1na2vs0mg"},{"bike_id":"c2d48e7c-5fdf-46c1-ac78-f228ff5333c8","system_id":"levelo_inurba_marseille","lat":43.30194,"lon":5.36629,"is_reserved":false,"is_disabled":false,"rental_uris":{"android":"levelo://app?vid=c2d48e7c-5fdf-46c1-ac78-f228ff5333c8","ios":"levelo://app?vid=c2d48e7c-5fdf-46c1-ac78-f228ff5333c8"},"vehicle_type_id":"4","last_reported":1741267091,"current_range_meters":17200,"station_id":"ce4bgrh2rcd13ifvqc8g","pricing_plan_id":"cebpf4jnsgd1na2vs0mg"},{"bike_id":"ecc83a4b-16ef-4d67-b20e-a7d0af984f4f","system_id":"levelo_inurba_marseille","lat":43.30316,"lon":5.39188,"is_reserved":false,"is_disabled":false,"rental_uris":{"android":"levelo://app?vid=ecc83a4b-16ef-4d67-b20e-a7d0af984f4f","ios":"levelo://app?vid=ecc83a4b-16ef-4d67-b20e-a7d0af984f4f"},"vehicle_type_id":"4","last_reported":1741267091,"current_range_meters":17200,"station_id":"ce4bgkh2rcd13ifvqbk0","pricing_plan_id":"cebpf4jnsgd1na2vs0mg"},{"bike_id":"deabf1df-2edb-4371-bf19-1fc9db16ee77","system_id":"levelo_inurba_marseille","lat":43.28152,"lon":5.42642,"is_reserved":false,"is_disabled":false,"rental_uris":{"android":"levelo://app?vid=deabf1df-2edb-4371-bf19-1fc9db16ee77","ios":"levelo://app?vid=deabf1df-2edb-4371-bf19-1fc9db16ee77"},"vehicle_type_id":"4","last_reported":1741267091,"current_range_meters":17200,"station_id":"ce4bhnh2rcd13ifvqgug","pricing_plan_id":"cebpf4jnsgd1na2vs0mg"},{"bike_id":"67597cc4-63f0-46c6-91c9-f53823d64889","system_id":"levelo_inurba_marseille","lat":43.3046,"lon":5.3791,"is_reserved":false,"is_disabled":false,"rental_uris":{"android":"levelo://app?vid=67597cc4-63f0-46c6-91c9-f53823d64889","ios":"levelo://app?vid=67597cc4-63f0-46c6-91c9-f53823d64889"},"vehicle_type_id":"4","last_reported":1741267091,"current_range_meters":17200,"station_id":"ce4bgup2rcd13ifvqcn0","pricing_plan_id":"cebpf4jnsgd1na2vs0mg"},{"bike_id":"d74b75c2-32d2-4b67-9ada-40b1376bba0c","system_id":"levelo_inurba_marseille","lat":43.29015,"lon":5.35617,"is_reserved":false,"is_disabled":false,"rental_uris":{"android":"levelo://app?vid=d74b75c2-32d2-4b67-9ada-40b1376bba0c","ios":"levelo://app?vid=d74b75c2-32d2-4b67-9ada-40b1376bba0c"},"vehicle_type_id":"4","last_reported":1741267091,"current_range_meters":17200,"station_id":"ce4bhb92rcd13ifvqen0","pricing_plan_id":"cebpf4jnsgd1na2vs0mg"},{"bike_id":"8539877a-9deb-47ef-9258-c2e88ce6eb6a","system_id":"levelo_inurba_marseille","lat":43.31228,"lon":5.36873,"is_reserved":false,"is_disabled":false,"rental_uris":{"android":"levelo://app?vid=8539877a-9deb-47ef-9258-c2e88ce6eb6a","ios":"levelo://app?vid=8539877a-9deb-47ef-9258-c2e88ce6eb6a"},"vehicle_type_id":"4","last_reported":1741267091,"current_range_meters":17600,"station_id":"ce4bgl92rcd13ifvqbq0","pricing_plan_id":"cebpf4jnsgd1na2vs0mg"},{"bike_id":"68e488c2-9d73-4c91-9da2-5e65e0d498b1","system_id":"levelo_inurba_marseille","lat":43.26568,"lon":5.39076,"is_reserved":false,"is_disabled":false,"rental_uris":{"android":"levelo://app?vid=68e488c2-9d73-4c91-9da2-5e65e0d498b1","ios":"levelo://app?vid=68e488c2-9d73-4c91-9da2-5e65e0d498b1"},"vehicle_type_id":"4","last_reported":1741267091,"current_range_meters":17600,"station_id":"ce4bhe12rcd13ifvqf30","pricing_plan_id":"cebpf4jnsgd1na2vs0mg"},{"bike_id":"9ee872bc-53a8-4c73-a269-9d2d48c1b546","system_id":"levelo_inurba_marseille","lat":43.26557,"lon":5.37277,"is_reserved":false,"is_disabled":false,"rental_uris":{"android":"levelo://app?vid=9ee872bc-53a8-4c73-a269-9d2d48c1b546","ios":"levelo://app?vid=9ee872bc-53a8-4c73-a269-9d2d48c1b546"},"vehicle_type_id":"4","last_reported":1741267091,"current_range_meters":17600,"station_id":"ce4bhg12rcd13ifvqf70","pricing_plan_id":"cebpf4jnsgd1na2vs0mg"},{"bike_id":"d83a1a8c-8dfa-4175-aeef-e011bc2b2e0e","system_id":"levelo_inurba_marseille","lat":43.30458,"lon":5.37911,"is_reserved":false,"is_disabled":false,"rental_uris":{"android":"levelo://app?vid=d83a1a8c-8dfa-4175-aeef-e011bc2b2e0e","ios":"levelo://app?vid=d83a1a8c-8dfa-4175-aeef-e011bc2b2e0e"},"vehicle_type_id":"4","last_reported":1741267091,"current_range_meters":17600,"station_id":"ce4bgup2rcd13ifvqcn0","pricing_plan_id":"cebpf4jnsgd1na2vs0mg"},{"bike_id":"700f4088-de96-44e1-9816-232a169fb475","system_id":"levelo_inurba_marseille","lat":43.27167,"lon":5.4099,"is_reserved":false,"is_disabled":false,"rental_uris":{"android":"levelo://app?vid=700f4088-de96-44e1-9816-232a169fb475","ios":"levelo://app?vid=700f4088-de96-44e1-9816-232a169fb475"},"vehicle_type_id":"4","last_reported":1741267091,"current_range_meters":17200,"station_id":"ce4bhl12rcd13ifvqgf0","pricing_plan_id":"cebpf4jnsgd1na2vs0mg"},{"bike_id":"70c5d7c7-4e1c-4a19-91da-a6d9a038b4a3","system_id":"levelo_inurba_marseille","lat":43.269535,"lon":5.38633,"is_reserved":false,"is_disabled":false,"rental_uris":{"android":"levelo://app?vid=70c5d7c7-4e1c-4a19-91da-a6d9a038b4a3","ios":"levelo://app?vid=70c5d7c7-4e1c-4a19-91da-a6d9a038b4a3"},"vehicle_type_id":"4","last_reported":1741267091,"current_range_meters":17600,"station_id":"ce4bhh92rcd13ifvqfh0","pricing_plan_id":"cebpf4jnsgd1na2vs0mg"},{"bike_id":"782fe08b-9d60-4ad0-96e6-ef5b7062712d","system_id":"levelo_inurba_marseille","lat":43.28355,"lon":5.38099,"is_reserved":false,"is_disabled":false,"rental_uris":{"android":"levelo://app?vid=782fe08b-9d60-4ad0-96e6-ef5b7062712d","ios":"levelo://app?vid=782fe08b-9d60-4ad0-96e6-ef5b7062712d"},"vehicle_type_id":"4","last_reported":1741267091,"current_range_meters":17600,"station_id":"ce4bh412rcd13ifvqdr0","pricing_plan_id":"cebpf4jnsgd1na2vs0mg"},{"bike_id":"6ef2f0c7-41d1-4b78-9233-6c8008ecb064","system_id":"levelo_inurba_marseille","lat":43.29614,"lon":5.37729,"is_reserved":false,"is_disabled":false,"rental_uris":{"android":"levelo://app?vid=6ef2f0c7-41d1-4b78-9233-6c8008ecb064","ios":"levelo://app?vid=6ef2f0c7-41d1-4b78-9233-6c8008ecb064"},"vehicle_type_id":"4","last_reported":1741267091,"current_range_meters":18000,"station_id":"ce4bgi92rcd13ifvqb90","pricing_plan_id":"cebpf4jnsgd1na2vs0mg"},{"bike_id":"6ae77951-a909-4dfa-a933-35324bca41b7","system_id":"levelo_inurba_marseille","lat":43.25003,"lon":5.38918,"is_reserved":false,"is_disabled":false,"rental_uris":{"android":"levelo://app?vid=6ae77951-a909-4dfa-a933-35324bca41b7","ios":"levelo://app?vid=6ae77951-a909-4dfa-a933-35324bca41b7"},"vehicle_type_id":"4","last_reported":1741267091,"current_range_meters":18000,"station_id":"ce4bhgp2rcd13ifvqfd0","pricing_plan_id":"cebpf4jnsgd1na2vs0mg"},{"bike_id":"6f046122-7faa-4596-a77f-eb99960af65c","system_id":"levelo_inurba_marseille","lat":43.31179,"lon":5.3871,"is_reserved":false,"is_disabled":false,"rental_uris":{"android":"levelo://app?vid=6f046122-7faa-4596-a77f-eb99960af65c","ios":"levelo://app?vid=6f046122-7faa-4596-a77f-eb99960af65c"},"vehicle_type_id":"4","last_reported":1741267091,"current_range_meters":18000,"station_id":"ce4bgv12rcd13ifvqcp0","pricing_plan_id":"cebpf4jnsgd1na2vs0mg"},{"bike_id":"c75eea2d-7dce-4988-8691-9f1fc455370c","system_id":"levelo_inurba_marseille","lat":43.29793,"lon":5.38092,"is_reserved":false,"is_disabled":false,"rental_uris":{"android":"levelo://app?vid=c75eea2d-7dce-4988-8691-9f1fc455370c","ios":"levelo://app?vid=c75eea2d-7dce-4988-8691-9f1fc455370c"},"vehicle_type_id":"4","last_reported":1741267091,"current_range_meters":18000,"station_id":"ce4bgip2rcd13ifvqbb0","pricing_plan_id":"cebpf4jnsgd1na2vs0mg"},{"bike_id":"8d203f57-3343-4bc0-8a9c-79d1c1be1625","system_id":"levelo_inurba_marseille","lat":43.26829,"lon":5.40244,"is_reserved":false,"is_disabled":false,"rental_uris":{"android":"levelo://app?vid=8d203f57-3343-4bc0-8a9c-79d1c1be1625","ios":"levelo://app?vid=8d203f57-3343-4bc0-8a9c-79d1c1be1625"},"vehicle_type_id":"4","last_reported":1741267091,"current_range_meters":18000,"station_id":"ce501612rcd8frsf0b60","pricing_plan_id":"cebpf4jnsgd1na2vs0mg"},{"bike_id":"f8298a02-4bea-458e-90c1-7ea5b53e3d92","system_id":"levelo_inurba_marseille","lat":43.26949,"lon":5.38627,"is_reserved":false,"is_disabled":false,"rental_uris":{"android":"levelo://app?vid=f8298a02-4bea-458e-90c1-7ea5b53e3d92","ios":"levelo://app?vid=f8298a02-4bea-458e-90c1-7ea5b53e3d92"},"vehicle_type_id":"4","last_reported":1741267091,"current_range_meters":18000,"station_id":"ce4bhh92rcd13ifvqfh0","pricing_plan_id":"cebpf4jnsgd1na2vs0mg"},{"bike_id":"3c94b931-3649-4c69-bf1c-99f8fd15e284","system_id":"levelo_inurba_marseille","lat":43.32481,"lon":5.36562,"is_reserved":false,"is_disabled":false,"rental_uris":{"android":"levelo://app?vid=3c94b931-3649-4c69-bf1c-99f8fd15e284","ios":"levelo://app?vid=3c94b931-3649-4c69-bf1c-99f8fd15e284"},"vehicle_type_id":"4","last_reported":1741267091,"current_range_meters":18800,"station_id":"ce4bhs12rcd13ifvqhvg","pricing_plan_id":"cebpf4jnsgd1na2vs0mg"},{"bike_id":"8c6f03b2-af08-4d17-8a89-09d5a96c686f","system_id":"levelo_inurba_marseille","lat":43.30268,"lon":5.37716,"is_reserved":false,"is_disabled":false,"rental_uris":{"android":"levelo://app?vid=8c6f03b2-af08-4d17-8a89-09d5a96c686f","ios":"levelo://app?vid=8c6f03b2-af08-4d17-8a89-09d5a96c686f"},"vehicle_type_id":"4","last_reported":1741267091,"current_range_meters":18800,"station_id":"ce4bguh2rcd13ifvqcj0","pricing_plan_id":"cebpf4jnsgd1na2vs0mg"},{"bike_id":"a6aae316-bc4e-4414-a500-489b94f3c46b","system_id":"levelo_inurba_marseille","lat":43.27839,"lon":5.39219,"is_reserved":false,"is_disabled":false,"rental_uris":{"android":"levelo://app?vid=a6aae316-bc4e-4414-a500-489b94f3c46b","ios":"levelo://app?vid=a6aae316-bc4e-4414-a500-489b94f3c46b"},"vehicle_type_id":"4","last_reported":1741267091,"current_range_meters":18800,"station_id":"ce4bhjp2rcd13ifvqga0","pricing_plan_id":"cebpf4jnsgd1na2vs0mg"},{"bike_id":"3be89847-cd32-4a47-a87a-7ac657a4d465","system_id":"levelo_inurba_marseille","lat":43.28458,"lon":5.35887,"is_reserved":false,"is_disabled":false,"rental_uris":{"android":"levelo://app?vid=3be89847-cd32-4a47-a87a-7ac657a4d465","ios":"levelo://app?vid=3be89847-cd32-4a47-a87a-7ac657a4d465"},"vehicle_type_id":"4","last_reported":1741267091,"current_range_meters":18800,"station_id":"ce4bhah2rcd13ifvqei0","pricing_plan_id":"cebpf4jnsgd1na2vs0mg"},{"bike_id":"2f516f83-7e4d-4e09-b3c0-20a7021314c1","system_id":"levelo_inurba_marseille","lat":43.22925,"lon":5.35372,"is_reserved":false,"is_disabled":true,"rental_uris":{"android":"levelo://app?vid=2f516f83-7e4d-4e09-b3c0-20a7021314c1","ios":"levelo://app?vid=2f516f83-7e4d-4e09-b3c0-20a7021314c1"},"vehicle_type_id":"4","last_reported":1741267091,"current_range_meters":18800,"station_id":"cpo3532slgdg3j2ikp40","pricing_plan_id":"cebpf4jnsgd1na2vs0mg"},{"bike_id":"f7c96bee-6cb6-4ce4-a6a6-fb758722f7f3","system_id":"levelo_inurba_marseille","lat":43.30464,"lon":5.37912,"is_reserved":false,"is_disabled":false,"rental_uris":{"android":"levelo://app?vid=f7c96bee-6cb6-4ce4-a6a6-fb758722f7f3","ios":"levelo://app?vid=f7c96bee-6cb6-4ce4-a6a6-fb758722f7f3"},"vehicle_type_id":"4","last_reported":1741267091,"current_range_meters":18800,"station_id":"ce4bgup2rcd13ifvqcn0","pricing_plan_id":"cebpf4jnsgd1na2vs0mg"},{"bike_id":"feb5238c-0b78-455b-9753-fce498cba8c3","system_id":"levelo_inurba_marseille","lat":43.24065,"lon":5.3777,"is_reserved":false,"is_disabled":false,"rental_uris":{"android":"levelo://app?vid=feb5238c-0b78-455b-9753-fce498cba8c3","ios":"levelo://app?vid=feb5238c-0b78-455b-9753-fce498cba8c3"},"vehicle_type_id":"4","last_reported":1741267091,"current_range_meters":18000,"station_id":"ce4bhnp2rcd13ifvqgvg","pricing_plan_id":"cebpf4jnsgd1na2vs0mg"},{"bike_id":"43d55693-be44-4f7b-870d-2b17a576a397","system_id":"levelo_inurba_marseille","lat":43.26213,"lon":5.37443,"is_reserved":false,"is_disabled":false,"rental_uris":{"android":"levelo://app?vid=43d55693-be44-4f7b-870d-2b17a576a397","ios":"levelo://app?vid=43d55693-be44-4f7b-870d-2b17a576a397"},"vehicle_type_id":"4","last_reported":1741267091,"current_range_meters":18800,"station_id":"ce4bhgp2rcd13ifvqfc0","pricing_plan_id":"cebpf4jnsgd1na2vs0mg"},{"bike_id":"5f75ba61-02d5-48cc-b264-b113b66ed19b","system_id":"levelo_inurba_marseille","lat":43.32549,"lon":5.4144,"is_reserved":false,"is_disabled":false,"rental_uris":{"android":"levelo://app?vid=5f75ba61-02d5-48cc-b264-b113b66ed19b","ios":"levelo://app?vid=5f75ba61-02d5-48cc-b264-b113b66ed19b"},"vehicle_type_id":"4","last_reported":1741267091,"current_range_meters":19200,"station_id":"ce4bhq12rcd13ifvqhhg","pricing_plan_id":"cebpf4jnsgd1na2vs0mg"},{"bike_id":"11427a0f-d053-4ad5-815e-32459c0ac38a","system_id":"levelo_inurba_marseille","lat":43.3027,"lon":5.37717,"is_reserved":false,"is_disabled":false,"rental_uris":{"android":"levelo://app?vid=11427a0f-d053-4ad5-815e-32459c0ac38a","ios":"levelo://app?vid=11427a0f-d053-4ad5-815e-32459c0ac38a"},"vehicle_type_id":"4","last_reported":1741267091,"current_range_meters":19200,"station_id":"ce4bguh2rcd13ifvqcj0","pricing_plan_id":"cebpf4jnsgd1na2vs0mg"},