{"last_updated":1750090390,"ttl":60,"version":"2.2","data":{"bikes":[{"bike_id":"3da29fb8-fc97-44c6-b9ac-31dd456b2fd4","system_id":"levelo_inurba_marseille","lat":43.33771,"lon":5.37424,"is_reserved":false,"is_disabled":true,"rental_uris":{"android":"levelo://app?vid=3da29fb8-fc97-44c6-b9ac-31dd456b2fd4","ios":"levelo://app?vid=3da29fb8-fc97-44c6-b9ac-31dd456b2fd4"},"vehicle_type_id":"4","last_reported":1750090390,"current_range_meters":0,"station_id":"","pricing_plan_id":"cebpf4jnsgd1na2vs0mg"},{"bike_id":"01861ad8-a8d7-4be6-816e-651927c87584","system_id":"levelo_inurba_marseille","lat":43.33751,"lon":5.37456,"is_reserved":false,"is_disabled":true,"rental_uris":{"android":"levelo://app?vid=01861ad8-a8d7-4be6-816e-651927c87584","ios":"levelo://app?vid=01861ad8-a8d7-4be6-816e-651927c87584"},"vehicle_type_id":"4","last_reported":1750090390,"current_range_meters":0,"station_id":"","pricing_plan_id":"cebpf4jnsgd1na2vs0mg"},{"bike_id":"75fedb85-69fb-41ee-af8e-d84495d8a937","system_id":"levelo_inurba_marseille","lat":43.30476,"lon":5.36545,"is_reserved":false,"is_disabled":false,"rental_uris":{"android":"levelo://app?vid=75fedb85-69fb-41ee-af8e-d84495d8a937","ios":"levelo://app?vid=75fedb85-69fb-41ee-af8e-d84495d8a937"},"vehicle_type_id":"4","last_reported":1750090390,"current_range_meters":0,"station_id":"","pricing_plan_id":"cebpf4jnsgd1na2vs0mg"},{"bike_id":"d2bd57c8-6b64-48db-ad24-5398eb3fd9d6","system_id":"levelo_inurba_marseille","lat":43.337444,"lon":5.374475,"is_reserved":false,"is_disabled":true,"rental_uris":{"android":"levelo://app?vid=d2bd57c8-6b64-48db-ad24-5398eb3fd9d6","ios":"levelo://app?vid=d2bd57c8-6b64-48db-ad24-5398eb3fd9d6"},"vehicle_type_id":"4","last_reported":1750090390,"current_range_meters":0,"station_id":"","pricing_plan_id":"cebpf4jnsgd1na2vs0mg"},{"bike_id":"31efc9ba-0c74-4af5-9228-1de18fc992e3","system_id":"levelo_inurba_marseille","lat":43.30002,"lon":5.37008,"is_reserved":false,"is_disabled":true,"rental_uris":{"android":"levelo://app?vid=31efc9ba-0c74-4af5-9228-1de18fc992e3","ios":"levelo://app?vid=31efc9ba-0c74-4af5-9228-1de18fc992e3"},"vehicle_type_id":"4","last_reported":1750090390,"current_range_meters":0,"station_id":"","pricing_plan_id":"cebpf4jnsgd1na2vs0mg"},{"bike_id":"62a493c7-4534-4419-ad43-0582de34a72a","system_id":"levelo_inurba_marseille","lat":43.21366,"lon":5.355183,"is_reserved":false,"is_disabled":true,"rental_uris":{"android":"levelo://app?vid=62a493c7-4534-4419-ad43-0582de34a72a","ios":"levelo://app?vid=62a493c7-4534-4419-ad43-0582de34a72a"},"vehicle_type_id":"4","last_reported":1750090390,"current_range_meters":0,"station_id":"","pricing_plan_id":"cebpf4jnsgd1na2vs0mg"},{"bike_id":"c62a3532-5b9b-4775-9c30-3af76a7d3009","system_id":"levelo_inurba_marseille","lat":43.27253,"lon":5.36258,"is_reserved":false,"is_disabled":true,"rental_uris":{"android":"levelo://app?vid=c62a3532-5b9b-4775-9c30-3af76a7d3009","ios":"levelo://app?vid=c62a3532-5b9b-4775-9c30-3af76a7d3009"},"vehicle_type_id":"4","last_reported":1750090390,"current_range_meters":0,"station_id":"","pricing_plan_id":"cebpf4jnsgd1na2vs0mg"},{"bike_id":"117f24b3-d6ce-455f-99fd-f28a795c0458","system_id":"levelo_inurba_marseille","lat":43.279933,"lon":5.38471,"is_reserved":false,"is_disabled":true,"rental_uris":{"android":"levelo://app?vid=117f24b3-d6ce-455f-99fd-f28a795c0458","ios":"levelo://app?vid=117f24b3-d6ce-455f-99fd-f28a795c0458"},"vehicle_type_id":"4","last_reported":1750090390,"current_range_meters":0,"station_id":"","pricing_plan_id":"cebpf4jnsgd1na2vs0mg"},{"bike_id":"946f5633-31c1-46bf-ab81-23560e476e56","system_id":"levelo_inurba_marseille","lat":43.26052,"lon":5.38735,"is_reserved":false,"is_disabled":true,"rental_uris":{"android":"levelo://app?vid=946f5633-31c1-46bf-ab81-23560e476e56","ios":"levelo://app?vid=946f5633-31c1-46bf-ab81-23560e476e56"},"vehicle_type_id":"4","last_reported":1750090390,"current_range_meters":0,"station_id":"","pricing_plan_id":"cebpf4jnsgd1na2vs0mg"},{"bike_id":"caca20da-18e0-443e-a3dc-04ab1bbad8db","system_id":"levelo_inurba_marseille","lat":43.2714,"lon":5.36413,"is_reserved":false,"is_disabled":true,"rental_uris":{"android":"levelo://app?vid=caca20da-18e0-443e-a3dc-04ab1bbad8db","ios":"levelo://app?vid=caca20da-18e0-443e-a3dc-04ab1bbad8db"},"vehicle_type_id":"4","last_reported":1750090390,"current_range_meters":0,"station_id":"","pricing_plan_id":"cebpf4jnsgd1na2vs0mg"},{"bike_id":"93af304b-67b5-47b8-a3fd-e0775f7cde8c","system_id":"levelo_inurba_marseille","lat":43.21552,"lon":5.34728,"is_reserved":false,"is_disabled":true,"rental_uris":{"android":"levelo://app?vid=93af304b-67b5-47b8-a3fd-e0775f7cde8c","ios":"levelo://app?vid=93af304b-67b5-47b8-a3fd-e0775f7cde8c"},"vehicle_type_id":"4","last_reported":1750090390,"current_range_meters":0,"station_id":"","pricing_plan_id":"cebpf4jnsgd1na2vs0mg"},{"bike_id":"d6609b4f-333b-43c1-9ebe-8726f5e76e88","system_id":"levelo_inurba_marseille","lat":43.337444,"lon":5.374475,"is_reserved":false,"is_disabled":true,"rental_uris":{"android":"levelo://app?vid=d6609b4f-333b-43c1-9ebe-8726f5e76e88","ios":"levelo://app?vid=d6609b4f-333b-43c1-9ebe-8726f5e76e88"},"vehicle_type_id":"4","last_reported":1750090390,"current_range_meters":0,"station_id":"","pricing_plan_id":"cebpf4jnsgd1na2vs0mg"},{"bike_id":"a354a693-87cc-4bf2-b99d-b0ea81e88075","system_id":"levelo_inurba_marseille","lat":43.261569,"lon":5.388241,"is_reserved":false,"is_disabled":true,"rental_uris":{"android":"levelo://app?vid=a354a693-87cc-4bf2-b99d-b0ea81e88075","ios":"levelo://app?vid=a354a693-87cc-4bf2-b99d-b0ea81e88075"},"vehicle_type_id":"4","last_reported":1750090390,"current_range_meters":0,"station_id":"","pricing_plan_id":"cebpf4jnsgd1na2vs0mg"},{"bike_id":"eed04f3f-ddc2-4b0a-8547-a6490a5370f9","system_id":"levelo_inurba_marseille","lat":43.29532,"lon":5.38548,"is_reserved":false,"is_disabled":true,"rental_uris":{"android":"levelo://app?vid=eed04f3f-ddc2-4b0a-8547-a6490a5370f9","ios":"levelo://app?vid=eed04f3f-ddc2-4b0a-8547-a6490a5370f9"},"vehicle_type_id":"4","last_reported":1750090390,"current_range_meters":0,"station_id":"ce4bgih2rcd13ifvqba0","pricing_plan_id":"cebpf4jnsgd1na2vs0mg"},{"bike_id":"0fcb3529-38be-4bfa-92a9-a3bbda9f6282","system_id":"levelo_inurba_marseille","lat":43.30821,"lon":5.38156,"is_reserved":false,"is_disabled":true,"rental_uris":{"android":"levelo://app?vid=0fcb3529-38be-4bfa-92a9-a3bbda9f6282","ios":"levelo://app?vid=0fcb3529-38be-4bfa-92a9-a3bbda9f6282"},"vehicle_type_id":"4","last_reported":1750090390,"current_range_meters":0,"station_id":"ce4bgt12rcd13ifvqce0","pricing_plan_id":"cebpf4jnsgd1na2vs0mg"},{"bike_id":"134eaf33-92fc-4dd9-b429-483dd3083abe","system_id":"levelo_inurba_marseille","lat":43.29874,"lon":5.38917,"is_reserved":false,"is_disabled":true,"rental_uris":{"android":"levelo://app?vid=134eaf33-92fc-4dd9-b429-483dd3083abe","ios":"levelo://app?vid=134eaf33-92fc-4dd9-b429-483dd3083abe"},"vehicle_type_id":"4","last_reported":1750090390,"current_range_meters":0,"station_id":"ce4bh392rcd13ifvqdl0","pricing_plan_id":"cebpf4jnsgd1na2vs0mg"},{"bike_id":"d410d991-8c70-4ccd-b770-dffa6eff7db3","system_id":"levelo_inurba_marseille","lat":43.28856,"lon":5.35855,"is_reserved":false,"is_disabled":true,"rental_uris":{"android":"levelo://app?vid=d410d991-8c70-4ccd-b770-dffa6eff7db3","ios":"levelo://app?vid=d410d991-8c70-4ccd-b770-dffa6eff7db3"},"vehicle_type_id":"4","last_reported":1750090390,"current_range_meters":0,"station_id":"ce4bhb12rcd13ifvqem0","pricing_plan_id":"cebpf4jnsgd1na2vs0mg"},{"bike_id":"83e81c72-f41a-4e60-b649-6558eda982a7","system_id":"levelo_inurba_marseille","lat":43.25944,"lon":5.40897,"is_reserved":false,"is_disabled":true,"rental_uris":{"android":"levelo://app?vid=83e81c72-f41a-4e60-b649-6558eda982a7","ios":"levelo://app?vid=83e81c72-f41a-4e60-b649-6558eda982a7"},"vehicle_type_id":"4","last_reported":1750090390,"current_range_meters":0,"station_id":"ce4bhm92rcd13ifvqglg","pricing_plan_id":"cebpf4jnsgd1na2vs0mg"},{"bike_id":"a8688c71-a40c-4167-85f7-821595ff3623","system_id":"levelo_inurba_marseille","lat":43.29838,"lon":5.38307,"is_reserved":false,"is_disabled":true,"rental_uris":{"android":"levelo://app?vid=a8688c71-a40c-4167-85f7-821595ff3623","ios":"levelo://app?vid=a8688c71-a40c-4167-85f7-821595ff3623"},"vehicle_type_id":"4","last_reported":1750090390,"current_range_meters":800,"station_id":"","pricing_plan_id":"cebpf4jnsgd1na2vs0mg"},{"bike_id":"61cf2667-eab3-4e37-a45f-635940e4777f","system_id":"levelo_inurba_marseille","lat":43.31503,"lon":5.37303,"is_reserved":false,"is_disabled":true,"rental_uris":{"android":"levelo://app?vid=61cf2667-eab3-4e37-a45f-635940e4777f","ios":"levelo://app?vid=61cf2667-eab3-4e37-a45f-635940e4777f"},"vehicle_type_id":"4","last_reported":1750090390,"current_range_meters":800,"station_id":"ce4bgt12rcd13ifvqcd0","pricing_plan_id":"cebpf4jnsgd1na2vs0mg"},{"bike_id":"95d4124e-2313-448e-a53e-f74098423411","system_id":"levelo_inurba_marseille","lat":43.31322,"lon":5.39694,"is_reserved":false,"is_disabled":true,"rental_uris":{"android":"levelo://app?vid=95d4124e-2313-448e-a53e-f74098423411","ios":"levelo://app?vid=95d4124e-2313-448e-a53e-f74098423411"},"vehicle_type_id":"4","last_reported":1750090390,"current_range_meters":800,"station_id":"ce4bgvp2rcd13ifvqcu0","pricing_plan_id":"cebpf4jnsgd1na2vs0mg"},{"bike_id":"370d240d-758a-4161-a498-16a7813afd78","system_id":"levelo_inurba_marseille","lat":43.28461,"lon":5.35883,"is_reserved":false,"is_disabled":true,"rental_uris":{"android":"levelo://app?vid=370d240d-758a-4161-a498-16a7813afd78","ios":"levelo://app?vid=370d240d-758a-4161-a498-16a7813afd78"},"vehicle_type_id":"4","last_reported":1750090390,"current_range_meters":800,"station_id":"ce4bhah2rcd13ifvqei0","pricing_plan_id":"cebpf4jnsgd1na2vs0mg"},{"bike_id":"92f6eec2-f642-424e-9d61-c481f249fca4","system_id":"levelo_inurba_marseille","lat":43.29189,"lon":5.35807,"is_reserved":false,"is_disabled":true,"rental_uris":{"android":"levelo://app?vid=92f6eec2-f642-424e-9d61-c481f249fca4","ios":"levelo://app?vid=92f6eec2-f642-424e-9d61-c481f249fca4"},"vehicle_type_id":"4","last_reported":1750090390,"current_range_meters":800,"station_id":"ce4bhb12rcd13ifvqel0","pricing_plan_id":"cebpf4jnsgd1na2vs0mg"},{"bike_id":"d1ff4cb9-9ed6-4d52-a8e1-12389c6551b8","system_id":"levelo_inurba_marseille","lat":43.32364,"lon":5.36771,"is_reserved":false,"is_disabled":true,"rental_uris":{"android":"levelo://app?vid=d1ff4cb9-9ed6-4d52-a8e1-12389c6551b8","ios":"levelo://app?vid=d1ff4cb9-9ed6-4d52-a8e1-12389c6551b8"},"vehicle_type_id":"4","last_reported":1750090390,"current_range_meters":800,"station_id":"ce4bhsh2rcd13ifvqi2g","pricing_plan_id":"cebpf4jnsgd1na2vs0mg"},{"bike_id":"61068e64-b594-4bf8-8626-ee3327a12018","system_id":"levelo_inurba_marseille","lat":43.29946,"lon":5.38542,"is_reserved":false,"is_disabled":true,"rental_uris":{"android":"levelo://app?vid=61068e64-b594-4bf8-8626-ee3327a12018","ios":"levelo://app?vid=61068e64-b594-4bf8-8626-ee3327a12018"},"vehicle_type_id":"4","last_reported":1750090390,"current_range_meters":1200,"station_id":"ce4bgj92rcd13ifvqbd0","pricing_plan_id":"cebpf4jnsgd1na2vs0mg"},{"bike_id":"956d61bb-6825-41be-a6c4-0daaee3c38be","system_id":"levelo_inurba_marseille","lat":43.28671,"lon":5.38652,"is_reserved":false,"is_disabled":true,"rental_uris":{"android":"levelo://app?vid=956d61bb-6825-41be-a6c4-0daaee3c38be","ios":"levelo://app?vid=956d61bb-6825-41be-a6c4-0daaee3c38be"},"vehicle_type_id":"4","last_reported":1750090390,"current_range_meters":1200,"station_id":"ce4bh492rcd13ifvqdug","pricing_plan_id":"cebpf4jnsgd1na2vs0mg"},{"bike_id":"231405c2-a5ba-4bfd-ba09-b3bd95384907","system_id":"levelo_inurba_marseille","lat":43.28259,"lon":5.35082,"is_reserved":false,"is_disabled":true,"rental_uris":{"android":"levelo://app?vid=231405c2-a5ba-4bfd-ba09-b3bd95384907","ios":"levelo://app?vid=231405c2-a5ba-4bfd-ba09-b3bd95384907"},"vehicle_type_id":"4","last_reported":1750090390,"current_range_meters":1200,"station_id":"ce4bhbp2rcd13ifvqerg","pricing_plan_id":"cebpf4jnsgd1na2vs0mg"},{"bike_id":"23b791e9-b4d9-4912-8547-314bba01156d","system_id":"levelo_inurba_marseille","lat":43.30355,"lon":5.41889,"is_reserved":false,"is_disabled":true,"rental_uris":{"android":"levelo://app?vid=23b791e9-b4d9-4912-8547-314bba01156d","ios":"levelo://app?vid=23b791e9-b4d9-4912-8547-314bba01156d"},"vehicle_type_id":"4","last_reported":1750090390,"current_range_meters":1200,"station_id":"ce4bhop2rcd13ifvqh7g","pricing_plan_id":"cebpf4jnsgd1na2vs0mg"},{"bike_id":"8b6b942c-3cbc-48bb-8074-3d05d0333b1b","system_id":"levelo_inurba_marseille","lat":43.28725,"lon":5.37934,"is_reserved":false,"is_disabled":true,"rental_uris":{"android":"levelo://app?vid=8b6b942c-3cbc-48bb-8074-3d05d0333b1b","ios":"levelo://app?vid=8b6b942c-3cbc-48bb-8074-3d05d0333b1b"},"vehicle_type_id":"4","last_reported":1750090390,"current_range_meters":1600,"station_id":"ce4bh9p2rcd13ifvqec0","pricing_plan_id":"cebpf4jnsgd1na2vs0mg"},{"bike_id":"f4284218-da0a-4820-b190-e707137eb77e","system_id":"levelo_inurba_marseille","lat":43.2862,"lon":5.35107,"is_reserved":false,"is_disabled":true,"rental_uris":{"android":"levelo://app?vid=f4284218-da0a-4820-b190-e707137eb77e","ios":"levelo://app?vid=f4284218-da0a-4820-b190-e707137eb77e"},"vehicle_type_id":"4","last_reported":1750090390,"current_range_meters":1600,"station_id":"ce4bhch2rcd13ifvqeug","pricing_plan_id":"cebpf4jnsgd1na2vs0mg"},{"bike_id":"e7bd1dc3-9333-4e5f-96b8-6b8730e237df","system_id":"levelo_inurba_marseille","lat":43.29003,"lon":5.35609,"is_reserved":false,"is_disabled":false,"rental_uris":{"android":"levelo://app?vid=e7bd1dc3-9333-4e5f-96b8-6b8730e237df","ios":"levelo://app?vid=e7bd1dc3-9333-4e5f-96b8-6b8730e237df"},"vehicle_type_id":"4","last_reported":1750090390,"current_range_meters":2000,"station_id":"ce4bhb92rcd13ifvqen0","pricing_plan_id":"cebpf4jnsgd1na2vs0mg"},{"bike_id":"08326326-9092-4e26-bdb0-c020f4e46c29","system_id":"levelo_inurba_marseille","lat":43.2827,"lon":5.35056,"is_reserved":false,"is_disabled":false,"rental_uris":{"android":"levelo://app?vid=08326326-9092-4e26-bdb0-c020f4e46c29","ios":"levelo://app?vid=08326326-9092-4e26-bdb0-c020f4e46c29"},"vehicle_type_id":"4","last_reported":1750090390,"current_range_meters":2000,"station_id":"ce4bhbp2rcd13ifvqerg","pricing_plan_id":"cebpf4jnsgd1na2vs0mg"},{"bike_id":"2836a656-d655-4ff3-a99c-2589af6f088b","system_id":"levelo_inurba_marseille","lat":43.27696,"lon":5.38867,"is_reserved":false,"is_disabled":true,"rental_uris":{"android":"levelo://app?vid=2836a656-d655-4ff3-a99c-2589af6f088b","ios":"levelo://app?vid=2836a656-d655-4ff3-a99c-2589af6f088b"},"vehicle_type_id":"4","last_reported":1750090390,"current_range_meters":2000,"station_id":"ce4bhi12rcd13ifvqfo0","pricing_plan_id":"cebpf4jnsgd1na2vs0mg"},{"bike_id":"e905d6f2-f2b0-487a-9709-ccfdac9baee4","system_id":"levelo_inurba_marseille","lat":43.30834,"lon":5.37063,"is_reserved":false,"is_disabled":false,"rental_uris":{"android":"levelo://app?vid=e905d6f2-f2b0-487a-9709-ccfdac9baee4","ios":"levelo://app?vid=e905d6f2-f2b0-487a-9709-ccfdac9baee4"},"vehicle_type_id":"4","last_reported":1750090390,"current_range_meters":3200,"station_id":"","pricing_plan_id":"cebpf4jnsgd1na2vs0mg"},{"bike_id":"cbfb4586-8460-4b4b-b682-17f011d5235f","system_id":"levelo_inurba_marseille","lat":43.30849,"lon":5.37018,"is_reserved":false,"is_disabled":false,"rental_uris":{"android":"levelo://app?vid=cbfb4586-8460-4b4b-b682-17f011d5235f","ios":"levelo://app?vid=cbfb4586-8460-4b4b-b682-17f011d5235f"},"vehicle_type_id":"4","last_reported":1750090390,"current_range_meters":3200,"station_id":"","pricing_plan_id":"cebpf4jnsgd1na2vs0mg"},{"bike_id":"53ae7f6e-5165-4a78-895d-75fdf51828a4","system_id":"levelo_inurba_marseille","lat":43.28494,"lon":5.38415,"is_reserved":false,"is_disabled":false,"rental_uris":{"android":"levelo://app?vid=53ae7f6e-5165-4a78-895d-75fdf51828a4","ios":"levelo://app?vid=53ae7f6e-5165-4a78-895d-75fdf51828a4"},"vehicle_type_id":"4","last_reported":1750090390,"current_range_meters":3200,"station_id":"ce4bh512rcd13ifvqe3g","pricing_plan_id":"cebpf4jnsgd1na2vs0mg"},{"bike_id":"6bad793a-e2b4-47a5-bf17-b0b31f461be2","system_id":"levelo_inurba_marseille","lat":43.2904,"lon":5.35912,"is_reserved":false,"is_disabled":false,"rental_uris":{"android":"levelo://app?vid=6bad793a-e2b4-47a5-bf17-b0b31f461be2","ios":"levelo://app?vid=6bad793a-e2b4-47a5-bf17-b0b31f461be2"},"vehicle_type_id":"4","last_reported":1750090390,"current_range_meters":3200,"station_id":"ce4bha92rcd13ifvqeg0","pricing_plan_id":"cebpf4jnsgd1na2vs0mg"},{"bike_id":"1827d622-e20d-4be6-99ac-0d1e0724dbb6","system_id":"levelo_inurba_marseille","lat":43.337444,"lon":5.374475,"is_reserved":false,"is_disabled":false,"rental_uris":{"android":"levelo://app?vid=1827d622-e20d-4be6-99ac-0d1e0724dbb6","ios":"levelo://app?vid=1827d622-e20d-4be6-99ac-0d1e0724dbb6"},"vehicle_type_id":"4","last_reported":1750090390,"current_range_meters":3600,"station_id":"","pricing_plan_id":"cebpf4jnsgd1na2vs0mg"},{"bike_id":"e76b0a79-eb5c-4868-8975-4d62a6b20a77","system_id":"levelo_inurba_marseille","lat":43.29301,"lon":5.37178,"is_reserved":false,"is_disabled":false,"rental_uris":{"android":"levelo://app?vid=e76b0a79-eb5c-4868-8975-4d62a6b20a77","ios":"levelo://app?vid=e76b0a79-eb5c-4868-8975-4d62a6b20a77"},"vehicle_type_id":"4","last_reported":1750090390,"current_range_meters":3600,"station_id":"ce4bgh92rcd13ifvqb40","pricing_plan_id":"cebpf4jnsgd1na2vs0mg"},{"bike_id":"ac370af0-70b8-48d9-bcb5-4189ee6e046d","system_id":"levelo_inurba_marseille","lat":43.29707,"lon":5.36608,"is_reserved":false,"is_disabled":false,"rental_uris":{"android":"levelo://app?vid=ac370af0-70b8-48d9-bcb5-4189ee6e046d","ios":"levelo://app?vid=ac370af0-70b8-48d9-bcb5-4189ee6e046d"},"vehicle_type_id":"4","last_reported":1750090390,"current_range_meters":3600,"station_id":"ce4bgn12rcd13ifvqbt0","pricing_plan_id":"cebpf4jnsgd1na2vs0mg"},{"bike_id":"af46414a-3414-4acf-8efd-2fb1ce7d8cc5","system_id":"levelo_inurba_marseille","lat":43.30589,"lon":5.39346,"is_reserved":false,"is_disabled":false,"rental_uris":{"android":"levelo://app?vid=af46414a-3414-4acf-8efd-2fb1ce7d8cc5","ios":"levelo://app?vid=af46414a-3414-4acf-8efd-2fb1ce7d8cc5"},"vehicle_type_id":"4","last_reported":1750090390,"current_range_meters":3600,"station_id":"ce4bh0p2rcd13ifvqd80","pricing_plan_id":"cebpf4jnsgd1na2vs0mg"},{"bike_id":"84a1c63b-fef2-4427-bed6-fadf03e0c789","system_id":"levelo_inurba_marseille","lat":43.29033,"lon":5.39977,"is_reserved":false,"is_disabled":false,"rental_uris":{"android":"levelo://app?vid=84a1c63b-fef2-4427-bed6-fadf03e0c789","ios":"levelo://app?vid=84a1c63b-fef2-4427-bed6-fadf03e0c789"},"vehicle_type_id":"4","last_reported":1750090390,"current_range_meters":3600,"station_id":"ce4bh392rcd13ifvqdm0","pricing_plan_id":"cebpf4jnsgd1na2vs0mg"},{"bike_id":"efba0ff4-0818-4712-9736-11696b18c239","system_id":"levelo_inurba_marseille","lat":43.22932,"lon":5.35379,"is_reserved":false,"is_disabled":false,"rental_uris":{"android":"levelo://app?vid=efba0ff4-0818-4712-9736-11696b18c239","ios":"levelo://app?vid=efba0ff4-0818-4712-9736-11696b18c239"},"vehicle_type_id":"4","last_reported":1750090390,"current_range_meters":3600,"station_id":"cpo3532slgdg3j2ikp40","pricing_plan_id":"cebpf4jnsgd1na2vs0mg"},{"bike_id":"23272184-6185-4c98-ad9e-66fd44a9e05c","system_id":"levelo_inurba_marseille","lat":43.30926,"lon":5.40144,"is_reserved":false,"is_disabled":false,"rental_uris":{"android":"levelo://app?vid=23272184-6185-4c98-ad9e-66fd44a9e05c","ios":"levelo://app?vid=23272184-6185-4c98-ad9e-66fd44a9e05c"},"vehicle_type_id":"4","last_reported":1750090390,"current_range_meters":4000,"station_id":"ce4bgvp2rcd13ifvqct0","pricing_plan_id":"cebpf4jnsgd1na2vs0mg"},{"bike_id":"21cb65f2-bcdf-433a-8501-7291d74ee449","system_id":"levelo_inurba_marseille","lat":43.28859,"lon":5.35838,"is_reserved":false,"is_disabled":false,"rental_uris":{"android":"levelo://app?vid=21cb65f2-bcdf-433a-8501-7291d74ee449","ios":"levelo://app?vid=21cb65f2-bcdf-433a-8501-7291d74ee449"},"vehicle_type_id":"4","last_reported":1750090390,"current_range_meters":4000,"station_id":"ce4bhb12rcd13ifvqem0","pricing_plan_id":"cebpf4jnsgd1na2vs0mg"},{"bike_id":"4fb3ee33-cc56-437d-82ca-d9c49754e225","system_id":"levelo_inurba_marseille","lat":43.282692,"lon":5.35069,"is_reserved":false,"is_disabled":false,"rental_uris":{"android":"levelo://app?vid=4fb3ee33-cc56-437d-82ca-d9c49754e225","ios":"levelo://app?vid=4fb3ee33-cc56-437d-82ca-d9c49754e225"},"vehicle_type_id":"4","last_reported":1750090390,"current_range_meters":4000,"station_id":"ce4bhbp2rcd13ifvqerg","pricing_plan_id":"cebpf4jnsgd1na2vs0mg"},{"bike_id":"885303e4-8cdf-45e6-9679-562b038ae668","system_id":"levelo_inurba_marseille","lat":43.25502,"lon":5.37653,"is_reserved":false,"is_disabled":false,"rental_uris":{"android":"levelo://app?vid=885303e4-8cdf-45e6-9679-562b038ae668","ios":"levelo://app?vid=885303e4-8cdf-45e6-9679-562b038ae668"},"vehicle_type_id":"4","last_reported":1750090390,"current_range_meters":4000,"station_id":"ce4bhh12rcd13ifvqff0","pricing_plan_id":"cebpf4jnsgd1na2vs0mg"},{"bike_id":"7331dfb8-0109-4faa-9ad2-26b2b1f21996","system_id":"levelo_inurba_marseille","lat":43.27675,"lon":5.38873,"is_reserved":false,"is_disabled":false,"rental_uris":{"android":"levelo://app?vid=7331dfb8-0109-4faa-9ad2-26b2b1f21996","ios":"levelo://app?vid=7331dfb8-0109-4faa-9ad2-26b2b1f21996"},"vehicle_type_id":"4","last_reported":1750090390,"current_range_meters":4000,"station_id":"ce4bhi12rcd13ifvqfo0","pricing_plan_id":"cebpf4jnsgd1na2vs0mg"},{"bike_id":"f7d61edd-3d98-4317-ac93-00130fdb72f9","system_id":"levelo_inurba_marseille","lat":43.33529,"lon":5.39857,"is_reserved":false,"is_disabled":false,"rental_uris":{"android":"levelo://app?vid=f7d61edd-3d98-4317-ac93-00130fdb72f9","ios":"levelo://app?vid=f7d61edd-3d98-4317-ac93-00130fdb72f9"},"vehicle_type_id":"4","last_reported":1750090390,"current_range_meters":4400,"station_id":"","pricing_plan_id":"cebpf4jnsgd1na2vs0mg"},{"bike_id":"cc9f750a-b390-4824-b519-4768f5d93b48","system_id":"levelo_inurba_marseille","lat":43.28156,"lon":5.42649,"is_reserved":false,"is_disabled":false,"rental_uris":{"android":"levelo://app?vid=cc9f750a-b390-4824-b519-4768f5d93b48","ios":"levelo://app?vid=cc9f750a-b390-4824-b519-4768f5d93b48"},"vehicle_type_id":"4","last_reported":1750090390,"current_range_meters":4400,"station_id":"ce4bhnh2rcd13ifvqgug","pricing_plan_id":"cebpf4jnsgd1na2vs0mg"},{"bike_id":"ae33ea26-64a9-4b0a-a242-42818a4f6904","system_id":"levelo_inurba_marseille","lat":43.29918,"lon":5.37474,"is_reserved":false,"is_disabled":false,"rental_uris":{"android":"levelo://app?vid=ae33ea26-64a9-4b0a-a242-42818a4f6904","ios":"levelo://app?vid=ae33ea26-64a9-4b0a-a242-42818a4f6904"},"vehicle_type_id":"4","last_reported":1750090390,"current_range_meters":4800,"station_id":"ce4bgjh2rcd13ifvqbg0","pricing_plan_id":"cebpf4jnsgd1na2vs0mg"},{"bike_id":"18afd109-fb69-4531-af92-4c4af8f6b97c","system_id":"levelo_inurba_marseille","lat":43.28419,"lon":5.34984,"is_reserved":false,"is_disabled":false,"rental_uris":{"android":"levelo://app?vid=18afd109-fb69-4531-af92-4c4af8f6b97c","ios":"levelo://app?vid=18afd109-fb69-4531-af92-4c4af8f6b97c"},"vehicle_type_id":"4","last_reported":1750090390,"current_range_meters":4800,"station_id":"ce4bhbh2rcd13ifvqepg","pricing_plan_id":"cebpf4jnsgd1na2vs0mg"},{"bike_id":"a686ba0b-f2b1-49fb-a3fc-b42b7d011431","system_id":"levelo_inurba_marseille","lat":43.25866,"lon":5.39903,"is_reserved":false,"is_disabled":false,"rental_uris":{"android":"levelo://app?vid=a686ba0b-f2b1-49fb-a3fc-b42b7d011431","ios":"levelo://app?vid=a686ba0b-f2b1-49fb-a3fc-b42b7d011431"},"vehicle_type_id":"4","last_reported":1750090390,"current_range_meters":4800,"station_id":"ce4bhl92rcd13ifvqghg","pricing_plan_id":"cebpf4jnsgd1na2vs0mg"},{"bike_id":"ef125dec-2350-40ae-9e5a-0f3aa395e113","system_id":"levelo_inurba_marseille","lat":43.29533,"lon":5.3854,"is_reserved":false,"is_disabled":false,"rental_uris":{"android":"levelo://app?vid=ef125dec-2350-40ae-9e5a-0f3aa395e113","ios":"levelo://app?vid=ef125dec-2350-40ae-9e5a-0f3aa395e113"},"vehicle_type_id":"4","last_reported":1750090390,"current_range_meters":5600,"station_id":"ce4bgih2rcd13ifvqba0","pricing_plan_id":"cebpf4jnsgd1na2vs0mg"},{"bike_id":"c881c663-bedf-4c33-af79-3fe48a4c37db","system_id":"levelo_inurba_marseille","lat":43.2804,"lon":5.36944,"is_reserved":false,"is_disabled":false,"rental_uris":{"android":"levelo://app?vid=c881c663-bedf-4c33-af79-3fe48a4c37db","ios":"levelo://app?vid=c881c663-bedf-4c33-af79-3fe48a4c37db"},"vehicle_type_id":"4","last_reported":1750090390,"current_range_meters":5600,"station_id":"ce4bha12rcd13ifvqef0","pricing_plan_id":"cebpf4jnsgd1na2vs0mg"},{"bike_id":"bb13d10e-d848-47b1-aeda-4615c36f1124","system_id":"levelo_inurba_marseille","lat":43.2827,"lon":5.35061,"is_reserved":false,"is_disabled":false,"rental_uris":{"android":"levelo://app?vid=bb13d10e-d848-47b1-aeda-4615c36f1124","ios":"levelo://app?vid=bb13d10e-d848-47b1-aeda-4615c36f1124"},"vehicle_type_id":"4","last_reported":1750090390,"current_range_meters":5600,"station_id":"ce4bhbp2rcd13ifvqerg","pricing_plan_id":"cebpf4jnsgd1na2vs0mg"},{"bike_id":"f16a5698-ddc2-4e59-97f5-5526424b5a60","system_id":"levelo_inurba_marseille","lat":43.211962,"lon":5.350754,"is_reserved":false,"is_disabled":false,"rental_uris":{"android":"levelo://app?vid=f16a5698-ddc2-4e59-97f5-5526424b5a60","ios":"levelo://app?vid=f16a5698-ddc2-4e59-97f5-5526424b5a60"},"vehicle_type_id":"4","last_reported":1750090390,"current_range_meters":5600,"station_id":"st_cvj6sg6p6f1abm77japg","pricing_plan_id":"cebpf4jnsgd1na2vs0mg"},{"bike_id":"dbfce7a3-3423-4296-b193-a177dea644ac","system_id":"levelo_inurba_marseille","lat":43.27299,"lon":5.41639,"is_reserved":false,"is_disabled":false,"rental_uris":{"android":"levelo://app?vid=dbfce7a3-3423-4296-b193-a177dea644ac","ios":"levelo://app?vid=dbfce7a3-3423-4296-b193-a177dea644ac"},"vehicle_type_id":"4","last_reported":1750090390,"current_range_meters":6000,"station_id":"","pricing_plan_id":"cebpf4jnsgd1na2vs0mg"},{"bike_id":"28d2ddbb-6bc5-48b2-81df-4de05dbf911b","system_id":"levelo_inurba_marseille","lat":43.27829,"lon":5.38013,"is_reserved":false,"is_disabled":false,"rental_uris":{"android":"levelo://app?vid=28d2ddbb-6bc5-48b2-81df-4de05dbf911b","ios":"levelo://app?vid=28d2ddbb-6bc5-48b2-81df-4de05dbf911b"},"vehicle_type_id":"4","last_reported":1750090390,"current_range_meters":6000,"station_id":"","pricing_plan_id":"cebpf4jnsgd1na2vs0mg"},{"bike_id":"56c5db13-b54e-40f8-b9b7-d472f9efe150","system_id":"levelo_inurba_marseille","lat":43.29534,"lon":5.38545,"is_reserved":false,"is_disabled":false,"rental_uris":{"android":"levelo://app?vid=56c5db13-b54e-40f8-b9b7-d472f9efe150","ios":"levelo://app?vid=56c5db13-b54e-40f8-b9b7-d472f9efe150"},"vehicle_type_id":"4","last_reported":1750090390,"current_range_meters":6000,"station_id":"ce4bgih2rcd13ifvqba0","pricing_plan_id":"cebpf4jnsgd1na2vs0mg"},{"bike_id":"09497b49-d978-4e49-a43c-dbe049ca2430","system_id":"levelo_inurba_marseille","lat":43.27823,"lon":5.39208,"is_reserved":false,"is_disabled":false,"rental_uris":{"android":"levelo://app?vid=09497b49-d978-4e49-a43c-dbe049ca2430","ios":"levelo://app?vid=09497b49-d978-4e49-a43c-dbe049ca2430"},"vehicle_type_id":"4","last_reported":1750090390,"current_range_meters":6000,"station_id":"ce4bhjp2rcd13ifvqga0","pricing_plan_id":"cebpf4jnsgd1na2vs0mg"},{"bike_id":"af27861d-3f7c-41d4-ac2f-0426eee9fcef","system_id":"levelo_inurba_marseille","lat":43.229877,"lon":5.353416,"is_reserved":false,"is_disabled":false,"rental_uris":{"android":"levelo://app?vid=af27861d-3f7c-41d4-ac2f-0426eee9fcef","ios":"levelo://app?vid=af27861d-3f7c-41d4-ac2f-0426eee9fcef"},"vehicle_type_id":"4","last_reported":1750090390,"current_range_meters":6000,"station_id":"cpo3532slgdg3j2ikp40","pricing_plan_id":"cebpf4jnsgd1na2vs0mg"},{"bike_id":"ed279945-4e26-4a3e-ae98-3a025de0667e","system_id":"levelo_inurba_marseille","lat":43.2906,"lon":5.3591,"is_reserved":false,"is_disabled":false,"rental_uris":{"android":"levelo://app?vid=ed279945-4e26-4a3e-ae98-3a025de0667e","ios":"levelo://app?vid=ed279945-4e26-4a3e-ae98-3a025de0667e"},"vehicle_type_id":"4","last_reported":1750090390,"current_range_meters":6400,"station_id":"ce4bha92rcd13ifvqeg0","pricing_plan_id":"cebpf4jnsgd1na2vs0mg"},{"bike_id":"5d87661b-efc9-407c-9782-270abac3a1f2","system_id":"levelo_inurba_marseille","lat":43.2846,"lon":5.35891,"is_reserved":false,"is_disabled":false,"rental_uris":{"android":"levelo://app?vid=5d87661b-efc9-407c-9782-270abac3a1f2","ios":"levelo://app?vid=5d87661b-efc9-407c-9782-270abac3a1f2"},"vehicle_type_id":"4","last_reported":1750090390,"current_range_meters":6400,"station_id":"ce4bhah2rcd13ifvqei0","pricing_plan_id":"cebpf4jnsgd1na2vs0mg"},{"bike_id":"7d050a62-cef4-443f-955a-da1dece9b930","system_id":"levelo_inurba_marseille","lat":43.27571,"lon":5.38418,"is_reserved":false,"is_disabled":false,"rental_uris":{"android":"levelo://app?vid=7d050a62-cef4-443f-955a-da1dece9b930","ios":"levelo://app?vid=7d050a62-cef4-443f-955a-da1dece9b930"},"vehicle_type_id":"4","last_reported":1750090390,"current_range_meters":6400,"station_id":"ce4bhh92rcd13ifvqfi0","pricing_plan_id":"cebpf4jnsgd1na2vs0mg"},{"bike_id":"ad2fe93d-0a9a-4bc7-bfe6-2fed021acd22","system_id":"levelo_inurba_marseille","lat":43.27678,"lon":5.38867,"is_reserved":false,"is_disabled":false,"rental_uris":{"android":"levelo://app?vid=ad2fe93d-0a9a-4bc7-bfe6-2fed021acd22","ios":"levelo://app?vid=ad2fe93d-0a9a-4bc7-bfe6-2fed021acd22"},"vehicle_type_id":"4","last_reported":1750090390,"current_range_meters":6400,"station_id":"ce4bhi12rcd13ifvqfo0","pricing_plan_id":"cebpf4jnsgd1na2vs0mg"},{"bike_id":"10921378-a300-42ba-9026-439ba0ea1f84","system_id":"levelo_inurba_marseille","lat":43.24667,"lon":5.38161,"is_reserved":false,"is_disabled":false,"rental_uris":{"android":"levelo://app?vid=10921378-a300-42ba-9026-439ba0ea1f84","ios":"levelo://app?vid=10921378-a300-42ba-9026-439ba0ea1f84"},"vehicle_type_id":"4","last_reported":1750090390,"current_range_meters":6400,"station_id":"ce4bhih2rcd13ifvqfr0","pricing_plan_id":"cebpf4jnsgd1na2vs0mg"},{"bike_id":"49f12802-d823-4cb5-903c-1c17fbf5b903","system_id":"levelo_inurba_marseille","lat":43.27821,"lon":5.41452,"is_reserved":false,"is_disabled":false,"rental_uris":{"android":"levelo://app?vid=49f12802-d823-4cb5-903c-1c17fbf5b903","ios":"levelo://app?vid=49f12802-d823-4cb5-903c-1c17fbf5b903"},"vehicle_type_id":"4","last_reported":1750090390,"current_range_meters":6800,"station_id":"","pricing_plan_id":"cebpf4jnsgd1na2vs0mg"},{"bike_id":"dbfca594-3761-41f6-991a-e43e1017d609","system_id":"levelo_inurba_marseille","lat":43.24101,"lon":5.3683,"is_reserved":false,"is_disabled":false,"rental_uris":{"android":"levelo://app?vid=dbfca594-3761-41f6-991a-e43e1017d609","ios":"levelo://app?vid=dbfca594-3761-41f6-991a-e43e1017d609"},"vehicle_type_id":"4","last_reported":1750090390,"current_range_meters":6800,"station_id":"","pricing_plan_id":"cebpf4jnsgd1na2vs0mg"},{"bike_id":"afa9906d-2b0d-4bf5-844e-c599741d6101","system_id":"levelo_inurba_marseille","lat":43.29007,"lon":5.35613,"is_reserved":false,"is_disabled":false,"rental_uris":{"android":"levelo://app?vid=afa9906d-2b0d-4bf5-844e-c599741d6101","ios":"levelo://app?vid=afa9906d-2b0d-4bf5-844e-c599741d6101"},"vehicle_type_id":"4","last_reported":1750090390,"current_range_meters":6800,"station_id":"ce4bhb92rcd13ifvqen0","pricing_plan_id":"cebpf4jnsgd1na2vs0mg"},{"bike_id":"d98d4cfd-bc30-45f2-9c73-19a064b6a1fe","system_id":"levelo_inurba_marseille","lat":43.24044,"lon":5.37814,"is_reserved":false,"is_disabled":false,"rental_uris":{"android":"levelo://app?vid=d98d4cfd-bc30-45f2-9c73-19a064b6a1fe","ios":"levelo://app?vid=d98d4cfd-bc30-45f2-9c73-19a064b6a1fe"},"vehicle_type_id":"4","last_reported":1750090390,"current_range_meters":7200,"station_id":"","pricing_plan_id":"cebpf4jnsgd1na2vs0mg"},{"bike_id":"1b132b79-7192-44a1-9fe2-cb9648fab9e1","system_id":"levelo_inurba_marseille","lat":43.30259,"lon":5.40066,"is_reserved":false,"is_disabled":false,"rental_uris":{"android":"levelo://app?vid=1b132b79-7192-44a1-9fe2-cb9648fab9e1","ios":"levelo://app?vid=1b132b79-7192-44a1-9fe2-cb9648fab9e1"},"vehicle_type_id":"4","last_reported":1750090390,"current_range_meters":7200,"station_id":"ce4bgvh2rcd13ifvqcs0","pricing_plan_id":"cebpf4jnsgd1na2vs0mg"},{"bike_id":"1e4b1829-5ad0-43e5-a093-54056c2f2fc2","system_id":"levelo_inurba_marseille","lat":43.31322,"lon":5.39703,"is_reserved":false,"is_disabled":false,"rental_uris":{"android":"levelo://app?vid=1e4b1829-5ad0-43e5-a093-54056c2f2fc2","ios":"levelo://app?vid=1e4b1829-5ad0-43e5-a093-54056c2f2fc2"},"vehicle_type_id":"4","last_reported":1750090390,"current_range_meters":7200,"station_id":"ce4bgvp2rcd13ifvqcu0","pricing_plan_id":"cebpf4jnsgd1na2vs0mg"},{"bike_id":"9f01838a-2139-46a2-a44e-d6c240ff411e","system_id":"levelo_inurba_marseille","lat":43.28398,"lon":5.37523,"is_reserved":false,"is_disabled":false,"rental_uris":{"android":"levelo://app?vid=9f01838a-2139-46a2-a44e-d6c240ff411e","ios":"levelo://app?vid=9f01838a-2139-46a2-a44e-d6c240ff411e"},"vehicle_type_id":"4","last_reported":1750090390,"current_range_meters":7200,"station_id":"ce4bh412rcd13ifvqds0","pricing_plan_id":"cebpf4jnsgd1na2vs0mg"},{"bike_id":"4dc27560-c76e-477d-9e78-cd5f8653b397","system_id":"levelo_inurba_marseille","lat":43.27556,"lon":5.38429,"is_reserved":false,"is_disabled":false,"rental_uris":{"android":"levelo://app?vid=4dc27560-c76e-477d-9e78-cd5f8653b397","ios":"levelo://app?vid=4dc27560-c76e-477d-9e78-cd5f8653b397"},"vehicle_type_id":"4","last_reported":1750090390,"current_range_meters":7200,"station_id":"ce4bhh92rcd13ifvqfi0","pricing_plan_id":"cebpf4jnsgd1na2vs0mg"},{"bike_id":"8435daef-bf99-47e6-923f-18c8a5d70dec","system_id":"levelo_inurba_marseille","lat":43.2558,"lon":5.38246,"is_reserved":false,"is_disabled":false,"rental_uris":{"android":"levelo://app?vid=8435daef-bf99-47e6-923f-18c8a5d70dec","ios":"levelo://app?vid=8435daef-bf99-47e6-923f-18c8a5d70dec"},"vehicle_type_id":"4","last_reported":1750090390,"current_range_meters":7200,"station_id":"ce4bhih2rcd13ifvqfs0","pricing_plan_id":"cebpf4jnsgd1na2vs0mg"},{"bike_id":"2ee814a5-4054-4fbd-aeb6-e30813100c3b","system_id":"levelo_inurba_marseille","lat":43.231861,"lon":5.399986,"is_reserved":false,"is_disabled":false,"rental_uris":{"android":"levelo://app?vid=2ee814a5-4054-4fbd-aeb6-e30813100c3b","ios":"levelo://app?vid=2ee814a5-4054-4fbd-aeb6-e30813100c3b"},"vehicle_type_id":"4","last_reported":1750090390,"current_range_meters":7200,"station_id":"ce4bhn12rcd13ifvqgqg","pricing_plan_id":"cebpf4jnsgd1na2vs0mg"},{"bike_id":"04e8aefd-f2ce-40ac-9e66-98c297ec0b88","system_id":"levelo_inurba_marseille","lat":43.32342,"lon":5.40627,"is_reserved":false,"is_disabled":false,"rental_uris":{"android":"levelo://app?vid=04e8aefd-f2ce-40ac-9e66-98c297ec0b88","ios":"levelo://app?vid=04e8aefd-f2ce-40ac-9e66-98c297ec0b88"},"vehicle_type_id":"4","last_reported":1750090390,"current_range_meters":7200,"station_id":"ce4bhq92rcd13ifvqhjg","pricing_plan_id":"cebpf4jnsgd1na2vs0mg"},{"bike_id":"94fedae9-c54c-4bc4-a22a-8fec73ab4e28","system_id":"levelo_inurba_marseille","lat":43.29787,"lon":5.3709,"is_reserved":false,"is_disabled":false,"rental_uris":{"android":"levelo://app?vid=94fedae9-c54c-4bc4-a22a-8fec73ab4e28","ios":"levelo://app?vid=94fedae9-c54c-4bc4-a22a-8fec73ab4e28"},"vehicle_type_id":"4","last_reported":1750090390,"current_range_meters":8000,"station_id":"ce4bgop2rcd13ifvqc1g","pricing_plan_id":"cebpf4jnsgd1na2vs0mg"},{"bike_id":"115555b7-df3d-49d1-b97a-f47d318bae8f","system_id":"levelo_inurba_marseille","lat":43.30321,"lon":5.40439,"is_reserved":false,"is_disabled":false,"rental_uris":{"android":"levelo://app?vid=115555b7-df3d-49d1-b97a-f47d318bae8f","ios":"levelo://app?vid=115555b7-df3d-49d1-b97a-f47d318bae8f"},"vehicle_type_id":"4","last_reported":1750090390,"current_range_meters":8000,"station_id":"ce4bh012rcd13ifvqd10","pricing_plan_id":"cebpf4jnsgd1na2vs0mg"},{"bike_id":"acd09d62-b8b3-4417-ba3b-ded174e2a06c","system_id":"levelo_inurba_marseille","lat":43.288568,"lon":5.358484,"is_reserved":false,"is_disabled":false,"rental_uris":{"android":"levelo://app?vid=acd09d62-b8b3-4417-ba3b-ded174e2a06c","ios":"levelo://app?vid=acd09d62-b8b3-4417-ba3b-ded174e2a06c"},"vehicle_type_id":"4","last_reported":1750090390,"current_range_meters":8000,"station_id":"ce4bhb12rcd13ifvqem0","pricing_plan_id":"cebpf4jnsgd1na2vs0mg"},{"bike_id":"59ebea85-86d7-44cf-8e27-1c208a2ff220","system_id":"levelo_inurba_marseille","lat":43.32128,"lon":5.36772,"is_reserved":false,"is_disabled":false,"rental_uris":{"android":"levelo://app?vid=59ebea85-86d7-44cf-8e27-1c208a2ff220","ios":"levelo://app?vid=59ebea85-86d7-44cf-8e27-1c208a2ff220"},"vehicle_type_id":"4","last_reported":1750090390,"current_range_meters":8000,"station_id":"ce4bhrh2rcd13ifvqhug","pricing_plan_id":"cebpf4jnsgd1na2vs0mg"},{"bike_id":"8d297b38-f666-4a46-9dee-0132f800019c","system_id":"levelo_inurba_marseille","lat":43.32193,"lon":5.38575,"is_reserved":false,"is_disabled":false,"rental_uris":{"android":"levelo://app?vid=8d297b38-f666-4a46-9dee-0132f800019c","ios":"levelo://app?vid=8d297b38-f666-4a46-9dee-0132f800019c"},"vehicle_type_id":"4","last_reported":1750090390,"current_range_meters":8400,"station_id":"","pricing_plan_id":"cebpf4jnsgd1na2vs0mg"},{"bike_id":"5a70bdb8-51cb-46f9-ac46-2395035bd366","system_id":"levelo_inurba_marseille","lat":43.29262,"lon":5.38444,"is_reserved":false,"is_disabled":false,"rental_uris":{"android":"levelo://app?vid=5a70bdb8-51cb-46f9-ac46-2395035bd366","ios":"levelo://app?vid=5a70bdb8-51cb-46f9-ac46-2395035bd366"},"vehicle_type_id":"4","last_reported":1750090390,"current_range_meters":8400,"station_id":"ce4bh692rcd13ifvqea0","pricing_plan_id":"cebpf4jnsgd1na2vs0mg"},{"bike_id":"74eed996-c29b-40b7-8e36-1376f68c85ab","system_id":"levelo_inurba_marseille","lat":43.231797,"lon":5.399879,"is_reserved":false,"is_disabled":false,"rental_uris":{"android":"levelo://app?vid=74eed996-c29b-40b7-8e36-1376f68c85ab","ios":"levelo://app?vid=74eed996-c29b-40b7-8e36-1376f68c85ab"},"vehicle_type_id":"4","last_reported":1750090390,"current_range_meters":8400,"station_id":"ce4bhn12rcd13ifvqgqg","pricing_plan_id":"cebpf4jnsgd1na2vs0mg"},{"bike_id":"baafe746-aa7d-4e9f-a62c-b7cee6929d0b","system_id":"levelo_inurba_marseille","lat":43.28073,"lon":5.39659,"is_reserved":false,"is_disabled":false,"rental_uris":{"android":"levelo://app?vid=baafe746-aa7d-4e9f-a62c-b7cee6929d0b","ios":"levelo://app?vid=baafe746-aa7d-4e9f-a62c-b7cee6929d0b"},"vehicle_type_id":"4","last_reported":1750090390,"current_range_meters":8400,"station_id":"ce4bho12rcd13ifvqh2g","pricing_plan_id":"cebpf4jnsgd1na2vs0mg"},{"bike_id":"55f96f22-3f79-498e-a192-8e8b3491cd3c","system_id":"levelo_inurba_marseille","lat":43.29321,"lon":5.41174,"is_reserved":false,"is_disabled":false,"rental_uris":{"android":"levelo://app?vid=55f96f22-3f79-498e-a192-8e8b3491cd3c","ios":"levelo://app?vid=55f96f22-3f79-498e-a192-8e8b3491cd3c"},"vehicle_type_id":"4","last_reported":1750090390,"current_range_meters":8800,"station_id":"","pricing_plan_id":"cebpf4jnsgd1na2vs0mg"},{"bike_id":"79eeb666-d8d8-469a-94d3-68222c812a1d","system_id":"levelo_inurba_marseille","lat":43.31795,"lon":5.37463,"is_reserved":false,"is_disabled":false,"rental_uris":{"android":"levelo://app?vid=79eeb666-d8d8-469a-94d3-68222c812a1d","ios":"levelo://app?vid=79eeb666-d8d8-469a-94d3-68222c812a1d"},"vehicle_type_id":"4","last_reported":1750090390,"current_range_meters":8800,"station_id":"","pricing_plan_id":"cebpf4jnsgd1na2vs0mg"},{"bike_id":"2f7825ba-7ca7-47da-9246-b525c7006020","system_id":"levelo_inurba_marseille","lat":43.30575,"lon":5.37174,"is_reserved":false,"is_disabled":false,"rental_uris":{"android":"levelo://app?vid=2f7825ba-7ca7-47da-9246-b525c7006020","ios":"levelo://app?vid=2f7825ba-7ca7-47da-9246-b525c7006020"},"vehicle_type_id":"4","last_reported":1750090390,"current_range_meters":8800,"station_id":"","pricing_plan_id":"cebpf4jnsgd1na2vs0mg"},{"bike_id":"dcb87a9a-18f8-41c6-9134-949f31e21b42","system_id":"levelo_inurba_marseille","lat":43.269983,"lon":5.399503,"is_reserved":false,"is_disabled":false,"rental_uris":{"android":"levelo://app?vid=dcb87a9a-18f8-41c6-9134-949f31e21b42","ios":"levelo://app?vid=dcb87a9a-18f8-41c6-9134-949f31e21b42"},"vehicle_type_id":"4","last_reported":1750090390,"current_range_meters":8800,"station_id":"","pricing_plan_id":"cebpf4jnsgd1na2vs0mg"},{"bike_id":"3645d174-59f3-474e-8532-98efd6fa04c0","system_id":"levelo_inurba_marseille","lat":43.30588,"lon":5.37237,"is_reserved":false,"is_disabled":false,"rental_uris":{"android":"levelo://app?vid=3645d174-59f3-474e-8532-98efd6fa04c0","ios":"levelo://app?vid=3645d174-59f3-474e-8532-98efd6fa04c0"},"vehicle_type_id":"4","last_reported":1750090390,"current_range_meters":8800,"station_id":"ce4bgqh2rcd13ifvqc4g","pricing_plan_id":"cebpf4jnsgd1na2vs0mg"},{"bike_id":"617728a0-bc4e-4d73-bb2d-31e92c2a5637","system_id":"levelo_inurba_marseille","lat":43.23152,"lon":5.43709,"is_reserved":false,"is_disabled":false,"rental_uris":{"android":"levelo://app?vid=617728a0-bc4e-4d73-bb2d-31e92c2a5637","ios":"levelo://app?vid=617728a0-bc4e-4d73-bb2d-31e92c2a5637"},"vehicle_type_id":"4","last_reported":1750090390,"current_range_meters":8800,"station_id":"ce4bhmp2rcd13ifvqgog","pricing_plan_id":"cebpf4jnsgd1na2vs0mg"},{"bike_id":"a04cb4df-91e8-41aa-92e2-add170ce8379","system_id":"levelo_inurba_marseille","lat":43.21192,"lon":5.35079,"is_reserved":false,"is_disabled":false,"rental_uris":{"android":"levelo://app?vid=a04cb4df-91e8-41aa-92e2-add170ce8379","ios":"levelo://app?vid=a04cb4df-91e8-41aa-92e2-add170ce8379"},"vehicle_type_id":"4","last_reported":1750090390,"current_range_meters":8800,"station_id":"st_cvj6sg6p6f1abm77japg","pricing_plan_id":"cebpf4jnsgd1na2vs0mg"},{"bike_id":"10d8703f-8168-48d3-b44c-9eaaf686e239","system_id":"levelo_inurba_marseille","lat":43.30604,"lon":5.37152,"is_reserved":false,"is_disabled":false,"rental_uris":{"android":"levelo://app?vid=10d8703f-8168-48d3-b44c-9eaaf686e239","ios":"levelo://app?vid=10d8703f-8168-48d3-b44c-9eaaf686e239"},"vehicle_type_id":"4","last_reported":1750090390,"current_range_meters":9200,"station_id":"","pricing_plan_id":"cebpf4jnsgd1na2vs0mg"},{"bike_id":"96f28763-58d8-41d3-90ae-00e2aae7e5cc","system_id":"levelo_inurba_marseille","lat":43.29697,"lon":5.38,"is_reserved":false,"is_disabled":false,"rental_uris":{"android":"levelo://app?vid=96f28763-58d8-41d3-90ae-00e2aae7e5cc","ios":"levelo://app?vid=96f28763-58d8-41d3-90ae-00e2aae7e5cc"},"vehicle_type_id":"4","last_reported":1750090390,"current_range_meters":9200,"station_id":"","pricing_plan_id":"cebpf4jnsgd1na2vs0mg"},{"bike_id":"042b0373-ca32-4d07-ba98-dec831075e4c","system_id":"levelo_inurba_marseille","lat":43.27448,"lon":5.39391,"is_reserved":false,"is_disabled":false,"rental_uris":{"android":"levelo://app?vid=042b0373-ca32-4d07-ba98-dec831075e4c","ios":"levelo://app?vid=042b0373-ca32-4d07-ba98-dec831075e4c"},"vehicle_type_id":"4","last_reported":1750090390,"current_range_meters":9200,"station_id":"ce4bhdp2rcd13ifvqf20","pricing_plan_id":"cebpf4jnsgd1na2vs0mg"},{"bike_id":"ccfcfc43-47d4-4f28-8d02-e21c60446a78","system_id":"levelo_inurba_marseille","lat":43.2924,"lon":5.3607,"is_reserved":false,"is_disabled":false,"rental_uris":{"android":"levelo://app?vid=ccfcfc43-47d4-4f28-8d02-e21c60446a78","ios":"levelo://app?vid=ccfcfc43-47d4-4f28-8d02-e21c60446a78"},"vehicle_type_id":"4","last_reported":1750090390,"current_range_meters":9600,"station_id":"ce4bhbh2rcd13ifvqeqg","pricing_plan_id":"cebpf4jnsgd1na2vs0mg"},{"bike_id":"a3e0cb5b-07b7-489e-8ca9-903686b4dc1a","system_id":"levelo_inurba_marseille","lat":43.32358,"lon":5.36762,"is_reserved":false,"is_disabled":false,"rental_uris":{"android":"levelo://app?vid=a3e0cb5b-07b7-489e-8ca9-903686b4dc1a","ios":"levelo://app?vid=a3e0cb5b-07b7-489e-8ca9-903686b4dc1a"},"vehicle_type_id":"4","last_reported":1750090390,"current_range_meters":9600,"station_id":"ce4bhsh2rcd13ifvqi2g","pricing_plan_id":"cebpf4jnsgd1na2vs0mg"},{"bike_id":"87a73488-390c-4e28-a3b3-5d6b7a9184c3","system_id":"levelo_inurba_marseille","lat":43.337444,"lon":5.374475,"is_reserved":false,"is_disabled":false,"rental_uris":{"android":"levelo://app?vid=87a73488-390c-4e28-a3b3-5d6b7a9184c3","ios":"levelo://app?vid=87a73488-390c-4e28-a3b3-5d6b7a9184c3"},"vehicle_type_id":"4","last_reported":1750090390,"current_range_meters":10000,"station_id":"","pricing_plan_id":"cebpf4jnsgd1na2vs0mg"},{"bike_id":"7dfddfea-997e-4166-b237-51d0ae897649","system_id":"levelo_inurba_marseille","lat":43.29872,"lon":5.39738,"is_reserved":false,"is_disabled":false,"rental_uris":{"android":"levelo://app?vid=7dfddfea-997e-4166-b237-51d0ae897649","ios":"levelo://app?vid=7dfddfea-997e-4166-b237-51d0ae897649"},"vehicle_type_id":"4","last_reported":1750090390,"current_range_meters":10000,"station_id":"ce4bh0h2rcd13ifvqd50","pricing_plan_id":"cebpf4jnsgd1na2vs0mg"},{"bike_id":"8700d13f-a57c-4101-8eb2-59dd8653db90","system_id":"levelo_inurba_marseille","lat":43.26498,"lon":5.39541,"is_reserved":false,"is_disabled":false,"rental_uris":{"android":"levelo://app?vid=8700d13f-a57c-4101-8eb2-59dd8653db90","ios":"levelo://app?vid=8700d13f-a57c-4101-8eb2-59dd8653db90"},"vehicle_type_id":"4","last_reported":1750090390,"current_range_meters":10000,"station_id":"ce4bhi12rcd13ifvqfq0","pricing_plan_id":"cebpf4jnsgd1na2vs0mg"},{"bike_id":"627de19e-fa47-4395-81aa-fc7cb67f1b65","system_id":"levelo_inurba_marseille","lat":43.25879,"lon":5.39914,"is_reserved":false,"is_disabled":false,"rental_uris":{"android":"levelo://app?vid=627de19e-fa47-4395-81aa-fc7cb67f1b65","ios":"levelo://app?vid=627de19e-fa47-4395-81aa-fc7cb67f1b65"},"vehicle_type_id":"4","last_reported":1750090390,"current_range_meters":10000,"station_id":"ce4bhl92rcd13ifvqghg","pricing_plan_id":"cebpf4jnsgd1na2vs0mg"},{"bike_id":"548fcf3c-d093-41a6-afa5-8a2dd95caefe","system_id":"levelo_inurba_marseille","lat":43.28037,"lon":5.3695,"is_reserved":false,"is_disabled":false,"rental_uris":{"android":"levelo://app?vid=548fcf3c-d093-41a6-afa5-8a2dd95caefe","ios":"levelo://app?vid=548fcf3c-d093-41a6-afa5-8a2dd95caefe"},"vehicle_type_id":"4","last_reported":1750090390,"current_range_meters":10800,"station_id":"ce4bha12rcd13ifvqef0","pricing_plan_id":"cebpf4jnsgd1na2vs0mg"},{"bike_id":"d7db84eb-a103-4722-9f80-59285db5d112","system_id":"levelo_inurba_marseille","lat":43.28418,"lon":5.34981,"is_reserved":false,"is_disabled":false,"rental_uris":{"android":"levelo://app?vid=d7db84eb-a103-4722-9f80-59285db5d112","ios":"levelo://app?vid=d7db84eb-a103-4722-9f80-59285db5d112"},"vehicle_type_id":"4","last_reported":1750090390,"current_range_meters":10800,"station_id":"ce4bhbh2rcd13ifvqepg","pricing_plan_id":"cebpf4jnsgd1na2vs0mg"},{"bike_id":"40fe9ef5-bce5-4867-873f-894747d76148","system_id":"levelo_inurba_marseille","lat":43.287098,"lon":5.400027,"is_reserved":false,"is_disabled":false,"rental_uris":{"android":"levelo://app?vid=40fe9ef5-bce5-4867-873f-894747d76148","ios":"levelo://app?vid=40fe9ef5-bce5-4867-873f-894747d76148"},"vehicle_type_id":"4","last_reported":1750090390,"current_range_meters":10800,"station_id":"ce4bho92rcd13ifvqh3g","pricing_plan_id":"cebpf4jnsgd1na2vs0mg"},{"bike_id":"6afc644c-08c3-42de-8619-3f94e2ba41cd","system_id":"levelo_inurba_marseille","lat":43.299058,"lon":5.436645,"is_reserved":false,"is_disabled":false,"rental_uris":{"android":"levelo://app?vid=6afc644c-08c3-42de-8619-3f94e2ba41cd","ios":"levelo://app?vid=6afc644c-08c3-42de-8619-3f94e2ba41cd"},"vehicle_type_id":"4","last_reported":1750090390,"current_range_meters":10800,"station_id":"ce4bhpp2rcd13ifvqhfg","pricing_plan_id":"cebpf4jnsgd1na2vs0mg"},{"bike_id":"6bed16c8-fe11-44a8-9d8c-6d5bf94f3d9d","system_id":"levelo_inurba_marseille","lat":43.32062,"lon":5.36789,"is_reserved":false,"is_disabled":false,"rental_uris":{"android":"levelo://app?vid=6bed16c8-fe11-44a8-9d8c-6d5bf94f3d9d","ios":"levelo://app?vid=6bed16c8-fe11-44a8-9d8c-6d5bf94f3d9d"},"vehicle_type_id":"4","last_reported":1750090390,"current_range_meters":10800,"station_id":"ce4bhrh2rcd13ifvqhug","pricing_plan_id":"cebpf4jnsgd1na2vs0mg"},{"bike_id":"6da8f05d-6537-4368-b06b-ed7eb376bcf6","system_id":"levelo_inurba_marseille","lat":43.32477,"lon":5.3656,"is_reserved":false,"is_disabled":false,"rental_uris":{"android":"levelo://app?vid=6da8f05d-6537-4368-b06b-ed7eb376bcf6","ios":"levelo://app?vid=6da8f05d-6537-4368-b06b-ed7eb376bcf6"},"vehicle_type_id":"4","last_reported":1750090390,"current_range_meters":10800,"station_id":"ce4bhs12rcd13ifvqhvg","pricing_plan_id":"cebpf4jnsgd1na2vs0mg"},{"bike_id":"a218f7b1-1ede-42b6-9f21-577bc879a2fb","system_id":"levelo_inurba_marseille","lat":43.21208,"lon":5.35067,"is_reserved":false,"is_disabled":false,"rental_uris":{"android":"levelo://app?vid=a218f7b1-1ede-42b6-9f21-577bc879a2fb","ios":"levelo://app?vid=a218f7b1-1ede-42b6-9f21-577bc879a2fb"},"vehicle_type_id":"4","last_reported":1750090390,"current_range_meters":10800,"station_id":"st_cvj6sg6p6f1abm77japg","pricing_plan_id":"cebpf4jnsgd1na2vs0mg"},{"bike_id":"274aa1b7-9efc-4713-9097-a34bcd9d6a18","system_id":"levelo_inurba_marseille","lat":43.29542,"lon":5.38551,"is_reserved":false,"is_disabled":false,"rental_uris":{"android":"levelo://app?vid=274aa1b7-9efc-4713-9097-a34bcd9d6a18","ios":"levelo://app?vid=274aa1b7-9efc-4713-9097-a34bcd9d6a18"},"vehicle_type_id":"4","last_reported":1750090390,"current_range_meters":11200,"station_id":"ce4bgih2rcd13ifvqba0","pricing_plan_id":"cebpf4jnsgd1na2vs0mg"},{"bike_id":"b6e55fc1-6e76-43ba-a7e7-c44923714a03","system_id":"levelo_inurba_marseille","lat":43.29524,"lon":5.3854,"is_reserved":false,"is_disabled":false,"rental_uris":{"android":"levelo://app?vid=b6e55fc1-6e76-43ba-a7e7-c44923714a03","ios":"levelo://app?vid=b6e55fc1-6e76-43ba-a7e7-c44923714a03"},"vehicle_type_id":"4","last_reported":1750090390,"current_range_meters":11200,"station_id":"ce4bgih2rcd13ifvqba0","pricing_plan_id":"cebpf4jnsgd1na2vs0mg"},{"bike_id":"8ebc5cdb-6007-4fdc-aff7-ac7986ba9781","system_id":"levelo_inurba_marseille","lat":43.28943,"lon":5.36637,"is_reserved":false,"is_disabled":false,"rental_uris":{"android":"levelo://app?vid=8ebc5cdb-6007-4fdc-aff7-ac7986ba9781","ios":"levelo://app?vid=8ebc5cdb-6007-4fdc-aff7-ac7986ba9781"},"vehicle_type_id":"4","last_reported":1750090390,"current_range_meters":11200,"station_id":"ce4bhap2rcd13ifvqek0","pricing_plan_id":"cebpf4jnsgd1na2vs0mg"},{"bike_id":"fbeda6c7-9834-4caa-aac0-bdd569d54d10","system_id":"levelo_inurba_marseille","lat":43.25136,"lon":5.40292,"is_reserved":false,"is_disabled":false,"rental_uris":{"android":"levelo://app?vid=fbeda6c7-9834-4caa-aac0-bdd569d54d10","ios":"levelo://app?vid=fbeda6c7-9834-4caa-aac0-bdd569d54d10"},"vehicle_type_id":"4","last_reported":1750090390,"current_range_meters":11200,"station_id":"ce4bhlh2rcd13ifvqgig","pricing_plan_id":"cebpf4jnsgd1na2vs0mg"},{"bike_id":"54184f29-5578-4dde-a2cc-c61010ddcc3a","system_id":"levelo_inurba_marseille","lat":43.27497,"lon":5.42451,"is_reserved":false,"is_disabled":false,"rental_uris":{"android":"levelo://app?vid=54184f29-5578-4dde-a2cc-c61010ddcc3a","ios":"levelo://app?vid=54184f29-5578-4dde-a2cc-c61010ddcc3a"},"vehicle_type_id":"4","last_reported":1750090390,"current_range_meters":11200,"station_id":"ce4bhn92rcd13ifvqgrg","pricing_plan_id":"cebpf4jnsgd1na2vs0mg"},{"bike_id":"25be301b-e50b-4f31-a209-462aec1b4ce5","system_id":"levelo_inurba_marseille","lat":43.211946,"lon":5.350792,"is_reserved":false,"is_disabled":false,"rental_uris":{"android":"levelo://app?vid=25be301b-e50b-4f31-a209-462aec1b4ce5","ios":"levelo://app?vid=25be301b-e50b-4f31-a209-462aec1b4ce5"},"vehicle_type_id":"4","last_reported":1750090390,"current_range_meters":11200,"station_id":"st_cvj6sg6p6f1abm77japg","pricing_plan_id":"cebpf4jnsgd1na2vs0mg"},{"bike_id":"45c41cba-3df1-4aa9-8055-9f3bef842c63","system_id":"levelo_inurba_marseille","lat":43.314991,"lon":5.37298,"is_reserved":false,"is_disabled":false,"rental_uris":{"android":"levelo://app?vid=45c41cba-3df1-4aa9-8055-9f3bef842c63","ios":"levelo://app?vid=45c41cba-3df1-4aa9-8055-9f3bef842c63"},"vehicle_type_id":"4","last_reported":1750090390,"current_range_meters":11600,"station_id":"ce4bgt12rcd13ifvqcd0","pricing_plan_id":"cebpf4jnsgd1na2vs0mg"},{"bike_id":"4a84802c-4a48-4a81-8d95-25767c5ebeb0","system_id":"levelo_inurba_marseille","lat":43.28423,"lon":5.34998,"is_reserved":false,"is_disabled":false,"rental_uris":{"android":"levelo://app?vid=4a84802c-4a48-4a81-8d95-25767c5ebeb0","ios":"levelo://app?vid=4a84802c-4a48-4a81-8d95-25767c5ebeb0"},"vehicle_type_id":"4","last_reported":1750090390,"current_range_meters":11600,"station_id":"ce4bhbh2rcd13ifvqepg","pricing_plan_id":"cebpf4jnsgd1na2vs0mg"},{"bike_id":"9d355176-d818-4f9b-8a4f-54cdc847fd55","system_id":"levelo_inurba_marseille","lat":43.28413,"lon":5.35002,"is_reserved":false,"is_disabled":false,"rental_uris":{"android":"levelo://app?vid=9d355176-d818-4f9b-8a4f-54cdc847fd55","ios":"levelo://app?vid=9d355176-d818-4f9b-8a4f-54cdc847fd55"},"vehicle_type_id":"4","last_reported":1750090390,"current_range_meters":11600,"station_id":"ce4bhbh2rcd13ifvqepg","pricing_plan_id":"cebpf4jnsgd1na2vs0mg"},{"bike_id":"904fc678-4db5-4c93-b223-70fabde1d22f","system_id":"levelo_inurba_marseille","lat":43.292777,"lon":5.368451,"is_reserved":false,"is_disabled":false,"rental_uris":{"android":"levelo://app?vid=904fc678-4db5-4c93-b223-70fabde1d22f","ios":"levelo://app?vid=904fc678-4db5-4c93-b223-70fabde1d22f"},"vehicle_type_id":"4","last_reported":1750090390,"current_range_meters":11600,"station_id":"ce4bhbp2rcd13ifvqesg","pricing_plan_id":"cebpf4jnsgd1na2vs0mg"},{"bike_id":"0faaf162-a821-4768-b74e-907463775372","system_id":"levelo_inurba_marseille","lat":43.24663,"lon":5.38166,"is_reserved":false,"is_disabled":false,"rental_uris":{"android":"levelo://app?vid=0faaf162-a821-4768-b74e-907463775372","ios":"levelo://app?vid=0faaf162-a821-4768-b74e-907463775372"},"vehicle_type_id":"4","last_reported":1750090390,"current_range_meters":11600,"station_id":"ce4bhih2rcd13ifvqfr0","pricing_plan_id":"cebpf4jnsgd1na2vs0mg"},{"bike_id":"a66728c4-f2e7-428e-b872-e7406fb70732","system_id":"levelo_inurba_marseille","lat":43.21215,"lon":5.35071,"is_reserved":false,"is_disabled":false,"rental_uris":{"android":"levelo://app?vid=a66728c4-f2e7-428e-b872-e7406fb70732","ios":"levelo://app?vid=a66728c4-f2e7-428e-b872-e7406fb70732"},"vehicle_type_id":"4","last_reported":1750090390,"current_range_meters":11600,"station_id":"st_cvj6sg6p6f1abm77japg","pricing_plan_id":"cebpf4jnsgd1na2vs0mg"},{"bike_id":"7548bd3a-7de3-4cfe-ba90-9dedf809b94e","system_id":"levelo_inurba_marseille","lat":43.29057,"lon":5.35909,"is_reserved":false,"is_disabled":false,"rental_uris":{"android":"levelo://app?vid=7548bd3a-7de3-4cfe-ba90-9dedf809b94e","ios":"levelo://app?vid=7548bd3a-7de3-4cfe-ba90-9dedf809b94e"},"vehicle_type_id":"4","last_reported":1750090390,"current_range_meters":12000,"station_id":"ce4bha92rcd13ifvqeg0","pricing_plan_id":"cebpf4jnsgd1na2vs0mg"},{"bike_id":"06213fd4-3ac9-41fd-91fd-9202d4c13793","system_id":"levelo_inurba_marseille","lat":43.28409,"lon":5.34998,"is_reserved":false,"is_disabled":false,"rental_uris":{"android":"levelo://app?vid=06213fd4-3ac9-41fd-91fd-9202d4c13793","ios":"levelo://app?vid=06213fd4-3ac9-41fd-91fd-9202d4c13793"},"vehicle_type_id":"4","last_reported":1750090390,"current_range_meters":12000,"station_id":"ce4bhbh2rcd13ifvqepg","pricing_plan_id":"cebpf4jnsgd1na2vs0mg"},{"bike_id":"96b6957b-9065-43ca-aec5-03a99aaacd73","system_id":"levelo_inurba_marseille","lat":43.23969,"lon":5.3662,"is_reserved":false,"is_disabled":false,"rental_uris":{"android":"levelo://app?vid=96b6957b-9065-43ca-aec5-03a99aaacd73","ios":"levelo://app?vid=96b6957b-9065-43ca-aec5-03a99aaacd73"},"vehicle_type_id":"4","last_reported":1750090390,"current_range_meters":12000,"station_id":"ce4bhi12rcd13ifvqfp0","pricing_plan_id":"cebpf4jnsgd1na2vs0mg"},{"bike_id":"d0c6b551-4765-4114-aa10-e8fbbdc1a4a7","system_id":"levelo_inurba_marseille","lat":43.27278,"lon":5.36156,"is_reserved":false,"is_disabled":false,"rental_uris":{"android":"levelo://app?vid=d0c6b551-4765-4114-aa10-e8fbbdc1a4a7","ios":"levelo://app?vid=d0c6b551-4765-4114-aa10-e8fbbdc1a4a7"},"vehicle_type_id":"4","last_reported":1750090390,"current_range_meters":12400,"station_id":"","pricing_plan_id":"cebpf4jnsgd1na2vs0mg"},{"bike_id":"da3e1724-606c-4f9a-9130-d56dd48e22e0","system_id":"levelo_inurba_marseille","lat":43.32899,"lon":5.40565,"is_reserved":false,"is_disabled":false,"rental_uris":{"android":"levelo://app?vid=da3e1724-606c-4f9a-9130-d56dd48e22e0","ios":"levelo://app?vid=da3e1724-606c-4f9a-9130-d56dd48e22e0"},"vehicle_type_id":"4","last_reported":1750090390,"current_range_meters":12400,"station_id":"","pricing_plan_id":"cebpf4jnsgd1na2vs0mg"},{"bike_id":"e8814067-578b-48e1-9c17-aa96a1ef53a9","system_id":"levelo_inurba_marseille","lat":43.265995,"lon":5.390088,"is_reserved":false,"is_disabled":false,"rental_uris":{"android":"levelo://app?vid=e8814067-578b-48e1-9c17-aa96a1ef53a9","ios":"levelo://app?vid=e8814067-578b-48e1-9c17-aa96a1ef53a9"},"vehicle_type_id":"4","last_reported":1750090390,"current_range_meters":12400,"station_id":"ce4bhe12rcd13ifvqf30","pricing_plan_id":"cebpf4jnsgd1na2vs0mg"},{"bike_id":"052839f0-d21f-405c-ad68-4a1709ebca49","system_id":"levelo_inurba_marseille","lat":43.26195,"lon":5.37452,"is_reserved":false,"is_disabled":false,"rental_uris":{"android":"levelo://app?vid=052839f0-d21f-405c-ad68-4a1709ebca49","ios":"levelo://app?vid=052839f0-d21f-405c-ad68-4a1709ebca49"},"vehicle_type_id":"4","last_reported":1750090390,"current_range_meters":12400,"station_id":"ce4bhgp2rcd13ifvqfc0","pricing_plan_id":"cebpf4jnsgd1na2vs0mg"},{"bike_id":"64c6d212-acc6-47e3-9e04-fbaf04a7ed4e","system_id":"levelo_inurba_marseille","lat":43.27004,"lon":5.38767,"is_reserved":false,"is_disabled":false,"rental_uris":{"android":"levelo://app?vid=64c6d212-acc6-47e3-9e04-fbaf04a7ed4e","ios":"levelo://app?vid=64c6d212-acc6-47e3-9e04-fbaf04a7ed4e"},"vehicle_type_id":"4","last_reported":1750090390,"current_range_meters":12800,"station_id":"","pricing_plan_id":"cebpf4jnsgd1na2vs0mg"},{"bike_id":"88d4fd99-6294-4e6d-a1d4-ea2437f96cef","system_id":"levelo_inurba_marseille","lat":43.2738,"lon":5.36223,"is_reserved":false,"is_disabled":false,"rental_uris":{"android":"levelo://app?vid=88d4fd99-6294-4e6d-a1d4-ea2437f96cef","ios":"levelo://app?vid=88d4fd99-6294-4e6d-a1d4-ea2437f96cef"},"vehicle_type_id":"4","last_reported":1750090390,"current_range_meters":12800,"station_id":"ce4bhbh2rcd13ifvqeo0","pricing_plan_id":"cebpf4jnsgd1na2vs0mg"},{"bike_id":"48e98c35-6eaf-4651-a68c-7876f7d82eba","system_id":"levelo_inurba_marseille","lat":43.24793,"lon":5.3747,"is_reserved":false,"is_disabled":false,"rental_uris":{"android":"levelo://app?vid=48e98c35-6eaf-4651-a68c-7876f7d82eba","ios":"levelo://app?vid=48e98c35-6eaf-4651-a68c-7876f7d82eba"},"vehicle_type_id":"4","last_reported":1750090390,"current_range_meters":12800,"station_id":"ce4bhgh2rcd13ifvqfb0","pricing_plan_id":"cebpf4jnsgd1na2vs0mg"},{"bike_id":"6436b983-3841-4eed-89d4-877eeb56de74","system_id":"levelo_inurba_marseille","lat":43.30803,"lon":5.43526,"is_reserved":false,"is_disabled":false,"rental_uris":{"android":"levelo://app?vid=6436b983-3841-4eed-89d4-877eeb56de74","ios":"levelo://app?vid=6436b983-3841-4eed-89d4-877eeb56de74"},"vehicle_type_id":"4","last_reported":1750090390,"current_range_meters":12800,"station_id":"ce4bhph2rcd13ifvqheg","pricing_plan_id":"cebpf4jnsgd1na2vs0mg"},{"bike_id":"6c6e5bab-a0cc-4fa5-b874-0a320e8cd424","system_id":"levelo_inurba_marseille","lat":43.29782,"lon":5.39348,"is_reserved":false,"is_disabled":false,"rental_uris":{"android":"levelo://app?vid=6c6e5bab-a0cc-4fa5-b874-0a320e8cd424","ios":"levelo://app?vid=6c6e5bab-a0cc-4fa5-b874-0a320e8cd424"},"vehicle_type_id":"4","last_reported":1750090390,"current_range_meters":12800,"station_id":"chh1huq6cuj3fo74tm60","pricing_plan_id":"cebpf4jnsgd1na2vs0mg"},{"bike_id":"398a0bbf-4f1e-4b6e-a4e1-0e8ceb1b1dbe","system_id":"levelo_inurba_marseille","lat":43.2397,"lon":5.36623,"is_reserved":false,"is_disabled":false,"rental_uris":{"android":"levelo://app?vid=398a0bbf-4f1e-4b6e-a4e1-0e8ceb1b1dbe","ios":"levelo://app?vid=398a0bbf-4f1e-4b6e-a4e1-0e8ceb1b1dbe"},"vehicle_type_id":"4","last_reported":1750090390,"current_range_meters":13600,"station_id":"ce4bhi12rcd13ifvqfp0","pricing_plan_id":"cebpf4jnsgd1na2vs0mg"},{"bike_id":"a5a06790-55de-409b-9b7e-99a5d1e15cde","system_id":"levelo_inurba_marseille","lat":43.33612,"lon":5.41036,"is_reserved":false,"is_disabled":false,"rental_uris":{"android":"levelo://app?vid=a5a06790-55de-409b-9b7e-99a5d1e15cde","ios":"levelo://app?vid=a5a06790-55de-409b-9b7e-99a5d1e15cde"},"vehicle_type_id":"4","last_reported":1750090390,"current_range_meters":13600,"station_id":"ce4bhqh2rcd13ifvqhmg","pricing_plan_id":"cebpf4jnsgd1na2vs0mg"},{"bike_id":"d2868572-6fee-4690-8a81-283adbeec80c","system_id":"levelo_inurba_marseille","lat":43.21161,"lon":5.35064,"is_reserved":false,"is_disabled":false,"rental_uris":{"android":"levelo://app?vid=d2868572-6fee-4690-8a81-283adbeec80c","ios":"levelo://app?vid=d2868572-6fee-4690-8a81-283adbeec80c"},"vehicle_type_id":"4","last_reported":1750090390,"current_range_meters":13600,"station_id":"st_cvj6sg6p6f1abm77japg","pricing_plan_id":"cebpf4jnsgd1na2vs0mg"},{"bike_id":"2a878497-afc3-4440-9c6d-ea56b7c8e11f","system_id":"levelo_inurba_marseille","lat":43.293,"lon":5.37459,"is_reserved":false,"is_disabled":false,"rental_uris":{"android":"levelo://app?vid=2a878497-afc3-4440-9c6d-ea56b7c8e11f","ios":"levelo://app?vid=2a878497-afc3-4440-9c6d-ea56b7c8e11f"},"vehicle_type_id":"4","last_reported":1750090390,"current_range_meters":14000,"station_id":"ce4bgi12rcd13ifvqb70","pricing_plan_id":"cebpf4jnsgd1na2vs0mg"},{"bike_id":"3f3dd1fc-c3e1-4907-b16b-2e42996ca50d","system_id":"levelo_inurba_marseille","lat":43.29698,"lon":5.37696,"is_reserved":false,"is_disabled":false,"rental_uris":{"android":"levelo://app?vid=3f3dd1fc-c3e1-4907-b16b-2e42996ca50d","ios":"levelo://app?vid=3f3dd1fc-c3e1-4907-b16b-2e42996ca50d"},"vehicle_type_id":"4","last_reported":1750090390,"current_range_meters":14000,"station_id":"ce4bgkh2rcd13ifvqbl0","pricing_plan_id":"cebpf4jnsgd1na2vs0mg"},{"bike_id":"25e5c1fd-22ed-44bf-8072-9d8b378025dd","system_id":"levelo_inurba_marseille","lat":43.3092,"lon":5.36855,"is_reserved":false,"is_disabled":false,"rental_uris":{"android":"levelo://app?vid=25e5c1fd-22ed-44bf-8072-9d8b378025dd","ios":"levelo://app?vid=25e5c1fd-22ed-44bf-8072-9d8b378025dd"},"vehicle_type_id":"4","last_reported":1750090390,"current_range_meters":14000,"station_id":"ce4bgn92rcd13ifvqbvg","pricing_plan_id":"cebpf4jnsgd1na2vs0mg"},{"bike_id":"45074b61-971d-4f52-af26-843ae534516e","system_id":"levelo_inurba_marseille","lat":43.27811,"lon":5.40718,"is_reserved":false,"is_disabled":false,"rental_uris":{"android":"levelo://app?vid=45074b61-971d-4f52-af26-843ae534516e","ios":"levelo://app?vid=45074b61-971d-4f52-af26-843ae534516e"},"vehicle_type_id":"4","last_reported":1750090390,"current_range_meters":14000,"station_id":"ce4bhnh2rcd13ifvqgtg","pricing_plan_id":"cebpf4jnsgd1na2vs0mg"},{"bike_id":"f95a2bd2-d959-41a8-8207-055dcbd22938","system_id":"levelo_inurba_marseille","lat":43.28705,"lon":5.3998,"is_reserved":false,"is_disabled":false,"rental_uris":{"android":"levelo://app?vid=f95a2bd2-d959-41a8-8207-055dcbd22938","ios":"levelo://app?vid=f95a2bd2-d959-41a8-8207-055dcbd22938"},"vehicle_type_id":"4","last_reported":1750090390,"current_range_meters":14000,"station_id":"ce4bho92rcd13ifvqh3g","pricing_plan_id":"cebpf4jnsgd1na2vs0mg"},{"bike_id":"c1ba07ad-731d-49d8-9fd6-a826431f3438","system_id":"levelo_inurba_marseille","lat":43.29911,"lon":5.43645,"is_reserved":false,"is_disabled":false,"rental_uris":{"android":"levelo://app?vid=c1ba07ad-731d-49d8-9fd6-a826431f3438","ios":"levelo://app?vid=c1ba07ad-731d-49d8-9fd6-a826431f3438"},"vehicle_type_id":"4","last_reported":1750090390,"current_range_meters":14000,"station_id":"ce4bhpp2rcd13ifvqhfg","pricing_plan_id":"cebpf4jnsgd1na2vs0mg"},{"bike_id":"8b6b2bc5-278d-48a6-9e2d-bcf6f36c9be6","system_id":"levelo_inurba_marseille","lat":43.24166,"lon":5.36398,"is_reserved":false,"is_disabled":false,"rental_uris":{"android":"levelo://app?vid=8b6b2bc5-278d-48a6-9e2d-bcf6f36c9be6","ios":"levelo://app?vid=8b6b2bc5-278d-48a6-9e2d-bcf6f36c9be6"},"vehicle_type_id":"4","last_reported":1750090390,"current_range_meters":14000,"station_id":"cpo36qri1sfpv3e86is0","pricing_plan_id":"cebpf4jnsgd1na2vs0mg"},{"bike_id":"2ae80011-f8d5-43f5-b5c8-9e65a89521ca","system_id":"levelo_inurba_marseille","lat":43.29542,"lon":5.37446,"is_reserved":false,"is_disabled":false,"rental_uris":{"android":"levelo://app?vid=2ae80011-f8d5-43f5-b5c8-9e65a89521ca","ios":"levelo://app?vid=2ae80011-f8d5-43f5-b5c8-9e65a89521ca"},"vehicle_type_id":"4","last_reported":1750090390,"current_range_meters":14400,"station_id":"","pricing_plan_id":"cebpf4jnsgd1na2vs0mg"},{"bike_id":"ad9056a2-ef56-48a7-af2f-1a4feaced281","system_id":"levelo_inurba_marseille","lat":43.27614,"lon":5.36102,"is_reserved":false,"is_disabled":false,"rental_uris":{"android":"levelo://app?vid=ad9056a2-ef56-48a7-af2f-1a4feaced281","ios":"levelo://app?vid=ad9056a2-ef56-48a7-af2f-1a4feaced281"},"vehicle_type_id":"4","last_reported":1750090390,"current_range_meters":14400,"station_id":"ce4bgj92rcd13ifvqbe0","pricing_plan_id":"cebpf4jnsgd1na2vs0mg"},{"bike_id":"e9307d5b-81f6-412e-ab0e-5f6acb32333c","system_id":"levelo_inurba_marseille","lat":43.27353,"lon":5.36245,"is_reserved":false,"is_disabled":false,"rental_uris":{"android":"levelo://app?vid=e9307d5b-81f6-412e-ab0e-5f6acb32333c","ios":"levelo://app?vid=e9307d5b-81f6-412e-ab0e-5f6acb32333c"},"vehicle_type_id":"4","last_reported":1750090390,"current_range_meters":14400,"station_id":"ce4bhbh2rcd13ifvqeo0","pricing_plan_id":"cebpf4jnsgd1na2vs0mg"},{"bike_id":"7c7160a5-cf44-4137-822d-c88eca1871ed","system_id":"levelo_inurba_marseille","lat":43.27382,"lon":5.36226,"is_reserved":false,"is_disabled":false,"rental_uris":{"android":"levelo://app?vid=7c7160a5-cf44-4137-822d-c88eca1871ed","ios":"levelo://app?vid=7c7160a5-cf44-4137-822d-c88eca1871ed"},"vehicle_type_id":"4","last_reported":1750090390,"current_range_meters":14400,"station_id":"ce4bhbh2rcd13ifvqeo0","pricing_plan_id":"cebpf4jnsgd1na2vs0mg"},{"bike_id":"af0e512d-b0d2-4525-b0b3-2fbe15353295","system_id":"levelo_inurba_marseille","lat":43.28613,"lon":5.35107,"is_reserved":false,"is_disabled":false,"rental_uris":{"android":"levelo://app?vid=af0e512d-b0d2-4525-b0b3-2fbe15353295","ios":"levelo://app?vid=af0e512d-b0d2-4525-b0b3-2fbe15353295"},"vehicle_type_id":"4","last_reported":1750090390,"current_range_meters":14400,"station_id":"ce4bhch2rcd13ifvqeug","pricing_plan_id":"cebpf4jnsgd1na2vs0mg"},{"bike_id":"1597b600-62df-4ad3-a6fd-b98df3b85866","system_id":"levelo_inurba_marseille","lat":43.27899,"lon":5.37996,"is_reserved":false,"is_disabled":false,"rental_uris":{"android":"levelo://app?vid=1597b600-62df-4ad3-a6fd-b98df3b85866","ios":"levelo://app?vid=1597b600-62df-4ad3-a6fd-b98df3b85866"},"vehicle_type_id":"4","last_reported":1750090390,"current_range_meters":14400,"station_id":"ce4bhf92rcd13ifvqf50","pricing_plan_id":"cebpf4jnsgd1na2vs0mg"},{"bike_id":"ff3e1354-47e0-4719-87c5-08dbc5c733f5","system_id":"levelo_inurba_marseille","lat":43.2395,"lon":5.3663,"is_reserved":false,"is_disabled":false,"rental_uris":{"android":"levelo://app?vid=ff3e1354-47e0-4719-87c5-08dbc5c733f5","ios":"levelo://app?vid=ff3e1354-47e0-4719-87c5-08dbc5c733f5"},"vehicle_type_id":"4","last_reported":1750090390,"current_range_meters":14400,"station_id":"ce4bhi12rcd13ifvqfp0","pricing_plan_id":"cebpf4jnsgd1na2vs0mg"},{"bike_id":"d247f4ab-211a-407b-9290-4f185f6cd66a","system_id":"levelo_inurba_marseille","lat":43.21193,"lon":5.35075,"is_reserved":false,"is_disabled":false,"rental_uris":{"android":"levelo://app?vid=d247f4ab-211a-407b-9290-4f185f6cd66a","ios":"levelo://app?vid=d247f4ab-211a-407b-9290-4f185f6cd66a"},"vehicle_type_id":"4","last_reported":1750090390,"current_range_meters":14400,"station_id":"st_cvj6sg6p6f1abm77japg","pricing_plan_id":"cebpf4jnsgd1na2vs0mg"},{"bike_id":"757906b4-eb86-4ed8-a0a5-7f582bcde75a","system_id":"levelo_inurba_marseille","lat":43.265332,"lon":5.395246,"is_reserved":false,"is_disabled":false,"rental_uris":{"android":"levelo://app?vid=757906b4-eb86-4ed8-a0a5-7f582bcde75a","ios":"levelo://app?vid=757906b4-eb86-4ed8-a0a5-7f582bcde75a"},"vehicle_type_id":"4","last_reported":1750090390,"current_range_meters":14800,"station_id":"","pricing_plan_id":"cebpf4jnsgd1na2vs0mg"},{"bike_id":"cb9cf34d-e81d-4e93-b448-d64732d642a6","system_id":"levelo_inurba_marseille","lat":43.28417,"lon":5.34979,"is_reserved":false,"is_disabled":false,"rental_uris":{"android":"levelo://app?vid=cb9cf34d-e81d-4e93-b448-d64732d642a6","ios":"levelo://app?vid=cb9cf34d-e81d-4e93-b448-d64732d642a6"},"vehicle_type_id":"4","last_reported":1750090390,"current_range_meters":14800,"station_id":"ce4bhbh2rcd13ifvqepg","pricing_plan_id":"cebpf4jnsgd1na2vs0mg"},{"bike_id":"749dfd6f-5eef-4eff-8fb6-c8053e644027","system_id":"levelo_inurba_marseille","lat":43.23966,"lon":5.36632,"is_reserved":false,"is_disabled":false,"rental_uris":{"android":"levelo://app?vid=749dfd6f-5eef-4eff-8fb6-c8053e644027","ios":"levelo://app?vid=749dfd6f-5eef-4eff-8fb6-c8053e644027"},"vehicle_type_id":"4","last_reported":1750090390,"current_range_meters":14800,"station_id":"ce4bhi12rcd13ifvqfp0","pricing_plan_id":"cebpf4jnsgd1na2vs0mg"},{"bike_id":"2a9376e6-f708-4c86-972d-6bae5fa65bc4","system_id":"levelo_inurba_marseille","lat":43.25082,"lon":5.39524,"is_reserved":false,"is_disabled":false,"rental_uris":{"android":"levelo://app?vid=2a9376e6-f708-4c86-972d-6bae5fa65bc4","ios":"levelo://app?vid=2a9376e6-f708-4c86-972d-6bae5fa65bc4"},"vehicle_type_id":"4","last_reported":1750090390,"current_range_meters":14800,"station_id":"ce4bhm12rcd13ifvqgkg","pricing_plan_id":"cebpf4jnsgd1na2vs0mg"},{"bike_id":"9ea0f98b-a633-4011-a3da-b8aabe3a14e7","system_id":"levelo_inurba_marseille","lat":43.28704,"lon":5.39984,"is_reserved":false,"is_disabled":false,"rental_uris":{"android":"levelo://app?vid=9ea0f98b-a633-4011-a3da-b8aabe3a14e7","ios":"levelo://app?vid=9ea0f98b-a633-4011-a3da-b8aabe3a14e7"},"vehicle_type_id":"4","last_reported":1750090390,"current_range_meters":14800,"station_id":"ce4bho92rcd13ifvqh3g","pricing_plan_id":"cebpf4jnsgd1na2vs0mg"},{"bike_id":"f123b19e-9339-4045-a893-387b56ebb6d6","system_id":"levelo_inurba_marseille","lat":43.23194,"lon":5.35553,"is_reserved":false,"is_disabled":false,"rental_uris":{"android":"levelo://app?vid=f123b19e-9339-4045-a893-387b56ebb6d6","ios":"levelo://app?vid=f123b19e-9339-4045-a893-387b56ebb6d6"},"vehicle_type_id":"4","last_reported":1750090390,"current_range_meters":14800,"station_id":"ce4bhu92rcd13ifvqi70","pricing_plan_id":"cebpf4jnsgd1na2vs0mg"},{"bike_id":"6b75a80e-12fa-4bd0-b8db-b509b9abce19","system_id":"levelo_inurba_marseille","lat":43.211906,"lon":5.350618,"is_reserved":false,"is_disabled":false,"rental_uris":{"android":"levelo://app?vid=6b75a80e-12fa-4bd0-b8db-b509b9abce19","ios":"levelo://app?vid=6b75a80e-12fa-4bd0-b8db-b509b9abce19"},"vehicle_type_id":"4","last_reported":1750090390,"current_range_meters":14800,"station_id":"st_cvj6sg6p6f1abm77japg","pricing_plan_id":"cebpf4jnsgd1na2vs0mg"},{"bike_id":"b4537574-ac77-42e3-8125-3eeb64684b89","system_id":"levelo_inurba_marseille","lat":43.29587,"lon":5.38552,"is_reserved":false,"is_disabled":false,"rental_uris":{"android":"levelo://app?vid=b4537574-ac77-42e3-8125-3eeb64684b89","ios":"levelo://app?vid=b4537574-ac77-42e3-8125-3eeb64684b89"},"vehicle_type_id":"4","last_reported":1750090390,"current_range_meters":15200,"station_id":"","pricing_plan_id":"cebpf4jnsgd1na2vs0mg"},{"bike_id":"2e9dcdbf-30c6-4899-a51e-7c92abdc371b","system_id":"levelo_inurba_marseille","lat":43.26542,"lon":5.40339,"is_reserved":false,"is_disabled":false,"rental_uris":{"android":"levelo://app?vid=2e9dcdbf-30c6-4899-a51e-7c92abdc371b","ios":"levelo://app?vid=2e9dcdbf-30c6-4899-a51e-7c92abdc371b"},"vehicle_type_id":"4","last_reported":1750090390,"current_range_meters":15200,"station_id":"","pricing_plan_id":"cebpf4jnsgd1na2vs0mg"},{"bike_id":"c70f2948-35aa-4931-91a0-30f51b3792de","system_id":"levelo_inurba_marseille","lat":43.27377,"lon":5.36258,"is_reserved":false,"is_disabled":false,"rental_uris":{"android":"levelo://app?vid=c70f2948-35aa-4931-91a0-30f51b3792de","ios":"levelo://app?vid=c70f2948-35aa-4931-91a0-30f51b3792de"},"vehicle_type_id":"4","last_reported":1750090390,"current_range_meters":15200,"station_id":"ce4bhbh2rcd13ifvqeo0","pricing_plan_id":"cebpf4jnsgd1na2vs0mg"},{"bike_id":"b16ea546-3f93-4a19-aa1d-b24b6cf5b95e","system_id":"levelo_inurba_marseille","lat":43.2317,"lon":5.43703,"is_reserved":false,"is_disabled":false,"rental_uris":{"android":"levelo://app?vid=b16ea546-3f93-4a19-aa1d-b24b6cf5b95e","ios":"levelo://app?vid=b16ea546-3f93-4a19-aa1d-b24b6cf5b95e"},"vehicle_type_id":"4","last_reported":1750090390,"current_range_meters":15200,"station_id":"ce4bhmp2rcd13ifvqgog","pricing_plan_id":"cebpf4jnsgd1na2vs0mg"},{"bike_id":"03340537-67a8-4219-b943-e70560332de6","system_id":"levelo_inurba_marseille","lat":43.31763,"lon":5.39012,"is_reserved":false,"is_disabled":false,"rental_uris":{"android":"levelo://app?vid=03340537-67a8-4219-b943-e70560332de6","ios":"levelo://app?vid=03340537-67a8-4219-b943-e70560332de6"},"vehicle_type_id":"4","last_reported":1750090390,"current_range_meters":15200,"station_id":"ce4bhqp2rcd13ifvqhng","pricing_plan_id":"cebpf4jnsgd1na2vs0mg"},{"bike_id":"d05c512f-ecf8-4d54-8646-fa719dc17ab7","system_id":"levelo_inurba_marseille","lat":43.27577,"lon":5.41761,"is_reserved":false,"is_disabled":false,"rental_uris":{"android":"levelo://app?vid=d05c512f-ecf8-4d54-8646-fa719dc17ab7","ios":"levelo://app?vid=d05c512f-ecf8-4d54-8646-fa719dc17ab7"},"vehicle_type_id":"4","last_reported":1750090390,"current_range_meters":16000,"station_id":"","pricing_plan_id":"cebpf4jnsgd1na2vs0mg"},{"bike_id":"e6d26063-c82b-41b9-a139-f328cf068594","system_id":"levelo_inurba_marseille","lat":43.29004,"lon":5.35608,"is_reserved":false,"is_disabled":false,"rental_uris":{"android":"levelo://app?vid=e6d26063-c82b-41b9-a139-f328cf068594","ios":"levelo://app?vid=e6d26063-c82b-41b9-a139-f328cf068594"},"vehicle_type_id":"4","last_reported":1750090390,"current_range_meters":16000,"station_id":"ce4bhb92rcd13ifvqen0","pricing_plan_id":"cebpf4jnsgd1na2vs0mg"},{"bike_id":"c6e11e18-206f-4bff-84da-d0aa44e03a49","system_id":"levelo_inurba_marseille","lat":43.2738,"lon":5.36236,"is_reserved":false,"is_disabled":false,"rental_uris":{"android":"levelo://app?vid=c6e11e18-206f-4bff-84da-d0aa44e03a49","ios":"levelo://app?vid=c6e11e18-206f-4bff-84da-d0aa44e03a49"},"vehicle_type_id":"4","last_reported":1750090390,"current_range_meters":16000,"station_id":"ce4bhbh2rcd13ifvqeo0","pricing_plan_id":"cebpf4jnsgd1na2vs0mg"},{"bike_id":"29afb4e0-768a-47ad-8412-11274ed5292b","system_id":"levelo_inurba_marseille","lat":43.28274,"lon":5.35058,"is_reserved":false,"is_disabled":false,"rental_uris":{"android":"levelo://app?vid=29afb4e0-768a-47ad-8412-11274ed5292b","ios":"levelo://app?vid=29afb4e0-768a-47ad-8412-11274ed5292b"},"vehicle_type_id":"4","last_reported":1750090390,"current_range_meters":16000,"station_id":"ce4bhbp2rcd13ifvqerg","pricing_plan_id":"cebpf4jnsgd1na2vs0mg"},{"bike_id":"fa5c687e-c52e-4b16-931d-6e2b47699e9f","system_id":"levelo_inurba_marseille","lat":43.2655,"lon":5.37285,"is_reserved":false,"is_disabled":false,"rental_uris":{"android":"levelo://app?vid=fa5c687e-c52e-4b16-931d-6e2b47699e9f","ios":"levelo://app?vid=fa5c687e-c52e-4b16-931d-6e2b47699e9f"},"vehicle_type_id":"4","last_reported":1750090390,"current_range_meters":16000,"station_id":"ce4bhg12rcd13ifvqf70","pricing_plan_id":"cebpf4jnsgd1na2vs0mg"},{"bike_id":"25960fd9-8509-4555-9b23-fa4fae1e21d0","system_id":"levelo_inurba_marseille","lat":43.29003,"lon":5.38216,"is_reserved":false,"is_disabled":false,"rental_uris":{"android":"levelo://app?vid=25960fd9-8509-4555-9b23-fa4fae1e21d0","ios":"levelo://app?vid=25960fd9-8509-4555-9b23-fa4fae1e21d0"},"vehicle_type_id":"4","last_reported":1750090390,"current_range_meters":16400,"station_id":"","pricing_plan_id":"cebpf4jnsgd1na2vs0mg"},{"bike_id":"4e750068-12b5-4be7-bde0-de15cc8f4878","system_id":"levelo_inurba_marseille","lat":43.29302,"lon":5.37462,"is_reserved":false,"is_disabled":false,"rental_uris":{"android":"levelo://app?vid=4e750068-12b5-4be7-bde0-de15cc8f4878","ios":"levelo://app?vid=4e750068-12b5-4be7-bde0-de15cc8f4878"},"vehicle_type_id":"4","last_reported":1750090390,"current_range_meters":16400,"station_id":"ce4bgi12rcd13ifvqb70","pricing_plan_id":"cebpf4jnsgd1na2vs0mg"},{"bike_id":"310f6bdd-744b-4a02-b9de-c98725f5919f","system_id":"levelo_inurba_marseille","lat":43.28857,"lon":5.3931,"is_reserved":false,"is_disabled":false,"rental_uris":{"android":"levelo://app?vid=310f6bdd-744b-4a02-b9de-c98725f5919f","ios":"levelo://app?vid=310f6bdd-744b-4a02-b9de-c98725f5919f"},"vehicle_type_id":"4","last_reported":1750090390,"current_range_meters":16400,"station_id":"ce4bh2p2rcd13ifvqdi0","pricing_plan_id":"cebpf4jnsgd1na2vs0mg"},{"bike_id":"5d64953c-6ae4-4208-b8f5-252a6a8d9ca3","system_id":"levelo_inurba_marseille","lat":43.2871,"lon":5.3737,"is_reserved":false,"is_disabled":false,"rental_uris":{"android":"levelo://app?vid=5d64953c-6ae4-4208-b8f5-252a6a8d9ca3","ios":"levelo://app?vid=5d64953c-6ae4-4208-b8f5-252a6a8d9ca3"},"vehicle_type_id":"4","last_reported":1750090390,"current_range_meters":16400,"station_id":"ce4bh3p2rcd13ifvqdq0","pricing_plan_id":"cebpf4jnsgd1na2vs0mg"},{"bike_id":"5a66efa4-406f-47a9-9d54-0082814f1beb","system_id":"levelo_inurba_marseille","lat":43.24673,"lon":5.38144,"is_reserved":false,"is_disabled":false,"rental_uris":{"android":"levelo://app?vid=5a66efa4-406f-47a9-9d54-0082814f1beb","ios":"levelo://app?vid=5a66efa4-406f-47a9-9d54-0082814f1beb"},"vehicle_type_id":"4","last_reported":1750090390,"current_range_meters":16400,"station_id":"ce4bhih2rcd13ifvqfr0","pricing_plan_id":"cebpf4jnsgd1na2vs0mg"},{"bike_id":"1e373418-986e-4d3c-9ff7-c37dd7c7a214","system_id":"levelo_inurba_marseille","lat":43.29903,"lon":5.4366,"is_reserved":false,"is_disabled":false,"rental_uris":{"android":"levelo://app?vid=1e373418-986e-4d3c-9ff7-c37dd7c7a214","ios":"levelo://app?vid=1e373418-986e-4d3c-9ff7-c37dd7c7a214"},"vehicle_type_id":"4","last_reported":1750090390,"current_range_meters":16400,"station_id":"ce4bhpp2rcd13ifvqhfg","pricing_plan_id":"cebpf4jnsgd1na2vs0mg"},{"bike_id":"6f39064d-946b-46aa-a8f4-d0d457764324","system_id":"levelo_inurba_marseille","lat":43.31536,"lon":5.38018,"is_reserved":false,"is_disabled":false,"rental_uris":{"android":"levelo://app?vid=6f39064d-946b-46aa-a8f4-d0d457764324","ios":"levelo://app?vid=6f39064d-946b-46aa-a8f4-d0d457764324"},"vehicle_type_id":"4","last_reported":1750090390,"current_range_meters":16400,"station_id":"ce4bhsp2rcd13ifvqi50","pricing_plan_id":"cebpf4jnsgd1na2vs0mg"},{"bike_id":"0e27dafc-21df-4fb1-bd36-2450a7866702","system_id":"levelo_inurba_marseille","lat":43.27198,"lon":5.40014,"is_reserved":false,"is_disabled":false,"rental_uris":{"android":"levelo://app?vid=0e27dafc-21df-4fb1-bd36-2450a7866702","ios":"levelo://app?vid=0e27dafc-21df-4fb1-bd36-2450a7866702"},"vehicle_type_id":"4","last_reported":1750090390,"current_range_meters":16800,"station_id":"","pricing_plan_id":"cebpf4jnsgd1na2vs0mg"},{"bike_id":"f7990729-db41-4748-8682-396b96cbc777","system_id":"levelo_inurba_marseille","lat":43.29874,"lon":5.39739,"is_reserved":false,"is_disabled":false,"rental_uris":{"android":"levelo://app?vid=f7990729-db41-4748-8682-396b96cbc777","ios":"levelo://app?vid=f7990729-db41-4748-8682-396b96cbc777"},"vehicle_type_id":"4","last_reported":1750090390,"current_range_meters":16800,"station_id":"ce4bh0h2rcd13ifvqd50","pricing_plan_id":"cebpf4jnsgd1na2vs0mg"},{"bike_id":"f29a3aab-1284-4a0b-9f13-adfa4425902e","system_id":"levelo_inurba_marseille","lat":43.29256,"lon":5.40907,"is_reserved":false,"is_disabled":false,"rental_uris":{"android":"levelo://app?vid=f29a3aab-1284-4a0b-9f13-adfa4425902e","ios":"levelo://app?vid=f29a3aab-1284-4a0b-9f13-adfa4425902e"},"vehicle_type_id":"4","last_reported":1750090390,"current_range_meters":16800,"station_id":"ce4bh192rcd13ifvqdc0","pricing_plan_id":"cebpf4jnsgd1na2vs0mg"},{"bike_id":"8764a77c-fc55-42d8-ac0f-01722fa705df","system_id":"levelo_inurba_marseille","lat":43.27373,"lon":5.36263,"is_reserved":false,"is_disabled":false,"rental_uris":{"android":"levelo://app?vid=8764a77c-fc55-42d8-ac0f-01722fa705df","ios":"levelo://app?vid=8764a77c-fc55-42d8-ac0f-01722fa705df"},"vehicle_type_id":"4","last_reported":1750090390,"current_range_meters":16800,"station_id":"ce4bhbh2rcd13ifvqeo0","pricing_plan_id":"cebpf4jnsgd1na2vs0mg"},{"bike_id":"7f8dd7c7-14da-4950-826a-4f6edb6fb438","system_id":"levelo_inurba_marseille","lat":43.286058,"lon":5.350955,"is_reserved":false,"is_disabled":false,"rental_uris":{"android":"levelo://app?vid=7f8dd7c7-14da-4950-826a-4f6edb6fb438","ios":"levelo://app?vid=7f8dd7c7-14da-4950-826a-4f6edb6fb438"},"vehicle_type_id":"4","last_reported":1750090390,"current_range_meters":16800,"station_id":"ce4bhch2rcd13ifvqeug","pricing_plan_id":"cebpf4jnsgd1na2vs0mg"},{"bike_id":"f8d1e557-c806-403e-b093-89a899d624dd","system_id":"levelo_inurba_marseille","lat":43.28642,"lon":5.35079,"is_reserved":false,"is_disabled":false,"rental_uris":{"android":"levelo://app?vid=f8d1e557-c806-403e-b093-89a899d624dd","ios":"levelo://app?vid=f8d1e557-c806-403e-b093-89a899d624dd"},"vehicle_type_id":"4","last_reported":1750090390,"current_range_meters":16800,"station_id":"ce4bhch2rcd13ifvqeug","pricing_plan_id":"cebpf4jnsgd1na2vs0mg"},{"bike_id":"9ca4474d-50d3-4613-90fd-fa8476250cd0","system_id":"levelo_inurba_marseille","lat":43.26682,"lon":5.38273,"is_reserved":false,"is_disabled":false,"rental_uris":{"android":"levelo://app?vid=9ca4474d-50d3-4613-90fd-fa8476250cd0","ios":"levelo://app?vid=9ca4474d-50d3-4613-90fd-fa8476250cd0"},"vehicle_type_id":"4","last_reported":1750090390,"current_range_meters":16800,"station_id":"ce4bhg92rcd13ifvqf90","pricing_plan_id":"cebpf4jnsgd1na2vs0mg"},{"bike_id":"34be212b-87a4-4960-8675-8b464a0073af","system_id":"levelo_inurba_marseille","lat":43.29573,"lon":5.37819,"is_reserved":false,"is_disabled":false,"rental_uris":{"android":"levelo://app?vid=34be212b-87a4-4960-8675-8b464a0073af","ios":"levelo://app?vid=34be212b-87a4-4960-8675-8b464a0073af"},"vehicle_type_id":"4","last_reported":1750090390,"current_range_meters":17200,"station_id":"","pricing_plan_id":"cebpf4jnsgd1na2vs0mg"},{"bike_id":"72713ba9-9b9a-489a-8cf1-9604709f2fe8","system_id":"levelo_inurba_marseille","lat":43.30932,"lon":5.40156,"is_reserved":false,"is_disabled":false,"rental_uris":{"android":"levelo://app?vid=72713ba9-9b9a-489a-8cf1-9604709f2fe8","ios":"levelo://app?vid=72713ba9-9b9a-489a-8cf1-9604709f2fe8"},"vehicle_type_id":"4","last_reported":1750090390,"current_range_meters":17200,"station_id":"ce4bgvp2rcd13ifvqct0","pricing_plan_id":"cebpf4jnsgd1na2vs0mg"},{"bike_id":"0927bc07-c90d-41f4-8025-07dfc787f509","system_id":"levelo_inurba_marseille","lat":43.29873,"lon":5.3973,"is_reserved":false,"is_disabled":false,"rental_uris":{"android":"levelo://app?vid=0927bc07-c90d-41f4-8025-07dfc787f509","ios":"levelo://app?vid=0927bc07-c90d-41f4-8025-07dfc787f509"},"vehicle_type_id":"4","last_reported":1750090390,"current_range_meters":17200,"station_id":"ce4bh0h2rcd13ifvqd50","pricing_plan_id":"cebpf4jnsgd1na2vs0mg"},{"bike_id":"fc061fa5-016a-455c-8ee0-06aea09ddeed","system_id":"levelo_inurba_marseille","lat":43.29028,"lon":5.35927,"is_reserved":false,"is_disabled":false,"rental_uris":{"android":"levelo://app?vid=fc061fa5-016a-455c-8ee0-06aea09ddeed","ios":"levelo://app?vid=fc061fa5-016a-455c-8ee0-06aea09ddeed"},"vehicle_type_id":"4","last_reported":1750090390,"current_range_meters":17200,"station_id":"ce4bha92rcd13ifvqeg0","pricing_plan_id":"cebpf4jnsgd1na2vs0mg"},{"bike_id":"404b450f-6352-4674-9a2a-f51c6591d8da","system_id":"levelo_inurba_marseille","lat":43.29878,"lon":5.43669,"is_reserved":false,"is_disabled":false,"rental_uris":{"android":"levelo://app?vid=404b450f-6352-4674-9a2a-f51c6591d8da","ios":"levelo://app?vid=404b450f-6352-4674-9a2a-f51c6591d8da"},"vehicle_type_id":"4","last_reported":1750090390,"current_range_meters":17200,"station_id":"ce4bhpp2rcd13ifvqhfg","pricing_plan_id":"cebpf4jnsgd1na2vs0mg"},{"bike_id":"232f57c2-1ec9-4d87-93aa-3a19fc87f454","system_id":"levelo_inurba_marseille","lat":43.3154,"lon":5.38043,"is_reserved":false,"is_disabled":false,"rental_uris":{"android":"levelo://app?vid=232f57c2-1ec9-4d87-93aa-3a19fc87f454","ios":"levelo://app?vid=232f57c2-1ec9-4d87-93aa-3a19fc87f454"},"vehicle_type_id":"4","last_reported":1750090390,"current_range_meters":17200,"station_id":"ce4bhsp2rcd13ifvqi50","pricing_plan_id":"cebpf4jnsgd1na2vs0mg"},{"bike_id":"3416a707-2d70-496d-9def-98dfa1a8af2c","system_id":"levelo_inurba_marseille","lat":43.23082,"lon":5.35485,"is_reserved":false,"is_disabled":false,"rental_uris":{"android":"levelo://app?vid=3416a707-2d70-496d-9def-98dfa1a8af2c","ios":"levelo://app?vid=3416a707-2d70-496d-9def-98dfa1a8af2c"},"vehicle_type_id":"4","last_reported":1750090390,"current_range_meters":17200,"station_id":"cpo3342slgdg3j2ifvpg","pricing_plan_id":"cebpf4jnsgd1na2vs0mg"},{"bike_id":"8d8216b7-70be-4e0e-b02f-ed276d5ecd5f","system_id":"levelo_inurba_marseille","lat":43.23012,"lon":5.35516,"is_reserved":false,"is_disabled":false,"rental_uris":{"android":"levelo://app?vid=8d8216b7-70be-4e0e-b02f-ed276d5ecd5f","ios":"levelo://app?vid=8d8216b7-70be-4e0e-b02f-ed276d5ecd5f"},"vehicle_type_id":"4","last_reported":1750090390,"current_range_meters":17200,"station_id":"cpo3342slgdg3j2ifvpg","pricing_plan_id":"cebpf4jnsgd1na2vs0mg"},{"bike_id":"83cfee7d-980d-496a-98c8-745c7e44c68d","system_id":"levelo_inurba_marseille","lat":43.32881,"lon":5.3908,"is_reserved":false,"is_disabled":false,"rental_uris":{"android":"levelo://app?vid=83cfee7d-980d-496a-98c8-745c7e44c68d","ios":"levelo://app?vid=83cfee7d-980d-496a-98c8-745c7e44c68d"},"vehicle_type_id":"4","last_reported":1750090390,"current_range_meters":17600,"station_id":"","pricing_plan_id":"cebpf4jnsgd1na2vs0mg"},{"bike_id":"b1d1fa40-9848-4ec8-92ff-ff1a4ffcb143","system_id":"levelo_inurba_marseille","lat":43.29701,"lon":5.37702,"is_reserved":false,"is_disabled":false,"rental_uris":{"android":"levelo://app?vid=b1d1fa40-9848-4ec8-92ff-ff1a4ffcb143","ios":"levelo://app?vid=b1d1fa40-9848-4ec8-92ff-ff1a4ffcb143"},"vehicle_type_id":"4","last_reported":1750090390,"current_range_meters":17600,"station_id":"ce4bgkh2rcd13ifvqbl0","pricing_plan_id":"cebpf4jnsgd1na2vs0mg"},{"bike_id":"0af7f3a2-e0f5-46f4-a4dd-2ab41fe2d0ff","system_id":"levelo_inurba_marseille","lat":43.23209,"lon":5.35559,"is_reserved":false,"is_disabled":false,"rental_uris":{"android":"levelo://app?vid=0af7f3a2-e0f5-46f4-a4dd-2ab41fe2d0ff","ios":"levelo://app?vid=0af7f3a2-e0f5-46f4-a4dd-2ab41fe2d0ff"},"vehicle_type_id":"4","last_reported":1750090390,"current_range_meters":17600,"station_id":"ce4bhu92rcd13ifvqi70","pricing_plan_id":"cebpf4jnsgd1na2vs0mg"},{"bike_id":"64634b23-3423-4b52-8929-e16875cc4be6","system_id":"levelo_inurba_marseille","lat":43.25052,"lon":5.39673,"is_reserved":false,"is_disabled":false,"rental_uris":{"android":"levelo://app?vid=64634b23-3423-4b52-8929-e16875cc4be6","ios":"levelo://app?vid=64634b23-3423-4b52-8929-e16875cc4be6"},"vehicle_type_id":"4","last_reported":1750090390,"current_range_meters":18000,"station_id":"","pricing_plan_id":"cebpf4jnsgd1na2vs0mg"},{"bike_id":"b9d8737f-ddb3-4aa7-b889-f17b6ce3e2a8","system_id":"levelo_inurba_marseille","lat":43.29501,"lon":5.37515,"is_reserved":false,"is_disabled":false,"rental_uris":{"android":"levelo://app?vid=b9d8737f-ddb3-4aa7-b889-f17b6ce3e2a8","ios":"levelo://app?vid=b9d8737f-ddb3-4aa7-b889-f17b6ce3e2a8"},"vehicle_type_id":"4","last_reported":1750090390,"current_range_meters":18000,"station_id":"ce4bgkp2rcd13ifvqbmg","pricing_plan_id":"cebpf4jnsgd1na2vs0mg"},{"bike_id":"4dc388d4-aefb-48ec-9d98-a4d5e294055a","system_id":"levelo_inurba_marseille","lat":43.2842,"lon":5.37503,"is_reserved":false,"is_disabled":false,"rental_uris":{"android":"levelo://app?vid=4dc388d4-aefb-48ec-9d98-a4d5e294055a","ios":"levelo://app?vid=4dc388d4-aefb-48ec-9d98-a4d5e294055a"},"vehicle_type_id":"4","last_reported":1750090390,"current_range_meters":18000,"station_id":"ce4bh412rcd13ifvqds0","pricing_plan_id":"cebpf4jnsgd1na2vs0mg"},{"bike_id":"3dde3bca-46fc-4164-a167-3eaf1a11c0a3","system_id":"levelo_inurba_marseille","lat":43.28618,"lon":5.35102,"is_reserved":false,"is_disabled":false,"rental_uris":{"android":"levelo://app?vid=3dde3bca-46fc-4164-a167-3eaf1a11c0a3","ios":"levelo://app?vid=3dde3bca-46fc-4164-a167-3eaf1a11c0a3"},"vehicle_type_id":"4","last_reported":1750090390,"current_range_meters":18000,"station_id":"ce4bhch2rcd13ifvqeug","pricing_plan_id":"cebpf4jnsgd1na2vs0mg"},{"bike_id":"57142048-c3f6-4898-b819-5568c4b666ae","system_id":"levelo_inurba_marseille","lat":43.27951,"lon":5.41045,"is_reserved":false,"is_disabled":false,"rental_uris":{"android":"levelo://app?vid=57142048-c3f6-4898-b819-5568c4b666ae","ios":"levelo://app?vid=57142048-c3f6-4898-b819-5568c4b666ae"},"vehicle_type_id":"4","last_reported":1750090390,"current_range_meters":18000,"station_id":"ce4bhnp2rcd13ifvqh0g","pricing_plan_id":"cebpf4jnsgd1na2vs0mg"},{"bike_id":"5ca1d51a-6d69-42b2-b91d-5b43541b497b","system_id":"levelo_inurba_marseille","lat":43.2869,"lon":5.3999,"is_reserved":false,"is_disabled":false,"rental_uris":{"android":"levelo://app?vid=5ca1d51a-6d69-42b2-b91d-5b43541b497b","ios":"levelo://app?vid=5ca1d51a-6d69-42b2-b91d-5b43541b497b"},"vehicle_type_id":"4","last_reported":1750090390,"current_range_meters":18000,"station_id":"ce4bho92rcd13ifvqh3g","pricing_plan_id":"cebpf4jnsgd1na2vs0mg"},{"bike_id":"2aa78b25-7a9c-4a83-ae64-b82d5f142295","system_id":"levelo_inurba_marseille","lat":43.32361,"lon":5.36732,"is_reserved":false,"is_disabled":false,"rental_uris":{"android":"levelo://app?vid=2aa78b25-7a9c-4a83-ae64-b82d5f142295","ios":"levelo://app?vid=2aa78b25-7a9c-4a83-ae64-b82d5f142295"},"vehicle_type_id":"4","last_reported":1750090390,"current_range_meters":18000,"station_id":"ce4bhsh2rcd13ifvqi2g","pricing_plan_id":"cebpf4jnsgd1na2vs0mg"},{"bike_id":"63d8f8de-6fb5-461e-8196-70d15c64a587","system_id":"levelo_inurba_marseille","lat":43.212104,"lon":5.350821,"is_reserved":false,"is_disabled":false,"rental_uris":{"android":"levelo://app?vid=63d8f8de-6fb5-461e-8196-70d15c64a587","ios":"levelo://app?vid=63d8f8de-6fb5-461e-8196-70d15c64a587"},"vehicle_type_id":"4","last_reported":1750090390,"current_range_meters":18000,"station_id":"st_cvj6sg6p6f1abm77japg","pricing_plan_id":"cebpf4jnsgd1na2vs0mg"},{"bike_id":"8fb21cdf-06cd-4a8f-aba4-cb4004e8dd09","system_id":"levelo_inurba_marseille","lat":43.29932,"lon":5.36561,"is_reserved":false,"is_disabled":false,"rental_uris":{"android":"levelo://app?vid=8fb21cdf-06cd-4a8f-aba4-cb4004e8dd09","ios":"levelo://app?vid=8fb21cdf-06cd-4a8f-aba4-cb4004e8dd09"},"vehicle_type_id":"4","last_reported":1750090390,"current_range_meters":18800,"station_id":"ce4bgm92rcd13ifvqbr0","pricing_plan_id":"cebpf4jnsgd1na2vs0mg"},{"bike_id":"2b16d1b2-2126-436a-b533-d0f3ef36e916","system_id":"levelo_inurba_marseille","lat":43.28348,"lon":5.38106,"is_reserved":false,"is_disabled":false,"rental_uris":{"android":"levelo://app?vid=2b16d1b2-2126-436a-b533-d0f3ef36e916","ios":"levelo://app?vid=2b16d1b2-2126-436a-b533-d0f3ef36e916"},"vehicle_type_id":"4","last_reported":1750090390,"current_range_meters":18800,"station_id":"ce4bh412rcd13ifvqdr0","pricing_plan_id":"cebpf4jnsgd1na2vs0mg"},{"bike_id":"31f09d85-c2e0-4502-aa71-7e79c1e38a21","system_id":"levelo_inurba_marseille","lat":43.29,"lon":5.35615,"is_reserved":false,"is_disabled":false,"rental_uris":{"android":"levelo://app?vid=31f09d85-c2e0-4502-aa71-7e79c1e38a21","ios":"levelo://app?vid=31f09d85-c2e0-4502-aa71-7e79c1e38a21"},"vehicle_type_id":"4","last_reported":1750090390,"current_range_meters":18800,"station_id":"ce4bhb92rcd13ifvqen0","pricing_plan_id":"cebpf4jnsgd1na2vs0mg"},{"bike_id":"565d28fd-8e81-4d05-863f-612940bbe238","system_id":"levelo_inurba_marseille","lat":43.28429,"lon":5.34981,"is_reserved":false,"is_disabled":false,"rental_uris":{"android":"levelo://app?vid=565d28fd-8e81-4d05-863f-612940bbe238","ios":"levelo://app?vid=565d28fd-8e81-4d05-863f-612940bbe238"},"vehicle_type_id":"4","last_reported":1750090390,"current_range_meters":18800,"station_id":"ce4bhbh2rcd13ifvqepg","pricing_plan_id":"cebpf4jnsgd1na2vs0mg"},{"bike_id":"bc360223-ff2f-41c9-9f01-efe983911099","system_id":"levelo_inurba_marseille","lat":43.28619,"lon":5.35113,"is_reserved":false,"is_disabled":false,"rental_uris":{"android":"levelo://app?vid=bc360223-ff2f-41c9-9f01-efe983911099","ios":"levelo://app?vid=bc360223-ff2f-41c9-9f01-efe983911099"},"vehicle_type_id":"4","last_reported":1750090390,"current_range_meters":18800,"station_id":"ce4bhch2rcd13ifvqeug","pricing_plan_id":"cebpf4jnsgd1na2vs0mg"},{"bike_id":"8e1a6c65-89b9-45c2-abce-2c7b264739c4","system_id":"levelo_inurba_marseille","lat":43.2307,"lon":5.35489,"is_reserved":false,"is_disabled":false,"rental_uris":{"android":"levelo://app?vid=8e1a6c65-89b9-45c2-abce-2c7b264739c4","ios":"levelo://app?vid=8e1a6c65-89b9-45c2-abce-2c7b264739c4"},"vehicle_type_id":"4","last_reported":1750090390,"current_range_meters":18800,"station_id":"cpo3342slgdg3j2ifvpg","pricing_plan_id":"cebpf4jnsgd1na2vs0mg"},{"bike_id":"3e956399-2b37-4fd2-bab6-e8cd367ce4fc","system_id":"levelo_inurba_marseille","lat":43.30432,"lon":5.39744,"is_reserved":false,"is_disabled":false,"rental_uris":{"android":"levelo://app?vid=3e956399-2b37-4fd2-bab6-e8cd367ce4fc","ios":"levelo://app?vid=3e956399-2b37-4fd2-bab6-e8cd367ce4fc"},"vehicle_type_id":"4","last_reported":1750090390,"current_range_meters":19200,"station_id":"","pricing_plan_id":"cebpf4jnsgd1na2vs0mg"},{"bike_id":"4ce5b165-f22d-40cf-abd3-1cb294861955","system_id":"levelo_inurba_marseille","lat":43.21189,"lon":5.35079,"is_reserved":false,"is_disabled":false,"rental_uris":{"android":"levelo://app?vid=4ce5b165-f22d-40cf-abd3-1cb294861955","ios":"levelo://app?vid=4ce5b165-f22d-40cf-abd3-1cb294861955"},"vehicle_type_id":"4","last_reported":1750090390,"current_range_meters":19200,"station_id":"","pricing_plan_id":"cebpf4jnsgd1na2vs0mg"},{"bike_id":"f83e23ee-a46c-4ffc-bf79-a2a951b15a92","system_id":"levelo_inurba_marseille","lat":43.29184,"lon":5.3559,"is_reserved":false,"is_disabled":false,"rental_uris":{"android":"levelo://app?vid=f83e23ee-a46c-4ffc-bf79-a2a951b15a92","ios":"levelo://app?vid=f83e23ee-a46c-4ffc-bf79-a2a951b15a92"},"vehicle_type_id":"4","last_reported":1750090390,"current_range_meters":19200,"station_id":"","pricing_plan_id":"cebpf4jnsgd1na2vs0mg"},{"bike_id":"08fccfbd-5653-4e6f-b77f-e08b586c3707","system_id":"levelo_inurba_marseille","lat":43.28042,"lon":5.36946,"is_reserved":false,"is_disabled":false,"rental_uris":{"android":"levelo://app?vid=08fccfbd-5653-4e6f-b77f-e08b586c3707","ios":"levelo://app?vid=08fccfbd-5653-4e6f-b77f-e08b586c3707"},"vehicle_type_id":"4","last_reported":1750090390,"current_range_meters":19200,"station_id":"ce4bha12rcd13ifvqef0","pricing_plan_id":"cebpf4jnsgd1na2vs0mg"},{"bike_id":"b3e7b03b-5d0f-45e7-b0a1-a405de069ddb","system_id":"levelo_inurba_marseille","lat":43.28995,"lon":5.35627,"is_reserved":false,"is_disabled":false,"rental_uris":{"android":"levelo://app?vid=b3e7b03b-5d0f-45e7-b0a1-a405de069ddb","ios":"levelo://app?vid=b3e7b03b-5d0f-45e7-b0a1-a405de069ddb"},"vehicle_type_id":"4","last_reported":1750090390,"current_range_meters":19200,"station_id":"ce4bhb92rcd13ifvqen0","pricing_plan_id":"cebpf4jnsgd1na2vs0mg"},{"bike_id":"9f2fbb5d-166b-49f8-8be7-377a1126664d","system_id":"levelo_inurba_marseille","lat":43.2842,"lon":5.34979,"is_reserved":false,"is_disabled":false,"rental_uris":{"android":"levelo://app?vid=9f2fbb5d-166b-49f8-8be7-377a1126664d","ios":"levelo://app?vid=9f2fbb5d-166b-49f8-8be7-377a1126664d"},"vehicle_type_id":"4","last_reported":1750090390,"current_range_meters":19200,"station_id":"ce4bhbh2rcd13ifvqepg","pricing_plan_id":"cebpf4jnsgd1na2vs0mg"},{"bike_id":"7c6135e6-bc2e-4586-ad8b-62856f044c7e","system_id":"levelo_inurba_marseille","lat":43.28265,"lon":5.35067,"is_reserved":false,"is_disabled":false,"rental_uris":{"android":"levelo://app?vid=7c6135e6-bc2e-4586-ad8b-62856f044c7e","ios":"levelo://app?vid=7c6135e6-bc2e-4586-ad8b-62856f044c7e"},"vehicle_type_id":"4","last_reported":1750090390,"current_range_meters":19200,"station_id":"ce4bhbp2rcd13ifvqerg","pricing_plan_id":"cebpf4jnsgd1na2vs0mg"},{"bike_id":"7626db2f-8581-4200-8af0-5ce97614bd80","system_id":"levelo_inurba_marseille","lat":43.23971,"lon":5.3662,"is_reserved":false,"is_disabled":false,"rental_uris":{"android":"levelo://app?vid=7626db2f-8581-4200-8af0-5ce97614bd80","ios":"levelo://app?vid=7626db2f-8581-4200-8af0-5ce97614bd80"},"vehicle_type_id":"4","last_reported":1750090390,"current_range_meters":19200,"station_id":"ce4bhi12rcd13ifvqfp0","pricing_plan_id":"cebpf4jnsgd1na2vs0mg"},{"bike_id":"2090556a-ebe6-4fcd-b60b-df67d7c8e4f7","system_id":"levelo_inurba_marseille","lat":43.298965,"lon":5.43659,"is_reserved":false,"is_disabled":false,"rental_uris":{"android":"levelo://app?vid=2090556a-ebe6-4fcd-b60b-df67d7c8e4f7","ios":"levelo://app?vid=2090556a-ebe6-4fcd-b60b-df67d7c8e4f7"},"vehicle_type_id":"4","last_reported":1750090390,"current_range_meters":19200,"station_id":"ce4bhpp2rcd13ifvqhfg","pricing_plan_id":"cebpf4jnsgd1na2vs0mg"},{"bike_id":"190a12a2-6869-42fa-9694-b72690cb2074","system_id":"levelo_inurba_marseille","lat":43.24169,"lon":5.36406,"is_reserved":false,"is_disabled":false,"rental_uris":{"android":"levelo://app?vid=190a12a2-6869-42fa-9694-b72690cb2074","ios":"levelo://app?vid=190a12a2-6869-42fa-9694-b72690cb2074"},"vehicle_type_id":"4","last_reported":1750090390,"current_range_meters":19200,"station_id":"cpo36qri1sfpv3e86is0","pricing_plan_id":"cebpf4jnsgd1na2vs0mg"},{"bike_id":"4cfcd6ac-29dc-4441-a0e2-99bee7cc7789","system_id":"levelo_inurba_marseille","lat":43.217528,"lon":5.345984,"is_reserved":false,"is_disabled":false,"rental_uris":{"android":"levelo://app?vid=4cfcd6ac-29dc-4441-a0e2-99bee7cc7789","ios":"levelo://app?vid=4cfcd6ac-29dc-4441-a0e2-99bee7cc7789"},"vehicle_type_id":"4","last_reported":1750090390,"current_range_meters":19600,"station_id":"","pricing_plan_id":"cebpf4jnsgd1na2vs0mg"},{"bike_id":"e4545242-0d34-410b-9092-52e20d435c24","system_id":"levelo_inurba_marseille","lat":43.30863,"lon":5.37004,"is_reserved":false,"is_disabled":false,"rental_uris":{"android":"levelo://app?vid=e4545242-0d34-410b-9092-52e20d435c24","ios":"levelo://app?vid=e4545242-0d34-410b-9092-52e20d435c24"},"vehicle_type_id":"4","last_reported":1750090390,"current_range_meters":19600,"station_id":"","pricing_plan_id":"cebpf4jnsgd1na2vs0mg"},{"bike_id":"3d28cc3e-8990-42ac-9d18-0cfe0833f03d","system_id":"levelo_inurba_marseille","lat":43.29078,"lon":5.38159,"is_reserved":false,"is_disabled":false,"rental_uris":{"android":"levelo://app?vid=3d28cc3e-8990-42ac-9d18-0cfe0833f03d","ios":"levelo://app?vid=3d28cc3e-8990-42ac-9d18-0cfe0833f03d"},"vehicle_type_id":"4","last_reported":1750090390,"current_range_meters":19600,"station_id":"ce4bh512rcd13ifvqe2g","pricing_plan_id":"cebpf4jnsgd1na2vs0mg"},{"bike_id":"a00b0328-f430-47a6-9162-348968c2a989","system_id":"levelo_inurba_marseille","lat":43.28674,"lon":5.3634,"is_reserved":false,"is_disabled":false,"rental_uris":{"android":"levelo://app?vid=a00b0328-f430-47a6-9162-348968c2a989","ios":"levelo://app?vid=a00b0328-f430-47a6-9162-348968c2a989"},"vehicle_type_id":"4","last_reported":1750090390,"current_range_meters":19600,"station_id":"ce4bhah2rcd13ifvqej0","pricing_plan_id":"cebpf4jnsgd1na2vs0mg"},