{"last_updated":1742926414,"ttl":60,"version":"2.2","data":{"bikes":[{"bike_id":"a59504f4-95ed-4bb4-abb3-eb1671290c45","system_id":"levelo_inurba_marseille","lat":43.29905,"lon":5.38144,"is_reserved":false,"is_disabled":false,"rental_uris":{"android":"levelo://app?vid=a59504f4-95ed-4bb4-abb3-eb1671290c45","ios":"levelo://app?vid=a59504f4-95ed-4bb4-abb3-eb1671290c45"},"vehicle_type_id":"4","last_reported":1742926414,"current_range_meters":2800,"station_id":"ce4bgj12rcd13ifvqbc0","pricing_plan_id":"cebpf4jnsgd1na2vs0mg"},{"bike_id":"25f58f80-a6e9-4d1d-9148-9410147adac5","system_id":"levelo_inurba_marseille","lat":43.275678,"lon":5.384208,"is_reserved":false,"is_disabled":false,"rental_uris":{"android":"levelo://app?vid=25f58f80-a6e9-4d1d-9148-9410147adac5","ios":"levelo://app?vid=25f58f80-a6e9-4d1d-9148-9410147adac5"},"vehicle_type_id":"4","last_reported":1742926414,"current_range_meters":2800,"station_id":"ce4bhh92rcd13ifvqfi0","pricing_plan_id":"cebpf4jnsgd1na2vs0mg"},{"bike_id":"ebf86de8-a3f7-4563-b9cd-62f5316ef4ec","system_id":"levelo_inurba_marseille","lat":43.30913,"lon":5.40162,"is_reserved":false,"is_disabled":true,"rental_uris":{"android":"levelo://app?vid=ebf86de8-a3f7-4563-b9cd-62f5316ef4ec","ios":"levelo://app?vid=ebf86de8-a3f7-4563-b9cd-62f5316ef4ec"},"vehicle_type_id":"4","last_reported":1742926414,"current_range_meters":2800,"station_id":"ce4bgvp2rcd13ifvqct0","pricing_plan_id":"cebpf4jnsgd1na2vs0mg"},{"bike_id":"5f26e121-8030-407a-a465-d5d2b4ad799e","system_id":"levelo_inurba_marseille","lat":43.27557,"lon":5.38438,"is_reserved":false,"is_disabled":false,"rental_uris":{"android":"levelo://app?vid=5f26e121-8030-407a-a465-d5d2b4ad799e","ios":"levelo://app?vid=5f26e121-8030-407a-a465-d5d2b4ad799e"},"vehicle_type_id":"4","last_reported":1742926414,"current_range_meters":2800,"station_id":"ce4bhh92rcd13ifvqfi0","pricing_plan_id":"cebpf4jnsgd1na2vs0mg"},{"bike_id":"87aedd70-b5a7-41d9-924f-7b8be80be320","system_id":"levelo_inurba_marseille","lat":43.262,"lon":5.37428,"is_reserved":false,"is_disabled":true,"rental_uris":{"android":"levelo://app?vid=87aedd70-b5a7-41d9-924f-7b8be80be320","ios":"levelo://app?vid=87aedd70-b5a7-41d9-924f-7b8be80be320"},"vehicle_type_id":"4","last_reported":1742926414,"current_range_meters":2800,"station_id":"ce4bhgp2rcd13ifvqfc0","pricing_plan_id":"cebpf4jnsgd1na2vs0mg"},{"bike_id":"a516a9ed-d9b5-406d-a660-3af8e40f2545","system_id":"levelo_inurba_marseille","lat":43.28427,"lon":5.35007,"is_reserved":false,"is_disabled":false,"rental_uris":{"android":"levelo://app?vid=a516a9ed-d9b5-406d-a660-3af8e40f2545","ios":"levelo://app?vid=a516a9ed-d9b5-406d-a660-3af8e40f2545"},"vehicle_type_id":"4","last_reported":1742926414,"current_range_meters":2800,"station_id":"ce4bhbh2rcd13ifvqepg","pricing_plan_id":"cebpf4jnsgd1na2vs0mg"},{"bike_id":"67bccd44-4d6f-4059-95db-8825ad654b05","system_id":"levelo_inurba_marseille","lat":43.31218,"lon":5.36872,"is_reserved":false,"is_disabled":false,"rental_uris":{"android":"levelo://app?vid=67bccd44-4d6f-4059-95db-8825ad654b05","ios":"levelo://app?vid=67bccd44-4d6f-4059-95db-8825ad654b05"},"vehicle_type_id":"4","last_reported":1742926414,"current_range_meters":2800,"station_id":"ce4bgl92rcd13ifvqbq0","pricing_plan_id":"cebpf4jnsgd1na2vs0mg"},{"bike_id":"ef338521-9c75-4e9b-9265-a570c55978e7","system_id":"levelo_inurba_marseille","lat":43.29969,"lon":5.38489,"is_reserved":false,"is_disabled":false,"rental_uris":{"android":"levelo://app?vid=ef338521-9c75-4e9b-9265-a570c55978e7","ios":"levelo://app?vid=ef338521-9c75-4e9b-9265-a570c55978e7"},"vehicle_type_id":"4","last_reported":1742926414,"current_range_meters":2800,"station_id":"ce4bgj92rcd13ifvqbd0","pricing_plan_id":"cebpf4jnsgd1na2vs0mg"},{"bike_id":"f418cfb4-77fb-461b-9adf-7078e30276a2","system_id":"levelo_inurba_marseille","lat":43.23144,"lon":5.43718,"is_reserved":false,"is_disabled":false,"rental_uris":{"android":"levelo://app?vid=f418cfb4-77fb-461b-9adf-7078e30276a2","ios":"levelo://app?vid=f418cfb4-77fb-461b-9adf-7078e30276a2"},"vehicle_type_id":"4","last_reported":1742926414,"current_range_meters":2800,"station_id":"ce4bhmp2rcd13ifvqgog","pricing_plan_id":"cebpf4jnsgd1na2vs0mg"},{"bike_id":"286daffd-13bd-4314-8a31-44c50f7b3ab4","system_id":"levelo_inurba_marseille","lat":43.29417,"lon":5.38656,"is_reserved":false,"is_disabled":false,"rental_uris":{"android":"levelo://app?vid=286daffd-13bd-4314-8a31-44c50f7b3ab4","ios":"levelo://app?vid=286daffd-13bd-4314-8a31-44c50f7b3ab4"},"vehicle_type_id":"4","last_reported":1742926414,"current_range_meters":2800,"station_id":"ce4bh2h2rcd13ifvqdh0","pricing_plan_id":"cebpf4jnsgd1na2vs0mg"},{"bike_id":"f75a3e25-b684-4bd8-8691-2122891fe5ab","system_id":"levelo_inurba_marseille","lat":43.262209,"lon":5.404497,"is_reserved":false,"is_disabled":false,"rental_uris":{"android":"levelo://app?vid=f75a3e25-b684-4bd8-8691-2122891fe5ab","ios":"levelo://app?vid=f75a3e25-b684-4bd8-8691-2122891fe5ab"},"vehicle_type_id":"4","last_reported":1742926414,"current_range_meters":2800,"station_id":"","pricing_plan_id":"cebpf4jnsgd1na2vs0mg"},{"bike_id":"9fe8e617-4c3b-47ee-a10b-39934d05c5ea","system_id":"levelo_inurba_marseille","lat":43.32291,"lon":5.38268,"is_reserved":false,"is_disabled":false,"rental_uris":{"android":"levelo://app?vid=9fe8e617-4c3b-47ee-a10b-39934d05c5ea","ios":"levelo://app?vid=9fe8e617-4c3b-47ee-a10b-39934d05c5ea"},"vehicle_type_id":"4","last_reported":1742926414,"current_range_meters":2800,"station_id":"ce4bhr12rcd13ifvqhqg","pricing_plan_id":"cebpf4jnsgd1na2vs0mg"},{"bike_id":"66543b71-66c9-48b5-ac9a-cf074c612429","system_id":"levelo_inurba_marseille","lat":43.30979,"lon":5.39656,"is_reserved":false,"is_disabled":false,"rental_uris":{"android":"levelo://app?vid=66543b71-66c9-48b5-ac9a-cf074c612429","ios":"levelo://app?vid=66543b71-66c9-48b5-ac9a-cf074c612429"},"vehicle_type_id":"4","last_reported":1742926414,"current_range_meters":2800,"station_id":"","pricing_plan_id":"cebpf4jnsgd1na2vs0mg"},{"bike_id":"be295973-b64b-4612-a980-85ed6abce5b1","system_id":"levelo_inurba_marseille","lat":43.30414,"lon":5.39747,"is_reserved":false,"is_disabled":true,"rental_uris":{"android":"levelo://app?vid=be295973-b64b-4612-a980-85ed6abce5b1","ios":"levelo://app?vid=be295973-b64b-4612-a980-85ed6abce5b1"},"vehicle_type_id":"4","last_reported":1742926414,"current_range_meters":3200,"station_id":"ce4bh092rcd13ifvqd20","pricing_plan_id":"cebpf4jnsgd1na2vs0mg"},{"bike_id":"6c3ac7d8-bf32-4db3-a2c8-bbf7da9ad475","system_id":"levelo_inurba_marseille","lat":43.2849,"lon":5.38549,"is_reserved":false,"is_disabled":false,"rental_uris":{"android":"levelo://app?vid=6c3ac7d8-bf32-4db3-a2c8-bbf7da9ad475","ios":"levelo://app?vid=6c3ac7d8-bf32-4db3-a2c8-bbf7da9ad475"},"vehicle_type_id":"4","last_reported":1742926414,"current_range_meters":3200,"station_id":"ce4bh8p2rcd13ifvqeb0","pricing_plan_id":"cebpf4jnsgd1na2vs0mg"},{"bike_id":"9f802e90-04df-47d0-96b8-c7636dac3c89","system_id":"levelo_inurba_marseille","lat":43.248016,"lon":5.374525,"is_reserved":false,"is_disabled":false,"rental_uris":{"android":"levelo://app?vid=9f802e90-04df-47d0-96b8-c7636dac3c89","ios":"levelo://app?vid=9f802e90-04df-47d0-96b8-c7636dac3c89"},"vehicle_type_id":"4","last_reported":1742926414,"current_range_meters":3200,"station_id":"ce4bhgh2rcd13ifvqfb0","pricing_plan_id":"cebpf4jnsgd1na2vs0mg"},{"bike_id":"4d69340e-b8cc-4b57-8687-057770f8ea23","system_id":"levelo_inurba_marseille","lat":43.27955,"lon":5.41062,"is_reserved":false,"is_disabled":false,"rental_uris":{"android":"levelo://app?vid=4d69340e-b8cc-4b57-8687-057770f8ea23","ios":"levelo://app?vid=4d69340e-b8cc-4b57-8687-057770f8ea23"},"vehicle_type_id":"4","last_reported":1742926414,"current_range_meters":3200,"station_id":"ce4bhnp2rcd13ifvqh0g","pricing_plan_id":"cebpf4jnsgd1na2vs0mg"},{"bike_id":"c9578b47-9857-4396-852d-050cd99a85f0","system_id":"levelo_inurba_marseille","lat":43.24662,"lon":5.38173,"is_reserved":false,"is_disabled":false,"rental_uris":{"android":"levelo://app?vid=c9578b47-9857-4396-852d-050cd99a85f0","ios":"levelo://app?vid=c9578b47-9857-4396-852d-050cd99a85f0"},"vehicle_type_id":"4","last_reported":1742926414,"current_range_meters":3600,"station_id":"ce4bhih2rcd13ifvqfr0","pricing_plan_id":"cebpf4jnsgd1na2vs0mg"},{"bike_id":"c674abf4-d5b2-45b5-99ee-1dd3f5179b2d","system_id":"levelo_inurba_marseille","lat":43.29683,"lon":5.36201,"is_reserved":false,"is_disabled":false,"rental_uris":{"android":"levelo://app?vid=c674abf4-d5b2-45b5-99ee-1dd3f5179b2d","ios":"levelo://app?vid=c674abf4-d5b2-45b5-99ee-1dd3f5179b2d"},"vehicle_type_id":"4","last_reported":1742926414,"current_range_meters":3600,"station_id":"","pricing_plan_id":"cebpf4jnsgd1na2vs0mg"},{"bike_id":"c88a216c-dc96-4fc3-b56f-d056b7fae7cb","system_id":"levelo_inurba_marseille","lat":43.23188,"lon":5.35558,"is_reserved":false,"is_disabled":false,"rental_uris":{"android":"levelo://app?vid=c88a216c-dc96-4fc3-b56f-d056b7fae7cb","ios":"levelo://app?vid=c88a216c-dc96-4fc3-b56f-d056b7fae7cb"},"vehicle_type_id":"4","last_reported":1742926414,"current_range_meters":3600,"station_id":"ce4bhu92rcd13ifvqi70","pricing_plan_id":"cebpf4jnsgd1na2vs0mg"},{"bike_id":"e46be815-7a6c-40ef-9480-8114cde7f5e6","system_id":"levelo_inurba_marseille","lat":43.30095,"lon":5.39077,"is_reserved":false,"is_disabled":false,"rental_uris":{"android":"levelo://app?vid=e46be815-7a6c-40ef-9480-8114cde7f5e6","ios":"levelo://app?vid=e46be815-7a6c-40ef-9480-8114cde7f5e6"},"vehicle_type_id":"4","last_reported":1742926414,"current_range_meters":3600,"station_id":"ce4bh192rcd13ifvqdb0","pricing_plan_id":"cebpf4jnsgd1na2vs0mg"},{"bike_id":"cf165fed-bb4c-40af-be73-561a4e304262","system_id":"levelo_inurba_marseille","lat":43.26934,"lon":5.38914,"is_reserved":false,"is_disabled":false,"rental_uris":{"android":"levelo://app?vid=cf165fed-bb4c-40af-be73-561a4e304262","ios":"levelo://app?vid=cf165fed-bb4c-40af-be73-561a4e304262"},"vehicle_type_id":"4","last_reported":1742926414,"current_range_meters":3600,"station_id":"ce4bhhh2rcd13ifvqfl0","pricing_plan_id":"cebpf4jnsgd1na2vs0mg"},{"bike_id":"4e39512a-05e4-4fcc-ba05-cbd9988bdd74","system_id":"levelo_inurba_marseille","lat":43.25119,"lon":5.40316,"is_reserved":false,"is_disabled":false,"rental_uris":{"android":"levelo://app?vid=4e39512a-05e4-4fcc-ba05-cbd9988bdd74","ios":"levelo://app?vid=4e39512a-05e4-4fcc-ba05-cbd9988bdd74"},"vehicle_type_id":"4","last_reported":1742926414,"current_range_meters":3600,"station_id":"ce4bhlh2rcd13ifvqgig","pricing_plan_id":"cebpf4jnsgd1na2vs0mg"},{"bike_id":"ce911bc5-47ef-4772-93f8-47f709898e9b","system_id":"levelo_inurba_marseille","lat":43.25116,"lon":5.40325,"is_reserved":false,"is_disabled":false,"rental_uris":{"android":"levelo://app?vid=ce911bc5-47ef-4772-93f8-47f709898e9b","ios":"levelo://app?vid=ce911bc5-47ef-4772-93f8-47f709898e9b"},"vehicle_type_id":"4","last_reported":1742926414,"current_range_meters":3600,"station_id":"ce4bhlh2rcd13ifvqgig","pricing_plan_id":"cebpf4jnsgd1na2vs0mg"},{"bike_id":"dcac24ce-64aa-4b0f-ac89-1a96d3e4f0be","system_id":"levelo_inurba_marseille","lat":43.30315,"lon":5.40302,"is_reserved":false,"is_disabled":false,"rental_uris":{"android":"levelo://app?vid=dcac24ce-64aa-4b0f-ac89-1a96d3e4f0be","ios":"levelo://app?vid=dcac24ce-64aa-4b0f-ac89-1a96d3e4f0be"},"vehicle_type_id":"4","last_reported":1742926414,"current_range_meters":3600,"station_id":"","pricing_plan_id":"cebpf4jnsgd1na2vs0mg"},{"bike_id":"a6d4f473-4024-4796-b216-5f6324aaccea","system_id":"levelo_inurba_marseille","lat":43.30461,"lon":5.37911,"is_reserved":false,"is_disabled":false,"rental_uris":{"android":"levelo://app?vid=a6d4f473-4024-4796-b216-5f6324aaccea","ios":"levelo://app?vid=a6d4f473-4024-4796-b216-5f6324aaccea"},"vehicle_type_id":"4","last_reported":1742926414,"current_range_meters":3600,"station_id":"ce4bgup2rcd13ifvqcn0","pricing_plan_id":"cebpf4jnsgd1na2vs0mg"},{"bike_id":"bfe4d941-f4a8-4fcc-a594-525e47d5b44a","system_id":"levelo_inurba_marseille","lat":43.29963,"lon":5.38504,"is_reserved":false,"is_disabled":false,"rental_uris":{"android":"levelo://app?vid=bfe4d941-f4a8-4fcc-a594-525e47d5b44a","ios":"levelo://app?vid=bfe4d941-f4a8-4fcc-a594-525e47d5b44a"},"vehicle_type_id":"4","last_reported":1742926414,"current_range_meters":4000,"station_id":"ce4bgj92rcd13ifvqbd0","pricing_plan_id":"cebpf4jnsgd1na2vs0mg"},{"bike_id":"db1691b8-c2b9-4568-ab9a-11df32e43510","system_id":"levelo_inurba_marseille","lat":43.2972,"lon":5.37702,"is_reserved":false,"is_disabled":false,"rental_uris":{"android":"levelo://app?vid=db1691b8-c2b9-4568-ab9a-11df32e43510","ios":"levelo://app?vid=db1691b8-c2b9-4568-ab9a-11df32e43510"},"vehicle_type_id":"4","last_reported":1742926414,"current_range_meters":4000,"station_id":"ce4bgkh2rcd13ifvqbl0","pricing_plan_id":"cebpf4jnsgd1na2vs0mg"},{"bike_id":"b84f3882-1e0f-40f5-a97f-49efaf52196b","system_id":"levelo_inurba_marseille","lat":43.26193,"lon":5.37449,"is_reserved":false,"is_disabled":false,"rental_uris":{"android":"levelo://app?vid=b84f3882-1e0f-40f5-a97f-49efaf52196b","ios":"levelo://app?vid=b84f3882-1e0f-40f5-a97f-49efaf52196b"},"vehicle_type_id":"4","last_reported":1742926414,"current_range_meters":4000,"station_id":"ce4bhgp2rcd13ifvqfc0","pricing_plan_id":"cebpf4jnsgd1na2vs0mg"},{"bike_id":"5609e2d1-aa2a-4bfb-bd8e-e94098daa09f","system_id":"levelo_inurba_marseille","lat":43.28457,"lon":5.35893,"is_reserved":false,"is_disabled":false,"rental_uris":{"android":"levelo://app?vid=5609e2d1-aa2a-4bfb-bd8e-e94098daa09f","ios":"levelo://app?vid=5609e2d1-aa2a-4bfb-bd8e-e94098daa09f"},"vehicle_type_id":"4","last_reported":1742926414,"current_range_meters":4000,"station_id":"ce4bhah2rcd13ifvqei0","pricing_plan_id":"cebpf4jnsgd1na2vs0mg"},{"bike_id":"38dd6460-2fd5-4e0a-989a-8b89477e782f","system_id":"levelo_inurba_marseille","lat":43.29036,"lon":5.38645,"is_reserved":false,"is_disabled":false,"rental_uris":{"android":"levelo://app?vid=38dd6460-2fd5-4e0a-989a-8b89477e782f","ios":"levelo://app?vid=38dd6460-2fd5-4e0a-989a-8b89477e782f"},"vehicle_type_id":"4","last_reported":1742926414,"current_range_meters":4000,"station_id":"ce4bh4p2rcd13ifvqe0g","pricing_plan_id":"cebpf4jnsgd1na2vs0mg"},{"bike_id":"2395a39f-f86e-4957-b1b4-95bc73ca7118","system_id":"levelo_inurba_marseille","lat":43.28659,"lon":5.36356,"is_reserved":false,"is_disabled":false,"rental_uris":{"android":"levelo://app?vid=2395a39f-f86e-4957-b1b4-95bc73ca7118","ios":"levelo://app?vid=2395a39f-f86e-4957-b1b4-95bc73ca7118"},"vehicle_type_id":"4","last_reported":1742926414,"current_range_meters":4000,"station_id":"ce4bhah2rcd13ifvqej0","pricing_plan_id":"cebpf4jnsgd1na2vs0mg"},{"bike_id":"13568157-c703-465e-9ce4-6a5c6382a6aa","system_id":"levelo_inurba_marseille","lat":43.30136,"lon":5.39863,"is_reserved":false,"is_disabled":false,"rental_uris":{"android":"levelo://app?vid=13568157-c703-465e-9ce4-6a5c6382a6aa","ios":"levelo://app?vid=13568157-c703-465e-9ce4-6a5c6382a6aa"},"vehicle_type_id":"4","last_reported":1742926414,"current_range_meters":4000,"station_id":"ce4bh0h2rcd13ifvqd40","pricing_plan_id":"cebpf4jnsgd1na2vs0mg"},{"bike_id":"bec1e8e6-f02c-4281-adb9-d5c3dfc60ee6","system_id":"levelo_inurba_marseille","lat":43.29006,"lon":5.35609,"is_reserved":false,"is_disabled":false,"rental_uris":{"android":"levelo://app?vid=bec1e8e6-f02c-4281-adb9-d5c3dfc60ee6","ios":"levelo://app?vid=bec1e8e6-f02c-4281-adb9-d5c3dfc60ee6"},"vehicle_type_id":"4","last_reported":1742926414,"current_range_meters":4400,"station_id":"ce4bhb92rcd13ifvqen0","pricing_plan_id":"cebpf4jnsgd1na2vs0mg"},{"bike_id":"f11bb703-8b85-42cf-97ac-b4c26b595428","system_id":"levelo_inurba_marseille","lat":43.3137,"lon":5.38503,"is_reserved":false,"is_disabled":false,"rental_uris":{"android":"levelo://app?vid=f11bb703-8b85-42cf-97ac-b4c26b595428","ios":"levelo://app?vid=f11bb703-8b85-42cf-97ac-b4c26b595428"},"vehicle_type_id":"4","last_reported":1742926414,"current_range_meters":4400,"station_id":"ce4bgt92rcd13ifvqcf0","pricing_plan_id":"cebpf4jnsgd1na2vs0mg"},{"bike_id":"4f49e25c-8968-44ba-aacb-5018aa58eaca","system_id":"levelo_inurba_marseille","lat":43.30799,"lon":5.38156,"is_reserved":false,"is_disabled":false,"rental_uris":{"android":"levelo://app?vid=4f49e25c-8968-44ba-aacb-5018aa58eaca","ios":"levelo://app?vid=4f49e25c-8968-44ba-aacb-5018aa58eaca"},"vehicle_type_id":"4","last_reported":1742926414,"current_range_meters":4400,"station_id":"ce4bgt12rcd13ifvqce0","pricing_plan_id":"cebpf4jnsgd1na2vs0mg"},{"bike_id":"4c44323f-8e85-4775-89d0-b891e75ca84c","system_id":"levelo_inurba_marseille","lat":43.29031,"lon":5.35942,"is_reserved":false,"is_disabled":false,"rental_uris":{"android":"levelo://app?vid=4c44323f-8e85-4775-89d0-b891e75ca84c","ios":"levelo://app?vid=4c44323f-8e85-4775-89d0-b891e75ca84c"},"vehicle_type_id":"4","last_reported":1742926414,"current_range_meters":4400,"station_id":"ce4bha92rcd13ifvqeg0","pricing_plan_id":"cebpf4jnsgd1na2vs0mg"},{"bike_id":"407dc054-458b-409d-a9ea-14857165cea1","system_id":"levelo_inurba_marseille","lat":43.29039,"lon":5.38647,"is_reserved":false,"is_disabled":false,"rental_uris":{"android":"levelo://app?vid=407dc054-458b-409d-a9ea-14857165cea1","ios":"levelo://app?vid=407dc054-458b-409d-a9ea-14857165cea1"},"vehicle_type_id":"4","last_reported":1742926414,"current_range_meters":4400,"station_id":"ce4bh4p2rcd13ifvqe0g","pricing_plan_id":"cebpf4jnsgd1na2vs0mg"},{"bike_id":"6713be58-f75a-45d7-9374-7a5728f82fdc","system_id":"levelo_inurba_marseille","lat":43.24383,"lon":5.37059,"is_reserved":false,"is_disabled":false,"rental_uris":{"android":"levelo://app?vid=6713be58-f75a-45d7-9374-7a5728f82fdc","ios":"levelo://app?vid=6713be58-f75a-45d7-9374-7a5728f82fdc"},"vehicle_type_id":"4","last_reported":1742926414,"current_range_meters":4400,"station_id":"ce4bhhh2rcd13ifvqfk0","pricing_plan_id":"cebpf4jnsgd1na2vs0mg"},{"bike_id":"f5c1411c-faeb-4fb8-a5aa-0cc1b2ba5b11","system_id":"levelo_inurba_marseille","lat":43.27178,"lon":5.41,"is_reserved":false,"is_disabled":false,"rental_uris":{"android":"levelo://app?vid=f5c1411c-faeb-4fb8-a5aa-0cc1b2ba5b11","ios":"levelo://app?vid=f5c1411c-faeb-4fb8-a5aa-0cc1b2ba5b11"},"vehicle_type_id":"4","last_reported":1742926414,"current_range_meters":4400,"station_id":"ce4bhl12rcd13ifvqgf0","pricing_plan_id":"cebpf4jnsgd1na2vs0mg"},{"bike_id":"956fc08e-5d98-46b2-bb5a-fa8747509ed6","system_id":"levelo_inurba_marseille","lat":43.31999,"lon":5.38166,"is_reserved":false,"is_disabled":false,"rental_uris":{"android":"levelo://app?vid=956fc08e-5d98-46b2-bb5a-fa8747509ed6","ios":"levelo://app?vid=956fc08e-5d98-46b2-bb5a-fa8747509ed6"},"vehicle_type_id":"4","last_reported":1742926414,"current_range_meters":4400,"station_id":"ce4bhr12rcd13ifvqhpg","pricing_plan_id":"cebpf4jnsgd1na2vs0mg"},{"bike_id":"ced3e585-07f4-4c14-9216-3b64d74ab650","system_id":"levelo_inurba_marseille","lat":43.27318,"lon":5.39104,"is_reserved":false,"is_disabled":false,"rental_uris":{"android":"levelo://app?vid=ced3e585-07f4-4c14-9216-3b64d74ab650","ios":"levelo://app?vid=ced3e585-07f4-4c14-9216-3b64d74ab650"},"vehicle_type_id":"4","last_reported":1742926414,"current_range_meters":4400,"station_id":"ce4bhgp2rcd13ifvqfe0","pricing_plan_id":"cebpf4jnsgd1na2vs0mg"},{"bike_id":"a0fe04e4-bf5a-429e-9eaa-0e341089841c","system_id":"levelo_inurba_marseille","lat":43.24389,"lon":5.3706,"is_reserved":false,"is_disabled":false,"rental_uris":{"android":"levelo://app?vid=a0fe04e4-bf5a-429e-9eaa-0e341089841c","ios":"levelo://app?vid=a0fe04e4-bf5a-429e-9eaa-0e341089841c"},"vehicle_type_id":"4","last_reported":1742926414,"current_range_meters":4400,"station_id":"ce4bhhh2rcd13ifvqfk0","pricing_plan_id":"cebpf4jnsgd1na2vs0mg"},{"bike_id":"4e623c63-7c35-494f-831b-2229c6b4d38f","system_id":"levelo_inurba_marseille","lat":43.30302,"lon":5.39234,"is_reserved":false,"is_disabled":false,"rental_uris":{"android":"levelo://app?vid=4e623c63-7c35-494f-831b-2229c6b4d38f","ios":"levelo://app?vid=4e623c63-7c35-494f-831b-2229c6b4d38f"},"vehicle_type_id":"4","last_reported":1742926414,"current_range_meters":4400,"station_id":"ce4bgkh2rcd13ifvqbk0","pricing_plan_id":"cebpf4jnsgd1na2vs0mg"},{"bike_id":"508b2ccd-6c44-4a07-b2a9-81b811e5e0ba","system_id":"levelo_inurba_marseille","lat":43.29036,"lon":5.39993,"is_reserved":false,"is_disabled":false,"rental_uris":{"android":"levelo://app?vid=508b2ccd-6c44-4a07-b2a9-81b811e5e0ba","ios":"levelo://app?vid=508b2ccd-6c44-4a07-b2a9-81b811e5e0ba"},"vehicle_type_id":"4","last_reported":1742926414,"current_range_meters":4400,"station_id":"ce4bh392rcd13ifvqdm0","pricing_plan_id":"cebpf4jnsgd1na2vs0mg"},{"bike_id":"9ad081dd-accd-4dab-b252-44021c8f1b43","system_id":"levelo_inurba_marseille","lat":43.2738,"lon":5.36276,"is_reserved":false,"is_disabled":false,"rental_uris":{"android":"levelo://app?vid=9ad081dd-accd-4dab-b252-44021c8f1b43","ios":"levelo://app?vid=9ad081dd-accd-4dab-b252-44021c8f1b43"},"vehicle_type_id":"4","last_reported":1742926414,"current_range_meters":4400,"station_id":"ce4bhbh2rcd13ifvqeo0","pricing_plan_id":"cebpf4jnsgd1na2vs0mg"},{"bike_id":"7dc3bc3e-7085-48cb-8cfe-4aa6dbea1848","system_id":"levelo_inurba_marseille","lat":43.26227,"lon":5.4045,"is_reserved":false,"is_disabled":false,"rental_uris":{"android":"levelo://app?vid=7dc3bc3e-7085-48cb-8cfe-4aa6dbea1848","ios":"levelo://app?vid=7dc3bc3e-7085-48cb-8cfe-4aa6dbea1848"},"vehicle_type_id":"4","last_reported":1742926414,"current_range_meters":4400,"station_id":"ce4bhmh2rcd13ifvqgmg","pricing_plan_id":"cebpf4jnsgd1na2vs0mg"},{"bike_id":"b64bc79c-7b62-4cb8-aad6-b9c3e3355179","system_id":"levelo_inurba_marseille","lat":43.28452,"lon":5.35899,"is_reserved":false,"is_disabled":false,"rental_uris":{"android":"levelo://app?vid=b64bc79c-7b62-4cb8-aad6-b9c3e3355179","ios":"levelo://app?vid=b64bc79c-7b62-4cb8-aad6-b9c3e3355179"},"vehicle_type_id":"4","last_reported":1742926414,"current_range_meters":4400,"station_id":"ce4bhah2rcd13ifvqei0","pricing_plan_id":"cebpf4jnsgd1na2vs0mg"},{"bike_id":"fcef15ab-644c-45f0-b3e2-ebae40a9bba5","system_id":"levelo_inurba_marseille","lat":43.24648,"lon":5.38904,"is_reserved":false,"is_disabled":false,"rental_uris":{"android":"levelo://app?vid=fcef15ab-644c-45f0-b3e2-ebae40a9bba5","ios":"levelo://app?vid=fcef15ab-644c-45f0-b3e2-ebae40a9bba5"},"vehicle_type_id":"4","last_reported":1742926414,"current_range_meters":4400,"station_id":"ce4bhg12rcd13ifvqf60","pricing_plan_id":"cebpf4jnsgd1na2vs0mg"},{"bike_id":"a9acb1d2-708f-48df-896d-9312e3fa06e9","system_id":"levelo_inurba_marseille","lat":43.28614,"lon":5.35103,"is_reserved":false,"is_disabled":false,"rental_uris":{"android":"levelo://app?vid=a9acb1d2-708f-48df-896d-9312e3fa06e9","ios":"levelo://app?vid=a9acb1d2-708f-48df-896d-9312e3fa06e9"},"vehicle_type_id":"4","last_reported":1742926414,"current_range_meters":4800,"station_id":"ce4bhch2rcd13ifvqeug","pricing_plan_id":"cebpf4jnsgd1na2vs0mg"},{"bike_id":"bbeb21a4-d6fd-4cdf-9ab5-2e33dcbd6c52","system_id":"levelo_inurba_marseille","lat":43.29904,"lon":5.43657,"is_reserved":false,"is_disabled":false,"rental_uris":{"android":"levelo://app?vid=bbeb21a4-d6fd-4cdf-9ab5-2e33dcbd6c52","ios":"levelo://app?vid=bbeb21a4-d6fd-4cdf-9ab5-2e33dcbd6c52"},"vehicle_type_id":"4","last_reported":1742926414,"current_range_meters":4800,"station_id":"ce4bhpp2rcd13ifvqhfg","pricing_plan_id":"cebpf4jnsgd1na2vs0mg"},{"bike_id":"a18bcc34-c41a-4d6a-897b-5b97c82ff532","system_id":"levelo_inurba_marseille","lat":43.25901,"lon":5.39861,"is_reserved":false,"is_disabled":false,"rental_uris":{"android":"levelo://app?vid=a18bcc34-c41a-4d6a-897b-5b97c82ff532","ios":"levelo://app?vid=a18bcc34-c41a-4d6a-897b-5b97c82ff532"},"vehicle_type_id":"4","last_reported":1742926414,"current_range_meters":4800,"station_id":"ce4bhl92rcd13ifvqghg","pricing_plan_id":"cebpf4jnsgd1na2vs0mg"},{"bike_id":"9b3df4af-6091-4feb-b2d9-618f1a0a9915","system_id":"levelo_inurba_marseille","lat":43.23184,"lon":5.35551,"is_reserved":false,"is_disabled":false,"rental_uris":{"android":"levelo://app?vid=9b3df4af-6091-4feb-b2d9-618f1a0a9915","ios":"levelo://app?vid=9b3df4af-6091-4feb-b2d9-618f1a0a9915"},"vehicle_type_id":"4","last_reported":1742926414,"current_range_meters":4800,"station_id":"ce4bhu92rcd13ifvqi70","pricing_plan_id":"cebpf4jnsgd1na2vs0mg"},{"bike_id":"c05b7168-433b-4d3e-9ba1-a7905898db78","system_id":"levelo_inurba_marseille","lat":43.286133,"lon":5.351185,"is_reserved":false,"is_disabled":false,"rental_uris":{"android":"levelo://app?vid=c05b7168-433b-4d3e-9ba1-a7905898db78","ios":"levelo://app?vid=c05b7168-433b-4d3e-9ba1-a7905898db78"},"vehicle_type_id":"4","last_reported":1742926414,"current_range_meters":4800,"station_id":"ce4bgip2rcd13ifvqbb0","pricing_plan_id":"cebpf4jnsgd1na2vs0mg"},{"bike_id":"35b85dc9-b7c3-492e-b3c3-a00d23495421","system_id":"levelo_inurba_marseille","lat":43.29262,"lon":5.38437,"is_reserved":false,"is_disabled":false,"rental_uris":{"android":"levelo://app?vid=35b85dc9-b7c3-492e-b3c3-a00d23495421","ios":"levelo://app?vid=35b85dc9-b7c3-492e-b3c3-a00d23495421"},"vehicle_type_id":"4","last_reported":1742926414,"current_range_meters":4800,"station_id":"ce4bh692rcd13ifvqea0","pricing_plan_id":"cebpf4jnsgd1na2vs0mg"},{"bike_id":"6e59aff7-3c3a-4c10-a2d3-7167cd927d07","system_id":"levelo_inurba_marseille","lat":43.29531,"lon":5.3854,"is_reserved":false,"is_disabled":false,"rental_uris":{"android":"levelo://app?vid=6e59aff7-3c3a-4c10-a2d3-7167cd927d07","ios":"levelo://app?vid=6e59aff7-3c3a-4c10-a2d3-7167cd927d07"},"vehicle_type_id":"4","last_reported":1742926414,"current_range_meters":4800,"station_id":"ce4bgih2rcd13ifvqba0","pricing_plan_id":"cebpf4jnsgd1na2vs0mg"},{"bike_id":"3dd1ddc6-74ea-4d9d-bc6b-f630ad6f2e37","system_id":"levelo_inurba_marseille","lat":43.29276,"lon":5.40113,"is_reserved":false,"is_disabled":false,"rental_uris":{"android":"levelo://app?vid=3dd1ddc6-74ea-4d9d-bc6b-f630ad6f2e37","ios":"levelo://app?vid=3dd1ddc6-74ea-4d9d-bc6b-f630ad6f2e37"},"vehicle_type_id":"4","last_reported":1742926414,"current_range_meters":4800,"station_id":"ce4bh312rcd13ifvqdk0","pricing_plan_id":"cebpf4jnsgd1na2vs0mg"},{"bike_id":"5c0afacc-e3d9-4363-8f10-2a19150221ac","system_id":"levelo_inurba_marseille","lat":43.29415,"lon":5.37423,"is_reserved":false,"is_disabled":false,"rental_uris":{"android":"levelo://app?vid=5c0afacc-e3d9-4363-8f10-2a19150221ac","ios":"levelo://app?vid=5c0afacc-e3d9-4363-8f10-2a19150221ac"},"vehicle_type_id":"4","last_reported":1742926414,"current_range_meters":5600,"station_id":"","pricing_plan_id":"cebpf4jnsgd1na2vs0mg"},{"bike_id":"0e3f547e-3a1b-4dc9-bffb-99b13a213daa","system_id":"levelo_inurba_marseille","lat":43.30129,"lon":5.39866,"is_reserved":false,"is_disabled":false,"rental_uris":{"android":"levelo://app?vid=0e3f547e-3a1b-4dc9-bffb-99b13a213daa","ios":"levelo://app?vid=0e3f547e-3a1b-4dc9-bffb-99b13a213daa"},"vehicle_type_id":"4","last_reported":1742926414,"current_range_meters":5600,"station_id":"ce4bh0h2rcd13ifvqd40","pricing_plan_id":"cebpf4jnsgd1na2vs0mg"},{"bike_id":"1c159b9d-c4e4-4657-8ed0-2e25d5baf564","system_id":"levelo_inurba_marseille","lat":43.286771,"lon":5.386656,"is_reserved":false,"is_disabled":false,"rental_uris":{"android":"levelo://app?vid=1c159b9d-c4e4-4657-8ed0-2e25d5baf564","ios":"levelo://app?vid=1c159b9d-c4e4-4657-8ed0-2e25d5baf564"},"vehicle_type_id":"4","last_reported":1742926414,"current_range_meters":5600,"station_id":"ce4bh492rcd13ifvqdug","pricing_plan_id":"cebpf4jnsgd1na2vs0mg"},{"bike_id":"1cdadbec-59d3-4626-921c-d13995418347","system_id":"levelo_inurba_marseille","lat":43.27817,"lon":5.407236,"is_reserved":false,"is_disabled":false,"rental_uris":{"android":"levelo://app?vid=1cdadbec-59d3-4626-921c-d13995418347","ios":"levelo://app?vid=1cdadbec-59d3-4626-921c-d13995418347"},"vehicle_type_id":"4","last_reported":1742926414,"current_range_meters":5600,"station_id":"ce4bhnh2rcd13ifvqgtg","pricing_plan_id":"cebpf4jnsgd1na2vs0mg"},{"bike_id":"2bc72a2e-702e-46da-9fbd-f71b19280312","system_id":"levelo_inurba_marseille","lat":43.28689,"lon":5.37387,"is_reserved":false,"is_disabled":false,"rental_uris":{"android":"levelo://app?vid=2bc72a2e-702e-46da-9fbd-f71b19280312","ios":"levelo://app?vid=2bc72a2e-702e-46da-9fbd-f71b19280312"},"vehicle_type_id":"4","last_reported":1742926414,"current_range_meters":5600,"station_id":"ce4bh3p2rcd13ifvqdq0","pricing_plan_id":"cebpf4jnsgd1na2vs0mg"},{"bike_id":"2b27f393-7234-41ea-bce8-7844422bbbd5","system_id":"levelo_inurba_marseille","lat":43.29058,"lon":5.3596,"is_reserved":false,"is_disabled":false,"rental_uris":{"android":"levelo://app?vid=2b27f393-7234-41ea-bce8-7844422bbbd5","ios":"levelo://app?vid=2b27f393-7234-41ea-bce8-7844422bbbd5"},"vehicle_type_id":"4","last_reported":1742926414,"current_range_meters":5600,"station_id":"ce4bha92rcd13ifvqeg0","pricing_plan_id":"cebpf4jnsgd1na2vs0mg"},{"bike_id":"d1b8cbaf-c6fe-45eb-b9e0-7b8faf1d9bd2","system_id":"levelo_inurba_marseille","lat":43.30298,"lon":5.39216,"is_reserved":false,"is_disabled":false,"rental_uris":{"android":"levelo://app?vid=d1b8cbaf-c6fe-45eb-b9e0-7b8faf1d9bd2","ios":"levelo://app?vid=d1b8cbaf-c6fe-45eb-b9e0-7b8faf1d9bd2"},"vehicle_type_id":"4","last_reported":1742926414,"current_range_meters":5600,"station_id":"ce4bgkh2rcd13ifvqbk0","pricing_plan_id":"cebpf4jnsgd1na2vs0mg"},{"bike_id":"cf30ba2d-9dd5-4d8d-b3a7-9af496f3ef85","system_id":"levelo_inurba_marseille","lat":43.289226,"lon":5.381897,"is_reserved":false,"is_disabled":false,"rental_uris":{"android":"levelo://app?vid=cf30ba2d-9dd5-4d8d-b3a7-9af496f3ef85","ios":"levelo://app?vid=cf30ba2d-9dd5-4d8d-b3a7-9af496f3ef85"},"vehicle_type_id":"4","last_reported":1742926414,"current_range_meters":5600,"station_id":"ce4bh4p2rcd13ifvqe1g","pricing_plan_id":"cebpf4jnsgd1na2vs0mg"},{"bike_id":"fbfecbb6-5794-4d9a-9176-1810e4b4a7ef","system_id":"levelo_inurba_marseille","lat":43.23074,"lon":5.35491,"is_reserved":false,"is_disabled":false,"rental_uris":{"android":"levelo://app?vid=fbfecbb6-5794-4d9a-9176-1810e4b4a7ef","ios":"levelo://app?vid=fbfecbb6-5794-4d9a-9176-1810e4b4a7ef"},"vehicle_type_id":"4","last_reported":1742926414,"current_range_meters":5600,"station_id":"cpo3342slgdg3j2ifvpg","pricing_plan_id":"cebpf4jnsgd1na2vs0mg"},{"bike_id":"943904f8-2ace-4be5-a19f-887b0bd689e8","system_id":"levelo_inurba_marseille","lat":43.29907,"lon":5.43651,"is_reserved":false,"is_disabled":false,"rental_uris":{"android":"levelo://app?vid=943904f8-2ace-4be5-a19f-887b0bd689e8","ios":"levelo://app?vid=943904f8-2ace-4be5-a19f-887b0bd689e8"},"vehicle_type_id":"4","last_reported":1742926414,"current_range_meters":5600,"station_id":"ce4bhpp2rcd13ifvqhfg","pricing_plan_id":"cebpf4jnsgd1na2vs0mg"},{"bike_id":"2dc9dd28-3adf-463c-a910-459039d40689","system_id":"levelo_inurba_marseille","lat":43.29527,"lon":5.38545,"is_reserved":false,"is_disabled":false,"rental_uris":{"android":"levelo://app?vid=2dc9dd28-3adf-463c-a910-459039d40689","ios":"levelo://app?vid=2dc9dd28-3adf-463c-a910-459039d40689"},"vehicle_type_id":"4","last_reported":1742926414,"current_range_meters":5600,"station_id":"ce4bgih2rcd13ifvqba0","pricing_plan_id":"cebpf4jnsgd1na2vs0mg"},{"bike_id":"ecb42ffe-a31e-4210-9fcc-a29d223e03d4","system_id":"levelo_inurba_marseille","lat":43.23197,"lon":5.35549,"is_reserved":false,"is_disabled":false,"rental_uris":{"android":"levelo://app?vid=ecb42ffe-a31e-4210-9fcc-a29d223e03d4","ios":"levelo://app?vid=ecb42ffe-a31e-4210-9fcc-a29d223e03d4"},"vehicle_type_id":"4","last_reported":1742926414,"current_range_meters":6000,"station_id":"ce4bhu92rcd13ifvqi70","pricing_plan_id":"cebpf4jnsgd1na2vs0mg"},{"bike_id":"714b7596-d084-44f4-bc0a-5f5deaa8ae89","system_id":"levelo_inurba_marseille","lat":43.29509,"lon":5.39038,"is_reserved":false,"is_disabled":false,"rental_uris":{"android":"levelo://app?vid=714b7596-d084-44f4-bc0a-5f5deaa8ae89","ios":"levelo://app?vid=714b7596-d084-44f4-bc0a-5f5deaa8ae89"},"vehicle_type_id":"4","last_reported":1742926414,"current_range_meters":6000,"station_id":"ce4bh3p2rcd13ifvqdp0","pricing_plan_id":"cebpf4jnsgd1na2vs0mg"},{"bike_id":"acda098b-584b-42c8-8939-679e44335e46","system_id":"levelo_inurba_marseille","lat":43.325653,"lon":5.410615,"is_reserved":false,"is_disabled":false,"rental_uris":{"android":"levelo://app?vid=acda098b-584b-42c8-8939-679e44335e46","ios":"levelo://app?vid=acda098b-584b-42c8-8939-679e44335e46"},"vehicle_type_id":"4","last_reported":1742926414,"current_range_meters":6000,"station_id":"ce4bh092rcd13ifvqd20","pricing_plan_id":"cebpf4jnsgd1na2vs0mg"},{"bike_id":"4b82f9a6-2f12-42e5-86cc-35d0acf12b8e","system_id":"levelo_inurba_marseille","lat":43.25087,"lon":5.3954,"is_reserved":false,"is_disabled":false,"rental_uris":{"android":"levelo://app?vid=4b82f9a6-2f12-42e5-86cc-35d0acf12b8e","ios":"levelo://app?vid=4b82f9a6-2f12-42e5-86cc-35d0acf12b8e"},"vehicle_type_id":"4","last_reported":1742926414,"current_range_meters":6000,"station_id":"ce4bhm12rcd13ifvqgkg","pricing_plan_id":"cebpf4jnsgd1na2vs0mg"},{"bike_id":"d5a95a71-bdcf-4c76-90bb-f92bfc4a3cc3","system_id":"levelo_inurba_marseille","lat":43.21876,"lon":5.4197,"is_reserved":false,"is_disabled":false,"rental_uris":{"android":"levelo://app?vid=d5a95a71-bdcf-4c76-90bb-f92bfc4a3cc3","ios":"levelo://app?vid=d5a95a71-bdcf-4c76-90bb-f92bfc4a3cc3"},"vehicle_type_id":"4","last_reported":1742926414,"current_range_meters":6000,"station_id":"","pricing_plan_id":"cebpf4jnsgd1na2vs0mg"},{"bike_id":"18dbc9de-f04e-474c-8623-c6c745049ff2","system_id":"levelo_inurba_marseille","lat":43.28856,"lon":5.39318,"is_reserved":false,"is_disabled":false,"rental_uris":{"android":"levelo://app?vid=18dbc9de-f04e-474c-8623-c6c745049ff2","ios":"levelo://app?vid=18dbc9de-f04e-474c-8623-c6c745049ff2"},"vehicle_type_id":"4","last_reported":1742926414,"current_range_meters":6000,"station_id":"ce4bh2p2rcd13ifvqdi0","pricing_plan_id":"cebpf4jnsgd1na2vs0mg"},{"bike_id":"6f86b527-df4c-44e4-8e3e-73ac1a339a84","system_id":"levelo_inurba_marseille","lat":43.30446,"lon":5.389,"is_reserved":false,"is_disabled":false,"rental_uris":{"android":"levelo://app?vid=6f86b527-df4c-44e4-8e3e-73ac1a339a84","ios":"levelo://app?vid=6f86b527-df4c-44e4-8e3e-73ac1a339a84"},"vehicle_type_id":"4","last_reported":1742926414,"current_range_meters":6400,"station_id":"ce4bgk12rcd13ifvqbi0","pricing_plan_id":"cebpf4jnsgd1na2vs0mg"},{"bike_id":"2462aff4-312c-46a9-ae18-d864ef42c20c","system_id":"levelo_inurba_marseille","lat":43.24163,"lon":5.36411,"is_reserved":false,"is_disabled":false,"rental_uris":{"android":"levelo://app?vid=2462aff4-312c-46a9-ae18-d864ef42c20c","ios":"levelo://app?vid=2462aff4-312c-46a9-ae18-d864ef42c20c"},"vehicle_type_id":"4","last_reported":1742926414,"current_range_meters":6400,"station_id":"cpo36qri1sfpv3e86is0","pricing_plan_id":"cebpf4jnsgd1na2vs0mg"},{"bike_id":"63756a97-8353-403f-a7e5-2a2aeadc8411","system_id":"levelo_inurba_marseille","lat":43.29959,"lon":5.38522,"is_reserved":false,"is_disabled":false,"rental_uris":{"android":"levelo://app?vid=63756a97-8353-403f-a7e5-2a2aeadc8411","ios":"levelo://app?vid=63756a97-8353-403f-a7e5-2a2aeadc8411"},"vehicle_type_id":"4","last_reported":1742926414,"current_range_meters":6400,"station_id":"ce4bgj92rcd13ifvqbd0","pricing_plan_id":"cebpf4jnsgd1na2vs0mg"},{"bike_id":"de88b724-7647-4332-bd33-14388982b967","system_id":"levelo_inurba_marseille","lat":43.30422,"lon":5.38888,"is_reserved":false,"is_disabled":false,"rental_uris":{"android":"levelo://app?vid=de88b724-7647-4332-bd33-14388982b967","ios":"levelo://app?vid=de88b724-7647-4332-bd33-14388982b967"},"vehicle_type_id":"4","last_reported":1742926414,"current_range_meters":6400,"station_id":"ce4bgk12rcd13ifvqbi0","pricing_plan_id":"cebpf4jnsgd1na2vs0mg"},{"bike_id":"1cdb5e5f-6bda-4e07-b645-0554ed59cc39","system_id":"levelo_inurba_marseille","lat":43.25831,"lon":5.39435,"is_reserved":false,"is_disabled":false,"rental_uris":{"android":"levelo://app?vid=1cdb5e5f-6bda-4e07-b645-0554ed59cc39","ios":"levelo://app?vid=1cdb5e5f-6bda-4e07-b645-0554ed59cc39"},"vehicle_type_id":"4","last_reported":1742926414,"current_range_meters":6400,"station_id":"ce4bhip2rcd13ifvqft0","pricing_plan_id":"cebpf4jnsgd1na2vs0mg"},{"bike_id":"60a4bfdd-976f-4f2f-a21a-68c4e333ecd6","system_id":"levelo_inurba_marseille","lat":43.23062,"lon":5.3549,"is_reserved":false,"is_disabled":false,"rental_uris":{"android":"levelo://app?vid=60a4bfdd-976f-4f2f-a21a-68c4e333ecd6","ios":"levelo://app?vid=60a4bfdd-976f-4f2f-a21a-68c4e333ecd6"},"vehicle_type_id":"4","last_reported":1742926414,"current_range_meters":6400,"station_id":"cpo3342slgdg3j2ifvpg","pricing_plan_id":"cebpf4jnsgd1na2vs0mg"},{"bike_id":"cb7c71b0-779b-42a9-aa08-a40a81317786","system_id":"levelo_inurba_marseille","lat":43.26941,"lon":5.40266,"is_reserved":false,"is_disabled":false,"rental_uris":{"android":"levelo://app?vid=cb7c71b0-779b-42a9-aa08-a40a81317786","ios":"levelo://app?vid=cb7c71b0-779b-42a9-aa08-a40a81317786"},"vehicle_type_id":"4","last_reported":1742926414,"current_range_meters":6400,"station_id":"cjm6bp8fraef2m0cb0m0","pricing_plan_id":"cebpf4jnsgd1na2vs0mg"},{"bike_id":"6c1b7adf-b1a2-4049-8c63-a62637ac8de7","system_id":"levelo_inurba_marseille","lat":43.27425,"lon":5.39413,"is_reserved":false,"is_disabled":false,"rental_uris":{"android":"levelo://app?vid=6c1b7adf-b1a2-4049-8c63-a62637ac8de7","ios":"levelo://app?vid=6c1b7adf-b1a2-4049-8c63-a62637ac8de7"},"vehicle_type_id":"4","last_reported":1742926414,"current_range_meters":6000,"station_id":"ce4bhdp2rcd13ifvqf20","pricing_plan_id":"cebpf4jnsgd1na2vs0mg"},{"bike_id":"a5516228-2c65-4ab1-8174-cbfa24336356","system_id":"levelo_inurba_marseille","lat":43.281367,"lon":5.426653,"is_reserved":false,"is_disabled":false,"rental_uris":{"android":"levelo://app?vid=a5516228-2c65-4ab1-8174-cbfa24336356","ios":"levelo://app?vid=a5516228-2c65-4ab1-8174-cbfa24336356"},"vehicle_type_id":"4","last_reported":1742926414,"current_range_meters":6800,"station_id":"ce4bhnh2rcd13ifvqgug","pricing_plan_id":"cebpf4jnsgd1na2vs0mg"},{"bike_id":"94d4f272-2e5a-41ff-a6d7-41ac1b84f564","system_id":"levelo_inurba_marseille","lat":43.265752,"lon":5.390053,"is_reserved":false,"is_disabled":false,"rental_uris":{"android":"levelo://app?vid=94d4f272-2e5a-41ff-a6d7-41ac1b84f564","ios":"levelo://app?vid=94d4f272-2e5a-41ff-a6d7-41ac1b84f564"},"vehicle_type_id":"4","last_reported":1742926414,"current_range_meters":6800,"station_id":"","pricing_plan_id":"cebpf4jnsgd1na2vs0mg"},{"bike_id":"b5473668-ffc4-47f0-8c3f-1ef6bf75e5e3","system_id":"levelo_inurba_marseille","lat":43.3107,"lon":5.38356,"is_reserved":false,"is_disabled":false,"rental_uris":{"android":"levelo://app?vid=b5473668-ffc4-47f0-8c3f-1ef6bf75e5e3","ios":"levelo://app?vid=b5473668-ffc4-47f0-8c3f-1ef6bf75e5e3"},"vehicle_type_id":"4","last_reported":1742926414,"current_range_meters":6800,"station_id":"ce4bgv92rcd13ifvqcr0","pricing_plan_id":"cebpf4jnsgd1na2vs0mg"},{"bike_id":"5453e5b0-13c7-4dee-a650-633e2a24ae0e","system_id":"levelo_inurba_marseille","lat":43.24383,"lon":5.37061,"is_reserved":false,"is_disabled":false,"rental_uris":{"android":"levelo://app?vid=5453e5b0-13c7-4dee-a650-633e2a24ae0e","ios":"levelo://app?vid=5453e5b0-13c7-4dee-a650-633e2a24ae0e"},"vehicle_type_id":"4","last_reported":1742926414,"current_range_meters":6400,"station_id":"ce4bhhh2rcd13ifvqfk0","pricing_plan_id":"cebpf4jnsgd1na2vs0mg"},{"bike_id":"d4b93de0-15be-488c-acf3-8dc613e5b87c","system_id":"levelo_inurba_marseille","lat":43.29525,"lon":5.39046,"is_reserved":false,"is_disabled":false,"rental_uris":{"android":"levelo://app?vid=d4b93de0-15be-488c-acf3-8dc613e5b87c","ios":"levelo://app?vid=d4b93de0-15be-488c-acf3-8dc613e5b87c"},"vehicle_type_id":"4","last_reported":1742926414,"current_range_meters":6800,"station_id":"ce4bh3p2rcd13ifvqdp0","pricing_plan_id":"cebpf4jnsgd1na2vs0mg"},{"bike_id":"e2369592-a19a-4095-9911-6bf02f18ab0f","system_id":"levelo_inurba_marseille","lat":43.28418,"lon":5.350007,"is_reserved":false,"is_disabled":false,"rental_uris":{"android":"levelo://app?vid=e2369592-a19a-4095-9911-6bf02f18ab0f","ios":"levelo://app?vid=e2369592-a19a-4095-9911-6bf02f18ab0f"},"vehicle_type_id":"4","last_reported":1742926414,"current_range_meters":6800,"station_id":"ce4bhbh2rcd13ifvqepg","pricing_plan_id":"cebpf4jnsgd1na2vs0mg"},{"bike_id":"af655cae-c220-4101-bd95-61d2f26efc33","system_id":"levelo_inurba_marseille","lat":43.28666,"lon":5.36363,"is_reserved":false,"is_disabled":false,"rental_uris":{"android":"levelo://app?vid=af655cae-c220-4101-bd95-61d2f26efc33","ios":"levelo://app?vid=af655cae-c220-4101-bd95-61d2f26efc33"},"vehicle_type_id":"4","last_reported":1742926414,"current_range_meters":6800,"station_id":"ce4bhah2rcd13ifvqej0","pricing_plan_id":"cebpf4jnsgd1na2vs0mg"},{"bike_id":"54b2eb2e-f099-4f46-9067-448b807e02c4","system_id":"levelo_inurba_marseille","lat":43.29042,"lon":5.356,"is_reserved":false,"is_disabled":false,"rental_uris":{"android":"levelo://app?vid=54b2eb2e-f099-4f46-9067-448b807e02c4","ios":"levelo://app?vid=54b2eb2e-f099-4f46-9067-448b807e02c4"},"vehicle_type_id":"4","last_reported":1742926414,"current_range_meters":6800,"station_id":"","pricing_plan_id":"cebpf4jnsgd1na2vs0mg"},{"bike_id":"b9c0c706-f46d-4700-9ad8-3c1231ea3ddc","system_id":"levelo_inurba_marseille","lat":43.28096,"lon":5.37842,"is_reserved":false,"is_disabled":false,"rental_uris":{"android":"levelo://app?vid=b9c0c706-f46d-4700-9ad8-3c1231ea3ddc","ios":"levelo://app?vid=b9c0c706-f46d-4700-9ad8-3c1231ea3ddc"},"vehicle_type_id":"4","last_reported":1742926414,"current_range_meters":6800,"station_id":"ce4bha12rcd13ifvqee0","pricing_plan_id":"cebpf4jnsgd1na2vs0mg"},{"bike_id":"106583b7-def2-4887-94ee-ff4102be39c8","system_id":"levelo_inurba_marseille","lat":43.31484,"lon":5.3731,"is_reserved":false,"is_disabled":false,"rental_uris":{"android":"levelo://app?vid=106583b7-def2-4887-94ee-ff4102be39c8","ios":"levelo://app?vid=106583b7-def2-4887-94ee-ff4102be39c8"},"vehicle_type_id":"4","last_reported":1742926414,"current_range_meters":7200,"station_id":"ce4bgt12rcd13ifvqcd0","pricing_plan_id":"cebpf4jnsgd1na2vs0mg"},{"bike_id":"050696d1-b4ad-4074-9acf-6ce7eda37f99","system_id":"levelo_inurba_marseille","lat":43.28459,"lon":5.35894,"is_reserved":false,"is_disabled":false,"rental_uris":{"android":"levelo://app?vid=050696d1-b4ad-4074-9acf-6ce7eda37f99","ios":"levelo://app?vid=050696d1-b4ad-4074-9acf-6ce7eda37f99"},"vehicle_type_id":"4","last_reported":1742926414,"current_range_meters":7200,"station_id":"ce4bhah2rcd13ifvqei0","pricing_plan_id":"cebpf4jnsgd1na2vs0mg"},{"bike_id":"7eab7d4e-eb6e-4f12-b34e-09bf1bc2c903","system_id":"levelo_inurba_marseille","lat":43.2847,"lon":5.35882,"is_reserved":false,"is_disabled":false,"rental_uris":{"android":"levelo://app?vid=7eab7d4e-eb6e-4f12-b34e-09bf1bc2c903","ios":"levelo://app?vid=7eab7d4e-eb6e-4f12-b34e-09bf1bc2c903"},"vehicle_type_id":"4","last_reported":1742926414,"current_range_meters":7200,"station_id":"ce4bhah2rcd13ifvqei0","pricing_plan_id":"cebpf4jnsgd1na2vs0mg"},{"bike_id":"c28932a0-1d46-4fdf-8a30-865c10785be7","system_id":"levelo_inurba_marseille","lat":43.28407,"lon":5.37501,"is_reserved":false,"is_disabled":false,"rental_uris":{"android":"levelo://app?vid=c28932a0-1d46-4fdf-8a30-865c10785be7","ios":"levelo://app?vid=c28932a0-1d46-4fdf-8a30-865c10785be7"},"vehicle_type_id":"4","last_reported":1742926414,"current_range_meters":7200,"station_id":"ce4bh412rcd13ifvqds0","pricing_plan_id":"cebpf4jnsgd1na2vs0mg"},{"bike_id":"35526cfd-00c1-472b-bf14-5bcea0dd948e","system_id":"levelo_inurba_marseille","lat":43.29039,"lon":5.38642,"is_reserved":false,"is_disabled":false,"rental_uris":{"android":"levelo://app?vid=35526cfd-00c1-472b-bf14-5bcea0dd948e","ios":"levelo://app?vid=35526cfd-00c1-472b-bf14-5bcea0dd948e"},"vehicle_type_id":"4","last_reported":1742926414,"current_range_meters":7200,"station_id":"ce4bh4p2rcd13ifvqe0g","pricing_plan_id":"cebpf4jnsgd1na2vs0mg"},{"bike_id":"5eb00e60-b5d9-4a65-9bba-344db36c1e04","system_id":"levelo_inurba_marseille","lat":43.25821,"lon":5.39445,"is_reserved":false,"is_disabled":false,"rental_uris":{"android":"levelo://app?vid=5eb00e60-b5d9-4a65-9bba-344db36c1e04","ios":"levelo://app?vid=5eb00e60-b5d9-4a65-9bba-344db36c1e04"},"vehicle_type_id":"4","last_reported":1742926414,"current_range_meters":7200,"station_id":"ce4bhip2rcd13ifvqft0","pricing_plan_id":"cebpf4jnsgd1na2vs0mg"},{"bike_id":"e1ab2e13-94be-44d9-b8c4-86c95feca9a1","system_id":"levelo_inurba_marseille","lat":43.26189,"lon":5.37457,"is_reserved":false,"is_disabled":false,"rental_uris":{"android":"levelo://app?vid=e1ab2e13-94be-44d9-b8c4-86c95feca9a1","ios":"levelo://app?vid=e1ab2e13-94be-44d9-b8c4-86c95feca9a1"},"vehicle_type_id":"4","last_reported":1742926414,"current_range_meters":7200,"station_id":"ce4bhgp2rcd13ifvqfc0","pricing_plan_id":"cebpf4jnsgd1na2vs0mg"},{"bike_id":"2ce58767-def4-47a3-8b4f-db4629674f23","system_id":"levelo_inurba_marseille","lat":43.30136,"lon":5.39861,"is_reserved":false,"is_disabled":false,"rental_uris":{"android":"levelo://app?vid=2ce58767-def4-47a3-8b4f-db4629674f23","ios":"levelo://app?vid=2ce58767-def4-47a3-8b4f-db4629674f23"},"vehicle_type_id":"4","last_reported":1742926414,"current_range_meters":7200,"station_id":"ce4bh0h2rcd13ifvqd40","pricing_plan_id":"cebpf4jnsgd1na2vs0mg"},{"bike_id":"be80014d-9a36-4a9f-b5af-bdce111c604a","system_id":"levelo_inurba_marseille","lat":43.28483,"lon":5.38411,"is_reserved":false,"is_disabled":false,"rental_uris":{"android":"levelo://app?vid=be80014d-9a36-4a9f-b5af-bdce111c604a","ios":"levelo://app?vid=be80014d-9a36-4a9f-b5af-bdce111c604a"},"vehicle_type_id":"4","last_reported":1742926414,"current_range_meters":7200,"station_id":"ce4bh512rcd13ifvqe3g","pricing_plan_id":"cebpf4jnsgd1na2vs0mg"},{"bike_id":"c7919f4e-21fb-442c-94bb-c1ddd624d21c","system_id":"levelo_inurba_marseille","lat":43.27616,"lon":5.36114,"is_reserved":false,"is_disabled":false,"rental_uris":{"android":"levelo://app?vid=c7919f4e-21fb-442c-94bb-c1ddd624d21c","ios":"levelo://app?vid=c7919f4e-21fb-442c-94bb-c1ddd624d21c"},"vehicle_type_id":"4","last_reported":1742926414,"current_range_meters":7200,"station_id":"ce4bgj92rcd13ifvqbe0","pricing_plan_id":"cebpf4jnsgd1na2vs0mg"},{"bike_id":"d1122543-b55c-4f79-ab22-ad10f30a3577","system_id":"levelo_inurba_marseille","lat":43.30116,"lon":5.39847,"is_reserved":false,"is_disabled":false,"rental_uris":{"android":"levelo://app?vid=d1122543-b55c-4f79-ab22-ad10f30a3577","ios":"levelo://app?vid=d1122543-b55c-4f79-ab22-ad10f30a3577"},"vehicle_type_id":"4","last_reported":1742926414,"current_range_meters":7200,"station_id":"ce4bh0h2rcd13ifvqd40","pricing_plan_id":"cebpf4jnsgd1na2vs0mg"},{"bike_id":"2b801216-bbf5-4bc6-9ec5-20ae6aec4302","system_id":"levelo_inurba_marseille","lat":43.30798,"lon":5.38163,"is_reserved":false,"is_disabled":false,"rental_uris":{"android":"levelo://app?vid=2b801216-bbf5-4bc6-9ec5-20ae6aec4302","ios":"levelo://app?vid=2b801216-bbf5-4bc6-9ec5-20ae6aec4302"},"vehicle_type_id":"4","last_reported":1742926414,"current_range_meters":6800,"station_id":"ce4bgt12rcd13ifvqce0","pricing_plan_id":"cebpf4jnsgd1na2vs0mg"},{"bike_id":"ed9c1969-2692-44a5-b3fc-5663eddb5855","system_id":"levelo_inurba_marseille","lat":43.27811,"lon":5.40713,"is_reserved":false,"is_disabled":false,"rental_uris":{"android":"levelo://app?vid=ed9c1969-2692-44a5-b3fc-5663eddb5855","ios":"levelo://app?vid=ed9c1969-2692-44a5-b3fc-5663eddb5855"},"vehicle_type_id":"4","last_reported":1742926414,"current_range_meters":7200,"station_id":"ce4bhnh2rcd13ifvqgtg","pricing_plan_id":"cebpf4jnsgd1na2vs0mg"},{"bike_id":"3df25e62-afdb-4b81-a326-4872566ba315","system_id":"levelo_inurba_marseille","lat":43.29255,"lon":5.4091,"is_reserved":false,"is_disabled":false,"rental_uris":{"android":"levelo://app?vid=3df25e62-afdb-4b81-a326-4872566ba315","ios":"levelo://app?vid=3df25e62-afdb-4b81-a326-4872566ba315"},"vehicle_type_id":"4","last_reported":1742926414,"current_range_meters":7200,"station_id":"ce4bh192rcd13ifvqdc0","pricing_plan_id":"cebpf4jnsgd1na2vs0mg"},{"bike_id":"a0d4632a-7a87-4031-aeeb-061ca0feaca6","system_id":"levelo_inurba_marseille","lat":43.23958,"lon":5.36639,"is_reserved":false,"is_disabled":false,"rental_uris":{"android":"levelo://app?vid=a0d4632a-7a87-4031-aeeb-061ca0feaca6","ios":"levelo://app?vid=a0d4632a-7a87-4031-aeeb-061ca0feaca6"},"vehicle_type_id":"4","last_reported":1742926414,"current_range_meters":8000,"station_id":"ce4bhi12rcd13ifvqfp0","pricing_plan_id":"cebpf4jnsgd1na2vs0mg"},{"bike_id":"8dd367b1-db23-4d9d-a4e8-5377f368dfd0","system_id":"levelo_inurba_marseille","lat":43.28449,"lon":5.35895,"is_reserved":false,"is_disabled":false,"rental_uris":{"android":"levelo://app?vid=8dd367b1-db23-4d9d-a4e8-5377f368dfd0","ios":"levelo://app?vid=8dd367b1-db23-4d9d-a4e8-5377f368dfd0"},"vehicle_type_id":"4","last_reported":1742926414,"current_range_meters":8000,"station_id":"ce4bhah2rcd13ifvqei0","pricing_plan_id":"cebpf4jnsgd1na2vs0mg"},{"bike_id":"5ebe5120-74f7-4178-9974-c52090176f15","system_id":"levelo_inurba_marseille","lat":43.28153,"lon":5.4264,"is_reserved":false,"is_disabled":false,"rental_uris":{"android":"levelo://app?vid=5ebe5120-74f7-4178-9974-c52090176f15","ios":"levelo://app?vid=5ebe5120-74f7-4178-9974-c52090176f15"},"vehicle_type_id":"4","last_reported":1742926414,"current_range_meters":8000,"station_id":"ce4bhnh2rcd13ifvqgug","pricing_plan_id":"cebpf4jnsgd1na2vs0mg"},{"bike_id":"9e1900ad-e046-4f32-a94e-e5e6f986be4d","system_id":"levelo_inurba_marseille","lat":43.24777,"lon":5.37471,"is_reserved":false,"is_disabled":false,"rental_uris":{"android":"levelo://app?vid=9e1900ad-e046-4f32-a94e-e5e6f986be4d","ios":"levelo://app?vid=9e1900ad-e046-4f32-a94e-e5e6f986be4d"},"vehicle_type_id":"4","last_reported":1742926414,"current_range_meters":8000,"station_id":"ce4bhgh2rcd13ifvqfb0","pricing_plan_id":"cebpf4jnsgd1na2vs0mg"},{"bike_id":"20eae09a-04ab-4f67-b938-c4ecbf731ee3","system_id":"levelo_inurba_marseille","lat":43.26569,"lon":5.39018,"is_reserved":false,"is_disabled":false,"rental_uris":{"android":"levelo://app?vid=20eae09a-04ab-4f67-b938-c4ecbf731ee3","ios":"levelo://app?vid=20eae09a-04ab-4f67-b938-c4ecbf731ee3"},"vehicle_type_id":"4","last_reported":1742926414,"current_range_meters":8000,"station_id":"ce4bhe12rcd13ifvqf30","pricing_plan_id":"cebpf4jnsgd1na2vs0mg"},{"bike_id":"99d0c2fe-0590-4c1b-b233-0842a718f466","system_id":"levelo_inurba_marseille","lat":43.30547,"lon":5.36541,"is_reserved":false,"is_disabled":false,"rental_uris":{"android":"levelo://app?vid=99d0c2fe-0590-4c1b-b233-0842a718f466","ios":"levelo://app?vid=99d0c2fe-0590-4c1b-b233-0842a718f466"},"vehicle_type_id":"4","last_reported":1742926414,"current_range_meters":8000,"station_id":"ce4bgs12rcd13ifvqcag","pricing_plan_id":"cebpf4jnsgd1na2vs0mg"},{"bike_id":"311cb4b5-4d83-44e2-b10a-96f006fa7003","system_id":"levelo_inurba_marseille","lat":43.27494,"lon":5.42459,"is_reserved":false,"is_disabled":false,"rental_uris":{"android":"levelo://app?vid=311cb4b5-4d83-44e2-b10a-96f006fa7003","ios":"levelo://app?vid=311cb4b5-4d83-44e2-b10a-96f006fa7003"},"vehicle_type_id":"4","last_reported":1742926414,"current_range_meters":8000,"station_id":"ce4bhn92rcd13ifvqgrg","pricing_plan_id":"cebpf4jnsgd1na2vs0mg"},{"bike_id":"ef43d9bd-e531-4a59-b8a9-fdc80b41fa34","system_id":"levelo_inurba_marseille","lat":43.3128,"lon":5.40168,"is_reserved":false,"is_disabled":true,"rental_uris":{"android":"levelo://app?vid=ef43d9bd-e531-4a59-b8a9-fdc80b41fa34","ios":"levelo://app?vid=ef43d9bd-e531-4a59-b8a9-fdc80b41fa34"},"vehicle_type_id":"4","last_reported":1742926414,"current_range_meters":8000,"station_id":"ce4bh092rcd13ifvqd30","pricing_plan_id":"cebpf4jnsgd1na2vs0mg"},{"bike_id":"0b8aadb9-0211-4972-ad4c-895c3a2814ce","system_id":"levelo_inurba_marseille","lat":43.29277,"lon":5.3684,"is_reserved":false,"is_disabled":false,"rental_uris":{"android":"levelo://app?vid=0b8aadb9-0211-4972-ad4c-895c3a2814ce","ios":"levelo://app?vid=0b8aadb9-0211-4972-ad4c-895c3a2814ce"},"vehicle_type_id":"4","last_reported":1742926414,"current_range_meters":8000,"station_id":"ce4bhbp2rcd13ifvqesg","pricing_plan_id":"cebpf4jnsgd1na2vs0mg"},{"bike_id":"e06fd3a0-02a6-413f-81de-817b7da619bd","system_id":"levelo_inurba_marseille","lat":43.31271,"lon":5.40178,"is_reserved":false,"is_disabled":false,"rental_uris":{"android":"levelo://app?vid=e06fd3a0-02a6-413f-81de-817b7da619bd","ios":"levelo://app?vid=e06fd3a0-02a6-413f-81de-817b7da619bd"},"vehicle_type_id":"4","last_reported":1742926414,"current_range_meters":8000,"station_id":"ce4bh092rcd13ifvqd30","pricing_plan_id":"cebpf4jnsgd1na2vs0mg"},{"bike_id":"0ffd0e78-12cd-4485-9986-a93fe2c1eac8","system_id":"levelo_inurba_marseille","lat":43.30937,"lon":5.40144,"is_reserved":false,"is_disabled":false,"rental_uris":{"android":"levelo://app?vid=0ffd0e78-12cd-4485-9986-a93fe2c1eac8","ios":"levelo://app?vid=0ffd0e78-12cd-4485-9986-a93fe2c1eac8"},"vehicle_type_id":"4","last_reported":1742926414,"current_range_meters":8000,"station_id":"ce4bgvp2rcd13ifvqct0","pricing_plan_id":"cebpf4jnsgd1na2vs0mg"},{"bike_id":"63e8dafc-3749-4a42-ab44-2e79325ba0f1","system_id":"levelo_inurba_marseille","lat":43.25085,"lon":5.39538,"is_reserved":false,"is_disabled":false,"rental_uris":{"android":"levelo://app?vid=63e8dafc-3749-4a42-ab44-2e79325ba0f1","ios":"levelo://app?vid=63e8dafc-3749-4a42-ab44-2e79325ba0f1"},"vehicle_type_id":"4","last_reported":1742926414,"current_range_meters":8000,"station_id":"ce4bhm12rcd13ifvqgkg","pricing_plan_id":"cebpf4jnsgd1na2vs0mg"},{"bike_id":"38e476a3-7fa7-42ff-bc10-2fcb40220abd","system_id":"levelo_inurba_marseille","lat":43.23195,"lon":5.355543,"is_reserved":false,"is_disabled":false,"rental_uris":{"android":"levelo://app?vid=38e476a3-7fa7-42ff-bc10-2fcb40220abd","ios":"levelo://app?vid=38e476a3-7fa7-42ff-bc10-2fcb40220abd"},"vehicle_type_id":"4","last_reported":1742926414,"current_range_meters":8000,"station_id":"ce4bhu92rcd13ifvqi70","pricing_plan_id":"cebpf4jnsgd1na2vs0mg"},{"bike_id":"5a4a96db-ce6e-4946-814c-1a1cce92ced9","system_id":"levelo_inurba_marseille","lat":43.26027,"lon":5.37552,"is_reserved":false,"is_disabled":false,"rental_uris":{"android":"levelo://app?vid=5a4a96db-ce6e-4946-814c-1a1cce92ced9","ios":"levelo://app?vid=5a4a96db-ce6e-4946-814c-1a1cce92ced9"},"vehicle_type_id":"4","last_reported":1742926414,"current_range_meters":8000,"station_id":"ce4bhgh2rcd13ifvqfa0","pricing_plan_id":"cebpf4jnsgd1na2vs0mg"},{"bike_id":"eec8b150-69b7-4ebf-9e05-d7d9a2bf02da","system_id":"levelo_inurba_marseille","lat":43.30148,"lon":5.374281,"is_reserved":false,"is_disabled":false,"rental_uris":{"android":"levelo://app?vid=eec8b150-69b7-4ebf-9e05-d7d9a2bf02da","ios":"levelo://app?vid=eec8b150-69b7-4ebf-9e05-d7d9a2bf02da"},"vehicle_type_id":"4","last_reported":1742926414,"current_range_meters":8000,"station_id":"ce4bgr92rcd13ifvqc7g","pricing_plan_id":"cebpf4jnsgd1na2vs0mg"},{"bike_id":"2a00e69f-e8f0-4293-a71f-9f6c011d4f23","system_id":"levelo_inurba_marseille","lat":43.25014,"lon":5.38926,"is_reserved":false,"is_disabled":false,"rental_uris":{"android":"levelo://app?vid=2a00e69f-e8f0-4293-a71f-9f6c011d4f23","ios":"levelo://app?vid=2a00e69f-e8f0-4293-a71f-9f6c011d4f23"},"vehicle_type_id":"4","last_reported":1742926414,"current_range_meters":8400,"station_id":"ce4bhgp2rcd13ifvqfd0","pricing_plan_id":"cebpf4jnsgd1na2vs0mg"},{"bike_id":"6471dc01-5e5e-4bf6-800c-701d13787592","system_id":"levelo_inurba_marseille","lat":43.28261,"lon":5.35075,"is_reserved":false,"is_disabled":false,"rental_uris":{"android":"levelo://app?vid=6471dc01-5e5e-4bf6-800c-701d13787592","ios":"levelo://app?vid=6471dc01-5e5e-4bf6-800c-701d13787592"},"vehicle_type_id":"4","last_reported":1742926414,"current_range_meters":8400,"station_id":"ce4bhbp2rcd13ifvqerg","pricing_plan_id":"cebpf4jnsgd1na2vs0mg"},{"bike_id":"15e3e5eb-d835-4728-a546-750b58ac5259","system_id":"levelo_inurba_marseille","lat":43.31761,"lon":5.39,"is_reserved":false,"is_disabled":false,"rental_uris":{"android":"levelo://app?vid=15e3e5eb-d835-4728-a546-750b58ac5259","ios":"levelo://app?vid=15e3e5eb-d835-4728-a546-750b58ac5259"},"vehicle_type_id":"4","last_reported":1742926414,"current_range_meters":8400,"station_id":"ce4bhqp2rcd13ifvqhng","pricing_plan_id":"cebpf4jnsgd1na2vs0mg"},{"bike_id":"36be7c6f-2bc6-4fb1-803e-edd67bc95d18","system_id":"levelo_inurba_marseille","lat":43.29517,"lon":5.3942,"is_reserved":false,"is_disabled":false,"rental_uris":{"android":"levelo://app?vid=36be7c6f-2bc6-4fb1-803e-edd67bc95d18","ios":"levelo://app?vid=36be7c6f-2bc6-4fb1-803e-edd67bc95d18"},"vehicle_type_id":"4","last_reported":1742926414,"current_range_meters":8400,"station_id":"ce4bh292rcd13ifvqdf0","pricing_plan_id":"cebpf4jnsgd1na2vs0mg"},{"bike_id":"463a4df3-df32-4854-9380-c2e9927dee65","system_id":"levelo_inurba_marseille","lat":43.32364,"lon":5.38886,"is_reserved":false,"is_disabled":false,"rental_uris":{"android":"levelo://app?vid=463a4df3-df32-4854-9380-c2e9927dee65","ios":"levelo://app?vid=463a4df3-df32-4854-9380-c2e9927dee65"},"vehicle_type_id":"4","last_reported":1742926414,"current_range_meters":8400,"station_id":"ce4bhqp2rcd13ifvqhog","pricing_plan_id":"cebpf4jnsgd1na2vs0mg"},{"bike_id":"737b3711-1b92-493c-8220-60bf91bb8d63","system_id":"levelo_inurba_marseille","lat":43.31337,"lon":5.37466,"is_reserved":false,"is_disabled":false,"rental_uris":{"android":"levelo://app?vid=737b3711-1b92-493c-8220-60bf91bb8d63","ios":"levelo://app?vid=737b3711-1b92-493c-8220-60bf91bb8d63"},"vehicle_type_id":"4","last_reported":1742926414,"current_range_meters":8400,"station_id":"","pricing_plan_id":"cebpf4jnsgd1na2vs0mg"},{"bike_id":"b7d700cc-e80e-461a-a5b3-d22a71e707a9","system_id":"levelo_inurba_marseille","lat":43.29418,"lon":5.38625,"is_reserved":false,"is_disabled":false,"rental_uris":{"android":"levelo://app?vid=b7d700cc-e80e-461a-a5b3-d22a71e707a9","ios":"levelo://app?vid=b7d700cc-e80e-461a-a5b3-d22a71e707a9"},"vehicle_type_id":"4","last_reported":1742926414,"current_range_meters":8400,"station_id":"ce4bh2h2rcd13ifvqdh0","pricing_plan_id":"cebpf4jnsgd1na2vs0mg"},{"bike_id":"72ced617-f2a7-4c0e-b4b8-0ee03941c4ec","system_id":"levelo_inurba_marseille","lat":43.24645,"lon":5.38898,"is_reserved":false,"is_disabled":false,"rental_uris":{"android":"levelo://app?vid=72ced617-f2a7-4c0e-b4b8-0ee03941c4ec","ios":"levelo://app?vid=72ced617-f2a7-4c0e-b4b8-0ee03941c4ec"},"vehicle_type_id":"4","last_reported":1742926414,"current_range_meters":8400,"station_id":"ce4bhg12rcd13ifvqf60","pricing_plan_id":"cebpf4jnsgd1na2vs0mg"},{"bike_id":"bea7b3e6-b0f6-428b-98d3-61630b930d30","system_id":"levelo_inurba_marseille","lat":43.26048,"lon":5.37535,"is_reserved":false,"is_disabled":false,"rental_uris":{"android":"levelo://app?vid=bea7b3e6-b0f6-428b-98d3-61630b930d30","ios":"levelo://app?vid=bea7b3e6-b0f6-428b-98d3-61630b930d30"},"vehicle_type_id":"4","last_reported":1742926414,"current_range_meters":8400,"station_id":"ce4bhgh2rcd13ifvqfa0","pricing_plan_id":"cebpf4jnsgd1na2vs0mg"},{"bike_id":"6c40bd81-af13-42e4-8827-fa8af6ebc8cc","system_id":"levelo_inurba_marseille","lat":43.248057,"lon":5.374577,"is_reserved":false,"is_disabled":false,"rental_uris":{"android":"levelo://app?vid=6c40bd81-af13-42e4-8827-fa8af6ebc8cc","ios":"levelo://app?vid=6c40bd81-af13-42e4-8827-fa8af6ebc8cc"},"vehicle_type_id":"4","last_reported":1742926414,"current_range_meters":8400,"station_id":"ce4bhgh2rcd13ifvqfb0","pricing_plan_id":"cebpf4jnsgd1na2vs0mg"},{"bike_id":"ce1e350d-f5b7-45b2-affa-14bb3568e51a","system_id":"levelo_inurba_marseille","lat":43.30464,"lon":5.38893,"is_reserved":false,"is_disabled":false,"rental_uris":{"android":"levelo://app?vid=ce1e350d-f5b7-45b2-affa-14bb3568e51a","ios":"levelo://app?vid=ce1e350d-f5b7-45b2-affa-14bb3568e51a"},"vehicle_type_id":"4","last_reported":1742926414,"current_range_meters":8400,"station_id":"ce4bgk12rcd13ifvqbi0","pricing_plan_id":"cebpf4jnsgd1na2vs0mg"},{"bike_id":"c353c957-fbb8-408a-9097-46c8d6b68074","system_id":"levelo_inurba_marseille","lat":43.24201,"lon":5.39697,"is_reserved":false,"is_disabled":false,"rental_uris":{"android":"levelo://app?vid=c353c957-fbb8-408a-9097-46c8d6b68074","ios":"levelo://app?vid=c353c957-fbb8-408a-9097-46c8d6b68074"},"vehicle_type_id":"4","last_reported":1742926414,"current_range_meters":8400,"station_id":"ce4bhn12rcd13ifvqgpg","pricing_plan_id":"cebpf4jnsgd1na2vs0mg"},{"bike_id":"cba10b41-a212-484d-9cff-9643a4f9d104","system_id":"levelo_inurba_marseille","lat":43.24386,"lon":5.37063,"is_reserved":false,"is_disabled":false,"rental_uris":{"android":"levelo://app?vid=cba10b41-a212-484d-9cff-9643a4f9d104","ios":"levelo://app?vid=cba10b41-a212-484d-9cff-9643a4f9d104"},"vehicle_type_id":"4","last_reported":1742926414,"current_range_meters":8400,"station_id":"ce4bhhh2rcd13ifvqfk0","pricing_plan_id":"cebpf4jnsgd1na2vs0mg"},{"bike_id":"2a99ecb7-4bf0-4c00-89bb-11ff019b8a6d","system_id":"levelo_inurba_marseille","lat":43.22935,"lon":5.35399,"is_reserved":false,"is_disabled":false,"rental_uris":{"android":"levelo://app?vid=2a99ecb7-4bf0-4c00-89bb-11ff019b8a6d","ios":"levelo://app?vid=2a99ecb7-4bf0-4c00-89bb-11ff019b8a6d"},"vehicle_type_id":"4","last_reported":1742926414,"current_range_meters":8800,"station_id":"cpo3532slgdg3j2ikp40","pricing_plan_id":"cebpf4jnsgd1na2vs0mg"},{"bike_id":"28c0a7a9-8cde-4181-8c8d-7150bbb6d354","system_id":"levelo_inurba_marseille","lat":43.25571,"lon":5.38248,"is_reserved":false,"is_disabled":false,"rental_uris":{"android":"levelo://app?vid=28c0a7a9-8cde-4181-8c8d-7150bbb6d354","ios":"levelo://app?vid=28c0a7a9-8cde-4181-8c8d-7150bbb6d354"},"vehicle_type_id":"4","last_reported":1742926414,"current_range_meters":8800,"station_id":"ce4bhih2rcd13ifvqfs0","pricing_plan_id":"cebpf4jnsgd1na2vs0mg"},{"bike_id":"414c3dae-7de3-426e-bb62-ad0c4ada3be2","system_id":"levelo_inurba_marseille","lat":43.31887,"lon":5.40742,"is_reserved":false,"is_disabled":false,"rental_uris":{"android":"levelo://app?vid=414c3dae-7de3-426e-bb62-ad0c4ada3be2","ios":"levelo://app?vid=414c3dae-7de3-426e-bb62-ad0c4ada3be2"},"vehicle_type_id":"4","last_reported":1742926414,"current_range_meters":8400,"station_id":"ce4bhq12rcd13ifvqhig","pricing_plan_id":"cebpf4jnsgd1na2vs0mg"},{"bike_id":"29e132f5-f35e-4980-8e38-84c762e3bef3","system_id":"levelo_inurba_marseille","lat":43.28105,"lon":5.37838,"is_reserved":false,"is_disabled":false,"rental_uris":{"android":"levelo://app?vid=29e132f5-f35e-4980-8e38-84c762e3bef3","ios":"levelo://app?vid=29e132f5-f35e-4980-8e38-84c762e3bef3"},"vehicle_type_id":"4","last_reported":1742926414,"current_range_meters":8800,"station_id":"ce4bha12rcd13ifvqee0","pricing_plan_id":"cebpf4jnsgd1na2vs0mg"},{"bike_id":"bcb3b049-9082-4b15-b33f-bbf0ab846232","system_id":"levelo_inurba_marseille","lat":43.27994,"lon":5.41662,"is_reserved":false,"is_disabled":false,"rental_uris":{"android":"levelo://app?vid=bcb3b049-9082-4b15-b33f-bbf0ab846232","ios":"levelo://app?vid=bcb3b049-9082-4b15-b33f-bbf0ab846232"},"vehicle_type_id":"4","last_reported":1742926414,"current_range_meters":8800,"station_id":"ce4bho12rcd13ifvqh1g","pricing_plan_id":"cebpf4jnsgd1na2vs0mg"},{"bike_id":"d0ce6a4c-8c1a-4117-b620-bb8816808dbc","system_id":"levelo_inurba_marseille","lat":43.23961,"lon":5.36642,"is_reserved":false,"is_disabled":false,"rental_uris":{"android":"levelo://app?vid=d0ce6a4c-8c1a-4117-b620-bb8816808dbc","ios":"levelo://app?vid=d0ce6a4c-8c1a-4117-b620-bb8816808dbc"},"vehicle_type_id":"4","last_reported":1742926414,"current_range_meters":8800,"station_id":"ce4bhi12rcd13ifvqfp0","pricing_plan_id":"cebpf4jnsgd1na2vs0mg"},{"bike_id":"c5bbee89-76bc-4973-831f-4185e9464c42","system_id":"levelo_inurba_marseille","lat":43.283652,"lon":5.386417,"is_reserved":false,"is_disabled":false,"rental_uris":{"android":"levelo://app?vid=c5bbee89-76bc-4973-831f-4185e9464c42","ios":"levelo://app?vid=c5bbee89-76bc-4973-831f-4185e9464c42"},"vehicle_type_id":"4","last_reported":1742926414,"current_range_meters":8400,"station_id":"chh1huq6cuj3fo74tm60","pricing_plan_id":"cebpf4jnsgd1na2vs0mg"},{"bike_id":"b6fd1ec3-47b2-486f-8b84-f71e2b87ecef","system_id":"levelo_inurba_marseille","lat":43.31082,"lon":5.4242,"is_reserved":false,"is_disabled":true,"rental_uris":{"android":"levelo://app?vid=b6fd1ec3-47b2-486f-8b84-f71e2b87ecef","ios":"levelo://app?vid=b6fd1ec3-47b2-486f-8b84-f71e2b87ecef"},"vehicle_type_id":"4","last_reported":1742926414,"current_range_meters":8800,"station_id":"ce4bhp92rcd13ifvqhag","pricing_plan_id":"cebpf4jnsgd1na2vs0mg"},{"bike_id":"8f208df7-81e0-45c5-bd98-a49c85a38fa2","system_id":"levelo_inurba_marseille","lat":43.30309,"lon":5.36915,"is_reserved":false,"is_disabled":false,"rental_uris":{"android":"levelo://app?vid=8f208df7-81e0-45c5-bd98-a49c85a38fa2","ios":"levelo://app?vid=8f208df7-81e0-45c5-bd98-a49c85a38fa2"},"vehicle_type_id":"4","last_reported":1742926414,"current_range_meters":8800,"station_id":"ce4bgqh2rcd13ifvqc5g","pricing_plan_id":"cebpf4jnsgd1na2vs0mg"},{"bike_id":"2c017f75-d553-4beb-b5eb-f87ae2f96917","system_id":"levelo_inurba_marseille","lat":43.27161,"lon":5.40987,"is_reserved":false,"is_disabled":false,"rental_uris":{"android":"levelo://app?vid=2c017f75-d553-4beb-b5eb-f87ae2f96917","ios":"levelo://app?vid=2c017f75-d553-4beb-b5eb-f87ae2f96917"},"vehicle_type_id":"4","last_reported":1742926414,"current_range_meters":8800,"station_id":"ce4bhl12rcd13ifvqgf0","pricing_plan_id":"cebpf4jnsgd1na2vs0mg"},{"bike_id":"4c8c6174-794c-4225-aa51-8a7a304903b9","system_id":"levelo_inurba_marseille","lat":43.31759,"lon":5.3902,"is_reserved":false,"is_disabled":false,"rental_uris":{"android":"levelo://app?vid=4c8c6174-794c-4225-aa51-8a7a304903b9","ios":"levelo://app?vid=4c8c6174-794c-4225-aa51-8a7a304903b9"},"vehicle_type_id":"4","last_reported":1742926414,"current_range_meters":9200,"station_id":"ce4bhqp2rcd13ifvqhng","pricing_plan_id":"cebpf4jnsgd1na2vs0mg"},{"bike_id":"68bd0b69-2a5f-498f-b959-6ec55c495bce","system_id":"levelo_inurba_marseille","lat":43.30915,"lon":5.3685,"is_reserved":false,"is_disabled":false,"rental_uris":{"android":"levelo://app?vid=68bd0b69-2a5f-498f-b959-6ec55c495bce","ios":"levelo://app?vid=68bd0b69-2a5f-498f-b959-6ec55c495bce"},"vehicle_type_id":"4","last_reported":1742926414,"current_range_meters":8800,"station_id":"ce4bh012rcd13ifvqcv0","pricing_plan_id":"cebpf4jnsgd1na2vs0mg"},{"bike_id":"e3f76d45-4904-44a7-aac2-e04832e991bb","system_id":"levelo_inurba_marseille","lat":43.299636,"lon":5.413191,"is_reserved":false,"is_disabled":true,"rental_uris":{"android":"levelo://app?vid=e3f76d45-4904-44a7-aac2-e04832e991bb","ios":"levelo://app?vid=e3f76d45-4904-44a7-aac2-e04832e991bb"},"vehicle_type_id":"4","last_reported":1742926414,"current_range_meters":9200,"station_id":"ce4bhp12rcd13ifvqh9g","pricing_plan_id":"cebpf4jnsgd1na2vs0mg"},{"bike_id":"c0049ace-3d6f-4b51-9d99-3b1b8bf1be6b","system_id":"levelo_inurba_marseille","lat":43.29005,"lon":5.35614,"is_reserved":false,"is_disabled":false,"rental_uris":{"android":"levelo://app?vid=c0049ace-3d6f-4b51-9d99-3b1b8bf1be6b","ios":"levelo://app?vid=c0049ace-3d6f-4b51-9d99-3b1b8bf1be6b"},"vehicle_type_id":"4","last_reported":1742926414,"current_range_meters":9200,"station_id":"ce4bhb92rcd13ifvqen0","pricing_plan_id":"cebpf4jnsgd1na2vs0mg"},{"bike_id":"6692ac61-c769-49ed-82dd-b663b5b1a88e","system_id":"levelo_inurba_marseille","lat":43.3145,"lon":5.37379,"is_reserved":false,"is_disabled":false,"rental_uris":{"android":"levelo://app?vid=6692ac61-c769-49ed-82dd-b663b5b1a88e","ios":"levelo://app?vid=6692ac61-c769-49ed-82dd-b663b5b1a88e"},"vehicle_type_id":"4","last_reported":1742926414,"current_range_meters":9200,"station_id":"","pricing_plan_id":"cebpf4jnsgd1na2vs0mg"},{"bike_id":"2f3e2a92-1301-4a27-8eaa-7b0ea525530e","system_id":"levelo_inurba_marseille","lat":43.31711,"lon":5.43712,"is_reserved":false,"is_disabled":false,"rental_uris":{"android":"levelo://app?vid=2f3e2a92-1301-4a27-8eaa-7b0ea525530e","ios":"levelo://app?vid=2f3e2a92-1301-4a27-8eaa-7b0ea525530e"},"vehicle_type_id":"4","last_reported":1742926414,"current_range_meters":9200,"station_id":"ce4bhp92rcd13ifvqhcg","pricing_plan_id":"cebpf4jnsgd1na2vs0mg"},{"bike_id":"ada4ba7b-2dc8-47ef-a5a8-9dc4e4bd1916","system_id":"levelo_inurba_marseille","lat":43.29968,"lon":5.375763,"is_reserved":false,"is_disabled":false,"rental_uris":{"android":"levelo://app?vid=ada4ba7b-2dc8-47ef-a5a8-9dc4e4bd1916","ios":"levelo://app?vid=ada4ba7b-2dc8-47ef-a5a8-9dc4e4bd1916"},"vehicle_type_id":"4","last_reported":1742926414,"current_range_meters":9200,"station_id":"","pricing_plan_id":"cebpf4jnsgd1na2vs0mg"},{"bike_id":"1a3c5e1e-498d-4bf5-b5bd-2116c210ebf5","system_id":"levelo_inurba_marseille","lat":43.24395,"lon":5.3706,"is_reserved":false,"is_disabled":false,"rental_uris":{"android":"levelo://app?vid=1a3c5e1e-498d-4bf5-b5bd-2116c210ebf5","ios":"levelo://app?vid=1a3c5e1e-498d-4bf5-b5bd-2116c210ebf5"},"vehicle_type_id":"4","last_reported":1742926414,"current_range_meters":9200,"station_id":"ce4bhhh2rcd13ifvqfk0","pricing_plan_id":"cebpf4jnsgd1na2vs0mg"},{"bike_id":"f558b816-d90c-427c-9fda-790dab4fc2de","system_id":"levelo_inurba_marseille","lat":43.28675,"lon":5.38665,"is_reserved":false,"is_disabled":false,"rental_uris":{"android":"levelo://app?vid=f558b816-d90c-427c-9fda-790dab4fc2de","ios":"levelo://app?vid=f558b816-d90c-427c-9fda-790dab4fc2de"},"vehicle_type_id":"4","last_reported":1742926414,"current_range_meters":9200,"station_id":"ce4bh492rcd13ifvqdug","pricing_plan_id":"cebpf4jnsgd1na2vs0mg"},{"bike_id":"1ce8fead-a519-49bf-821c-d46a9cd14238","system_id":"levelo_inurba_marseille","lat":43.3132,"lon":5.39709,"is_reserved":false,"is_disabled":false,"rental_uris":{"android":"levelo://app?vid=1ce8fead-a519-49bf-821c-d46a9cd14238","ios":"levelo://app?vid=1ce8fead-a519-49bf-821c-d46a9cd14238"},"vehicle_type_id":"4","last_reported":1742926414,"current_range_meters":9200,"station_id":"ce4bgvp2rcd13ifvqcu0","pricing_plan_id":"cebpf4jnsgd1na2vs0mg"},{"bike_id":"896d5863-1ac5-46eb-b4be-2c9a5b236c8f","system_id":"levelo_inurba_marseille","lat":43.2844,"lon":5.39187,"is_reserved":false,"is_disabled":false,"rental_uris":{"android":"levelo://app?vid=896d5863-1ac5-46eb-b4be-2c9a5b236c8f","ios":"levelo://app?vid=896d5863-1ac5-46eb-b4be-2c9a5b236c8f"},"vehicle_type_id":"4","last_reported":1742926414,"current_range_meters":9200,"station_id":"ce4bhoh2rcd13ifvqh5g","pricing_plan_id":"cebpf4jnsgd1na2vs0mg"},{"bike_id":"71fb81ea-5555-4094-89f7-2ec94c75e846","system_id":"levelo_inurba_marseille","lat":43.27555,"lon":5.38432,"is_reserved":false,"is_disabled":false,"rental_uris":{"android":"levelo://app?vid=71fb81ea-5555-4094-89f7-2ec94c75e846","ios":"levelo://app?vid=71fb81ea-5555-4094-89f7-2ec94c75e846"},"vehicle_type_id":"4","last_reported":1742926414,"current_range_meters":9200,"station_id":"ce4bhh92rcd13ifvqfi0","pricing_plan_id":"cebpf4jnsgd1na2vs0mg"},{"bike_id":"b580c9fc-3358-41be-bb22-ba15825d0d45","system_id":"levelo_inurba_marseille","lat":43.29026,"lon":5.38629,"is_reserved":false,"is_disabled":false,"rental_uris":{"android":"levelo://app?vid=b580c9fc-3358-41be-bb22-ba15825d0d45","ios":"levelo://app?vid=b580c9fc-3358-41be-bb22-ba15825d0d45"},"vehicle_type_id":"4","last_reported":1742926414,"current_range_meters":9200,"station_id":"ce4bh4p2rcd13ifvqe0g","pricing_plan_id":"cebpf4jnsgd1na2vs0mg"},{"bike_id":"a81c4ce8-c6a3-48c7-b8a5-adf47c89f102","system_id":"levelo_inurba_marseille","lat":43.29526,"lon":5.39401,"is_reserved":false,"is_disabled":false,"rental_uris":{"android":"levelo://app?vid=a81c4ce8-c6a3-48c7-b8a5-adf47c89f102","ios":"levelo://app?vid=a81c4ce8-c6a3-48c7-b8a5-adf47c89f102"},"vehicle_type_id":"4","last_reported":1742926414,"current_range_meters":8800,"station_id":"ce4bh292rcd13ifvqdf0","pricing_plan_id":"cebpf4jnsgd1na2vs0mg"},{"bike_id":"4941eea8-a781-468b-b83e-defe6faab05f","system_id":"levelo_inurba_marseille","lat":43.32279,"lon":5.3829,"is_reserved":false,"is_disabled":false,"rental_uris":{"android":"levelo://app?vid=4941eea8-a781-468b-b83e-defe6faab05f","ios":"levelo://app?vid=4941eea8-a781-468b-b83e-defe6faab05f"},"vehicle_type_id":"4","last_reported":1742926414,"current_range_meters":9200,"station_id":"ce4bhr12rcd13ifvqhqg","pricing_plan_id":"cebpf4jnsgd1na2vs0mg"},{"bike_id":"5949b210-1819-4785-b580-2eb73895808a","system_id":"levelo_inurba_marseille","lat":43.31273,"lon":5.40175,"is_reserved":false,"is_disabled":false,"rental_uris":{"android":"levelo://app?vid=5949b210-1819-4785-b580-2eb73895808a","ios":"levelo://app?vid=5949b210-1819-4785-b580-2eb73895808a"},"vehicle_type_id":"4","last_reported":1742926414,"current_range_meters":9200,"station_id":"ce4bh092rcd13ifvqd30","pricing_plan_id":"cebpf4jnsgd1na2vs0mg"},{"bike_id":"e4d66e59-4f1d-4844-97f7-5ea06b1cd6a8","system_id":"levelo_inurba_marseille","lat":43.29262,"lon":5.38447,"is_reserved":false,"is_disabled":false,"rental_uris":{"android":"levelo://app?vid=e4d66e59-4f1d-4844-97f7-5ea06b1cd6a8","ios":"levelo://app?vid=e4d66e59-4f1d-4844-97f7-5ea06b1cd6a8"},"vehicle_type_id":"4","last_reported":1742926414,"current_range_meters":9200,"station_id":"ce4bh692rcd13ifvqea0","pricing_plan_id":"cebpf4jnsgd1na2vs0mg"},{"bike_id":"31c15a0a-05ce-4a99-bc2b-714be9474bd0","system_id":"levelo_inurba_marseille","lat":43.28535,"lon":5.39576,"is_reserved":false,"is_disabled":false,"rental_uris":{"android":"levelo://app?vid=31c15a0a-05ce-4a99-bc2b-714be9474bd0","ios":"levelo://app?vid=31c15a0a-05ce-4a99-bc2b-714be9474bd0"},"vehicle_type_id":"4","last_reported":1742926414,"current_range_meters":9200,"station_id":"","pricing_plan_id":"cebpf4jnsgd1na2vs0mg"},{"bike_id":"a8e94f06-673a-41b0-8eb3-19c027564e7d","system_id":"levelo_inurba_marseille","lat":43.30545,"lon":5.38435,"is_reserved":false,"is_disabled":false,"rental_uris":{"android":"levelo://app?vid=a8e94f06-673a-41b0-8eb3-19c027564e7d","ios":"levelo://app?vid=a8e94f06-673a-41b0-8eb3-19c027564e7d"},"vehicle_type_id":"4","last_reported":1742926414,"current_range_meters":9200,"station_id":"ce4bgg92rcd13ifvqb30","pricing_plan_id":"cebpf4jnsgd1na2vs0mg"},{"bike_id":"f294d69a-8637-46e9-95b8-3d82151d6376","system_id":"levelo_inurba_marseille","lat":43.28012,"lon":5.41671,"is_reserved":false,"is_disabled":true,"rental_uris":{"android":"levelo://app?vid=f294d69a-8637-46e9-95b8-3d82151d6376","ios":"levelo://app?vid=f294d69a-8637-46e9-95b8-3d82151d6376"},"vehicle_type_id":"4","last_reported":1742926414,"current_range_meters":9600,"station_id":"ce4bho12rcd13ifvqh1g","pricing_plan_id":"cebpf4jnsgd1na2vs0mg"},{"bike_id":"225cbe9d-4f8e-432e-b5e7-cd7e14da2d62","system_id":"levelo_inurba_marseille","lat":43.28162,"lon":5.42686,"is_reserved":false,"is_disabled":false,"rental_uris":{"android":"levelo://app?vid=225cbe9d-4f8e-432e-b5e7-cd7e14da2d62","ios":"levelo://app?vid=225cbe9d-4f8e-432e-b5e7-cd7e14da2d62"},"vehicle_type_id":"4","last_reported":1742926414,"current_range_meters":9600,"station_id":"ce4bhnh2rcd13ifvqgug","pricing_plan_id":"cebpf4jnsgd1na2vs0mg"},{"bike_id":"94ae9420-7af3-444e-b4cb-544f7f88070e","system_id":"levelo_inurba_marseille","lat":43.26029,"lon":5.37557,"is_reserved":false,"is_disabled":false,"rental_uris":{"android":"levelo://app?vid=94ae9420-7af3-444e-b4cb-544f7f88070e","ios":"levelo://app?vid=94ae9420-7af3-444e-b4cb-544f7f88070e"},"vehicle_type_id":"4","last_reported":1742926414,"current_range_meters":9600,"station_id":"ce4bhgh2rcd13ifvqfa0","pricing_plan_id":"cebpf4jnsgd1na2vs0mg"},{"bike_id":"29a71c71-9348-4517-b583-74ea2a66fe7d","system_id":"levelo_inurba_marseille","lat":43.27944,"lon":5.41057,"is_reserved":false,"is_disabled":false,"rental_uris":{"android":"levelo://app?vid=29a71c71-9348-4517-b583-74ea2a66fe7d","ios":"levelo://app?vid=29a71c71-9348-4517-b583-74ea2a66fe7d"},"vehicle_type_id":"4","last_reported":1742926414,"current_range_meters":9600,"station_id":"ce4bhnp2rcd13ifvqh0g","pricing_plan_id":"cebpf4jnsgd1na2vs0mg"},{"bike_id":"74406c35-ee35-437d-be26-2d7711378046","system_id":"levelo_inurba_marseille","lat":43.32366,"lon":5.36772,"is_reserved":false,"is_disabled":false,"rental_uris":{"android":"levelo://app?vid=74406c35-ee35-437d-be26-2d7711378046","ios":"levelo://app?vid=74406c35-ee35-437d-be26-2d7711378046"},"vehicle_type_id":"4","last_reported":1742926414,"current_range_meters":9600,"station_id":"ce4bhsh2rcd13ifvqi2g","pricing_plan_id":"cebpf4jnsgd1na2vs0mg"},{"bike_id":"f9c2d6f4-4513-4b26-a173-3b2adf92e672","system_id":"levelo_inurba_marseille","lat":43.30083,"lon":5.3909,"is_reserved":false,"is_disabled":false,"rental_uris":{"android":"levelo://app?vid=f9c2d6f4-4513-4b26-a173-3b2adf92e672","ios":"levelo://app?vid=f9c2d6f4-4513-4b26-a173-3b2adf92e672"},"vehicle_type_id":"4","last_reported":1742926414,"current_range_meters":9600,"station_id":"ce4bh192rcd13ifvqdb0","pricing_plan_id":"cebpf4jnsgd1na2vs0mg"},{"bike_id":"342f19f0-681f-4097-b14f-f905cbb3bfb3","system_id":"levelo_inurba_marseille","lat":43.27376,"lon":5.36252,"is_reserved":false,"is_disabled":false,"rental_uris":{"android":"levelo://app?vid=342f19f0-681f-4097-b14f-f905cbb3bfb3","ios":"levelo://app?vid=342f19f0-681f-4097-b14f-f905cbb3bfb3"},"vehicle_type_id":"4","last_reported":1742926414,"current_range_meters":9600,"station_id":"ce4bhbh2rcd13ifvqeo0","pricing_plan_id":"cebpf4jnsgd1na2vs0mg"},{"bike_id":"6f6e0ffd-e4c9-42b1-bc45-e9ebc551d612","system_id":"levelo_inurba_marseille","lat":43.33025,"lon":5.3904,"is_reserved":false,"is_disabled":false,"rental_uris":{"android":"levelo://app?vid=6f6e0ffd-e4c9-42b1-bc45-e9ebc551d612","ios":"levelo://app?vid=6f6e0ffd-e4c9-42b1-bc45-e9ebc551d612"},"vehicle_type_id":"4","last_reported":1742926414,"current_range_meters":9600,"station_id":"ce4bhr92rcd13ifvqhrg","pricing_plan_id":"cebpf4jnsgd1na2vs0mg"},{"bike_id":"1392a870-6300-4219-8b1a-6d76541db636","system_id":"levelo_inurba_marseille","lat":43.32337,"lon":5.40623,"is_reserved":false,"is_disabled":false,"rental_uris":{"android":"levelo://app?vid=1392a870-6300-4219-8b1a-6d76541db636","ios":"levelo://app?vid=1392a870-6300-4219-8b1a-6d76541db636"},"vehicle_type_id":"4","last_reported":1742926414,"current_range_meters":9600,"station_id":"ce4bhq92rcd13ifvqhjg","pricing_plan_id":"cebpf4jnsgd1na2vs0mg"},{"bike_id":"89e75ed9-7f20-48f7-ad37-e0033e47c633","system_id":"levelo_inurba_marseille","lat":43.24648,"lon":5.38879,"is_reserved":false,"is_disabled":false,"rental_uris":{"android":"levelo://app?vid=89e75ed9-7f20-48f7-ad37-e0033e47c633","ios":"levelo://app?vid=89e75ed9-7f20-48f7-ad37-e0033e47c633"},"vehicle_type_id":"4","last_reported":1742926414,"current_range_meters":9600,"station_id":"ce4bhg12rcd13ifvqf60","pricing_plan_id":"cebpf4jnsgd1na2vs0mg"},{"bike_id":"a93e0ca1-d254-4677-8363-01f14f3246f8","system_id":"levelo_inurba_marseille","lat":43.29974,"lon":5.38497,"is_reserved":false,"is_disabled":false,"rental_uris":{"android":"levelo://app?vid=a93e0ca1-d254-4677-8363-01f14f3246f8","ios":"levelo://app?vid=a93e0ca1-d254-4677-8363-01f14f3246f8"},"vehicle_type_id":"4","last_reported":1742926414,"current_range_meters":10000,"station_id":"ce4bgj92rcd13ifvqbd0","pricing_plan_id":"cebpf4jnsgd1na2vs0mg"},{"bike_id":"5aeb641c-8c67-430e-bd09-77076d22412d","system_id":"levelo_inurba_marseille","lat":43.31039,"lon":5.3752,"is_reserved":false,"is_disabled":false,"rental_uris":{"android":"levelo://app?vid=5aeb641c-8c67-430e-bd09-77076d22412d","ios":"levelo://app?vid=5aeb641c-8c67-430e-bd09-77076d22412d"},"vehicle_type_id":"4","last_reported":1742926414,"current_range_meters":10000,"station_id":"","pricing_plan_id":"cebpf4jnsgd1na2vs0mg"},{"bike_id":"b4a61177-4b17-486e-bd7a-4a4337f5b721","system_id":"levelo_inurba_marseille","lat":43.28096,"lon":5.39857,"is_reserved":false,"is_disabled":false,"rental_uris":{"android":"levelo://app?vid=b4a61177-4b17-486e-bd7a-4a4337f5b721","ios":"levelo://app?vid=b4a61177-4b17-486e-bd7a-4a4337f5b721"},"vehicle_type_id":"4","last_reported":1742926414,"current_range_meters":10000,"station_id":"","pricing_plan_id":"cebpf4jnsgd1na2vs0mg"},{"bike_id":"6633349b-54ae-41b8-88d5-61ec5d012302","system_id":"levelo_inurba_marseille","lat":43.32033,"lon":5.36897,"is_reserved":false,"is_disabled":false,"rental_uris":{"android":"levelo://app?vid=6633349b-54ae-41b8-88d5-61ec5d012302","ios":"levelo://app?vid=6633349b-54ae-41b8-88d5-61ec5d012302"},"vehicle_type_id":"4","last_reported":1742926414,"current_range_meters":10000,"station_id":"","pricing_plan_id":"cebpf4jnsgd1na2vs0mg"},{"bike_id":"35775b58-1b5e-43fe-a9d3-787bab0ebdbe","system_id":"levelo_inurba_marseille","lat":43.30323,"lon":5.40491,"is_reserved":false,"is_disabled":false,"rental_uris":{"android":"levelo://app?vid=35775b58-1b5e-43fe-a9d3-787bab0ebdbe","ios":"levelo://app?vid=35775b58-1b5e-43fe-a9d3-787bab0ebdbe"},"vehicle_type_id":"4","last_reported":1742926414,"current_range_meters":10000,"station_id":"ce4bh012rcd13ifvqd10","pricing_plan_id":"cebpf4jnsgd1na2vs0mg"},{"bike_id":"b2f645b6-552c-4515-8fe8-6ddc07d5e203","system_id":"levelo_inurba_marseille","lat":43.29573,"lon":5.39984,"is_reserved":false,"is_disabled":false,"rental_uris":{"android":"levelo://app?vid=b2f645b6-552c-4515-8fe8-6ddc07d5e203","ios":"levelo://app?vid=b2f645b6-552c-4515-8fe8-6ddc07d5e203"},"vehicle_type_id":"4","last_reported":1742926414,"current_range_meters":10000,"station_id":"ce4bh312rcd13ifvqdj0","pricing_plan_id":"cebpf4jnsgd1na2vs0mg"},{"bike_id":"5afadd01-05af-47f2-b106-8c57133c5065","system_id":"levelo_inurba_marseille","lat":43.29974,"lon":5.38496,"is_reserved":false,"is_disabled":true,"rental_uris":{"android":"levelo://app?vid=5afadd01-05af-47f2-b106-8c57133c5065","ios":"levelo://app?vid=5afadd01-05af-47f2-b106-8c57133c5065"},"vehicle_type_id":"4","last_reported":1742926414,"current_range_meters":10000,"station_id":"ce4bgj92rcd13ifvqbd0","pricing_plan_id":"cebpf4jnsgd1na2vs0mg"},{"bike_id":"8583bcae-e817-4db7-ab92-448c595780ea","system_id":"levelo_inurba_marseille","lat":43.33032,"lon":5.39011,"is_reserved":false,"is_disabled":false,"rental_uris":{"android":"levelo://app?vid=8583bcae-e817-4db7-ab92-448c595780ea","ios":"levelo://app?vid=8583bcae-e817-4db7-ab92-448c595780ea"},"vehicle_type_id":"4","last_reported":1742926414,"current_range_meters":10000,"station_id":"ce4bhr92rcd13ifvqhrg","pricing_plan_id":"cebpf4jnsgd1na2vs0mg"},{"bike_id":"b7cb903c-7e42-45b1-ab45-08fef04f101f","system_id":"levelo_inurba_marseille","lat":43.29418,"lon":5.38623,"is_reserved":false,"is_disabled":false,"rental_uris":{"android":"levelo://app?vid=b7cb903c-7e42-45b1-ab45-08fef04f101f","ios":"levelo://app?vid=b7cb903c-7e42-45b1-ab45-08fef04f101f"},"vehicle_type_id":"4","last_reported":1742926414,"current_range_meters":10000,"station_id":"ce4bh092rcd13ifvqd20","pricing_plan_id":"cebpf4jnsgd1na2vs0mg"},{"bike_id":"6a07f7ee-4586-4e37-ba3f-c72f14d526fb","system_id":"levelo_inurba_marseille","lat":43.29153,"lon":5.37171,"is_reserved":false,"is_disabled":false,"rental_uris":{"android":"levelo://app?vid=6a07f7ee-4586-4e37-ba3f-c72f14d526fb","ios":"levelo://app?vid=6a07f7ee-4586-4e37-ba3f-c72f14d526fb"},"vehicle_type_id":"4","last_reported":1742926414,"current_range_meters":10000,"station_id":"ce4bha92rcd13ifvqeh0","pricing_plan_id":"cebpf4jnsgd1na2vs0mg"},{"bike_id":"0fa8bca9-2162-4f04-bf48-17f5ebf13073","system_id":"levelo_inurba_marseille","lat":43.24388,"lon":5.37061,"is_reserved":false,"is_disabled":false,"rental_uris":{"android":"levelo://app?vid=0fa8bca9-2162-4f04-bf48-17f5ebf13073","ios":"levelo://app?vid=0fa8bca9-2162-4f04-bf48-17f5ebf13073"},"vehicle_type_id":"4","last_reported":1742926414,"current_range_meters":9600,"station_id":"ce4bhhh2rcd13ifvqfk0","pricing_plan_id":"cebpf4jnsgd1na2vs0mg"},{"bike_id":"0e70aa57-656d-44ab-8fa4-cd4dcd80c896","system_id":"levelo_inurba_marseille","lat":43.29972,"lon":5.38491,"is_reserved":false,"is_disabled":false,"rental_uris":{"android":"levelo://app?vid=0e70aa57-656d-44ab-8fa4-cd4dcd80c896","ios":"levelo://app?vid=0e70aa57-656d-44ab-8fa4-cd4dcd80c896"},"vehicle_type_id":"4","last_reported":1742926414,"current_range_meters":10800,"station_id":"ce4bgj92rcd13ifvqbd0","pricing_plan_id":"cebpf4jnsgd1na2vs0mg"},{"bike_id":"db3a37d9-5fb5-4f3b-a188-d5b191baa933","system_id":"levelo_inurba_marseille","lat":43.30106,"lon":5.39849,"is_reserved":false,"is_disabled":false,"rental_uris":{"android":"levelo://app?vid=db3a37d9-5fb5-4f3b-a188-d5b191baa933","ios":"levelo://app?vid=db3a37d9-5fb5-4f3b-a188-d5b191baa933"},"vehicle_type_id":"4","last_reported":1742926414,"current_range_meters":10800,"station_id":"ce4bh0h2rcd13ifvqd40","pricing_plan_id":"cebpf4jnsgd1na2vs0mg"},{"bike_id":"8094cf9e-98e2-4cc5-8323-f8901ad1aa71","system_id":"levelo_inurba_marseille","lat":43.26936,"lon":5.40261,"is_reserved":false,"is_disabled":false,"rental_uris":{"android":"levelo://app?vid=8094cf9e-98e2-4cc5-8323-f8901ad1aa71","ios":"levelo://app?vid=8094cf9e-98e2-4cc5-8323-f8901ad1aa71"},"vehicle_type_id":"4","last_reported":1742926414,"current_range_meters":10800,"station_id":"cjm6bp8fraef2m0cb0m0","pricing_plan_id":"cebpf4jnsgd1na2vs0mg"},{"bike_id":"2d4e687a-9c18-4086-9d00-f57175bd6e2a","system_id":"levelo_inurba_marseille","lat":43.323688,"lon":5.38883,"is_reserved":false,"is_disabled":false,"rental_uris":{"android":"levelo://app?vid=2d4e687a-9c18-4086-9d00-f57175bd6e2a","ios":"levelo://app?vid=2d4e687a-9c18-4086-9d00-f57175bd6e2a"},"vehicle_type_id":"4","last_reported":1742926414,"current_range_meters":10800,"station_id":"ce4bhqp2rcd13ifvqhog","pricing_plan_id":"cebpf4jnsgd1na2vs0mg"},{"bike_id":"431fd2eb-8007-4740-a059-96843ccb6fbd","system_id":"levelo_inurba_marseille","lat":43.25114,"lon":5.40332,"is_reserved":false,"is_disabled":false,"rental_uris":{"android":"levelo://app?vid=431fd2eb-8007-4740-a059-96843ccb6fbd","ios":"levelo://app?vid=431fd2eb-8007-4740-a059-96843ccb6fbd"},"vehicle_type_id":"4","last_reported":1742926414,"current_range_meters":10800,"station_id":"ce4bhlh2rcd13ifvqgig","pricing_plan_id":"cebpf4jnsgd1na2vs0mg"},{"bike_id":"bb82fc6e-369a-45e7-ad67-06b50f841099","system_id":"levelo_inurba_marseille","lat":43.30146,"lon":5.39863,"is_reserved":false,"is_disabled":false,"rental_uris":{"android":"levelo://app?vid=bb82fc6e-369a-45e7-ad67-06b50f841099","ios":"levelo://app?vid=bb82fc6e-369a-45e7-ad67-06b50f841099"},"vehicle_type_id":"4","last_reported":1742926414,"current_range_meters":11200,"station_id":"ce4bh0h2rcd13ifvqd40","pricing_plan_id":"cebpf4jnsgd1na2vs0mg"},{"bike_id":"4c1e73f4-6036-4f3c-8f33-971fc81d4072","system_id":"levelo_inurba_marseille","lat":43.29037,"lon":5.38662,"is_reserved":false,"is_disabled":false,"rental_uris":{"android":"levelo://app?vid=4c1e73f4-6036-4f3c-8f33-971fc81d4072","ios":"levelo://app?vid=4c1e73f4-6036-4f3c-8f33-971fc81d4072"},"vehicle_type_id":"4","last_reported":1742926414,"current_range_meters":11200,"station_id":"ce4bh4p2rcd13ifvqe0g","pricing_plan_id":"cebpf4jnsgd1na2vs0mg"},{"bike_id":"fa0bd830-b5e1-4d00-82d7-ed272fa92124","system_id":"levelo_inurba_marseille","lat":43.27372,"lon":5.36244,"is_reserved":false,"is_disabled":false,"rental_uris":{"android":"levelo://app?vid=fa0bd830-b5e1-4d00-82d7-ed272fa92124","ios":"levelo://app?vid=fa0bd830-b5e1-4d00-82d7-ed272fa92124"},"vehicle_type_id":"4","last_reported":1742926414,"current_range_meters":11200,"station_id":"ce4bhbh2rcd13ifvqeo0","pricing_plan_id":"cebpf4jnsgd1na2vs0mg"},{"bike_id":"55f947e9-9d64-4a0c-94b3-6c970316803a","system_id":"levelo_inurba_marseille","lat":43.239686,"lon":5.397189,"is_reserved":false,"is_disabled":false,"rental_uris":{"android":"levelo://app?vid=55f947e9-9d64-4a0c-94b3-6c970316803a","ios":"levelo://app?vid=55f947e9-9d64-4a0c-94b3-6c970316803a"},"vehicle_type_id":"4","last_reported":1742926414,"current_range_meters":11200,"station_id":"ce4bhn12rcd13ifvqgqg","pricing_plan_id":"cebpf4jnsgd1na2vs0mg"},{"bike_id":"38351309-2dec-417c-a558-74c8bc991036","system_id":"levelo_inurba_marseille","lat":43.30796,"lon":5.40642,"is_reserved":false,"is_disabled":true,"rental_uris":{"android":"levelo://app?vid=38351309-2dec-417c-a558-74c8bc991036","ios":"levelo://app?vid=38351309-2dec-417c-a558-74c8bc991036"},"vehicle_type_id":"4","last_reported":1742926414,"current_range_meters":11200,"station_id":"","pricing_plan_id":"cebpf4jnsgd1na2vs0mg"},{"bike_id":"e14e8843-1f24-4c16-9c25-02d009f07bff","system_id":"levelo_inurba_marseille","lat":43.31068,"lon":5.38372,"is_reserved":false,"is_disabled":false,"rental_uris":{"android":"levelo://app?vid=e14e8843-1f24-4c16-9c25-02d009f07bff","ios":"levelo://app?vid=e14e8843-1f24-4c16-9c25-02d009f07bff"},"vehicle_type_id":"4","last_reported":1742926414,"current_range_meters":11200,"station_id":"ce4bgv92rcd13ifvqcr0","pricing_plan_id":"cebpf4jnsgd1na2vs0mg"},{"bike_id":"a86f77b5-4f60-4373-9e14-1c36c13ffed9","system_id":"levelo_inurba_marseille","lat":43.25864,"lon":5.39912,"is_reserved":false,"is_disabled":false,"rental_uris":{"android":"levelo://app?vid=a86f77b5-4f60-4373-9e14-1c36c13ffed9","ios":"levelo://app?vid=a86f77b5-4f60-4373-9e14-1c36c13ffed9"},"vehicle_type_id":"4","last_reported":1742926414,"current_range_meters":11600,"station_id":"ce4bhl92rcd13ifvqghg","pricing_plan_id":"cebpf4jnsgd1na2vs0mg"},{"bike_id":"bb5f66ba-c37c-43fa-a9df-e0c9d34803bc","system_id":"levelo_inurba_marseille","lat":43.31358,"lon":5.38502,"is_reserved":false,"is_disabled":false,"rental_uris":{"android":"levelo://app?vid=bb5f66ba-c37c-43fa-a9df-e0c9d34803bc","ios":"levelo://app?vid=bb5f66ba-c37c-43fa-a9df-e0c9d34803bc"},"vehicle_type_id":"4","last_reported":1742926414,"current_range_meters":11200,"station_id":"ce4bgt92rcd13ifvqcf0","pricing_plan_id":"cebpf4jnsgd1na2vs0mg"},{"bike_id":"d0fae17a-9a6c-4fe2-aeea-6b10305968cb","system_id":"levelo_inurba_marseille","lat":43.2922,"lon":5.36071,"is_reserved":false,"is_disabled":false,"rental_uris":{"android":"levelo://app?vid=d0fae17a-9a6c-4fe2-aeea-6b10305968cb","ios":"levelo://app?vid=d0fae17a-9a6c-4fe2-aeea-6b10305968cb"},"vehicle_type_id":"4","last_reported":1742926414,"current_range_meters":11600,"station_id":"ce4bhbh2rcd13ifvqeqg","pricing_plan_id":"cebpf4jnsgd1na2vs0mg"},{"bike_id":"dff36fde-dc89-4288-adea-6a39a0c026ef","system_id":"levelo_inurba_marseille","lat":43.30536,"lon":5.38411,"is_reserved":false,"is_disabled":false,"rental_uris":{"android":"levelo://app?vid=dff36fde-dc89-4288-adea-6a39a0c026ef","ios":"levelo://app?vid=dff36fde-dc89-4288-adea-6a39a0c026ef"},"vehicle_type_id":"4","last_reported":1742926414,"current_range_meters":11600,"station_id":"ce4bgg92rcd13ifvqb30","pricing_plan_id":"cebpf4jnsgd1na2vs0mg"},{"bike_id":"1e120c45-af79-403f-a9ee-e07197747cf6","system_id":"levelo_inurba_marseille","lat":43.29272,"lon":5.38439,"is_reserved":false,"is_disabled":false,"rental_uris":{"android":"levelo://app?vid=1e120c45-af79-403f-a9ee-e07197747cf6","ios":"levelo://app?vid=1e120c45-af79-403f-a9ee-e07197747cf6"},"vehicle_type_id":"4","last_reported":1742926414,"current_range_meters":11600,"station_id":"ce4bh692rcd13ifvqea0","pricing_plan_id":"cebpf4jnsgd1na2vs0mg"},{"bike_id":"24f87a5b-9439-47ee-aec5-ce85ff768c0d","system_id":"levelo_inurba_marseille","lat":43.264923,"lon":5.395502,"is_reserved":false,"is_disabled":false,"rental_uris":{"android":"levelo://app?vid=24f87a5b-9439-47ee-aec5-ce85ff768c0d","ios":"levelo://app?vid=24f87a5b-9439-47ee-aec5-ce85ff768c0d"},"vehicle_type_id":"4","last_reported":1742926414,"current_range_meters":11600,"station_id":"ce4bhi12rcd13ifvqfq0","pricing_plan_id":"cebpf4jnsgd1na2vs0mg"},{"bike_id":"d1f557f5-4ae6-4d1e-a0e5-bfb3f11e5af4","system_id":"levelo_inurba_marseille","lat":43.27371,"lon":5.36258,"is_reserved":false,"is_disabled":false,"rental_uris":{"android":"levelo://app?vid=d1f557f5-4ae6-4d1e-a0e5-bfb3f11e5af4","ios":"levelo://app?vid=d1f557f5-4ae6-4d1e-a0e5-bfb3f11e5af4"},"vehicle_type_id":"4","last_reported":1742926414,"current_range_meters":12000,"station_id":"ce4bhbh2rcd13ifvqeo0","pricing_plan_id":"cebpf4jnsgd1na2vs0mg"},{"bike_id":"1e5b7849-c5bc-489d-b9a2-199549dd57fb","system_id":"levelo_inurba_marseille","lat":43.27832,"lon":5.39209,"is_reserved":false,"is_disabled":false,"rental_uris":{"android":"levelo://app?vid=1e5b7849-c5bc-489d-b9a2-199549dd57fb","ios":"levelo://app?vid=1e5b7849-c5bc-489d-b9a2-199549dd57fb"},"vehicle_type_id":"4","last_reported":1742926414,"current_range_meters":12000,"station_id":"ce4bhjp2rcd13ifvqga0","pricing_plan_id":"cebpf4jnsgd1na2vs0mg"},{"bike_id":"f85f130d-c5bd-4d02-be8f-706cc689c35a","system_id":"levelo_inurba_marseille","lat":43.30098,"lon":5.39067,"is_reserved":false,"is_disabled":false,"rental_uris":{"android":"levelo://app?vid=f85f130d-c5bd-4d02-be8f-706cc689c35a","ios":"levelo://app?vid=f85f130d-c5bd-4d02-be8f-706cc689c35a"},"vehicle_type_id":"4","last_reported":1742926414,"current_range_meters":12000,"station_id":"ce4bh192rcd13ifvqdb0","pricing_plan_id":"cebpf4jnsgd1na2vs0mg"},{"bike_id":"f3371853-40bf-4a23-bed4-87c9715e98c9","system_id":"levelo_inurba_marseille","lat":43.266478,"lon":5.394973,"is_reserved":false,"is_disabled":false,"rental_uris":{"android":"levelo://app?vid=f3371853-40bf-4a23-bed4-87c9715e98c9","ios":"levelo://app?vid=f3371853-40bf-4a23-bed4-87c9715e98c9"},"vehicle_type_id":"4","last_reported":1742926414,"current_range_meters":12000,"station_id":"ce501612rcd8frsf0b60","pricing_plan_id":"cebpf4jnsgd1na2vs0mg"},{"bike_id":"5f7af17b-bbaa-4eee-9155-b010b888264d","system_id":"levelo_inurba_marseille","lat":43.31879,"lon":5.40744,"is_reserved":false,"is_disabled":false,"rental_uris":{"android":"levelo://app?vid=5f7af17b-bbaa-4eee-9155-b010b888264d","ios":"levelo://app?vid=5f7af17b-bbaa-4eee-9155-b010b888264d"},"vehicle_type_id":"4","last_reported":1742926414,"current_range_meters":12000,"station_id":"ce4bhq12rcd13ifvqhig","pricing_plan_id":"cebpf4jnsgd1na2vs0mg"},{"bike_id":"6a24fe8a-5af4-4e6d-814e-1a8c389adad3","system_id":"levelo_inurba_marseille","lat":43.31321,"lon":5.39695,"is_reserved":false,"is_disabled":false,"rental_uris":{"android":"levelo://app?vid=6a24fe8a-5af4-4e6d-814e-1a8c389adad3","ios":"levelo://app?vid=6a24fe8a-5af4-4e6d-814e-1a8c389adad3"},"vehicle_type_id":"4","last_reported":1742926414,"current_range_meters":12000,"station_id":"ce4bgvp2rcd13ifvqcu0","pricing_plan_id":"cebpf4jnsgd1na2vs0mg"},{"bike_id":"49d21800-9df0-453d-8e1b-d5a41ca1a31a","system_id":"levelo_inurba_marseille","lat":43.28619,"lon":5.35098,"is_reserved":false,"is_disabled":false,"rental_uris":{"android":"levelo://app?vid=49d21800-9df0-453d-8e1b-d5a41ca1a31a","ios":"levelo://app?vid=49d21800-9df0-453d-8e1b-d5a41ca1a31a"},"vehicle_type_id":"4","last_reported":1742926414,"current_range_meters":12000,"station_id":"ce4bhch2rcd13ifvqeug","pricing_plan_id":"cebpf4jnsgd1na2vs0mg"},{"bike_id":"2fac814a-43e0-4717-b417-c7b3d6c39782","system_id":"levelo_inurba_marseille","lat":43.32293,"lon":5.38277,"is_reserved":false,"is_disabled":false,"rental_uris":{"android":"levelo://app?vid=2fac814a-43e0-4717-b417-c7b3d6c39782","ios":"levelo://app?vid=2fac814a-43e0-4717-b417-c7b3d6c39782"},"vehicle_type_id":"4","last_reported":1742926414,"current_range_meters":12000,"station_id":"ce4bhr12rcd13ifvqhqg","pricing_plan_id":"cebpf4jnsgd1na2vs0mg"},{"bike_id":"51fa726c-a46d-4764-a3d6-c4dba5674f39","system_id":"levelo_inurba_marseille","lat":43.26784,"lon":5.39431,"is_reserved":false,"is_disabled":false,"rental_uris":{"android":"levelo://app?vid=51fa726c-a46d-4764-a3d6-c4dba5674f39","ios":"levelo://app?vid=51fa726c-a46d-4764-a3d6-c4dba5674f39"},"vehicle_type_id":"4","last_reported":1742926414,"current_range_meters":11600,"station_id":"ce4bhh12rcd13ifvqfg0","pricing_plan_id":"cebpf4jnsgd1na2vs0mg"},{"bike_id":"77c67784-b100-487b-8d30-eb3f9c214f7a","system_id":"levelo_inurba_marseille","lat":43.30931,"lon":5.40147,"is_reserved":false,"is_disabled":false,"rental_uris":{"android":"levelo://app?vid=77c67784-b100-487b-8d30-eb3f9c214f7a","ios":"levelo://app?vid=77c67784-b100-487b-8d30-eb3f9c214f7a"},"vehicle_type_id":"4","last_reported":1742926414,"current_range_meters":12400,"station_id":"ce4bgvp2rcd13ifvqct0","pricing_plan_id":"cebpf4jnsgd1na2vs0mg"},{"bike_id":"b6b2292d-4fe0-46bd-b5e3-5d09e961fb66","system_id":"levelo_inurba_marseille","lat":43.29429,"lon":5.38632,"is_reserved":false,"is_disabled":false,"rental_uris":{"android":"levelo://app?vid=b6b2292d-4fe0-46bd-b5e3-5d09e961fb66","ios":"levelo://app?vid=b6b2292d-4fe0-46bd-b5e3-5d09e961fb66"},"vehicle_type_id":"4","last_reported":1742926414,"current_range_meters":12400,"station_id":"ce4bh2h2rcd13ifvqdh0","pricing_plan_id":"cebpf4jnsgd1na2vs0mg"},{"bike_id":"3d1ea139-e4a0-4e2f-aec9-75261fea2b1c","system_id":"levelo_inurba_marseille","lat":43.29885,"lon":5.38898,"is_reserved":false,"is_disabled":false,"rental_uris":{"android":"levelo://app?vid=3d1ea139-e4a0-4e2f-aec9-75261fea2b1c","ios":"levelo://app?vid=3d1ea139-e4a0-4e2f-aec9-75261fea2b1c"},"vehicle_type_id":"4","last_reported":1742926414,"current_range_meters":12400,"station_id":"ce4bh392rcd13ifvqdl0","pricing_plan_id":"cebpf4jnsgd1na2vs0mg"},{"bike_id":"5653488a-e008-42f3-8972-82c6f9548cee","system_id":"levelo_inurba_marseille","lat":43.31084,"lon":5.4244,"is_reserved":false,"is_disabled":false,"rental_uris":{"android":"levelo://app?vid=5653488a-e008-42f3-8972-82c6f9548cee","ios":"levelo://app?vid=5653488a-e008-42f3-8972-82c6f9548cee"},"vehicle_type_id":"4","last_reported":1742926414,"current_range_meters":12400,"station_id":"ce4bhp92rcd13ifvqhag","pricing_plan_id":"cebpf4jnsgd1na2vs0mg"},{"bike_id":"1d8a3249-9200-4972-bc96-75314e87b237","system_id":"levelo_inurba_marseille","lat":43.306274,"lon":5.367057,"is_reserved":false,"is_disabled":false,"rental_uris":{"android":"levelo://app?vid=1d8a3249-9200-4972-bc96-75314e87b237","ios":"levelo://app?vid=1d8a3249-9200-4972-bc96-75314e87b237"},"vehicle_type_id":"4","last_reported":1742926414,"current_range_meters":12400,"station_id":"","pricing_plan_id":"cebpf4jnsgd1na2vs0mg"},{"bike_id":"c4b88c2e-98e3-4499-8e1f-4f4d33a56e5a","system_id":"levelo_inurba_marseille","lat":43.28421,"lon":5.34995,"is_reserved":false,"is_disabled":true,"rental_uris":{"android":"levelo://app?vid=c4b88c2e-98e3-4499-8e1f-4f4d33a56e5a","ios":"levelo://app?vid=c4b88c2e-98e3-4499-8e1f-4f4d33a56e5a"},"vehicle_type_id":"4","last_reported":1742926414,"current_range_meters":12400,"station_id":"ce4bhbh2rcd13ifvqepg","pricing_plan_id":"cebpf4jnsgd1na2vs0mg"},{"bike_id":"2dcceca6-f86c-4d4f-ab57-4192ddc9812d","system_id":"levelo_inurba_marseille","lat":43.30932,"lon":5.40149,"is_reserved":false,"is_disabled":false,"rental_uris":{"android":"levelo://app?vid=2dcceca6-f86c-4d4f-ab57-4192ddc9812d","ios":"levelo://app?vid=2dcceca6-f86c-4d4f-ab57-4192ddc9812d"},"vehicle_type_id":"4","last_reported":1742926414,"current_range_meters":12400,"station_id":"ce4bgvp2rcd13ifvqct0","pricing_plan_id":"cebpf4jnsgd1na2vs0mg"},{"bike_id":"a131070a-e779-4800-86bd-eec8ea7cf525","system_id":"levelo_inurba_marseille","lat":43.28106,"lon":5.3787,"is_reserved":false,"is_disabled":false,"rental_uris":{"android":"levelo://app?vid=a131070a-e779-4800-86bd-eec8ea7cf525","ios":"levelo://app?vid=a131070a-e779-4800-86bd-eec8ea7cf525"},"vehicle_type_id":"4","last_reported":1742926414,"current_range_meters":12800,"station_id":"ce4bha12rcd13ifvqee0","pricing_plan_id":"cebpf4jnsgd1na2vs0mg"},{"bike_id":"0c9cada4-2764-4013-a528-15089818cb84","system_id":"levelo_inurba_marseille","lat":43.27757,"lon":5.41165,"is_reserved":false,"is_disabled":false,"rental_uris":{"android":"levelo://app?vid=0c9cada4-2764-4013-a528-15089818cb84","ios":"levelo://app?vid=0c9cada4-2764-4013-a528-15089818cb84"},"vehicle_type_id":"4","last_reported":1742926414,"current_range_meters":12800,"station_id":"","pricing_plan_id":"cebpf4jnsgd1na2vs0mg"},{"bike_id":"87807891-619d-45ef-9bc3-f89425f9a8a8","system_id":"levelo_inurba_marseille","lat":43.28002,"lon":5.41662,"is_reserved":false,"is_disabled":true,"rental_uris":{"android":"levelo://app?vid=87807891-619d-45ef-9bc3-f89425f9a8a8","ios":"levelo://app?vid=87807891-619d-45ef-9bc3-f89425f9a8a8"},"vehicle_type_id":"4","last_reported":1742926414,"current_range_meters":12800,"station_id":"ce4bho12rcd13ifvqh1g","pricing_plan_id":"cebpf4jnsgd1na2vs0mg"},{"bike_id":"9f841668-8925-4219-aeed-3b240b179bce","system_id":"levelo_inurba_marseille","lat":43.25127,"lon":5.40322,"is_reserved":false,"is_disabled":false,"rental_uris":{"android":"levelo://app?vid=9f841668-8925-4219-aeed-3b240b179bce","ios":"levelo://app?vid=9f841668-8925-4219-aeed-3b240b179bce"},