{"last_updated":1719598228,"ttl":30,"version":"2.2","data":{"bikes":[{"bike_id":"7103f327-b530-4920-b734-bead7f4c8b33","system_id":"levelo_inurba_marseille","lat":43.31221,"lon":5.36851,"is_reserved":false,"is_disabled":false,"rental_uris":{"android":"levelo://app?vid=7103f327-b530-4920-b734-bead7f4c8b33","ios":"levelo://app?vid=7103f327-b530-4920-b734-bead7f4c8b33"},"vehicle_type_id":"4","last_reported":1719598228,"current_range_meters":14800,"station_id":"ce4bgl92rcd13ifvqbq0","pricing_plan_id":"cebpf4jnsgd1na2vs0mg"},{"bike_id":"4a94410f-4cd0-41af-95cb-4edeba7e486c","system_id":"levelo_inurba_marseille","lat":43.31105,"lon":5.370523,"is_reserved":false,"is_disabled":false,"rental_uris":{"android":"levelo://app?vid=4a94410f-4cd0-41af-95cb-4edeba7e486c","ios":"levelo://app?vid=4a94410f-4cd0-41af-95cb-4edeba7e486c"},"vehicle_type_id":"4","last_reported":1719598228,"current_range_meters":30400,"station_id":"","pricing_plan_id":"cebpf4jnsgd1na2vs0mg"},{"bike_id":"20556435-8b0f-47b0-9472-d09d827ba54a","system_id":"levelo_inurba_marseille","lat":43.30998,"lon":5.37045,"is_reserved":false,"is_disabled":false,"rental_uris":{"android":"levelo://app?vid=20556435-8b0f-47b0-9472-d09d827ba54a","ios":"levelo://app?vid=20556435-8b0f-47b0-9472-d09d827ba54a"},"vehicle_type_id":"4","last_reported":1719598228,"current_range_meters":9200,"station_id":"","pricing_plan_id":"cebpf4jnsgd1na2vs0mg"},{"bike_id":"8256db19-58e3-494a-b096-7d9819e77af4","system_id":"levelo_inurba_marseille","lat":43.309083,"lon":5.368307,"is_reserved":false,"is_disabled":false,"rental_uris":{"android":"levelo://app?vid=8256db19-58e3-494a-b096-7d9819e77af4","ios":"levelo://app?vid=8256db19-58e3-494a-b096-7d9819e77af4"},"vehicle_type_id":"4","last_reported":1719598228,"current_range_meters":19600,"station_id":"ce4bgn92rcd13ifvqbvg","pricing_plan_id":"cebpf4jnsgd1na2vs0mg"},{"bike_id":"5edab73b-7b5e-4715-b5be-130cef327e45","system_id":"levelo_inurba_marseille","lat":43.314811,"lon":5.373104,"is_reserved":false,"is_disabled":false,"rental_uris":{"android":"levelo://app?vid=5edab73b-7b5e-4715-b5be-130cef327e45","ios":"levelo://app?vid=5edab73b-7b5e-4715-b5be-130cef327e45"},"vehicle_type_id":"4","last_reported":1719598228,"current_range_meters":14000,"station_id":"ce4bgt12rcd13ifvqcd0","pricing_plan_id":"cebpf4jnsgd1na2vs0mg"},{"bike_id":"38fdd438-dab6-445a-88ee-7a1fc219c6d6","system_id":"levelo_inurba_marseille","lat":43.314811,"lon":5.373103,"is_reserved":false,"is_disabled":false,"rental_uris":{"android":"levelo://app?vid=38fdd438-dab6-445a-88ee-7a1fc219c6d6","ios":"levelo://app?vid=38fdd438-dab6-445a-88ee-7a1fc219c6d6"},"vehicle_type_id":"4","last_reported":1719598228,"current_range_meters":5200,"station_id":"ce4bgt12rcd13ifvqcd0","pricing_plan_id":"cebpf4jnsgd1na2vs0mg"},{"bike_id":"acb2aa0c-b758-440e-a87c-3e3ee903ff79","system_id":"levelo_inurba_marseille","lat":43.314811,"lon":5.373104,"is_reserved":false,"is_disabled":false,"rental_uris":{"android":"levelo://app?vid=acb2aa0c-b758-440e-a87c-3e3ee903ff79","ios":"levelo://app?vid=acb2aa0c-b758-440e-a87c-3e3ee903ff79"},"vehicle_type_id":"4","last_reported":1719598228,"current_range_meters":4400,"station_id":"ce4bgt12rcd13ifvqcd0","pricing_plan_id":"cebpf4jnsgd1na2vs0mg"},{"bike_id":"a54cd37d-6629-4fcf-824c-3bb68254f562","system_id":"levelo_inurba_marseille","lat":43.314811,"lon":5.373104,"is_reserved":false,"is_disabled":false,"rental_uris":{"android":"levelo://app?vid=a54cd37d-6629-4fcf-824c-3bb68254f562","ios":"levelo://app?vid=a54cd37d-6629-4fcf-824c-3bb68254f562"},"vehicle_type_id":"4","last_reported":1719598228,"current_range_meters":24400,"station_id":"ce4bgt12rcd13ifvqcd0","pricing_plan_id":"cebpf4jnsgd1na2vs0mg"},{"bike_id":"40e0878a-0646-4885-8cea-77bac502e499","system_id":"levelo_inurba_marseille","lat":43.309034,"lon":5.371783,"is_reserved":false,"is_disabled":false,"rental_uris":{"android":"levelo://app?vid=40e0878a-0646-4885-8cea-77bac502e499","ios":"levelo://app?vid=40e0878a-0646-4885-8cea-77bac502e499"},"vehicle_type_id":"4","last_reported":1719598228,"current_range_meters":30000,"station_id":"ce4bguh2rcd13ifvqckg","pricing_plan_id":"cebpf4jnsgd1na2vs0mg"},{"bike_id":"3763564e-6b88-4c72-84f2-a394c9e749d1","system_id":"levelo_inurba_marseille","lat":43.309034,"lon":5.371783,"is_reserved":false,"is_disabled":false,"rental_uris":{"android":"levelo://app?vid=3763564e-6b88-4c72-84f2-a394c9e749d1","ios":"levelo://app?vid=3763564e-6b88-4c72-84f2-a394c9e749d1"},"vehicle_type_id":"4","last_reported":1719598228,"current_range_meters":27200,"station_id":"ce4bguh2rcd13ifvqckg","pricing_plan_id":"cebpf4jnsgd1na2vs0mg"},{"bike_id":"3943897b-237c-4941-8f36-20e7f7f5fee6","system_id":"levelo_inurba_marseille","lat":43.31429,"lon":5.37546,"is_reserved":false,"is_disabled":false,"rental_uris":{"android":"levelo://app?vid=3943897b-237c-4941-8f36-20e7f7f5fee6","ios":"levelo://app?vid=3943897b-237c-4941-8f36-20e7f7f5fee6"},"vehicle_type_id":"4","last_reported":1719598228,"current_range_meters":26400,"station_id":"","pricing_plan_id":"cebpf4jnsgd1na2vs0mg"},{"bike_id":"6d4b91a7-8c12-430c-885e-9db29307fac7","system_id":"levelo_inurba_marseille","lat":43.30546,"lon":5.36656,"is_reserved":false,"is_disabled":false,"rental_uris":{"android":"levelo://app?vid=6d4b91a7-8c12-430c-885e-9db29307fac7","ios":"levelo://app?vid=6d4b91a7-8c12-430c-885e-9db29307fac7"},"vehicle_type_id":"4","last_reported":1719598228,"current_range_meters":24800,"station_id":"","pricing_plan_id":"cebpf4jnsgd1na2vs0mg"},{"bike_id":"0e4f89e3-5b8f-4ecb-aba6-f679e66ab67a","system_id":"levelo_inurba_marseille","lat":43.30537,"lon":5.367345,"is_reserved":false,"is_disabled":false,"rental_uris":{"android":"levelo://app?vid=0e4f89e3-5b8f-4ecb-aba6-f679e66ab67a","ios":"levelo://app?vid=0e4f89e3-5b8f-4ecb-aba6-f679e66ab67a"},"vehicle_type_id":"4","last_reported":1719598228,"current_range_meters":26800,"station_id":"ce4bgrp2rcd13ifvqc9g","pricing_plan_id":"cebpf4jnsgd1na2vs0mg"},{"bike_id":"1915b6f2-17fd-4658-9c51-4666421a9bf1","system_id":"levelo_inurba_marseille","lat":43.305706,"lon":5.365654,"is_reserved":false,"is_disabled":false,"rental_uris":{"android":"levelo://app?vid=1915b6f2-17fd-4658-9c51-4666421a9bf1","ios":"levelo://app?vid=1915b6f2-17fd-4658-9c51-4666421a9bf1"},"vehicle_type_id":"4","last_reported":1719598228,"current_range_meters":3200,"station_id":"ce4bgs12rcd13ifvqcag","pricing_plan_id":"cebpf4jnsgd1na2vs0mg"},{"bike_id":"bf381e60-b82d-4089-be85-176cf2f98fd1","system_id":"levelo_inurba_marseille","lat":43.311125,"lon":5.377624,"is_reserved":false,"is_disabled":false,"rental_uris":{"android":"levelo://app?vid=bf381e60-b82d-4089-be85-176cf2f98fd1","ios":"levelo://app?vid=bf381e60-b82d-4089-be85-176cf2f98fd1"},"vehicle_type_id":"4","last_reported":1719598228,"current_range_meters":31200,"station_id":"ce4bgt92rcd13ifvqcg0","pricing_plan_id":"cebpf4jnsgd1na2vs0mg"},{"bike_id":"7c916589-37fa-4bf9-9c6a-05786f1ded4b","system_id":"levelo_inurba_marseille","lat":43.311131,"lon":5.377651,"is_reserved":false,"is_disabled":false,"rental_uris":{"android":"levelo://app?vid=7c916589-37fa-4bf9-9c6a-05786f1ded4b","ios":"levelo://app?vid=7c916589-37fa-4bf9-9c6a-05786f1ded4b"},"vehicle_type_id":"4","last_reported":1719598228,"current_range_meters":9200,"station_id":"ce4bgt92rcd13ifvqcg0","pricing_plan_id":"cebpf4jnsgd1na2vs0mg"},{"bike_id":"ff3383d7-8f2e-4b0e-ad49-e741a074796e","system_id":"levelo_inurba_marseille","lat":43.311131,"lon":5.377651,"is_reserved":false,"is_disabled":false,"rental_uris":{"android":"levelo://app?vid=ff3383d7-8f2e-4b0e-ad49-e741a074796e","ios":"levelo://app?vid=ff3383d7-8f2e-4b0e-ad49-e741a074796e"},"vehicle_type_id":"4","last_reported":1719598228,"current_range_meters":2800,"station_id":"ce4bgt92rcd13ifvqcg0","pricing_plan_id":"cebpf4jnsgd1na2vs0mg"},{"bike_id":"5f990476-20d8-4f51-b78c-fdc4b251a0e3","system_id":"levelo_inurba_marseille","lat":43.311131,"lon":5.377651,"is_reserved":false,"is_disabled":false,"rental_uris":{"android":"levelo://app?vid=5f990476-20d8-4f51-b78c-fdc4b251a0e3","ios":"levelo://app?vid=5f990476-20d8-4f51-b78c-fdc4b251a0e3"},"vehicle_type_id":"4","last_reported":1719598228,"current_range_meters":31200,"station_id":"ce4bgt92rcd13ifvqcg0","pricing_plan_id":"cebpf4jnsgd1na2vs0mg"},{"bike_id":"7fd2bdc2-3548-40d9-b254-73cd2bd10433","system_id":"levelo_inurba_marseille","lat":43.311131,"lon":5.377651,"is_reserved":false,"is_disabled":false,"rental_uris":{"android":"levelo://app?vid=7fd2bdc2-3548-40d9-b254-73cd2bd10433","ios":"levelo://app?vid=7fd2bdc2-3548-40d9-b254-73cd2bd10433"},"vehicle_type_id":"4","last_reported":1719598228,"current_range_meters":23200,"station_id":"ce4bgt92rcd13ifvqcg0","pricing_plan_id":"cebpf4jnsgd1na2vs0mg"},{"bike_id":"44ff26d3-ff37-4ecb-9abe-4ab156e69ca6","system_id":"levelo_inurba_marseille","lat":43.307945,"lon":5.376487,"is_reserved":false,"is_disabled":false,"rental_uris":{"android":"levelo://app?vid=44ff26d3-ff37-4ecb-9abe-4ab156e69ca6","ios":"levelo://app?vid=44ff26d3-ff37-4ecb-9abe-4ab156e69ca6"},"vehicle_type_id":"4","last_reported":1719598228,"current_range_meters":30000,"station_id":"ce4bgv92rcd13ifvqcq0","pricing_plan_id":"cebpf4jnsgd1na2vs0mg"},{"bike_id":"230050f9-c469-4cac-90eb-171cf7d08050","system_id":"levelo_inurba_marseille","lat":43.317075,"lon":5.377367,"is_reserved":false,"is_disabled":false,"rental_uris":{"android":"levelo://app?vid=230050f9-c469-4cac-90eb-171cf7d08050","ios":"levelo://app?vid=230050f9-c469-4cac-90eb-171cf7d08050"},"vehicle_type_id":"4","last_reported":1719598228,"current_range_meters":16400,"station_id":"ce4bgth2rcd13ifvqch0","pricing_plan_id":"cebpf4jnsgd1na2vs0mg"},{"bike_id":"9181cab0-ed32-427e-a171-f5e34178751f","system_id":"levelo_inurba_marseille","lat":43.317075,"lon":5.377367,"is_reserved":false,"is_disabled":false,"rental_uris":{"android":"levelo://app?vid=9181cab0-ed32-427e-a171-f5e34178751f","ios":"levelo://app?vid=9181cab0-ed32-427e-a171-f5e34178751f"},"vehicle_type_id":"4","last_reported":1719598228,"current_range_meters":12000,"station_id":"ce4bgth2rcd13ifvqch0","pricing_plan_id":"cebpf4jnsgd1na2vs0mg"},{"bike_id":"1ee0c11b-de51-4552-882c-a8c5285ab96a","system_id":"levelo_inurba_marseille","lat":43.315289,"lon":5.380349,"is_reserved":false,"is_disabled":false,"rental_uris":{"android":"levelo://app?vid=1ee0c11b-de51-4552-882c-a8c5285ab96a","ios":"levelo://app?vid=1ee0c11b-de51-4552-882c-a8c5285ab96a"},"vehicle_type_id":"4","last_reported":1719598228,"current_range_meters":15200,"station_id":"ce4bhsp2rcd13ifvqi50","pricing_plan_id":"cebpf4jnsgd1na2vs0mg"},{"bike_id":"dbe399fc-971f-42ff-82db-b11d3c3340cb","system_id":"levelo_inurba_marseille","lat":43.301939,"lon":5.366286,"is_reserved":false,"is_disabled":false,"rental_uris":{"android":"levelo://app?vid=dbe399fc-971f-42ff-82db-b11d3c3340cb","ios":"levelo://app?vid=dbe399fc-971f-42ff-82db-b11d3c3340cb"},"vehicle_type_id":"4","last_reported":1719598228,"current_range_meters":10000,"station_id":"ce4bgrh2rcd13ifvqc8g","pricing_plan_id":"cebpf4jnsgd1na2vs0mg"},{"bike_id":"21c743a8-6545-4a65-91e4-0e505d55f5a9","system_id":"levelo_inurba_marseille","lat":43.30249,"lon":5.37487,"is_reserved":false,"is_disabled":false,"rental_uris":{"android":"levelo://app?vid=21c743a8-6545-4a65-91e4-0e505d55f5a9","ios":"levelo://app?vid=21c743a8-6545-4a65-91e4-0e505d55f5a9"},"vehicle_type_id":"4","last_reported":1719598228,"current_range_meters":12400,"station_id":"","pricing_plan_id":"cebpf4jnsgd1na2vs0mg"},{"bike_id":"7bd2d0ed-ba2e-4721-a93a-bdc42e65efe4","system_id":"levelo_inurba_marseille","lat":43.271388,"lon":5.409269,"is_reserved":false,"is_disabled":false,"rental_uris":{"android":"levelo://app?vid=7bd2d0ed-ba2e-4721-a93a-bdc42e65efe4","ios":"levelo://app?vid=7bd2d0ed-ba2e-4721-a93a-bdc42e65efe4"},"vehicle_type_id":"4","last_reported":1719598228,"current_range_meters":5600,"station_id":"ce4bhl12rcd13ifvqgf0","pricing_plan_id":"cebpf4jnsgd1na2vs0mg"},{"bike_id":"3780c921-959d-43ab-8b04-202567f2f836","system_id":"levelo_inurba_marseille","lat":43.324771,"lon":5.36557,"is_reserved":false,"is_disabled":false,"rental_uris":{"android":"levelo://app?vid=3780c921-959d-43ab-8b04-202567f2f836","ios":"levelo://app?vid=3780c921-959d-43ab-8b04-202567f2f836"},"vehicle_type_id":"4","last_reported":1719598228,"current_range_meters":2000,"station_id":"ce4bhs12rcd13ifvqhvg","pricing_plan_id":"cebpf4jnsgd1na2vs0mg"},{"bike_id":"646c0cef-a11d-4df7-bca3-9181aa93ba7e","system_id":"levelo_inurba_marseille","lat":43.324771,"lon":5.36557,"is_reserved":false,"is_disabled":false,"rental_uris":{"android":"levelo://app?vid=646c0cef-a11d-4df7-bca3-9181aa93ba7e","ios":"levelo://app?vid=646c0cef-a11d-4df7-bca3-9181aa93ba7e"},"vehicle_type_id":"4","last_reported":1719598228,"current_range_meters":18400,"station_id":"ce4bhs12rcd13ifvqhvg","pricing_plan_id":"cebpf4jnsgd1na2vs0mg"},{"bike_id":"2cc3aaa2-b89e-40fd-ba02-1441b6bb0e06","system_id":"levelo_inurba_marseille","lat":43.324771,"lon":5.36557,"is_reserved":false,"is_disabled":false,"rental_uris":{"android":"levelo://app?vid=2cc3aaa2-b89e-40fd-ba02-1441b6bb0e06","ios":"levelo://app?vid=2cc3aaa2-b89e-40fd-ba02-1441b6bb0e06"},"vehicle_type_id":"4","last_reported":1719598228,"current_range_meters":6400,"station_id":"ce4bhs12rcd13ifvqhvg","pricing_plan_id":"cebpf4jnsgd1na2vs0mg"},{"bike_id":"d5531a6e-c1ca-466e-bac2-6f3d9db38026","system_id":"levelo_inurba_marseille","lat":43.324771,"lon":5.36557,"is_reserved":false,"is_disabled":false,"rental_uris":{"android":"levelo://app?vid=d5531a6e-c1ca-466e-bac2-6f3d9db38026","ios":"levelo://app?vid=d5531a6e-c1ca-466e-bac2-6f3d9db38026"},"vehicle_type_id":"4","last_reported":1719598228,"current_range_meters":0,"station_id":"ce4bhs12rcd13ifvqhvg","pricing_plan_id":"cebpf4jnsgd1na2vs0mg"},{"bike_id":"5e82fb44-853b-46eb-a806-cb49946c0bfa","system_id":"levelo_inurba_marseille","lat":43.310804,"lon":5.38359,"is_reserved":false,"is_disabled":false,"rental_uris":{"android":"levelo://app?vid=5e82fb44-853b-46eb-a806-cb49946c0bfa","ios":"levelo://app?vid=5e82fb44-853b-46eb-a806-cb49946c0bfa"},"vehicle_type_id":"4","last_reported":1719598228,"current_range_meters":0,"station_id":"ce4bgv92rcd13ifvqcr0","pricing_plan_id":"cebpf4jnsgd1na2vs0mg"},{"bike_id":"905387bb-c17f-444b-ae1c-10f792553a59","system_id":"levelo_inurba_marseille","lat":43.310804,"lon":5.38359,"is_reserved":false,"is_disabled":false,"rental_uris":{"android":"levelo://app?vid=905387bb-c17f-444b-ae1c-10f792553a59","ios":"levelo://app?vid=905387bb-c17f-444b-ae1c-10f792553a59"},"vehicle_type_id":"4","last_reported":1719598228,"current_range_meters":14000,"station_id":"ce4bgv92rcd13ifvqcr0","pricing_plan_id":"cebpf4jnsgd1na2vs0mg"},{"bike_id":"419619f6-0508-41f6-8812-293720700713","system_id":"levelo_inurba_marseille","lat":43.301429,"lon":5.37413,"is_reserved":false,"is_disabled":false,"rental_uris":{"android":"levelo://app?vid=419619f6-0508-41f6-8812-293720700713","ios":"levelo://app?vid=419619f6-0508-41f6-8812-293720700713"},"vehicle_type_id":"4","last_reported":1719598228,"current_range_meters":4000,"station_id":"ce4bgs92rcd13ifvqcc0","pricing_plan_id":"cebpf4jnsgd1na2vs0mg"},{"bike_id":"4cab1b94-63d0-4c85-98c6-1518fc33c668","system_id":"levelo_inurba_marseille","lat":43.30143,"lon":5.37413,"is_reserved":false,"is_disabled":false,"rental_uris":{"android":"levelo://app?vid=4cab1b94-63d0-4c85-98c6-1518fc33c668","ios":"levelo://app?vid=4cab1b94-63d0-4c85-98c6-1518fc33c668"},"vehicle_type_id":"4","last_reported":1719598228,"current_range_meters":23600,"station_id":"ce4bgs92rcd13ifvqcc0","pricing_plan_id":"cebpf4jnsgd1na2vs0mg"},{"bike_id":"6c2a0b49-fde4-42e0-9bf1-d19dec235569","system_id":"levelo_inurba_marseille","lat":43.319935,"lon":5.381699,"is_reserved":false,"is_disabled":false,"rental_uris":{"android":"levelo://app?vid=6c2a0b49-fde4-42e0-9bf1-d19dec235569","ios":"levelo://app?vid=6c2a0b49-fde4-42e0-9bf1-d19dec235569"},"vehicle_type_id":"4","last_reported":1719598228,"current_range_meters":1600,"station_id":"ce4bhr12rcd13ifvqhpg","pricing_plan_id":"cebpf4jnsgd1na2vs0mg"},{"bike_id":"7a9758ca-f10f-476e-be0f-3a2dec022123","system_id":"levelo_inurba_marseille","lat":43.299972,"lon":5.368098,"is_reserved":false,"is_disabled":false,"rental_uris":{"android":"levelo://app?vid=7a9758ca-f10f-476e-be0f-3a2dec022123","ios":"levelo://app?vid=7a9758ca-f10f-476e-be0f-3a2dec022123"},"vehicle_type_id":"4","last_reported":1719598228,"current_range_meters":16400,"station_id":"","pricing_plan_id":"cebpf4jnsgd1na2vs0mg"},{"bike_id":"e219a01a-04fa-4579-bbb6-c1ee7149fe2b","system_id":"levelo_inurba_marseille","lat":43.319935,"lon":5.381699,"is_reserved":false,"is_disabled":false,"rental_uris":{"android":"levelo://app?vid=e219a01a-04fa-4579-bbb6-c1ee7149fe2b","ios":"levelo://app?vid=e219a01a-04fa-4579-bbb6-c1ee7149fe2b"},"vehicle_type_id":"4","last_reported":1719598228,"current_range_meters":21200,"station_id":"ce4bhr12rcd13ifvqhpg","pricing_plan_id":"cebpf4jnsgd1na2vs0mg"},{"bike_id":"cdff3609-95bc-4e87-9301-15974eb9376b","system_id":"levelo_inurba_marseille","lat":43.319935,"lon":5.381699,"is_reserved":false,"is_disabled":false,"rental_uris":{"android":"levelo://app?vid=cdff3609-95bc-4e87-9301-15974eb9376b","ios":"levelo://app?vid=cdff3609-95bc-4e87-9301-15974eb9376b"},"vehicle_type_id":"4","last_reported":1719598228,"current_range_meters":22400,"station_id":"ce4bhr12rcd13ifvqhpg","pricing_plan_id":"cebpf4jnsgd1na2vs0mg"},{"bike_id":"7fbedb87-5b4d-4714-9867-b9ee761c300e","system_id":"levelo_inurba_marseille","lat":43.319935,"lon":5.381699,"is_reserved":false,"is_disabled":false,"rental_uris":{"android":"levelo://app?vid=7fbedb87-5b4d-4714-9867-b9ee761c300e","ios":"levelo://app?vid=7fbedb87-5b4d-4714-9867-b9ee761c300e"},"vehicle_type_id":"4","last_reported":1719598228,"current_range_meters":9200,"station_id":"ce4bhr12rcd13ifvqhpg","pricing_plan_id":"cebpf4jnsgd1na2vs0mg"},{"bike_id":"5e3a459e-7fe8-46f3-a013-f2cb87d1b21c","system_id":"levelo_inurba_marseille","lat":43.313571,"lon":5.384829,"is_reserved":false,"is_disabled":false,"rental_uris":{"android":"levelo://app?vid=5e3a459e-7fe8-46f3-a013-f2cb87d1b21c","ios":"levelo://app?vid=5e3a459e-7fe8-46f3-a013-f2cb87d1b21c"},"vehicle_type_id":"4","last_reported":1719598228,"current_range_meters":21600,"station_id":"ce4bgt92rcd13ifvqcf0","pricing_plan_id":"cebpf4jnsgd1na2vs0mg"},{"bike_id":"71032a67-7d14-48e8-9b4e-cde2a3adb1c8","system_id":"levelo_inurba_marseille","lat":43.313571,"lon":5.384829,"is_reserved":false,"is_disabled":false,"rental_uris":{"android":"levelo://app?vid=71032a67-7d14-48e8-9b4e-cde2a3adb1c8","ios":"levelo://app?vid=71032a67-7d14-48e8-9b4e-cde2a3adb1c8"},"vehicle_type_id":"4","last_reported":1719598228,"current_range_meters":8800,"station_id":"ce4bgt92rcd13ifvqcf0","pricing_plan_id":"cebpf4jnsgd1na2vs0mg"},{"bike_id":"a50bf875-54f3-439d-b091-86b07f2ab523","system_id":"levelo_inurba_marseille","lat":43.313571,"lon":5.384829,"is_reserved":false,"is_disabled":false,"rental_uris":{"android":"levelo://app?vid=a50bf875-54f3-439d-b091-86b07f2ab523","ios":"levelo://app?vid=a50bf875-54f3-439d-b091-86b07f2ab523"},"vehicle_type_id":"4","last_reported":1719598228,"current_range_meters":16400,"station_id":"ce4bgt92rcd13ifvqcf0","pricing_plan_id":"cebpf4jnsgd1na2vs0mg"},{"bike_id":"a95d157d-19fe-4f2a-bd4a-36b0b49e54ec","system_id":"levelo_inurba_marseille","lat":43.313571,"lon":5.384829,"is_reserved":false,"is_disabled":false,"rental_uris":{"android":"levelo://app?vid=a95d157d-19fe-4f2a-bd4a-36b0b49e54ec","ios":"levelo://app?vid=a95d157d-19fe-4f2a-bd4a-36b0b49e54ec"},"vehicle_type_id":"4","last_reported":1719598228,"current_range_meters":0,"station_id":"ce4bgt92rcd13ifvqcf0","pricing_plan_id":"cebpf4jnsgd1na2vs0mg"},{"bike_id":"99ab6ef5-dfda-45a3-96e6-a67b0e9b322a","system_id":"levelo_inurba_marseille","lat":43.299222,"lon":5.365554,"is_reserved":false,"is_disabled":false,"rental_uris":{"android":"levelo://app?vid=99ab6ef5-dfda-45a3-96e6-a67b0e9b322a","ios":"levelo://app?vid=99ab6ef5-dfda-45a3-96e6-a67b0e9b322a"},"vehicle_type_id":"4","last_reported":1719598228,"current_range_meters":7200,"station_id":"ce4bgm92rcd13ifvqbr0","pricing_plan_id":"cebpf4jnsgd1na2vs0mg"},{"bike_id":"48262dac-d143-4368-a74a-0e82c3442dbe","system_id":"levelo_inurba_marseille","lat":43.299222,"lon":5.365554,"is_reserved":false,"is_disabled":false,"rental_uris":{"android":"levelo://app?vid=48262dac-d143-4368-a74a-0e82c3442dbe","ios":"levelo://app?vid=48262dac-d143-4368-a74a-0e82c3442dbe"},"vehicle_type_id":"4","last_reported":1719598228,"current_range_meters":28800,"station_id":"ce4bgm92rcd13ifvqbr0","pricing_plan_id":"cebpf4jnsgd1na2vs0mg"},{"bike_id":"c68779ef-2d59-4a16-8be3-19d4afd40671","system_id":"levelo_inurba_marseille","lat":43.299724,"lon":5.371829,"is_reserved":false,"is_disabled":false,"rental_uris":{"android":"levelo://app?vid=c68779ef-2d59-4a16-8be3-19d4afd40671","ios":"levelo://app?vid=c68779ef-2d59-4a16-8be3-19d4afd40671"},"vehicle_type_id":"4","last_reported":1719598228,"current_range_meters":2400,"station_id":"ce4bgr92rcd13ifvqc7g","pricing_plan_id":"cebpf4jnsgd1na2vs0mg"},{"bike_id":"552f1283-c80c-4a2e-9b70-9b3c62bca8ea","system_id":"levelo_inurba_marseille","lat":43.304,"lon":5.38104,"is_reserved":false,"is_disabled":false,"rental_uris":{"android":"levelo://app?vid=552f1283-c80c-4a2e-9b70-9b3c62bca8ea","ios":"levelo://app?vid=552f1283-c80c-4a2e-9b70-9b3c62bca8ea"},"vehicle_type_id":"4","last_reported":1719598228,"current_range_meters":23600,"station_id":"","pricing_plan_id":"cebpf4jnsgd1na2vs0mg"},{"bike_id":"333c38da-90f1-42d5-b72a-e5d63b14ec03","system_id":"levelo_inurba_marseille","lat":43.299724,"lon":5.371829,"is_reserved":false,"is_disabled":false,"rental_uris":{"android":"levelo://app?vid=333c38da-90f1-42d5-b72a-e5d63b14ec03","ios":"levelo://app?vid=333c38da-90f1-42d5-b72a-e5d63b14ec03"},"vehicle_type_id":"4","last_reported":1719598228,"current_range_meters":6400,"station_id":"ce4bgr92rcd13ifvqc7g","pricing_plan_id":"cebpf4jnsgd1na2vs0mg"},{"bike_id":"b4e90371-b51b-4bb3-9f26-7d543acd8573","system_id":"levelo_inurba_marseille","lat":43.30956,"lon":5.38618,"is_reserved":false,"is_disabled":false,"rental_uris":{"android":"levelo://app?vid=b4e90371-b51b-4bb3-9f26-7d543acd8573","ios":"levelo://app?vid=b4e90371-b51b-4bb3-9f26-7d543acd8573"},"vehicle_type_id":"4","last_reported":1719598228,"current_range_meters":26400,"station_id":"","pricing_plan_id":"cebpf4jnsgd1na2vs0mg"},{"bike_id":"18858c23-d712-4b64-bec6-23bab7f0effd","system_id":"levelo_inurba_marseille","lat":43.299502,"lon":5.374927,"is_reserved":false,"is_disabled":false,"rental_uris":{"android":"levelo://app?vid=18858c23-d712-4b64-bec6-23bab7f0effd","ios":"levelo://app?vid=18858c23-d712-4b64-bec6-23bab7f0effd"},"vehicle_type_id":"4","last_reported":1719598228,"current_range_meters":27600,"station_id":"ce4bgjh2rcd13ifvqbg0","pricing_plan_id":"cebpf4jnsgd1na2vs0mg"},{"bike_id":"af07e514-1754-441d-aab3-cd811f841eef","system_id":"levelo_inurba_marseille","lat":43.305364,"lon":5.384119,"is_reserved":false,"is_disabled":false,"rental_uris":{"android":"levelo://app?vid=af07e514-1754-441d-aab3-cd811f841eef","ios":"levelo://app?vid=af07e514-1754-441d-aab3-cd811f841eef"},"vehicle_type_id":"4","last_reported":1719598228,"current_range_meters":21600,"station_id":"ce4bgg92rcd13ifvqb30","pricing_plan_id":"cebpf4jnsgd1na2vs0mg"},{"bike_id":"c785d110-dc02-4f23-ba16-5ce7f6e60c2c","system_id":"levelo_inurba_marseille","lat":43.298433,"lon":5.362774,"is_reserved":false,"is_disabled":false,"rental_uris":{"android":"levelo://app?vid=c785d110-dc02-4f23-ba16-5ce7f6e60c2c","ios":"levelo://app?vid=c785d110-dc02-4f23-ba16-5ce7f6e60c2c"},"vehicle_type_id":"4","last_reported":1719598228,"current_range_meters":7200,"station_id":"ce4bgpp2rcd13ifvqc3g","pricing_plan_id":"cebpf4jnsgd1na2vs0mg"},{"bike_id":"91c8044f-9a8d-443a-aa5c-ddafda9ef1f7","system_id":"levelo_inurba_marseille","lat":43.305364,"lon":5.384119,"is_reserved":false,"is_disabled":false,"rental_uris":{"android":"levelo://app?vid=91c8044f-9a8d-443a-aa5c-ddafda9ef1f7","ios":"levelo://app?vid=91c8044f-9a8d-443a-aa5c-ddafda9ef1f7"},"vehicle_type_id":"4","last_reported":1719598228,"current_range_meters":14400,"station_id":"ce4bgg92rcd13ifvqb30","pricing_plan_id":"cebpf4jnsgd1na2vs0mg"},{"bike_id":"21be9fc6-a640-4ba4-bb0b-041a6b01b0af","system_id":"levelo_inurba_marseille","lat":43.298433,"lon":5.362774,"is_reserved":false,"is_disabled":false,"rental_uris":{"android":"levelo://app?vid=21be9fc6-a640-4ba4-bb0b-041a6b01b0af","ios":"levelo://app?vid=21be9fc6-a640-4ba4-bb0b-041a6b01b0af"},"vehicle_type_id":"4","last_reported":1719598228,"current_range_meters":19200,"station_id":"ce4bgpp2rcd13ifvqc3g","pricing_plan_id":"cebpf4jnsgd1na2vs0mg"},{"bike_id":"c2e5060b-41a2-4a98-8b45-b2c0856fbed9","system_id":"levelo_inurba_marseille","lat":43.299243,"lon":5.37481,"is_reserved":false,"is_disabled":false,"rental_uris":{"android":"levelo://app?vid=c2e5060b-41a2-4a98-8b45-b2c0856fbed9","ios":"levelo://app?vid=c2e5060b-41a2-4a98-8b45-b2c0856fbed9"},"vehicle_type_id":"4","last_reported":1719598228,"current_range_meters":10000,"station_id":"ce4bgjh2rcd13ifvqbg0","pricing_plan_id":"cebpf4jnsgd1na2vs0mg"},{"bike_id":"dd00b594-bd74-4a87-af06-0e787143a34e","system_id":"levelo_inurba_marseille","lat":43.297794,"lon":5.370888,"is_reserved":false,"is_disabled":false,"rental_uris":{"android":"levelo://app?vid=dd00b594-bd74-4a87-af06-0e787143a34e","ios":"levelo://app?vid=dd00b594-bd74-4a87-af06-0e787143a34e"},"vehicle_type_id":"4","last_reported":1719598228,"current_range_meters":0,"station_id":"ce4bgop2rcd13ifvqc1g","pricing_plan_id":"cebpf4jnsgd1na2vs0mg"},{"bike_id":"64b12312-141a-4387-b06a-34016728c0f9","system_id":"levelo_inurba_marseille","lat":43.29782,"lon":5.37091,"is_reserved":false,"is_disabled":false,"rental_uris":{"android":"levelo://app?vid=64b12312-141a-4387-b06a-34016728c0f9","ios":"levelo://app?vid=64b12312-141a-4387-b06a-34016728c0f9"},"vehicle_type_id":"4","last_reported":1719598228,"current_range_meters":0,"station_id":"ce4bgop2rcd13ifvqc1g","pricing_plan_id":"cebpf4jnsgd1na2vs0mg"},{"bike_id":"9ea9fa82-ce0e-4b07-a009-db0b35f3f5b5","system_id":"levelo_inurba_marseille","lat":43.297794,"lon":5.370888,"is_reserved":false,"is_disabled":false,"rental_uris":{"android":"levelo://app?vid=9ea9fa82-ce0e-4b07-a009-db0b35f3f5b5","ios":"levelo://app?vid=9ea9fa82-ce0e-4b07-a009-db0b35f3f5b5"},"vehicle_type_id":"4","last_reported":1719598228,"current_range_meters":400,"station_id":"ce4bgop2rcd13ifvqc1g","pricing_plan_id":"cebpf4jnsgd1na2vs0mg"},{"bike_id":"887768d6-5f1b-465e-b5cd-7f37809448cd","system_id":"levelo_inurba_marseille","lat":43.32285,"lon":5.38262,"is_reserved":false,"is_disabled":false,"rental_uris":{"android":"levelo://app?vid=887768d6-5f1b-465e-b5cd-7f37809448cd","ios":"levelo://app?vid=887768d6-5f1b-465e-b5cd-7f37809448cd"},"vehicle_type_id":"4","last_reported":1719598228,"current_range_meters":32000,"station_id":"ce4bhr12rcd13ifvqhqg","pricing_plan_id":"cebpf4jnsgd1na2vs0mg"},{"bike_id":"e6612135-71fa-45d9-ad65-84124da45ac5","system_id":"levelo_inurba_marseille","lat":43.322872,"lon":5.382756,"is_reserved":false,"is_disabled":false,"rental_uris":{"android":"levelo://app?vid=e6612135-71fa-45d9-ad65-84124da45ac5","ios":"levelo://app?vid=e6612135-71fa-45d9-ad65-84124da45ac5"},"vehicle_type_id":"4","last_reported":1719598228,"current_range_meters":27600,"station_id":"ce4bhr12rcd13ifvqhqg","pricing_plan_id":"cebpf4jnsgd1na2vs0mg"},{"bike_id":"7d2a14f1-ae94-45cb-95b1-47544f37f54a","system_id":"levelo_inurba_marseille","lat":43.322872,"lon":5.382756,"is_reserved":false,"is_disabled":false,"rental_uris":{"android":"levelo://app?vid=7d2a14f1-ae94-45cb-95b1-47544f37f54a","ios":"levelo://app?vid=7d2a14f1-ae94-45cb-95b1-47544f37f54a"},"vehicle_type_id":"4","last_reported":1719598228,"current_range_meters":16800,"station_id":"ce4bhr12rcd13ifvqhqg","pricing_plan_id":"cebpf4jnsgd1na2vs0mg"},{"bike_id":"4f13d4a8-0437-469e-92cf-97b690ff983c","system_id":"levelo_inurba_marseille","lat":43.297163,"lon":5.365866,"is_reserved":false,"is_disabled":false,"rental_uris":{"android":"levelo://app?vid=4f13d4a8-0437-469e-92cf-97b690ff983c","ios":"levelo://app?vid=4f13d4a8-0437-469e-92cf-97b690ff983c"},"vehicle_type_id":"4","last_reported":1719598228,"current_range_meters":12800,"station_id":"ce4bgn12rcd13ifvqbt0","pricing_plan_id":"cebpf4jnsgd1na2vs0mg"},{"bike_id":"3b4e9966-c611-426a-aa1e-4ba1fff92c1b","system_id":"levelo_inurba_marseille","lat":43.297163,"lon":5.365866,"is_reserved":false,"is_disabled":false,"rental_uris":{"android":"levelo://app?vid=3b4e9966-c611-426a-aa1e-4ba1fff92c1b","ios":"levelo://app?vid=3b4e9966-c611-426a-aa1e-4ba1fff92c1b"},"vehicle_type_id":"4","last_reported":1719598228,"current_range_meters":6000,"station_id":"ce4bgn12rcd13ifvqbt0","pricing_plan_id":"cebpf4jnsgd1na2vs0mg"},{"bike_id":"ca303e25-fad6-4e25-938f-f260ce0988d5","system_id":"levelo_inurba_marseille","lat":43.297163,"lon":5.365866,"is_reserved":false,"is_disabled":false,"rental_uris":{"android":"levelo://app?vid=ca303e25-fad6-4e25-938f-f260ce0988d5","ios":"levelo://app?vid=ca303e25-fad6-4e25-938f-f260ce0988d5"},"vehicle_type_id":"4","last_reported":1719598228,"current_range_meters":27200,"station_id":"ce4bgn12rcd13ifvqbt0","pricing_plan_id":"cebpf4jnsgd1na2vs0mg"},{"bike_id":"f7b8525a-7b99-4fd4-aac1-aad42e2a3b77","system_id":"levelo_inurba_marseille","lat":43.29659,"lon":5.36238,"is_reserved":false,"is_disabled":false,"rental_uris":{"android":"levelo://app?vid=f7b8525a-7b99-4fd4-aac1-aad42e2a3b77","ios":"levelo://app?vid=f7b8525a-7b99-4fd4-aac1-aad42e2a3b77"},"vehicle_type_id":"4","last_reported":1719598228,"current_range_meters":16400,"station_id":"","pricing_plan_id":"cebpf4jnsgd1na2vs0mg"},{"bike_id":"0f80fbd6-e969-4fed-acd3-92bedebd2833","system_id":"levelo_inurba_marseille","lat":43.29682,"lon":5.37283,"is_reserved":false,"is_disabled":false,"rental_uris":{"android":"levelo://app?vid=0f80fbd6-e969-4fed-acd3-92bedebd2833","ios":"levelo://app?vid=0f80fbd6-e969-4fed-acd3-92bedebd2833"},"vehicle_type_id":"4","last_reported":1719598228,"current_range_meters":18000,"station_id":"ce4bgk12rcd13ifvqbj0","pricing_plan_id":"cebpf4jnsgd1na2vs0mg"},{"bike_id":"e0f7cb98-ed0e-442a-acb2-d17d6841c1e1","system_id":"levelo_inurba_marseille","lat":43.2968,"lon":5.37291,"is_reserved":false,"is_disabled":false,"rental_uris":{"android":"levelo://app?vid=e0f7cb98-ed0e-442a-acb2-d17d6841c1e1","ios":"levelo://app?vid=e0f7cb98-ed0e-442a-acb2-d17d6841c1e1"},"vehicle_type_id":"4","last_reported":1719598228,"current_range_meters":16400,"station_id":"ce4bgk12rcd13ifvqbj0","pricing_plan_id":"cebpf4jnsgd1na2vs0mg"},{"bike_id":"d3679940-7bdc-4097-b418-312b5927ff66","system_id":"levelo_inurba_marseille","lat":43.29677,"lon":5.3729,"is_reserved":false,"is_disabled":false,"rental_uris":{"android":"levelo://app?vid=d3679940-7bdc-4097-b418-312b5927ff66","ios":"levelo://app?vid=d3679940-7bdc-4097-b418-312b5927ff66"},"vehicle_type_id":"4","last_reported":1719598228,"current_range_meters":800,"station_id":"ce4bgk12rcd13ifvqbj0","pricing_plan_id":"cebpf4jnsgd1na2vs0mg"},{"bike_id":"55ef1705-8f1e-4bfb-8caa-10240763c558","system_id":"levelo_inurba_marseille","lat":43.2965,"lon":5.36247,"is_reserved":false,"is_disabled":false,"rental_uris":{"android":"levelo://app?vid=55ef1705-8f1e-4bfb-8caa-10240763c558","ios":"levelo://app?vid=55ef1705-8f1e-4bfb-8caa-10240763c558"},"vehicle_type_id":"4","last_reported":1719598228,"current_range_meters":15200,"station_id":"","pricing_plan_id":"cebpf4jnsgd1na2vs0mg"},{"bike_id":"53ba566b-7b78-4423-b573-2eca02308c8e","system_id":"levelo_inurba_marseille","lat":43.2968,"lon":5.37291,"is_reserved":false,"is_disabled":false,"rental_uris":{"android":"levelo://app?vid=53ba566b-7b78-4423-b573-2eca02308c8e","ios":"levelo://app?vid=53ba566b-7b78-4423-b573-2eca02308c8e"},"vehicle_type_id":"4","last_reported":1719598228,"current_range_meters":10000,"station_id":"ce4bgk12rcd13ifvqbj0","pricing_plan_id":"cebpf4jnsgd1na2vs0mg"},{"bike_id":"da3c1fde-628b-4e10-b6fc-32427a79bf00","system_id":"levelo_inurba_marseille","lat":43.29573,"lon":5.367355,"is_reserved":false,"is_disabled":false,"rental_uris":{"android":"levelo://app?vid=da3c1fde-628b-4e10-b6fc-32427a79bf00","ios":"levelo://app?vid=da3c1fde-628b-4e10-b6fc-32427a79bf00"},"vehicle_type_id":"4","last_reported":1719598228,"current_range_meters":9600,"station_id":"ce4bgph2rcd13ifvqc2g","pricing_plan_id":"cebpf4jnsgd1na2vs0mg"},{"bike_id":"1d882b32-fad9-4f4e-b89e-f35d535d41fc","system_id":"levelo_inurba_marseille","lat":43.29573,"lon":5.367355,"is_reserved":false,"is_disabled":false,"rental_uris":{"android":"levelo://app?vid=1d882b32-fad9-4f4e-b89e-f35d535d41fc","ios":"levelo://app?vid=1d882b32-fad9-4f4e-b89e-f35d535d41fc"},"vehicle_type_id":"4","last_reported":1719598228,"current_range_meters":21600,"station_id":"ce4bgph2rcd13ifvqc2g","pricing_plan_id":"cebpf4jnsgd1na2vs0mg"},{"bike_id":"a9a7c95d-ff31-4004-b2dd-dfe8ff095a08","system_id":"levelo_inurba_marseille","lat":43.29579,"lon":5.36751,"is_reserved":false,"is_disabled":false,"rental_uris":{"android":"levelo://app?vid=a9a7c95d-ff31-4004-b2dd-dfe8ff095a08","ios":"levelo://app?vid=a9a7c95d-ff31-4004-b2dd-dfe8ff095a08"},"vehicle_type_id":"4","last_reported":1719598228,"current_range_meters":22000,"station_id":"ce4bgph2rcd13ifvqc2g","pricing_plan_id":"cebpf4jnsgd1na2vs0mg"},{"bike_id":"813d21d3-b845-4fea-b0e1-2a2fe099ecc3","system_id":"levelo_inurba_marseille","lat":43.299028,"lon":5.381509,"is_reserved":false,"is_disabled":false,"rental_uris":{"android":"levelo://app?vid=813d21d3-b845-4fea-b0e1-2a2fe099ecc3","ios":"levelo://app?vid=813d21d3-b845-4fea-b0e1-2a2fe099ecc3"},"vehicle_type_id":"4","last_reported":1719598228,"current_range_meters":29200,"station_id":"ce4bgj12rcd13ifvqbc0","pricing_plan_id":"cebpf4jnsgd1na2vs0mg"},{"bike_id":"44dda88b-3ab9-4529-8f87-cd4f5220479b","system_id":"levelo_inurba_marseille","lat":43.309589,"lon":5.390258,"is_reserved":false,"is_disabled":false,"rental_uris":{"android":"levelo://app?vid=44dda88b-3ab9-4529-8f87-cd4f5220479b","ios":"levelo://app?vid=44dda88b-3ab9-4529-8f87-cd4f5220479b"},"vehicle_type_id":"4","last_reported":1719598228,"current_range_meters":21200,"station_id":"ce4bgup2rcd13ifvqco0","pricing_plan_id":"cebpf4jnsgd1na2vs0mg"},{"bike_id":"39e70720-4343-4f9e-8e58-083a463c0db2","system_id":"levelo_inurba_marseille","lat":43.309589,"lon":5.390258,"is_reserved":false,"is_disabled":false,"rental_uris":{"android":"levelo://app?vid=39e70720-4343-4f9e-8e58-083a463c0db2","ios":"levelo://app?vid=39e70720-4343-4f9e-8e58-083a463c0db2"},"vehicle_type_id":"4","last_reported":1719598228,"current_range_meters":24800,"station_id":"ce4bgup2rcd13ifvqco0","pricing_plan_id":"cebpf4jnsgd1na2vs0mg"},{"bike_id":"9d4b151e-1cbf-45e9-b18c-228e85c2f185","system_id":"levelo_inurba_marseille","lat":43.299028,"lon":5.381509,"is_reserved":false,"is_disabled":false,"rental_uris":{"android":"levelo://app?vid=9d4b151e-1cbf-45e9-b18c-228e85c2f185","ios":"levelo://app?vid=9d4b151e-1cbf-45e9-b18c-228e85c2f185"},"vehicle_type_id":"4","last_reported":1719598228,"current_range_meters":31200,"station_id":"ce4bgj12rcd13ifvqbc0","pricing_plan_id":"cebpf4jnsgd1na2vs0mg"},{"bike_id":"cc754fa8-7500-4d6c-a6f6-854af4244385","system_id":"levelo_inurba_marseille","lat":43.309589,"lon":5.390258,"is_reserved":false,"is_disabled":false,"rental_uris":{"android":"levelo://app?vid=cc754fa8-7500-4d6c-a6f6-854af4244385","ios":"levelo://app?vid=cc754fa8-7500-4d6c-a6f6-854af4244385"},"vehicle_type_id":"4","last_reported":1719598228,"current_range_meters":4400,"station_id":"ce4bgup2rcd13ifvqco0","pricing_plan_id":"cebpf4jnsgd1na2vs0mg"},{"bike_id":"b9e0c840-24cd-4fd0-976d-8db1a8602ffc","system_id":"levelo_inurba_marseille","lat":43.299028,"lon":5.381509,"is_reserved":false,"is_disabled":false,"rental_uris":{"android":"levelo://app?vid=b9e0c840-24cd-4fd0-976d-8db1a8602ffc","ios":"levelo://app?vid=b9e0c840-24cd-4fd0-976d-8db1a8602ffc"},"vehicle_type_id":"4","last_reported":1719598228,"current_range_meters":18000,"station_id":"ce4bgj12rcd13ifvqbc0","pricing_plan_id":"cebpf4jnsgd1na2vs0mg"},{"bike_id":"1f3cb972-79fd-45d7-bbcb-9ecbfafc8fb7","system_id":"levelo_inurba_marseille","lat":43.309589,"lon":5.390258,"is_reserved":false,"is_disabled":false,"rental_uris":{"android":"levelo://app?vid=1f3cb972-79fd-45d7-bbcb-9ecbfafc8fb7","ios":"levelo://app?vid=1f3cb972-79fd-45d7-bbcb-9ecbfafc8fb7"},"vehicle_type_id":"4","last_reported":1719598228,"current_range_meters":9200,"station_id":"ce4bgup2rcd13ifvqco0","pricing_plan_id":"cebpf4jnsgd1na2vs0mg"},{"bike_id":"ad13abb6-fa23-409e-9148-0305fb893bb3","system_id":"levelo_inurba_marseille","lat":43.299028,"lon":5.381509,"is_reserved":false,"is_disabled":false,"rental_uris":{"android":"levelo://app?vid=ad13abb6-fa23-409e-9148-0305fb893bb3","ios":"levelo://app?vid=ad13abb6-fa23-409e-9148-0305fb893bb3"},"vehicle_type_id":"4","last_reported":1719598228,"current_range_meters":30800,"station_id":"ce4bgj12rcd13ifvqbc0","pricing_plan_id":"cebpf4jnsgd1na2vs0mg"},{"bike_id":"e1cad389-2466-4b7d-80ea-d8928ce40eaf","system_id":"levelo_inurba_marseille","lat":43.309589,"lon":5.390258,"is_reserved":false,"is_disabled":false,"rental_uris":{"android":"levelo://app?vid=e1cad389-2466-4b7d-80ea-d8928ce40eaf","ios":"levelo://app?vid=e1cad389-2466-4b7d-80ea-d8928ce40eaf"},"vehicle_type_id":"4","last_reported":1719598228,"current_range_meters":19600,"station_id":"ce4bgup2rcd13ifvqco0","pricing_plan_id":"cebpf4jnsgd1na2vs0mg"},{"bike_id":"97bbb473-54a1-40ff-a0c1-0ea89025f491","system_id":"levelo_inurba_marseille","lat":43.309589,"lon":5.390258,"is_reserved":false,"is_disabled":false,"rental_uris":{"android":"levelo://app?vid=97bbb473-54a1-40ff-a0c1-0ea89025f491","ios":"levelo://app?vid=97bbb473-54a1-40ff-a0c1-0ea89025f491"},"vehicle_type_id":"4","last_reported":1719598228,"current_range_meters":0,"station_id":"ce4bgup2rcd13ifvqco0","pricing_plan_id":"cebpf4jnsgd1na2vs0mg"},{"bike_id":"d6967747-1aa4-46a4-9650-9f21f9fb5beb","system_id":"levelo_inurba_marseille","lat":43.309589,"lon":5.390258,"is_reserved":false,"is_disabled":false,"rental_uris":{"android":"levelo://app?vid=d6967747-1aa4-46a4-9650-9f21f9fb5beb","ios":"levelo://app?vid=d6967747-1aa4-46a4-9650-9f21f9fb5beb"},"vehicle_type_id":"4","last_reported":1719598228,"current_range_meters":16800,"station_id":"ce4bgup2rcd13ifvqco0","pricing_plan_id":"cebpf4jnsgd1na2vs0mg"},{"bike_id":"f7c738bd-cd5c-44a3-850c-1a2e89600781","system_id":"levelo_inurba_marseille","lat":43.309589,"lon":5.390258,"is_reserved":false,"is_disabled":false,"rental_uris":{"android":"levelo://app?vid=f7c738bd-cd5c-44a3-850c-1a2e89600781","ios":"levelo://app?vid=f7c738bd-cd5c-44a3-850c-1a2e89600781"},"vehicle_type_id":"4","last_reported":1719598228,"current_range_meters":13200,"station_id":"ce4bgup2rcd13ifvqco0","pricing_plan_id":"cebpf4jnsgd1na2vs0mg"},{"bike_id":"1b37919e-ab42-465e-9cbb-c7e98fd0b66e","system_id":"levelo_inurba_marseille","lat":43.309589,"lon":5.390258,"is_reserved":false,"is_disabled":false,"rental_uris":{"android":"levelo://app?vid=1b37919e-ab42-465e-9cbb-c7e98fd0b66e","ios":"levelo://app?vid=1b37919e-ab42-465e-9cbb-c7e98fd0b66e"},"vehicle_type_id":"4","last_reported":1719598228,"current_range_meters":22800,"station_id":"ce4bgup2rcd13ifvqco0","pricing_plan_id":"cebpf4jnsgd1na2vs0mg"},{"bike_id":"87ab2453-3ffd-4067-8bb0-9feb0ab6f91b","system_id":"levelo_inurba_marseille","lat":43.309589,"lon":5.390258,"is_reserved":false,"is_disabled":false,"rental_uris":{"android":"levelo://app?vid=87ab2453-3ffd-4067-8bb0-9feb0ab6f91b","ios":"levelo://app?vid=87ab2453-3ffd-4067-8bb0-9feb0ab6f91b"},"vehicle_type_id":"4","last_reported":1719598228,"current_range_meters":14800,"station_id":"ce4bgup2rcd13ifvqco0","pricing_plan_id":"cebpf4jnsgd1na2vs0mg"},{"bike_id":"bebc3133-b555-427f-9855-3fcc92086023","system_id":"levelo_inurba_marseille","lat":43.309589,"lon":5.390258,"is_reserved":false,"is_disabled":false,"rental_uris":{"android":"levelo://app?vid=bebc3133-b555-427f-9855-3fcc92086023","ios":"levelo://app?vid=bebc3133-b555-427f-9855-3fcc92086023"},"vehicle_type_id":"4","last_reported":1719598228,"current_range_meters":15600,"station_id":"ce4bgup2rcd13ifvqco0","pricing_plan_id":"cebpf4jnsgd1na2vs0mg"},{"bike_id":"19709d7e-84ca-407b-8369-8b893e0c2f2a","system_id":"levelo_inurba_marseille","lat":43.296921,"lon":5.376579,"is_reserved":false,"is_disabled":false,"rental_uris":{"android":"levelo://app?vid=19709d7e-84ca-407b-8369-8b893e0c2f2a","ios":"levelo://app?vid=19709d7e-84ca-407b-8369-8b893e0c2f2a"},"vehicle_type_id":"4","last_reported":1719598228,"current_range_meters":22400,"station_id":"ce4bgkh2rcd13ifvqbl0","pricing_plan_id":"cebpf4jnsgd1na2vs0mg"},{"bike_id":"62ccbaa8-f1ad-40ae-bf6e-88fe4e7296cb","system_id":"levelo_inurba_marseille","lat":43.309589,"lon":5.390258,"is_reserved":false,"is_disabled":false,"rental_uris":{"android":"levelo://app?vid=62ccbaa8-f1ad-40ae-bf6e-88fe4e7296cb","ios":"levelo://app?vid=62ccbaa8-f1ad-40ae-bf6e-88fe4e7296cb"},"vehicle_type_id":"4","last_reported":1719598228,"current_range_meters":11600,"station_id":"ce4bgup2rcd13ifvqco0","pricing_plan_id":"cebpf4jnsgd1na2vs0mg"},{"bike_id":"fd3b9346-29f3-462c-8db0-e918850efc97","system_id":"levelo_inurba_marseille","lat":43.309589,"lon":5.390258,"is_reserved":false,"is_disabled":false,"rental_uris":{"android":"levelo://app?vid=fd3b9346-29f3-462c-8db0-e918850efc97","ios":"levelo://app?vid=fd3b9346-29f3-462c-8db0-e918850efc97"},"vehicle_type_id":"4","last_reported":1719598228,"current_range_meters":17600,"station_id":"ce4bgup2rcd13ifvqco0","pricing_plan_id":"cebpf4jnsgd1na2vs0mg"},{"bike_id":"cfc3bc5a-2aea-48fa-aeea-16cb96633408","system_id":"levelo_inurba_marseille","lat":43.317557,"lon":5.390173,"is_reserved":false,"is_disabled":false,"rental_uris":{"android":"levelo://app?vid=cfc3bc5a-2aea-48fa-aeea-16cb96633408","ios":"levelo://app?vid=cfc3bc5a-2aea-48fa-aeea-16cb96633408"},"vehicle_type_id":"4","last_reported":1719598228,"current_range_meters":1600,"station_id":"ce4bhqp2rcd13ifvqhng","pricing_plan_id":"cebpf4jnsgd1na2vs0mg"},{"bike_id":"942f8b2c-886c-4d33-834e-b115d5250206","system_id":"levelo_inurba_marseille","lat":43.317557,"lon":5.390173,"is_reserved":false,"is_disabled":false,"rental_uris":{"android":"levelo://app?vid=942f8b2c-886c-4d33-834e-b115d5250206","ios":"levelo://app?vid=942f8b2c-886c-4d33-834e-b115d5250206"},"vehicle_type_id":"4","last_reported":1719598228,"current_range_meters":28000,"station_id":"ce4bhqp2rcd13ifvqhng","pricing_plan_id":"cebpf4jnsgd1na2vs0mg"},{"bike_id":"5952f843-42c5-4dda-b74b-da42280e6f44","system_id":"levelo_inurba_marseille","lat":43.29815,"lon":5.38087,"is_reserved":false,"is_disabled":false,"rental_uris":{"android":"levelo://app?vid=5952f843-42c5-4dda-b74b-da42280e6f44","ios":"levelo://app?vid=5952f843-42c5-4dda-b74b-da42280e6f44"},"vehicle_type_id":"4","last_reported":1719598228,"current_range_meters":23600,"station_id":"ce4bgip2rcd13ifvqbb0","pricing_plan_id":"cebpf4jnsgd1na2vs0mg"},{"bike_id":"25005250-bb0d-4744-a6e8-69e40f397016","system_id":"levelo_inurba_marseille","lat":43.29807,"lon":5.38092,"is_reserved":false,"is_disabled":false,"rental_uris":{"android":"levelo://app?vid=25005250-bb0d-4744-a6e8-69e40f397016","ios":"levelo://app?vid=25005250-bb0d-4744-a6e8-69e40f397016"},"vehicle_type_id":"4","last_reported":1719598228,"current_range_meters":26400,"station_id":"ce4bgip2rcd13ifvqbb0","pricing_plan_id":"cebpf4jnsgd1na2vs0mg"},{"bike_id":"dfc50ca5-fde5-4fef-9304-c9c8bd301edd","system_id":"levelo_inurba_marseille","lat":43.29803,"lon":5.38096,"is_reserved":false,"is_disabled":false,"rental_uris":{"android":"levelo://app?vid=dfc50ca5-fde5-4fef-9304-c9c8bd301edd","ios":"levelo://app?vid=dfc50ca5-fde5-4fef-9304-c9c8bd301edd"},"vehicle_type_id":"4","last_reported":1719598228,"current_range_meters":9200,"station_id":"ce4bgip2rcd13ifvqbb0","pricing_plan_id":"cebpf4jnsgd1na2vs0mg"},{"bike_id":"5792f704-ed2c-40bd-b9ce-235d6ba40a70","system_id":"levelo_inurba_marseille","lat":43.29804,"lon":5.38098,"is_reserved":false,"is_disabled":false,"rental_uris":{"android":"levelo://app?vid=5792f704-ed2c-40bd-b9ce-235d6ba40a70","ios":"levelo://app?vid=5792f704-ed2c-40bd-b9ce-235d6ba40a70"},"vehicle_type_id":"4","last_reported":1719598228,"current_range_meters":22400,"station_id":"ce4bgip2rcd13ifvqbb0","pricing_plan_id":"cebpf4jnsgd1na2vs0mg"},{"bike_id":"a4ee5564-12b5-407f-ab17-82c434d063d3","system_id":"levelo_inurba_marseille","lat":43.298037,"lon":5.381066,"is_reserved":false,"is_disabled":false,"rental_uris":{"android":"levelo://app?vid=a4ee5564-12b5-407f-ab17-82c434d063d3","ios":"levelo://app?vid=a4ee5564-12b5-407f-ab17-82c434d063d3"},"vehicle_type_id":"4","last_reported":1719598228,"current_range_meters":30800,"station_id":"ce4bgip2rcd13ifvqbb0","pricing_plan_id":"cebpf4jnsgd1na2vs0mg"},{"bike_id":"30994481-441a-4f8e-a6e7-92ba27fe2d91","system_id":"levelo_inurba_marseille","lat":43.298037,"lon":5.381066,"is_reserved":false,"is_disabled":false,"rental_uris":{"android":"levelo://app?vid=30994481-441a-4f8e-a6e7-92ba27fe2d91","ios":"levelo://app?vid=30994481-441a-4f8e-a6e7-92ba27fe2d91"},"vehicle_type_id":"4","last_reported":1719598228,"current_range_meters":9600,"station_id":"ce4bgip2rcd13ifvqbb0","pricing_plan_id":"cebpf4jnsgd1na2vs0mg"},{"bike_id":"501f9cd1-8da6-482d-a7b8-d22c5f40442c","system_id":"levelo_inurba_marseille","lat":43.298023,"lon":5.381026,"is_reserved":false,"is_disabled":false,"rental_uris":{"android":"levelo://app?vid=501f9cd1-8da6-482d-a7b8-d22c5f40442c","ios":"levelo://app?vid=501f9cd1-8da6-482d-a7b8-d22c5f40442c"},"vehicle_type_id":"4","last_reported":1719598228,"current_range_meters":30000,"station_id":"ce4bgip2rcd13ifvqbb0","pricing_plan_id":"cebpf4jnsgd1na2vs0mg"},{"bike_id":"dbbda365-dec5-43c2-bc7c-cea18145f121","system_id":"levelo_inurba_marseille","lat":43.295795,"lon":5.37506,"is_reserved":false,"is_disabled":false,"rental_uris":{"android":"levelo://app?vid=dbbda365-dec5-43c2-bc7c-cea18145f121","ios":"levelo://app?vid=dbbda365-dec5-43c2-bc7c-cea18145f121"},"vehicle_type_id":"4","last_reported":1719598228,"current_range_meters":0,"station_id":"ce4bgh92rcd13ifvqb50","pricing_plan_id":"cebpf4jnsgd1na2vs0mg"},{"bike_id":"89a97e31-35f8-4c2c-9540-b1c544402cdd","system_id":"levelo_inurba_marseille","lat":43.29577,"lon":5.37499,"is_reserved":false,"is_disabled":false,"rental_uris":{"android":"levelo://app?vid=89a97e31-35f8-4c2c-9540-b1c544402cdd","ios":"levelo://app?vid=89a97e31-35f8-4c2c-9540-b1c544402cdd"},"vehicle_type_id":"4","last_reported":1719598228,"current_range_meters":21200,"station_id":"ce4bgh92rcd13ifvqb50","pricing_plan_id":"cebpf4jnsgd1na2vs0mg"},{"bike_id":"0cd7a5a9-790e-4fa2-8145-90582319f981","system_id":"levelo_inurba_marseille","lat":43.298037,"lon":5.381066,"is_reserved":false,"is_disabled":false,"rental_uris":{"android":"levelo://app?vid=0cd7a5a9-790e-4fa2-8145-90582319f981","ios":"levelo://app?vid=0cd7a5a9-790e-4fa2-8145-90582319f981"},"vehicle_type_id":"4","last_reported":1719598228,"current_range_meters":12800,"station_id":"ce4bgip2rcd13ifvqbb0","pricing_plan_id":"cebpf4jnsgd1na2vs0mg"},{"bike_id":"78f808eb-7330-4199-a76b-acecdff67796","system_id":"levelo_inurba_marseille","lat":43.298037,"lon":5.381066,"is_reserved":false,"is_disabled":false,"rental_uris":{"android":"levelo://app?vid=78f808eb-7330-4199-a76b-acecdff67796","ios":"levelo://app?vid=78f808eb-7330-4199-a76b-acecdff67796"},"vehicle_type_id":"4","last_reported":1719598228,"current_range_meters":9200,"station_id":"ce4bgip2rcd13ifvqbb0","pricing_plan_id":"cebpf4jnsgd1na2vs0mg"},{"bike_id":"1ac17b6e-180c-468a-8311-9a5c9a47fa72","system_id":"levelo_inurba_marseille","lat":43.298037,"lon":5.381066,"is_reserved":false,"is_disabled":false,"rental_uris":{"android":"levelo://app?vid=1ac17b6e-180c-468a-8311-9a5c9a47fa72","ios":"levelo://app?vid=1ac17b6e-180c-468a-8311-9a5c9a47fa72"},"vehicle_type_id":"4","last_reported":1719598228,"current_range_meters":24800,"station_id":"ce4bgip2rcd13ifvqbb0","pricing_plan_id":"cebpf4jnsgd1na2vs0mg"},{"bike_id":"1ccf5853-d6e0-4a48-9e59-8fbd32930b94","system_id":"levelo_inurba_marseille","lat":43.298037,"lon":5.381066,"is_reserved":false,"is_disabled":false,"rental_uris":{"android":"levelo://app?vid=1ccf5853-d6e0-4a48-9e59-8fbd32930b94","ios":"levelo://app?vid=1ccf5853-d6e0-4a48-9e59-8fbd32930b94"},"vehicle_type_id":"4","last_reported":1719598228,"current_range_meters":31200,"station_id":"ce4bgip2rcd13ifvqbb0","pricing_plan_id":"cebpf4jnsgd1na2vs0mg"},{"bike_id":"a9c1c643-c18a-4cf6-bda6-fa634f45d897","system_id":"levelo_inurba_marseille","lat":43.295748,"lon":5.37522,"is_reserved":false,"is_disabled":false,"rental_uris":{"android":"levelo://app?vid=a9c1c643-c18a-4cf6-bda6-fa634f45d897","ios":"levelo://app?vid=a9c1c643-c18a-4cf6-bda6-fa634f45d897"},"vehicle_type_id":"4","last_reported":1719598228,"current_range_meters":11600,"station_id":"ce4bgh92rcd13ifvqb50","pricing_plan_id":"cebpf4jnsgd1na2vs0mg"},{"bike_id":"9c7c7d3a-c3c6-4412-8864-a47698755e00","system_id":"levelo_inurba_marseille","lat":43.297889,"lon":5.381036,"is_reserved":false,"is_disabled":false,"rental_uris":{"android":"levelo://app?vid=9c7c7d3a-c3c6-4412-8864-a47698755e00","ios":"levelo://app?vid=9c7c7d3a-c3c6-4412-8864-a47698755e00"},"vehicle_type_id":"4","last_reported":1719598228,"current_range_meters":17600,"station_id":"ce4bgip2rcd13ifvqbb0","pricing_plan_id":"cebpf4jnsgd1na2vs0mg"},{"bike_id":"a8eb6138-d2a1-4e37-a78c-36266dadb979","system_id":"levelo_inurba_marseille","lat":43.298037,"lon":5.381066,"is_reserved":false,"is_disabled":false,"rental_uris":{"android":"levelo://app?vid=a8eb6138-d2a1-4e37-a78c-36266dadb979","ios":"levelo://app?vid=a8eb6138-d2a1-4e37-a78c-36266dadb979"},"vehicle_type_id":"4","last_reported":1719598228,"current_range_meters":30000,"station_id":"ce4bgip2rcd13ifvqbb0","pricing_plan_id":"cebpf4jnsgd1na2vs0mg"},{"bike_id":"74777ca7-60ae-4fcc-8cce-7632eccf874b","system_id":"levelo_inurba_marseille","lat":43.298037,"lon":5.381066,"is_reserved":false,"is_disabled":false,"rental_uris":{"android":"levelo://app?vid=74777ca7-60ae-4fcc-8cce-7632eccf874b","ios":"levelo://app?vid=74777ca7-60ae-4fcc-8cce-7632eccf874b"},"vehicle_type_id":"4","last_reported":1719598228,"current_range_meters":8800,"station_id":"ce4bgip2rcd13ifvqbb0","pricing_plan_id":"cebpf4jnsgd1na2vs0mg"},{"bike_id":"f1b17426-0e82-4289-b4c3-92873481ac81","system_id":"levelo_inurba_marseille","lat":43.298037,"lon":5.381066,"is_reserved":false,"is_disabled":false,"rental_uris":{"android":"levelo://app?vid=f1b17426-0e82-4289-b4c3-92873481ac81","ios":"levelo://app?vid=f1b17426-0e82-4289-b4c3-92873481ac81"},"vehicle_type_id":"4","last_reported":1719598228,"current_range_meters":22800,"station_id":"ce4bgip2rcd13ifvqbb0","pricing_plan_id":"cebpf4jnsgd1na2vs0mg"},{"bike_id":"7ad75c66-7018-4950-a054-0fdd277ac69f","system_id":"levelo_inurba_marseille","lat":43.29616,"lon":5.3773,"is_reserved":false,"is_disabled":false,"rental_uris":{"android":"levelo://app?vid=7ad75c66-7018-4950-a054-0fdd277ac69f","ios":"levelo://app?vid=7ad75c66-7018-4950-a054-0fdd277ac69f"},"vehicle_type_id":"4","last_reported":1719598228,"current_range_meters":3200,"station_id":"ce4bgi92rcd13ifvqb90","pricing_plan_id":"cebpf4jnsgd1na2vs0mg"},{"bike_id":"a1169cc9-508d-41fc-91bf-702d3d61f7c8","system_id":"levelo_inurba_marseille","lat":43.299724,"lon":5.384848,"is_reserved":false,"is_disabled":false,"rental_uris":{"android":"levelo://app?vid=a1169cc9-508d-41fc-91bf-702d3d61f7c8","ios":"levelo://app?vid=a1169cc9-508d-41fc-91bf-702d3d61f7c8"},"vehicle_type_id":"4","last_reported":1719598228,"current_range_meters":30800,"station_id":"ce4bgj92rcd13ifvqbd0","pricing_plan_id":"cebpf4jnsgd1na2vs0mg"},{"bike_id":"d38d35de-c76a-4270-bd65-a0ff3c9fc461","system_id":"levelo_inurba_marseille","lat":43.295279,"lon":5.375048,"is_reserved":false,"is_disabled":false,"rental_uris":{"android":"levelo://app?vid=d38d35de-c76a-4270-bd65-a0ff3c9fc461","ios":"levelo://app?vid=d38d35de-c76a-4270-bd65-a0ff3c9fc461"},"vehicle_type_id":"4","last_reported":1719598228,"current_range_meters":4800,"station_id":"ce4bgkp2rcd13ifvqbmg","pricing_plan_id":"cebpf4jnsgd1na2vs0mg"},{"bike_id":"115aaea6-2df3-4a4e-bd50-c94a687349ee","system_id":"levelo_inurba_marseille","lat":43.295279,"lon":5.375048,"is_reserved":false,"is_disabled":false,"rental_uris":{"android":"levelo://app?vid=115aaea6-2df3-4a4e-bd50-c94a687349ee","ios":"levelo://app?vid=115aaea6-2df3-4a4e-bd50-c94a687349ee"},"vehicle_type_id":"4","last_reported":1719598228,"current_range_meters":1600,"station_id":"ce4bgkp2rcd13ifvqbmg","pricing_plan_id":"cebpf4jnsgd1na2vs0mg"},{"bike_id":"67f2e31b-6119-4234-847e-be2228b6b251","system_id":"levelo_inurba_marseille","lat":43.29972,"lon":5.38486,"is_reserved":false,"is_disabled":false,"rental_uris":{"android":"levelo://app?vid=67f2e31b-6119-4234-847e-be2228b6b251","ios":"levelo://app?vid=67f2e31b-6119-4234-847e-be2228b6b251"},"vehicle_type_id":"4","last_reported":1719598228,"current_range_meters":0,"station_id":"ce4bgj92rcd13ifvqbd0","pricing_plan_id":"cebpf4jnsgd1na2vs0mg"},{"bike_id":"e248d129-ed88-4646-bb47-3c0326cad095","system_id":"levelo_inurba_marseille","lat":43.299724,"lon":5.384848,"is_reserved":false,"is_disabled":false,"rental_uris":{"android":"levelo://app?vid=e248d129-ed88-4646-bb47-3c0326cad095","ios":"levelo://app?vid=e248d129-ed88-4646-bb47-3c0326cad095"},"vehicle_type_id":"4","last_reported":1719598228,"current_range_meters":30000,"station_id":"ce4bgj92rcd13ifvqbd0","pricing_plan_id":"cebpf4jnsgd1na2vs0mg"},{"bike_id":"78d14a36-6e2a-44d9-a102-67b17165272d","system_id":"levelo_inurba_marseille","lat":43.298037,"lon":5.381066,"is_reserved":false,"is_disabled":false,"rental_uris":{"android":"levelo://app?vid=78d14a36-6e2a-44d9-a102-67b17165272d","ios":"levelo://app?vid=78d14a36-6e2a-44d9-a102-67b17165272d"},"vehicle_type_id":"4","last_reported":1719598228,"current_range_meters":11600,"station_id":"ce4bgip2rcd13ifvqbb0","pricing_plan_id":"cebpf4jnsgd1na2vs0mg"},{"bike_id":"70e262e6-3d67-47c0-bc08-0dae327019f5","system_id":"levelo_inurba_marseille","lat":43.32364,"lon":5.3888,"is_reserved":false,"is_disabled":false,"rental_uris":{"android":"levelo://app?vid=70e262e6-3d67-47c0-bc08-0dae327019f5","ios":"levelo://app?vid=70e262e6-3d67-47c0-bc08-0dae327019f5"},"vehicle_type_id":"4","last_reported":1719598228,"current_range_meters":0,"station_id":"ce4bhqp2rcd13ifvqhog","pricing_plan_id":"cebpf4jnsgd1na2vs0mg"},{"bike_id":"0f7fc794-c632-44fc-a763-71aa8dff4862","system_id":"levelo_inurba_marseille","lat":43.32363,"lon":5.38886,"is_reserved":false,"is_disabled":false,"rental_uris":{"android":"levelo://app?vid=0f7fc794-c632-44fc-a763-71aa8dff4862","ios":"levelo://app?vid=0f7fc794-c632-44fc-a763-71aa8dff4862"},"vehicle_type_id":"4","last_reported":1719598228,"current_range_meters":0,"station_id":"ce4bhqp2rcd13ifvqhog","pricing_plan_id":"cebpf4jnsgd1na2vs0mg"},{"bike_id":"48ba2bfc-7671-4125-8f05-826cef518861","system_id":"levelo_inurba_marseille","lat":43.29602,"lon":5.381084,"is_reserved":false,"is_disabled":false,"rental_uris":{"android":"levelo://app?vid=48ba2bfc-7671-4125-8f05-826cef518861","ios":"levelo://app?vid=48ba2bfc-7671-4125-8f05-826cef518861"},"vehicle_type_id":"4","last_reported":1719598228,"current_range_meters":6400,"station_id":"ce4bgl12rcd13ifvqbo0","pricing_plan_id":"cebpf4jnsgd1na2vs0mg"},{"bike_id":"e4ec2326-6db8-4ffc-94eb-edbbfa84b64d","system_id":"levelo_inurba_marseille","lat":43.293259,"lon":5.371586,"is_reserved":false,"is_disabled":false,"rental_uris":{"android":"levelo://app?vid=e4ec2326-6db8-4ffc-94eb-edbbfa84b64d","ios":"levelo://app?vid=e4ec2326-6db8-4ffc-94eb-edbbfa84b64d"},"vehicle_type_id":"4","last_reported":1719598228,"current_range_meters":12800,"station_id":"ce4bgh92rcd13ifvqb40","pricing_plan_id":"cebpf4jnsgd1na2vs0mg"},{"bike_id":"3aea50d9-df6b-4ca8-bfcc-5d683d14bd10","system_id":"levelo_inurba_marseille","lat":43.29306,"lon":5.37177,"is_reserved":false,"is_disabled":false,"rental_uris":{"android":"levelo://app?vid=3aea50d9-df6b-4ca8-bfcc-5d683d14bd10","ios":"levelo://app?vid=3aea50d9-df6b-4ca8-bfcc-5d683d14bd10"},"vehicle_type_id":"4","last_reported":1719598228,"current_range_meters":7600,"station_id":"ce4bgh92rcd13ifvqb40","pricing_plan_id":"cebpf4jnsgd1na2vs0mg"},{"bike_id":"9ab5ace0-8017-4962-bfbe-7f25ecb9ed31","system_id":"levelo_inurba_marseille","lat":43.292749,"lon":5.368402,"is_reserved":false,"is_disabled":false,"rental_uris":{"android":"levelo://app?vid=9ab5ace0-8017-4962-bfbe-7f25ecb9ed31","ios":"levelo://app?vid=9ab5ace0-8017-4962-bfbe-7f25ecb9ed31"},"vehicle_type_id":"4","last_reported":1719598228,"current_range_meters":26000,"station_id":"ce4bhbp2rcd13ifvqesg","pricing_plan_id":"cebpf4jnsgd1na2vs0mg"},{"bike_id":"4f7ad211-44c1-4818-8692-f71bf5f58450","system_id":"levelo_inurba_marseille","lat":43.292749,"lon":5.368402,"is_reserved":false,"is_disabled":false,"rental_uris":{"android":"levelo://app?vid=4f7ad211-44c1-4818-8692-f71bf5f58450","ios":"levelo://app?vid=4f7ad211-44c1-4818-8692-f71bf5f58450"},"vehicle_type_id":"4","last_reported":1719598228,"current_range_meters":8800,"station_id":"ce4bhbp2rcd13ifvqesg","pricing_plan_id":"cebpf4jnsgd1na2vs0mg"},{"bike_id":"982c721b-be52-4e84-9ed2-f501bd50b032","system_id":"levelo_inurba_marseille","lat":43.29303,"lon":5.37172,"is_reserved":false,"is_disabled":false,"rental_uris":{"android":"levelo://app?vid=982c721b-be52-4e84-9ed2-f501bd50b032","ios":"levelo://app?vid=982c721b-be52-4e84-9ed2-f501bd50b032"},"vehicle_type_id":"4","last_reported":1719598228,"current_range_meters":3200,"station_id":"ce4bgh92rcd13ifvqb40","pricing_plan_id":"cebpf4jnsgd1na2vs0mg"},{"bike_id":"186e61b2-857f-4a8d-9a29-dc96c0d5abf7","system_id":"levelo_inurba_marseille","lat":43.292749,"lon":5.368402,"is_reserved":false,"is_disabled":false,"rental_uris":{"android":"levelo://app?vid=186e61b2-857f-4a8d-9a29-dc96c0d5abf7","ios":"levelo://app?vid=186e61b2-857f-4a8d-9a29-dc96c0d5abf7"},"vehicle_type_id":"4","last_reported":1719598228,"current_range_meters":26800,"station_id":"ce4bhbp2rcd13ifvqesg","pricing_plan_id":"cebpf4jnsgd1na2vs0mg"},{"bike_id":"b2fa6556-a076-4639-a4e3-451ca33f4d32","system_id":"levelo_inurba_marseille","lat":43.29274,"lon":5.36838,"is_reserved":false,"is_disabled":false,"rental_uris":{"android":"levelo://app?vid=b2fa6556-a076-4639-a4e3-451ca33f4d32","ios":"levelo://app?vid=b2fa6556-a076-4639-a4e3-451ca33f4d32"},"vehicle_type_id":"4","last_reported":1719598228,"current_range_meters":0,"station_id":"ce4bhbp2rcd13ifvqesg","pricing_plan_id":"cebpf4jnsgd1na2vs0mg"},{"bike_id":"f0e1461c-ad81-41df-9023-4fa12f48cea7","system_id":"levelo_inurba_marseille","lat":43.29274,"lon":5.36841,"is_reserved":false,"is_disabled":false,"rental_uris":{"android":"levelo://app?vid=f0e1461c-ad81-41df-9023-4fa12f48cea7","ios":"levelo://app?vid=f0e1461c-ad81-41df-9023-4fa12f48cea7"},"vehicle_type_id":"4","last_reported":1719598228,"current_range_meters":14000,"station_id":"ce4bhbp2rcd13ifvqesg","pricing_plan_id":"cebpf4jnsgd1na2vs0mg"},{"bike_id":"71eb93af-1a6b-4926-8d22-9b849f7ecd3d","system_id":"levelo_inurba_marseille","lat":43.29273,"lon":5.36841,"is_reserved":false,"is_disabled":false,"rental_uris":{"android":"levelo://app?vid=71eb93af-1a6b-4926-8d22-9b849f7ecd3d","ios":"levelo://app?vid=71eb93af-1a6b-4926-8d22-9b849f7ecd3d"},"vehicle_type_id":"4","last_reported":1719598228,"current_range_meters":22800,"station_id":"ce4bhbp2rcd13ifvqesg","pricing_plan_id":"cebpf4jnsgd1na2vs0mg"},{"bike_id":"d6a5f232-4d7a-449d-b46c-afcff1acaa40","system_id":"levelo_inurba_marseille","lat":43.292749,"lon":5.368402,"is_reserved":false,"is_disabled":false,"rental_uris":{"android":"levelo://app?vid=d6a5f232-4d7a-449d-b46c-afcff1acaa40","ios":"levelo://app?vid=d6a5f232-4d7a-449d-b46c-afcff1acaa40"},"vehicle_type_id":"4","last_reported":1719598228,"current_range_meters":23200,"station_id":"ce4bhbp2rcd13ifvqesg","pricing_plan_id":"cebpf4jnsgd1na2vs0mg"},{"bike_id":"0895c457-94bf-4f3a-ba0f-0b83768b6725","system_id":"levelo_inurba_marseille","lat":43.292749,"lon":5.368402,"is_reserved":false,"is_disabled":false,"rental_uris":{"android":"levelo://app?vid=0895c457-94bf-4f3a-ba0f-0b83768b6725","ios":"levelo://app?vid=0895c457-94bf-4f3a-ba0f-0b83768b6725"},"vehicle_type_id":"4","last_reported":1719598228,"current_range_meters":31200,"station_id":"ce4bhbp2rcd13ifvqesg","pricing_plan_id":"cebpf4jnsgd1na2vs0mg"},{"bike_id":"6a7c0574-59a0-4aae-a38c-39b72095486d","system_id":"levelo_inurba_marseille","lat":43.29269,"lon":5.36844,"is_reserved":false,"is_disabled":false,"rental_uris":{"android":"levelo://app?vid=6a7c0574-59a0-4aae-a38c-39b72095486d","ios":"levelo://app?vid=6a7c0574-59a0-4aae-a38c-39b72095486d"},"vehicle_type_id":"4","last_reported":1719598228,"current_range_meters":31200,"station_id":"ce4bhbp2rcd13ifvqesg","pricing_plan_id":"cebpf4jnsgd1na2vs0mg"},{"bike_id":"b0f1d425-dece-4035-b892-13372c34f7af","system_id":"levelo_inurba_marseille","lat":43.294526,"lon":5.379266,"is_reserved":false,"is_disabled":false,"rental_uris":{"android":"levelo://app?vid=b0f1d425-dece-4035-b892-13372c34f7af","ios":"levelo://app?vid=b0f1d425-dece-4035-b892-13372c34f7af"},"vehicle_type_id":"4","last_reported":1719598228,"current_range_meters":7200,"station_id":"","pricing_plan_id":"cebpf4jnsgd1na2vs0mg"},{"bike_id":"5bef6aae-edf7-4806-9249-9e73b85b9494","system_id":"levelo_inurba_marseille","lat":43.293009,"lon":5.374584,"is_reserved":false,"is_disabled":false,"rental_uris":{"android":"levelo://app?vid=5bef6aae-edf7-4806-9249-9e73b85b9494","ios":"levelo://app?vid=5bef6aae-edf7-4806-9249-9e73b85b9494"},"vehicle_type_id":"4","last_reported":1719598228,"current_range_meters":0,"station_id":"ce4bgi12rcd13ifvqb70","pricing_plan_id":"cebpf4jnsgd1na2vs0mg"},{"bike_id":"a4a74682-3202-46b2-866d-90215388cfd5","system_id":"levelo_inurba_marseille","lat":43.293009,"lon":5.374584,"is_reserved":false,"is_disabled":false,"rental_uris":{"android":"levelo://app?vid=a4a74682-3202-46b2-866d-90215388cfd5","ios":"levelo://app?vid=a4a74682-3202-46b2-866d-90215388cfd5"},"vehicle_type_id":"4","last_reported":1719598228,"current_range_meters":7600,"station_id":"ce4bgi12rcd13ifvqb70","pricing_plan_id":"cebpf4jnsgd1na2vs0mg"},{"bike_id":"9f71e353-fc6b-410b-ae81-bf59ad49eeb7","system_id":"levelo_inurba_marseille","lat":43.293009,"lon":5.374584,"is_reserved":false,"is_disabled":false,"rental_uris":{"android":"levelo://app?vid=9f71e353-fc6b-410b-ae81-bf59ad49eeb7","ios":"levelo://app?vid=9f71e353-fc6b-410b-ae81-bf59ad49eeb7"},"vehicle_type_id":"4","last_reported":1719598228,"current_range_meters":24400,"station_id":"ce4bgi12rcd13ifvqb70","pricing_plan_id":"cebpf4jnsgd1na2vs0mg"},{"bike_id":"26b2c3bf-ec1b-4e34-80b4-497bd173e547","system_id":"levelo_inurba_marseille","lat":43.293009,"lon":5.374584,"is_reserved":false,"is_disabled":false,"rental_uris":{"android":"levelo://app?vid=26b2c3bf-ec1b-4e34-80b4-497bd173e547","ios":"levelo://app?vid=26b2c3bf-ec1b-4e34-80b4-497bd173e547"},"vehicle_type_id":"4","last_reported":1719598228,"current_range_meters":30000,"station_id":"ce4bgi12rcd13ifvqb70","pricing_plan_id":"cebpf4jnsgd1na2vs0mg"},{"bike_id":"9e146ad8-84ca-4a90-bfa0-48616168a851","system_id":"levelo_inurba_marseille","lat":43.305994,"lon":5.393687,"is_reserved":false,"is_disabled":false,"rental_uris":{"android":"levelo://app?vid=9e146ad8-84ca-4a90-bfa0-48616168a851","ios":"levelo://app?vid=9e146ad8-84ca-4a90-bfa0-48616168a851"},"vehicle_type_id":"4","last_reported":1719598228,"current_range_meters":0,"station_id":"ce4bh0p2rcd13ifvqd80","pricing_plan_id":"cebpf4jnsgd1na2vs0mg"},{"bike_id":"33ac25f5-4ecc-42e0-8ed2-126b3cfcbd81","system_id":"levelo_inurba_marseille","lat":43.293009,"lon":5.374584,"is_reserved":false,"is_disabled":false,"rental_uris":{"android":"levelo://app?vid=33ac25f5-4ecc-42e0-8ed2-126b3cfcbd81","ios":"levelo://app?vid=33ac25f5-4ecc-42e0-8ed2-126b3cfcbd81"},"vehicle_type_id":"4","last_reported":1719598228,"current_range_meters":18800,"station_id":"ce4bgi12rcd13ifvqb70","pricing_plan_id":"cebpf4jnsgd1na2vs0mg"},{"bike_id":"761445d7-9635-4c7d-84a4-c1049d035629","system_id":"levelo_inurba_marseille","lat":43.2936,"lon":5.37835,"is_reserved":false,"is_disabled":false,"rental_uris":{"android":"levelo://app?vid=761445d7-9635-4c7d-84a4-c1049d035629","ios":"levelo://app?vid=761445d7-9635-4c7d-84a4-c1049d035629"},"vehicle_type_id":"4","last_reported":1719598228,"current_range_meters":18800,"station_id":"ce4bgjh2rcd13ifvqbf0","pricing_plan_id":"cebpf4jnsgd1na2vs0mg"},{"bike_id":"d278dc9c-8ead-4ace-b724-0bdc255828c0","system_id":"levelo_inurba_marseille","lat":43.2936,"lon":5.37835,"is_reserved":false,"is_disabled":false,"rental_uris":{"android":"levelo://app?vid=d278dc9c-8ead-4ace-b724-0bdc255828c0","ios":"levelo://app?vid=d278dc9c-8ead-4ace-b724-0bdc255828c0"},"vehicle_type_id":"4","last_reported":1719598228,"current_range_meters":16400,"station_id":"ce4bgjh2rcd13ifvqbf0","pricing_plan_id":"cebpf4jnsgd1na2vs0mg"},{"bike_id":"314287f3-4499-4d76-97af-777bc1c56ab4","system_id":"levelo_inurba_marseille","lat":43.2936,"lon":5.37835,"is_reserved":false,"is_disabled":false,"rental_uris":{"android":"levelo://app?vid=314287f3-4499-4d76-97af-777bc1c56ab4","ios":"levelo://app?vid=314287f3-4499-4d76-97af-777bc1c56ab4"},"vehicle_type_id":"4","last_reported":1719598228,"current_range_meters":12400,"station_id":"ce4bgjh2rcd13ifvqbf0","pricing_plan_id":"cebpf4jnsgd1na2vs0mg"},{"bike_id":"353d5ca0-aa5d-4d47-9ed1-cfdcaa99d80a","system_id":"levelo_inurba_marseille","lat":43.2936,"lon":5.37835,"is_reserved":false,"is_disabled":false,"rental_uris":{"android":"levelo://app?vid=353d5ca0-aa5d-4d47-9ed1-cfdcaa99d80a","ios":"levelo://app?vid=353d5ca0-aa5d-4d47-9ed1-cfdcaa99d80a"},"vehicle_type_id":"4","last_reported":1719598228,"current_range_meters":800,"station_id":"ce4bgjh2rcd13ifvqbf0","pricing_plan_id":"cebpf4jnsgd1na2vs0mg"},{"bike_id":"639b7705-7b03-489b-be23-631db5cbd1f7","system_id":"levelo_inurba_marseille","lat":43.2936,"lon":5.37835,"is_reserved":false,"is_disabled":false,"rental_uris":{"android":"levelo://app?vid=639b7705-7b03-489b-be23-631db5cbd1f7","ios":"levelo://app?vid=639b7705-7b03-489b-be23-631db5cbd1f7"},"vehicle_type_id":"4","last_reported":1719598228,"current_range_meters":0,"station_id":"ce4bgjh2rcd13ifvqbf0","pricing_plan_id":"cebpf4jnsgd1na2vs0mg"},{"bike_id":"f156055f-e5da-449e-8bc8-dcffdcfbf5bc","system_id":"levelo_inurba_marseille","lat":43.2936,"lon":5.37835,"is_reserved":false,"is_disabled":false,"rental_uris":{"android":"levelo://app?vid=f156055f-e5da-449e-8bc8-dcffdcfbf5bc","ios":"levelo://app?vid=f156055f-e5da-449e-8bc8-dcffdcfbf5bc"},"vehicle_type_id":"4","last_reported":1719598228,"current_range_meters":4800,"station_id":"ce4bgjh2rcd13ifvqbf0","pricing_plan_id":"cebpf4jnsgd1na2vs0mg"},{"bike_id":"9fe60db1-48eb-4cd4-89fa-d6a95df7a431","system_id":"levelo_inurba_marseille","lat":43.2936,"lon":5.37835,"is_reserved":false,"is_disabled":false,"rental_uris":{"android":"levelo://app?vid=9fe60db1-48eb-4cd4-89fa-d6a95df7a431","ios":"levelo://app?vid=9fe60db1-48eb-4cd4-89fa-d6a95df7a431"},"vehicle_type_id":"4","last_reported":1719598228,"current_range_meters":1200,"station_id":"ce4bgjh2rcd13ifvqbf0","pricing_plan_id":"cebpf4jnsgd1na2vs0mg"},{"bike_id":"6531fb11-77de-4986-89df-862a93d5204b","system_id":"levelo_inurba_marseille","lat":43.2936,"lon":5.37835,"is_reserved":false,"is_disabled":false,"rental_uris":{"android":"levelo://app?vid=6531fb11-77de-4986-89df-862a93d5204b","ios":"levelo://app?vid=6531fb11-77de-4986-89df-862a93d5204b"},"vehicle_type_id":"4","last_reported":1719598228,"current_range_meters":20800,"station_id":"ce4bgjh2rcd13ifvqbf0","pricing_plan_id":"cebpf4jnsgd1na2vs0mg"},{"bike_id":"921df33e-d15e-4d64-8c8d-46678c2bf589","system_id":"levelo_inurba_marseille","lat":43.2936,"lon":5.37835,"is_reserved":false,"is_disabled":false,"rental_uris":{"android":"levelo://app?vid=921df33e-d15e-4d64-8c8d-46678c2bf589","ios":"levelo://app?vid=921df33e-d15e-4d64-8c8d-46678c2bf589"},"vehicle_type_id":"4","last_reported":1719598228,"current_range_meters":0,"station_id":"ce4bgjh2rcd13ifvqbf0","pricing_plan_id":"cebpf4jnsgd1na2vs0mg"},{"bike_id":"f9ce4beb-8bd2-4e69-9550-24773621efa5","system_id":"levelo_inurba_marseille","lat":43.2936,"lon":5.37835,"is_reserved":false,"is_disabled":false,"rental_uris":{"android":"levelo://app?vid=f9ce4beb-8bd2-4e69-9550-24773621efa5","ios":"levelo://app?vid=f9ce4beb-8bd2-4e69-9550-24773621efa5"},"vehicle_type_id":"4","last_reported":1719598228,"current_range_meters":3600,"station_id":"ce4bgjh2rcd13ifvqbf0","pricing_plan_id":"cebpf4jnsgd1na2vs0mg"},{"bike_id":"21ac0fb2-0842-47f1-90db-de6791173669","system_id":"levelo_inurba_marseille","lat":43.292311,"lon":5.360731,"is_reserved":false,"is_disabled":false,"rental_uris":{"android":"levelo://app?vid=21ac0fb2-0842-47f1-90db-de6791173669","ios":"levelo://app?vid=21ac0fb2-0842-47f1-90db-de6791173669"},"vehicle_type_id":"4","last_reported":1719598228,"current_range_meters":15600,"station_id":"ce4bhbh2rcd13ifvqeqg","pricing_plan_id":"cebpf4jnsgd1na2vs0mg"},{"bike_id":"9c8c2cf9-848c-48f1-ab2f-ff5732c753cb","system_id":"levelo_inurba_marseille","lat":43.30085,"lon":5.390856,"is_reserved":false,"is_disabled":false,"rental_uris":{"android":"levelo://app?vid=9c8c2cf9-848c-48f1-ab2f-ff5732c753cb","ios":"levelo://app?vid=9c8c2cf9-848c-48f1-ab2f-ff5732c753cb"},"vehicle_type_id":"4","last_reported":1719598228,"current_range_meters":15200,"station_id":"ce4bh192rcd13ifvqdb0","pricing_plan_id":"cebpf4jnsgd1na2vs0mg"},{"bike_id":"a50effba-e9c2-4a1f-8540-9b5b3afa2425","system_id":"levelo_inurba_marseille","lat":43.292311,"lon":5.360731,"is_reserved":false,"is_disabled":false,"rental_uris":{"android":"levelo://app?vid=a50effba-e9c2-4a1f-8540-9b5b3afa2425","ios":"levelo://app?vid=a50effba-e9c2-4a1f-8540-9b5b3afa2425"},"vehicle_type_id":"4","last_reported":1719598228,"current_range_meters":16400,"station_id":"ce4bhbh2rcd13ifvqeqg","pricing_plan_id":"cebpf4jnsgd1na2vs0mg"},{"bike_id":"ce1bea56-8812-4dd2-862a-29c6bc064397","system_id":"levelo_inurba_marseille","lat":43.30095,"lon":5.39078,"is_reserved":false,"is_disabled":false,"rental_uris":{"android":"levelo://app?vid=ce1bea56-8812-4dd2-862a-29c6bc064397","ios":"levelo://app?vid=ce1bea56-8812-4dd2-862a-29c6bc064397"},"vehicle_type_id":"4","last_reported":1719598228,"current_range_meters":0,"station_id":"ce4bh192rcd13ifvqdb0","pricing_plan_id":"cebpf4jnsgd1na2vs0mg"},{"bike_id":"884d72f2-a5d6-4f5d-9eb6-7122581b603c","system_id":"levelo_inurba_marseille","lat":43.291675,"lon":5.371583,"is_reserved":false,"is_disabled":false,"rental_uris":{"android":"levelo://app?vid=884d72f2-a5d6-4f5d-9eb6-7122581b603c","ios":"levelo://app?vid=884d72f2-a5d6-4f5d-9eb6-7122581b603c"},"vehicle_type_id":"4","last_reported":1719598228,"current_range_meters":1200,"station_id":"ce4bha92rcd13ifvqeh0","pricing_plan_id":"cebpf4jnsgd1na2vs0mg"},{"bike_id":"41e6b3c0-d6d4-47e0-a15d-6c81fd0527e3","system_id":"levelo_inurba_marseille","lat":43.3088,"lon":5.39623,"is_reserved":false,"is_disabled":false,"rental_uris":{"android":"levelo://app?vid=41e6b3c0-d6d4-47e0-a15d-6c81fd0527e3","ios":"levelo://app?vid=41e6b3c0-d6d4-47e0-a15d-6c81fd0527e3"},"vehicle_type_id":"4","last_reported":1719598228,"current_range_meters":12000,"station_id":"ce4bh012rcd13ifvqcv0","pricing_plan_id":"cebpf4jnsgd1na2vs0mg"},{"bike_id":"6812d0a1-1578-4a86-95fb-217efc3229cb","system_id":"levelo_inurba_marseille","lat":43.30881,"lon":5.39624,"is_reserved":false,"is_disabled":false,"rental_uris":{"android":"levelo://app?vid=6812d0a1-1578-4a86-95fb-217efc3229cb","ios":"levelo://app?vid=6812d0a1-1578-4a86-95fb-217efc3229cb"},"vehicle_type_id":"4","last_reported":1719598228,"current_range_meters":14400,"station_id":"ce4bh012rcd13ifvqcv0","pricing_plan_id":"cebpf4jnsgd1na2vs0mg"},{"bike_id":"ed212350-a0f1-4a4d-8043-cddf9a4f4f3a","system_id":"levelo_inurba_marseille","lat":43.29198,"lon":5.358,"is_reserved":false,"is_disabled":false,"rental_uris":{"android":"levelo://app?vid=ed212350-a0f1-4a4d-8043-cddf9a4f4f3a","ios":"levelo://app?vid=ed212350-a0f1-4a4d-8043-cddf9a4f4f3a"},"vehicle_type_id":"4","last_reported":1719598228,"current_range_meters":0,"station_id":"ce4bhb12rcd13ifvqel0","pricing_plan_id":"cebpf4jnsgd1na2vs0mg"},{"bike_id":"484ed06d-7236-4516-994e-13db685d37f3","system_id":"levelo_inurba_marseille","lat":43.309047,"lon":5.396551,"is_reserved":false,"is_disabled":false,"rental_uris":{"android":"levelo://app?vid=484ed06d-7236-4516-994e-13db685d37f3","ios":"levelo://app?vid=484ed06d-7236-4516-994e-13db685d37f3"},"vehicle_type_id":"4","last_reported":1719598228,"current_range_meters":15600,"station_id":"ce4bh012rcd13ifvqcv0","pricing_plan_id":"cebpf4jnsgd1na2vs0mg"},{"bike_id":"7ad2fc54-9a5e-4a5f-9f77-914646a516bf","system_id":"levelo_inurba_marseille","lat":43.309047,"lon":5.396551,"is_reserved":false,"is_disabled":false,"rental_uris":{"android":"levelo://app?vid=7ad2fc54-9a5e-4a5f-9f77-914646a516bf","ios":"levelo://app?vid=7ad2fc54-9a5e-4a5f-9f77-914646a516bf"},"vehicle_type_id":"4","last_reported":1719598228,"current_range_meters":16800,"station_id":"ce4bh012rcd13ifvqcv0","pricing_plan_id":"cebpf4jnsgd1na2vs0mg"},{"bike_id":"9f0b7124-0578-43f6-8fff-b4d7da7ae65f","system_id":"levelo_inurba_marseille","lat":43.29529,"lon":5.385581,"is_reserved":false,"is_disabled":false,"rental_uris":{"android":"levelo://app?vid=9f0b7124-0578-43f6-8fff-b4d7da7ae65f","ios":"levelo://app?vid=9f0b7124-0578-43f6-8fff-b4d7da7ae65f"},"vehicle_type_id":"4","last_reported":1719598228,"current_range_meters":18000,"station_id":"ce4bgih2rcd13ifvqba0","pricing_plan_id":"cebpf4jnsgd1na2vs0mg"},{"bike_id":"572df765-a83d-46b7-8afa-dd861be1b86d","system_id":"levelo_inurba_marseille","lat":43.29529,"lon":5.385581,"is_reserved":false,"is_disabled":false,"rental_uris":{"android":"levelo://app?vid=572df765-a83d-46b7-8afa-dd861be1b86d","ios":"levelo://app?vid=572df765-a83d-46b7-8afa-dd861be1b86d"},"vehicle_type_id":"4","last_reported":1719598228,"current_range_meters":4800,"station_id":"ce4bgih2rcd13ifvqba0","pricing_plan_id":"cebpf4jnsgd1na2vs0mg"},{"bike_id":"e931383e-8b09-4d02-9dc9-6341bf2cab67","system_id":"levelo_inurba_marseille","lat":43.29529,"lon":5.385581,"is_reserved":false,"is_disabled":false,"rental_uris":{"android":"levelo://app?vid=e931383e-8b09-4d02-9dc9-6341bf2cab67","ios":"levelo://app?vid=e931383e-8b09-4d02-9dc9-6341bf2cab67"},"vehicle_type_id":"4","last_reported":1719598228,"current_range_meters":6400,"station_id":"ce4bgih2rcd13ifvqba0","pricing_plan_id":"cebpf4jnsgd1na2vs0mg"},{"bike_id":"edee9b81-d143-4728-a189-c632962b6aa7","system_id":"levelo_inurba_marseille","lat":43.29529,"lon":5.385581,"is_reserved":false,"is_disabled":false,"rental_uris":{"android":"levelo://app?vid=edee9b81-d143-4728-a189-c632962b6aa7","ios":"levelo://app?vid=edee9b81-d143-4728-a189-c632962b6aa7"},"vehicle_type_id":"4","last_reported":1719598228,"current_range_meters":31200,"station_id":"ce4bgih2rcd13ifvqba0","pricing_plan_id":"cebpf4jnsgd1na2vs0mg"},{"bike_id":"05285fea-2a10-4df9-b0f7-52c417c5a8c8","system_id":"levelo_inurba_marseille","lat":43.29529,"lon":5.385581,"is_reserved":false,"is_disabled":false,"rental_uris":{"android":"levelo://app?vid=05285fea-2a10-4df9-b0f7-52c417c5a8c8","ios":"levelo://app?vid=05285fea-2a10-4df9-b0f7-52c417c5a8c8"},"vehicle_type_id":"4","last_reported":1719598228,"current_range_meters":31600,"station_id":"ce4bgih2rcd13ifvqba0","pricing_plan_id":"cebpf4jnsgd1na2vs0mg"},{"bike_id":"f12d6879-5a70-4cde-ab73-e3d7b013d983","system_id":"levelo_inurba_marseille","lat":43.29529,"lon":5.385581,"is_reserved":false,"is_disabled":false,"rental_uris":{"android":"levelo://app?vid=f12d6879-5a70-4cde-ab73-e3d7b013d983","ios":"levelo://app?vid=f12d6879-5a70-4cde-ab73-e3d7b013d983"},"vehicle_type_id":"4","last_reported":1719598228,"current_range_meters":6800,"station_id":"ce4bgih2rcd13ifvqba0","pricing_plan_id":"cebpf4jnsgd1na2vs0mg"},{"bike_id":"88703ac6-16e7-4757-8628-0a65dce0037b","system_id":"levelo_inurba_marseille","lat":43.29529,"lon":5.385581,"is_reserved":false,"is_disabled":false,"rental_uris":{"android":"levelo://app?vid=88703ac6-16e7-4757-8628-0a65dce0037b","ios":"levelo://app?vid=88703ac6-16e7-4757-8628-0a65dce0037b"},"vehicle_type_id":"4","last_reported":1719598228,"current_range_meters":3200,"station_id":"ce4bgih2rcd13ifvqba0","pricing_plan_id":"cebpf4jnsgd1na2vs0mg"},{"bike_id":"4fe0a57c-14f3-4282-a236-5a255a8d3a6b","system_id":"levelo_inurba_marseille","lat":43.29529,"lon":5.385581,"is_reserved":false,"is_disabled":false,"rental_uris":{"android":"levelo://app?vid=4fe0a57c-14f3-4282-a236-5a255a8d3a6b","ios":"levelo://app?vid=4fe0a57c-14f3-4282-a236-5a255a8d3a6b"},"vehicle_type_id":"4","last_reported":1719598228,"current_range_meters":27600,"station_id":"ce4bgih2rcd13ifvqba0","pricing_plan_id":"cebpf4jnsgd1na2vs0mg"},{"bike_id":"caf7497d-0ef7-49bc-b707-8a0749072a43","system_id":"levelo_inurba_marseille","lat":43.29529,"lon":5.385581,"is_reserved":false,"is_disabled":false,"rental_uris":{"android":"levelo://app?vid=caf7497d-0ef7-49bc-b707-8a0749072a43","ios":"levelo://app?vid=caf7497d-0ef7-49bc-b707-8a0749072a43"},"vehicle_type_id":"4","last_reported":1719598228,"current_range_meters":31200,"station_id":"ce4bgih2rcd13ifvqba0","pricing_plan_id":"cebpf4jnsgd1na2vs0mg"},{"bike_id":"e90689ad-8210-40ef-aca2-694bcd1adc29","system_id":"levelo_inurba_marseille","lat":43.29529,"lon":5.385581,"is_reserved":false,"is_disabled":false,"rental_uris":{"android":"levelo://app?vid=e90689ad-8210-40ef-aca2-694bcd1adc29","ios":"levelo://app?vid=e90689ad-8210-40ef-aca2-694bcd1adc29"},"vehicle_type_id":"4","last_reported":1719598228,"current_range_meters":9200,"station_id":"ce4bgih2rcd13ifvqba0","pricing_plan_id":"cebpf4jnsgd1na2vs0mg"},{"bike_id":"03d7ad3e-6d75-4c37-879b-d3a40d1f57d3","system_id":"levelo_inurba_marseille","lat":43.29529,"lon":5.385581,"is_reserved":false,"is_disabled":false,"rental_uris":{"android":"levelo://app?vid=03d7ad3e-6d75-4c37-879b-d3a40d1f57d3","ios":"levelo://app?vid=03d7ad3e-6d75-4c37-879b-d3a40d1f57d3"},"vehicle_type_id":"4","last_reported":1719598228,"current_range_meters":12000,"station_id":"ce4bgih2rcd13ifvqba0","pricing_plan_id":"cebpf4jnsgd1na2vs0mg"},{"bike_id":"310a9e75-324b-4b78-a672-f3abc1dcbb2b","system_id":"levelo_inurba_marseille","lat":43.29529,"lon":5.385581,"is_reserved":false,"is_disabled":false,"rental_uris":{"android":"levelo://app?vid=310a9e75-324b-4b78-a672-f3abc1dcbb2b","ios":"levelo://app?vid=310a9e75-324b-4b78-a672-f3abc1dcbb2b"},"vehicle_type_id":"4","last_reported":1719598228,"current_range_meters":6400,"station_id":"ce4bgih2rcd13ifvqba0","pricing_plan_id":"cebpf4jnsgd1na2vs0mg"},{"bike_id":"ec1d062a-2e4b-4475-ae91-571c409a5a96","system_id":"levelo_inurba_marseille","lat":43.29529,"lon":5.385581,"is_reserved":false,"is_disabled":false,"rental_uris":{"android":"levelo://app?vid=ec1d062a-2e4b-4475-ae91-571c409a5a96","ios":"levelo://app?vid=ec1d062a-2e4b-4475-ae91-571c409a5a96"},"vehicle_type_id":"4","last_reported":1719598228,"current_range_meters":24000,"station_id":"ce4bgih2rcd13ifvqba0","pricing_plan_id":"cebpf4jnsgd1na2vs0mg"},{"bike_id":"6752edb0-b69d-446e-a46f-0d10ce85c12f","system_id":"levelo_inurba_marseille","lat":43.290624,"lon":5.359245,"is_reserved":false,"is_disabled":false,"rental_uris":{"android":"levelo://app?vid=6752edb0-b69d-446e-a46f-0d10ce85c12f","ios":"levelo://app?vid=6752edb0-b69d-446e-a46f-0d10ce85c12f"},"vehicle_type_id":"4","last_reported":1719598228,"current_range_meters":26400,"station_id":"ce4bha92rcd13ifvqeg0","pricing_plan_id":"cebpf4jnsgd1na2vs0mg"},{"bike_id":"28409983-0580-4e2b-a53e-9b090d924b02","system_id":"levelo_inurba_marseille","lat":43.302008,"lon":5.394694,"is_reserved":false,"is_disabled":false,"rental_uris":{"android":"levelo://app?vid=28409983-0580-4e2b-a53e-9b090d924b02","ios":"levelo://app?vid=28409983-0580-4e2b-a53e-9b090d924b02"},"vehicle_type_id":"4","last_reported":1719598228,"current_range_meters":22000,"station_id":"ce4bh0p2rcd13ifvqd70","pricing_plan_id":"cebpf4jnsgd1na2vs0mg"},{"bike_id":"fee29db5-de56-463c-809f-b979313569b6","system_id":"levelo_inurba_marseille","lat":43.302008,"lon":5.394694,"is_reserved":false,"is_disabled":false,"rental_uris":{"android":"levelo://app?vid=fee29db5-de56-463c-809f-b979313569b6","ios":"levelo://app?vid=fee29db5-de56-463c-809f-b979313569b6"},"vehicle_type_id":"4","last_reported":1719598228,"current_range_meters":1200,"station_id":"ce4bh0p2rcd13ifvqd70","pricing_plan_id":"cebpf4jnsgd1na2vs0mg"},{"bike_id":"ea1fcc45-9d44-4a3e-9d1c-f3190411ef9d","system_id":"levelo_inurba_marseille","lat":43.290624,"lon":5.359245,"is_reserved":false,"is_disabled":false,"rental_uris":{"android":"levelo://app?vid=ea1fcc45-9d44-4a3e-9d1c-f3190411ef9d","ios":"levelo://app?vid=ea1fcc45-9d44-4a3e-9d1c-f3190411ef9d"},"vehicle_type_id":"4","last_reported":1719598228,"current_range_meters":21200,"station_id":"ce4bha92rcd13ifvqeg0","pricing_plan_id":"cebpf4jnsgd1na2vs0mg"},{"bike_id":"cf1089c6-bee0-437f-91a7-b5963ee28631","system_id":"levelo_inurba_marseille","lat":43.309047,"lon":5.396551,"is_reserved":false,"is_disabled":false,"rental_uris":{"android":"levelo://app?vid=cf1089c6-bee0-437f-91a7-b5963ee28631","ios":"levelo://app?vid=cf1089c6-bee0-437f-91a7-b5963ee28631"},"vehicle_type_id":"4","last_reported":1719598228,"current_range_meters":3200,"station_id":"ce4bh012rcd13ifvqcv0","pricing_plan_id":"cebpf4jnsgd1na2vs0mg"},{"bike_id":"f5b0f49f-8dd3-4af1-b657-0b09627b471f","system_id":"levelo_inurba_marseille","lat":43.2923,"lon":5.3819,"is_reserved":false,"is_disabled":false,"rental_uris":{"android":"levelo://app?vid=f5b0f49f-8dd3-4af1-b657-0b09627b471f","ios":"levelo://app?vid=f5b0f49f-8dd3-4af1-b657-0b09627b471f"},"vehicle_type_id":"4","last_reported":1719598228,"current_range_meters":18400,"station_id":"","pricing_plan_id":"cebpf4jnsgd1na2vs0mg"},{"bike_id":"4fa1c0e0-b037-48e3-afec-49a154bd68fa","system_id":"levelo_inurba_marseille","lat":43.294153,"lon":5.386305,"is_reserved":false,"is_disabled":false,"rental_uris":{"android":"levelo://app?vid=4fa1c0e0-b037-48e3-afec-49a154bd68fa","ios":"levelo://app?vid=4fa1c0e0-b037-48e3-afec-49a154bd68fa"},"vehicle_type_id":"4","last_reported":1719598228,"current_range_meters":0,"station_id":"ce4bh2h2rcd13ifvqdh0","pricing_plan_id":"cebpf4jnsgd1na2vs0mg"},{"bike_id":"3af68335-1079-4949-81e1-9db4d2d9cdf7","system_id":"levelo_inurba_marseille","lat":43.290319,"lon":5.375732,"is_reserved":false,"is_disabled":false,"rental_uris":{"android":"levelo://app?vid=3af68335-1079-4949-81e1-9db4d2d9cdf7","ios":"levelo://app?vid=3af68335-1079-4949-81e1-9db4d2d9cdf7"},"vehicle_type_id":"4","last_reported":1719598228,"current_range_meters":0,"station_id":"ce4bh692rcd13ifvqe90","pricing_plan_id":"cebpf4jnsgd1na2vs0mg"},{"bike_id":"2add5053-a43e-45fb-8527-71130ced8c81","system_id":"levelo_inurba_marseille","lat":43.294153,"lon":5.386305,"is_reserved":false,"is_disabled":false,"rental_uris":{"android":"levelo://app?vid=2add5053-a43e-45fb-8527-71130ced8c81","ios":"levelo://app?vid=2add5053-a43e-45fb-8527-71130ced8c81"},"vehicle_type_id":"4","last_reported":1719598228,"current_range_meters":4800,"station_id":"ce4bh2h2rcd13ifvqdh0","pricing_plan_id":"cebpf4jnsgd1na2vs0mg"},{"bike_id":"53bf186f-0150-449e-ae11-5ff04122f42b","system_id":"levelo_inurba_marseille","lat":43.29422,"lon":5.38626,"is_reserved":false,"is_disabled":false,"rental_uris":{"android":"levelo://app?vid=53bf186f-0150-449e-ae11-5ff04122f42b","ios":"levelo://app?vid=53bf186f-0150-449e-ae11-5ff04122f42b"},"vehicle_type_id":"4","last_reported":1719598228,"current_range_meters":17600,"station_id":"ce4bh2h2rcd13ifvqdh0","pricing_plan_id":"cebpf4jnsgd1na2vs0mg"},{"bike_id":"9b15d185-c47a-4286-b248-581bf61ebd09","system_id":"levelo_inurba_marseille","lat":43.294153,"lon":5.386305,"is_reserved":false,"is_disabled":false,"rental_uris":{"android":"levelo://app?vid=9b15d185-c47a-4286-b248-581bf61ebd09","ios":"levelo://app?vid=9b15d185-c47a-4286-b248-581bf61ebd09"},"vehicle_type_id":"4","last_reported":1719598228,"current_range_meters":16000,"station_id":"ce4bh2h2rcd13ifvqdh0","pricing_plan_id":"cebpf4jnsgd1na2vs0mg"},{"bike_id":"33dd1695-cee7-471a-a381-ab6b33d5313e","system_id":"levelo_inurba_marseille","lat":43.2942,"lon":5.38625,"is_reserved":false,"is_disabled":false,"rental_uris":{"android":"levelo://app?vid=33dd1695-cee7-471a-a381-ab6b33d5313e","ios":"levelo://app?vid=33dd1695-cee7-471a-a381-ab6b33d5313e"},"vehicle_type_id":"4","last_reported":1719598228,"current_range_meters":14400,"station_id":"ce4bh2h2rcd13ifvqdh0","pricing_plan_id":"cebpf4jnsgd1na2vs0mg"},{"bike_id":"3488ad98-92ca-43a4-b271-f15ef6cfeae4","system_id":"levelo_inurba_marseille","lat":43.294112,"lon":5.386142,"is_reserved":false,"is_disabled":false,"rental_uris":{"android":"levelo://app?vid=3488ad98-92ca-43a4-b271-f15ef6cfeae4","ios":"levelo://app?vid=3488ad98-92ca-43a4-b271-f15ef6cfeae4"},"vehicle_type_id":"4","last_reported":1719598228,"current_range_meters":0,"station_id":"ce4bh2h2rcd13ifvqdh0","pricing_plan_id":"cebpf4jnsgd1na2vs0mg"},{"bike_id":"af1ab136-9943-488d-b33f-238eb2b7df82","system_id":"levelo_inurba_marseille","lat":43.29415,"lon":5.38623,"is_reserved":false,"is_disabled":false,"rental_uris":{"android":"levelo://app?vid=af1ab136-9943-488d-b33f-238eb2b7df82","ios":"levelo://app?vid=af1ab136-9943-488d-b33f-238eb2b7df82"},"vehicle_type_id":"4","last_reported":1719598228,"current_range_meters":6800,"station_id":"ce4bh2h2rcd13ifvqdh0","pricing_plan_id":"cebpf4jnsgd1na2vs0mg"},{"bike_id":"8b45e6ed-fd9c-41a4-a4cb-2c04ced57aef","system_id":"levelo_inurba_marseille","lat":43.29415,"lon":5.38624,"is_reserved":false,"is_disabled":false,"rental_uris":{"android":"levelo://app?vid=8b45e6ed-fd9c-41a4-a4cb-2c04ced57aef","ios":"levelo://app?vid=8b45e6ed-fd9c-41a4-a4cb-2c04ced57aef"},"vehicle_type_id":"4","last_reported":1719598228,"current_range_meters":21200,"station_id":"ce4bh2h2rcd13ifvqdh0","pricing_plan_id":"cebpf4jnsgd1na2vs0mg"},{"bike_id":"4ce7a8da-97ec-4674-8989-f0e636cd7651","system_id":"levelo_inurba_marseille","lat":43.29414,"lon":5.38625,"is_reserved":false,"is_disabled":false,"rental_uris":{"android":"levelo://app?vid=4ce7a8da-97ec-4674-8989-f0e636cd7651","ios":"levelo://app?vid=4ce7a8da-97ec-4674-8989-f0e636cd7651"},"vehicle_type_id":"4","last_reported":1719598228,"current_range_meters":4800,"station_id":"ce4bh2h2rcd13ifvqdh0","pricing_plan_id":"cebpf4jnsgd1na2vs0mg"},{"bike_id":"1ca48cd0-d4af-46ab-bf45-fb23ae587f8b","system_id":"levelo_inurba_marseille","lat":43.29415,"lon":5.38627,"is_reserved":false,"is_disabled":false,"rental_uris":{"android":"levelo://app?vid=1ca48cd0-d4af-46ab-bf45-fb23ae587f8b","ios":"levelo://app?vid=1ca48cd0-d4af-46ab-bf45-fb23ae587f8b"},"vehicle_type_id":"4","last_reported":1719598228,"current_range_meters":22400,"station_id":"ce4bh2h2rcd13ifvqdh0","pricing_plan_id":"cebpf4jnsgd1na2vs0mg"},{"bike_id":"05b992ca-081d-4db8-9e8d-a8bcb4379c14","system_id":"levelo_inurba_marseille","lat":43.294101,"lon":5.386202,"is_reserved":false,"is_disabled":false,"rental_uris":{"android":"levelo://app?vid=05b992ca-081d-4db8-9e8d-a8bcb4379c14","ios":"levelo://app?vid=05b992ca-081d-4db8-9e8d-a8bcb4379c14"},"vehicle_type_id":"4","last_reported":1719598228,"current_range_meters":14000,"station_id":"ce4bh2h2rcd13ifvqdh0","pricing_plan_id":"cebpf4jnsgd1na2vs0mg"},{"bike_id":"696bcae9-2e0a-48ee-b994-17d82a2be0f0","system_id":"levelo_inurba_marseille","lat":43.29415,"lon":5.3863,"is_reserved":false,"is_disabled":false,"rental_uris":{"android":"levelo://app?vid=696bcae9-2e0a-48ee-b994-17d82a2be0f0","ios":"levelo://app?vid=696bcae9-2e0a-48ee-b994-17d82a2be0f0"},"vehicle_type_id":"4","last_reported":1719598228,"current_range_meters":23200,"station_id":"ce4bh2h2rcd13ifvqdh0","pricing_plan_id":"cebpf4jnsgd1na2vs0mg"},{"bike_id":"edfdcfb5-a530-452e-a5db-60fb3f41ef9b","system_id":"levelo_inurba_marseille","lat":43.290319,"lon":5.375732,"is_reserved":false,"is_disabled":false,"rental_uris":{"android":"levelo://app?vid=edfdcfb5-a530-452e-a5db-60fb3f41ef9b","ios":"levelo://app?vid=edfdcfb5-a530-452e-a5db-60fb3f41ef9b"},"vehicle_type_id":"4","last_reported":1719598228,"current_range_meters":29200,"station_id":"ce4bh692rcd13ifvqe90","pricing_plan_id":"cebpf4jnsgd1na2vs0mg"},{"bike_id":"bcd5aab8-bbaf-42b2-ac71-1ddb1cbadac3","system_id":"levelo_inurba_marseille","lat":43.289184,"lon":5.366408,"is_reserved":false,"is_disabled":false,"rental_uris":{"android":"levelo://app?vid=bcd5aab8-bbaf-42b2-ac71-1ddb1cbadac3","ios":"levelo://app?vid=bcd5aab8-bbaf-42b2-ac71-1ddb1cbadac3"},"vehicle_type_id":"4","last_reported":1719598228,"current_range_meters":10000,"station_id":"ce4bhap2rcd13ifvqek0","pricing_plan_id":"cebpf4jnsgd1na2vs0mg"},{"bike_id":"7bc57c94-ea92-4a37-a9ca-fc9c287f07e2","system_id":"levelo_inurba_marseille","lat":43.29412,"lon":5.38628,"is_reserved":false,"is_disabled":false,"rental_uris":{"android":"levelo://app?vid=7bc57c94-ea92-4a37-a9ca-fc9c287f07e2","ios":"levelo://app?vid=7bc57c94-ea92-4a37-a9ca-fc9c287f07e2"},"vehicle_type_id":"4","last_reported":1719598228,"current_range_meters":15200,"station_id":"ce4bh2h2rcd13ifvqdh0","pricing_plan_id":"cebpf4jnsgd1na2vs0mg"},{"bike_id":"ebe3cccb-7af2-4ff3-8267-d403867d7bfd","system_id":"levelo_inurba_marseille","lat":43.289184,"lon":5.366408,"is_reserved":false,"is_disabled":false,"rental_uris":{"android":"levelo://app?vid=ebe3cccb-7af2-4ff3-8267-d403867d7bfd","ios":"levelo://app?vid=ebe3cccb-7af2-4ff3-8267-d403867d7bfd"},"vehicle_type_id":"4","last_reported":1719598228,"current_range_meters":16000,"station_id":"ce4bhap2rcd13ifvqek0","pricing_plan_id":"cebpf4jnsgd1na2vs0mg"},{"bike_id":"d82229b7-1899-4558-a219-ba8f5fed3afd","system_id":"levelo_inurba_marseille","lat":43.289184,"lon":5.366408,"is_reserved":false,"is_disabled":false,"rental_uris":{"android":"levelo://app?vid=d82229b7-1899-4558-a219-ba8f5fed3afd","ios":"levelo://app?vid=d82229b7-1899-4558-a219-ba8f5fed3afd"},"vehicle_type_id":"4","last_reported":1719598228,"current_range_meters":11600,"station_id":"ce4bhap2rcd13ifvqek0","pricing_plan_id":"cebpf4jnsgd1na2vs0mg"},{"bike_id":"e926150d-5ac8-49cc-99a4-f6da5f8c83fb","system_id":"levelo_inurba_marseille","lat":43.289184,"lon":5.366408,"is_reserved":false,"is_disabled":false,"rental_uris":{"android":"levelo://app?vid=e926150d-5ac8-49cc-99a4-f6da5f8c83fb","ios":"levelo://app?vid=e926150d-5ac8-49cc-99a4-f6da5f8c83fb"},"vehicle_type_id":"4","last_reported":1719598228,"current_range_meters":7600,"station_id":"ce4bhap2rcd13ifvqek0","pricing_plan_id":"cebpf4jnsgd1na2vs0mg"},{"bike_id":"f7cace25-947e-498a-a4d1-5bf9ccdea174","system_id":"levelo_inurba_marseille","lat":43.289184,"lon":5.366408,"is_reserved":false,"is_disabled":false,"rental_uris":{"android":"levelo://app?vid=f7cace25-947e-498a-a4d1-5bf9ccdea174","ios":"levelo://app?vid=f7cace25-947e-498a-a4d1-5bf9ccdea174"},"vehicle_type_id":"4","last_reported":1719598228,"current_range_meters":27200,"station_id":"ce4bhap2rcd13ifvqek0","pricing_plan_id":"cebpf4jnsgd1na2vs0mg"},{"bike_id":"9303bf6d-5194-44da-842b-b64eb7939526","system_id":"levelo_inurba_marseille","lat":43.289184,"lon":5.366408,"is_reserved":false,"is_disabled":false,"rental_uris":{"android":"levelo://app?vid=9303bf6d-5194-44da-842b-b64eb7939526","ios":"levelo://app?vid=9303bf6d-5194-44da-842b-b64eb7939526"},"vehicle_type_id":"4","last_reported":1719598228,"current_range_meters":6400,"station_id":"ce4bhap2rcd13ifvqek0","pricing_plan_id":"cebpf4jnsgd1na2vs0mg"},{"bike_id":"08f36656-d7be-4d89-883e-2d544716af5d","system_id":"levelo_inurba_marseille","lat":43.289184,"lon":5.366408,"is_reserved":false,"is_disabled":false,"rental_uris":{"android":"levelo://app?vid=08f36656-d7be-4d89-883e-2d544716af5d","ios":"levelo://app?vid=08f36656-d7be-4d89-883e-2d544716af5d"},"vehicle_type_id":"4","last_reported":1719598228,"current_range_meters":6800,"station_id":"ce4bhap2rcd13ifvqek0","pricing_plan_id":"cebpf4jnsgd1na2vs0mg"},{"bike_id":"e586cb5b-e5c3-4274-a68c-7a45baae8b32","system_id":"levelo_inurba_marseille","lat":43.289184,"lon":5.366408,"is_reserved":false,"is_disabled":false,"rental_uris":{"android":"levelo://app?vid=e586cb5b-e5c3-4274-a68c-7a45baae8b32","ios":"levelo://app?vid=e586cb5b-e5c3-4274-a68c-7a45baae8b32"},"vehicle_type_id":"4","last_reported":1719598228,"current_range_meters":0,"station_id":"ce4bhap2rcd13ifvqek0","pricing_plan_id":"cebpf4jnsgd1na2vs0mg"},{"bike_id":"9e5af96a-83f0-43e9-be04-efa7f072f7c4","system_id":"levelo_inurba_marseille","lat":43.294153,"lon":5.386305,"is_reserved":false,"is_disabled":false,"rental_uris":{"android":"levelo://app?vid=9e5af96a-83f0-43e9-be04-efa7f072f7c4","ios":"levelo://app?vid=9e5af96a-83f0-43e9-be04-efa7f072f7c4"},"vehicle_type_id":"4","last_reported":1719598228,"current_range_meters":17200,"station_id":"ce4bh2h2rcd13ifvqdh0","pricing_plan_id":"cebpf4jnsgd1na2vs0mg"},{"bike_id":"153b727f-1887-4422-9cac-2596de7aa760","system_id":"levelo_inurba_marseille","lat":43.289468,"lon":5.363719,"is_reserved":false,"is_disabled":false,"rental_uris":{"android":"levelo://app?vid=153b727f-1887-4422-9cac-2596de7aa760","ios":"levelo://app?vid=153b727f-1887-4422-9cac-2596de7aa760"},"vehicle_type_id":"4","last_reported":1719598228,"current_range_meters":21200,"station_id":"ce4bhc92rcd13ifvqetg","pricing_plan_id":"cebpf4jnsgd1na2vs0mg"},{"bike_id":"a97edc92-fd88-46b6-a230-4b8b7064d727","system_id":"levelo_inurba_marseille","lat":43.289184,"lon":5.366408,"is_reserved":false,"is_disabled":false,"rental_uris":{"android":"levelo://app?vid=a97edc92-fd88-46b6-a230-4b8b7064d727","ios":"levelo://app?vid=a97edc92-fd88-46b6-a230-4b8b7064d727"},"vehicle_type_id":"4","last_reported":1719598228,"current_range_meters":1200,"station_id":"ce4bhap2rcd13ifvqek0","pricing_plan_id":"cebpf4jnsgd1na2vs0mg"},{"bike_id":"53e42017-ebd4-41c9-9789-a88d28f08a4d","system_id":"levelo_inurba_marseille","lat":43.289468,"lon":5.363719,"is_reserved":false,"is_disabled":false,"rental_uris":{"android":"levelo://app?vid=53e42017-ebd4-41c9-9789-a88d28f08a4d","ios":"levelo://app?vid=53e42017-ebd4-41c9-9789-a88d28f08a4d"},"vehicle_type_id":"4","last_reported":1719598228,"current_range_meters":8800,"station_id":"ce4bhc92rcd13ifvqetg","pricing_plan_id":"cebpf4jnsgd1na2vs0mg"},{"bike_id":"511c9210-bfd6-4bfe-a24f-7c9b295861c3","system_id":"levelo_inurba_marseille","lat":43.292644,"lon":5.384257,"is_reserved":false,"is_disabled":false,"rental_uris":{"android":"levelo://app?vid=511c9210-bfd6-4bfe-a24f-7c9b295861c3","ios":"levelo://app?vid=511c9210-bfd6-4bfe-a24f-7c9b295861c3"},"vehicle_type_id":"4","last_reported":1719598228,"current_range_meters":7600,"station_id":"ce4bh692rcd13ifvqea0","pricing_plan_id":"cebpf4jnsgd1na2vs0mg"},{"bike_id":"9b13c1b7-d5da-45b9-8a39-82034ac99503","system_id":"levelo_inurba_marseille","lat":43.304274,"lon":5.397513,"is_reserved":false,"is_disabled":false,"rental_uris":{"android":"levelo://app?vid=9b13c1b7-d5da-45b9-8a39-82034ac99503","ios":"levelo://app?vid=9b13c1b7-d5da-45b9-8a39-82034ac99503"},"vehicle_type_id":"4","last_reported":1719598228,"current_range_meters":800,"station_id":"ce4bh092rcd13ifvqd20","pricing_plan_id":"cebpf4jnsgd1na2vs0mg"},{"bike_id":"6083d0a1-ea14-42bb-a031-d0e0be44a98b","system_id":"levelo_inurba_marseille","lat":43.304296,"lon":5.397513,"is_reserved":false,"is_disabled":false,"rental_uris":{"android":"levelo://app?vid=6083d0a1-ea14-42bb-a031-d0e0be44a98b","ios":"levelo://app?vid=6083d0a1-ea14-42bb-a031-d0e0be44a98b"},"vehicle_type_id":"4","last_reported":1719598228,"current_range_meters":14800,"station_id":"ce4bh092rcd13ifvqd20","pricing_plan_id":"cebpf4jnsgd1na2vs0mg"},{"bike_id":"2d63c584-986f-4585-b300-c956754000eb","system_id":"levelo_inurba_marseille","lat":43.290104,"lon":5.356111,"is_reserved":false,"is_disabled":false,"rental_uris":{"android":"levelo://app?vid=2d63c584-986f-4585-b300-c956754000eb","ios":"levelo://app?vid=2d63c584-986f-4585-b300-c956754000eb"},"vehicle_type_id":"4","last_reported":1719598228,"current_range_meters":0,"station_id":"ce4bhb92rcd13ifvqen0","pricing_plan_id":"cebpf4jnsgd1na2vs0mg"},{"bike_id":"be9e695c-c8b6-4399-bd4d-a6fedd69711d","system_id":"levelo_inurba_marseille","lat":43.29006,"lon":5.3561,"is_reserved":false,"is_disabled":false,"rental_uris":{"android":"levelo://app?vid=be9e695c-c8b6-4399-bd4d-a6fedd69711d","ios":"levelo://app?vid=be9e695c-c8b6-4399-bd4d-a6fedd69711d"},"vehicle_type_id":"4","last_reported":1719598228,"current_range_meters":15600,"station_id":"ce4bhb92rcd13ifvqen0","pricing_plan_id":"cebpf4jnsgd1na2vs0mg"},{"bike_id":"74927e2c-88d6-4917-9c93-778cc9e960b5","system_id":"levelo_inurba_marseille","lat":43.29004,"lon":5.3561,"is_reserved":false,"is_disabled":false,"rental_uris":{"android":"levelo://app?vid=74927e2c-88d6-4917-9c93-778cc9e960b5","ios":"levelo://app?vid=74927e2c-88d6-4917-9c93-778cc9e960b5"},"vehicle_type_id":"4","last_reported":1719598228,"current_range_meters":0,"station_id":"ce4bhb92rcd13ifvqen0","pricing_plan_id":"cebpf4jnsgd1na2vs0mg"},{"bike_id":"a7ca373d-7ed1-4b01-9186-d7c2078d4b92","system_id":"levelo_inurba_marseille","lat":43.290104,"lon":5.356111,"is_reserved":false,"is_disabled":false,"rental_uris":{"android":"levelo://app?vid=a7ca373d-7ed1-4b01-9186-d7c2078d4b92","ios":"levelo://app?vid=a7ca373d-7ed1-4b01-9186-d7c2078d4b92"},"vehicle_type_id":"4","last_reported":1719598228,"current_range_meters":14800,"station_id":"ce4bhb92rcd13ifvqen0","pricing_plan_id":"cebpf4jnsgd1na2vs0mg"},{"bike_id":"d1b2d163-d846-4657-908a-5fd16c0ff29e","system_id":"levelo_inurba_marseille","lat":43.290104,"lon":5.356111,"is_reserved":false,"is_disabled":false,"rental_uris":{"android":"levelo://app?vid=d1b2d163-d846-4657-908a-5fd16c0ff29e","ios":"levelo://app?vid=d1b2d163-d846-4657-908a-5fd16c0ff29e"},"vehicle_type_id":"4","last_reported":1719598228,"current_range_meters":27200,"station_id":"ce4bhb92rcd13ifvqen0","pricing_plan_id":"cebpf4jnsgd1na2vs0mg"},{"bike_id":"2673c9de-7032-4def-a8f9-5498ca83c0ef","system_id":"levelo_inurba_marseille","lat":43.290995,"lon":5.381361,"is_reserved":false,"is_disabled":false,"rental_uris":{"android":"levelo://app?vid=2673c9de-7032-4def-a8f9-5498ca83c0ef","ios":"levelo://app?vid=2673c9de-7032-4def-a8f9-5498ca83c0ef"},"vehicle_type_id":"4","last_reported":1719598228,"current_range_meters":17200,"station_id":"ce4bh512rcd13ifvqe2g","pricing_plan_id":"cebpf4jnsgd1na2vs0mg"},{"bike_id":"032790b6-9b48-4ac2-94f6-2406ab7dce5b","system_id":"levelo_inurba_marseille","lat":43.290995,"lon":5.381361,"is_reserved":false,"is_disabled":false,"rental_uris":{"android":"levelo://app?vid=032790b6-9b48-4ac2-94f6-2406ab7dce5b","ios":"levelo://app?vid=032790b6-9b48-4ac2-94f6-2406ab7dce5b"},"vehicle_type_id":"4","last_reported":1719598228,"current_range_meters":400,"station_id":"ce4bh512rcd13ifvqe2g","pricing_plan_id":"cebpf4jnsgd1na2vs0mg"},{"bike_id":"3d522de9-00de-4ccb-bfe6-6c4a34336bf2","system_id":"levelo_inurba_marseille","lat":43.29784,"lon":5.39331,"is_reserved":false,"is_disabled":false,"rental_uris":{"android":"levelo://app?vid=3d522de9-00de-4ccb-bfe6-6c4a34336bf2","ios":"levelo://app?vid=3d522de9-00de-4ccb-bfe6-6c4a34336bf2"},"vehicle_type_id":"4","last_reported":1719598228,"current_range_meters":28000,"station_id":"chh1huq6cuj3fo74tm60","pricing_plan_id":"cebpf4jnsgd1na2vs0mg"},{"bike_id":"6c009440-b09a-4424-9546-c739a82c2c84","system_id":"levelo_inurba_marseille","lat":43.29785,"lon":5.39333,"is_reserved":false,"is_disabled":false,"rental_uris":{"android":"levelo://app?vid=6c009440-b09a-4424-9546-c739a82c2c84","ios":"levelo://app?vid=6c009440-b09a-4424-9546-c739a82c2c84"},"vehicle_type_id":"4","last_reported":1719598228,"current_range_meters":27600,"station_id":"chh1huq6cuj3fo74tm60","pricing_plan_id":"cebpf4jnsgd1na2vs0mg"},{"bike_id":"d6fdc2f4-4e0d-4bf8-9634-5d6e97b8e523","system_id":"levelo_inurba_marseille","lat":43.30233,"lon":5.39712,"is_reserved":false,"is_disabled":false,"rental_uris":{"android":"levelo://app?vid=d6fdc2f4-4e0d-4bf8-9634-5d6e97b8e523","ios":"levelo://app?vid=d6fdc2f4-4e0d-4bf8-9634-5d6e97b8e523"},"vehicle_type_id":"4","last_reported":1719598228,"current_range_meters":27600,"station_id":"","pricing_plan_id":"cebpf4jnsgd1na2vs0mg"},