{"last_updated":1685660843,"ttl":30,"version":"2.2","data":{"bikes":[{"bike_id":"9806c50b-2795-4aaa-a8bd-d1f7ee7a093b","system_id":"levelo_inurba_marseille","lat":43.31341,"lon":5.367098,"is_reserved":false,"is_disabled":false,"rental_uris":{"android":"levelo://app?vid=9806c50b-2795-4aaa-a8bd-d1f7ee7a093b","ios":"levelo://app?vid=9806c50b-2795-4aaa-a8bd-d1f7ee7a093b"},"vehicle_type_id":"4","last_reported":1685660844,"current_range_meters":28400,"station_id":"ce4bgr92rcd13ifvqc6g","pricing_plan_id":"free"},{"bike_id":"acdfce9c-c44a-44e5-a08c-4ed3cf1e51fa","system_id":"levelo_inurba_marseille","lat":43.31341,"lon":5.367098,"is_reserved":false,"is_disabled":false,"rental_uris":{"android":"levelo://app?vid=acdfce9c-c44a-44e5-a08c-4ed3cf1e51fa","ios":"levelo://app?vid=acdfce9c-c44a-44e5-a08c-4ed3cf1e51fa"},"vehicle_type_id":"4","last_reported":1685660844,"current_range_meters":27600,"station_id":"ce4bgr92rcd13ifvqc6g","pricing_plan_id":"free"},{"bike_id":"4a2c4d1c-7798-4c91-a07f-b53831b35068","system_id":"levelo_inurba_marseille","lat":43.31341,"lon":5.367098,"is_reserved":false,"is_disabled":false,"rental_uris":{"android":"levelo://app?vid=4a2c4d1c-7798-4c91-a07f-b53831b35068","ios":"levelo://app?vid=4a2c4d1c-7798-4c91-a07f-b53831b35068"},"vehicle_type_id":"4","last_reported":1685660844,"current_range_meters":26400,"station_id":"ce4bgr92rcd13ifvqc6g","pricing_plan_id":"free"},{"bike_id":"206c7cdb-9047-48c2-bd6c-b07d6f113ae0","system_id":"levelo_inurba_marseille","lat":43.31341,"lon":5.367098,"is_reserved":false,"is_disabled":false,"rental_uris":{"android":"levelo://app?vid=206c7cdb-9047-48c2-bd6c-b07d6f113ae0","ios":"levelo://app?vid=206c7cdb-9047-48c2-bd6c-b07d6f113ae0"},"vehicle_type_id":"4","last_reported":1685660844,"current_range_meters":26000,"station_id":"ce4bgr92rcd13ifvqc6g","pricing_plan_id":"free"},{"bike_id":"70449bc2-11af-4ddf-8aa8-0dee631c8b7b","system_id":"levelo_inurba_marseille","lat":43.313391,"lon":5.36706,"is_reserved":false,"is_disabled":false,"rental_uris":{"android":"levelo://app?vid=70449bc2-11af-4ddf-8aa8-0dee631c8b7b","ios":"levelo://app?vid=70449bc2-11af-4ddf-8aa8-0dee631c8b7b"},"vehicle_type_id":"4","last_reported":1685660844,"current_range_meters":29600,"station_id":"ce4bgr92rcd13ifvqc6g","pricing_plan_id":"free"},{"bike_id":"a7f49332-048e-4641-85b2-479be30cf272","system_id":"levelo_inurba_marseille","lat":43.31341,"lon":5.367098,"is_reserved":false,"is_disabled":false,"rental_uris":{"android":"levelo://app?vid=a7f49332-048e-4641-85b2-479be30cf272","ios":"levelo://app?vid=a7f49332-048e-4641-85b2-479be30cf272"},"vehicle_type_id":"4","last_reported":1685660844,"current_range_meters":27600,"station_id":"ce4bgr92rcd13ifvqc6g","pricing_plan_id":"free"},{"bike_id":"f876f6a7-7580-4a13-bd89-09591147c079","system_id":"levelo_inurba_marseille","lat":43.31341,"lon":5.367098,"is_reserved":false,"is_disabled":false,"rental_uris":{"android":"levelo://app?vid=f876f6a7-7580-4a13-bd89-09591147c079","ios":"levelo://app?vid=f876f6a7-7580-4a13-bd89-09591147c079"},"vehicle_type_id":"4","last_reported":1685660844,"current_range_meters":29600,"station_id":"ce4bgr92rcd13ifvqc6g","pricing_plan_id":"free"},{"bike_id":"3e8f0699-d53e-499c-b629-e2aabeb4df2b","system_id":"levelo_inurba_marseille","lat":43.313391,"lon":5.36706,"is_reserved":false,"is_disabled":false,"rental_uris":{"android":"levelo://app?vid=3e8f0699-d53e-499c-b629-e2aabeb4df2b","ios":"levelo://app?vid=3e8f0699-d53e-499c-b629-e2aabeb4df2b"},"vehicle_type_id":"4","last_reported":1685660844,"current_range_meters":18400,"station_id":"ce4bgr92rcd13ifvqc6g","pricing_plan_id":"free"},{"bike_id":"608c5d66-9863-47b6-bcfa-26548aefb25d","system_id":"levelo_inurba_marseille","lat":43.31341,"lon":5.367098,"is_reserved":false,"is_disabled":false,"rental_uris":{"android":"levelo://app?vid=608c5d66-9863-47b6-bcfa-26548aefb25d","ios":"levelo://app?vid=608c5d66-9863-47b6-bcfa-26548aefb25d"},"vehicle_type_id":"4","last_reported":1685660844,"current_range_meters":26400,"station_id":"ce4bgr92rcd13ifvqc6g","pricing_plan_id":"free"},{"bike_id":"4565556b-6672-4ac3-b4fb-9271dbf94926","system_id":"levelo_inurba_marseille","lat":43.31341,"lon":5.367098,"is_reserved":false,"is_disabled":false,"rental_uris":{"android":"levelo://app?vid=4565556b-6672-4ac3-b4fb-9271dbf94926","ios":"levelo://app?vid=4565556b-6672-4ac3-b4fb-9271dbf94926"},"vehicle_type_id":"4","last_reported":1685660844,"current_range_meters":28400,"station_id":"ce4bgr92rcd13ifvqc6g","pricing_plan_id":"free"},{"bike_id":"a9091c3a-a543-45d5-8a3a-7d7054c74a2f","system_id":"levelo_inurba_marseille","lat":43.31356,"lon":5.3672,"is_reserved":false,"is_disabled":false,"rental_uris":{"android":"levelo://app?vid=a9091c3a-a543-45d5-8a3a-7d7054c74a2f","ios":"levelo://app?vid=a9091c3a-a543-45d5-8a3a-7d7054c74a2f"},"vehicle_type_id":"4","last_reported":1685660844,"current_range_meters":31200,"station_id":"ce4bgr92rcd13ifvqc6g","pricing_plan_id":"free"},{"bike_id":"c7ecf672-dc80-40f8-8577-024ebcb4c56b","system_id":"levelo_inurba_marseille","lat":43.309076,"lon":5.368465,"is_reserved":false,"is_disabled":false,"rental_uris":{"android":"levelo://app?vid=c7ecf672-dc80-40f8-8577-024ebcb4c56b","ios":"levelo://app?vid=c7ecf672-dc80-40f8-8577-024ebcb4c56b"},"vehicle_type_id":"4","last_reported":1685660844,"current_range_meters":29200,"station_id":"ce4bgn92rcd13ifvqbvg","pricing_plan_id":"free"},{"bike_id":"b86e03bb-7658-4646-b631-8a1ee7425eb1","system_id":"levelo_inurba_marseille","lat":43.314811,"lon":5.373104,"is_reserved":false,"is_disabled":false,"rental_uris":{"android":"levelo://app?vid=b86e03bb-7658-4646-b631-8a1ee7425eb1","ios":"levelo://app?vid=b86e03bb-7658-4646-b631-8a1ee7425eb1"},"vehicle_type_id":"4","last_reported":1685660844,"current_range_meters":27200,"station_id":"ce4bgt12rcd13ifvqcd0","pricing_plan_id":"free"},{"bike_id":"c4f1ff24-9457-4a0e-9363-ddb8b4ac2975","system_id":"levelo_inurba_marseille","lat":43.314811,"lon":5.373103,"is_reserved":false,"is_disabled":false,"rental_uris":{"android":"levelo://app?vid=c4f1ff24-9457-4a0e-9363-ddb8b4ac2975","ios":"levelo://app?vid=c4f1ff24-9457-4a0e-9363-ddb8b4ac2975"},"vehicle_type_id":"4","last_reported":1685660844,"current_range_meters":27600,"station_id":"ce4bgt12rcd13ifvqcd0","pricing_plan_id":"free"},{"bike_id":"e2a88203-2715-465c-a250-37bdfb7df465","system_id":"levelo_inurba_marseille","lat":43.314811,"lon":5.373103,"is_reserved":false,"is_disabled":false,"rental_uris":{"android":"levelo://app?vid=e2a88203-2715-465c-a250-37bdfb7df465","ios":"levelo://app?vid=e2a88203-2715-465c-a250-37bdfb7df465"},"vehicle_type_id":"4","last_reported":1685660844,"current_range_meters":31200,"station_id":"ce4bgt12rcd13ifvqcd0","pricing_plan_id":"free"},{"bike_id":"cc2a0ed4-e4c7-4941-b6ac-ecf4c7639240","system_id":"levelo_inurba_marseille","lat":43.314811,"lon":5.373103,"is_reserved":false,"is_disabled":false,"rental_uris":{"android":"levelo://app?vid=cc2a0ed4-e4c7-4941-b6ac-ecf4c7639240","ios":"levelo://app?vid=cc2a0ed4-e4c7-4941-b6ac-ecf4c7639240"},"vehicle_type_id":"4","last_reported":1685660844,"current_range_meters":0,"station_id":"ce4bgt12rcd13ifvqcd0","pricing_plan_id":"free"},{"bike_id":"b9ec6313-acc9-4014-af82-617f52cca01a","system_id":"levelo_inurba_marseille","lat":43.314811,"lon":5.373103,"is_reserved":false,"is_disabled":false,"rental_uris":{"android":"levelo://app?vid=b9ec6313-acc9-4014-af82-617f52cca01a","ios":"levelo://app?vid=b9ec6313-acc9-4014-af82-617f52cca01a"},"vehicle_type_id":"4","last_reported":1685660844,"current_range_meters":31200,"station_id":"ce4bgt12rcd13ifvqcd0","pricing_plan_id":"free"},{"bike_id":"64a95447-f32f-48d5-aa00-696d7ffea0fa","system_id":"levelo_inurba_marseille","lat":43.314811,"lon":5.373103,"is_reserved":false,"is_disabled":false,"rental_uris":{"android":"levelo://app?vid=64a95447-f32f-48d5-aa00-696d7ffea0fa","ios":"levelo://app?vid=64a95447-f32f-48d5-aa00-696d7ffea0fa"},"vehicle_type_id":"4","last_reported":1685660844,"current_range_meters":23600,"station_id":"ce4bgt12rcd13ifvqcd0","pricing_plan_id":"free"},{"bike_id":"9ca3ae96-5e6c-490e-91a0-9148c2c9f5d3","system_id":"levelo_inurba_marseille","lat":43.314811,"lon":5.373103,"is_reserved":false,"is_disabled":false,"rental_uris":{"android":"levelo://app?vid=9ca3ae96-5e6c-490e-91a0-9148c2c9f5d3","ios":"levelo://app?vid=9ca3ae96-5e6c-490e-91a0-9148c2c9f5d3"},"vehicle_type_id":"4","last_reported":1685660844,"current_range_meters":31200,"station_id":"ce4bgt12rcd13ifvqcd0","pricing_plan_id":"free"},{"bike_id":"565fdc60-a9fc-4d59-a67d-f27aff90f713","system_id":"levelo_inurba_marseille","lat":43.314811,"lon":5.373103,"is_reserved":false,"is_disabled":false,"rental_uris":{"android":"levelo://app?vid=565fdc60-a9fc-4d59-a67d-f27aff90f713","ios":"levelo://app?vid=565fdc60-a9fc-4d59-a67d-f27aff90f713"},"vehicle_type_id":"4","last_reported":1685660844,"current_range_meters":26400,"station_id":"ce4bgt12rcd13ifvqcd0","pricing_plan_id":"free"},{"bike_id":"b2ef43d1-b511-4d35-b0fa-b5efee0616ee","system_id":"levelo_inurba_marseille","lat":43.314811,"lon":5.373103,"is_reserved":false,"is_disabled":false,"rental_uris":{"android":"levelo://app?vid=b2ef43d1-b511-4d35-b0fa-b5efee0616ee","ios":"levelo://app?vid=b2ef43d1-b511-4d35-b0fa-b5efee0616ee"},"vehicle_type_id":"4","last_reported":1685660844,"current_range_meters":31600,"station_id":"ce4bgt12rcd13ifvqcd0","pricing_plan_id":"free"},{"bike_id":"4d43e892-ec90-4fce-8475-f727fed3851f","system_id":"levelo_inurba_marseille","lat":43.31722,"lon":5.37079,"is_reserved":false,"is_disabled":false,"rental_uris":{"android":"levelo://app?vid=4d43e892-ec90-4fce-8475-f727fed3851f","ios":"levelo://app?vid=4d43e892-ec90-4fce-8475-f727fed3851f"},"vehicle_type_id":"4","last_reported":1685660844,"current_range_meters":11600,"station_id":"","pricing_plan_id":"free"},{"bike_id":"25dae42b-ac4d-4bc8-985f-8affdcef7a9d","system_id":"levelo_inurba_marseille","lat":43.308614,"lon":5.372098,"is_reserved":false,"is_disabled":false,"rental_uris":{"android":"levelo://app?vid=25dae42b-ac4d-4bc8-985f-8affdcef7a9d","ios":"levelo://app?vid=25dae42b-ac4d-4bc8-985f-8affdcef7a9d"},"vehicle_type_id":"4","last_reported":1685660844,"current_range_meters":28800,"station_id":"ce4bguh2rcd13ifvqckg","pricing_plan_id":"free"},{"bike_id":"18db0d00-0212-40a7-94e4-c08d6b90e9d8","system_id":"levelo_inurba_marseille","lat":43.305368,"lon":5.367343,"is_reserved":false,"is_disabled":false,"rental_uris":{"android":"levelo://app?vid=18db0d00-0212-40a7-94e4-c08d6b90e9d8","ios":"levelo://app?vid=18db0d00-0212-40a7-94e4-c08d6b90e9d8"},"vehicle_type_id":"4","last_reported":1685660844,"current_range_meters":15600,"station_id":"ce4bgrp2rcd13ifvqc9g","pricing_plan_id":"free"},{"bike_id":"21c5219f-bb36-41a8-8781-82f3ae456765","system_id":"levelo_inurba_marseille","lat":43.30539,"lon":5.3654,"is_reserved":false,"is_disabled":false,"rental_uris":{"android":"levelo://app?vid=21c5219f-bb36-41a8-8781-82f3ae456765","ios":"levelo://app?vid=21c5219f-bb36-41a8-8781-82f3ae456765"},"vehicle_type_id":"4","last_reported":1685660844,"current_range_meters":26000,"station_id":"","pricing_plan_id":"free"},{"bike_id":"d9911215-6997-4eb4-b424-f4cf5e0c03f1","system_id":"levelo_inurba_marseille","lat":43.30537,"lon":5.36534,"is_reserved":false,"is_disabled":false,"rental_uris":{"android":"levelo://app?vid=d9911215-6997-4eb4-b424-f4cf5e0c03f1","ios":"levelo://app?vid=d9911215-6997-4eb4-b424-f4cf5e0c03f1"},"vehicle_type_id":"4","last_reported":1685660844,"current_range_meters":30400,"station_id":"","pricing_plan_id":"free"},{"bike_id":"6187e028-f614-421d-b986-b10398b9c4f6","system_id":"levelo_inurba_marseille","lat":43.305989,"lon":5.37225,"is_reserved":false,"is_disabled":false,"rental_uris":{"android":"levelo://app?vid=6187e028-f614-421d-b986-b10398b9c4f6","ios":"levelo://app?vid=6187e028-f614-421d-b986-b10398b9c4f6"},"vehicle_type_id":"4","last_reported":1685660844,"current_range_meters":25200,"station_id":"ce4bgqh2rcd13ifvqc4g","pricing_plan_id":"free"},{"bike_id":"3bb6b27b-819e-4986-b559-ec9eda5cd01d","system_id":"levelo_inurba_marseille","lat":43.311125,"lon":5.377624,"is_reserved":false,"is_disabled":false,"rental_uris":{"android":"levelo://app?vid=3bb6b27b-819e-4986-b559-ec9eda5cd01d","ios":"levelo://app?vid=3bb6b27b-819e-4986-b559-ec9eda5cd01d"},"vehicle_type_id":"4","last_reported":1685660844,"current_range_meters":27600,"station_id":"ce4bgt92rcd13ifvqcg0","pricing_plan_id":"free"},{"bike_id":"02acd43f-cf52-4546-adc7-1e61a8305b6e","system_id":"levelo_inurba_marseille","lat":43.317075,"lon":5.377367,"is_reserved":false,"is_disabled":false,"rental_uris":{"android":"levelo://app?vid=02acd43f-cf52-4546-adc7-1e61a8305b6e","ios":"levelo://app?vid=02acd43f-cf52-4546-adc7-1e61a8305b6e"},"vehicle_type_id":"4","last_reported":1685660844,"current_range_meters":26400,"station_id":"ce4bgth2rcd13ifvqch0","pricing_plan_id":"free"},{"bike_id":"4766084f-a2c6-48e4-b018-669b3efaf16a","system_id":"levelo_inurba_marseille","lat":43.317075,"lon":5.377367,"is_reserved":false,"is_disabled":false,"rental_uris":{"android":"levelo://app?vid=4766084f-a2c6-48e4-b018-669b3efaf16a","ios":"levelo://app?vid=4766084f-a2c6-48e4-b018-669b3efaf16a"},"vehicle_type_id":"4","last_reported":1685660844,"current_range_meters":26400,"station_id":"ce4bgth2rcd13ifvqch0","pricing_plan_id":"free"},{"bike_id":"0438951a-b484-47dd-bbb6-22e04f0ed0cd","system_id":"levelo_inurba_marseille","lat":43.317075,"lon":5.377367,"is_reserved":false,"is_disabled":false,"rental_uris":{"android":"levelo://app?vid=0438951a-b484-47dd-bbb6-22e04f0ed0cd","ios":"levelo://app?vid=0438951a-b484-47dd-bbb6-22e04f0ed0cd"},"vehicle_type_id":"4","last_reported":1685660844,"current_range_meters":28400,"station_id":"ce4bgth2rcd13ifvqch0","pricing_plan_id":"free"},{"bike_id":"5e90f1a2-1608-49a9-b45a-5c560239059f","system_id":"levelo_inurba_marseille","lat":43.303046,"lon":5.368981,"is_reserved":false,"is_disabled":false,"rental_uris":{"android":"levelo://app?vid=5e90f1a2-1608-49a9-b45a-5c560239059f","ios":"levelo://app?vid=5e90f1a2-1608-49a9-b45a-5c560239059f"},"vehicle_type_id":"4","last_reported":1685660844,"current_range_meters":20800,"station_id":"ce4bgqh2rcd13ifvqc5g","pricing_plan_id":"free"},{"bike_id":"03f7fa20-1958-4536-ba1f-22a6740ea61b","system_id":"levelo_inurba_marseille","lat":43.303046,"lon":5.368981,"is_reserved":false,"is_disabled":false,"rental_uris":{"android":"levelo://app?vid=03f7fa20-1958-4536-ba1f-22a6740ea61b","ios":"levelo://app?vid=03f7fa20-1958-4536-ba1f-22a6740ea61b"},"vehicle_type_id":"4","last_reported":1685660844,"current_range_meters":5200,"station_id":"ce4bgqh2rcd13ifvqc5g","pricing_plan_id":"free"},{"bike_id":"da368029-0e7e-49fd-9d9d-03ea94556ee3","system_id":"levelo_inurba_marseille","lat":43.303046,"lon":5.368981,"is_reserved":false,"is_disabled":false,"rental_uris":{"android":"levelo://app?vid=da368029-0e7e-49fd-9d9d-03ea94556ee3","ios":"levelo://app?vid=da368029-0e7e-49fd-9d9d-03ea94556ee3"},"vehicle_type_id":"4","last_reported":1685660844,"current_range_meters":11200,"station_id":"ce4bgqh2rcd13ifvqc5g","pricing_plan_id":"free"},{"bike_id":"64668d62-2c56-40da-9e4a-cb84a2c2ea4d","system_id":"levelo_inurba_marseille","lat":43.31002,"lon":5.38021,"is_reserved":false,"is_disabled":false,"rental_uris":{"android":"levelo://app?vid=64668d62-2c56-40da-9e4a-cb84a2c2ea4d","ios":"levelo://app?vid=64668d62-2c56-40da-9e4a-cb84a2c2ea4d"},"vehicle_type_id":"4","last_reported":1685660844,"current_range_meters":3200,"station_id":"","pricing_plan_id":"free"},{"bike_id":"175f7bd7-803c-423f-bfde-1b769727d723","system_id":"levelo_inurba_marseille","lat":43.315293,"lon":5.380349,"is_reserved":false,"is_disabled":false,"rental_uris":{"android":"levelo://app?vid=175f7bd7-803c-423f-bfde-1b769727d723","ios":"levelo://app?vid=175f7bd7-803c-423f-bfde-1b769727d723"},"vehicle_type_id":"4","last_reported":1685660844,"current_range_meters":21200,"station_id":"ce4bhsp2rcd13ifvqi50","pricing_plan_id":"free"},{"bike_id":"91f99a49-5b76-4e77-9bd3-51797f2fd3cc","system_id":"levelo_inurba_marseille","lat":43.315293,"lon":5.380349,"is_reserved":false,"is_disabled":false,"rental_uris":{"android":"levelo://app?vid=91f99a49-5b76-4e77-9bd3-51797f2fd3cc","ios":"levelo://app?vid=91f99a49-5b76-4e77-9bd3-51797f2fd3cc"},"vehicle_type_id":"4","last_reported":1685660844,"current_range_meters":1200,"station_id":"ce4bhsp2rcd13ifvqi50","pricing_plan_id":"free"},{"bike_id":"931e7967-9f85-46e7-92e1-89b13e3e8d6f","system_id":"levelo_inurba_marseille","lat":43.301939,"lon":5.366286,"is_reserved":false,"is_disabled":false,"rental_uris":{"android":"levelo://app?vid=931e7967-9f85-46e7-92e1-89b13e3e8d6f","ios":"levelo://app?vid=931e7967-9f85-46e7-92e1-89b13e3e8d6f"},"vehicle_type_id":"4","last_reported":1685660844,"current_range_meters":0,"station_id":"ce4bgrh2rcd13ifvqc8g","pricing_plan_id":"free"},{"bike_id":"f8309795-c2f1-4ec5-b69d-7b015ef6d142","system_id":"levelo_inurba_marseille","lat":43.32366,"lon":5.36995,"is_reserved":false,"is_disabled":false,"rental_uris":{"android":"levelo://app?vid=f8309795-c2f1-4ec5-b69d-7b015ef6d142","ios":"levelo://app?vid=f8309795-c2f1-4ec5-b69d-7b015ef6d142"},"vehicle_type_id":"4","last_reported":1685660844,"current_range_meters":17200,"station_id":"","pricing_plan_id":"free"},{"bike_id":"8b15c00e-7840-4dda-9494-68ca875d0381","system_id":"levelo_inurba_marseille","lat":43.308012,"lon":5.381511,"is_reserved":false,"is_disabled":false,"rental_uris":{"android":"levelo://app?vid=8b15c00e-7840-4dda-9494-68ca875d0381","ios":"levelo://app?vid=8b15c00e-7840-4dda-9494-68ca875d0381"},"vehicle_type_id":"4","last_reported":1685660844,"current_range_meters":10800,"station_id":"ce4bgt12rcd13ifvqce0","pricing_plan_id":"free"},{"bike_id":"2a3272b5-b37b-492a-b4ec-659e80bd8784","system_id":"levelo_inurba_marseille","lat":43.308041,"lon":5.381501,"is_reserved":false,"is_disabled":false,"rental_uris":{"android":"levelo://app?vid=2a3272b5-b37b-492a-b4ec-659e80bd8784","ios":"levelo://app?vid=2a3272b5-b37b-492a-b4ec-659e80bd8784"},"vehicle_type_id":"4","last_reported":1685660844,"current_range_meters":25200,"station_id":"","pricing_plan_id":"free"},{"bike_id":"8485d2e3-7c88-4f13-ad85-eba4013a347a","system_id":"levelo_inurba_marseille","lat":43.308012,"lon":5.381511,"is_reserved":false,"is_disabled":false,"rental_uris":{"android":"levelo://app?vid=8485d2e3-7c88-4f13-ad85-eba4013a347a","ios":"levelo://app?vid=8485d2e3-7c88-4f13-ad85-eba4013a347a"},"vehicle_type_id":"4","last_reported":1685660844,"current_range_meters":5600,"station_id":"ce4bgt12rcd13ifvqce0","pricing_plan_id":"free"},{"bike_id":"2a1f5e0f-f15a-49b0-bb73-8d8a0b46b4f1","system_id":"levelo_inurba_marseille","lat":43.304606,"lon":5.379026,"is_reserved":false,"is_disabled":false,"rental_uris":{"android":"levelo://app?vid=2a1f5e0f-f15a-49b0-bb73-8d8a0b46b4f1","ios":"levelo://app?vid=2a1f5e0f-f15a-49b0-bb73-8d8a0b46b4f1"},"vehicle_type_id":"4","last_reported":1685660844,"current_range_meters":28000,"station_id":"ce4bgup2rcd13ifvqcn0","pricing_plan_id":"free"},{"bike_id":"a243ce1a-9b8e-44b3-b576-f133339bc316","system_id":"levelo_inurba_marseille","lat":43.3181,"lon":5.38164,"is_reserved":false,"is_disabled":false,"rental_uris":{"android":"levelo://app?vid=a243ce1a-9b8e-44b3-b576-f133339bc316","ios":"levelo://app?vid=a243ce1a-9b8e-44b3-b576-f133339bc316"},"vehicle_type_id":"4","last_reported":1685660844,"current_range_meters":0,"station_id":"","pricing_plan_id":"free"},{"bike_id":"523855f4-fc5f-4801-a53c-75d37fe38ee7","system_id":"levelo_inurba_marseille","lat":43.319935,"lon":5.381699,"is_reserved":false,"is_disabled":false,"rental_uris":{"android":"levelo://app?vid=523855f4-fc5f-4801-a53c-75d37fe38ee7","ios":"levelo://app?vid=523855f4-fc5f-4801-a53c-75d37fe38ee7"},"vehicle_type_id":"4","last_reported":1685660844,"current_range_meters":18400,"station_id":"ce4bhr12rcd13ifvqhpg","pricing_plan_id":"free"},{"bike_id":"b7a28efd-bc25-41ba-814b-ea8712831193","system_id":"levelo_inurba_marseille","lat":43.319935,"lon":5.381699,"is_reserved":false,"is_disabled":false,"rental_uris":{"android":"levelo://app?vid=b7a28efd-bc25-41ba-814b-ea8712831193","ios":"levelo://app?vid=b7a28efd-bc25-41ba-814b-ea8712831193"},"vehicle_type_id":"4","last_reported":1685660844,"current_range_meters":18000,"station_id":"ce4bhr12rcd13ifvqhpg","pricing_plan_id":"free"},{"bike_id":"a90bf54b-3164-494d-a58b-05025f92ac34","system_id":"levelo_inurba_marseille","lat":43.313571,"lon":5.384829,"is_reserved":false,"is_disabled":false,"rental_uris":{"android":"levelo://app?vid=a90bf54b-3164-494d-a58b-05025f92ac34","ios":"levelo://app?vid=a90bf54b-3164-494d-a58b-05025f92ac34"},"vehicle_type_id":"4","last_reported":1685660844,"current_range_meters":23200,"station_id":"ce4bgt92rcd13ifvqcf0","pricing_plan_id":"free"},{"bike_id":"2e860ca3-2532-4ff2-a288-3014514b83a9","system_id":"levelo_inurba_marseille","lat":43.313571,"lon":5.384829,"is_reserved":false,"is_disabled":false,"rental_uris":{"android":"levelo://app?vid=2e860ca3-2532-4ff2-a288-3014514b83a9","ios":"levelo://app?vid=2e860ca3-2532-4ff2-a288-3014514b83a9"},"vehicle_type_id":"4","last_reported":1685660844,"current_range_meters":20800,"station_id":"ce4bgt92rcd13ifvqcf0","pricing_plan_id":"free"},{"bike_id":"72043543-f03f-49f1-b4cb-57afde6e9fcb","system_id":"levelo_inurba_marseille","lat":43.313571,"lon":5.384829,"is_reserved":false,"is_disabled":false,"rental_uris":{"android":"levelo://app?vid=72043543-f03f-49f1-b4cb-57afde6e9fcb","ios":"levelo://app?vid=72043543-f03f-49f1-b4cb-57afde6e9fcb"},"vehicle_type_id":"4","last_reported":1685660844,"current_range_meters":22400,"station_id":"ce4bgt92rcd13ifvqcf0","pricing_plan_id":"free"},{"bike_id":"d3e6572e-041c-493a-86aa-6d964b4345f6","system_id":"levelo_inurba_marseille","lat":43.313571,"lon":5.384829,"is_reserved":false,"is_disabled":false,"rental_uris":{"android":"levelo://app?vid=d3e6572e-041c-493a-86aa-6d964b4345f6","ios":"levelo://app?vid=d3e6572e-041c-493a-86aa-6d964b4345f6"},"vehicle_type_id":"4","last_reported":1685660844,"current_range_meters":20400,"station_id":"ce4bgt92rcd13ifvqcf0","pricing_plan_id":"free"},{"bike_id":"01283503-4d7d-4ae2-ab83-994d7b92fcae","system_id":"levelo_inurba_marseille","lat":43.313571,"lon":5.384829,"is_reserved":false,"is_disabled":false,"rental_uris":{"android":"levelo://app?vid=01283503-4d7d-4ae2-ab83-994d7b92fcae","ios":"levelo://app?vid=01283503-4d7d-4ae2-ab83-994d7b92fcae"},"vehicle_type_id":"4","last_reported":1685660844,"current_range_meters":31200,"station_id":"ce4bgt92rcd13ifvqcf0","pricing_plan_id":"free"},{"bike_id":"d721bc06-b45e-4963-91ec-be2b095f2b59","system_id":"levelo_inurba_marseille","lat":43.299222,"lon":5.365554,"is_reserved":false,"is_disabled":false,"rental_uris":{"android":"levelo://app?vid=d721bc06-b45e-4963-91ec-be2b095f2b59","ios":"levelo://app?vid=d721bc06-b45e-4963-91ec-be2b095f2b59"},"vehicle_type_id":"4","last_reported":1685660844,"current_range_meters":20400,"station_id":"ce4bgm92rcd13ifvqbr0","pricing_plan_id":"free"},{"bike_id":"bcd10815-e949-4b40-9a37-d8e11a3def96","system_id":"levelo_inurba_marseille","lat":43.299243,"lon":5.374807,"is_reserved":false,"is_disabled":false,"rental_uris":{"android":"levelo://app?vid=bcd10815-e949-4b40-9a37-d8e11a3def96","ios":"levelo://app?vid=bcd10815-e949-4b40-9a37-d8e11a3def96"},"vehicle_type_id":"4","last_reported":1685660844,"current_range_meters":400,"station_id":"ce4bgjh2rcd13ifvqbg0","pricing_plan_id":"free"},{"bike_id":"cb47256d-8bc9-476d-8423-b1fb20fba068","system_id":"levelo_inurba_marseille","lat":43.311722,"lon":5.387247,"is_reserved":false,"is_disabled":false,"rental_uris":{"android":"levelo://app?vid=cb47256d-8bc9-476d-8423-b1fb20fba068","ios":"levelo://app?vid=cb47256d-8bc9-476d-8423-b1fb20fba068"},"vehicle_type_id":"4","last_reported":1685660844,"current_range_meters":14800,"station_id":"ce4bgv12rcd13ifvqcp0","pricing_plan_id":"free"},{"bike_id":"8a59415f-303b-4bcc-bec3-b23245eebfbb","system_id":"levelo_inurba_marseille","lat":43.299243,"lon":5.37481,"is_reserved":false,"is_disabled":false,"rental_uris":{"android":"levelo://app?vid=8a59415f-303b-4bcc-bec3-b23245eebfbb","ios":"levelo://app?vid=8a59415f-303b-4bcc-bec3-b23245eebfbb"},"vehicle_type_id":"4","last_reported":1685660844,"current_range_meters":22400,"station_id":"ce4bgjh2rcd13ifvqbg0","pricing_plan_id":"free"},{"bike_id":"75cf1b12-2163-4309-af95-baa455936443","system_id":"levelo_inurba_marseille","lat":43.311722,"lon":5.387247,"is_reserved":false,"is_disabled":false,"rental_uris":{"android":"levelo://app?vid=75cf1b12-2163-4309-af95-baa455936443","ios":"levelo://app?vid=75cf1b12-2163-4309-af95-baa455936443"},"vehicle_type_id":"4","last_reported":1685660844,"current_range_meters":3200,"station_id":"ce4bgv12rcd13ifvqcp0","pricing_plan_id":"free"},{"bike_id":"040160e6-62d7-41ee-b5ce-2a7494fcac7b","system_id":"levelo_inurba_marseille","lat":43.311722,"lon":5.387247,"is_reserved":false,"is_disabled":false,"rental_uris":{"android":"levelo://app?vid=040160e6-62d7-41ee-b5ce-2a7494fcac7b","ios":"levelo://app?vid=040160e6-62d7-41ee-b5ce-2a7494fcac7b"},"vehicle_type_id":"4","last_reported":1685660844,"current_range_meters":4800,"station_id":"ce4bgv12rcd13ifvqcp0","pricing_plan_id":"free"},{"bike_id":"aacdfffe-1c0e-4ddd-9387-9007e5fbf370","system_id":"levelo_inurba_marseille","lat":43.311722,"lon":5.387247,"is_reserved":false,"is_disabled":false,"rental_uris":{"android":"levelo://app?vid=aacdfffe-1c0e-4ddd-9387-9007e5fbf370","ios":"levelo://app?vid=aacdfffe-1c0e-4ddd-9387-9007e5fbf370"},"vehicle_type_id":"4","last_reported":1685660844,"current_range_meters":20400,"station_id":"ce4bgv12rcd13ifvqcp0","pricing_plan_id":"free"},{"bike_id":"9c5ea71c-53ba-4933-905f-8a335c16bea5","system_id":"levelo_inurba_marseille","lat":43.311722,"lon":5.387247,"is_reserved":false,"is_disabled":false,"rental_uris":{"android":"levelo://app?vid=9c5ea71c-53ba-4933-905f-8a335c16bea5","ios":"levelo://app?vid=9c5ea71c-53ba-4933-905f-8a335c16bea5"},"vehicle_type_id":"4","last_reported":1685660844,"current_range_meters":20400,"station_id":"ce4bgv12rcd13ifvqcp0","pricing_plan_id":"free"},{"bike_id":"69ba79cb-aa67-4fff-a861-e85a153160a3","system_id":"levelo_inurba_marseille","lat":43.311722,"lon":5.387247,"is_reserved":false,"is_disabled":false,"rental_uris":{"android":"levelo://app?vid=69ba79cb-aa67-4fff-a861-e85a153160a3","ios":"levelo://app?vid=69ba79cb-aa67-4fff-a861-e85a153160a3"},"vehicle_type_id":"4","last_reported":1685660844,"current_range_meters":1200,"station_id":"ce4bgv12rcd13ifvqcp0","pricing_plan_id":"free"},{"bike_id":"e3ccdfab-5dfa-42f1-a644-ba412ed934ad","system_id":"levelo_inurba_marseille","lat":43.311722,"lon":5.387247,"is_reserved":false,"is_disabled":false,"rental_uris":{"android":"levelo://app?vid=e3ccdfab-5dfa-42f1-a644-ba412ed934ad","ios":"levelo://app?vid=e3ccdfab-5dfa-42f1-a644-ba412ed934ad"},"vehicle_type_id":"4","last_reported":1685660844,"current_range_meters":10000,"station_id":"ce4bgv12rcd13ifvqcp0","pricing_plan_id":"free"},{"bike_id":"95c77e70-6a0c-4421-9e70-3561b62fd6df","system_id":"levelo_inurba_marseille","lat":43.29888,"lon":5.37412,"is_reserved":false,"is_disabled":false,"rental_uris":{"android":"levelo://app?vid=95c77e70-6a0c-4421-9e70-3561b62fd6df","ios":"levelo://app?vid=95c77e70-6a0c-4421-9e70-3561b62fd6df"},"vehicle_type_id":"4","last_reported":1685660844,"current_range_meters":4400,"station_id":"","pricing_plan_id":"free"},{"bike_id":"fb609de8-4a25-4e14-a335-f6a21364c0e6","system_id":"levelo_inurba_marseille","lat":43.311722,"lon":5.387247,"is_reserved":false,"is_disabled":false,"rental_uris":{"android":"levelo://app?vid=fb609de8-4a25-4e14-a335-f6a21364c0e6","ios":"levelo://app?vid=fb609de8-4a25-4e14-a335-f6a21364c0e6"},"vehicle_type_id":"4","last_reported":1685660844,"current_range_meters":21600,"station_id":"ce4bgv12rcd13ifvqcp0","pricing_plan_id":"free"},{"bike_id":"7de22db2-3ad1-4d39-9f99-94cd81d8cdc9","system_id":"levelo_inurba_marseille","lat":43.29711,"lon":5.36597,"is_reserved":false,"is_disabled":false,"rental_uris":{"android":"levelo://app?vid=7de22db2-3ad1-4d39-9f99-94cd81d8cdc9","ios":"levelo://app?vid=7de22db2-3ad1-4d39-9f99-94cd81d8cdc9"},"vehicle_type_id":"4","last_reported":1685660844,"current_range_meters":9200,"station_id":"","pricing_plan_id":"free"},{"bike_id":"20727c43-7945-4fbb-b222-45e2d3f0f712","system_id":"levelo_inurba_marseille","lat":43.297,"lon":5.36604,"is_reserved":false,"is_disabled":false,"rental_uris":{"android":"levelo://app?vid=20727c43-7945-4fbb-b222-45e2d3f0f712","ios":"levelo://app?vid=20727c43-7945-4fbb-b222-45e2d3f0f712"},"vehicle_type_id":"4","last_reported":1685660844,"current_range_meters":8000,"station_id":"","pricing_plan_id":"free"},{"bike_id":"29418387-0b15-4fad-9d82-1fa2fc83ff7b","system_id":"levelo_inurba_marseille","lat":43.317557,"lon":5.390173,"is_reserved":false,"is_disabled":false,"rental_uris":{"android":"levelo://app?vid=29418387-0b15-4fad-9d82-1fa2fc83ff7b","ios":"levelo://app?vid=29418387-0b15-4fad-9d82-1fa2fc83ff7b"},"vehicle_type_id":"4","last_reported":1685660844,"current_range_meters":21600,"station_id":"ce4bhqp2rcd13ifvqhng","pricing_plan_id":"free"},{"bike_id":"e4cd92f6-8ed0-4fe1-8024-89201c5c4dda","system_id":"levelo_inurba_marseille","lat":43.317557,"lon":5.390173,"is_reserved":false,"is_disabled":false,"rental_uris":{"android":"levelo://app?vid=e4cd92f6-8ed0-4fe1-8024-89201c5c4dda","ios":"levelo://app?vid=e4cd92f6-8ed0-4fe1-8024-89201c5c4dda"},"vehicle_type_id":"4","last_reported":1685660844,"current_range_meters":22400,"station_id":"ce4bhqp2rcd13ifvqhng","pricing_plan_id":"free"},{"bike_id":"7dfe5321-8d74-41e0-acb2-f10dfddb8dcb","system_id":"levelo_inurba_marseille","lat":43.32367,"lon":5.388836,"is_reserved":false,"is_disabled":false,"rental_uris":{"android":"levelo://app?vid=7dfe5321-8d74-41e0-acb2-f10dfddb8dcb","ios":"levelo://app?vid=7dfe5321-8d74-41e0-acb2-f10dfddb8dcb"},"vehicle_type_id":"4","last_reported":1685660844,"current_range_meters":11600,"station_id":"ce4bhqp2rcd13ifvqhog","pricing_plan_id":"free"},{"bike_id":"639af06e-3134-4c59-9c80-86cff18b9f58","system_id":"levelo_inurba_marseille","lat":43.32367,"lon":5.388836,"is_reserved":false,"is_disabled":false,"rental_uris":{"android":"levelo://app?vid=639af06e-3134-4c59-9c80-86cff18b9f58","ios":"levelo://app?vid=639af06e-3134-4c59-9c80-86cff18b9f58"},"vehicle_type_id":"4","last_reported":1685660844,"current_range_meters":18000,"station_id":"ce4bhqp2rcd13ifvqhog","pricing_plan_id":"free"},{"bike_id":"c549cb53-ade8-4c52-97ca-1c7625af7e78","system_id":"levelo_inurba_marseille","lat":43.296062,"lon":5.380907,"is_reserved":false,"is_disabled":false,"rental_uris":{"android":"levelo://app?vid=c549cb53-ade8-4c52-97ca-1c7625af7e78","ios":"levelo://app?vid=c549cb53-ade8-4c52-97ca-1c7625af7e78"},"vehicle_type_id":"4","last_reported":1685660844,"current_range_meters":24000,"station_id":"","pricing_plan_id":"free"},{"bike_id":"df852c57-a0a9-46cf-97c2-91523cf66fd1","system_id":"levelo_inurba_marseille","lat":43.29305,"lon":5.37127,"is_reserved":false,"is_disabled":false,"rental_uris":{"android":"levelo://app?vid=df852c57-a0a9-46cf-97c2-91523cf66fd1","ios":"levelo://app?vid=df852c57-a0a9-46cf-97c2-91523cf66fd1"},"vehicle_type_id":"4","last_reported":1685660844,"current_range_meters":10800,"station_id":"","pricing_plan_id":"free"},{"bike_id":"c9058939-6568-496f-a69b-ea60d171582b","system_id":"levelo_inurba_marseille","lat":43.29258,"lon":5.37214,"is_reserved":false,"is_disabled":false,"rental_uris":{"android":"levelo://app?vid=c9058939-6568-496f-a69b-ea60d171582b","ios":"levelo://app?vid=c9058939-6568-496f-a69b-ea60d171582b"},"vehicle_type_id":"4","last_reported":1685660844,"current_range_meters":16800,"station_id":"","pricing_plan_id":"free"},{"bike_id":"5ffdd6af-53da-48db-b06c-e0dd56676d86","system_id":"levelo_inurba_marseille","lat":43.305994,"lon":5.393687,"is_reserved":false,"is_disabled":false,"rental_uris":{"android":"levelo://app?vid=5ffdd6af-53da-48db-b06c-e0dd56676d86","ios":"levelo://app?vid=5ffdd6af-53da-48db-b06c-e0dd56676d86"},"vehicle_type_id":"4","last_reported":1685660844,"current_range_meters":9600,"station_id":"ce4bh0p2rcd13ifvqd80","pricing_plan_id":"free"},{"bike_id":"2e4d894c-a08d-4200-a01e-92ead61c8f26","system_id":"levelo_inurba_marseille","lat":43.305994,"lon":5.393687,"is_reserved":false,"is_disabled":false,"rental_uris":{"android":"levelo://app?vid=2e4d894c-a08d-4200-a01e-92ead61c8f26","ios":"levelo://app?vid=2e4d894c-a08d-4200-a01e-92ead61c8f26"},"vehicle_type_id":"4","last_reported":1685660844,"current_range_meters":30400,"station_id":"ce4bh0p2rcd13ifvqd80","pricing_plan_id":"free"},{"bike_id":"b83c2d29-9efe-4fad-9d94-fda26f975364","system_id":"levelo_inurba_marseille","lat":43.302992,"lon":5.392136,"is_reserved":false,"is_disabled":false,"rental_uris":{"android":"levelo://app?vid=b83c2d29-9efe-4fad-9d94-fda26f975364","ios":"levelo://app?vid=b83c2d29-9efe-4fad-9d94-fda26f975364"},"vehicle_type_id":"4","last_reported":1685660844,"current_range_meters":0,"station_id":"ce4bgkh2rcd13ifvqbk0","pricing_plan_id":"free"},{"bike_id":"e9f4367b-9098-40cc-bbf3-3337a68899a7","system_id":"levelo_inurba_marseille","lat":43.30299,"lon":5.39205,"is_reserved":false,"is_disabled":false,"rental_uris":{"android":"levelo://app?vid=e9f4367b-9098-40cc-bbf3-3337a68899a7","ios":"levelo://app?vid=e9f4367b-9098-40cc-bbf3-3337a68899a7"},"vehicle_type_id":"4","last_reported":1685660844,"current_range_meters":26400,"station_id":"ce4bgkh2rcd13ifvqbk0","pricing_plan_id":"free"},{"bike_id":"bebebe94-222b-4186-9ff7-a83af873d483","system_id":"levelo_inurba_marseille","lat":43.286593,"lon":5.363346,"is_reserved":false,"is_disabled":false,"rental_uris":{"android":"levelo://app?vid=bebebe94-222b-4186-9ff7-a83af873d483","ios":"levelo://app?vid=bebebe94-222b-4186-9ff7-a83af873d483"},"vehicle_type_id":"4","last_reported":1685660844,"current_range_meters":14000,"station_id":"ce4bhah2rcd13ifvqej0","pricing_plan_id":"free"},{"bike_id":"36bbd7cc-dec0-4736-b281-a6f5c564bfdf","system_id":"levelo_inurba_marseille","lat":43.291994,"lon":5.357886,"is_reserved":false,"is_disabled":false,"rental_uris":{"android":"levelo://app?vid=36bbd7cc-dec0-4736-b281-a6f5c564bfdf","ios":"levelo://app?vid=36bbd7cc-dec0-4736-b281-a6f5c564bfdf"},"vehicle_type_id":"4","last_reported":1685660844,"current_range_meters":14000,"station_id":"ce4bhb12rcd13ifvqel0","pricing_plan_id":"free"},{"bike_id":"309cb383-a097-4253-9f0c-54b9b69aac17","system_id":"levelo_inurba_marseille","lat":43.309038,"lon":5.396546,"is_reserved":false,"is_disabled":false,"rental_uris":{"android":"levelo://app?vid=309cb383-a097-4253-9f0c-54b9b69aac17","ios":"levelo://app?vid=309cb383-a097-4253-9f0c-54b9b69aac17"},"vehicle_type_id":"4","last_reported":1685660844,"current_range_meters":2400,"station_id":"ce4bh012rcd13ifvqcv0","pricing_plan_id":"free"},{"bike_id":"9253cc9e-ade2-4c54-a2f2-8c3e0262d8bd","system_id":"levelo_inurba_marseille","lat":43.30875,"lon":5.39636,"is_reserved":false,"is_disabled":false,"rental_uris":{"android":"levelo://app?vid=9253cc9e-ade2-4c54-a2f2-8c3e0262d8bd","ios":"levelo://app?vid=9253cc9e-ade2-4c54-a2f2-8c3e0262d8bd"},"vehicle_type_id":"4","last_reported":1685660844,"current_range_meters":6000,"station_id":"","pricing_plan_id":"free"},{"bike_id":"5a660338-3281-43aa-affc-986af7b1f5e7","system_id":"levelo_inurba_marseille","lat":43.31918,"lon":5.39554,"is_reserved":false,"is_disabled":false,"rental_uris":{"android":"levelo://app?vid=5a660338-3281-43aa-affc-986af7b1f5e7","ios":"levelo://app?vid=5a660338-3281-43aa-affc-986af7b1f5e7"},"vehicle_type_id":"4","last_reported":1685660844,"current_range_meters":6000,"station_id":"","pricing_plan_id":"free"},{"bike_id":"a3864dec-bfae-4729-8513-6a0df424dd84","system_id":"levelo_inurba_marseille","lat":43.31325,"lon":5.39689,"is_reserved":false,"is_disabled":false,"rental_uris":{"android":"levelo://app?vid=a3864dec-bfae-4729-8513-6a0df424dd84","ios":"levelo://app?vid=a3864dec-bfae-4729-8513-6a0df424dd84"},"vehicle_type_id":"4","last_reported":1685660844,"current_range_meters":9600,"station_id":"ce4bgvp2rcd13ifvqcu0","pricing_plan_id":"free"},{"bike_id":"f48668ca-d4ec-426a-ae16-f8c79d8c3443","system_id":"levelo_inurba_marseille","lat":43.31329,"lon":5.39689,"is_reserved":false,"is_disabled":false,"rental_uris":{"android":"levelo://app?vid=f48668ca-d4ec-426a-ae16-f8c79d8c3443","ios":"levelo://app?vid=f48668ca-d4ec-426a-ae16-f8c79d8c3443"},"vehicle_type_id":"4","last_reported":1685660844,"current_range_meters":14400,"station_id":"ce4bgvp2rcd13ifvqcu0","pricing_plan_id":"free"},{"bike_id":"1281d488-915b-4ee2-8f3f-f5bf74d3709a","system_id":"levelo_inurba_marseille","lat":43.31327,"lon":5.3969,"is_reserved":false,"is_disabled":false,"rental_uris":{"android":"levelo://app?vid=1281d488-915b-4ee2-8f3f-f5bf74d3709a","ios":"levelo://app?vid=1281d488-915b-4ee2-8f3f-f5bf74d3709a"},"vehicle_type_id":"4","last_reported":1685660844,"current_range_meters":7600,"station_id":"ce4bgvp2rcd13ifvqcu0","pricing_plan_id":"free"},{"bike_id":"53471054-2822-4184-b4ce-2f9b924d4888","system_id":"levelo_inurba_marseille","lat":43.31326,"lon":5.39692,"is_reserved":false,"is_disabled":false,"rental_uris":{"android":"levelo://app?vid=53471054-2822-4184-b4ce-2f9b924d4888","ios":"levelo://app?vid=53471054-2822-4184-b4ce-2f9b924d4888"},"vehicle_type_id":"4","last_reported":1685660844,"current_range_meters":6400,"station_id":"ce4bgvp2rcd13ifvqcu0","pricing_plan_id":"free"},{"bike_id":"168be0c8-f75b-4c5c-8dc3-70c6c785c00e","system_id":"levelo_inurba_marseille","lat":43.31324,"lon":5.39695,"is_reserved":false,"is_disabled":false,"rental_uris":{"android":"levelo://app?vid=168be0c8-f75b-4c5c-8dc3-70c6c785c00e","ios":"levelo://app?vid=168be0c8-f75b-4c5c-8dc3-70c6c785c00e"},"vehicle_type_id":"4","last_reported":1685660844,"current_range_meters":14800,"station_id":"ce4bgvp2rcd13ifvqcu0","pricing_plan_id":"free"},{"bike_id":"869ca85c-098e-499b-8978-4b1e0ef991e1","system_id":"levelo_inurba_marseille","lat":43.31323,"lon":5.39696,"is_reserved":false,"is_disabled":false,"rental_uris":{"android":"levelo://app?vid=869ca85c-098e-499b-8978-4b1e0ef991e1","ios":"levelo://app?vid=869ca85c-098e-499b-8978-4b1e0ef991e1"},"vehicle_type_id":"4","last_reported":1685660844,"current_range_meters":8800,"station_id":"ce4bgvp2rcd13ifvqcu0","pricing_plan_id":"free"},{"bike_id":"465a2b15-e875-473a-b0a1-300e34872236","system_id":"levelo_inurba_marseille","lat":43.31331,"lon":5.39696,"is_reserved":false,"is_disabled":false,"rental_uris":{"android":"levelo://app?vid=465a2b15-e875-473a-b0a1-300e34872236","ios":"levelo://app?vid=465a2b15-e875-473a-b0a1-300e34872236"},"vehicle_type_id":"4","last_reported":1685660844,"current_range_meters":2000,"station_id":"ce4bgvp2rcd13ifvqcu0","pricing_plan_id":"free"},{"bike_id":"b494c893-d64f-4688-bedb-993319463e5f","system_id":"levelo_inurba_marseille","lat":43.3132,"lon":5.39698,"is_reserved":false,"is_disabled":false,"rental_uris":{"android":"levelo://app?vid=b494c893-d64f-4688-bedb-993319463e5f","ios":"levelo://app?vid=b494c893-d64f-4688-bedb-993319463e5f"},"vehicle_type_id":"4","last_reported":1685660844,"current_range_meters":3200,"station_id":"ce4bgvp2rcd13ifvqcu0","pricing_plan_id":"free"},{"bike_id":"37713633-0c35-4f86-af32-61b58117d3c3","system_id":"levelo_inurba_marseille","lat":43.31327,"lon":5.39698,"is_reserved":false,"is_disabled":false,"rental_uris":{"android":"levelo://app?vid=37713633-0c35-4f86-af32-61b58117d3c3","ios":"levelo://app?vid=37713633-0c35-4f86-af32-61b58117d3c3"},"vehicle_type_id":"4","last_reported":1685660844,"current_range_meters":0,"station_id":"ce4bgvp2rcd13ifvqcu0","pricing_plan_id":"free"},{"bike_id":"54c35c09-8117-48de-a2cb-b1bab30ec19e","system_id":"levelo_inurba_marseille","lat":43.31328,"lon":5.39702,"is_reserved":false,"is_disabled":false,"rental_uris":{"android":"levelo://app?vid=54c35c09-8117-48de-a2cb-b1bab30ec19e","ios":"levelo://app?vid=54c35c09-8117-48de-a2cb-b1bab30ec19e"},"vehicle_type_id":"4","last_reported":1685660844,"current_range_meters":6800,"station_id":"ce4bgvp2rcd13ifvqcu0","pricing_plan_id":"free"},{"bike_id":"4bc073b8-7154-46cb-bc2a-d13a2b041a0a","system_id":"levelo_inurba_marseille","lat":43.29529,"lon":5.385581,"is_reserved":false,"is_disabled":false,"rental_uris":{"android":"levelo://app?vid=4bc073b8-7154-46cb-bc2a-d13a2b041a0a","ios":"levelo://app?vid=4bc073b8-7154-46cb-bc2a-d13a2b041a0a"},"vehicle_type_id":"4","last_reported":1685660844,"current_range_meters":16400,"station_id":"ce4bgih2rcd13ifvqba0","pricing_plan_id":"free"},{"bike_id":"69bc4e05-2881-401a-8e53-77665e00483a","system_id":"levelo_inurba_marseille","lat":43.29077,"lon":5.37144,"is_reserved":false,"is_disabled":false,"rental_uris":{"android":"levelo://app?vid=69bc4e05-2881-401a-8e53-77665e00483a","ios":"levelo://app?vid=69bc4e05-2881-401a-8e53-77665e00483a"},"vehicle_type_id":"4","last_reported":1685660844,"current_range_meters":17200,"station_id":"ce4bh5p2rcd13ifvqe4g","pricing_plan_id":"free"},{"bike_id":"d2559094-4196-444c-a216-94694a08a4c3","system_id":"levelo_inurba_marseille","lat":43.29526,"lon":5.38597,"is_reserved":false,"is_disabled":false,"rental_uris":{"android":"levelo://app?vid=d2559094-4196-444c-a216-94694a08a4c3","ios":"levelo://app?vid=d2559094-4196-444c-a216-94694a08a4c3"},"vehicle_type_id":"4","last_reported":1685660844,"current_range_meters":26800,"station_id":"","pricing_plan_id":"free"},{"bike_id":"a1d588f9-8125-4a8f-9f59-c1cf1bdc5430","system_id":"levelo_inurba_marseille","lat":43.32824,"lon":5.38902,"is_reserved":false,"is_disabled":false,"rental_uris":{"android":"levelo://app?vid=a1d588f9-8125-4a8f-9f59-c1cf1bdc5430","ios":"levelo://app?vid=a1d588f9-8125-4a8f-9f59-c1cf1bdc5430"},"vehicle_type_id":"4","last_reported":1685660844,"current_range_meters":23600,"station_id":"","pricing_plan_id":"free"},{"bike_id":"c4d450a7-f169-410d-863d-7f0fe74f508f","system_id":"levelo_inurba_marseille","lat":43.302008,"lon":5.394694,"is_reserved":false,"is_disabled":false,"rental_uris":{"android":"levelo://app?vid=c4d450a7-f169-410d-863d-7f0fe74f508f","ios":"levelo://app?vid=c4d450a7-f169-410d-863d-7f0fe74f508f"},"vehicle_type_id":"4","last_reported":1685660844,"current_range_meters":19200,"station_id":"ce4bh0p2rcd13ifvqd70","pricing_plan_id":"free"},{"bike_id":"579e69be-40d7-47cb-acd1-1edae31665d2","system_id":"levelo_inurba_marseille","lat":43.290327,"lon":5.375711,"is_reserved":false,"is_disabled":false,"rental_uris":{"android":"levelo://app?vid=579e69be-40d7-47cb-acd1-1edae31665d2","ios":"levelo://app?vid=579e69be-40d7-47cb-acd1-1edae31665d2"},"vehicle_type_id":"4","last_reported":1685660844,"current_range_meters":28000,"station_id":"ce4bh692rcd13ifvqe90","pricing_plan_id":"free"},{"bike_id":"8880b5e2-be2b-483b-927b-3c23e41d6917","system_id":"levelo_inurba_marseille","lat":43.28949,"lon":5.36387,"is_reserved":false,"is_disabled":false,"rental_uris":{"android":"levelo://app?vid=8880b5e2-be2b-483b-927b-3c23e41d6917","ios":"levelo://app?vid=8880b5e2-be2b-483b-927b-3c23e41d6917"},"vehicle_type_id":"4","last_reported":1685660844,"current_range_meters":8000,"station_id":"ce4bhc92rcd13ifvqetg","pricing_plan_id":"free"},{"bike_id":"c88b8a69-f3f9-4652-b409-2e944f1c5095","system_id":"levelo_inurba_marseille","lat":43.289468,"lon":5.363719,"is_reserved":false,"is_disabled":false,"rental_uris":{"android":"levelo://app?vid=c88b8a69-f3f9-4652-b409-2e944f1c5095","ios":"levelo://app?vid=c88b8a69-f3f9-4652-b409-2e944f1c5095"},"vehicle_type_id":"4","last_reported":1685660844,"current_range_meters":13200,"station_id":"ce4bhc92rcd13ifvqetg","pricing_plan_id":"free"},{"bike_id":"3c57f287-026f-4f75-ad51-46ee0641928a","system_id":"levelo_inurba_marseille","lat":43.289468,"lon":5.363719,"is_reserved":false,"is_disabled":false,"rental_uris":{"android":"levelo://app?vid=3c57f287-026f-4f75-ad51-46ee0641928a","ios":"levelo://app?vid=3c57f287-026f-4f75-ad51-46ee0641928a"},"vehicle_type_id":"4","last_reported":1685660844,"current_range_meters":18400,"station_id":"ce4bhc92rcd13ifvqetg","pricing_plan_id":"free"},{"bike_id":"c32681b8-ca68-4191-aff7-2d97c1efeea5","system_id":"levelo_inurba_marseille","lat":43.289468,"lon":5.363719,"is_reserved":false,"is_disabled":false,"rental_uris":{"android":"levelo://app?vid=c32681b8-ca68-4191-aff7-2d97c1efeea5","ios":"levelo://app?vid=c32681b8-ca68-4191-aff7-2d97c1efeea5"},"vehicle_type_id":"4","last_reported":1685660844,"current_range_meters":0,"station_id":"ce4bhc92rcd13ifvqetg","pricing_plan_id":"free"},{"bike_id":"26cee6ee-0176-4df4-a02b-7cdbffdd0d8c","system_id":"levelo_inurba_marseille","lat":43.304683,"lon":5.397494,"is_reserved":false,"is_disabled":false,"rental_uris":{"android":"levelo://app?vid=26cee6ee-0176-4df4-a02b-7cdbffdd0d8c","ios":"levelo://app?vid=26cee6ee-0176-4df4-a02b-7cdbffdd0d8c"},"vehicle_type_id":"4","last_reported":1685660844,"current_range_meters":0,"station_id":"ce4bh092rcd13ifvqd20","pricing_plan_id":"free"},{"bike_id":"a3483c61-fba2-4eca-9649-441d85ba32ba","system_id":"levelo_inurba_marseille","lat":43.304296,"lon":5.397513,"is_reserved":false,"is_disabled":false,"rental_uris":{"android":"levelo://app?vid=a3483c61-fba2-4eca-9649-441d85ba32ba","ios":"levelo://app?vid=a3483c61-fba2-4eca-9649-441d85ba32ba"},"vehicle_type_id":"4","last_reported":1685660844,"current_range_meters":14000,"station_id":"ce4bh092rcd13ifvqd20","pricing_plan_id":"free"},{"bike_id":"5b7650f8-4705-49fb-b35e-7d2fec1fafe9","system_id":"levelo_inurba_marseille","lat":43.30429,"lon":5.39752,"is_reserved":false,"is_disabled":false,"rental_uris":{"android":"levelo://app?vid=5b7650f8-4705-49fb-b35e-7d2fec1fafe9","ios":"levelo://app?vid=5b7650f8-4705-49fb-b35e-7d2fec1fafe9"},"vehicle_type_id":"4","last_reported":1685660844,"current_range_meters":0,"station_id":"ce4bh092rcd13ifvqd20","pricing_plan_id":"free"},{"bike_id":"b1acd3e8-1e97-44ce-b477-c2cf8b3359b1","system_id":"levelo_inurba_marseille","lat":43.304274,"lon":5.397513,"is_reserved":false,"is_disabled":false,"rental_uris":{"android":"levelo://app?vid=b1acd3e8-1e97-44ce-b477-c2cf8b3359b1","ios":"levelo://app?vid=b1acd3e8-1e97-44ce-b477-c2cf8b3359b1"},"vehicle_type_id":"4","last_reported":1685660844,"current_range_meters":28400,"station_id":"ce4bh092rcd13ifvqd20","pricing_plan_id":"free"},{"bike_id":"9bd6b136-99bc-45b2-9ffb-416f16f03b6d","system_id":"levelo_inurba_marseille","lat":43.290103,"lon":5.356114,"is_reserved":false,"is_disabled":false,"rental_uris":{"android":"levelo://app?vid=9bd6b136-99bc-45b2-9ffb-416f16f03b6d","ios":"levelo://app?vid=9bd6b136-99bc-45b2-9ffb-416f16f03b6d"},"vehicle_type_id":"4","last_reported":1685660844,"current_range_meters":22400,"station_id":"ce4bhb92rcd13ifvqen0","pricing_plan_id":"free"},{"bike_id":"27c2d61d-a69b-4007-afea-853199d56098","system_id":"levelo_inurba_marseille","lat":43.290103,"lon":5.356114,"is_reserved":false,"is_disabled":false,"rental_uris":{"android":"levelo://app?vid=27c2d61d-a69b-4007-afea-853199d56098","ios":"levelo://app?vid=27c2d61d-a69b-4007-afea-853199d56098"},"vehicle_type_id":"4","last_reported":1685660844,"current_range_meters":20000,"station_id":"ce4bhb92rcd13ifvqen0","pricing_plan_id":"free"},{"bike_id":"7275b345-080e-4514-972e-478ed1e1a889","system_id":"levelo_inurba_marseille","lat":43.290103,"lon":5.356114,"is_reserved":false,"is_disabled":false,"rental_uris":{"android":"levelo://app?vid=7275b345-080e-4514-972e-478ed1e1a889","ios":"levelo://app?vid=7275b345-080e-4514-972e-478ed1e1a889"},"vehicle_type_id":"4","last_reported":1685660844,"current_range_meters":7200,"station_id":"ce4bhb92rcd13ifvqen0","pricing_plan_id":"free"},{"bike_id":"c0f1dc9f-ea67-4467-be3f-2b40a341c6bb","system_id":"levelo_inurba_marseille","lat":43.28856,"lon":5.358371,"is_reserved":false,"is_disabled":false,"rental_uris":{"android":"levelo://app?vid=c0f1dc9f-ea67-4467-be3f-2b40a341c6bb","ios":"levelo://app?vid=c0f1dc9f-ea67-4467-be3f-2b40a341c6bb"},"vehicle_type_id":"4","last_reported":1685660844,"current_range_meters":27600,"station_id":"ce4bhb12rcd13ifvqem0","pricing_plan_id":"free"},{"bike_id":"092ba2c9-8de9-4c8a-8c96-cba202d5016b","system_id":"levelo_inurba_marseille","lat":43.298,"lon":5.3934,"is_reserved":false,"is_disabled":false,"rental_uris":{"android":"levelo://app?vid=092ba2c9-8de9-4c8a-8c96-cba202d5016b","ios":"levelo://app?vid=092ba2c9-8de9-4c8a-8c96-cba202d5016b"},"vehicle_type_id":"4","last_reported":1685660844,"current_range_meters":22800,"station_id":"chh1huq6cuj3fo74tm60","pricing_plan_id":"free"},{"bike_id":"c5a33613-9f8d-4160-bc3f-7736ca0fd18f","system_id":"levelo_inurba_marseille","lat":43.29792,"lon":5.39343,"is_reserved":false,"is_disabled":false,"rental_uris":{"android":"levelo://app?vid=c5a33613-9f8d-4160-bc3f-7736ca0fd18f","ios":"levelo://app?vid=c5a33613-9f8d-4160-bc3f-7736ca0fd18f"},"vehicle_type_id":"4","last_reported":1685660844,"current_range_meters":16000,"station_id":"chh1huq6cuj3fo74tm60","pricing_plan_id":"free"},{"bike_id":"681b3f56-1123-4f30-a3a1-f95416c60075","system_id":"levelo_inurba_marseille","lat":43.29794,"lon":5.39349,"is_reserved":false,"is_disabled":false,"rental_uris":{"android":"levelo://app?vid=681b3f56-1123-4f30-a3a1-f95416c60075","ios":"levelo://app?vid=681b3f56-1123-4f30-a3a1-f95416c60075"},"vehicle_type_id":"4","last_reported":1685660844,"current_range_meters":2000,"station_id":"chh1huq6cuj3fo74tm60","pricing_plan_id":"free"},{"bike_id":"23f7d2b1-0ab9-443b-8a5d-e2138d9cc687","system_id":"levelo_inurba_marseille","lat":43.29783,"lon":5.39345,"is_reserved":false,"is_disabled":false,"rental_uris":{"android":"levelo://app?vid=23f7d2b1-0ab9-443b-8a5d-e2138d9cc687","ios":"levelo://app?vid=23f7d2b1-0ab9-443b-8a5d-e2138d9cc687"},"vehicle_type_id":"4","last_reported":1685660844,"current_range_meters":400,"station_id":"chh1huq6cuj3fo74tm60","pricing_plan_id":"free"},{"bike_id":"f65dee1d-a73a-41ff-a3df-5e1867dbdb36","system_id":"levelo_inurba_marseille","lat":43.289707,"lon":5.378347,"is_reserved":false,"is_disabled":false,"rental_uris":{"android":"levelo://app?vid=f65dee1d-a73a-41ff-a3df-5e1867dbdb36","ios":"levelo://app?vid=f65dee1d-a73a-41ff-a3df-5e1867dbdb36"},"vehicle_type_id":"4","last_reported":1685660844,"current_range_meters":18000,"station_id":"ce4bh9p2rcd13ifvqed0","pricing_plan_id":"free"},{"bike_id":"e7b956d3-a1e9-43e1-ae64-284a13d3cbb0","system_id":"levelo_inurba_marseille","lat":43.29009,"lon":5.38128,"is_reserved":false,"is_disabled":false,"rental_uris":{"android":"levelo://app?vid=e7b956d3-a1e9-43e1-ae64-284a13d3cbb0","ios":"levelo://app?vid=e7b956d3-a1e9-43e1-ae64-284a13d3cbb0"},"vehicle_type_id":"4","last_reported":1685660844,"current_range_meters":11600,"station_id":"ce4bh4p2rcd13ifvqe1g","pricing_plan_id":"free"},{"bike_id":"ad066417-4d84-4555-a797-f5aad4e09b32","system_id":"levelo_inurba_marseille","lat":43.28856,"lon":5.358371,"is_reserved":false,"is_disabled":false,"rental_uris":{"android":"levelo://app?vid=ad066417-4d84-4555-a797-f5aad4e09b32","ios":"levelo://app?vid=ad066417-4d84-4555-a797-f5aad4e09b32"},"vehicle_type_id":"4","last_reported":1685660844,"current_range_meters":27200,"station_id":"ce4bhb12rcd13ifvqem0","pricing_plan_id":"free"},{"bike_id":"1e071159-fffe-4575-bc94-5ac1e05464ce","system_id":"levelo_inurba_marseille","lat":43.28856,"lon":5.358371,"is_reserved":false,"is_disabled":false,"rental_uris":{"android":"levelo://app?vid=1e071159-fffe-4575-bc94-5ac1e05464ce","ios":"levelo://app?vid=1e071159-fffe-4575-bc94-5ac1e05464ce"},"vehicle_type_id":"4","last_reported":1685660844,"current_range_meters":12800,"station_id":"ce4bhb12rcd13ifvqem0","pricing_plan_id":"free"},{"bike_id":"bddf66ef-0c9c-4e5f-8017-a1f0c58cac94","system_id":"levelo_inurba_marseille","lat":43.30929,"lon":5.40139,"is_reserved":false,"is_disabled":false,"rental_uris":{"android":"levelo://app?vid=bddf66ef-0c9c-4e5f-8017-a1f0c58cac94","ios":"levelo://app?vid=bddf66ef-0c9c-4e5f-8017-a1f0c58cac94"},"vehicle_type_id":"4","last_reported":1685660844,"current_range_meters":4800,"station_id":"","pricing_plan_id":"free"},{"bike_id":"be775c46-8b5c-4bf4-9288-70cd617a7d4d","system_id":"levelo_inurba_marseille","lat":43.3093,"lon":5.40142,"is_reserved":false,"is_disabled":false,"rental_uris":{"android":"levelo://app?vid=be775c46-8b5c-4bf4-9288-70cd617a7d4d","ios":"levelo://app?vid=be775c46-8b5c-4bf4-9288-70cd617a7d4d"},"vehicle_type_id":"4","last_reported":1685660844,"current_range_meters":23600,"station_id":"","pricing_plan_id":"free"},{"bike_id":"31ec68a4-cf5c-4267-8be2-a85d66cafd8b","system_id":"levelo_inurba_marseille","lat":43.30642,"lon":5.401031,"is_reserved":false,"is_disabled":false,"rental_uris":{"android":"levelo://app?vid=31ec68a4-cf5c-4267-8be2-a85d66cafd8b","ios":"levelo://app?vid=31ec68a4-cf5c-4267-8be2-a85d66cafd8b"},"vehicle_type_id":"4","last_reported":1685660844,"current_range_meters":6400,"station_id":"ce4bh112rcd13ifvqda0","pricing_plan_id":"free"},{"bike_id":"e3f28a17-350d-40bd-b31d-070aa3bb80a1","system_id":"levelo_inurba_marseille","lat":43.30642,"lon":5.401031,"is_reserved":false,"is_disabled":false,"rental_uris":{"android":"levelo://app?vid=e3f28a17-350d-40bd-b31d-070aa3bb80a1","ios":"levelo://app?vid=e3f28a17-350d-40bd-b31d-070aa3bb80a1"},"vehicle_type_id":"4","last_reported":1685660844,"current_range_meters":18000,"station_id":"ce4bh112rcd13ifvqda0","pricing_plan_id":"free"},{"bike_id":"fa025151-02ec-4c50-bca8-ab843a20622b","system_id":"levelo_inurba_marseille","lat":43.30642,"lon":5.401031,"is_reserved":false,"is_disabled":false,"rental_uris":{"android":"levelo://app?vid=fa025151-02ec-4c50-bca8-ab843a20622b","ios":"levelo://app?vid=fa025151-02ec-4c50-bca8-ab843a20622b"},"vehicle_type_id":"4","last_reported":1685660844,"current_range_meters":11600,"station_id":"ce4bh112rcd13ifvqda0","pricing_plan_id":"free"},{"bike_id":"57453848-0c70-4cba-84dc-e89c9a9d9188","system_id":"levelo_inurba_marseille","lat":43.30642,"lon":5.401031,"is_reserved":false,"is_disabled":false,"rental_uris":{"android":"levelo://app?vid=57453848-0c70-4cba-84dc-e89c9a9d9188","ios":"levelo://app?vid=57453848-0c70-4cba-84dc-e89c9a9d9188"},"vehicle_type_id":"4","last_reported":1685660844,"current_range_meters":0,"station_id":"ce4bh112rcd13ifvqda0","pricing_plan_id":"free"},{"bike_id":"78c64193-55aa-4a64-874b-c89446854849","system_id":"levelo_inurba_marseille","lat":43.30642,"lon":5.401031,"is_reserved":false,"is_disabled":false,"rental_uris":{"android":"levelo://app?vid=78c64193-55aa-4a64-874b-c89446854849","ios":"levelo://app?vid=78c64193-55aa-4a64-874b-c89446854849"},"vehicle_type_id":"4","last_reported":1685660844,"current_range_meters":2800,"station_id":"ce4bh112rcd13ifvqda0","pricing_plan_id":"free"},{"bike_id":"e32a223e-ddc7-4828-8100-4a262cd62351","system_id":"levelo_inurba_marseille","lat":43.30642,"lon":5.401031,"is_reserved":false,"is_disabled":false,"rental_uris":{"android":"levelo://app?vid=e32a223e-ddc7-4828-8100-4a262cd62351","ios":"levelo://app?vid=e32a223e-ddc7-4828-8100-4a262cd62351"},"vehicle_type_id":"4","last_reported":1685660844,"current_range_meters":24400,"station_id":"ce4bh112rcd13ifvqda0","pricing_plan_id":"free"},{"bike_id":"178c8f48-bd41-4e96-a8d8-8f6b997a2dd2","system_id":"levelo_inurba_marseille","lat":43.298681,"lon":5.397225,"is_reserved":false,"is_disabled":false,"rental_uris":{"android":"levelo://app?vid=178c8f48-bd41-4e96-a8d8-8f6b997a2dd2","ios":"levelo://app?vid=178c8f48-bd41-4e96-a8d8-8f6b997a2dd2"},"vehicle_type_id":"4","last_reported":1685660844,"current_range_meters":23200,"station_id":"ce4bh0h2rcd13ifvqd50","pricing_plan_id":"free"},{"bike_id":"2a7a1689-a341-465b-b6db-ab1039698b4b","system_id":"levelo_inurba_marseille","lat":43.30647,"lon":5.40091,"is_reserved":false,"is_disabled":false,"rental_uris":{"android":"levelo://app?vid=2a7a1689-a341-465b-b6db-ab1039698b4b","ios":"levelo://app?vid=2a7a1689-a341-465b-b6db-ab1039698b4b"},"vehicle_type_id":"4","last_reported":1685660844,"current_range_meters":25200,"station_id":"ce4bh112rcd13ifvqda0","pricing_plan_id":"free"},{"bike_id":"ae55d946-e4ea-412f-8d1b-af5e1f13a580","system_id":"levelo_inurba_marseille","lat":43.30642,"lon":5.401031,"is_reserved":false,"is_disabled":false,"rental_uris":{"android":"levelo://app?vid=ae55d946-e4ea-412f-8d1b-af5e1f13a580","ios":"levelo://app?vid=ae55d946-e4ea-412f-8d1b-af5e1f13a580"},"vehicle_type_id":"4","last_reported":1685660844,"current_range_meters":6800,"station_id":"ce4bh112rcd13ifvqda0","pricing_plan_id":"free"},{"bike_id":"e2339c64-ecd1-41b8-a178-de954c52950d","system_id":"levelo_inurba_marseille","lat":43.3065,"lon":5.401,"is_reserved":false,"is_disabled":false,"rental_uris":{"android":"levelo://app?vid=e2339c64-ecd1-41b8-a178-de954c52950d","ios":"levelo://app?vid=e2339c64-ecd1-41b8-a178-de954c52950d"},"vehicle_type_id":"4","last_reported":1685660844,"current_range_meters":6400,"station_id":"ce4bh112rcd13ifvqda0","pricing_plan_id":"free"},{"bike_id":"695990f2-bada-4893-a682-ec7396643b40","system_id":"levelo_inurba_marseille","lat":43.286591,"lon":5.363346,"is_reserved":false,"is_disabled":false,"rental_uris":{"android":"levelo://app?vid=695990f2-bada-4893-a682-ec7396643b40","ios":"levelo://app?vid=695990f2-bada-4893-a682-ec7396643b40"},"vehicle_type_id":"4","last_reported":1685660844,"current_range_meters":13600,"station_id":"ce4bhah2rcd13ifvqej0","pricing_plan_id":"free"},{"bike_id":"ce2492ec-e318-4ab4-b6e8-e1397741826f","system_id":"levelo_inurba_marseille","lat":43.286591,"lon":5.363346,"is_reserved":false,"is_disabled":false,"rental_uris":{"android":"levelo://app?vid=ce2492ec-e318-4ab4-b6e8-e1397741826f","ios":"levelo://app?vid=ce2492ec-e318-4ab4-b6e8-e1397741826f"},"vehicle_type_id":"4","last_reported":1685660844,"current_range_meters":30800,"station_id":"ce4bhah2rcd13ifvqej0","pricing_plan_id":"free"},{"bike_id":"1b5b61a4-301c-436e-a009-924c21386426","system_id":"levelo_inurba_marseille","lat":43.286591,"lon":5.363346,"is_reserved":false,"is_disabled":false,"rental_uris":{"android":"levelo://app?vid=1b5b61a4-301c-436e-a009-924c21386426","ios":"levelo://app?vid=1b5b61a4-301c-436e-a009-924c21386426"},"vehicle_type_id":"4","last_reported":1685660844,"current_range_meters":31600,"station_id":"ce4bhah2rcd13ifvqej0","pricing_plan_id":"free"},{"bike_id":"91c59060-c20b-4fea-8341-49417c8c37c8","system_id":"levelo_inurba_marseille","lat":43.298681,"lon":5.397225,"is_reserved":false,"is_disabled":false,"rental_uris":{"android":"levelo://app?vid=91c59060-c20b-4fea-8341-49417c8c37c8","ios":"levelo://app?vid=91c59060-c20b-4fea-8341-49417c8c37c8"},"vehicle_type_id":"4","last_reported":1685660844,"current_range_meters":6000,"station_id":"ce4bh0h2rcd13ifvqd50","pricing_plan_id":"free"},{"bike_id":"326a8fd1-bccc-4b4f-b34e-b63527aca429","system_id":"levelo_inurba_marseille","lat":43.298681,"lon":5.397225,"is_reserved":false,"is_disabled":false,"rental_uris":{"android":"levelo://app?vid=326a8fd1-bccc-4b4f-b34e-b63527aca429","ios":"levelo://app?vid=326a8fd1-bccc-4b4f-b34e-b63527aca429"},"vehicle_type_id":"4","last_reported":1685660844,"current_range_meters":10400,"station_id":"ce4bh0h2rcd13ifvqd50","pricing_plan_id":"free"},{"bike_id":"c4651d45-6ff3-4c5d-b230-480dcd017449","system_id":"levelo_inurba_marseille","lat":43.286591,"lon":5.363346,"is_reserved":false,"is_disabled":false,"rental_uris":{"android":"levelo://app?vid=c4651d45-6ff3-4c5d-b230-480dcd017449","ios":"levelo://app?vid=c4651d45-6ff3-4c5d-b230-480dcd017449"},"vehicle_type_id":"4","last_reported":1685660844,"current_range_meters":31600,"station_id":"ce4bhah2rcd13ifvqej0","pricing_plan_id":"free"},{"bike_id":"eff64728-9df1-448b-a0d9-70213ae677f5","system_id":"levelo_inurba_marseille","lat":43.286591,"lon":5.363346,"is_reserved":false,"is_disabled":false,"rental_uris":{"android":"levelo://app?vid=eff64728-9df1-448b-a0d9-70213ae677f5","ios":"levelo://app?vid=eff64728-9df1-448b-a0d9-70213ae677f5"},"vehicle_type_id":"4","last_reported":1685660844,"current_range_meters":27200,"station_id":"ce4bhah2rcd13ifvqej0","pricing_plan_id":"free"},{"bike_id":"d3fd97c1-4f2c-4897-9a7a-0da31054e821","system_id":"levelo_inurba_marseille","lat":43.298681,"lon":5.397225,"is_reserved":false,"is_disabled":false,"rental_uris":{"android":"levelo://app?vid=d3fd97c1-4f2c-4897-9a7a-0da31054e821","ios":"levelo://app?vid=d3fd97c1-4f2c-4897-9a7a-0da31054e821"},"vehicle_type_id":"4","last_reported":1685660844,"current_range_meters":8800,"station_id":"ce4bh0h2rcd13ifvqd50","pricing_plan_id":"free"},{"bike_id":"cc01ccd1-f5be-4405-9dbf-11b1d2ba1bbd","system_id":"levelo_inurba_marseille","lat":43.286593,"lon":5.363346,"is_reserved":false,"is_disabled":false,"rental_uris":{"android":"levelo://app?vid=cc01ccd1-f5be-4405-9dbf-11b1d2ba1bbd","ios":"levelo://app?vid=cc01ccd1-f5be-4405-9dbf-11b1d2ba1bbd"},"vehicle_type_id":"4","last_reported":1685660844,"current_range_meters":16000,"station_id":"ce4bhah2rcd13ifvqej0","pricing_plan_id":"free"},{"bike_id":"6b5d9890-3bba-44ed-94c4-3f63e2fd7e47","system_id":"levelo_inurba_marseille","lat":43.286593,"lon":5.363346,"is_reserved":false,"is_disabled":false,"rental_uris":{"android":"levelo://app?vid=6b5d9890-3bba-44ed-94c4-3f63e2fd7e47","ios":"levelo://app?vid=6b5d9890-3bba-44ed-94c4-3f63e2fd7e47"},"vehicle_type_id":"4","last_reported":1685660844,"current_range_meters":30400,"station_id":"ce4bhah2rcd13ifvqej0","pricing_plan_id":"free"},{"bike_id":"f73651d1-08d4-4fa3-9ce9-5bb60e2bfca2","system_id":"levelo_inurba_marseille","lat":43.286593,"lon":5.363346,"is_reserved":false,"is_disabled":false,"rental_uris":{"android":"levelo://app?vid=f73651d1-08d4-4fa3-9ce9-5bb60e2bfca2","ios":"levelo://app?vid=f73651d1-08d4-4fa3-9ce9-5bb60e2bfca2"},"vehicle_type_id":"4","last_reported":1685660844,"current_range_meters":19600,"station_id":"ce4bhah2rcd13ifvqej0","pricing_plan_id":"free"},{"bike_id":"40938f4f-d2fe-4644-958d-29b2de2989c5","system_id":"levelo_inurba_marseille","lat":43.286591,"lon":5.363346,"is_reserved":false,"is_disabled":false,"rental_uris":{"android":"levelo://app?vid=40938f4f-d2fe-4644-958d-29b2de2989c5","ios":"levelo://app?vid=40938f4f-d2fe-4644-958d-29b2de2989c5"},"vehicle_type_id":"4","last_reported":1685660844,"current_range_meters":31200,"station_id":"ce4bhah2rcd13ifvqej0","pricing_plan_id":"free"},{"bike_id":"f752d193-463b-4a21-800f-60a3cf3787b3","system_id":"levelo_inurba_marseille","lat":43.298681,"lon":5.397225,"is_reserved":false,"is_disabled":false,"rental_uris":{"android":"levelo://app?vid=f752d193-463b-4a21-800f-60a3cf3787b3","ios":"levelo://app?vid=f752d193-463b-4a21-800f-60a3cf3787b3"},"vehicle_type_id":"4","last_reported":1685660844,"current_range_meters":16000,"station_id":"ce4bh0h2rcd13ifvqd50","pricing_plan_id":"free"},{"bike_id":"54ab92de-4509-44de-91d3-386d05177e33","system_id":"levelo_inurba_marseille","lat":43.298681,"lon":5.397225,"is_reserved":false,"is_disabled":false,"rental_uris":{"android":"levelo://app?vid=54ab92de-4509-44de-91d3-386d05177e33","ios":"levelo://app?vid=54ab92de-4509-44de-91d3-386d05177e33"},"vehicle_type_id":"4","last_reported":1685660844,"current_range_meters":24000,"station_id":"ce4bh0h2rcd13ifvqd50","pricing_plan_id":"free"},{"bike_id":"cc3ed620-46a7-4d27-b33c-7884d409f252","system_id":"levelo_inurba_marseille","lat":43.3043,"lon":5.40105,"is_reserved":false,"is_disabled":false,"rental_uris":{"android":"levelo://app?vid=cc3ed620-46a7-4d27-b33c-7884d409f252","ios":"levelo://app?vid=cc3ed620-46a7-4d27-b33c-7884d409f252"},"vehicle_type_id":"4","last_reported":1685660844,"current_range_meters":2800,"station_id":"","pricing_plan_id":"free"},{"bike_id":"7fc4e398-e9a1-4a80-b7a0-ab65457108ce","system_id":"levelo_inurba_marseille","lat":43.298681,"lon":5.397225,"is_reserved":false,"is_disabled":false,"rental_uris":{"android":"levelo://app?vid=7fc4e398-e9a1-4a80-b7a0-ab65457108ce","ios":"levelo://app?vid=7fc4e398-e9a1-4a80-b7a0-ab65457108ce"},"vehicle_type_id":"4","last_reported":1685660844,"current_range_meters":26000,"station_id":"ce4bh0h2rcd13ifvqd50","pricing_plan_id":"free"},{"bike_id":"e4e075ed-be92-489f-8a0b-6d8a9b9b1d2e","system_id":"levelo_inurba_marseille","lat":43.28699,"lon":5.374,"is_reserved":false,"is_disabled":false,"rental_uris":{"android":"levelo://app?vid=e4e075ed-be92-489f-8a0b-6d8a9b9b1d2e","ios":"levelo://app?vid=e4e075ed-be92-489f-8a0b-6d8a9b9b1d2e"},"vehicle_type_id":"4","last_reported":1685660844,"current_range_meters":15600,"station_id":"","pricing_plan_id":"free"},{"bike_id":"575590d4-85bc-4892-82b5-6a9ed2a4dd65","system_id":"levelo_inurba_marseille","lat":43.286591,"lon":5.363346,"is_reserved":false,"is_disabled":false,"rental_uris":{"android":"levelo://app?vid=575590d4-85bc-4892-82b5-6a9ed2a4dd65","ios":"levelo://app?vid=575590d4-85bc-4892-82b5-6a9ed2a4dd65"},"vehicle_type_id":"4","last_reported":1685660844,"current_range_meters":28000,"station_id":"ce4bhah2rcd13ifvqej0","pricing_plan_id":"free"},{"bike_id":"a3d9d2f8-1517-45a3-bdc4-0f9fbd85aba7","system_id":"levelo_inurba_marseille","lat":43.286593,"lon":5.363346,"is_reserved":false,"is_disabled":false,"rental_uris":{"android":"levelo://app?vid=a3d9d2f8-1517-45a3-bdc4-0f9fbd85aba7","ios":"levelo://app?vid=a3d9d2f8-1517-45a3-bdc4-0f9fbd85aba7"},"vehicle_type_id":"4","last_reported":1685660844,"current_range_meters":31200,"station_id":"ce4bhah2rcd13ifvqej0","pricing_plan_id":"free"},{"bike_id":"54a0f99f-ee88-4d09-be22-f4f4ca751792","system_id":"levelo_inurba_marseille","lat":43.286593,"lon":5.363346,"is_reserved":false,"is_disabled":false,"rental_uris":{"android":"levelo://app?vid=54a0f99f-ee88-4d09-be22-f4f4ca751792","ios":"levelo://app?vid=54a0f99f-ee88-4d09-be22-f4f4ca751792"},"vehicle_type_id":"4","last_reported":1685660844,"current_range_meters":31200,"station_id":"ce4bhah2rcd13ifvqej0","pricing_plan_id":"free"},{"bike_id":"d2e7e313-c846-438d-92fa-4af58b4c7b63","system_id":"levelo_inurba_marseille","lat":43.2952,"lon":5.39401,"is_reserved":false,"is_disabled":false,"rental_uris":{"android":"levelo://app?vid=d2e7e313-c846-438d-92fa-4af58b4c7b63","ios":"levelo://app?vid=d2e7e313-c846-438d-92fa-4af58b4c7b63"},"vehicle_type_id":"4","last_reported":1685660844,"current_range_meters":26400,"station_id":"ce4bh292rcd13ifvqdf0","pricing_plan_id":"free"},{"bike_id":"2ae7ef79-5b39-4007-937b-5c1359f8a2cd","system_id":"levelo_inurba_marseille","lat":43.295194,"lon":5.39397,"is_reserved":false,"is_disabled":false,"rental_uris":{"android":"levelo://app?vid=2ae7ef79-5b39-4007-937b-5c1359f8a2cd","ios":"levelo://app?vid=2ae7ef79-5b39-4007-937b-5c1359f8a2cd"},"vehicle_type_id":"4","last_reported":1685660844,"current_range_meters":22000,"station_id":"ce4bh292rcd13ifvqdf0","pricing_plan_id":"free"},{"bike_id":"1e11bdbd-0350-44b3-bb5b-160439442b95","system_id":"levelo_inurba_marseille","lat":43.295194,"lon":5.39397,"is_reserved":false,"is_disabled":false,"rental_uris":{"android":"levelo://app?vid=1e11bdbd-0350-44b3-bb5b-160439442b95","ios":"levelo://app?vid=1e11bdbd-0350-44b3-bb5b-160439442b95"},"vehicle_type_id":"4","last_reported":1685660844,"current_range_meters":21200,"station_id":"ce4bh292rcd13ifvqdf0","pricing_plan_id":"free"},{"bike_id":"33bc1096-0c7f-4185-bf8e-31a46ea8c053","system_id":"levelo_inurba_marseille","lat":43.290345,"lon":5.38646,"is_reserved":false,"is_disabled":false,"rental_uris":{"android":"levelo://app?vid=33bc1096-0c7f-4185-bf8e-31a46ea8c053","ios":"levelo://app?vid=33bc1096-0c7f-4185-bf8e-31a46ea8c053"},"vehicle_type_id":"4","last_reported":1685660844,"current_range_meters":14400,"station_id":"ce4bh4p2rcd13ifvqe0g","pricing_plan_id":"free"},{"bike_id":"200e26b3-6a0c-441e-b0fd-b3805feab142","system_id":"levelo_inurba_marseille","lat":43.302759,"lon":5.400793,"is_reserved":false,"is_disabled":false,"rental_uris":{"android":"levelo://app?vid=200e26b3-6a0c-441e-b0fd-b3805feab142","ios":"levelo://app?vid=200e26b3-6a0c-441e-b0fd-b3805feab142"},"vehicle_type_id":"4","last_reported":1685660844,"current_range_meters":7600,"station_id":"ce4bgvh2rcd13ifvqcs0","pricing_plan_id":"free"},{"bike_id":"56b9caed-934c-4a86-9f78-11610ae8bbe3","system_id":"levelo_inurba_marseille","lat":43.286039,"lon":5.370679,"is_reserved":false,"is_disabled":false,"rental_uris":{"android":"levelo://app?vid=56b9caed-934c-4a86-9f78-11610ae8bbe3","ios":"levelo://app?vid=56b9caed-934c-4a86-9f78-11610ae8bbe3"},"vehicle_type_id":"4","last_reported":1685660844,"current_range_meters":27600,"station_id":"ce4bht12rcd13ifvqi60","pricing_plan_id":"free"},{"bike_id":"1f4e9ddf-372a-4da1-8875-aea11f8cba44","system_id":"levelo_inurba_marseille","lat":43.286039,"lon":5.370679,"is_reserved":false,"is_disabled":false,"rental_uris":{"android":"levelo://app?vid=1f4e9ddf-372a-4da1-8875-aea11f8cba44","ios":"levelo://app?vid=1f4e9ddf-372a-4da1-8875-aea11f8cba44"},"vehicle_type_id":"4","last_reported":1685660844,"current_range_meters":31200,"station_id":"ce4bht12rcd13ifvqi60","pricing_plan_id":"free"},{"bike_id":"d0de1914-9086-49fb-8551-98668d63bd1c","system_id":"levelo_inurba_marseille","lat":43.286039,"lon":5.370679,"is_reserved":false,"is_disabled":false,"rental_uris":{"android":"levelo://app?vid=d0de1914-9086-49fb-8551-98668d63bd1c","ios":"levelo://app?vid=d0de1914-9086-49fb-8551-98668d63bd1c"},"vehicle_type_id":"4","last_reported":1685660844,"current_range_meters":31200,"station_id":"ce4bht12rcd13ifvqi60","pricing_plan_id":"free"},{"bike_id":"90d08205-59e0-47fc-a806-18c8c887ddc4","system_id":"levelo_inurba_marseille","lat":43.286039,"lon":5.370679,"is_reserved":false,"is_disabled":false,"rental_uris":{"android":"levelo://app?vid=90d08205-59e0-47fc-a806-18c8c887ddc4","ios":"levelo://app?vid=90d08205-59e0-47fc-a806-18c8c887ddc4"},"vehicle_type_id":"4","last_reported":1685660844,"current_range_meters":31200,"station_id":"ce4bht12rcd13ifvqi60","pricing_plan_id":"free"},{"bike_id":"79f5543c-d565-4333-9cf5-900c6d97556b","system_id":"levelo_inurba_marseille","lat":43.286039,"lon":5.370681,"is_reserved":false,"is_disabled":false,"rental_uris":{"android":"levelo://app?vid=79f5543c-d565-4333-9cf5-900c6d97556b","ios":"levelo://app?vid=79f5543c-d565-4333-9cf5-900c6d97556b"},"vehicle_type_id":"4","last_reported":1685660844,"current_range_meters":18400,"station_id":"ce4bht12rcd13ifvqi60","pricing_plan_id":"free"},{"bike_id":"da1e5609-b9e2-4589-8b7c-4e45943868e0","system_id":"levelo_inurba_marseille","lat":43.287184,"lon":5.37937,"is_reserved":false,"is_disabled":false,"rental_uris":{"android":"levelo://app?vid=da1e5609-b9e2-4589-8b7c-4e45943868e0","ios":"levelo://app?vid=da1e5609-b9e2-4589-8b7c-4e45943868e0"},"vehicle_type_id":"4","last_reported":1685660844,"current_range_meters":31200,"station_id":"ce4bh9p2rcd13ifvqec0","pricing_plan_id":"free"},{"bike_id":"1ba49aee-82cd-4b1a-b38a-044f25e9c950","system_id":"levelo_inurba_marseille","lat":43.287184,"lon":5.37937,"is_reserved":false,"is_disabled":false,"rental_uris":{"android":"levelo://app?vid=1ba49aee-82cd-4b1a-b38a-044f25e9c950","ios":"levelo://app?vid=1ba49aee-82cd-4b1a-b38a-044f25e9c950"},"vehicle_type_id":"4","last_reported":1685660844,"current_range_meters":7600,"station_id":"ce4bh9p2rcd13ifvqec0","pricing_plan_id":"free"},{"bike_id":"fabe7983-0607-4ac9-ab42-fdb32892bc39","system_id":"levelo_inurba_marseille","lat":43.287184,"lon":5.37937,"is_reserved":false,"is_disabled":false,"rental_uris":{"android":"levelo://app?vid=fabe7983-0607-4ac9-ab42-fdb32892bc39","ios":"levelo://app?vid=fabe7983-0607-4ac9-ab42-fdb32892bc39"},"vehicle_type_id":"4","last_reported":1685660844,"current_range_meters":31600,"station_id":"ce4bh9p2rcd13ifvqec0","pricing_plan_id":"free"},{"bike_id":"81073de0-9150-4ffb-8493-b1a67492ac2e","system_id":"levelo_inurba_marseille","lat":43.287185,"lon":5.379373,"is_reserved":false,"is_disabled":false,"rental_uris":{"android":"levelo://app?vid=81073de0-9150-4ffb-8493-b1a67492ac2e","ios":"levelo://app?vid=81073de0-9150-4ffb-8493-b1a67492ac2e"},"vehicle_type_id":"4","last_reported":1685660844,"current_range_meters":28400,"station_id":"ce4bh9p2rcd13ifvqec0","pricing_plan_id":"free"},{"bike_id":"5818b86c-7311-48c3-bc49-1cc664250079","system_id":"levelo_inurba_marseille","lat":43.287185,"lon":5.379373,"is_reserved":false,"is_disabled":false,"rental_uris":{"android":"levelo://app?vid=5818b86c-7311-48c3-bc49-1cc664250079","ios":"levelo://app?vid=5818b86c-7311-48c3-bc49-1cc664250079"},"vehicle_type_id":"4","last_reported":1685660844,"current_range_meters":31200,"station_id":"ce4bh9p2rcd13ifvqec0","pricing_plan_id":"free"},{"bike_id":"f791f804-405c-420c-9893-9254de9894d7","system_id":"levelo_inurba_marseille","lat":43.287185,"lon":5.379373,"is_reserved":false,"is_disabled":false,"rental_uris":{"android":"levelo://app?vid=f791f804-405c-420c-9893-9254de9894d7","ios":"levelo://app?vid=f791f804-405c-420c-9893-9254de9894d7"},"vehicle_type_id":"4","last_reported":1685660844,"current_range_meters":25200,"station_id":"ce4bh9p2rcd13ifvqec0","pricing_plan_id":"free"},{"bike_id":"8b631c33-145a-4a7f-ae4e-acb435b25bd0","system_id":"levelo_inurba_marseille","lat":43.29217,"lon":5.39328,"is_reserved":false,"is_disabled":false,"rental_uris":{"android":"levelo://app?vid=8b631c33-145a-4a7f-ae4e-acb435b25bd0","ios":"levelo://app?vid=8b631c33-145a-4a7f-ae4e-acb435b25bd0"},"vehicle_type_id":"4","last_reported":1685660844,"current_range_meters":26800,"station_id":"","pricing_plan_id":"free"},{"bike_id":"dc9a3e67-ff3f-4a83-9ca2-34faa37474c5","system_id":"levelo_inurba_marseille","lat":43.2921,"lon":5.39323,"is_reserved":false,"is_disabled":false,"rental_uris":{"android":"levelo://app?vid=dc9a3e67-ff3f-4a83-9ca2-34faa37474c5","ios":"levelo://app?vid=dc9a3e67-ff3f-4a83-9ca2-34faa37474c5"},"vehicle_type_id":"4","last_reported":1685660844,"current_range_meters":2000,"station_id":"ce4bh192rcd13ifvqdd0","pricing_plan_id":"free"},{"bike_id":"0ab2bb99-5423-4870-b6db-949f0e3d1789","system_id":"levelo_inurba_marseille","lat":43.2847,"lon":5.35876,"is_reserved":false,"is_disabled":false,"rental_uris":{"android":"levelo://app?vid=0ab2bb99-5423-4870-b6db-949f0e3d1789","ios":"levelo://app?vid=0ab2bb99-5423-4870-b6db-949f0e3d1789"},"vehicle_type_id":"4","last_reported":1685660844,"current_range_meters":0,"station_id":"","pricing_plan_id":"free"},{"bike_id":"1308414a-fcb0-46be-a068-d3b4c5be8f02","system_id":"levelo_inurba_marseille","lat":43.2847,"lon":5.35874,"is_reserved":false,"is_disabled":false,"rental_uris":{"android":"levelo://app?vid=1308414a-fcb0-46be-a068-d3b4c5be8f02","ios":"levelo://app?vid=1308414a-fcb0-46be-a068-d3b4c5be8f02"},"vehicle_type_id":"4","last_reported":1685660844,"current_range_meters":10800,"station_id":"ce4bhah2rcd13ifvqei0","pricing_plan_id":"free"},{"bike_id":"c19c14ad-8270-41e5-a5a4-73128a78c293","system_id":"levelo_inurba_marseille","lat":43.28468,"lon":5.35879,"is_reserved":false,"is_disabled":false,"rental_uris":{"android":"levelo://app?vid=c19c14ad-8270-41e5-a5a4-73128a78c293","ios":"levelo://app?vid=c19c14ad-8270-41e5-a5a4-73128a78c293"},"vehicle_type_id":"4","last_reported":1685660844,"current_range_meters":13600,"station_id":"ce4bhah2rcd13ifvqei0","pricing_plan_id":"free"},{"bike_id":"004f3361-cf3e-4304-9435-a714766027a0","system_id":"levelo_inurba_marseille","lat":43.28467,"lon":5.358833,"is_reserved":false,"is_disabled":false,"rental_uris":{"android":"levelo://app?vid=004f3361-cf3e-4304-9435-a714766027a0","ios":"levelo://app?vid=004f3361-cf3e-4304-9435-a714766027a0"},"vehicle_type_id":"4","last_reported":1685660844,"current_range_meters":20800,"station_id":"ce4bhah2rcd13ifvqei0","pricing_plan_id":"free"},{"bike_id":"3d6bbefb-18ab-41de-81c3-3d4519a6f390","system_id":"levelo_inurba_marseille","lat":43.28468,"lon":5.35874,"is_reserved":false,"is_disabled":false,"rental_uris":{"android":"levelo://app?vid=3d6bbefb-18ab-41de-81c3-3d4519a6f390","ios":"levelo://app?vid=3d6bbefb-18ab-41de-81c3-3d4519a6f390"},"vehicle_type_id":"4","last_reported":1685660844,"current_range_meters":31200,"station_id":"ce4bhah2rcd13ifvqei0","pricing_plan_id":"free"},{"bike_id":"8a665e58-fc4d-4942-bf6e-3a5107829d00","system_id":"levelo_inurba_marseille","lat":43.284661,"lon":5.35885,"is_reserved":false,"is_disabled":false,"rental_uris":{"android":"levelo://app?vid=8a665e58-fc4d-4942-bf6e-3a5107829d00","ios":"levelo://app?vid=8a665e58-fc4d-4942-bf6e-3a5107829d00"},"vehicle_type_id":"4","last_reported":1685660844,"current_range_meters":13600,"station_id":"ce4bhah2rcd13ifvqei0","pricing_plan_id":"free"},{"bike_id":"28e0f871-dcd3-42f2-ac3a-28584c25985b","system_id":"levelo_inurba_marseille","lat":43.28466,"lon":5.35877,"is_reserved":false,"is_disabled":false,"rental_uris":{"android":"levelo://app?vid=28e0f871-dcd3-42f2-ac3a-28584c25985b","ios":"levelo://app?vid=28e0f871-dcd3-42f2-ac3a-28584c25985b"},"vehicle_type_id":"4","last_reported":1685660844,"current_range_meters":23200,"station_id":"ce4bhah2rcd13ifvqei0","pricing_plan_id":"free"},{"bike_id":"9691ca73-f89b-423e-8785-3f1e028e4b0f","system_id":"levelo_inurba_marseille","lat":43.284642,"lon":5.358831,"is_reserved":false,"is_disabled":false,"rental_uris":{"android":"levelo://app?vid=9691ca73-f89b-423e-8785-3f1e028e4b0f","ios":"levelo://app?vid=9691ca73-f89b-423e-8785-3f1e028e4b0f"},"vehicle_type_id":"4","last_reported":1685660844,"current_range_meters":400,"station_id":"ce4bhah2rcd13ifvqei0","pricing_plan_id":"free"},{"bike_id":"4c2ad2ee-7ee7-47db-9d13-f770efdad021","system_id":"levelo_inurba_marseille","lat":43.284538,"lon":5.358657,"is_reserved":false,"is_disabled":false,"rental_uris":{"android":"levelo://app?vid=4c2ad2ee-7ee7-47db-9d13-f770efdad021","ios":"levelo://app?vid=4c2ad2ee-7ee7-47db-9d13-f770efdad021"},"vehicle_type_id":"4","last_reported":1685660844,"current_range_meters":31200,"station_id":"ce4bhah2rcd13ifvqei0","pricing_plan_id":"free"},{"bike_id":"56398a04-ae98-4ac3-9fb1-daad452ec329","system_id":"levelo_inurba_marseille","lat":43.284612,"lon":5.358844,"is_reserved":false,"is_disabled":false,"rental_uris":{"android":"levelo://app?vid=56398a04-ae98-4ac3-9fb1-daad452ec329","ios":"levelo://app?vid=56398a04-ae98-4ac3-9fb1-daad452ec329"},"vehicle_type_id":"4","last_reported":1685660844,"current_range_meters":18400,"station_id":"ce4bh4p2rcd13ifvqe0g","pricing_plan_id":"free"},{"bike_id":"a98cd526-9c9f-47a8-a419-9c808157b890","system_id":"levelo_inurba_marseille","lat":43.284538,"lon":5.358657,"is_reserved":false,"is_disabled":false,"rental_uris":{"android":"levelo://app?vid=a98cd526-9c9f-47a8-a419-9c808157b890","ios":"levelo://app?vid=a98cd526-9c9f-47a8-a419-9c808157b890"},"vehicle_type_id":"4","last_reported":1685660844,"current_range_meters":28000,"station_id":"ce4bhah2rcd13ifvqei0","pricing_plan_id":"free"},{"bike_id":"5bbfb1d4-fd69-41aa-9a5f-13eaf1c7c9da","system_id":"levelo_inurba_marseille","lat":43.284538,"lon":5.358657,"is_reserved":false,"is_disabled":false,"rental_uris":{"android":"levelo://app?vid=5bbfb1d4-fd69-41aa-9a5f-13eaf1c7c9da","ios":"levelo://app?vid=5bbfb1d4-fd69-41aa-9a5f-13eaf1c7c9da"},"vehicle_type_id":"4","last_reported":1685660844,"current_range_meters":0,"station_id":"ce4bhah2rcd13ifvqei0","pricing_plan_id":"free"},{"bike_id":"8e6d0046-b540-4675-adee-ac9744f06057","system_id":"levelo_inurba_marseille","lat":43.284601,"lon":5.358841,"is_reserved":false,"is_disabled":false,"rental_uris":{"android":"levelo://app?vid=8e6d0046-b540-4675-adee-ac9744f06057","ios":"levelo://app?vid=8e6d0046-b540-4675-adee-ac9744f06057"},"vehicle_type_id":"4","last_reported":1685660844,"current_range_meters":27600,"station_id":"ce4bhah2rcd13ifvqei0","pricing_plan_id":"free"},{"bike_id":"4ca7e321-7a43-4bc5-8198-dc08797bee3c","system_id":"levelo_inurba_marseille","lat":43.284538,"lon":5.358657,"is_reserved":false,"is_disabled":false,"rental_uris":{"android":"levelo://app?vid=4ca7e321-7a43-4bc5-8198-dc08797bee3c","ios":"levelo://app?vid=4ca7e321-7a43-4bc5-8198-dc08797bee3c"},"vehicle_type_id":"4","last_reported":1685660844,"current_range_meters":26800,"station_id":"ce4bhah2rcd13ifvqei0","pricing_plan_id":"free"},{"bike_id":"3063fa88-0e21-4a31-8393-7e0c29f854e8","system_id":"levelo_inurba_marseille","lat":43.2846,"lon":5.35881,"is_reserved":false,"is_disabled":false,"rental_uris":{"android":"levelo://app?vid=3063fa88-0e21-4a31-8393-7e0c29f854e8","ios":"levelo://app?vid=3063fa88-0e21-4a31-8393-7e0c29f854e8"},"vehicle_type_id":"4","last_reported":1685660844,"current_range_meters":24000,"station_id":"ce4bhah2rcd13ifvqei0","pricing_plan_id":"free"},{"bike_id":"392fccf5-57a4-4b67-9b22-1ebdd42e67a1","system_id":"levelo_inurba_marseille","lat":43.284538,"lon":5.358657,"is_reserved":false,"is_disabled":false,"rental_uris":{"android":"levelo://app?vid=392fccf5-57a4-4b67-9b22-1ebdd42e67a1","ios":"levelo://app?vid=392fccf5-57a4-4b67-9b22-1ebdd42e67a1"},"vehicle_type_id":"4","last_reported":1685660844,"current_range_meters":22000,"station_id":"ce4bhah2rcd13ifvqei0","pricing_plan_id":"free"},{"bike_id":"27af9c60-cc47-4645-b8be-f5a71014249c","system_id":"levelo_inurba_marseille","lat":43.28453,"lon":5.35882,"is_reserved":false,"is_disabled":false,"rental_uris":{"android":"levelo://app?vid=27af9c60-cc47-4645-b8be-f5a71014249c","ios":"levelo://app?vid=27af9c60-cc47-4645-b8be-f5a71014249c"},"vehicle_type_id":"4","last_reported":1685660844,"current_range_meters":22800,"station_id":"ce4bhah2rcd13ifvqei0","pricing_plan_id":"free"},{"bike_id":"729ebd8e-ac41-4762-b9ee-333595cfe803","system_id":"levelo_inurba_marseille","lat":43.28433,"lon":5.35927,"is_reserved":false,"is_disabled":false,"rental_uris":{"android":"levelo://app?vid=729ebd8e-ac41-4762-b9ee-333595cfe803","ios":"levelo://app?vid=729ebd8e-ac41-4762-b9ee-333595cfe803"},"vehicle_type_id":"4","last_reported":1685660844,"current_range_meters":31200,"station_id":"ce4bhah2rcd13ifvqei0","pricing_plan_id":"free"},{"bike_id":"9926a36b-4941-4ccd-8044-8ce8bb64762a","system_id":"levelo_inurba_marseille","lat":43.285856,"lon":5.350771,"is_reserved":false,"is_disabled":false,"rental_uris":{"android":"levelo://app?vid=9926a36b-4941-4ccd-8044-8ce8bb64762a","ios":"levelo://app?vid=9926a36b-4941-4ccd-8044-8ce8bb64762a"},"vehicle_type_id":"4","last_reported":1685660844,"current_range_meters":31200,"station_id":"ce4bhch2rcd13ifvqeug","pricing_plan_id":"free"},{"bike_id":"4e2f41e8-d872-4582-a7f4-88c6b28f7a60","system_id":"levelo_inurba_marseille","lat":43.285856,"lon":5.350771,"is_reserved":false,"is_disabled":false,"rental_uris":{"android":"levelo://app?vid=4e2f41e8-d872-4582-a7f4-88c6b28f7a60","ios":"levelo://app?vid=4e2f41e8-d872-4582-a7f4-88c6b28f7a60"},"vehicle_type_id":"4","last_reported":1685660844,"current_range_meters":27600,"station_id":"ce4bhch2rcd13ifvqeug","pricing_plan_id":"free"},{"bike_id":"7c3c538d-47ad-4cbd-a901-201b3259a088","system_id":"levelo_inurba_marseille","lat":43.285856,"lon":5.350771,"is_reserved":false,"is_disabled":false,"rental_uris":{"android":"levelo://app?vid=7c3c538d-47ad-4cbd-a901-201b3259a088","ios":"levelo://app?vid=7c3c538d-47ad-4cbd-a901-201b3259a088"},"vehicle_type_id":"4","last_reported":1685660844,"current_range_meters":22000,"station_id":"ce4bhch2rcd13ifvqeug","pricing_plan_id":"free"},{"bike_id":"398a9799-253b-4553-abf5-89c78ef43890","system_id":"levelo_inurba_marseille","lat":43.28616,"lon":5.35096,"is_reserved":false,"is_disabled":false,"rental_uris":{"android":"levelo://app?vid=398a9799-253b-4553-abf5-89c78ef43890","ios":"levelo://app?vid=398a9799-253b-4553-abf5-89c78ef43890"},"vehicle_type_id":"4","last_reported":1685660844,"current_range_meters":9200,"station_id":"","pricing_plan_id":"free"},{"bike_id":"56bf9be7-b52b-461d-bd16-e4ba4b06dcf0","system_id":"levelo_inurba_marseille","lat":43.295713,"lon":5.399639,"is_reserved":false,"is_disabled":false,"rental_uris":{"android":"levelo://app?vid=56bf9be7-b52b-461d-bd16-e4ba4b06dcf0","ios":"levelo://app?vid=56bf9be7-b52b-461d-bd16-e4ba4b06dcf0"},"vehicle_type_id":"4","last_reported":1685660844,"current_range_meters":23600,"station_id":"ce4bh312rcd13ifvqdj0","pricing_plan_id":"free"},{"bike_id":"51e384ad-77a1-4a59-bab6-a7fe30a236f4","system_id":"levelo_inurba_marseille","lat":43.295713,"lon":5.399639,"is_reserved":false,"is_disabled":false,"rental_uris":{"android":"levelo://app?vid=51e384ad-77a1-4a59-bab6-a7fe30a236f4","ios":"levelo://app?vid=51e384ad-77a1-4a59-bab6-a7fe30a236f4"},"vehicle_type_id":"4","last_reported":1685660844,"current_range_meters":26400,"station_id":"ce4bh312rcd13ifvqdj0","pricing_plan_id":"free"},{"bike_id":"6a2fc561-7f81-4647-9c24-afe23a1fc623","system_id":"levelo_inurba_marseille","lat":43.295713,"lon":5.399639,"is_reserved":false,"is_disabled":false,"rental_uris":{"android":"levelo://app?vid=6a2fc561-7f81-4647-9c24-afe23a1fc623","ios":"levelo://app?vid=6a2fc561-7f81-4647-9c24-afe23a1fc623"},"vehicle_type_id":"4","last_reported":1685660844,"current_range_meters":23200,"station_id":"ce4bh312rcd13ifvqdj0","pricing_plan_id":"free"},{"bike_id":"d6a9be81-deef-4ebf-818c-6a7f72bddb51","system_id":"levelo_inurba_marseille","lat":43.28689,"lon":5.38652,"is_reserved":false,"is_disabled":false,"rental_uris":{"android":"levelo://app?vid=d6a9be81-deef-4ebf-818c-6a7f72bddb51","ios":"levelo://app?vid=d6a9be81-deef-4ebf-818c-6a7f72bddb51"},"vehicle_type_id":"4","last_reported":1685660844,"current_range_meters":31200,"station_id":"","pricing_plan_id":"free"},{"bike_id":"b205e703-9cc6-479d-b47b-dcec15459f4d","system_id":"levelo_inurba_marseille","lat":43.32705,"lon":5.40367,"is_reserved":false,"is_disabled":false,"rental_uris":{"android":"levelo://app?vid=b205e703-9cc6-479d-b47b-dcec15459f4d","ios":"levelo://app?vid=b205e703-9cc6-479d-b47b-dcec15459f4d"},"vehicle_type_id":"4","last_reported":1685660844,"current_range_meters":24400,"station_id":"","pricing_plan_id":"free"},{"bike_id":"ad3b4fc5-d39b-480f-b7a2-35fd52f0f794","system_id":"levelo_inurba_marseille","lat":43.323464,"lon":5.406297,"is_reserved":false,"is_disabled":false,"rental_uris":{"android":"levelo://app?vid=ad3b4fc5-d39b-480f-b7a2-35fd52f0f794","ios":"levelo://app?vid=ad3b4fc5-d39b-480f-b7a2-35fd52f0f794"},"vehicle_type_id":"4","last_reported":1685660844,"current_range_meters":27200,"station_id":"ce4bhq92rcd13ifvqhjg","pricing_plan_id":"free"},{"bike_id":"11e24285-9fee-4666-bf30-bbcc6d1fd00b","system_id":"levelo_inurba_marseille","lat":43.3234,"lon":5.40619,"is_reserved":false,"is_disabled":false,"rental_uris":{"android":"levelo://app?vid=11e24285-9fee-4666-bf30-bbcc6d1fd00b","ios":"levelo://app?vid=11e24285-9fee-4666-bf30-bbcc6d1fd00b"},"vehicle_type_id":"4","last_reported":1685660844,"current_range_meters":27200,"station_id":"ce4bhq92rcd13ifvqhjg","pricing_plan_id":"free"},{"bike_id":"6b6e6550-a570-4017-8c87-39e899e1fe64","system_id":"levelo_inurba_marseille","lat":43.33728,"lon":5.39198,"is_reserved":false,"is_disabled":false,"rental_uris":{"android":"levelo://app?vid=6b6e6550-a570-4017-8c87-39e899e1fe64","ios":"levelo://app?vid=6b6e6550-a570-4017-8c87-39e899e1fe64"},"vehicle_type_id":"4","last_reported":1685660844,"current_range_meters":3200,"station_id":"","pricing_plan_id":"free"},{"bike_id":"b3804271-6b6f-48e6-9f7a-1151186ea9fb","system_id":"levelo_inurba_marseille","lat":43.28829,"lon":5.39285,"is_reserved":false,"is_disabled":false,"rental_uris":{"android":"levelo://app?vid=b3804271-6b6f-48e6-9f7a-1151186ea9fb","ios":"levelo://app?vid=b3804271-6b6f-48e6-9f7a-1151186ea9fb"},"vehicle_type_id":"4","last_reported":1685660844,"current_range_meters":0,"station_id":"ce4bh2p2rcd13ifvqdi0","pricing_plan_id":"free"},{"bike_id":"2fb3bb8a-0376-4065-aaee-f47b514e1e1e","system_id":"levelo_inurba_marseille","lat":43.283498,"lon":5.380948,"is_reserved":false,"is_disabled":false,"rental_uris":{"android":"levelo://app?vid=2fb3bb8a-0376-4065-aaee-f47b514e1e1e","ios":"levelo://app?vid=2fb3bb8a-0376-4065-aaee-f47b514e1e1e"},"vehicle_type_id":"4","last_reported":1685660844,"current_range_meters":20000,"station_id":"ce4bh412rcd13ifvqdr0","pricing_plan_id":"free"},{"bike_id":"adad7eef-8f68-49b4-9a47-55530c104aff","system_id":"levelo_inurba_marseille","lat":43.283498,"lon":5.380948,"is_reserved":false,"is_disabled":false,"rental_uris":{"android":"levelo://app?vid=adad7eef-8f68-49b4-9a47-55530c104aff","ios":"levelo://app?vid=adad7eef-8f68-49b4-9a47-55530c104aff"},"vehicle_type_id":"4","last_reported":1685660844,"current_range_meters":25200,"station_id":"ce4bh412rcd13ifvqdr0","pricing_plan_id":"free"},{"bike_id":"6904b89d-142b-421b-ab76-74220f2bf3d0","system_id":"levelo_inurba_marseille","lat":43.283498,"lon":5.380948,"is_reserved":false,"is_disabled":false,"rental_uris":{"android":"levelo://app?vid=6904b89d-142b-421b-ab76-74220f2bf3d0","ios":"levelo://app?vid=6904b89d-142b-421b-ab76-74220f2bf3d0"},"vehicle_type_id":"4","last_reported":1685660844,"current_range_meters":27200,"station_id":"ce4bh412rcd13ifvqdr0","pricing_plan_id":"free"},{"bike_id":"7c1089fe-f310-45fb-8d1c-0ad2585ad874","system_id":"levelo_inurba_marseille","lat":43.283498,"lon":5.380948,"is_reserved":false,"is_disabled":false,"rental_uris":{"android":"levelo://app?vid=7c1089fe-f310-45fb-8d1c-0ad2585ad874","ios":"levelo://app?vid=7c1089fe-f310-45fb-8d1c-0ad2585ad874"},"vehicle_type_id":"4","last_reported":1685660844,"current_range_meters":30400,"station_id":"ce4bh412rcd13ifvqdr0","pricing_plan_id":"free"},{"bike_id":"2e7d3873-c011-4761-acb3-4c8f8c3aad20","system_id":"levelo_inurba_marseille","lat":43.283498,"lon":5.380948,"is_reserved":false,"is_disabled":false,"rental_uris":{"android":"levelo://app?vid=2e7d3873-c011-4761-acb3-4c8f8c3aad20","ios":"levelo://app?vid=2e7d3873-c011-4761-acb3-4c8f8c3aad20"},"vehicle_type_id":"4","last_reported":1685660844,"current_range_meters":31200,"station_id":"ce4bh412rcd13ifvqdr0","pricing_plan_id":"free"},{"bike_id":"2d2e4aa8-c68c-40d8-96eb-a651c29879e1","system_id":"levelo_inurba_marseille","lat":43.2842,"lon":5.34987,"is_reserved":false,"is_disabled":false,"rental_uris":{"android":"levelo://app?vid=2d2e4aa8-c68c-40d8-96eb-a651c29879e1","ios":"levelo://app?vid=2d2e4aa8-c68c-40d8-96eb-a651c29879e1"},"vehicle_type_id":"4","last_reported":1685660844,"current_range_meters":29600,"station_id":"ce4bhbh2rcd13ifvqepg","pricing_plan_id":"free"},{"bike_id":"8b927640-4f11-46a8-85a0-289b1db37982","system_id":"levelo_inurba_marseille","lat":43.28336,"lon":5.38105,"is_reserved":false,"is_disabled":false,"rental_uris":{"android":"levelo://app?vid=8b927640-4f11-46a8-85a0-289b1db37982","ios":"levelo://app?vid=8b927640-4f11-46a8-85a0-289b1db37982"},"vehicle_type_id":"4","last_reported":1685660844,"current_range_meters":26000,"station_id":"ce4bh412rcd13ifvqdr0","pricing_plan_id":"free"},{"bike_id":"3c2eb3ff-5214-4108-b049-06084eae045f","system_id":"levelo_inurba_marseille","lat":43.284218,"lon":5.349744,"is_reserved":false,"is_disabled":false,"rental_uris":{"android":"levelo://app?vid=3c2eb3ff-5214-4108-b049-06084eae045f","ios":"levelo://app?vid=3c2eb3ff-5214-4108-b049-06084eae045f"},"vehicle_type_id":"4","last_reported":1685660844,"current_range_meters":23200,"station_id":"ce4bhbh2rcd13ifvqepg","pricing_plan_id":"free"},{"bike_id":"43c62420-2804-4de9-9313-bdae0c6fb77f","system_id":"levelo_inurba_marseille","lat":43.289363,"lon":5.396322,"is_reserved":false,"is_disabled":false,"rental_uris":{"android":"levelo://app?vid=43c62420-2804-4de9-9313-bdae0c6fb77f","ios":"levelo://app?vid=43c62420-2804-4de9-9313-bdae0c6fb77f"},"vehicle_type_id":"4","last_reported":1685660844,"current_range_meters":2400,"station_id":"ce4bh3h2rcd13ifvqdn0","pricing_plan_id":"free"},{"bike_id":"7f1ca6d7-aed9-49ab-b8de-eb022a80cabb","system_id":"levelo_inurba_marseille","lat":43.292724,"lon":5.401131,"is_reserved":false,"is_disabled":false,"rental_uris":{"android":"levelo://app?vid=7f1ca6d7-aed9-49ab-b8de-eb022a80cabb","ios":"levelo://app?vid=7f1ca6d7-aed9-49ab-b8de-eb022a80cabb"},"vehicle_type_id":"4","last_reported":1685660844,"current_range_meters":9200,"station_id":"ce4bh312rcd13ifvqdk0","pricing_plan_id":"free"},{"bike_id":"a088d0fa-2eec-488a-b928-0884f7c525af","system_id":"levelo_inurba_marseille","lat":43.28081,"lon":5.36061,"is_reserved":false,"is_disabled":false,"rental_uris":{"android":"levelo://app?vid=a088d0fa-2eec-488a-b928-0884f7c525af","ios":"levelo://app?vid=a088d0fa-2eec-488a-b928-0884f7c525af"},"vehicle_type_id":"4","last_reported":1685660844,"current_range_meters":28400,"station_id":"ce4bhah2rcd13ifvqei0","pricing_plan_id":"free"},{"bike_id":"f21908e9-0706-463c-90b3-9a157d853208","system_id":"levelo_inurba_marseille","lat":43.28274,"lon":5.35052,"is_reserved":false,"is_disabled":false,"rental_uris":{"android":"levelo://app?vid=f21908e9-0706-463c-90b3-9a157d853208","ios":"levelo://app?vid=f21908e9-0706-463c-90b3-9a157d853208"},"vehicle_type_id":"4","last_reported":1685660844,"current_range_meters":18800,"station_id":"ce4bhbp2rcd13ifvqerg","pricing_plan_id":"free"},{"bike_id":"f0f9257e-4280-487e-91e3-63573b4bc2ce","system_id":"levelo_inurba_marseille","lat":43.28039,"lon":5.369297,"is_reserved":false,"is_disabled":false,"rental_uris":{"android":"levelo://app?vid=f0f9257e-4280-487e-91e3-63573b4bc2ce","ios":"levelo://app?vid=f0f9257e-4280-487e-91e3-63573b4bc2ce"},"vehicle_type_id":"4","last_reported":1685660844,"current_range_meters":31200,"station_id":"ce4bha12rcd13ifvqef0","pricing_plan_id":"free"},{"bike_id":"b76316b9-3a04-42d2-9063-c415c44872ef","system_id":"levelo_inurba_marseille","lat":43.282754,"lon":5.350519,"is_reserved":false,"is_disabled":false,"rental_uris":{"android":"levelo://app?vid=b76316b9-3a04-42d2-9063-c415c44872ef","ios":"levelo://app?vid=b76316b9-3a04-42d2-9063-c415c44872ef"},"vehicle_type_id":"4","last_reported":1685660844,"current_range_meters":9200,"station_id":"ce4bhbp2rcd13ifvqerg","pricing_plan_id":"free"},{"bike_id":"864c3b0d-ca1a-4dd8-851b-16e1675f2650","system_id":"levelo_inurba_marseille","lat":43.283502,"lon":5.386471,"is_reserved":false,"is_disabled":false,"rental_uris":{"android":"levelo://app?vid=864c3b0d-ca1a-4dd8-851b-16e1675f2650","ios":"levelo://app?vid=864c3b0d-ca1a-4dd8-851b-16e1675f2650"},"vehicle_type_id":"4","last_reported":1685660844,"current_range_meters":20400,"station_id":"ce4bh492rcd13ifvqdvg","pricing_plan_id":"free"},{"bike_id":"d0fa590a-25e1-4114-87fc-cc8bb209950d","system_id":"levelo_inurba_marseille","lat":43.282754,"lon":5.350519,"is_reserved":false,"is_disabled":false,"rental_uris":{"android":"levelo://app?vid=d0fa590a-25e1-4114-87fc-cc8bb209950d","ios":"levelo://app?vid=d0fa590a-25e1-4114-87fc-cc8bb209950d"},"vehicle_type_id":"4","last_reported":1685660844,"current_range_meters":16800,"station_id":"ce4bhbp2rcd13ifvqerg","pricing_plan_id":"free"},{"bike_id":"ccec447d-3797-47e6-b6f8-be8d889c33fe","system_id":"levelo_inurba_marseille","lat":43.283502,"lon":5.386471,"is_reserved":false,"is_disabled":false,"rental_uris":{"android":"levelo://app?vid=ccec447d-3797-47e6-b6f8-be8d889c33fe","ios":"levelo://app?vid=ccec447d-3797-47e6-b6f8-be8d889c33fe"},"vehicle_type_id":"4","last_reported":1685660844,"current_range_meters":16000,"station_id":"ce4bh492rcd13ifvqdvg","pricing_plan_id":"free"},{"bike_id":"65d6b502-1a8e-4a25-920f-c7639bcc4123","system_id":"levelo_inurba_marseille","lat":43.28261,"lon":5.35063,"is_reserved":false,"is_disabled":false,"rental_uris":{"android":"levelo://app?vid=65d6b502-1a8e-4a25-920f-c7639bcc4123","ios":"levelo://app?vid=65d6b502-1a8e-4a25-920f-c7639bcc4123"},"vehicle_type_id":"4","last_reported":1685660844,"current_range_meters":14800,"station_id":"ce4bhbp2rcd13ifvqerg","pricing_plan_id":"free"},{"bike_id":"dfd40299-6720-4ff7-87cc-7c59eb190053","system_id":"levelo_inurba_marseille","lat":43.282744,"lon":5.350533,"is_reserved":false,"is_disabled":false,"rental_uris":{"android":"levelo://app?vid=dfd40299-6720-4ff7-87cc-7c59eb190053","ios":"levelo://app?vid=dfd40299-6720-4ff7-87cc-7c59eb190053"},"vehicle_type_id":"4","last_reported":1685660844,"current_range_meters":7600,"station_id":"ce4bhbp2rcd13ifvqerg","pricing_plan_id":"free"},{"bike_id":"74f9b768-790f-400a-9d9e-5984fe63c497","system_id":"levelo_inurba_marseille","lat":43.28039,"lon":5.369297,"is_reserved":false,"is_disabled":false,"rental_uris":{"android":"levelo://app?vid=74f9b768-790f-400a-9d9e-5984fe63c497","ios":"levelo://app?vid=74f9b768-790f-400a-9d9e-5984fe63c497"},"vehicle_type_id":"4","last_reported":1685660844,"current_range_meters":4800,"station_id":"ce4bha12rcd13ifvqef0","pricing_plan_id":"free"},{"bike_id":"eaebf006-aefc-4ce8-8fa2-01be44d893ad","system_id":"levelo_inurba_marseille","lat":43.28039,"lon":5.369297,"is_reserved":false,"is_disabled":false,"rental_uris":{"android":"levelo://app?vid=eaebf006-aefc-4ce8-8fa2-01be44d893ad","ios":"levelo://app?vid=eaebf006-aefc-4ce8-8fa2-01be44d893ad"},"vehicle_type_id":"4","last_reported":1685660844,"current_range_meters":14800,"station_id":"ce4bha12rcd13ifvqef0","pricing_plan_id":"free"},{"bike_id":"2a673736-3a23-4f5f-b835-906e7058f024","system_id":"levelo_inurba_marseille","lat":43.28039,"lon":5.369297,"is_reserved":false,"is_disabled":false,"rental_uris":{"android":"levelo://app?vid=2a673736-3a23-4f5f-b835-906e7058f024","ios":"levelo://app?vid=2a673736-3a23-4f5f-b835-906e7058f024"},"vehicle_type_id":"4","last_reported":1685660844,"current_range_meters":31200,"station_id":"ce4bha12rcd13ifvqef0","pricing_plan_id":"free"},{"bike_id":"1869b417-76c7-4c84-b40d-64625b4dcf30","system_id":"levelo_inurba_marseille","lat":43.28039,"lon":5.369297,"is_reserved":false,"is_disabled":false,"rental_uris":{"android":"levelo://app?vid=1869b417-76c7-4c84-b40d-64625b4dcf30","ios":"levelo://app?vid=1869b417-76c7-4c84-b40d-64625b4dcf30"},"vehicle_type_id":"4","last_reported":1685660844,"current_range_meters":31200,"station_id":"ce4bha12rcd13ifvqef0","pricing_plan_id":"free"},{"bike_id":"7bfdf0fa-370f-410f-9419-aca8c5a28a24","system_id":"levelo_inurba_marseille","lat":43.28039,"lon":5.369297,"is_reserved":false,"is_disabled":false,"rental_uris":{"android":"levelo://app?vid=7bfdf0fa-370f-410f-9419-aca8c5a28a24","ios":"levelo://app?vid=7bfdf0fa-370f-410f-9419-aca8c5a28a24"},"vehicle_type_id":"4","last_reported":1685660844,"current_range_meters":31200,"station_id":"ce4bha12rcd13ifvqef0","pricing_plan_id":"free"},{"bike_id":"2881063e-bc2c-4f41-8991-ca4c68a772a5","system_id":"levelo_inurba_marseille","lat":43.28039,"lon":5.369297,"is_reserved":false,"is_disabled":false,"rental_uris":{"android":"levelo://app?vid=2881063e-bc2c-4f41-8991-ca4c68a772a5","ios":"levelo://app?vid=2881063e-bc2c-4f41-8991-ca4c68a772a5"},"vehicle_type_id":"4","last_reported":1685660844,"current_range_meters":31200,"station_id":"ce4bha12rcd13ifvqef0","pricing_plan_id":"free"},{"bike_id":"362f9f27-a71e-4c4d-bc0e-afa057941c8a","system_id":"levelo_inurba_marseille","lat":43.28039,"lon":5.369297,"is_reserved":false,"is_disabled":false,"rental_uris":{"android":"levelo://app?vid=362f9f27-a71e-4c4d-bc0e-afa057941c8a","ios":"levelo://app?vid=362f9f27-a71e-4c4d-bc0e-afa057941c8a"},"vehicle_type_id":"4","last_reported":1685660844,"current_range_meters":31200,"station_id":"ce4bha12rcd13ifvqef0","pricing_plan_id":"free"},{"bike_id":"dab1a37c-14c0-4c1c-a543-b587c8481f2b","system_id":"levelo_inurba_marseille","lat":43.280382,"lon":5.369291,"is_reserved":false,"is_disabled":false,"rental_uris":{"android":"levelo://app?vid=dab1a37c-14c0-4c1c-a543-b587c8481f2b","ios":"levelo://app?vid=dab1a37c-14c0-4c1c-a543-b587c8481f2b"},"vehicle_type_id":"4","last_reported":1685660844,"current_range_meters":26400,"station_id":"ce4bha12rcd13ifvqef0","pricing_plan_id":"free"},{"bike_id":"79a6599a-a540-42d4-b494-15b4baa94a32","system_id":"levelo_inurba_marseille","lat":43.280382,"lon":5.369291,"is_reserved":false,"is_disabled":false,"rental_uris":{"android":"levelo://app?vid=79a6599a-a540-42d4-b494-15b4baa94a32","ios":"levelo://app?vid=79a6599a-a540-42d4-b494-15b4baa94a32"},"vehicle_type_id":"4","last_reported":1685660844,"current_range_meters":30800,"station_id":"ce4bha12rcd13ifvqef0","pricing_plan_id":"free"},{"bike_id":"5624a150-1c3a-4259-a725-290d2e7d5b2c","system_id":"levelo_inurba_marseille","lat":43.28039,"lon":5.369297,"is_reserved":false,"is_disabled":false,"rental_uris":{"android":"levelo://app?vid=5624a150-1c3a-4259-a725-290d2e7d5b2c","ios":"levelo://app?vid=5624a150-1c3a-4259-a725-290d2e7d5b2c"},"vehicle_type_id":"4","last_reported":1685660844,"current_range_meters":27600,"station_id":"ce4bha12rcd13ifvqef0","pricing_plan_id":"free"},