{"last_updated":1691265975,"ttl":30,"version":"2.2","data":{"bikes":[{"bike_id":"f98e6407-9d72-4eb9-b4cc-2f3741d53ba3","system_id":"levelo_inurba_marseille","lat":43.309076,"lon":5.368465,"is_reserved":false,"is_disabled":false,"rental_uris":{"android":"levelo://app?vid=f98e6407-9d72-4eb9-b4cc-2f3741d53ba3","ios":"levelo://app?vid=f98e6407-9d72-4eb9-b4cc-2f3741d53ba3"},"vehicle_type_id":"4","last_reported":1691265976,"current_range_meters":13200,"station_id":"ce4bgn92rcd13ifvqbvg","pricing_plan_id":"free"},{"bike_id":"e44926f8-bf7b-43ac-a1b1-47fc766bc6d8","system_id":"levelo_inurba_marseille","lat":43.30902,"lon":5.36844,"is_reserved":false,"is_disabled":false,"rental_uris":{"android":"levelo://app?vid=e44926f8-bf7b-43ac-a1b1-47fc766bc6d8","ios":"levelo://app?vid=e44926f8-bf7b-43ac-a1b1-47fc766bc6d8"},"vehicle_type_id":"4","last_reported":1691265976,"current_range_meters":4000,"station_id":"ce4bgn92rcd13ifvqbvg","pricing_plan_id":"free"},{"bike_id":"fadb3db9-a274-40d3-bd4f-7271133456b8","system_id":"levelo_inurba_marseille","lat":43.30758,"lon":5.36794,"is_reserved":false,"is_disabled":false,"rental_uris":{"android":"levelo://app?vid=fadb3db9-a274-40d3-bd4f-7271133456b8","ios":"levelo://app?vid=fadb3db9-a274-40d3-bd4f-7271133456b8"},"vehicle_type_id":"4","last_reported":1691265976,"current_range_meters":26000,"station_id":"","pricing_plan_id":"free"},{"bike_id":"7cfb81a3-fd7f-41d1-987d-c1037b7c6b4a","system_id":"levelo_inurba_marseille","lat":43.3141,"lon":5.3746,"is_reserved":false,"is_disabled":false,"rental_uris":{"android":"levelo://app?vid=7cfb81a3-fd7f-41d1-987d-c1037b7c6b4a","ios":"levelo://app?vid=7cfb81a3-fd7f-41d1-987d-c1037b7c6b4a"},"vehicle_type_id":"4","last_reported":1691265976,"current_range_meters":11600,"station_id":"","pricing_plan_id":"free"},{"bike_id":"7cd2cfdc-c3d5-4161-8654-05e0945ffa2c","system_id":"levelo_inurba_marseille","lat":43.317075,"lon":5.377367,"is_reserved":false,"is_disabled":false,"rental_uris":{"android":"levelo://app?vid=7cd2cfdc-c3d5-4161-8654-05e0945ffa2c","ios":"levelo://app?vid=7cd2cfdc-c3d5-4161-8654-05e0945ffa2c"},"vehicle_type_id":"4","last_reported":1691265976,"current_range_meters":26000,"station_id":"ce4bgth2rcd13ifvqch0","pricing_plan_id":"free"},{"bike_id":"13553aaf-5bc1-45b2-868d-ce2502b4addb","system_id":"levelo_inurba_marseille","lat":43.305368,"lon":5.367343,"is_reserved":false,"is_disabled":false,"rental_uris":{"android":"levelo://app?vid=13553aaf-5bc1-45b2-868d-ce2502b4addb","ios":"levelo://app?vid=13553aaf-5bc1-45b2-868d-ce2502b4addb"},"vehicle_type_id":"4","last_reported":1691265976,"current_range_meters":4800,"station_id":"ce4bgrp2rcd13ifvqc9g","pricing_plan_id":"free"},{"bike_id":"485c3a2e-6bdd-42f6-8d19-135d6f0bd00e","system_id":"levelo_inurba_marseille","lat":43.305714,"lon":5.365633,"is_reserved":false,"is_disabled":false,"rental_uris":{"android":"levelo://app?vid=485c3a2e-6bdd-42f6-8d19-135d6f0bd00e","ios":"levelo://app?vid=485c3a2e-6bdd-42f6-8d19-135d6f0bd00e"},"vehicle_type_id":"4","last_reported":1691265976,"current_range_meters":12400,"station_id":"ce4bgs12rcd13ifvqcag","pricing_plan_id":"free"},{"bike_id":"5ee15a26-897f-4364-9fd9-046570e9d541","system_id":"levelo_inurba_marseille","lat":43.305368,"lon":5.367343,"is_reserved":false,"is_disabled":false,"rental_uris":{"android":"levelo://app?vid=5ee15a26-897f-4364-9fd9-046570e9d541","ios":"levelo://app?vid=5ee15a26-897f-4364-9fd9-046570e9d541"},"vehicle_type_id":"4","last_reported":1691265976,"current_range_meters":9600,"station_id":"ce4bgrp2rcd13ifvqc9g","pricing_plan_id":"free"},{"bike_id":"df305165-a951-403c-9e4e-725a9bcd8796","system_id":"levelo_inurba_marseille","lat":43.305706,"lon":5.365654,"is_reserved":false,"is_disabled":false,"rental_uris":{"android":"levelo://app?vid=df305165-a951-403c-9e4e-725a9bcd8796","ios":"levelo://app?vid=df305165-a951-403c-9e4e-725a9bcd8796"},"vehicle_type_id":"4","last_reported":1691265976,"current_range_meters":3200,"station_id":"ce4bgs12rcd13ifvqcag","pricing_plan_id":"free"},{"bike_id":"f20ea888-8740-440b-bfeb-8eb2a7c1f652","system_id":"levelo_inurba_marseille","lat":43.305989,"lon":5.37225,"is_reserved":false,"is_disabled":false,"rental_uris":{"android":"levelo://app?vid=f20ea888-8740-440b-bfeb-8eb2a7c1f652","ios":"levelo://app?vid=f20ea888-8740-440b-bfeb-8eb2a7c1f652"},"vehicle_type_id":"4","last_reported":1691265976,"current_range_meters":31200,"station_id":"ce4bgqh2rcd13ifvqc4g","pricing_plan_id":"free"},{"bike_id":"0b97c345-04b6-4523-8f7a-6e4fdbf23165","system_id":"levelo_inurba_marseille","lat":43.311125,"lon":5.377624,"is_reserved":false,"is_disabled":false,"rental_uris":{"android":"levelo://app?vid=0b97c345-04b6-4523-8f7a-6e4fdbf23165","ios":"levelo://app?vid=0b97c345-04b6-4523-8f7a-6e4fdbf23165"},"vehicle_type_id":"4","last_reported":1691265976,"current_range_meters":14400,"station_id":"ce4bgt92rcd13ifvqcg0","pricing_plan_id":"free"},{"bike_id":"feb399b5-2817-4b32-8ab4-fc09e0682c77","system_id":"levelo_inurba_marseille","lat":43.307945,"lon":5.376487,"is_reserved":false,"is_disabled":false,"rental_uris":{"android":"levelo://app?vid=feb399b5-2817-4b32-8ab4-fc09e0682c77","ios":"levelo://app?vid=feb399b5-2817-4b32-8ab4-fc09e0682c77"},"vehicle_type_id":"4","last_reported":1691265976,"current_range_meters":15200,"station_id":"ce4bgv92rcd13ifvqcq0","pricing_plan_id":"free"},{"bike_id":"9dec1d67-f007-4551-a137-5be3825df4df","system_id":"levelo_inurba_marseille","lat":43.317075,"lon":5.377367,"is_reserved":false,"is_disabled":false,"rental_uris":{"android":"levelo://app?vid=9dec1d67-f007-4551-a137-5be3825df4df","ios":"levelo://app?vid=9dec1d67-f007-4551-a137-5be3825df4df"},"vehicle_type_id":"4","last_reported":1691265976,"current_range_meters":12000,"station_id":"ce4bgth2rcd13ifvqch0","pricing_plan_id":"free"},{"bike_id":"d0cda0df-b450-40b5-8ebf-842c2fc10716","system_id":"levelo_inurba_marseille","lat":43.31707,"lon":5.37759,"is_reserved":false,"is_disabled":false,"rental_uris":{"android":"levelo://app?vid=d0cda0df-b450-40b5-8ebf-842c2fc10716","ios":"levelo://app?vid=d0cda0df-b450-40b5-8ebf-842c2fc10716"},"vehicle_type_id":"4","last_reported":1691265976,"current_range_meters":21600,"station_id":"ce4bgth2rcd13ifvqch0","pricing_plan_id":"free"},{"bike_id":"d65f31fd-588e-4e32-b675-72af623a8dac","system_id":"levelo_inurba_marseille","lat":43.31714,"lon":5.37756,"is_reserved":false,"is_disabled":false,"rental_uris":{"android":"levelo://app?vid=d65f31fd-588e-4e32-b675-72af623a8dac","ios":"levelo://app?vid=d65f31fd-588e-4e32-b675-72af623a8dac"},"vehicle_type_id":"4","last_reported":1691265976,"current_range_meters":4000,"station_id":"ce4bgth2rcd13ifvqch0","pricing_plan_id":"free"},{"bike_id":"8c19fac9-0322-484f-8e7d-9982d5b54555","system_id":"levelo_inurba_marseille","lat":43.315289,"lon":5.380349,"is_reserved":false,"is_disabled":false,"rental_uris":{"android":"levelo://app?vid=8c19fac9-0322-484f-8e7d-9982d5b54555","ios":"levelo://app?vid=8c19fac9-0322-484f-8e7d-9982d5b54555"},"vehicle_type_id":"4","last_reported":1691265976,"current_range_meters":4800,"station_id":"ce4bhsp2rcd13ifvqi50","pricing_plan_id":"free"},{"bike_id":"b48448ab-9659-471b-9260-d5cf0a897823","system_id":"levelo_inurba_marseille","lat":43.301939,"lon":5.366286,"is_reserved":false,"is_disabled":false,"rental_uris":{"android":"levelo://app?vid=b48448ab-9659-471b-9260-d5cf0a897823","ios":"levelo://app?vid=b48448ab-9659-471b-9260-d5cf0a897823"},"vehicle_type_id":"4","last_reported":1691265976,"current_range_meters":11600,"station_id":"ce4bgrh2rcd13ifvqc8g","pricing_plan_id":"free"},{"bike_id":"91e5b089-4dce-4856-b599-27d7fc6e2050","system_id":"levelo_inurba_marseille","lat":43.301939,"lon":5.366286,"is_reserved":false,"is_disabled":false,"rental_uris":{"android":"levelo://app?vid=91e5b089-4dce-4856-b599-27d7fc6e2050","ios":"levelo://app?vid=91e5b089-4dce-4856-b599-27d7fc6e2050"},"vehicle_type_id":"4","last_reported":1691265976,"current_range_meters":7600,"station_id":"ce4bgrh2rcd13ifvqc8g","pricing_plan_id":"free"},{"bike_id":"e8f23cc2-b85d-4ca3-96f0-8bb52326c036","system_id":"levelo_inurba_marseille","lat":43.301939,"lon":5.366286,"is_reserved":false,"is_disabled":false,"rental_uris":{"android":"levelo://app?vid=e8f23cc2-b85d-4ca3-96f0-8bb52326c036","ios":"levelo://app?vid=e8f23cc2-b85d-4ca3-96f0-8bb52326c036"},"vehicle_type_id":"4","last_reported":1691265976,"current_range_meters":0,"station_id":"ce4bgrh2rcd13ifvqc8g","pricing_plan_id":"free"},{"bike_id":"0cb0ff53-eec4-4022-9a17-ba0b90b044fe","system_id":"levelo_inurba_marseille","lat":43.301939,"lon":5.366286,"is_reserved":false,"is_disabled":false,"rental_uris":{"android":"levelo://app?vid=0cb0ff53-eec4-4022-9a17-ba0b90b044fe","ios":"levelo://app?vid=0cb0ff53-eec4-4022-9a17-ba0b90b044fe"},"vehicle_type_id":"4","last_reported":1691265976,"current_range_meters":11200,"station_id":"ce4bgrh2rcd13ifvqc8g","pricing_plan_id":"free"},{"bike_id":"79c06e33-72c5-445f-a2f7-0ece4e39bf40","system_id":"levelo_inurba_marseille","lat":43.30282,"lon":5.37699,"is_reserved":false,"is_disabled":false,"rental_uris":{"android":"levelo://app?vid=79c06e33-72c5-445f-a2f7-0ece4e39bf40","ios":"levelo://app?vid=79c06e33-72c5-445f-a2f7-0ece4e39bf40"},"vehicle_type_id":"4","last_reported":1691265976,"current_range_meters":31200,"station_id":"ce4bguh2rcd13ifvqcj0","pricing_plan_id":"free"},{"bike_id":"d7957c0e-d755-44d0-802c-db4b1e643c2a","system_id":"levelo_inurba_marseille","lat":43.302784,"lon":5.377158,"is_reserved":false,"is_disabled":false,"rental_uris":{"android":"levelo://app?vid=d7957c0e-d755-44d0-802c-db4b1e643c2a","ios":"levelo://app?vid=d7957c0e-d755-44d0-802c-db4b1e643c2a"},"vehicle_type_id":"4","last_reported":1691265976,"current_range_meters":15600,"station_id":"ce4bguh2rcd13ifvqcj0","pricing_plan_id":"free"},{"bike_id":"5f2bfe06-d49f-453b-a98e-4cab55fbe608","system_id":"levelo_inurba_marseille","lat":43.30142,"lon":5.37417,"is_reserved":false,"is_disabled":false,"rental_uris":{"android":"levelo://app?vid=5f2bfe06-d49f-453b-a98e-4cab55fbe608","ios":"levelo://app?vid=5f2bfe06-d49f-453b-a98e-4cab55fbe608"},"vehicle_type_id":"4","last_reported":1691265976,"current_range_meters":15600,"station_id":"ce4bgs92rcd13ifvqcc0","pricing_plan_id":"free"},{"bike_id":"91c1e68c-072c-41ed-ab7d-e40ec14976ba","system_id":"levelo_inurba_marseille","lat":43.31994,"lon":5.38151,"is_reserved":false,"is_disabled":false,"rental_uris":{"android":"levelo://app?vid=91c1e68c-072c-41ed-ab7d-e40ec14976ba","ios":"levelo://app?vid=91c1e68c-072c-41ed-ab7d-e40ec14976ba"},"vehicle_type_id":"4","last_reported":1691265976,"current_range_meters":2800,"station_id":"ce4bhr12rcd13ifvqhpg","pricing_plan_id":"free"},{"bike_id":"cb31e567-1f56-4c43-a0bd-9189e49b78a1","system_id":"levelo_inurba_marseille","lat":43.319935,"lon":5.381699,"is_reserved":false,"is_disabled":false,"rental_uris":{"android":"levelo://app?vid=cb31e567-1f56-4c43-a0bd-9189e49b78a1","ios":"levelo://app?vid=cb31e567-1f56-4c43-a0bd-9189e49b78a1"},"vehicle_type_id":"4","last_reported":1691265976,"current_range_meters":15600,"station_id":"ce4bhr12rcd13ifvqhpg","pricing_plan_id":"free"},{"bike_id":"df4d9cb4-aaea-465f-bf05-6d654326ea11","system_id":"levelo_inurba_marseille","lat":43.31993,"lon":5.38162,"is_reserved":false,"is_disabled":false,"rental_uris":{"android":"levelo://app?vid=df4d9cb4-aaea-465f-bf05-6d654326ea11","ios":"levelo://app?vid=df4d9cb4-aaea-465f-bf05-6d654326ea11"},"vehicle_type_id":"4","last_reported":1691265976,"current_range_meters":8000,"station_id":"ce4bhr12rcd13ifvqhpg","pricing_plan_id":"free"},{"bike_id":"9a95753c-8dc1-42ea-91a7-eb3d8527cf64","system_id":"levelo_inurba_marseille","lat":43.31364,"lon":5.38494,"is_reserved":false,"is_disabled":false,"rental_uris":{"android":"levelo://app?vid=9a95753c-8dc1-42ea-91a7-eb3d8527cf64","ios":"levelo://app?vid=9a95753c-8dc1-42ea-91a7-eb3d8527cf64"},"vehicle_type_id":"4","last_reported":1691265976,"current_range_meters":21200,"station_id":"ce4bgt92rcd13ifvqcf0","pricing_plan_id":"free"},{"bike_id":"3e76ada0-5d72-4dd4-a406-81875221f849","system_id":"levelo_inurba_marseille","lat":43.31368,"lon":5.38495,"is_reserved":false,"is_disabled":false,"rental_uris":{"android":"levelo://app?vid=3e76ada0-5d72-4dd4-a406-81875221f849","ios":"levelo://app?vid=3e76ada0-5d72-4dd4-a406-81875221f849"},"vehicle_type_id":"4","last_reported":1691265976,"current_range_meters":8400,"station_id":"ce4bgt92rcd13ifvqcf0","pricing_plan_id":"free"},{"bike_id":"3cb7fd70-121e-4eb5-9a01-ecc8718aa1bb","system_id":"levelo_inurba_marseille","lat":43.29938,"lon":5.36549,"is_reserved":false,"is_disabled":false,"rental_uris":{"android":"levelo://app?vid=3cb7fd70-121e-4eb5-9a01-ecc8718aa1bb","ios":"levelo://app?vid=3cb7fd70-121e-4eb5-9a01-ecc8718aa1bb"},"vehicle_type_id":"4","last_reported":1691265976,"current_range_meters":28800,"station_id":"ce4bgm92rcd13ifvqbr0","pricing_plan_id":"free"},{"bike_id":"4697b35a-b277-4095-b57c-3d52ed8d7b0f","system_id":"levelo_inurba_marseille","lat":43.29934,"lon":5.36543,"is_reserved":false,"is_disabled":false,"rental_uris":{"android":"levelo://app?vid=4697b35a-b277-4095-b57c-3d52ed8d7b0f","ios":"levelo://app?vid=4697b35a-b277-4095-b57c-3d52ed8d7b0f"},"vehicle_type_id":"4","last_reported":1691265976,"current_range_meters":9600,"station_id":"ce4bgm92rcd13ifvqbr0","pricing_plan_id":"free"},{"bike_id":"7baefa0e-d2db-4826-bcef-5ff6d92b8a05","system_id":"levelo_inurba_marseille","lat":43.301939,"lon":5.366286,"is_reserved":false,"is_disabled":false,"rental_uris":{"android":"levelo://app?vid=7baefa0e-d2db-4826-bcef-5ff6d92b8a05","ios":"levelo://app?vid=7baefa0e-d2db-4826-bcef-5ff6d92b8a05"},"vehicle_type_id":"4","last_reported":1691265976,"current_range_meters":19600,"station_id":"ce4bgrh2rcd13ifvqc8g","pricing_plan_id":"free"},{"bike_id":"30537d43-af02-4a10-b928-7b9b8cf633d2","system_id":"levelo_inurba_marseille","lat":43.30542,"lon":5.38418,"is_reserved":false,"is_disabled":false,"rental_uris":{"android":"levelo://app?vid=30537d43-af02-4a10-b928-7b9b8cf633d2","ios":"levelo://app?vid=30537d43-af02-4a10-b928-7b9b8cf633d2"},"vehicle_type_id":"4","last_reported":1691265976,"current_range_meters":29200,"station_id":"ce4bgg92rcd13ifvqb30","pricing_plan_id":"free"},{"bike_id":"4a9f2ed8-8e0a-4108-90ce-ac80cb2a697f","system_id":"levelo_inurba_marseille","lat":43.299243,"lon":5.374807,"is_reserved":false,"is_disabled":false,"rental_uris":{"android":"levelo://app?vid=4a9f2ed8-8e0a-4108-90ce-ac80cb2a697f","ios":"levelo://app?vid=4a9f2ed8-8e0a-4108-90ce-ac80cb2a697f"},"vehicle_type_id":"4","last_reported":1691265976,"current_range_meters":24000,"station_id":"ce4bgjh2rcd13ifvqbg0","pricing_plan_id":"free"},{"bike_id":"f0975782-80c2-469a-9bf9-907e38c466e7","system_id":"levelo_inurba_marseille","lat":43.311722,"lon":5.387247,"is_reserved":false,"is_disabled":false,"rental_uris":{"android":"levelo://app?vid=f0975782-80c2-469a-9bf9-907e38c466e7","ios":"levelo://app?vid=f0975782-80c2-469a-9bf9-907e38c466e7"},"vehicle_type_id":"4","last_reported":1691265976,"current_range_meters":18400,"station_id":"ce4bgv12rcd13ifvqcp0","pricing_plan_id":"free"},{"bike_id":"fb641d4b-6ad3-4df2-974c-851b396a7cb1","system_id":"levelo_inurba_marseille","lat":43.299243,"lon":5.374807,"is_reserved":false,"is_disabled":false,"rental_uris":{"android":"levelo://app?vid=fb641d4b-6ad3-4df2-974c-851b396a7cb1","ios":"levelo://app?vid=fb641d4b-6ad3-4df2-974c-851b396a7cb1"},"vehicle_type_id":"4","last_reported":1691265976,"current_range_meters":5200,"station_id":"ce4bgjh2rcd13ifvqbg0","pricing_plan_id":"free"},{"bike_id":"3235488a-5abe-4f27-a56a-50e7b9989127","system_id":"levelo_inurba_marseille","lat":43.32288,"lon":5.38264,"is_reserved":false,"is_disabled":false,"rental_uris":{"android":"levelo://app?vid=3235488a-5abe-4f27-a56a-50e7b9989127","ios":"levelo://app?vid=3235488a-5abe-4f27-a56a-50e7b9989127"},"vehicle_type_id":"4","last_reported":1691265976,"current_range_meters":30000,"station_id":"ce4bhr12rcd13ifvqhqg","pricing_plan_id":"free"},{"bike_id":"54af0d74-1de2-450f-8445-78b5259f2d29","system_id":"levelo_inurba_marseille","lat":43.309589,"lon":5.390258,"is_reserved":false,"is_disabled":false,"rental_uris":{"android":"levelo://app?vid=54af0d74-1de2-450f-8445-78b5259f2d29","ios":"levelo://app?vid=54af0d74-1de2-450f-8445-78b5259f2d29"},"vehicle_type_id":"4","last_reported":1691265976,"current_range_meters":26400,"station_id":"ce4bgup2rcd13ifvqco0","pricing_plan_id":"free"},{"bike_id":"4711f823-9a36-491d-a201-28215b8e5924","system_id":"levelo_inurba_marseille","lat":43.32288,"lon":5.38275,"is_reserved":false,"is_disabled":false,"rental_uris":{"android":"levelo://app?vid=4711f823-9a36-491d-a201-28215b8e5924","ios":"levelo://app?vid=4711f823-9a36-491d-a201-28215b8e5924"},"vehicle_type_id":"4","last_reported":1691265976,"current_range_meters":15600,"station_id":"ce4bhr12rcd13ifvqhqg","pricing_plan_id":"free"},{"bike_id":"0963bae3-5b20-4e80-bff4-aafb7af6f51f","system_id":"levelo_inurba_marseille","lat":43.32822,"lon":5.36685,"is_reserved":false,"is_disabled":false,"rental_uris":{"android":"levelo://app?vid=0963bae3-5b20-4e80-bff4-aafb7af6f51f","ios":"levelo://app?vid=0963bae3-5b20-4e80-bff4-aafb7af6f51f"},"vehicle_type_id":"4","last_reported":1691265976,"current_range_meters":10400,"station_id":"ce4bhs92rcd13ifvqi0g","pricing_plan_id":"free"},{"bike_id":"5a1615d2-24e1-4219-b84b-ec593666fc81","system_id":"levelo_inurba_marseille","lat":43.32824,"lon":5.36688,"is_reserved":false,"is_disabled":false,"rental_uris":{"android":"levelo://app?vid=5a1615d2-24e1-4219-b84b-ec593666fc81","ios":"levelo://app?vid=5a1615d2-24e1-4219-b84b-ec593666fc81"},"vehicle_type_id":"4","last_reported":1691265976,"current_range_meters":18800,"station_id":"ce4bhs92rcd13ifvqi0g","pricing_plan_id":"free"},{"bike_id":"f3a2ce3e-e2ec-4940-9eb3-9ecf5bedfd7e","system_id":"levelo_inurba_marseille","lat":43.32825,"lon":5.36683,"is_reserved":false,"is_disabled":false,"rental_uris":{"android":"levelo://app?vid=f3a2ce3e-e2ec-4940-9eb3-9ecf5bedfd7e","ios":"levelo://app?vid=f3a2ce3e-e2ec-4940-9eb3-9ecf5bedfd7e"},"vehicle_type_id":"4","last_reported":1691265976,"current_range_meters":16000,"station_id":"ce4bhs92rcd13ifvqi0g","pricing_plan_id":"free"},{"bike_id":"8ae2a292-4b68-4114-8267-e4d284ceb76e","system_id":"levelo_inurba_marseille","lat":43.32825,"lon":5.36677,"is_reserved":false,"is_disabled":false,"rental_uris":{"android":"levelo://app?vid=8ae2a292-4b68-4114-8267-e4d284ceb76e","ios":"levelo://app?vid=8ae2a292-4b68-4114-8267-e4d284ceb76e"},"vehicle_type_id":"4","last_reported":1691265976,"current_range_meters":22000,"station_id":"ce4bhs92rcd13ifvqi0g","pricing_plan_id":"free"},{"bike_id":"268db224-141b-439d-90ff-927b3c861c0e","system_id":"levelo_inurba_marseille","lat":43.32826,"lon":5.36683,"is_reserved":false,"is_disabled":false,"rental_uris":{"android":"levelo://app?vid=268db224-141b-439d-90ff-927b3c861c0e","ios":"levelo://app?vid=268db224-141b-439d-90ff-927b3c861c0e"},"vehicle_type_id":"4","last_reported":1691265976,"current_range_meters":8400,"station_id":"ce4bhs92rcd13ifvqi0g","pricing_plan_id":"free"},{"bike_id":"b817d5ed-7bfc-4b4f-ab91-d197cc36525d","system_id":"levelo_inurba_marseille","lat":43.328371,"lon":5.366909,"is_reserved":false,"is_disabled":false,"rental_uris":{"android":"levelo://app?vid=b817d5ed-7bfc-4b4f-ab91-d197cc36525d","ios":"levelo://app?vid=b817d5ed-7bfc-4b4f-ab91-d197cc36525d"},"vehicle_type_id":"4","last_reported":1691265976,"current_range_meters":27200,"station_id":"ce4bhs92rcd13ifvqi0g","pricing_plan_id":"free"},{"bike_id":"1978f8e7-0ba9-4d32-8a0a-3849b4985817","system_id":"levelo_inurba_marseille","lat":43.3283,"lon":5.36679,"is_reserved":false,"is_disabled":false,"rental_uris":{"android":"levelo://app?vid=1978f8e7-0ba9-4d32-8a0a-3849b4985817","ios":"levelo://app?vid=1978f8e7-0ba9-4d32-8a0a-3849b4985817"},"vehicle_type_id":"4","last_reported":1691265976,"current_range_meters":8000,"station_id":"ce4bhs92rcd13ifvqi0g","pricing_plan_id":"free"},{"bike_id":"6f02e09a-b26c-49fa-bf68-b76cd9d4ceff","system_id":"levelo_inurba_marseille","lat":43.328371,"lon":5.366909,"is_reserved":false,"is_disabled":false,"rental_uris":{"android":"levelo://app?vid=6f02e09a-b26c-49fa-bf68-b76cd9d4ceff","ios":"levelo://app?vid=6f02e09a-b26c-49fa-bf68-b76cd9d4ceff"},"vehicle_type_id":"4","last_reported":1691265976,"current_range_meters":5200,"station_id":"ce4bhs92rcd13ifvqi0g","pricing_plan_id":"free"},{"bike_id":"925d80fe-dd88-4a52-a938-71d3f7293e55","system_id":"levelo_inurba_marseille","lat":43.32837,"lon":5.36678,"is_reserved":false,"is_disabled":false,"rental_uris":{"android":"levelo://app?vid=925d80fe-dd88-4a52-a938-71d3f7293e55","ios":"levelo://app?vid=925d80fe-dd88-4a52-a938-71d3f7293e55"},"vehicle_type_id":"4","last_reported":1691265976,"current_range_meters":13600,"station_id":"ce4bhs92rcd13ifvqi0g","pricing_plan_id":"free"},{"bike_id":"9e0cfee2-3d1d-4efa-aecc-672c46ba00f2","system_id":"levelo_inurba_marseille","lat":43.297163,"lon":5.365866,"is_reserved":false,"is_disabled":false,"rental_uris":{"android":"levelo://app?vid=9e0cfee2-3d1d-4efa-aecc-672c46ba00f2","ios":"levelo://app?vid=9e0cfee2-3d1d-4efa-aecc-672c46ba00f2"},"vehicle_type_id":"4","last_reported":1691265976,"current_range_meters":9200,"station_id":"ce4bgn12rcd13ifvqbt0","pricing_plan_id":"free"},{"bike_id":"dd789220-e7b5-42c1-b9dc-dc4243148021","system_id":"levelo_inurba_marseille","lat":43.297163,"lon":5.365866,"is_reserved":false,"is_disabled":false,"rental_uris":{"android":"levelo://app?vid=dd789220-e7b5-42c1-b9dc-dc4243148021","ios":"levelo://app?vid=dd789220-e7b5-42c1-b9dc-dc4243148021"},"vehicle_type_id":"4","last_reported":1691265976,"current_range_meters":31200,"station_id":"ce4bgn12rcd13ifvqbt0","pricing_plan_id":"free"},{"bike_id":"d785d515-56f9-46b9-adf2-f04af26764a7","system_id":"levelo_inurba_marseille","lat":43.296131,"lon":5.370773,"is_reserved":false,"is_disabled":false,"rental_uris":{"android":"levelo://app?vid=d785d515-56f9-46b9-adf2-f04af26764a7","ios":"levelo://app?vid=d785d515-56f9-46b9-adf2-f04af26764a7"},"vehicle_type_id":"4","last_reported":1691265976,"current_range_meters":20800,"station_id":"ce4bgnh2rcd13ifvqc0g","pricing_plan_id":"free"},{"bike_id":"81ff3976-e664-41b8-bbdf-eee85f2982db","system_id":"levelo_inurba_marseille","lat":43.29573,"lon":5.367355,"is_reserved":false,"is_disabled":false,"rental_uris":{"android":"levelo://app?vid=81ff3976-e664-41b8-bbdf-eee85f2982db","ios":"levelo://app?vid=81ff3976-e664-41b8-bbdf-eee85f2982db"},"vehicle_type_id":"4","last_reported":1691265976,"current_range_meters":20000,"station_id":"ce4bgph2rcd13ifvqc2g","pricing_plan_id":"free"},{"bike_id":"1893b72f-916d-4463-8a09-608a814b6f63","system_id":"levelo_inurba_marseille","lat":43.29917,"lon":5.3813,"is_reserved":false,"is_disabled":false,"rental_uris":{"android":"levelo://app?vid=1893b72f-916d-4463-8a09-608a814b6f63","ios":"levelo://app?vid=1893b72f-916d-4463-8a09-608a814b6f63"},"vehicle_type_id":"4","last_reported":1691265976,"current_range_meters":30000,"station_id":"ce4bgj12rcd13ifvqbc0","pricing_plan_id":"free"},{"bike_id":"5a70ca34-a336-408d-a165-0e7a3da283ce","system_id":"levelo_inurba_marseille","lat":43.296921,"lon":5.376579,"is_reserved":false,"is_disabled":false,"rental_uris":{"android":"levelo://app?vid=5a70ca34-a336-408d-a165-0e7a3da283ce","ios":"levelo://app?vid=5a70ca34-a336-408d-a165-0e7a3da283ce"},"vehicle_type_id":"4","last_reported":1691265976,"current_range_meters":18800,"station_id":"ce4bgkh2rcd13ifvqbl0","pricing_plan_id":"free"},{"bike_id":"305b4911-b475-4158-bacd-f6ba2aa57c69","system_id":"levelo_inurba_marseille","lat":43.299028,"lon":5.381509,"is_reserved":false,"is_disabled":false,"rental_uris":{"android":"levelo://app?vid=305b4911-b475-4158-bacd-f6ba2aa57c69","ios":"levelo://app?vid=305b4911-b475-4158-bacd-f6ba2aa57c69"},"vehicle_type_id":"4","last_reported":1691265976,"current_range_meters":23600,"station_id":"ce4bgj12rcd13ifvqbc0","pricing_plan_id":"free"},{"bike_id":"f0b1921d-8fc5-42f6-8214-26455e772ce5","system_id":"levelo_inurba_marseille","lat":43.30954,"lon":5.39049,"is_reserved":false,"is_disabled":false,"rental_uris":{"android":"levelo://app?vid=f0b1921d-8fc5-42f6-8214-26455e772ce5","ios":"levelo://app?vid=f0b1921d-8fc5-42f6-8214-26455e772ce5"},"vehicle_type_id":"4","last_reported":1691265976,"current_range_meters":25600,"station_id":"ce4bgup2rcd13ifvqco0","pricing_plan_id":"free"},{"bike_id":"c070a522-6c17-4333-a9ee-bbef4dc643ed","system_id":"levelo_inurba_marseille","lat":43.317557,"lon":5.390173,"is_reserved":false,"is_disabled":false,"rental_uris":{"android":"levelo://app?vid=c070a522-6c17-4333-a9ee-bbef4dc643ed","ios":"levelo://app?vid=c070a522-6c17-4333-a9ee-bbef4dc643ed"},"vehicle_type_id":"4","last_reported":1691265976,"current_range_meters":31200,"station_id":"ce4bhqp2rcd13ifvqhng","pricing_plan_id":"free"},{"bike_id":"ffe83563-fe7b-4abd-90a1-b737e09347c0","system_id":"levelo_inurba_marseille","lat":43.317557,"lon":5.390173,"is_reserved":false,"is_disabled":false,"rental_uris":{"android":"levelo://app?vid=ffe83563-fe7b-4abd-90a1-b737e09347c0","ios":"levelo://app?vid=ffe83563-fe7b-4abd-90a1-b737e09347c0"},"vehicle_type_id":"4","last_reported":1691265976,"current_range_meters":31200,"station_id":"ce4bhqp2rcd13ifvqhng","pricing_plan_id":"free"},{"bike_id":"4879b09e-5533-49cc-808c-be115b214b19","system_id":"levelo_inurba_marseille","lat":43.317557,"lon":5.390173,"is_reserved":false,"is_disabled":false,"rental_uris":{"android":"levelo://app?vid=4879b09e-5533-49cc-808c-be115b214b19","ios":"levelo://app?vid=4879b09e-5533-49cc-808c-be115b214b19"},"vehicle_type_id":"4","last_reported":1691265976,"current_range_meters":31200,"station_id":"ce4bhqp2rcd13ifvqhng","pricing_plan_id":"free"},{"bike_id":"fb5d1b63-b2f2-4d34-b700-b062bf6b4e69","system_id":"levelo_inurba_marseille","lat":43.317557,"lon":5.390173,"is_reserved":false,"is_disabled":false,"rental_uris":{"android":"levelo://app?vid=fb5d1b63-b2f2-4d34-b700-b062bf6b4e69","ios":"levelo://app?vid=fb5d1b63-b2f2-4d34-b700-b062bf6b4e69"},"vehicle_type_id":"4","last_reported":1691265976,"current_range_meters":31200,"station_id":"ce4bhqp2rcd13ifvqhng","pricing_plan_id":"free"},{"bike_id":"aeba4117-4324-492b-b05b-37bcc45b3f39","system_id":"levelo_inurba_marseille","lat":43.317557,"lon":5.390173,"is_reserved":false,"is_disabled":false,"rental_uris":{"android":"levelo://app?vid=aeba4117-4324-492b-b05b-37bcc45b3f39","ios":"levelo://app?vid=aeba4117-4324-492b-b05b-37bcc45b3f39"},"vehicle_type_id":"4","last_reported":1691265976,"current_range_meters":19200,"station_id":"ce4bhqp2rcd13ifvqhng","pricing_plan_id":"free"},{"bike_id":"90569ba5-8bb9-4d2d-b876-dc35e42f9a0c","system_id":"levelo_inurba_marseille","lat":43.317557,"lon":5.390173,"is_reserved":false,"is_disabled":false,"rental_uris":{"android":"levelo://app?vid=90569ba5-8bb9-4d2d-b876-dc35e42f9a0c","ios":"levelo://app?vid=90569ba5-8bb9-4d2d-b876-dc35e42f9a0c"},"vehicle_type_id":"4","last_reported":1691265976,"current_range_meters":31600,"station_id":"ce4bhqp2rcd13ifvqhng","pricing_plan_id":"free"},{"bike_id":"37440da6-a52c-4d8b-bad8-8479cc4c329c","system_id":"levelo_inurba_marseille","lat":43.317557,"lon":5.390173,"is_reserved":false,"is_disabled":false,"rental_uris":{"android":"levelo://app?vid=37440da6-a52c-4d8b-bad8-8479cc4c329c","ios":"levelo://app?vid=37440da6-a52c-4d8b-bad8-8479cc4c329c"},"vehicle_type_id":"4","last_reported":1691265976,"current_range_meters":30000,"station_id":"ce4bhqp2rcd13ifvqhng","pricing_plan_id":"free"},{"bike_id":"33289ce5-1059-4419-aac6-0b635209ed94","system_id":"levelo_inurba_marseille","lat":43.317557,"lon":5.390173,"is_reserved":false,"is_disabled":false,"rental_uris":{"android":"levelo://app?vid=33289ce5-1059-4419-aac6-0b635209ed94","ios":"levelo://app?vid=33289ce5-1059-4419-aac6-0b635209ed94"},"vehicle_type_id":"4","last_reported":1691265976,"current_range_meters":21600,"station_id":"ce4bhqp2rcd13ifvqhng","pricing_plan_id":"free"},{"bike_id":"fa6bc584-cf09-4409-9009-8eb9b42b181d","system_id":"levelo_inurba_marseille","lat":43.317557,"lon":5.390173,"is_reserved":false,"is_disabled":false,"rental_uris":{"android":"levelo://app?vid=fa6bc584-cf09-4409-9009-8eb9b42b181d","ios":"levelo://app?vid=fa6bc584-cf09-4409-9009-8eb9b42b181d"},"vehicle_type_id":"4","last_reported":1691265976,"current_range_meters":12000,"station_id":"ce4bhqp2rcd13ifvqhng","pricing_plan_id":"free"},{"bike_id":"ea01d5ca-46b8-4e12-9d73-863370000a06","system_id":"levelo_inurba_marseille","lat":43.317557,"lon":5.390173,"is_reserved":false,"is_disabled":false,"rental_uris":{"android":"levelo://app?vid=ea01d5ca-46b8-4e12-9d73-863370000a06","ios":"levelo://app?vid=ea01d5ca-46b8-4e12-9d73-863370000a06"},"vehicle_type_id":"4","last_reported":1691265976,"current_range_meters":31200,"station_id":"ce4bhqp2rcd13ifvqhng","pricing_plan_id":"free"},{"bike_id":"3a186ecb-2969-4bb1-8763-459354367082","system_id":"levelo_inurba_marseille","lat":43.298037,"lon":5.381066,"is_reserved":false,"is_disabled":false,"rental_uris":{"android":"levelo://app?vid=3a186ecb-2969-4bb1-8763-459354367082","ios":"levelo://app?vid=3a186ecb-2969-4bb1-8763-459354367082"},"vehicle_type_id":"4","last_reported":1691265976,"current_range_meters":16400,"station_id":"ce4bgip2rcd13ifvqbb0","pricing_plan_id":"free"},{"bike_id":"f7d3ffc0-efc3-459b-8cf1-47f5bfa6d223","system_id":"levelo_inurba_marseille","lat":43.29798,"lon":5.38085,"is_reserved":false,"is_disabled":false,"rental_uris":{"android":"levelo://app?vid=f7d3ffc0-efc3-459b-8cf1-47f5bfa6d223","ios":"levelo://app?vid=f7d3ffc0-efc3-459b-8cf1-47f5bfa6d223"},"vehicle_type_id":"4","last_reported":1691265976,"current_range_meters":22000,"station_id":"ce4bgip2rcd13ifvqbb0","pricing_plan_id":"free"},{"bike_id":"f0d4d438-71c8-459e-9ebc-dbbddc817ef2","system_id":"levelo_inurba_marseille","lat":43.298037,"lon":5.381066,"is_reserved":false,"is_disabled":false,"rental_uris":{"android":"levelo://app?vid=f0d4d438-71c8-459e-9ebc-dbbddc817ef2","ios":"levelo://app?vid=f0d4d438-71c8-459e-9ebc-dbbddc817ef2"},"vehicle_type_id":"4","last_reported":1691265976,"current_range_meters":8400,"station_id":"ce4bgip2rcd13ifvqbb0","pricing_plan_id":"free"},{"bike_id":"7d0f9c1a-ce1a-4bef-b32d-1eece012e58d","system_id":"levelo_inurba_marseille","lat":43.29796,"lon":5.38094,"is_reserved":false,"is_disabled":false,"rental_uris":{"android":"levelo://app?vid=7d0f9c1a-ce1a-4bef-b32d-1eece012e58d","ios":"levelo://app?vid=7d0f9c1a-ce1a-4bef-b32d-1eece012e58d"},"vehicle_type_id":"4","last_reported":1691265976,"current_range_meters":6800,"station_id":"ce4bgip2rcd13ifvqbb0","pricing_plan_id":"free"},{"bike_id":"bac5fc01-273a-4168-9c85-b2c9c7cc4018","system_id":"levelo_inurba_marseille","lat":43.29798,"lon":5.38099,"is_reserved":false,"is_disabled":false,"rental_uris":{"android":"levelo://app?vid=bac5fc01-273a-4168-9c85-b2c9c7cc4018","ios":"levelo://app?vid=bac5fc01-273a-4168-9c85-b2c9c7cc4018"},"vehicle_type_id":"4","last_reported":1691265976,"current_range_meters":12400,"station_id":"ce4bgip2rcd13ifvqbb0","pricing_plan_id":"free"},{"bike_id":"5d105ca9-d0b4-4ba0-be15-12aead7b8493","system_id":"levelo_inurba_marseille","lat":43.295748,"lon":5.37522,"is_reserved":false,"is_disabled":false,"rental_uris":{"android":"levelo://app?vid=5d105ca9-d0b4-4ba0-be15-12aead7b8493","ios":"levelo://app?vid=5d105ca9-d0b4-4ba0-be15-12aead7b8493"},"vehicle_type_id":"4","last_reported":1691265976,"current_range_meters":4000,"station_id":"ce4bgh92rcd13ifvqb50","pricing_plan_id":"free"},{"bike_id":"d2687a7f-ed26-4147-9035-a4a363e3db06","system_id":"levelo_inurba_marseille","lat":43.295748,"lon":5.37522,"is_reserved":false,"is_disabled":false,"rental_uris":{"android":"levelo://app?vid=d2687a7f-ed26-4147-9035-a4a363e3db06","ios":"levelo://app?vid=d2687a7f-ed26-4147-9035-a4a363e3db06"},"vehicle_type_id":"4","last_reported":1691265976,"current_range_meters":20000,"station_id":"ce4bgh92rcd13ifvqb50","pricing_plan_id":"free"},{"bike_id":"806edeef-f530-4432-825f-a27abd960759","system_id":"levelo_inurba_marseille","lat":43.3043,"lon":5.38882,"is_reserved":false,"is_disabled":false,"rental_uris":{"android":"levelo://app?vid=806edeef-f530-4432-825f-a27abd960759","ios":"levelo://app?vid=806edeef-f530-4432-825f-a27abd960759"},"vehicle_type_id":"4","last_reported":1691265976,"current_range_meters":1200,"station_id":"ce4bgk12rcd13ifvqbi0","pricing_plan_id":"free"},{"bike_id":"ce5d52ce-8e7b-4d9c-9d16-a50e03b725c8","system_id":"levelo_inurba_marseille","lat":43.295748,"lon":5.37522,"is_reserved":false,"is_disabled":false,"rental_uris":{"android":"levelo://app?vid=ce5d52ce-8e7b-4d9c-9d16-a50e03b725c8","ios":"levelo://app?vid=ce5d52ce-8e7b-4d9c-9d16-a50e03b725c8"},"vehicle_type_id":"4","last_reported":1691265976,"current_range_meters":22000,"station_id":"ce4bgh92rcd13ifvqb50","pricing_plan_id":"free"},{"bike_id":"ed8c2b3d-9a1c-4c8c-ac50-e82896c59370","system_id":"levelo_inurba_marseille","lat":43.30428,"lon":5.38888,"is_reserved":false,"is_disabled":false,"rental_uris":{"android":"levelo://app?vid=ed8c2b3d-9a1c-4c8c-ac50-e82896c59370","ios":"levelo://app?vid=ed8c2b3d-9a1c-4c8c-ac50-e82896c59370"},"vehicle_type_id":"4","last_reported":1691265976,"current_range_meters":29200,"station_id":"ce4bgk12rcd13ifvqbi0","pricing_plan_id":"free"},{"bike_id":"a4df99ce-0488-49dd-a888-94686f562e88","system_id":"levelo_inurba_marseille","lat":43.295748,"lon":5.37522,"is_reserved":false,"is_disabled":false,"rental_uris":{"android":"levelo://app?vid=a4df99ce-0488-49dd-a888-94686f562e88","ios":"levelo://app?vid=a4df99ce-0488-49dd-a888-94686f562e88"},"vehicle_type_id":"4","last_reported":1691265976,"current_range_meters":31200,"station_id":"ce4bgh92rcd13ifvqb50","pricing_plan_id":"free"},{"bike_id":"5506d1f0-a1ad-47fc-a9fa-6080e35bada2","system_id":"levelo_inurba_marseille","lat":43.30432,"lon":5.38895,"is_reserved":false,"is_disabled":false,"rental_uris":{"android":"levelo://app?vid=5506d1f0-a1ad-47fc-a9fa-6080e35bada2","ios":"levelo://app?vid=5506d1f0-a1ad-47fc-a9fa-6080e35bada2"},"vehicle_type_id":"4","last_reported":1691265976,"current_range_meters":2800,"station_id":"ce4bgk12rcd13ifvqbi0","pricing_plan_id":"free"},{"bike_id":"03b2ce2b-1182-4da1-87cd-4fc70c4d63c4","system_id":"levelo_inurba_marseille","lat":43.295279,"lon":5.375048,"is_reserved":false,"is_disabled":false,"rental_uris":{"android":"levelo://app?vid=03b2ce2b-1182-4da1-87cd-4fc70c4d63c4","ios":"levelo://app?vid=03b2ce2b-1182-4da1-87cd-4fc70c4d63c4"},"vehicle_type_id":"4","last_reported":1691265976,"current_range_meters":0,"station_id":"ce4bgkp2rcd13ifvqbmg","pricing_plan_id":"free"},{"bike_id":"044ad63b-d96d-4961-8895-2ac8677dfef2","system_id":"levelo_inurba_marseille","lat":43.295279,"lon":5.375048,"is_reserved":false,"is_disabled":false,"rental_uris":{"android":"levelo://app?vid=044ad63b-d96d-4961-8895-2ac8677dfef2","ios":"levelo://app?vid=044ad63b-d96d-4961-8895-2ac8677dfef2"},"vehicle_type_id":"4","last_reported":1691265976,"current_range_meters":19600,"station_id":"ce4bgkp2rcd13ifvqbmg","pricing_plan_id":"free"},{"bike_id":"30046730-4d3a-4e8c-a786-0ea5569a6420","system_id":"levelo_inurba_marseille","lat":43.295279,"lon":5.375048,"is_reserved":false,"is_disabled":false,"rental_uris":{"android":"levelo://app?vid=30046730-4d3a-4e8c-a786-0ea5569a6420","ios":"levelo://app?vid=30046730-4d3a-4e8c-a786-0ea5569a6420"},"vehicle_type_id":"4","last_reported":1691265976,"current_range_meters":13200,"station_id":"ce4bgkp2rcd13ifvqbmg","pricing_plan_id":"free"},{"bike_id":"a6b86d8e-d3f3-46fe-b223-1593b4113296","system_id":"levelo_inurba_marseille","lat":43.295279,"lon":5.375048,"is_reserved":false,"is_disabled":false,"rental_uris":{"android":"levelo://app?vid=a6b86d8e-d3f3-46fe-b223-1593b4113296","ios":"levelo://app?vid=a6b86d8e-d3f3-46fe-b223-1593b4113296"},"vehicle_type_id":"4","last_reported":1691265976,"current_range_meters":8800,"station_id":"ce4bgkp2rcd13ifvqbmg","pricing_plan_id":"free"},{"bike_id":"8b04e1ee-8314-4afa-bc5d-ab1065827237","system_id":"levelo_inurba_marseille","lat":43.299707,"lon":5.384859,"is_reserved":false,"is_disabled":false,"rental_uris":{"android":"levelo://app?vid=8b04e1ee-8314-4afa-bc5d-ab1065827237","ios":"levelo://app?vid=8b04e1ee-8314-4afa-bc5d-ab1065827237"},"vehicle_type_id":"4","last_reported":1691265976,"current_range_meters":29200,"station_id":"ce4bgj92rcd13ifvqbd0","pricing_plan_id":"free"},{"bike_id":"5dd13e56-d3a4-44be-8004-2e733a7317d2","system_id":"levelo_inurba_marseille","lat":43.29965,"lon":5.38493,"is_reserved":false,"is_disabled":false,"rental_uris":{"android":"levelo://app?vid=5dd13e56-d3a4-44be-8004-2e733a7317d2","ios":"levelo://app?vid=5dd13e56-d3a4-44be-8004-2e733a7317d2"},"vehicle_type_id":"4","last_reported":1691265976,"current_range_meters":12800,"station_id":"ce4bgj92rcd13ifvqbd0","pricing_plan_id":"free"},{"bike_id":"03314427-19a6-4bbf-8273-93204511820c","system_id":"levelo_inurba_marseille","lat":43.295279,"lon":5.375048,"is_reserved":false,"is_disabled":false,"rental_uris":{"android":"levelo://app?vid=03314427-19a6-4bbf-8273-93204511820c","ios":"levelo://app?vid=03314427-19a6-4bbf-8273-93204511820c"},"vehicle_type_id":"4","last_reported":1691265976,"current_range_meters":13600,"station_id":"ce4bgkp2rcd13ifvqbmg","pricing_plan_id":"free"},{"bike_id":"696ed9b6-9beb-423c-9d06-defcf66f30b9","system_id":"levelo_inurba_marseille","lat":43.32364,"lon":5.38875,"is_reserved":false,"is_disabled":false,"rental_uris":{"android":"levelo://app?vid=696ed9b6-9beb-423c-9d06-defcf66f30b9","ios":"levelo://app?vid=696ed9b6-9beb-423c-9d06-defcf66f30b9"},"vehicle_type_id":"4","last_reported":1691265976,"current_range_meters":9600,"station_id":"ce4bhqp2rcd13ifvqhog","pricing_plan_id":"free"},{"bike_id":"c7b365f9-1c46-4925-a21d-693a81c8c1cd","system_id":"levelo_inurba_marseille","lat":43.30301,"lon":5.38977,"is_reserved":false,"is_disabled":false,"rental_uris":{"android":"levelo://app?vid=c7b365f9-1c46-4925-a21d-693a81c8c1cd","ios":"levelo://app?vid=c7b365f9-1c46-4925-a21d-693a81c8c1cd"},"vehicle_type_id":"4","last_reported":1691265976,"current_range_meters":25600,"station_id":"","pricing_plan_id":"free"},{"bike_id":"51a94a8b-791c-4738-b220-ee8689f99230","system_id":"levelo_inurba_marseille","lat":43.32367,"lon":5.38873,"is_reserved":false,"is_disabled":false,"rental_uris":{"android":"levelo://app?vid=51a94a8b-791c-4738-b220-ee8689f99230","ios":"levelo://app?vid=51a94a8b-791c-4738-b220-ee8689f99230"},"vehicle_type_id":"4","last_reported":1691265976,"current_range_meters":800,"station_id":"ce4bhqp2rcd13ifvqhog","pricing_plan_id":"free"},{"bike_id":"5bdf8c20-9c72-47ab-afc6-2b84567e0617","system_id":"levelo_inurba_marseille","lat":43.3236,"lon":5.3888,"is_reserved":false,"is_disabled":false,"rental_uris":{"android":"levelo://app?vid=5bdf8c20-9c72-47ab-afc6-2b84567e0617","ios":"levelo://app?vid=5bdf8c20-9c72-47ab-afc6-2b84567e0617"},"vehicle_type_id":"4","last_reported":1691265976,"current_range_meters":18400,"station_id":"ce4bhqp2rcd13ifvqhog","pricing_plan_id":"free"},{"bike_id":"fbc3a92c-f948-48e9-a3fc-f0e8af1a9259","system_id":"levelo_inurba_marseille","lat":43.32367,"lon":5.388836,"is_reserved":false,"is_disabled":false,"rental_uris":{"android":"levelo://app?vid=fbc3a92c-f948-48e9-a3fc-f0e8af1a9259","ios":"levelo://app?vid=fbc3a92c-f948-48e9-a3fc-f0e8af1a9259"},"vehicle_type_id":"4","last_reported":1691265976,"current_range_meters":29600,"station_id":"ce4bhqp2rcd13ifvqhog","pricing_plan_id":"free"},{"bike_id":"b47ca02a-40ba-4dc8-abeb-b1a2c4b62cd0","system_id":"levelo_inurba_marseille","lat":43.32367,"lon":5.38875,"is_reserved":false,"is_disabled":false,"rental_uris":{"android":"levelo://app?vid=b47ca02a-40ba-4dc8-abeb-b1a2c4b62cd0","ios":"levelo://app?vid=b47ca02a-40ba-4dc8-abeb-b1a2c4b62cd0"},"vehicle_type_id":"4","last_reported":1691265976,"current_range_meters":28800,"station_id":"ce4bhqp2rcd13ifvqhog","pricing_plan_id":"free"},{"bike_id":"31c4ebe8-2a4f-41b7-966a-7ad502ff3d8a","system_id":"levelo_inurba_marseille","lat":43.32364,"lon":5.38879,"is_reserved":false,"is_disabled":false,"rental_uris":{"android":"levelo://app?vid=31c4ebe8-2a4f-41b7-966a-7ad502ff3d8a","ios":"levelo://app?vid=31c4ebe8-2a4f-41b7-966a-7ad502ff3d8a"},"vehicle_type_id":"4","last_reported":1691265976,"current_range_meters":18400,"station_id":"ce4bhqp2rcd13ifvqhog","pricing_plan_id":"free"},{"bike_id":"5f1c231d-5549-420b-a974-1b1406435a60","system_id":"levelo_inurba_marseille","lat":43.32367,"lon":5.388836,"is_reserved":false,"is_disabled":false,"rental_uris":{"android":"levelo://app?vid=5f1c231d-5549-420b-a974-1b1406435a60","ios":"levelo://app?vid=5f1c231d-5549-420b-a974-1b1406435a60"},"vehicle_type_id":"4","last_reported":1691265976,"current_range_meters":20400,"station_id":"ce4bhqp2rcd13ifvqhog","pricing_plan_id":"free"},{"bike_id":"34ef5601-8765-4b80-bdc1-e9818152ffab","system_id":"levelo_inurba_marseille","lat":43.32366,"lon":5.38881,"is_reserved":false,"is_disabled":false,"rental_uris":{"android":"levelo://app?vid=34ef5601-8765-4b80-bdc1-e9818152ffab","ios":"levelo://app?vid=34ef5601-8765-4b80-bdc1-e9818152ffab"},"vehicle_type_id":"4","last_reported":1691265976,"current_range_meters":23600,"station_id":"ce4bhqp2rcd13ifvqhog","pricing_plan_id":"free"},{"bike_id":"ed5b971a-2b8a-4f89-9487-7e8342d0b66b","system_id":"levelo_inurba_marseille","lat":43.32365,"lon":5.38882,"is_reserved":false,"is_disabled":false,"rental_uris":{"android":"levelo://app?vid=ed5b971a-2b8a-4f89-9487-7e8342d0b66b","ios":"levelo://app?vid=ed5b971a-2b8a-4f89-9487-7e8342d0b66b"},"vehicle_type_id":"4","last_reported":1691265976,"current_range_meters":20000,"station_id":"ce4bhqp2rcd13ifvqhog","pricing_plan_id":"free"},{"bike_id":"153806a9-c106-4acb-8efe-f81ba29b58d3","system_id":"levelo_inurba_marseille","lat":43.32366,"lon":5.38882,"is_reserved":false,"is_disabled":false,"rental_uris":{"android":"levelo://app?vid=153806a9-c106-4acb-8efe-f81ba29b58d3","ios":"levelo://app?vid=153806a9-c106-4acb-8efe-f81ba29b58d3"},"vehicle_type_id":"4","last_reported":1691265976,"current_range_meters":22400,"station_id":"ce4bhqp2rcd13ifvqhog","pricing_plan_id":"free"},{"bike_id":"22bed36d-b2d5-4351-a2a0-3bcc3d1e349e","system_id":"levelo_inurba_marseille","lat":43.32369,"lon":5.3888,"is_reserved":false,"is_disabled":false,"rental_uris":{"android":"levelo://app?vid=22bed36d-b2d5-4351-a2a0-3bcc3d1e349e","ios":"levelo://app?vid=22bed36d-b2d5-4351-a2a0-3bcc3d1e349e"},"vehicle_type_id":"4","last_reported":1691265976,"current_range_meters":1200,"station_id":"ce4bhqp2rcd13ifvqhog","pricing_plan_id":"free"},{"bike_id":"6be534a9-96c6-4989-b3bb-e9dea76376c4","system_id":"levelo_inurba_marseille","lat":43.32367,"lon":5.388836,"is_reserved":false,"is_disabled":false,"rental_uris":{"android":"levelo://app?vid=6be534a9-96c6-4989-b3bb-e9dea76376c4","ios":"levelo://app?vid=6be534a9-96c6-4989-b3bb-e9dea76376c4"},"vehicle_type_id":"4","last_reported":1691265976,"current_range_meters":30400,"station_id":"ce4bhqp2rcd13ifvqhog","pricing_plan_id":"free"},{"bike_id":"d31122e6-e65b-4e35-b9ad-0bae407fb5a5","system_id":"levelo_inurba_marseille","lat":43.32368,"lon":5.38884,"is_reserved":false,"is_disabled":false,"rental_uris":{"android":"levelo://app?vid=d31122e6-e65b-4e35-b9ad-0bae407fb5a5","ios":"levelo://app?vid=d31122e6-e65b-4e35-b9ad-0bae407fb5a5"},"vehicle_type_id":"4","last_reported":1691265976,"current_range_meters":16800,"station_id":"ce4bhqp2rcd13ifvqhog","pricing_plan_id":"free"},{"bike_id":"93f32081-a64e-46b7-a675-15b9e05c55c8","system_id":"levelo_inurba_marseille","lat":43.29601,"lon":5.381084,"is_reserved":false,"is_disabled":false,"rental_uris":{"android":"levelo://app?vid=93f32081-a64e-46b7-a675-15b9e05c55c8","ios":"levelo://app?vid=93f32081-a64e-46b7-a675-15b9e05c55c8"},"vehicle_type_id":"4","last_reported":1691265976,"current_range_meters":18000,"station_id":"ce4bgl12rcd13ifvqbo0","pricing_plan_id":"free"},{"bike_id":"a7f5b862-d9d0-47d9-8f03-743bfcfd9d4c","system_id":"levelo_inurba_marseille","lat":43.29601,"lon":5.381084,"is_reserved":false,"is_disabled":false,"rental_uris":{"android":"levelo://app?vid=a7f5b862-d9d0-47d9-8f03-743bfcfd9d4c","ios":"levelo://app?vid=a7f5b862-d9d0-47d9-8f03-743bfcfd9d4c"},"vehicle_type_id":"4","last_reported":1691265976,"current_range_meters":17600,"station_id":"ce4bgl12rcd13ifvqbo0","pricing_plan_id":"free"},{"bike_id":"f960c435-8b72-4944-9516-b934bd1b37fa","system_id":"levelo_inurba_marseille","lat":43.29602,"lon":5.381084,"is_reserved":false,"is_disabled":false,"rental_uris":{"android":"levelo://app?vid=f960c435-8b72-4944-9516-b934bd1b37fa","ios":"levelo://app?vid=f960c435-8b72-4944-9516-b934bd1b37fa"},"vehicle_type_id":"4","last_reported":1691265976,"current_range_meters":30400,"station_id":"ce4bgl12rcd13ifvqbo0","pricing_plan_id":"free"},{"bike_id":"8450eb67-d9ad-43d4-b008-35349b9aaa70","system_id":"levelo_inurba_marseille","lat":43.29305,"lon":5.37175,"is_reserved":false,"is_disabled":false,"rental_uris":{"android":"levelo://app?vid=8450eb67-d9ad-43d4-b008-35349b9aaa70","ios":"levelo://app?vid=8450eb67-d9ad-43d4-b008-35349b9aaa70"},"vehicle_type_id":"4","last_reported":1691265976,"current_range_meters":13200,"station_id":"ce4bgh92rcd13ifvqb40","pricing_plan_id":"free"},{"bike_id":"116293ed-f70c-4d66-87c5-d9a546f0b6fe","system_id":"levelo_inurba_marseille","lat":43.29303,"lon":5.37179,"is_reserved":false,"is_disabled":false,"rental_uris":{"android":"levelo://app?vid=116293ed-f70c-4d66-87c5-d9a546f0b6fe","ios":"levelo://app?vid=116293ed-f70c-4d66-87c5-d9a546f0b6fe"},"vehicle_type_id":"4","last_reported":1691265976,"current_range_meters":0,"station_id":"ce4bgh92rcd13ifvqb40","pricing_plan_id":"free"},{"bike_id":"85867f4a-b44a-463f-a6b0-b9104510d888","system_id":"levelo_inurba_marseille","lat":43.29302,"lon":5.37173,"is_reserved":false,"is_disabled":false,"rental_uris":{"android":"levelo://app?vid=85867f4a-b44a-463f-a6b0-b9104510d888","ios":"levelo://app?vid=85867f4a-b44a-463f-a6b0-b9104510d888"},"vehicle_type_id":"4","last_reported":1691265976,"current_range_meters":11200,"station_id":"ce4bgh92rcd13ifvqb40","pricing_plan_id":"free"},{"bike_id":"ffe7122e-739e-4f69-96fe-3765999eef9a","system_id":"levelo_inurba_marseille","lat":43.293,"lon":5.37168,"is_reserved":false,"is_disabled":false,"rental_uris":{"android":"levelo://app?vid=ffe7122e-739e-4f69-96fe-3765999eef9a","ios":"levelo://app?vid=ffe7122e-739e-4f69-96fe-3765999eef9a"},"vehicle_type_id":"4","last_reported":1691265976,"current_range_meters":6400,"station_id":"ce4bgh92rcd13ifvqb40","pricing_plan_id":"free"},{"bike_id":"4767cc12-922a-4c4a-bf93-a72c8cdafd9d","system_id":"levelo_inurba_marseille","lat":43.29269,"lon":5.36845,"is_reserved":false,"is_disabled":false,"rental_uris":{"android":"levelo://app?vid=4767cc12-922a-4c4a-bf93-a72c8cdafd9d","ios":"levelo://app?vid=4767cc12-922a-4c4a-bf93-a72c8cdafd9d"},"vehicle_type_id":"4","last_reported":1691265976,"current_range_meters":6400,"station_id":"ce4bhbp2rcd13ifvqesg","pricing_plan_id":"free"},{"bike_id":"89807901-17f4-4e41-b7f4-3b2761b27aaf","system_id":"levelo_inurba_marseille","lat":43.29304,"lon":5.37459,"is_reserved":false,"is_disabled":false,"rental_uris":{"android":"levelo://app?vid=89807901-17f4-4e41-b7f4-3b2761b27aaf","ios":"levelo://app?vid=89807901-17f4-4e41-b7f4-3b2761b27aaf"},"vehicle_type_id":"4","last_reported":1691265976,"current_range_meters":28800,"station_id":"","pricing_plan_id":"free"},{"bike_id":"9c21ebcb-3270-4253-ba2c-72776921c119","system_id":"levelo_inurba_marseille","lat":43.305994,"lon":5.393687,"is_reserved":false,"is_disabled":false,"rental_uris":{"android":"levelo://app?vid=9c21ebcb-3270-4253-ba2c-72776921c119","ios":"levelo://app?vid=9c21ebcb-3270-4253-ba2c-72776921c119"},"vehicle_type_id":"4","last_reported":1691265976,"current_range_meters":0,"station_id":"ce4bh0p2rcd13ifvqd80","pricing_plan_id":"free"},{"bike_id":"bca233ec-4ac3-46db-8771-7c2c346eb289","system_id":"levelo_inurba_marseille","lat":43.293009,"lon":5.374584,"is_reserved":false,"is_disabled":false,"rental_uris":{"android":"levelo://app?vid=bca233ec-4ac3-46db-8771-7c2c346eb289","ios":"levelo://app?vid=bca233ec-4ac3-46db-8771-7c2c346eb289"},"vehicle_type_id":"4","last_reported":1691265976,"current_range_meters":27200,"station_id":"ce4bgi12rcd13ifvqb70","pricing_plan_id":"free"},{"bike_id":"d7c606c5-52e7-4f12-b255-602e9c82a701","system_id":"levelo_inurba_marseille","lat":43.305994,"lon":5.393687,"is_reserved":false,"is_disabled":false,"rental_uris":{"android":"levelo://app?vid=d7c606c5-52e7-4f12-b255-602e9c82a701","ios":"levelo://app?vid=d7c606c5-52e7-4f12-b255-602e9c82a701"},"vehicle_type_id":"4","last_reported":1691265976,"current_range_meters":13600,"station_id":"ce4bh0p2rcd13ifvqd80","pricing_plan_id":"free"},{"bike_id":"943a1858-15a0-40c3-bcc2-a5bd39da4545","system_id":"levelo_inurba_marseille","lat":43.293009,"lon":5.374584,"is_reserved":false,"is_disabled":false,"rental_uris":{"android":"levelo://app?vid=943a1858-15a0-40c3-bcc2-a5bd39da4545","ios":"levelo://app?vid=943a1858-15a0-40c3-bcc2-a5bd39da4545"},"vehicle_type_id":"4","last_reported":1691265976,"current_range_meters":24800,"station_id":"ce4bgi12rcd13ifvqb70","pricing_plan_id":"free"},{"bike_id":"51e46b03-a853-48c4-97d7-f716b9b14092","system_id":"levelo_inurba_marseille","lat":43.293009,"lon":5.374584,"is_reserved":false,"is_disabled":false,"rental_uris":{"android":"levelo://app?vid=51e46b03-a853-48c4-97d7-f716b9b14092","ios":"levelo://app?vid=51e46b03-a853-48c4-97d7-f716b9b14092"},"vehicle_type_id":"4","last_reported":1691265976,"current_range_meters":28800,"station_id":"ce4bgi12rcd13ifvqb70","pricing_plan_id":"free"},{"bike_id":"0316c7cb-1264-4a95-bdda-e72713b754d0","system_id":"levelo_inurba_marseille","lat":43.293009,"lon":5.374584,"is_reserved":false,"is_disabled":false,"rental_uris":{"android":"levelo://app?vid=0316c7cb-1264-4a95-bdda-e72713b754d0","ios":"levelo://app?vid=0316c7cb-1264-4a95-bdda-e72713b754d0"},"vehicle_type_id":"4","last_reported":1691265976,"current_range_meters":27600,"station_id":"ce4bgi12rcd13ifvqb70","pricing_plan_id":"free"},{"bike_id":"0e140e4e-a03f-41ce-b72c-f575aab9ab33","system_id":"levelo_inurba_marseille","lat":43.2936,"lon":5.37835,"is_reserved":false,"is_disabled":false,"rental_uris":{"android":"levelo://app?vid=0e140e4e-a03f-41ce-b72c-f575aab9ab33","ios":"levelo://app?vid=0e140e4e-a03f-41ce-b72c-f575aab9ab33"},"vehicle_type_id":"4","last_reported":1691265976,"current_range_meters":8400,"station_id":"ce4bgjh2rcd13ifvqbf0","pricing_plan_id":"free"},{"bike_id":"da274eda-e7c3-438c-b54e-4d62bff7f904","system_id":"levelo_inurba_marseille","lat":43.2936,"lon":5.37835,"is_reserved":false,"is_disabled":false,"rental_uris":{"android":"levelo://app?vid=da274eda-e7c3-438c-b54e-4d62bff7f904","ios":"levelo://app?vid=da274eda-e7c3-438c-b54e-4d62bff7f904"},"vehicle_type_id":"4","last_reported":1691265976,"current_range_meters":30000,"station_id":"ce4bgjh2rcd13ifvqbf0","pricing_plan_id":"free"},{"bike_id":"53471f4f-6f5f-424d-bb60-5e6f8af2c869","system_id":"levelo_inurba_marseille","lat":43.2936,"lon":5.37835,"is_reserved":false,"is_disabled":false,"rental_uris":{"android":"levelo://app?vid=53471f4f-6f5f-424d-bb60-5e6f8af2c869","ios":"levelo://app?vid=53471f4f-6f5f-424d-bb60-5e6f8af2c869"},"vehicle_type_id":"4","last_reported":1691265976,"current_range_meters":23200,"station_id":"ce4bgjh2rcd13ifvqbf0","pricing_plan_id":"free"},{"bike_id":"2ac2a79a-692d-4ef8-a40c-751569ae5fbf","system_id":"levelo_inurba_marseille","lat":43.2936,"lon":5.37835,"is_reserved":false,"is_disabled":false,"rental_uris":{"android":"levelo://app?vid=2ac2a79a-692d-4ef8-a40c-751569ae5fbf","ios":"levelo://app?vid=2ac2a79a-692d-4ef8-a40c-751569ae5fbf"},"vehicle_type_id":"4","last_reported":1691265976,"current_range_meters":31200,"station_id":"ce4bgjh2rcd13ifvqbf0","pricing_plan_id":"free"},{"bike_id":"3da05190-4a62-402f-9aa1-d6eab21e0c59","system_id":"levelo_inurba_marseille","lat":43.2936,"lon":5.37835,"is_reserved":false,"is_disabled":false,"rental_uris":{"android":"levelo://app?vid=3da05190-4a62-402f-9aa1-d6eab21e0c59","ios":"levelo://app?vid=3da05190-4a62-402f-9aa1-d6eab21e0c59"},"vehicle_type_id":"4","last_reported":1691265976,"current_range_meters":30400,"station_id":"ce4bgjh2rcd13ifvqbf0","pricing_plan_id":"free"},{"bike_id":"964796ad-1a75-471e-96e4-047d28d1054b","system_id":"levelo_inurba_marseille","lat":43.292663,"lon":5.376389,"is_reserved":false,"is_disabled":false,"rental_uris":{"android":"levelo://app?vid=964796ad-1a75-471e-96e4-047d28d1054b","ios":"levelo://app?vid=964796ad-1a75-471e-96e4-047d28d1054b"},"vehicle_type_id":"4","last_reported":1691265976,"current_range_meters":6800,"station_id":"ce4bgi12rcd13ifvqb80","pricing_plan_id":"free"},{"bike_id":"bb62440e-d651-42b5-bd2d-7dfda56bf161","system_id":"levelo_inurba_marseille","lat":43.291675,"lon":5.371583,"is_reserved":false,"is_disabled":false,"rental_uris":{"android":"levelo://app?vid=bb62440e-d651-42b5-bd2d-7dfda56bf161","ios":"levelo://app?vid=bb62440e-d651-42b5-bd2d-7dfda56bf161"},"vehicle_type_id":"4","last_reported":1691265976,"current_range_meters":31200,"station_id":"ce4bha92rcd13ifvqeh0","pricing_plan_id":"free"},{"bike_id":"4b786e1d-4a77-484c-ae95-3dbcabfb11b5","system_id":"levelo_inurba_marseille","lat":43.291675,"lon":5.371583,"is_reserved":false,"is_disabled":false,"rental_uris":{"android":"levelo://app?vid=4b786e1d-4a77-484c-ae95-3dbcabfb11b5","ios":"levelo://app?vid=4b786e1d-4a77-484c-ae95-3dbcabfb11b5"},"vehicle_type_id":"4","last_reported":1691265976,"current_range_meters":31200,"station_id":"ce4bha92rcd13ifvqeh0","pricing_plan_id":"free"},{"bike_id":"75064dd5-0866-4027-b921-8e2ff0c24689","system_id":"levelo_inurba_marseille","lat":43.291675,"lon":5.371583,"is_reserved":false,"is_disabled":false,"rental_uris":{"android":"levelo://app?vid=75064dd5-0866-4027-b921-8e2ff0c24689","ios":"levelo://app?vid=75064dd5-0866-4027-b921-8e2ff0c24689"},"vehicle_type_id":"4","last_reported":1691265976,"current_range_meters":10400,"station_id":"ce4bha92rcd13ifvqeh0","pricing_plan_id":"free"},{"bike_id":"cc03c516-5fad-4c6c-8414-cc31ff083516","system_id":"levelo_inurba_marseille","lat":43.29163,"lon":5.37157,"is_reserved":false,"is_disabled":false,"rental_uris":{"android":"levelo://app?vid=cc03c516-5fad-4c6c-8414-cc31ff083516","ios":"levelo://app?vid=cc03c516-5fad-4c6c-8414-cc31ff083516"},"vehicle_type_id":"4","last_reported":1691265976,"current_range_meters":29200,"station_id":"ce4bha92rcd13ifvqeh0","pricing_plan_id":"free"},{"bike_id":"ea7a9fbd-79bf-4fc5-9cf5-600ce47a3c6f","system_id":"levelo_inurba_marseille","lat":43.31328,"lon":5.3969,"is_reserved":false,"is_disabled":false,"rental_uris":{"android":"levelo://app?vid=ea7a9fbd-79bf-4fc5-9cf5-600ce47a3c6f","ios":"levelo://app?vid=ea7a9fbd-79bf-4fc5-9cf5-600ce47a3c6f"},"vehicle_type_id":"4","last_reported":1691265976,"current_range_meters":10000,"station_id":"ce4bgvp2rcd13ifvqcu0","pricing_plan_id":"free"},{"bike_id":"6bf6bfc6-351a-4103-82bc-0b9e0e553956","system_id":"levelo_inurba_marseille","lat":43.31333,"lon":5.39691,"is_reserved":false,"is_disabled":false,"rental_uris":{"android":"levelo://app?vid=6bf6bfc6-351a-4103-82bc-0b9e0e553956","ios":"levelo://app?vid=6bf6bfc6-351a-4103-82bc-0b9e0e553956"},"vehicle_type_id":"4","last_reported":1691265976,"current_range_meters":17600,"station_id":"ce4bgvp2rcd13ifvqcu0","pricing_plan_id":"free"},{"bike_id":"822faa04-0d00-48d4-a93e-c402c2c9415d","system_id":"levelo_inurba_marseille","lat":43.313291,"lon":5.396838,"is_reserved":false,"is_disabled":false,"rental_uris":{"android":"levelo://app?vid=822faa04-0d00-48d4-a93e-c402c2c9415d","ios":"levelo://app?vid=822faa04-0d00-48d4-a93e-c402c2c9415d"},"vehicle_type_id":"4","last_reported":1691265976,"current_range_meters":11600,"station_id":"ce4bgvp2rcd13ifvqcu0","pricing_plan_id":"free"},{"bike_id":"a87b57e5-fd92-4593-bd21-9530483b8ef7","system_id":"levelo_inurba_marseille","lat":43.29529,"lon":5.385581,"is_reserved":false,"is_disabled":false,"rental_uris":{"android":"levelo://app?vid=a87b57e5-fd92-4593-bd21-9530483b8ef7","ios":"levelo://app?vid=a87b57e5-fd92-4593-bd21-9530483b8ef7"},"vehicle_type_id":"4","last_reported":1691265976,"current_range_meters":20800,"station_id":"ce4bgih2rcd13ifvqba0","pricing_plan_id":"free"},{"bike_id":"9e8d563d-132b-4136-8580-cca51542c898","system_id":"levelo_inurba_marseille","lat":43.29529,"lon":5.385581,"is_reserved":false,"is_disabled":false,"rental_uris":{"android":"levelo://app?vid=9e8d563d-132b-4136-8580-cca51542c898","ios":"levelo://app?vid=9e8d563d-132b-4136-8580-cca51542c898"},"vehicle_type_id":"4","last_reported":1691265976,"current_range_meters":5600,"station_id":"ce4bgih2rcd13ifvqba0","pricing_plan_id":"free"},{"bike_id":"038f4d3b-bf12-466d-a112-55c9ba681252","system_id":"levelo_inurba_marseille","lat":43.29538,"lon":5.38537,"is_reserved":false,"is_disabled":false,"rental_uris":{"android":"levelo://app?vid=038f4d3b-bf12-466d-a112-55c9ba681252","ios":"levelo://app?vid=038f4d3b-bf12-466d-a112-55c9ba681252"},"vehicle_type_id":"4","last_reported":1691265976,"current_range_meters":31200,"station_id":"ce4bgih2rcd13ifvqba0","pricing_plan_id":"free"},{"bike_id":"92c669b8-e0bb-4a9d-b798-cb44990281b6","system_id":"levelo_inurba_marseille","lat":43.29529,"lon":5.385581,"is_reserved":false,"is_disabled":false,"rental_uris":{"android":"levelo://app?vid=92c669b8-e0bb-4a9d-b798-cb44990281b6","ios":"levelo://app?vid=92c669b8-e0bb-4a9d-b798-cb44990281b6"},"vehicle_type_id":"4","last_reported":1691265976,"current_range_meters":15200,"station_id":"ce4bgih2rcd13ifvqba0","pricing_plan_id":"free"},{"bike_id":"238b3634-f982-4047-8311-136c0e2287e8","system_id":"levelo_inurba_marseille","lat":43.29529,"lon":5.385581,"is_reserved":false,"is_disabled":false,"rental_uris":{"android":"levelo://app?vid=238b3634-f982-4047-8311-136c0e2287e8","ios":"levelo://app?vid=238b3634-f982-4047-8311-136c0e2287e8"},"vehicle_type_id":"4","last_reported":1691265976,"current_range_meters":25200,"station_id":"ce4bgih2rcd13ifvqba0","pricing_plan_id":"free"},{"bike_id":"d224958a-d589-4ced-8f11-f5c3aeb03ae2","system_id":"levelo_inurba_marseille","lat":43.29536,"lon":5.38541,"is_reserved":false,"is_disabled":false,"rental_uris":{"android":"levelo://app?vid=d224958a-d589-4ced-8f11-f5c3aeb03ae2","ios":"levelo://app?vid=d224958a-d589-4ced-8f11-f5c3aeb03ae2"},"vehicle_type_id":"4","last_reported":1691265976,"current_range_meters":30000,"station_id":"ce4bgih2rcd13ifvqba0","pricing_plan_id":"free"},{"bike_id":"3d14bc3e-eabc-44e1-b5c3-5da3969f1f31","system_id":"levelo_inurba_marseille","lat":43.29529,"lon":5.385581,"is_reserved":false,"is_disabled":false,"rental_uris":{"android":"levelo://app?vid=3d14bc3e-eabc-44e1-b5c3-5da3969f1f31","ios":"levelo://app?vid=3d14bc3e-eabc-44e1-b5c3-5da3969f1f31"},"vehicle_type_id":"4","last_reported":1691265976,"current_range_meters":31200,"station_id":"ce4bgih2rcd13ifvqba0","pricing_plan_id":"free"},{"bike_id":"4747f3b1-f333-4771-be6f-455881665793","system_id":"levelo_inurba_marseille","lat":43.29529,"lon":5.385581,"is_reserved":false,"is_disabled":false,"rental_uris":{"android":"levelo://app?vid=4747f3b1-f333-4771-be6f-455881665793","ios":"levelo://app?vid=4747f3b1-f333-4771-be6f-455881665793"},"vehicle_type_id":"4","last_reported":1691265976,"current_range_meters":14400,"station_id":"ce4bgih2rcd13ifvqba0","pricing_plan_id":"free"},{"bike_id":"3dbfeb7d-b17c-4bcf-a8d9-01c95ed43061","system_id":"levelo_inurba_marseille","lat":43.29529,"lon":5.385581,"is_reserved":false,"is_disabled":false,"rental_uris":{"android":"levelo://app?vid=3dbfeb7d-b17c-4bcf-a8d9-01c95ed43061","ios":"levelo://app?vid=3dbfeb7d-b17c-4bcf-a8d9-01c95ed43061"},"vehicle_type_id":"4","last_reported":1691265976,"current_range_meters":4800,"station_id":"ce4bgih2rcd13ifvqba0","pricing_plan_id":"free"},{"bike_id":"de4dc217-2b91-48f9-a0cf-28b71e8c13c3","system_id":"levelo_inurba_marseille","lat":43.29529,"lon":5.38542,"is_reserved":false,"is_disabled":false,"rental_uris":{"android":"levelo://app?vid=de4dc217-2b91-48f9-a0cf-28b71e8c13c3","ios":"levelo://app?vid=de4dc217-2b91-48f9-a0cf-28b71e8c13c3"},"vehicle_type_id":"4","last_reported":1691265976,"current_range_meters":28400,"station_id":"ce4bgih2rcd13ifvqba0","pricing_plan_id":"free"},{"bike_id":"07d2cd23-a29b-4313-aa22-79054127f13d","system_id":"levelo_inurba_marseille","lat":43.29529,"lon":5.385581,"is_reserved":false,"is_disabled":false,"rental_uris":{"android":"levelo://app?vid=07d2cd23-a29b-4313-aa22-79054127f13d","ios":"levelo://app?vid=07d2cd23-a29b-4313-aa22-79054127f13d"},"vehicle_type_id":"4","last_reported":1691265976,"current_range_meters":9600,"station_id":"ce4bgih2rcd13ifvqba0","pricing_plan_id":"free"},{"bike_id":"de60a296-30da-4687-bc06-e597bd9bc391","system_id":"levelo_inurba_marseille","lat":43.29531,"lon":5.38548,"is_reserved":false,"is_disabled":false,"rental_uris":{"android":"levelo://app?vid=de60a296-30da-4687-bc06-e597bd9bc391","ios":"levelo://app?vid=de60a296-30da-4687-bc06-e597bd9bc391"},"vehicle_type_id":"4","last_reported":1691265976,"current_range_meters":31200,"station_id":"ce4bgih2rcd13ifvqba0","pricing_plan_id":"free"},{"bike_id":"63fce6c3-c031-42de-b1dc-e30dfd8a4418","system_id":"levelo_inurba_marseille","lat":43.29529,"lon":5.385581,"is_reserved":false,"is_disabled":false,"rental_uris":{"android":"levelo://app?vid=63fce6c3-c031-42de-b1dc-e30dfd8a4418","ios":"levelo://app?vid=63fce6c3-c031-42de-b1dc-e30dfd8a4418"},"vehicle_type_id":"4","last_reported":1691265976,"current_range_meters":9600,"station_id":"ce4bgih2rcd13ifvqba0","pricing_plan_id":"free"},{"bike_id":"7b1998f2-4cc8-4a8a-96dc-292ae44d9311","system_id":"levelo_inurba_marseille","lat":43.2953,"lon":5.38548,"is_reserved":false,"is_disabled":false,"rental_uris":{"android":"levelo://app?vid=7b1998f2-4cc8-4a8a-96dc-292ae44d9311","ios":"levelo://app?vid=7b1998f2-4cc8-4a8a-96dc-292ae44d9311"},"vehicle_type_id":"4","last_reported":1691265976,"current_range_meters":31200,"station_id":"ce4bgih2rcd13ifvqba0","pricing_plan_id":"free"},{"bike_id":"374639b9-3778-4422-8e34-d63a80c3bbc4","system_id":"levelo_inurba_marseille","lat":43.29525,"lon":5.38545,"is_reserved":false,"is_disabled":false,"rental_uris":{"android":"levelo://app?vid=374639b9-3778-4422-8e34-d63a80c3bbc4","ios":"levelo://app?vid=374639b9-3778-4422-8e34-d63a80c3bbc4"},"vehicle_type_id":"4","last_reported":1691265976,"current_range_meters":22400,"station_id":"ce4bgih2rcd13ifvqba0","pricing_plan_id":"free"},{"bike_id":"c6c968f8-61e7-4718-9690-aa975f29d572","system_id":"levelo_inurba_marseille","lat":43.29526,"lon":5.3855,"is_reserved":false,"is_disabled":false,"rental_uris":{"android":"levelo://app?vid=c6c968f8-61e7-4718-9690-aa975f29d572","ios":"levelo://app?vid=c6c968f8-61e7-4718-9690-aa975f29d572"},"vehicle_type_id":"4","last_reported":1691265976,"current_range_meters":22800,"station_id":"ce4bgih2rcd13ifvqba0","pricing_plan_id":"free"},{"bike_id":"e39da804-d3a3-44d4-8070-91157b8cc66b","system_id":"levelo_inurba_marseille","lat":43.30209,"lon":5.39465,"is_reserved":false,"is_disabled":false,"rental_uris":{"android":"levelo://app?vid=e39da804-d3a3-44d4-8070-91157b8cc66b","ios":"levelo://app?vid=e39da804-d3a3-44d4-8070-91157b8cc66b"},"vehicle_type_id":"4","last_reported":1691265976,"current_range_meters":18000,"station_id":"ce4bh0p2rcd13ifvqd70","pricing_plan_id":"free"},{"bike_id":"b3919c8a-701d-45ae-a021-4eef751e0a74","system_id":"levelo_inurba_marseille","lat":43.302008,"lon":5.394694,"is_reserved":false,"is_disabled":false,"rental_uris":{"android":"levelo://app?vid=b3919c8a-701d-45ae-a021-4eef751e0a74","ios":"levelo://app?vid=b3919c8a-701d-45ae-a021-4eef751e0a74"},"vehicle_type_id":"4","last_reported":1691265976,"current_range_meters":15200,"station_id":"ce4bh0p2rcd13ifvqd70","pricing_plan_id":"free"},{"bike_id":"91a35c7d-9ddf-4efc-9076-488ac980581a","system_id":"levelo_inurba_marseille","lat":43.290624,"lon":5.359245,"is_reserved":false,"is_disabled":false,"rental_uris":{"android":"levelo://app?vid=91a35c7d-9ddf-4efc-9076-488ac980581a","ios":"levelo://app?vid=91a35c7d-9ddf-4efc-9076-488ac980581a"},"vehicle_type_id":"4","last_reported":1691265976,"current_range_meters":18000,"station_id":"ce4bha92rcd13ifvqeg0","pricing_plan_id":"free"},{"bike_id":"e9b3d82c-0cb2-449e-9f43-92864cef08d1","system_id":"levelo_inurba_marseille","lat":43.290631,"lon":5.359244,"is_reserved":false,"is_disabled":false,"rental_uris":{"android":"levelo://app?vid=e9b3d82c-0cb2-449e-9f43-92864cef08d1","ios":"levelo://app?vid=e9b3d82c-0cb2-449e-9f43-92864cef08d1"},"vehicle_type_id":"4","last_reported":1691265976,"current_range_meters":30800,"station_id":"ce4bha92rcd13ifvqeg0","pricing_plan_id":"free"},{"bike_id":"fad05ad1-6b6e-4213-ae09-887a7f918585","system_id":"levelo_inurba_marseille","lat":43.29444,"lon":5.38634,"is_reserved":false,"is_disabled":false,"rental_uris":{"android":"levelo://app?vid=fad05ad1-6b6e-4213-ae09-887a7f918585","ios":"levelo://app?vid=fad05ad1-6b6e-4213-ae09-887a7f918585"},"vehicle_type_id":"4","last_reported":1691265976,"current_range_meters":29600,"station_id":"ce4bh2h2rcd13ifvqdh0","pricing_plan_id":"free"},{"bike_id":"7cad8f41-1014-4fc8-90f5-8e5178da725e","system_id":"levelo_inurba_marseille","lat":43.290631,"lon":5.359244,"is_reserved":false,"is_disabled":false,"rental_uris":{"android":"levelo://app?vid=7cad8f41-1014-4fc8-90f5-8e5178da725e","ios":"levelo://app?vid=7cad8f41-1014-4fc8-90f5-8e5178da725e"},"vehicle_type_id":"4","last_reported":1691265976,"current_range_meters":8400,"station_id":"ce4bha92rcd13ifvqeg0","pricing_plan_id":"free"},{"bike_id":"ac83a60b-39dd-4727-a1aa-ef5b24060ac4","system_id":"levelo_inurba_marseille","lat":43.290624,"lon":5.359245,"is_reserved":false,"is_disabled":false,"rental_uris":{"android":"levelo://app?vid=ac83a60b-39dd-4727-a1aa-ef5b24060ac4","ios":"levelo://app?vid=ac83a60b-39dd-4727-a1aa-ef5b24060ac4"},"vehicle_type_id":"4","last_reported":1691265976,"current_range_meters":12000,"station_id":"ce4bha92rcd13ifvqeg0","pricing_plan_id":"free"},{"bike_id":"31d282ab-b5ee-4609-8818-540b290fc8cb","system_id":"levelo_inurba_marseille","lat":43.29422,"lon":5.38616,"is_reserved":false,"is_disabled":false,"rental_uris":{"android":"levelo://app?vid=31d282ab-b5ee-4609-8818-540b290fc8cb","ios":"levelo://app?vid=31d282ab-b5ee-4609-8818-540b290fc8cb"},"vehicle_type_id":"4","last_reported":1691265976,"current_range_meters":31200,"station_id":"ce4bh2h2rcd13ifvqdh0","pricing_plan_id":"free"},{"bike_id":"3d151a57-552f-4991-bba6-918323cf422b","system_id":"levelo_inurba_marseille","lat":43.294153,"lon":5.386305,"is_reserved":false,"is_disabled":false,"rental_uris":{"android":"levelo://app?vid=3d151a57-552f-4991-bba6-918323cf422b","ios":"levelo://app?vid=3d151a57-552f-4991-bba6-918323cf422b"},"vehicle_type_id":"4","last_reported":1691265976,"current_range_meters":14000,"station_id":"ce4bh2h2rcd13ifvqdh0","pricing_plan_id":"free"},{"bike_id":"227726a2-da71-4066-86fb-e476f7ff9b1a","system_id":"levelo_inurba_marseille","lat":43.29422,"lon":5.38622,"is_reserved":false,"is_disabled":false,"rental_uris":{"android":"levelo://app?vid=227726a2-da71-4066-86fb-e476f7ff9b1a","ios":"levelo://app?vid=227726a2-da71-4066-86fb-e476f7ff9b1a"},"vehicle_type_id":"4","last_reported":1691265976,"current_range_meters":12800,"station_id":"ce4bh2h2rcd13ifvqdh0","pricing_plan_id":"free"},{"bike_id":"1645c871-f155-4b9d-8b97-67f3f61e2930","system_id":"levelo_inurba_marseille","lat":43.29416,"lon":5.38612,"is_reserved":false,"is_disabled":false,"rental_uris":{"android":"levelo://app?vid=1645c871-f155-4b9d-8b97-67f3f61e2930","ios":"levelo://app?vid=1645c871-f155-4b9d-8b97-67f3f61e2930"},"vehicle_type_id":"4","last_reported":1691265976,"current_range_meters":16400,"station_id":"ce4bh2h2rcd13ifvqdh0","pricing_plan_id":"free"},{"bike_id":"1240d0dd-02ef-4158-8f60-f67ad4aa29dd","system_id":"levelo_inurba_marseille","lat":43.2942,"lon":5.3862,"is_reserved":false,"is_disabled":false,"rental_uris":{"android":"levelo://app?vid=1240d0dd-02ef-4158-8f60-f67ad4aa29dd","ios":"levelo://app?vid=1240d0dd-02ef-4158-8f60-f67ad4aa29dd"},"vehicle_type_id":"4","last_reported":1691265976,"current_range_meters":31200,"station_id":"ce4bh2h2rcd13ifvqdh0","pricing_plan_id":"free"},{"bike_id":"19c92c3f-336c-4d59-81e9-e3a263371655","system_id":"levelo_inurba_marseille","lat":43.2942,"lon":5.38622,"is_reserved":false,"is_disabled":false,"rental_uris":{"android":"levelo://app?vid=19c92c3f-336c-4d59-81e9-e3a263371655","ios":"levelo://app?vid=19c92c3f-336c-4d59-81e9-e3a263371655"},"vehicle_type_id":"4","last_reported":1691265976,"current_range_meters":14800,"station_id":"ce4bh2h2rcd13ifvqdh0","pricing_plan_id":"free"},{"bike_id":"c81e31a2-0e48-446f-b466-521faa0374ec","system_id":"levelo_inurba_marseille","lat":43.29417,"lon":5.38623,"is_reserved":false,"is_disabled":false,"rental_uris":{"android":"levelo://app?vid=c81e31a2-0e48-446f-b466-521faa0374ec","ios":"levelo://app?vid=c81e31a2-0e48-446f-b466-521faa0374ec"},"vehicle_type_id":"4","last_reported":1691265976,"current_range_meters":31200,"station_id":"ce4bh2h2rcd13ifvqdh0","pricing_plan_id":"free"},{"bike_id":"1f44ecaf-1d9c-49eb-902d-1a7eef157350","system_id":"levelo_inurba_marseille","lat":43.29413,"lon":5.38617,"is_reserved":false,"is_disabled":false,"rental_uris":{"android":"levelo://app?vid=1f44ecaf-1d9c-49eb-902d-1a7eef157350","ios":"levelo://app?vid=1f44ecaf-1d9c-49eb-902d-1a7eef157350"},"vehicle_type_id":"4","last_reported":1691265976,"current_range_meters":23200,"station_id":"ce4bh2h2rcd13ifvqdh0","pricing_plan_id":"free"},{"bike_id":"b347f626-56ff-4c00-8b50-890c5c4ea39c","system_id":"levelo_inurba_marseille","lat":43.29416,"lon":5.38624,"is_reserved":false,"is_disabled":false,"rental_uris":{"android":"levelo://app?vid=b347f626-56ff-4c00-8b50-890c5c4ea39c","ios":"levelo://app?vid=b347f626-56ff-4c00-8b50-890c5c4ea39c"},"vehicle_type_id":"4","last_reported":1691265976,"current_range_meters":12400,"station_id":"ce4bh2h2rcd13ifvqdh0","pricing_plan_id":"free"},{"bike_id":"be049492-2de1-408a-88c5-b7c3afca5a49","system_id":"levelo_inurba_marseille","lat":43.29415,"lon":5.38625,"is_reserved":false,"is_disabled":false,"rental_uris":{"android":"levelo://app?vid=be049492-2de1-408a-88c5-b7c3afca5a49","ios":"levelo://app?vid=be049492-2de1-408a-88c5-b7c3afca5a49"},"vehicle_type_id":"4","last_reported":1691265976,"current_range_meters":31200,"station_id":"ce4bh2h2rcd13ifvqdh0","pricing_plan_id":"free"},{"bike_id":"05758cd9-b695-4cd2-a1f1-3bd14297df41","system_id":"levelo_inurba_marseille","lat":43.29414,"lon":5.38624,"is_reserved":false,"is_disabled":false,"rental_uris":{"android":"levelo://app?vid=05758cd9-b695-4cd2-a1f1-3bd14297df41","ios":"levelo://app?vid=05758cd9-b695-4cd2-a1f1-3bd14297df41"},"vehicle_type_id":"4","last_reported":1691265976,"current_range_meters":12800,"station_id":"ce4bh2h2rcd13ifvqdh0","pricing_plan_id":"free"},{"bike_id":"02bf8e48-d9ec-44eb-9277-58f818b96b48","system_id":"levelo_inurba_marseille","lat":43.29414,"lon":5.38624,"is_reserved":false,"is_disabled":false,"rental_uris":{"android":"levelo://app?vid=02bf8e48-d9ec-44eb-9277-58f818b96b48","ios":"levelo://app?vid=02bf8e48-d9ec-44eb-9277-58f818b96b48"},"vehicle_type_id":"4","last_reported":1691265976,"current_range_meters":20800,"station_id":"ce4bh2h2rcd13ifvqdh0","pricing_plan_id":"free"},{"bike_id":"f1634b7e-98a4-40c4-b771-b9122b407ed8","system_id":"levelo_inurba_marseille","lat":43.29413,"lon":5.38623,"is_reserved":false,"is_disabled":false,"rental_uris":{"android":"levelo://app?vid=f1634b7e-98a4-40c4-b771-b9122b407ed8","ios":"levelo://app?vid=f1634b7e-98a4-40c4-b771-b9122b407ed8"},"vehicle_type_id":"4","last_reported":1691265976,"current_range_meters":22400,"station_id":"ce4bh2h2rcd13ifvqdh0","pricing_plan_id":"free"},{"bike_id":"9682d6aa-6cbf-4484-b525-5b4b633240ee","system_id":"levelo_inurba_marseille","lat":43.29416,"lon":5.38629,"is_reserved":false,"is_disabled":false,"rental_uris":{"android":"levelo://app?vid=9682d6aa-6cbf-4484-b525-5b4b633240ee","ios":"levelo://app?vid=9682d6aa-6cbf-4484-b525-5b4b633240ee"},"vehicle_type_id":"4","last_reported":1691265976,"current_range_meters":26000,"station_id":"ce4bh2h2rcd13ifvqdh0","pricing_plan_id":"free"},{"bike_id":"24144bd1-9974-4365-8968-0658aea37a93","system_id":"levelo_inurba_marseille","lat":43.29414,"lon":5.38627,"is_reserved":false,"is_disabled":false,"rental_uris":{"android":"levelo://app?vid=24144bd1-9974-4365-8968-0658aea37a93","ios":"levelo://app?vid=24144bd1-9974-4365-8968-0658aea37a93"},"vehicle_type_id":"4","last_reported":1691265976,"current_range_meters":31200,"station_id":"ce4bh2h2rcd13ifvqdh0","pricing_plan_id":"free"},{"bike_id":"5b9fef50-c7fd-4d31-9ca2-bb53cc3af722","system_id":"levelo_inurba_marseille","lat":43.29412,"lon":5.38625,"is_reserved":false,"is_disabled":false,"rental_uris":{"android":"levelo://app?vid=5b9fef50-c7fd-4d31-9ca2-bb53cc3af722","ios":"levelo://app?vid=5b9fef50-c7fd-4d31-9ca2-bb53cc3af722"},"vehicle_type_id":"4","last_reported":1691265976,"current_range_meters":31200,"station_id":"ce4bh2h2rcd13ifvqdh0","pricing_plan_id":"free"},{"bike_id":"20f36f2d-125e-43c9-829a-e24fdd77815f","system_id":"levelo_inurba_marseille","lat":43.29414,"lon":5.38629,"is_reserved":false,"is_disabled":false,"rental_uris":{"android":"levelo://app?vid=20f36f2d-125e-43c9-829a-e24fdd77815f","ios":"levelo://app?vid=20f36f2d-125e-43c9-829a-e24fdd77815f"},"vehicle_type_id":"4","last_reported":1691265976,"current_range_meters":25600,"station_id":"ce4bh2h2rcd13ifvqdh0","pricing_plan_id":"free"},{"bike_id":"a5b1b519-21c8-48b2-a69b-bd63c3653421","system_id":"levelo_inurba_marseille","lat":43.29412,"lon":5.3863,"is_reserved":false,"is_disabled":false,"rental_uris":{"android":"levelo://app?vid=a5b1b519-21c8-48b2-a69b-bd63c3653421","ios":"levelo://app?vid=a5b1b519-21c8-48b2-a69b-bd63c3653421"},"vehicle_type_id":"4","last_reported":1691265976,"current_range_meters":19200,"station_id":"ce4bh2h2rcd13ifvqdh0","pricing_plan_id":"free"},{"bike_id":"c1d3a505-442c-49b3-b92e-b8e89a841707","system_id":"levelo_inurba_marseille","lat":43.29412,"lon":5.38631,"is_reserved":false,"is_disabled":false,"rental_uris":{"android":"levelo://app?vid=c1d3a505-442c-49b3-b92e-b8e89a841707","ios":"levelo://app?vid=c1d3a505-442c-49b3-b92e-b8e89a841707"},"vehicle_type_id":"4","last_reported":1691265976,"current_range_meters":31200,"station_id":"ce4bh2h2rcd13ifvqdh0","pricing_plan_id":"free"},{"bike_id":"6f6e9984-4db8-4b67-9be9-fd268e9107c3","system_id":"levelo_inurba_marseille","lat":43.29408,"lon":5.38628,"is_reserved":false,"is_disabled":false,"rental_uris":{"android":"levelo://app?vid=6f6e9984-4db8-4b67-9be9-fd268e9107c3","ios":"levelo://app?vid=6f6e9984-4db8-4b67-9be9-fd268e9107c3"},"vehicle_type_id":"4","last_reported":1691265976,"current_range_meters":16800,"station_id":"ce4bh2h2rcd13ifvqdh0","pricing_plan_id":"free"},{"bike_id":"e27ab6e6-bad5-40a5-9208-8493e63647f6","system_id":"levelo_inurba_marseille","lat":43.292642,"lon":5.384254,"is_reserved":false,"is_disabled":false,"rental_uris":{"android":"levelo://app?vid=e27ab6e6-bad5-40a5-9208-8493e63647f6","ios":"levelo://app?vid=e27ab6e6-bad5-40a5-9208-8493e63647f6"},"vehicle_type_id":"4","last_reported":1691265976,"current_range_meters":16400,"station_id":"ce4bh692rcd13ifvqea0","pricing_plan_id":"free"},{"bike_id":"5b7eaaa7-5e94-4617-8cdb-e609df6c38dc","system_id":"levelo_inurba_marseille","lat":43.2927,"lon":5.38441,"is_reserved":false,"is_disabled":false,"rental_uris":{"android":"levelo://app?vid=5b7eaaa7-5e94-4617-8cdb-e609df6c38dc","ios":"levelo://app?vid=5b7eaaa7-5e94-4617-8cdb-e609df6c38dc"},"vehicle_type_id":"4","last_reported":1691265976,"current_range_meters":26800,"station_id":"ce4bh692rcd13ifvqea0","pricing_plan_id":"free"},{"bike_id":"a102cf37-7cb6-47f3-8643-731f3cb0dc3c","system_id":"levelo_inurba_marseille","lat":43.292642,"lon":5.384254,"is_reserved":false,"is_disabled":false,"rental_uris":{"android":"levelo://app?vid=a102cf37-7cb6-47f3-8643-731f3cb0dc3c","ios":"levelo://app?vid=a102cf37-7cb6-47f3-8643-731f3cb0dc3c"},"vehicle_type_id":"4","last_reported":1691265976,"current_range_meters":6000,"station_id":"ce4bh692rcd13ifvqea0","pricing_plan_id":"free"},{"bike_id":"d48d65e4-5e9d-4094-8745-1104c698e0ff","system_id":"levelo_inurba_marseille","lat":43.292642,"lon":5.384254,"is_reserved":false,"is_disabled":false,"rental_uris":{"android":"levelo://app?vid=d48d65e4-5e9d-4094-8745-1104c698e0ff","ios":"levelo://app?vid=d48d65e4-5e9d-4094-8745-1104c698e0ff"},"vehicle_type_id":"4","last_reported":1691265976,"current_range_meters":6000,"station_id":"ce4bh692rcd13ifvqea0","pricing_plan_id":"free"},{"bike_id":"b810c399-f843-4618-b269-b170283fbb78","system_id":"levelo_inurba_marseille","lat":43.304296,"lon":5.397513,"is_reserved":false,"is_disabled":false,"rental_uris":{"android":"levelo://app?vid=b810c399-f843-4618-b269-b170283fbb78","ios":"levelo://app?vid=b810c399-f843-4618-b269-b170283fbb78"},"vehicle_type_id":"4","last_reported":1691265976,"current_range_meters":30800,"station_id":"ce4bh092rcd13ifvqd20","pricing_plan_id":"free"},{"bike_id":"9c30aaa7-421b-4be3-ba5f-5bbe2cb6f4d2","system_id":"levelo_inurba_marseille","lat":43.292642,"lon":5.384254,"is_reserved":false,"is_disabled":false,"rental_uris":{"android":"levelo://app?vid=9c30aaa7-421b-4be3-ba5f-5bbe2cb6f4d2","ios":"levelo://app?vid=9c30aaa7-421b-4be3-ba5f-5bbe2cb6f4d2"},"vehicle_type_id":"4","last_reported":1691265976,"current_range_meters":31600,"station_id":"ce4bh692rcd13ifvqea0","pricing_plan_id":"free"},{"bike_id":"4c9324d4-6c25-4cf9-9a36-a3eb1a8095a2","system_id":"levelo_inurba_marseille","lat":43.292644,"lon":5.384257,"is_reserved":false,"is_disabled":false,"rental_uris":{"android":"levelo://app?vid=4c9324d4-6c25-4cf9-9a36-a3eb1a8095a2","ios":"levelo://app?vid=4c9324d4-6c25-4cf9-9a36-a3eb1a8095a2"},"vehicle_type_id":"4","last_reported":1691265976,"current_range_meters":26800,"station_id":"ce4bh692rcd13ifvqea0","pricing_plan_id":"free"},{"bike_id":"7a950cce-c6a9-45bd-b7b0-94b1bc42690f","system_id":"levelo_inurba_marseille","lat":43.292644,"lon":5.384257,"is_reserved":false,"is_disabled":false,"rental_uris":{"android":"levelo://app?vid=7a950cce-c6a9-45bd-b7b0-94b1bc42690f","ios":"levelo://app?vid=7a950cce-c6a9-45bd-b7b0-94b1bc42690f"},"vehicle_type_id":"4","last_reported":1691265976,"current_range_meters":17200,"station_id":"ce4bh692rcd13ifvqea0","pricing_plan_id":"free"},{"bike_id":"fcaa774a-1e27-4ba1-bea2-412ed020f392","system_id":"levelo_inurba_marseille","lat":43.304296,"lon":5.397513,"is_reserved":false,"is_disabled":false,"rental_uris":{"android":"levelo://app?vid=fcaa774a-1e27-4ba1-bea2-412ed020f392","ios":"levelo://app?vid=fcaa774a-1e27-4ba1-bea2-412ed020f392"},"vehicle_type_id":"4","last_reported":1691265976,"current_range_meters":19200,"station_id":"ce4bh092rcd13ifvqd20","pricing_plan_id":"free"},{"bike_id":"fb647d96-c019-426f-af16-d31d091d516a","system_id":"levelo_inurba_marseille","lat":43.292644,"lon":5.384257,"is_reserved":false,"is_disabled":false,"rental_uris":{"android":"levelo://app?vid=fb647d96-c019-426f-af16-d31d091d516a","ios":"levelo://app?vid=fb647d96-c019-426f-af16-d31d091d516a"},"vehicle_type_id":"4","last_reported":1691265976,"current_range_meters":31200,"station_id":"ce4bh692rcd13ifvqea0","pricing_plan_id":"free"},{"bike_id":"1115cb4b-19b0-4a17-9bd1-fb4570c68d4e","system_id":"levelo_inurba_marseille","lat":43.292644,"lon":5.384257,"is_reserved":false,"is_disabled":false,"rental_uris":{"android":"levelo://app?vid=1115cb4b-19b0-4a17-9bd1-fb4570c68d4e","ios":"levelo://app?vid=1115cb4b-19b0-4a17-9bd1-fb4570c68d4e"},"vehicle_type_id":"4","last_reported":1691265976,"current_range_meters":31200,"station_id":"ce4bh692rcd13ifvqea0","pricing_plan_id":"free"},{"bike_id":"d3c27e98-82c6-4cd0-bfaa-68cec38e2795","system_id":"levelo_inurba_marseille","lat":43.292642,"lon":5.384254,"is_reserved":false,"is_disabled":false,"rental_uris":{"android":"levelo://app?vid=d3c27e98-82c6-4cd0-bfaa-68cec38e2795","ios":"levelo://app?vid=d3c27e98-82c6-4cd0-bfaa-68cec38e2795"},"vehicle_type_id":"4","last_reported":1691265976,"current_range_meters":28800,"station_id":"ce4bh692rcd13ifvqea0","pricing_plan_id":"free"},{"bike_id":"c5b4eeba-4cf5-445e-b68e-fab475a4da68","system_id":"levelo_inurba_marseille","lat":43.292642,"lon":5.384254,"is_reserved":false,"is_disabled":false,"rental_uris":{"android":"levelo://app?vid=c5b4eeba-4cf5-445e-b68e-fab475a4da68","ios":"levelo://app?vid=c5b4eeba-4cf5-445e-b68e-fab475a4da68"},"vehicle_type_id":"4","last_reported":1691265976,"current_range_meters":20000,"station_id":"ce4bh692rcd13ifvqea0","pricing_plan_id":"free"},{"bike_id":"9438f550-7e50-4bab-b996-dd3375630e75","system_id":"levelo_inurba_marseille","lat":43.292644,"lon":5.384257,"is_reserved":false,"is_disabled":false,"rental_uris":{"android":"levelo://app?vid=9438f550-7e50-4bab-b996-dd3375630e75","ios":"levelo://app?vid=9438f550-7e50-4bab-b996-dd3375630e75"},"vehicle_type_id":"4","last_reported":1691265976,"current_range_meters":31200,"station_id":"ce4bh692rcd13ifvqea0","pricing_plan_id":"free"},{"bike_id":"79a68400-afa6-48b2-bd4b-45482a6d1675","system_id":"levelo_inurba_marseille","lat":43.292642,"lon":5.384254,"is_reserved":false,"is_disabled":false,"rental_uris":{"android":"levelo://app?vid=79a68400-afa6-48b2-bd4b-45482a6d1675","ios":"levelo://app?vid=79a68400-afa6-48b2-bd4b-45482a6d1675"},"vehicle_type_id":"4","last_reported":1691265976,"current_range_meters":12800,"station_id":"ce4bh692rcd13ifvqea0","pricing_plan_id":"free"},{"bike_id":"0444cc78-b3cb-4566-a909-41cd125bc6c4","system_id":"levelo_inurba_marseille","lat":43.292644,"lon":5.384257,"is_reserved":false,"is_disabled":false,"rental_uris":{"android":"levelo://app?vid=0444cc78-b3cb-4566-a909-41cd125bc6c4","ios":"levelo://app?vid=0444cc78-b3cb-4566-a909-41cd125bc6c4"},"vehicle_type_id":"4","last_reported":1691265976,"current_range_meters":16000,"station_id":"ce4bh692rcd13ifvqea0","pricing_plan_id":"free"},{"bike_id":"8a4c4eba-436a-4591-b655-9d3287a992f1","system_id":"levelo_inurba_marseille","lat":43.292644,"lon":5.384257,"is_reserved":false,"is_disabled":false,"rental_uris":{"android":"levelo://app?vid=8a4c4eba-436a-4591-b655-9d3287a992f1","ios":"levelo://app?vid=8a4c4eba-436a-4591-b655-9d3287a992f1"},"vehicle_type_id":"4","last_reported":1691265976,"current_range_meters":13200,"station_id":"ce4bh692rcd13ifvqea0","pricing_plan_id":"free"},{"bike_id":"bdb59e64-f9de-4720-a729-2d78dc3868d1","system_id":"levelo_inurba_marseille","lat":43.292644,"lon":5.384257,"is_reserved":false,"is_disabled":false,"rental_uris":{"android":"levelo://app?vid=bdb59e64-f9de-4720-a729-2d78dc3868d1","ios":"levelo://app?vid=bdb59e64-f9de-4720-a729-2d78dc3868d1"},"vehicle_type_id":"4","last_reported":1691265976,"current_range_meters":22000,"station_id":"ce4bh692rcd13ifvqea0","pricing_plan_id":"free"},{"bike_id":"f967077d-b633-4481-8d74-dbf570270a24","system_id":"levelo_inurba_marseille","lat":43.292642,"lon":5.384254,"is_reserved":false,"is_disabled":false,"rental_uris":{"android":"levelo://app?vid=f967077d-b633-4481-8d74-dbf570270a24","ios":"levelo://app?vid=f967077d-b633-4481-8d74-dbf570270a24"},"vehicle_type_id":"4","last_reported":1691265976,"current_range_meters":31600,"station_id":"ce4bh692rcd13ifvqea0","pricing_plan_id":"free"},{"bike_id":"5d339101-cd77-4677-a8eb-a398f62d54aa","system_id":"levelo_inurba_marseille","lat":43.292642,"lon":5.384254,"is_reserved":false,"is_disabled":false,"rental_uris":{"android":"levelo://app?vid=5d339101-cd77-4677-a8eb-a398f62d54aa","ios":"levelo://app?vid=5d339101-cd77-4677-a8eb-a398f62d54aa"},"vehicle_type_id":"4","last_reported":1691265976,"current_range_meters":31200,"station_id":"ce4bh692rcd13ifvqea0","pricing_plan_id":"free"},{"bike_id":"ce9401fe-d88b-4f91-bcfb-37f8ba946bd5","system_id":"levelo_inurba_marseille","lat":43.292642,"lon":5.384254,"is_reserved":false,"is_disabled":false,"rental_uris":{"android":"levelo://app?vid=ce9401fe-d88b-4f91-bcfb-37f8ba946bd5","ios":"levelo://app?vid=ce9401fe-d88b-4f91-bcfb-37f8ba946bd5"},"vehicle_type_id":"4","last_reported":1691265976,"current_range_meters":20400,"station_id":"ce4bh692rcd13ifvqea0","pricing_plan_id":"free"},{"bike_id":"d1acc293-6a6c-4975-a118-c3a075361935","system_id":"levelo_inurba_marseille","lat":43.292644,"lon":5.384257,"is_reserved":false,"is_disabled":false,"rental_uris":{"android":"levelo://app?vid=d1acc293-6a6c-4975-a118-c3a075361935","ios":"levelo://app?vid=d1acc293-6a6c-4975-a118-c3a075361935"},"vehicle_type_id":"4","last_reported":1691265976,"current_range_meters":18400,"station_id":"ce4bh692rcd13ifvqea0","pricing_plan_id":"free"},{"bike_id":"e829b129-7a93-4b79-8b69-9e36f6a3c668","system_id":"levelo_inurba_marseille","lat":43.29261,"lon":5.38446,"is_reserved":false,"is_disabled":false,"rental_uris":{"android":"levelo://app?vid=e829b129-7a93-4b79-8b69-9e36f6a3c668","ios":"levelo://app?vid=e829b129-7a93-4b79-8b69-9e36f6a3c668"},"vehicle_type_id":"4","last_reported":1691265976,"current_range_meters":31200,"station_id":"ce4bh692rcd13ifvqea0","pricing_plan_id":"free"},{"bike_id":"1d737908-eb83-47d9-add8-1f8e909f99a2","system_id":"levelo_inurba_marseille","lat":43.292644,"lon":5.384257,"is_reserved":false,"is_disabled":false,"rental_uris":{"android":"levelo://app?vid=1d737908-eb83-47d9-add8-1f8e909f99a2","ios":"levelo://app?vid=1d737908-eb83-47d9-add8-1f8e909f99a2"},"vehicle_type_id":"4","last_reported":1691265976,"current_range_meters":14400,"station_id":"ce4bh692rcd13ifvqea0","pricing_plan_id":"free"},{"bike_id":"0bf44847-955f-4af2-972c-ca54861aed28","system_id":"levelo_inurba_marseille","lat":43.29259,"lon":5.38442,"is_reserved":false,"is_disabled":false,"rental_uris":{"android":"levelo://app?vid=0bf44847-955f-4af2-972c-ca54861aed28","ios":"levelo://app?vid=0bf44847-955f-4af2-972c-ca54861aed28"},"vehicle_type_id":"4","last_reported":1691265976,"current_range_meters":31200,"station_id":"ce4bh692rcd13ifvqea0","pricing_plan_id":"free"},{"bike_id":"bc546f93-586a-41eb-aefd-b3dc17c4d38c","system_id":"levelo_inurba_marseille","lat":43.292642,"lon":5.384254,"is_reserved":false,"is_disabled":false,"rental_uris":{"android":"levelo://app?vid=bc546f93-586a-41eb-aefd-b3dc17c4d38c","ios":"levelo://app?vid=bc546f93-586a-41eb-aefd-b3dc17c4d38c"},"vehicle_type_id":"4","last_reported":1691265976,"current_range_meters":31600,"station_id":"ce4bh692rcd13ifvqea0","pricing_plan_id":"free"},{"bike_id":"59a06a74-138c-4c15-b6b7-0a621c24b6c6","system_id":"levelo_inurba_marseille","lat":43.29261,"lon":5.38447,"is_reserved":false,"is_disabled":false,"rental_uris":{"android":"levelo://app?vid=59a06a74-138c-4c15-b6b7-0a621c24b6c6","ios":"levelo://app?vid=59a06a74-138c-4c15-b6b7-0a621c24b6c6"},"vehicle_type_id":"4","last_reported":1691265976,"current_range_meters":31200,"station_id":"ce4bh692rcd13ifvqea0","pricing_plan_id":"free"},{"bike_id":"ceaeef2c-d4f7-4737-aab4-beb5d0a8bddc","system_id":"levelo_inurba_marseille","lat":43.292644,"lon":5.384257,"is_reserved":false,"is_disabled":false,"rental_uris":{"android":"levelo://app?vid=ceaeef2c-d4f7-4737-aab4-beb5d0a8bddc","ios":"levelo://app?vid=ceaeef2c-d4f7-4737-aab4-beb5d0a8bddc"},"vehicle_type_id":"4","last_reported":1691265976,"current_range_meters":27600,"station_id":"ce4bh692rcd13ifvqea0","pricing_plan_id":"free"},{"bike_id":"6b8a9e3d-4946-4763-b632-b7b968d55023","system_id":"levelo_inurba_marseille","lat":43.2926,"lon":5.38447,"is_reserved":false,"is_disabled":false,"rental_uris":{"android":"levelo://app?vid=6b8a9e3d-4946-4763-b632-b7b968d55023","ios":"levelo://app?vid=6b8a9e3d-4946-4763-b632-b7b968d55023"},"vehicle_type_id":"4","last_reported":1691265976,"current_range_meters":4800,"station_id":"ce4bh692rcd13ifvqea0","pricing_plan_id":"free"},{"bike_id":"f1b4110b-7959-46db-855e-f413b6fb5ad0","system_id":"levelo_inurba_marseille","lat":43.292642,"lon":5.384254,"is_reserved":false,"is_disabled":false,"rental_uris":{"android":"levelo://app?vid=f1b4110b-7959-46db-855e-f413b6fb5ad0","ios":"levelo://app?vid=f1b4110b-7959-46db-855e-f413b6fb5ad0"},"vehicle_type_id":"4","last_reported":1691265976,"current_range_meters":13600,"station_id":"ce4bh692rcd13ifvqea0","pricing_plan_id":"free"},{"bike_id":"73399446-6bdb-49c3-a9ec-2e058cf26023","system_id":"levelo_inurba_marseille","lat":43.292644,"lon":5.384257,"is_reserved":false,"is_disabled":false,"rental_uris":{"android":"levelo://app?vid=73399446-6bdb-49c3-a9ec-2e058cf26023","ios":"levelo://app?vid=73399446-6bdb-49c3-a9ec-2e058cf26023"},"vehicle_type_id":"4","last_reported":1691265976,"current_range_meters":19600,"station_id":"ce4bh692rcd13ifvqea0","pricing_plan_id":"free"},{"bike_id":"d54134e6-e0e9-4843-8264-b878016b5f32","system_id":"levelo_inurba_marseille","lat":43.292644,"lon":5.384257,"is_reserved":false,"is_disabled":false,"rental_uris":{"android":"levelo://app?vid=d54134e6-e0e9-4843-8264-b878016b5f32","ios":"levelo://app?vid=d54134e6-e0e9-4843-8264-b878016b5f32"},"vehicle_type_id":"4","last_reported":1691265976,"current_range_meters":27200,"station_id":"ce4bh692rcd13ifvqea0","pricing_plan_id":"free"},{"bike_id":"5f528b2e-64de-4c0b-9a1f-4b5d1e5bf303","system_id":"levelo_inurba_marseille","lat":43.292644,"lon":5.384257,"is_reserved":false,"is_disabled":false,"rental_uris":{"android":"levelo://app?vid=5f528b2e-64de-4c0b-9a1f-4b5d1e5bf303","ios":"levelo://app?vid=5f528b2e-64de-4c0b-9a1f-4b5d1e5bf303"},"vehicle_type_id":"4","last_reported":1691265976,"current_range_meters":31200,"station_id":"ce4bh692rcd13ifvqea0","pricing_plan_id":"free"},{"bike_id":"2f2d42a2-8de0-405f-9429-d3eae654394c","system_id":"levelo_inurba_marseille","lat":43.33037,"lon":5.38912,"is_reserved":false,"is_disabled":false,"rental_uris":{"android":"levelo://app?vid=2f2d42a2-8de0-405f-9429-d3eae654394c","ios":"levelo://app?vid=2f2d42a2-8de0-405f-9429-d3eae654394c"},"vehicle_type_id":"4","last_reported":1691265976,"current_range_meters":15600,"station_id":"ce4bhr92rcd13ifvqhrg","pricing_plan_id":"free"},{"bike_id":"3468d6ee-41ad-4796-b726-52055f3c03fd","system_id":"levelo_inurba_marseille","lat":43.33043,"lon":5.38903,"is_reserved":false,"is_disabled":false,"rental_uris":{"android":"levelo://app?vid=3468d6ee-41ad-4796-b726-52055f3c03fd","ios":"levelo://app?vid=3468d6ee-41ad-4796-b726-52055f3c03fd"},"vehicle_type_id":"4","last_reported":1691265976,"current_range_meters":26400,"station_id":"ce4bhr92rcd13ifvqhrg","pricing_plan_id":"free"},{"bike_id":"c640cbec-ef37-4d84-b0ca-471e41c097da","system_id":"levelo_inurba_marseille","lat":43.292644,"lon":5.384257,"is_reserved":false,"is_disabled":false,"rental_uris":{"android":"levelo://app?vid=c640cbec-ef37-4d84-b0ca-471e41c097da","ios":"levelo://app?vid=c640cbec-ef37-4d84-b0ca-471e41c097da"},"vehicle_type_id":"4","last_reported":1691265976,"current_range_meters":31200,"station_id":"ce4bh692rcd13ifvqea0","pricing_plan_id":"free"},{"bike_id":"f67edc25-bcc7-41fb-8431-1add679b0933","system_id":"levelo_inurba_marseille","lat":43.33043,"lon":5.38909,"is_reserved":false,"is_disabled":false,"rental_uris":{"android":"levelo://app?vid=f67edc25-bcc7-41fb-8431-1add679b0933","ios":"levelo://app?vid=f67edc25-bcc7-41fb-8431-1add679b0933"},"vehicle_type_id":"4","last_reported":1691265976,"current_range_meters":14800,"station_id":"ce4bhr92rcd13ifvqhrg","pricing_plan_id":"free"},{"bike_id":"00b2dcdc-2882-40a1-9132-89c3ec15cf18","system_id":"levelo_inurba_marseille","lat":43.33041,"lon":5.38913,"is_reserved":false,"is_disabled":false,"rental_uris":{"android":"levelo://app?vid=00b2dcdc-2882-40a1-9132-89c3ec15cf18","ios":"levelo://app?vid=00b2dcdc-2882-40a1-9132-89c3ec15cf18"},"vehicle_type_id":"4","last_reported":1691265976,"current_range_meters":13200,"station_id":"ce4bhr92rcd13ifvqhrg","pricing_plan_id":"free"},{"bike_id":"38c1adea-6867-4940-9699-a628b1958570","system_id":"levelo_inurba_marseille","lat":43.33044,"lon":5.38909,"is_reserved":false,"is_disabled":false,"rental_uris":{"android":"levelo://app?vid=38c1adea-6867-4940-9699-a628b1958570","ios":"levelo://app?vid=38c1adea-6867-4940-9699-a628b1958570"},"vehicle_type_id":"4","last_reported":1691265976,"current_range_meters":27200,"station_id":"ce4bhr92rcd13ifvqhrg","pricing_plan_id":"free"},{"bike_id":"976f718a-bfdb-4480-a757-e5b9a5d1a5d6","system_id":"levelo_inurba_marseille","lat":43.33043,"lon":5.38911,"is_reserved":false,"is_disabled":false,"rental_uris":{"android":"levelo://app?vid=976f718a-bfdb-4480-a757-e5b9a5d1a5d6","ios":"levelo://app?vid=976f718a-bfdb-4480-a757-e5b9a5d1a5d6"},"vehicle_type_id":"4","last_reported":1691265976,"current_range_meters":24000,"station_id":"ce4bhr92rcd13ifvqhrg","pricing_plan_id":"free"},{"bike_id":"20cf3f6d-acf4-4653-bf24-baa04253f77a","system_id":"levelo_inurba_marseille","lat":43.33041,"lon":5.38915,"is_reserved":false,"is_disabled":false,"rental_uris":{"android":"levelo://app?vid=20cf3f6d-acf4-4653-bf24-baa04253f77a","ios":"levelo://app?vid=20cf3f6d-acf4-4653-bf24-baa04253f77a"},"vehicle_type_id":"4","last_reported":1691265976,"current_range_meters":13200,"station_id":"ce4bhr92rcd13ifvqhrg","pricing_plan_id":"free"},{"bike_id":"62280097-8071-4aec-9b64-64b0a0210256","system_id":"levelo_inurba_marseille","lat":43.33039,"lon":5.3892,"is_reserved":false,"is_disabled":false,"rental_uris":{"android":"levelo://app?vid=62280097-8071-4aec-9b64-64b0a0210256","ios":"levelo://app?vid=62280097-8071-4aec-9b64-64b0a0210256"},"vehicle_type_id":"4","last_reported":1691265976,"current_range_meters":21200,"station_id":"ce4bhr92rcd13ifvqhrg","pricing_plan_id":"free"},{"bike_id":"9ce62819-7d94-47c9-aff2-f56e39f0ba59","system_id":"levelo_inurba_marseille","lat":43.33042,"lon":5.38917,"is_reserved":false,"is_disabled":false,"rental_uris":{"android":"levelo://app?vid=9ce62819-7d94-47c9-aff2-f56e39f0ba59","ios":"levelo://app?vid=9ce62819-7d94-47c9-aff2-f56e39f0ba59"},"vehicle_type_id":"4","last_reported":1691265976,"current_range_meters":26400,"station_id":"ce4bhr92rcd13ifvqhrg","pricing_plan_id":"free"},{"bike_id":"34fc0bae-b089-42d1-99d0-10d5b39f2b41","system_id":"levelo_inurba_marseille","lat":43.33041,"lon":5.38923,"is_reserved":false,"is_disabled":false,"rental_uris":{"android":"levelo://app?vid=34fc0bae-b089-42d1-99d0-10d5b39f2b41","ios":"levelo://app?vid=34fc0bae-b089-42d1-99d0-10d5b39f2b41"},"vehicle_type_id":"4","last_reported":1691265976,"current_range_meters":20800,"station_id":"ce4bhr92rcd13ifvqhrg","pricing_plan_id":"free"},{"bike_id":"33fa619f-fad1-4474-97ac-dd824d19bed8","system_id":"levelo_inurba_marseille","lat":43.29793,"lon":5.39334,"is_reserved":false,"is_disabled":false,"rental_uris":{"android":"levelo://app?vid=33fa619f-fad1-4474-97ac-dd824d19bed8","ios":"levelo://app?vid=33fa619f-fad1-4474-97ac-dd824d19bed8"},"vehicle_type_id":"4","last_reported":1691265976,"current_range_meters":30400,"station_id":"","pricing_plan_id":"free"},{"bike_id":"05bf2cc0-c80b-4d3b-9303-5cea93148e89","system_id":"levelo_inurba_marseille","lat":43.290995,"lon":5.381361,"is_reserved":false,"is_disabled":false,"rental_uris":{"android":"levelo://app?vid=05bf2cc0-c80b-4d3b-9303-5cea93148e89","ios":"levelo://app?vid=05bf2cc0-c80b-4d3b-9303-5cea93148e89"},"vehicle_type_id":"4","last_reported":1691265976,"current_range_meters":29600,"station_id":"ce4bh512rcd13ifvqe2g","pricing_plan_id":"free"},{"bike_id":"258725b8-a4c2-409e-8e4c-37c41eea3841","system_id":"levelo_inurba_marseille","lat":43.2901,"lon":5.381269,"is_reserved":false,"is_disabled":false,"rental_uris":{"android":"levelo://app?vid=258725b8-a4c2-409e-8e4c-37c41eea3841","ios":"levelo://app?vid=258725b8-a4c2-409e-8e4c-37c41eea3841"},"vehicle_type_id":"4","last_reported":1691265976,"current_range_meters":23200,"station_id":"ce4bh4p2rcd13ifvqe1g","pricing_plan_id":"free"},{"bike_id":"c0b190af-52d9-4a3e-bc6d-0159388908a6","system_id":"levelo_inurba_marseille","lat":43.29025,"lon":5.3814,"is_reserved":false,"is_disabled":false,"rental_uris":{"android":"levelo://app?vid=c0b190af-52d9-4a3e-bc6d-0159388908a6","ios":"levelo://app?vid=c0b190af-52d9-4a3e-bc6d-0159388908a6"},"vehicle_type_id":"4","last_reported":1691265976,"current_range_meters":18400,"station_id":"ce4bh4p2rcd13ifvqe1g","pricing_plan_id":"free"},{"bike_id":"73513267-d29e-4931-82aa-5f50ee3c7d76","system_id":"levelo_inurba_marseille","lat":43.29022,"lon":5.38132,"is_reserved":false,"is_disabled":false,"rental_uris":{"android":"levelo://app?vid=73513267-d29e-4931-82aa-5f50ee3c7d76","ios":"levelo://app?vid=73513267-d29e-4931-82aa-5f50ee3c7d76"},"vehicle_type_id":"4","last_reported":1691265976,"current_range_meters":7200,"station_id":"ce4bh4p2rcd13ifvqe1g","pricing_plan_id":"free"},{"bike_id":"9422138e-8fa2-4aa7-a3dd-221ba1f87df3","system_id":"levelo_inurba_marseille","lat":43.29019,"lon":5.3813,"is_reserved":false,"is_disabled":false,"rental_uris":{"android":"levelo://app?vid=9422138e-8fa2-4aa7-a3dd-221ba1f87df3","ios":"levelo://app?vid=9422138e-8fa2-4aa7-a3dd-221ba1f87df3"},"vehicle_type_id":"4","last_reported":1691265976,"current_range_meters":7600,"station_id":"ce4bh4p2rcd13ifvqe1g","pricing_plan_id":"free"},{"bike_id":"44003650-a865-4fe9-84f6-aa9896288e72","system_id":"levelo_inurba_marseille","lat":43.2901,"lon":5.381269,"is_reserved":false,"is_disabled":false,"rental_uris":{"android":"levelo://app?vid=44003650-a865-4fe9-84f6-aa9896288e72","ios":"levelo://app?vid=44003650-a865-4fe9-84f6-aa9896288e72"},"vehicle_type_id":"4","last_reported":1691265976,"current_range_meters":5200,"station_id":"ce4bh4p2rcd13ifvqe1g","pricing_plan_id":"free"},{"bike_id":"d00cca18-e1f8-452d-b8d9-36ee5f883ef8","system_id":"levelo_inurba_marseille","lat":43.28853,"lon":5.3585,"is_reserved":false,"is_disabled":false,"rental_uris":{"android":"levelo://app?vid=d00cca18-e1f8-452d-b8d9-36ee5f883ef8","ios":"levelo://app?vid=d00cca18-e1f8-452d-b8d9-36ee5f883ef8"},"vehicle_type_id":"4","last_reported":1691265976,"current_range_meters":26400,"station_id":"","pricing_plan_id":"free"},{"bike_id":"6f0b6a7e-24ef-4dc5-a163-412ff98e69d5","system_id":"levelo_inurba_marseille","lat":43.31276,"lon":5.40166,"is_reserved":false,"is_disabled":false,"rental_uris":{"android":"levelo://app?vid=6f0b6a7e-24ef-4dc5-a163-412ff98e69d5","ios":"levelo://app?vid=6f0b6a7e-24ef-4dc5-a163-412ff98e69d5"},"vehicle_type_id":"4","last_reported":1691265976,"current_range_meters":0,"station_id":"ce4bh092rcd13ifvqd30","pricing_plan_id":"free"},{"bike_id":"7f2b3751-ed41-465c-ae4a-8407b4454bc8","system_id":"levelo_inurba_marseille","lat":43.31275,"lon":5.40169,"is_reserved":false,"is_disabled":false,"rental_uris":{"android":"levelo://app?vid=7f2b3751-ed41-465c-ae4a-8407b4454bc8","ios":"levelo://app?vid=7f2b3751-ed41-465c-ae4a-8407b4454bc8"},"vehicle_type_id":"4","last_reported":1691265976,"current_range_meters":6400,"station_id":"ce4bh092rcd13ifvqd30","pricing_plan_id":"free"},{"bike_id":"37e533eb-ef79-4460-a445-1a733b115b5e","system_id":"levelo_inurba_marseille","lat":43.301117,"lon":5.398795,"is_reserved":false,"is_disabled":false,"rental_uris":{"android":"levelo://app?vid=37e533eb-ef79-4460-a445-1a733b115b5e","ios":"levelo://app?vid=37e533eb-ef79-4460-a445-1a733b115b5e"},"vehicle_type_id":"4","last_reported":1691265976,"current_range_meters":13600,"station_id":"ce4bh0h2rcd13ifvqd40","pricing_plan_id":"free"},{"bike_id":"6a42d196-d84e-407f-b526-2d6c52bbb631","system_id":"levelo_inurba_marseille","lat":43.286961,"lon":5.373785,"is_reserved":false,"is_disabled":false,"rental_uris":{"android":"levelo://app?vid=6a42d196-d84e-407f-b526-2d6c52bbb631","ios":"levelo://app?vid=6a42d196-d84e-407f-b526-2d6c52bbb631"},"vehicle_type_id":"4","last_reported":1691265976,"current_range_meters":20400,"station_id":"ce4bh3p2rcd13ifvqdq0","pricing_plan_id":"free"},{"bike_id":"5b931eb0-04ac-4378-bd86-0baa737d30e3","system_id":"levelo_inurba_marseille","lat":43.286961,"lon":5.373785,"is_reserved":false,"is_disabled":false,"rental_uris":{"android":"levelo://app?vid=5b931eb0-04ac-4378-bd86-0baa737d30e3","ios":"levelo://app?vid=5b931eb0-04ac-4378-bd86-0baa737d30e3"},"vehicle_type_id":"4","last_reported":1691265976,"current_range_meters":31600,"station_id":"ce4bh3p2rcd13ifvqdq0","pricing_plan_id":"free"},