{"last_updated":1734081048,"ttl":60,"version":"2.2","data":{"bikes":[{"bike_id":"a8c5d4ef-c7db-4a82-b2cf-2771a331621c","system_id":"levelo_inurba_marseille","lat":43.240723,"lon":5.377697,"is_reserved":false,"is_disabled":false,"rental_uris":{"android":"levelo://app?vid=a8c5d4ef-c7db-4a82-b2cf-2771a331621c","ios":"levelo://app?vid=a8c5d4ef-c7db-4a82-b2cf-2771a331621c"},"vehicle_type_id":"4","last_reported":1734081048,"current_range_meters":38400,"station_id":"ce4bhnp2rcd13ifvqgvg","pricing_plan_id":"cebpf4jnsgd1na2vs0mg"},{"bike_id":"3e5d99b9-1aaf-48b9-b5fb-fb7a0b5b1ba5","system_id":"levelo_inurba_marseille","lat":43.29042,"lon":5.39239,"is_reserved":false,"is_disabled":true,"rental_uris":{"android":"levelo://app?vid=3e5d99b9-1aaf-48b9-b5fb-fb7a0b5b1ba5","ios":"levelo://app?vid=3e5d99b9-1aaf-48b9-b5fb-fb7a0b5b1ba5"},"vehicle_type_id":"4","last_reported":1734081048,"current_range_meters":0,"station_id":"","pricing_plan_id":"cebpf4jnsgd1na2vs0mg"},{"bike_id":"907fec12-a848-4864-ae30-c2b590a6dd5f","system_id":"levelo_inurba_marseille","lat":43.26193,"lon":5.37454,"is_reserved":false,"is_disabled":false,"rental_uris":{"android":"levelo://app?vid=907fec12-a848-4864-ae30-c2b590a6dd5f","ios":"levelo://app?vid=907fec12-a848-4864-ae30-c2b590a6dd5f"},"vehicle_type_id":"4","last_reported":1734081048,"current_range_meters":38800,"station_id":"ce4bhgp2rcd13ifvqfc0","pricing_plan_id":"cebpf4jnsgd1na2vs0mg"},{"bike_id":"60e9ed68-c2d5-4fcc-b1fe-df98992a2ea5","system_id":"levelo_inurba_marseille","lat":43.30764,"lon":5.36837,"is_reserved":false,"is_disabled":true,"rental_uris":{"android":"levelo://app?vid=60e9ed68-c2d5-4fcc-b1fe-df98992a2ea5","ios":"levelo://app?vid=60e9ed68-c2d5-4fcc-b1fe-df98992a2ea5"},"vehicle_type_id":"4","last_reported":1734081048,"current_range_meters":0,"station_id":"","pricing_plan_id":"cebpf4jnsgd1na2vs0mg"},{"bike_id":"bc04aebb-7b5e-4107-acf4-072d1fb0aaa3","system_id":"levelo_inurba_marseille","lat":43.2483,"lon":5.38943,"is_reserved":false,"is_disabled":false,"rental_uris":{"android":"levelo://app?vid=bc04aebb-7b5e-4107-acf4-072d1fb0aaa3","ios":"levelo://app?vid=bc04aebb-7b5e-4107-acf4-072d1fb0aaa3"},"vehicle_type_id":"4","last_reported":1734081048,"current_range_meters":9200,"station_id":"","pricing_plan_id":"cebpf4jnsgd1na2vs0mg"},{"bike_id":"68a5e283-83da-4da3-a08f-76abd1202548","system_id":"levelo_inurba_marseille","lat":43.31227,"lon":5.36902,"is_reserved":false,"is_disabled":false,"rental_uris":{"android":"levelo://app?vid=68a5e283-83da-4da3-a08f-76abd1202548","ios":"levelo://app?vid=68a5e283-83da-4da3-a08f-76abd1202548"},"vehicle_type_id":"4","last_reported":1734081048,"current_range_meters":39200,"station_id":"ce4bgl92rcd13ifvqbq0","pricing_plan_id":"cebpf4jnsgd1na2vs0mg"},{"bike_id":"9a234ed1-7eac-4815-a1c8-b91bfc1e6033","system_id":"levelo_inurba_marseille","lat":43.31333,"lon":5.39709,"is_reserved":false,"is_disabled":false,"rental_uris":{"android":"levelo://app?vid=9a234ed1-7eac-4815-a1c8-b91bfc1e6033","ios":"levelo://app?vid=9a234ed1-7eac-4815-a1c8-b91bfc1e6033"},"vehicle_type_id":"4","last_reported":1734081048,"current_range_meters":37600,"station_id":"ce4bgvp2rcd13ifvqcu0","pricing_plan_id":"cebpf4jnsgd1na2vs0mg"},{"bike_id":"2b4e5af5-d253-4d7a-9277-2e7a0090c33c","system_id":"levelo_inurba_marseille","lat":43.26201,"lon":5.37444,"is_reserved":false,"is_disabled":false,"rental_uris":{"android":"levelo://app?vid=2b4e5af5-d253-4d7a-9277-2e7a0090c33c","ios":"levelo://app?vid=2b4e5af5-d253-4d7a-9277-2e7a0090c33c"},"vehicle_type_id":"4","last_reported":1734081048,"current_range_meters":38000,"station_id":"ce4bhgp2rcd13ifvqfc0","pricing_plan_id":"cebpf4jnsgd1na2vs0mg"},{"bike_id":"32fade33-734c-4cbf-b948-5cef477a8f70","system_id":"levelo_inurba_marseille","lat":43.2951,"lon":5.39039,"is_reserved":false,"is_disabled":true,"rental_uris":{"android":"levelo://app?vid=32fade33-734c-4cbf-b948-5cef477a8f70","ios":"levelo://app?vid=32fade33-734c-4cbf-b948-5cef477a8f70"},"vehicle_type_id":"4","last_reported":1734081048,"current_range_meters":27600,"station_id":"ce4bh3p2rcd13ifvqdp0","pricing_plan_id":"cebpf4jnsgd1na2vs0mg"},{"bike_id":"f0d672bd-b7de-48da-b0d8-04f6e97348cb","system_id":"levelo_inurba_marseille","lat":43.27951,"lon":5.41043,"is_reserved":false,"is_disabled":false,"rental_uris":{"android":"levelo://app?vid=f0d672bd-b7de-48da-b0d8-04f6e97348cb","ios":"levelo://app?vid=f0d672bd-b7de-48da-b0d8-04f6e97348cb"},"vehicle_type_id":"4","last_reported":1734081048,"current_range_meters":17200,"station_id":"ce4bhnp2rcd13ifvqh0g","pricing_plan_id":"cebpf4jnsgd1na2vs0mg"},{"bike_id":"9d513f93-118a-4268-bd5e-30eba98d10bc","system_id":"levelo_inurba_marseille","lat":43.30143,"lon":5.381,"is_reserved":false,"is_disabled":false,"rental_uris":{"android":"levelo://app?vid=9d513f93-118a-4268-bd5e-30eba98d10bc","ios":"levelo://app?vid=9d513f93-118a-4268-bd5e-30eba98d10bc"},"vehicle_type_id":"4","last_reported":1734081048,"current_range_meters":33200,"station_id":"ce4bgjp2rcd13ifvqbh0","pricing_plan_id":"cebpf4jnsgd1na2vs0mg"},{"bike_id":"e4cdeb80-cc94-488a-a704-6f5b116e727f","system_id":"levelo_inurba_marseille","lat":43.26951,"lon":5.38628,"is_reserved":false,"is_disabled":false,"rental_uris":{"android":"levelo://app?vid=e4cdeb80-cc94-488a-a704-6f5b116e727f","ios":"levelo://app?vid=e4cdeb80-cc94-488a-a704-6f5b116e727f"},"vehicle_type_id":"4","last_reported":1734081048,"current_range_meters":38800,"station_id":"ce4bhh92rcd13ifvqfh0","pricing_plan_id":"cebpf4jnsgd1na2vs0mg"},{"bike_id":"239cb563-88c5-446f-9011-634e39b42a29","system_id":"levelo_inurba_marseille","lat":43.31529,"lon":5.38045,"is_reserved":false,"is_disabled":false,"rental_uris":{"android":"levelo://app?vid=239cb563-88c5-446f-9011-634e39b42a29","ios":"levelo://app?vid=239cb563-88c5-446f-9011-634e39b42a29"},"vehicle_type_id":"4","last_reported":1734081048,"current_range_meters":38000,"station_id":"ce4bhsp2rcd13ifvqi50","pricing_plan_id":"cebpf4jnsgd1na2vs0mg"},{"bike_id":"9134c73e-9e11-4d12-9fc2-d4a26311dab8","system_id":"levelo_inurba_marseille","lat":43.26204,"lon":5.37924,"is_reserved":false,"is_disabled":false,"rental_uris":{"android":"levelo://app?vid=9134c73e-9e11-4d12-9fc2-d4a26311dab8","ios":"levelo://app?vid=9134c73e-9e11-4d12-9fc2-d4a26311dab8"},"vehicle_type_id":"4","last_reported":1734081048,"current_range_meters":36400,"station_id":"ce4bhjp2rcd13ifvqg90","pricing_plan_id":"cebpf4jnsgd1na2vs0mg"},{"bike_id":"f53a51f1-6db0-4716-9c45-7ac4c7fcd208","system_id":"levelo_inurba_marseille","lat":43.32286,"lon":5.38269,"is_reserved":false,"is_disabled":false,"rental_uris":{"android":"levelo://app?vid=f53a51f1-6db0-4716-9c45-7ac4c7fcd208","ios":"levelo://app?vid=f53a51f1-6db0-4716-9c45-7ac4c7fcd208"},"vehicle_type_id":"4","last_reported":1734081048,"current_range_meters":36400,"station_id":"ce4bhr12rcd13ifvqhqg","pricing_plan_id":"cebpf4jnsgd1na2vs0mg"},{"bike_id":"980f96eb-32c9-4906-98f6-c44dbf4c84a1","system_id":"levelo_inurba_marseille","lat":43.27455,"lon":5.40073,"is_reserved":false,"is_disabled":true,"rental_uris":{"android":"levelo://app?vid=980f96eb-32c9-4906-98f6-c44dbf4c84a1","ios":"levelo://app?vid=980f96eb-32c9-4906-98f6-c44dbf4c84a1"},"vehicle_type_id":"4","last_reported":1734081048,"current_range_meters":0,"station_id":"","pricing_plan_id":"cebpf4jnsgd1na2vs0mg"},{"bike_id":"0a5c577f-8d6d-4e4c-9b3e-a10d19cfa98c","system_id":"levelo_inurba_marseille","lat":43.31348,"lon":5.3671,"is_reserved":false,"is_disabled":false,"rental_uris":{"android":"levelo://app?vid=0a5c577f-8d6d-4e4c-9b3e-a10d19cfa98c","ios":"levelo://app?vid=0a5c577f-8d6d-4e4c-9b3e-a10d19cfa98c"},"vehicle_type_id":"4","last_reported":1734081048,"current_range_meters":27600,"station_id":"ce4bgr92rcd13ifvqc6g","pricing_plan_id":"cebpf4jnsgd1na2vs0mg"},{"bike_id":"8eb40f25-fc14-4288-9dd7-aae13b0a9b04","system_id":"levelo_inurba_marseille","lat":43.269471,"lon":5.402374,"is_reserved":false,"is_disabled":true,"rental_uris":{"android":"levelo://app?vid=8eb40f25-fc14-4288-9dd7-aae13b0a9b04","ios":"levelo://app?vid=8eb40f25-fc14-4288-9dd7-aae13b0a9b04"},"vehicle_type_id":"4","last_reported":1734081048,"current_range_meters":30400,"station_id":"cjm6bp8fraef2m0cb0m0","pricing_plan_id":"cebpf4jnsgd1na2vs0mg"},{"bike_id":"32cf16f4-9a39-47cc-b122-aade4b67d5ee","system_id":"levelo_inurba_marseille","lat":43.34151,"lon":5.40909,"is_reserved":false,"is_disabled":false,"rental_uris":{"android":"levelo://app?vid=32cf16f4-9a39-47cc-b122-aade4b67d5ee","ios":"levelo://app?vid=32cf16f4-9a39-47cc-b122-aade4b67d5ee"},"vehicle_type_id":"4","last_reported":1734081048,"current_range_meters":30800,"station_id":"ce4bhqh2rcd13ifvqhlg","pricing_plan_id":"cebpf4jnsgd1na2vs0mg"},{"bike_id":"44fb5f0a-2ae4-4d74-aec6-24e498791295","system_id":"levelo_inurba_marseille","lat":43.25498,"lon":5.37653,"is_reserved":false,"is_disabled":false,"rental_uris":{"android":"levelo://app?vid=44fb5f0a-2ae4-4d74-aec6-24e498791295","ios":"levelo://app?vid=44fb5f0a-2ae4-4d74-aec6-24e498791295"},"vehicle_type_id":"4","last_reported":1734081048,"current_range_meters":29600,"station_id":"ce4bhh12rcd13ifvqff0","pricing_plan_id":"cebpf4jnsgd1na2vs0mg"},{"bike_id":"ab5e4461-fda5-43a9-bc1a-26d6e88593c9","system_id":"levelo_inurba_marseille","lat":43.28942,"lon":5.36401,"is_reserved":false,"is_disabled":false,"rental_uris":{"android":"levelo://app?vid=ab5e4461-fda5-43a9-bc1a-26d6e88593c9","ios":"levelo://app?vid=ab5e4461-fda5-43a9-bc1a-26d6e88593c9"},"vehicle_type_id":"4","last_reported":1734081048,"current_range_meters":35600,"station_id":"ce4bhc92rcd13ifvqetg","pricing_plan_id":"cebpf4jnsgd1na2vs0mg"},{"bike_id":"ce4c7390-3de8-4776-bab7-8b30799fdcc8","system_id":"levelo_inurba_marseille","lat":43.29193,"lon":5.35796,"is_reserved":false,"is_disabled":true,"rental_uris":{"android":"levelo://app?vid=ce4c7390-3de8-4776-bab7-8b30799fdcc8","ios":"levelo://app?vid=ce4c7390-3de8-4776-bab7-8b30799fdcc8"},"vehicle_type_id":"4","last_reported":1734081048,"current_range_meters":30800,"station_id":"ce4bhb12rcd13ifvqel0","pricing_plan_id":"cebpf4jnsgd1na2vs0mg"},{"bike_id":"c9ac6942-9c6d-49a2-b218-5c3d9909f71d","system_id":"levelo_inurba_marseille","lat":43.29442,"lon":5.39751,"is_reserved":false,"is_disabled":false,"rental_uris":{"android":"levelo://app?vid=c9ac6942-9c6d-49a2-b218-5c3d9909f71d","ios":"levelo://app?vid=c9ac6942-9c6d-49a2-b218-5c3d9909f71d"},"vehicle_type_id":"4","last_reported":1734081048,"current_range_meters":32400,"station_id":"ce4bh3h2rcd13ifvqdo0","pricing_plan_id":"cebpf4jnsgd1na2vs0mg"},{"bike_id":"506ab972-ac84-46b6-90f5-267f1345b92d","system_id":"levelo_inurba_marseille","lat":43.27062,"lon":5.40268,"is_reserved":false,"is_disabled":false,"rental_uris":{"android":"levelo://app?vid=506ab972-ac84-46b6-90f5-267f1345b92d","ios":"levelo://app?vid=506ab972-ac84-46b6-90f5-267f1345b92d"},"vehicle_type_id":"4","last_reported":1734081048,"current_range_meters":32400,"station_id":"ce4bhk92rcd13ifvqgc0","pricing_plan_id":"cebpf4jnsgd1na2vs0mg"},{"bike_id":"fe87f8f2-6e97-4611-93da-1318a830eb3c","system_id":"levelo_inurba_marseille","lat":43.27992,"lon":5.4165,"is_reserved":false,"is_disabled":true,"rental_uris":{"android":"levelo://app?vid=fe87f8f2-6e97-4611-93da-1318a830eb3c","ios":"levelo://app?vid=fe87f8f2-6e97-4611-93da-1318a830eb3c"},"vehicle_type_id":"4","last_reported":1734081048,"current_range_meters":38000,"station_id":"ce4bho12rcd13ifvqh1g","pricing_plan_id":"cebpf4jnsgd1na2vs0mg"},{"bike_id":"2ce91cd1-09d7-47a5-a47d-ffed718c1b03","system_id":"levelo_inurba_marseille","lat":43.29303,"lon":5.37164,"is_reserved":false,"is_disabled":false,"rental_uris":{"android":"levelo://app?vid=2ce91cd1-09d7-47a5-a47d-ffed718c1b03","ios":"levelo://app?vid=2ce91cd1-09d7-47a5-a47d-ffed718c1b03"},"vehicle_type_id":"4","last_reported":1734081048,"current_range_meters":6400,"station_id":"ce4bgh92rcd13ifvqb40","pricing_plan_id":"cebpf4jnsgd1na2vs0mg"},{"bike_id":"a830854d-85a5-4d22-8e8f-1bf3eb4beebf","system_id":"levelo_inurba_marseille","lat":43.30486,"lon":5.36496,"is_reserved":false,"is_disabled":false,"rental_uris":{"android":"levelo://app?vid=a830854d-85a5-4d22-8e8f-1bf3eb4beebf","ios":"levelo://app?vid=a830854d-85a5-4d22-8e8f-1bf3eb4beebf"},"vehicle_type_id":"4","last_reported":1734081048,"current_range_meters":37600,"station_id":"ce4bgs12rcd13ifvqcag","pricing_plan_id":"cebpf4jnsgd1na2vs0mg"},{"bike_id":"2757863f-4be8-42ad-bf70-1e54a617ce3d","system_id":"levelo_inurba_marseille","lat":43.29548,"lon":5.42284,"is_reserved":false,"is_disabled":true,"rental_uris":{"android":"levelo://app?vid=2757863f-4be8-42ad-bf70-1e54a617ce3d","ios":"levelo://app?vid=2757863f-4be8-42ad-bf70-1e54a617ce3d"},"vehicle_type_id":"4","last_reported":1734081048,"current_range_meters":3600,"station_id":"ce4bhph2rcd13ifvqhdg","pricing_plan_id":"cebpf4jnsgd1na2vs0mg"},{"bike_id":"d5c89c1f-3bad-4af2-9449-e04c277a4696","system_id":"levelo_inurba_marseille","lat":43.29959,"lon":5.41311,"is_reserved":false,"is_disabled":true,"rental_uris":{"android":"levelo://app?vid=d5c89c1f-3bad-4af2-9449-e04c277a4696","ios":"levelo://app?vid=d5c89c1f-3bad-4af2-9449-e04c277a4696"},"vehicle_type_id":"4","last_reported":1734081048,"current_range_meters":35200,"station_id":"ce4bhp12rcd13ifvqh9g","pricing_plan_id":"cebpf4jnsgd1na2vs0mg"},{"bike_id":"bf059ebe-07cc-4f08-951c-2ee6591ea75e","system_id":"levelo_inurba_marseille","lat":43.28438,"lon":5.39198,"is_reserved":false,"is_disabled":false,"rental_uris":{"android":"levelo://app?vid=bf059ebe-07cc-4f08-951c-2ee6591ea75e","ios":"levelo://app?vid=bf059ebe-07cc-4f08-951c-2ee6591ea75e"},"vehicle_type_id":"4","last_reported":1734081048,"current_range_meters":36800,"station_id":"ce4bhoh2rcd13ifvqh5g","pricing_plan_id":"cebpf4jnsgd1na2vs0mg"},{"bike_id":"c4c2d57e-0041-4441-af5b-4e76fecd4711","system_id":"levelo_inurba_marseille","lat":43.24079,"lon":5.37745,"is_reserved":false,"is_disabled":false,"rental_uris":{"android":"levelo://app?vid=c4c2d57e-0041-4441-af5b-4e76fecd4711","ios":"levelo://app?vid=c4c2d57e-0041-4441-af5b-4e76fecd4711"},"vehicle_type_id":"4","last_reported":1734081048,"current_range_meters":14400,"station_id":"ce4bhnp2rcd13ifvqgvg","pricing_plan_id":"cebpf4jnsgd1na2vs0mg"},{"bike_id":"44dea3bd-4411-41f6-b1ef-f066d537c0bd","system_id":"levelo_inurba_marseille","lat":43.23969,"lon":5.36631,"is_reserved":false,"is_disabled":false,"rental_uris":{"android":"levelo://app?vid=44dea3bd-4411-41f6-b1ef-f066d537c0bd","ios":"levelo://app?vid=44dea3bd-4411-41f6-b1ef-f066d537c0bd"},"vehicle_type_id":"4","last_reported":1734081048,"current_range_meters":36800,"station_id":"ce4bhi12rcd13ifvqfp0","pricing_plan_id":"cebpf4jnsgd1na2vs0mg"},{"bike_id":"38eb172d-a077-4ca7-9a48-d1565bc55b20","system_id":"levelo_inurba_marseille","lat":43.32281,"lon":5.38275,"is_reserved":false,"is_disabled":false,"rental_uris":{"android":"levelo://app?vid=38eb172d-a077-4ca7-9a48-d1565bc55b20","ios":"levelo://app?vid=38eb172d-a077-4ca7-9a48-d1565bc55b20"},"vehicle_type_id":"4","last_reported":1734081048,"current_range_meters":38000,"station_id":"ce4bhr12rcd13ifvqhqg","pricing_plan_id":"cebpf4jnsgd1na2vs0mg"},{"bike_id":"23b203e2-b068-4fc8-9a12-e11cba490e91","system_id":"levelo_inurba_marseille","lat":43.25585,"lon":5.38246,"is_reserved":false,"is_disabled":false,"rental_uris":{"android":"levelo://app?vid=23b203e2-b068-4fc8-9a12-e11cba490e91","ios":"levelo://app?vid=23b203e2-b068-4fc8-9a12-e11cba490e91"},"vehicle_type_id":"4","last_reported":1734081048,"current_range_meters":37600,"station_id":"ce4bhih2rcd13ifvqfs0","pricing_plan_id":"cebpf4jnsgd1na2vs0mg"},{"bike_id":"516bcbce-8b75-4610-9ee5-df08b7034853","system_id":"levelo_inurba_marseille","lat":43.26785,"lon":5.39453,"is_reserved":false,"is_disabled":false,"rental_uris":{"android":"levelo://app?vid=516bcbce-8b75-4610-9ee5-df08b7034853","ios":"levelo://app?vid=516bcbce-8b75-4610-9ee5-df08b7034853"},"vehicle_type_id":"4","last_reported":1734081048,"current_range_meters":37600,"station_id":"ce4bhh12rcd13ifvqfg0","pricing_plan_id":"cebpf4jnsgd1na2vs0mg"},{"bike_id":"80f66b82-54aa-4843-b64e-91d3afce4948","system_id":"levelo_inurba_marseille","lat":43.30795,"lon":5.3731,"is_reserved":false,"is_disabled":true,"rental_uris":{"android":"levelo://app?vid=80f66b82-54aa-4843-b64e-91d3afce4948","ios":"levelo://app?vid=80f66b82-54aa-4843-b64e-91d3afce4948"},"vehicle_type_id":"4","last_reported":1734081048,"current_range_meters":23200,"station_id":"","pricing_plan_id":"cebpf4jnsgd1na2vs0mg"},{"bike_id":"4577e3f9-baec-4319-a336-fec20b1f9d37","system_id":"levelo_inurba_marseille","lat":43.29568,"lon":5.39983,"is_reserved":false,"is_disabled":false,"rental_uris":{"android":"levelo://app?vid=4577e3f9-baec-4319-a336-fec20b1f9d37","ios":"levelo://app?vid=4577e3f9-baec-4319-a336-fec20b1f9d37"},"vehicle_type_id":"4","last_reported":1734081048,"current_range_meters":38400,"station_id":"ce4bh312rcd13ifvqdj0","pricing_plan_id":"cebpf4jnsgd1na2vs0mg"},{"bike_id":"03e5713c-5978-439a-819c-960a064c142d","system_id":"levelo_inurba_marseille","lat":43.28718,"lon":5.37933,"is_reserved":false,"is_disabled":false,"rental_uris":{"android":"levelo://app?vid=03e5713c-5978-439a-819c-960a064c142d","ios":"levelo://app?vid=03e5713c-5978-439a-819c-960a064c142d"},"vehicle_type_id":"4","last_reported":1734081048,"current_range_meters":38800,"station_id":"ce4bh9p2rcd13ifvqec0","pricing_plan_id":"cebpf4jnsgd1na2vs0mg"},{"bike_id":"94e1f871-2269-4dc0-b678-810d929953a4","system_id":"levelo_inurba_marseille","lat":43.26555,"lon":5.37295,"is_reserved":false,"is_disabled":false,"rental_uris":{"android":"levelo://app?vid=94e1f871-2269-4dc0-b678-810d929953a4","ios":"levelo://app?vid=94e1f871-2269-4dc0-b678-810d929953a4"},"vehicle_type_id":"4","last_reported":1734081048,"current_range_meters":28800,"station_id":"ce4bhg12rcd13ifvqf70","pricing_plan_id":"cebpf4jnsgd1na2vs0mg"},{"bike_id":"3a56946e-b571-4f0a-89c3-228266a44430","system_id":"levelo_inurba_marseille","lat":43.26597,"lon":5.38971,"is_reserved":false,"is_disabled":true,"rental_uris":{"android":"levelo://app?vid=3a56946e-b571-4f0a-89c3-228266a44430","ios":"levelo://app?vid=3a56946e-b571-4f0a-89c3-228266a44430"},"vehicle_type_id":"4","last_reported":1734081048,"current_range_meters":0,"station_id":"","pricing_plan_id":"cebpf4jnsgd1na2vs0mg"},{"bike_id":"495986c7-e02a-4c20-a1dc-c3edae2c8c07","system_id":"levelo_inurba_marseille","lat":43.30529,"lon":5.36715,"is_reserved":false,"is_disabled":false,"rental_uris":{"android":"levelo://app?vid=495986c7-e02a-4c20-a1dc-c3edae2c8c07","ios":"levelo://app?vid=495986c7-e02a-4c20-a1dc-c3edae2c8c07"},"vehicle_type_id":"4","last_reported":1734081048,"current_range_meters":16800,"station_id":"ce4bgrp2rcd13ifvqc9g","pricing_plan_id":"cebpf4jnsgd1na2vs0mg"},{"bike_id":"45a5a8d4-cc3b-479b-85c5-e69c19b66b52","system_id":"levelo_inurba_marseille","lat":43.26207,"lon":5.37921,"is_reserved":false,"is_disabled":false,"rental_uris":{"android":"levelo://app?vid=45a5a8d4-cc3b-479b-85c5-e69c19b66b52","ios":"levelo://app?vid=45a5a8d4-cc3b-479b-85c5-e69c19b66b52"},"vehicle_type_id":"4","last_reported":1734081048,"current_range_meters":36800,"station_id":"ce4bhjp2rcd13ifvqg90","pricing_plan_id":"cebpf4jnsgd1na2vs0mg"},{"bike_id":"223b26f5-02a3-4029-abf0-063dc319330c","system_id":"levelo_inurba_marseille","lat":43.27944,"lon":5.41045,"is_reserved":false,"is_disabled":false,"rental_uris":{"android":"levelo://app?vid=223b26f5-02a3-4029-abf0-063dc319330c","ios":"levelo://app?vid=223b26f5-02a3-4029-abf0-063dc319330c"},"vehicle_type_id":"4","last_reported":1734081048,"current_range_meters":38800,"station_id":"ce4bhnp2rcd13ifvqh0g","pricing_plan_id":"cebpf4jnsgd1na2vs0mg"},{"bike_id":"48f89538-caef-48c0-b76c-a236ac0f81eb","system_id":"levelo_inurba_marseille","lat":43.29536,"lon":5.38543,"is_reserved":false,"is_disabled":true,"rental_uris":{"android":"levelo://app?vid=48f89538-caef-48c0-b76c-a236ac0f81eb","ios":"levelo://app?vid=48f89538-caef-48c0-b76c-a236ac0f81eb"},"vehicle_type_id":"4","last_reported":1734081048,"current_range_meters":21600,"station_id":"ce4bgih2rcd13ifvqba0","pricing_plan_id":"cebpf4jnsgd1na2vs0mg"},{"bike_id":"edaea664-24e0-4d6c-aa7a-497f5c5f88f6","system_id":"levelo_inurba_marseille","lat":43.27011,"lon":5.39156,"is_reserved":false,"is_disabled":true,"rental_uris":{"android":"levelo://app?vid=edaea664-24e0-4d6c-aa7a-497f5c5f88f6","ios":"levelo://app?vid=edaea664-24e0-4d6c-aa7a-497f5c5f88f6"},"vehicle_type_id":"4","last_reported":1734081048,"current_range_meters":0,"station_id":"","pricing_plan_id":"cebpf4jnsgd1na2vs0mg"},{"bike_id":"e3f87214-e79a-460e-b324-ceed85381c34","system_id":"levelo_inurba_marseille","lat":43.33605,"lon":5.41023,"is_reserved":false,"is_disabled":true,"rental_uris":{"android":"levelo://app?vid=e3f87214-e79a-460e-b324-ceed85381c34","ios":"levelo://app?vid=e3f87214-e79a-460e-b324-ceed85381c34"},"vehicle_type_id":"4","last_reported":1734081048,"current_range_meters":1200,"station_id":"ce4bhqh2rcd13ifvqhmg","pricing_plan_id":"cebpf4jnsgd1na2vs0mg"},{"bike_id":"882d6a02-0e6d-480b-8733-d7f36812ef47","system_id":"levelo_inurba_marseille","lat":43.31526,"lon":5.38033,"is_reserved":false,"is_disabled":false,"rental_uris":{"android":"levelo://app?vid=882d6a02-0e6d-480b-8733-d7f36812ef47","ios":"levelo://app?vid=882d6a02-0e6d-480b-8733-d7f36812ef47"},"vehicle_type_id":"4","last_reported":1734081048,"current_range_meters":24400,"station_id":"ce4bhsp2rcd13ifvqi50","pricing_plan_id":"cebpf4jnsgd1na2vs0mg"},{"bike_id":"c2b0a1de-04dc-4eba-8fc8-f71a703093c8","system_id":"levelo_inurba_marseille","lat":43.26501,"lon":5.39543,"is_reserved":false,"is_disabled":true,"rental_uris":{"android":"levelo://app?vid=c2b0a1de-04dc-4eba-8fc8-f71a703093c8","ios":"levelo://app?vid=c2b0a1de-04dc-4eba-8fc8-f71a703093c8"},"vehicle_type_id":"4","last_reported":1734081048,"current_range_meters":38800,"station_id":"ce4bhi12rcd13ifvqfq0","pricing_plan_id":"cebpf4jnsgd1na2vs0mg"},{"bike_id":"9eb285e6-2783-4536-aa21-6a3a61e7aadd","system_id":"levelo_inurba_marseille","lat":43.30604,"lon":5.37229,"is_reserved":false,"is_disabled":false,"rental_uris":{"android":"levelo://app?vid=9eb285e6-2783-4536-aa21-6a3a61e7aadd","ios":"levelo://app?vid=9eb285e6-2783-4536-aa21-6a3a61e7aadd"},"vehicle_type_id":"4","last_reported":1734081048,"current_range_meters":33200,"station_id":"ce4bgqh2rcd13ifvqc4g","pricing_plan_id":"cebpf4jnsgd1na2vs0mg"},{"bike_id":"516f14a4-04fe-406e-80c1-e9be448aafa5","system_id":"levelo_inurba_marseille","lat":43.30546,"lon":5.36549,"is_reserved":false,"is_disabled":false,"rental_uris":{"android":"levelo://app?vid=516f14a4-04fe-406e-80c1-e9be448aafa5","ios":"levelo://app?vid=516f14a4-04fe-406e-80c1-e9be448aafa5"},"vehicle_type_id":"4","last_reported":1734081048,"current_range_meters":30800,"station_id":"ce4bgs12rcd13ifvqcag","pricing_plan_id":"cebpf4jnsgd1na2vs0mg"},{"bike_id":"c6fab730-201b-4460-82f0-d256d05671ee","system_id":"levelo_inurba_marseille","lat":43.2997,"lon":5.37181,"is_reserved":false,"is_disabled":false,"rental_uris":{"android":"levelo://app?vid=c6fab730-201b-4460-82f0-d256d05671ee","ios":"levelo://app?vid=c6fab730-201b-4460-82f0-d256d05671ee"},"vehicle_type_id":"4","last_reported":1734081048,"current_range_meters":34800,"station_id":"ce4bgr92rcd13ifvqc7g","pricing_plan_id":"cebpf4jnsgd1na2vs0mg"},{"bike_id":"75d005f1-a104-4287-b501-1002db049ee7","system_id":"levelo_inurba_marseille","lat":43.33719,"lon":5.39183,"is_reserved":false,"is_disabled":false,"rental_uris":{"android":"levelo://app?vid=75d005f1-a104-4287-b501-1002db049ee7","ios":"levelo://app?vid=75d005f1-a104-4287-b501-1002db049ee7"},"vehicle_type_id":"4","last_reported":1734081048,"current_range_meters":34800,"station_id":"ce4bhr92rcd13ifvqhsg","pricing_plan_id":"cebpf4jnsgd1na2vs0mg"},{"bike_id":"4d13eabf-b7f3-4054-99c3-2364d31938b4","system_id":"levelo_inurba_marseille","lat":43.28349,"lon":5.38098,"is_reserved":false,"is_disabled":false,"rental_uris":{"android":"levelo://app?vid=4d13eabf-b7f3-4054-99c3-2364d31938b4","ios":"levelo://app?vid=4d13eabf-b7f3-4054-99c3-2364d31938b4"},"vehicle_type_id":"4","last_reported":1734081048,"current_range_meters":19600,"station_id":"ce4bh412rcd13ifvqdr0","pricing_plan_id":"cebpf4jnsgd1na2vs0mg"},{"bike_id":"30b7f7b0-cffb-44e8-9e23-86428fe1183d","system_id":"levelo_inurba_marseille","lat":43.23057,"lon":5.35509,"is_reserved":false,"is_disabled":false,"rental_uris":{"android":"levelo://app?vid=30b7f7b0-cffb-44e8-9e23-86428fe1183d","ios":"levelo://app?vid=30b7f7b0-cffb-44e8-9e23-86428fe1183d"},"vehicle_type_id":"4","last_reported":1734081048,"current_range_meters":5600,"station_id":"cpo3342slgdg3j2ifvpg","pricing_plan_id":"cebpf4jnsgd1na2vs0mg"},{"bike_id":"c962957d-ec10-4997-96e1-a869343f922e","system_id":"levelo_inurba_marseille","lat":43.32669,"lon":5.36074,"is_reserved":false,"is_disabled":false,"rental_uris":{"android":"levelo://app?vid=c962957d-ec10-4997-96e1-a869343f922e","ios":"levelo://app?vid=c962957d-ec10-4997-96e1-a869343f922e"},"vehicle_type_id":"4","last_reported":1734081048,"current_range_meters":6800,"station_id":"","pricing_plan_id":"cebpf4jnsgd1na2vs0mg"},{"bike_id":"1f7ee1d5-78f7-42c0-a03c-fa1cd86cf4e1","system_id":"levelo_inurba_marseille","lat":43.31115,"lon":5.37776,"is_reserved":false,"is_disabled":false,"rental_uris":{"android":"levelo://app?vid=1f7ee1d5-78f7-42c0-a03c-fa1cd86cf4e1","ios":"levelo://app?vid=1f7ee1d5-78f7-42c0-a03c-fa1cd86cf4e1"},"vehicle_type_id":"4","last_reported":1734081048,"current_range_meters":6000,"station_id":"ce4bgt92rcd13ifvqcg0","pricing_plan_id":"cebpf4jnsgd1na2vs0mg"},{"bike_id":"5313f15a-6be9-4e32-afca-b26d6d5068af","system_id":"levelo_inurba_marseille","lat":43.26557,"lon":5.39017,"is_reserved":false,"is_disabled":false,"rental_uris":{"android":"levelo://app?vid=5313f15a-6be9-4e32-afca-b26d6d5068af","ios":"levelo://app?vid=5313f15a-6be9-4e32-afca-b26d6d5068af"},"vehicle_type_id":"4","last_reported":1734081048,"current_range_meters":8000,"station_id":"ce4bhe12rcd13ifvqf30","pricing_plan_id":"cebpf4jnsgd1na2vs0mg"},{"bike_id":"51524a51-fed7-42cd-9ad5-a44d5b930670","system_id":"levelo_inurba_marseille","lat":43.29092,"lon":5.3814,"is_reserved":false,"is_disabled":false,"rental_uris":{"android":"levelo://app?vid=51524a51-fed7-42cd-9ad5-a44d5b930670","ios":"levelo://app?vid=51524a51-fed7-42cd-9ad5-a44d5b930670"},"vehicle_type_id":"4","last_reported":1734081048,"current_range_meters":22800,"station_id":"ce4bh512rcd13ifvqe2g","pricing_plan_id":"cebpf4jnsgd1na2vs0mg"},{"bike_id":"81f0a68e-b4e1-40f2-b4fc-62c6f988bbae","system_id":"levelo_inurba_marseille","lat":43.27325,"lon":5.39087,"is_reserved":false,"is_disabled":false,"rental_uris":{"android":"levelo://app?vid=81f0a68e-b4e1-40f2-b4fc-62c6f988bbae","ios":"levelo://app?vid=81f0a68e-b4e1-40f2-b4fc-62c6f988bbae"},"vehicle_type_id":"4","last_reported":1734081048,"current_range_meters":33200,"station_id":"ce4bhgp2rcd13ifvqfe0","pricing_plan_id":"cebpf4jnsgd1na2vs0mg"},{"bike_id":"5429ce4b-361b-4730-ac36-0d684010e440","system_id":"levelo_inurba_marseille","lat":43.2594,"lon":5.40905,"is_reserved":false,"is_disabled":false,"rental_uris":{"android":"levelo://app?vid=5429ce4b-361b-4730-ac36-0d684010e440","ios":"levelo://app?vid=5429ce4b-361b-4730-ac36-0d684010e440"},"vehicle_type_id":"4","last_reported":1734081048,"current_range_meters":28800,"station_id":"ce4bhm92rcd13ifvqglg","pricing_plan_id":"cebpf4jnsgd1na2vs0mg"},{"bike_id":"da345435-a4ab-4142-96e2-d4c3515056c7","system_id":"levelo_inurba_marseille","lat":43.30124,"lon":5.38773,"is_reserved":false,"is_disabled":true,"rental_uris":{"android":"levelo://app?vid=da345435-a4ab-4142-96e2-d4c3515056c7","ios":"levelo://app?vid=da345435-a4ab-4142-96e2-d4c3515056c7"},"vehicle_type_id":"4","last_reported":1734081048,"current_range_meters":38000,"station_id":"ce4bghh2rcd13ifvqb60","pricing_plan_id":"cebpf4jnsgd1na2vs0mg"},{"bike_id":"9697d189-a8ed-4bf6-82a1-a26630737281","system_id":"levelo_inurba_marseille","lat":43.32477,"lon":5.36545,"is_reserved":false,"is_disabled":false,"rental_uris":{"android":"levelo://app?vid=9697d189-a8ed-4bf6-82a1-a26630737281","ios":"levelo://app?vid=9697d189-a8ed-4bf6-82a1-a26630737281"},"vehicle_type_id":"4","last_reported":1734081048,"current_range_meters":27200,"station_id":"ce4bhs12rcd13ifvqhvg","pricing_plan_id":"cebpf4jnsgd1na2vs0mg"},{"bike_id":"76c3770b-f7ef-459b-a94d-534b1694f912","system_id":"levelo_inurba_marseille","lat":43.2721,"lon":5.39178,"is_reserved":false,"is_disabled":false,"rental_uris":{"android":"levelo://app?vid=76c3770b-f7ef-459b-a94d-534b1694f912","ios":"levelo://app?vid=76c3770b-f7ef-459b-a94d-534b1694f912"},"vehicle_type_id":"4","last_reported":1734081048,"current_range_meters":38000,"station_id":"ce4bhhp2rcd13ifvqfm0","pricing_plan_id":"cebpf4jnsgd1na2vs0mg"},{"bike_id":"4cc774ee-ae5a-4146-919f-2e8715c09683","system_id":"levelo_inurba_marseille","lat":43.33609,"lon":5.41015,"is_reserved":false,"is_disabled":false,"rental_uris":{"android":"levelo://app?vid=4cc774ee-ae5a-4146-919f-2e8715c09683","ios":"levelo://app?vid=4cc774ee-ae5a-4146-919f-2e8715c09683"},"vehicle_type_id":"4","last_reported":1734081048,"current_range_meters":29600,"station_id":"ce4bhqh2rcd13ifvqhmg","pricing_plan_id":"cebpf4jnsgd1na2vs0mg"},{"bike_id":"9d29b262-a36d-49aa-852b-0999ae204b5e","system_id":"levelo_inurba_marseille","lat":43.29631,"lon":5.37744,"is_reserved":false,"is_disabled":true,"rental_uris":{"android":"levelo://app?vid=9d29b262-a36d-49aa-852b-0999ae204b5e","ios":"levelo://app?vid=9d29b262-a36d-49aa-852b-0999ae204b5e"},"vehicle_type_id":"4","last_reported":1734081048,"current_range_meters":1600,"station_id":"ce4bgi92rcd13ifvqb90","pricing_plan_id":"cebpf4jnsgd1na2vs0mg"},{"bike_id":"f6ca7f01-f640-48d2-9c97-b9ad544e36d5","system_id":"levelo_inurba_marseille","lat":43.29201,"lon":5.39347,"is_reserved":false,"is_disabled":false,"rental_uris":{"android":"levelo://app?vid=f6ca7f01-f640-48d2-9c97-b9ad544e36d5","ios":"levelo://app?vid=f6ca7f01-f640-48d2-9c97-b9ad544e36d5"},"vehicle_type_id":"4","last_reported":1734081048,"current_range_meters":19600,"station_id":"ce4bh192rcd13ifvqdd0","pricing_plan_id":"cebpf4jnsgd1na2vs0mg"},{"bike_id":"38735faf-3d00-4c11-a12a-b3576b51aafd","system_id":"levelo_inurba_marseille","lat":43.28714,"lon":5.3793,"is_reserved":false,"is_disabled":false,"rental_uris":{"android":"levelo://app?vid=38735faf-3d00-4c11-a12a-b3576b51aafd","ios":"levelo://app?vid=38735faf-3d00-4c11-a12a-b3576b51aafd"},"vehicle_type_id":"4","last_reported":1734081048,"current_range_meters":17600,"station_id":"ce4bh9p2rcd13ifvqec0","pricing_plan_id":"cebpf4jnsgd1na2vs0mg"},{"bike_id":"af67ac53-ba21-4ff0-8334-95679e9ff2cc","system_id":"levelo_inurba_marseille","lat":43.278805,"lon":5.388003,"is_reserved":false,"is_disabled":true,"rental_uris":{"android":"levelo://app?vid=af67ac53-ba21-4ff0-8334-95679e9ff2cc","ios":"levelo://app?vid=af67ac53-ba21-4ff0-8334-95679e9ff2cc"},"vehicle_type_id":"4","last_reported":1734081048,"current_range_meters":7200,"station_id":"","pricing_plan_id":"cebpf4jnsgd1na2vs0mg"},{"bike_id":"7ef45363-4449-4581-8642-1221e400cf3b","system_id":"levelo_inurba_marseille","lat":43.30545,"lon":5.36538,"is_reserved":false,"is_disabled":false,"rental_uris":{"android":"levelo://app?vid=7ef45363-4449-4581-8642-1221e400cf3b","ios":"levelo://app?vid=7ef45363-4449-4581-8642-1221e400cf3b"},"vehicle_type_id":"4","last_reported":1734081048,"current_range_meters":38800,"station_id":"ce4bgs12rcd13ifvqcag","pricing_plan_id":"cebpf4jnsgd1na2vs0mg"},{"bike_id":"f427a80e-aae6-47ae-aa6c-deccdaefd054","system_id":"levelo_inurba_marseille","lat":43.3054,"lon":5.36694,"is_reserved":false,"is_disabled":false,"rental_uris":{"android":"levelo://app?vid=f427a80e-aae6-47ae-aa6c-deccdaefd054","ios":"levelo://app?vid=f427a80e-aae6-47ae-aa6c-deccdaefd054"},"vehicle_type_id":"4","last_reported":1734081048,"current_range_meters":36800,"station_id":"ce4bgrp2rcd13ifvqc9g","pricing_plan_id":"cebpf4jnsgd1na2vs0mg"},{"bike_id":"1863e5bb-1339-4a2a-a04e-e9e9d05a787a","system_id":"levelo_inurba_marseille","lat":43.29067,"lon":5.37165,"is_reserved":false,"is_disabled":true,"rental_uris":{"android":"levelo://app?vid=1863e5bb-1339-4a2a-a04e-e9e9d05a787a","ios":"levelo://app?vid=1863e5bb-1339-4a2a-a04e-e9e9d05a787a"},"vehicle_type_id":"4","last_reported":1734081048,"current_range_meters":38800,"station_id":"ce4bh5p2rcd13ifvqe4g","pricing_plan_id":"cebpf4jnsgd1na2vs0mg"},{"bike_id":"d8d7ffef-ae54-446a-a28c-8265164b47ce","system_id":"levelo_inurba_marseille","lat":43.2916,"lon":5.43921,"is_reserved":false,"is_disabled":false,"rental_uris":{"android":"levelo://app?vid=d8d7ffef-ae54-446a-a28c-8265164b47ce","ios":"levelo://app?vid=d8d7ffef-ae54-446a-a28c-8265164b47ce"},"vehicle_type_id":"4","last_reported":1734081048,"current_range_meters":32000,"station_id":"","pricing_plan_id":"cebpf4jnsgd1na2vs0mg"},{"bike_id":"4a60b9db-0aec-4f8e-b19a-58467e256e5b","system_id":"levelo_inurba_marseille","lat":43.27496,"lon":5.42456,"is_reserved":false,"is_disabled":true,"rental_uris":{"android":"levelo://app?vid=4a60b9db-0aec-4f8e-b19a-58467e256e5b","ios":"levelo://app?vid=4a60b9db-0aec-4f8e-b19a-58467e256e5b"},"vehicle_type_id":"4","last_reported":1734081048,"current_range_meters":400,"station_id":"ce4bhn92rcd13ifvqgrg","pricing_plan_id":"cebpf4jnsgd1na2vs0mg"},{"bike_id":"d65fcea9-51ba-41f0-86fd-e798dfdd6f09","system_id":"levelo_inurba_marseille","lat":43.286753,"lon":5.383248,"is_reserved":false,"is_disabled":true,"rental_uris":{"android":"levelo://app?vid=d65fcea9-51ba-41f0-86fd-e798dfdd6f09","ios":"levelo://app?vid=d65fcea9-51ba-41f0-86fd-e798dfdd6f09"},"vehicle_type_id":"4","last_reported":1734081048,"current_range_meters":0,"station_id":"","pricing_plan_id":"cebpf4jnsgd1na2vs0mg"},{"bike_id":"9f90c432-ac23-4439-a028-afaf147c7c4b","system_id":"levelo_inurba_marseille","lat":43.27497,"lon":5.42457,"is_reserved":false,"is_disabled":false,"rental_uris":{"android":"levelo://app?vid=9f90c432-ac23-4439-a028-afaf147c7c4b","ios":"levelo://app?vid=9f90c432-ac23-4439-a028-afaf147c7c4b"},"vehicle_type_id":"4","last_reported":1734081048,"current_range_meters":7200,"station_id":"ce4bhn92rcd13ifvqgrg","pricing_plan_id":"cebpf4jnsgd1na2vs0mg"},{"bike_id":"3cffa040-7e8b-4d9e-a1bd-b8a78d782447","system_id":"levelo_inurba_marseille","lat":43.314905,"lon":5.373088,"is_reserved":false,"is_disabled":true,"rental_uris":{"android":"levelo://app?vid=3cffa040-7e8b-4d9e-a1bd-b8a78d782447","ios":"levelo://app?vid=3cffa040-7e8b-4d9e-a1bd-b8a78d782447"},"vehicle_type_id":"4","last_reported":1734081048,"current_range_meters":4400,"station_id":"","pricing_plan_id":"cebpf4jnsgd1na2vs0mg"},{"bike_id":"812146ef-5497-4746-b4ff-5d5d828fb6ac","system_id":"levelo_inurba_marseille","lat":43.31719,"lon":5.42443,"is_reserved":false,"is_disabled":false,"rental_uris":{"android":"levelo://app?vid=812146ef-5497-4746-b4ff-5d5d828fb6ac","ios":"levelo://app?vid=812146ef-5497-4746-b4ff-5d5d828fb6ac"},"vehicle_type_id":"4","last_reported":1734081048,"current_range_meters":38400,"station_id":"ce4bhp92rcd13ifvqhbg","pricing_plan_id":"cebpf4jnsgd1na2vs0mg"},{"bike_id":"ebc27306-24e0-4f99-892a-679bdab030bd","system_id":"levelo_inurba_marseille","lat":43.26948,"lon":5.3863,"is_reserved":false,"is_disabled":false,"rental_uris":{"android":"levelo://app?vid=ebc27306-24e0-4f99-892a-679bdab030bd","ios":"levelo://app?vid=ebc27306-24e0-4f99-892a-679bdab030bd"},"vehicle_type_id":"4","last_reported":1734081048,"current_range_meters":39200,"station_id":"ce4bhh92rcd13ifvqfh0","pricing_plan_id":"cebpf4jnsgd1na2vs0mg"},{"bike_id":"e7cfd852-9909-436d-bad5-f8e28209031c","system_id":"levelo_inurba_marseille","lat":43.26948,"lon":5.40247,"is_reserved":false,"is_disabled":false,"rental_uris":{"android":"levelo://app?vid=e7cfd852-9909-436d-bad5-f8e28209031c","ios":"levelo://app?vid=e7cfd852-9909-436d-bad5-f8e28209031c"},"vehicle_type_id":"4","last_reported":1734081048,"current_range_meters":38800,"station_id":"cjm6bp8fraef2m0cb0m0","pricing_plan_id":"cebpf4jnsgd1na2vs0mg"},{"bike_id":"5fd2d230-b800-4b85-b8f9-d759ea94e1ca","system_id":"levelo_inurba_marseille","lat":43.28148,"lon":5.42643,"is_reserved":false,"is_disabled":false,"rental_uris":{"android":"levelo://app?vid=5fd2d230-b800-4b85-b8f9-d759ea94e1ca","ios":"levelo://app?vid=5fd2d230-b800-4b85-b8f9-d759ea94e1ca"},"vehicle_type_id":"4","last_reported":1734081048,"current_range_meters":24000,"station_id":"ce4bhnh2rcd13ifvqgug","pricing_plan_id":"cebpf4jnsgd1na2vs0mg"},{"bike_id":"64203de9-e72b-4d66-9a84-7a315c7ed37f","system_id":"levelo_inurba_marseille","lat":43.29443,"lon":5.37459,"is_reserved":false,"is_disabled":true,"rental_uris":{"android":"levelo://app?vid=64203de9-e72b-4d66-9a84-7a315c7ed37f","ios":"levelo://app?vid=64203de9-e72b-4d66-9a84-7a315c7ed37f"},"vehicle_type_id":"4","last_reported":1734081048,"current_range_meters":0,"station_id":"","pricing_plan_id":"cebpf4jnsgd1na2vs0mg"},{"bike_id":"f3a5f041-a0a0-4b24-abde-29aae475b806","system_id":"levelo_inurba_marseille","lat":43.26938,"lon":5.38649,"is_reserved":false,"is_disabled":false,"rental_uris":{"android":"levelo://app?vid=f3a5f041-a0a0-4b24-abde-29aae475b806","ios":"levelo://app?vid=f3a5f041-a0a0-4b24-abde-29aae475b806"},"vehicle_type_id":"4","last_reported":1734081048,"current_range_meters":16800,"station_id":"ce4bhh92rcd13ifvqfh0","pricing_plan_id":"cebpf4jnsgd1na2vs0mg"},{"bike_id":"46b470a9-ee54-4c61-bc81-fe1869a3f5f5","system_id":"levelo_inurba_marseille","lat":43.31354,"lon":5.36718,"is_reserved":false,"is_disabled":false,"rental_uris":{"android":"levelo://app?vid=46b470a9-ee54-4c61-bc81-fe1869a3f5f5","ios":"levelo://app?vid=46b470a9-ee54-4c61-bc81-fe1869a3f5f5"},"vehicle_type_id":"4","last_reported":1734081048,"current_range_meters":16000,"station_id":"ce4bgr92rcd13ifvqc6g","pricing_plan_id":"cebpf4jnsgd1na2vs0mg"},{"bike_id":"c9179a56-6ac3-49b3-8785-0da77ec0b66c","system_id":"levelo_inurba_marseille","lat":43.29841,"lon":5.36265,"is_reserved":false,"is_disabled":false,"rental_uris":{"android":"levelo://app?vid=c9179a56-6ac3-49b3-8785-0da77ec0b66c","ios":"levelo://app?vid=c9179a56-6ac3-49b3-8785-0da77ec0b66c"},"vehicle_type_id":"4","last_reported":1734081048,"current_range_meters":39200,"station_id":"ce4bgpp2rcd13ifvqc3g","pricing_plan_id":"cebpf4jnsgd1na2vs0mg"},{"bike_id":"8de31fd9-fa1f-417e-82df-ccb5e27d297f","system_id":"levelo_inurba_marseille","lat":43.293,"lon":5.37459,"is_reserved":false,"is_disabled":true,"rental_uris":{"android":"levelo://app?vid=8de31fd9-fa1f-417e-82df-ccb5e27d297f","ios":"levelo://app?vid=8de31fd9-fa1f-417e-82df-ccb5e27d297f"},"vehicle_type_id":"4","last_reported":1734081048,"current_range_meters":24800,"station_id":"ce4bgi12rcd13ifvqb70","pricing_plan_id":"cebpf4jnsgd1na2vs0mg"},{"bike_id":"e577bfc5-d7d7-4ada-a086-4531e88bc82a","system_id":"levelo_inurba_marseille","lat":43.32549,"lon":5.4144,"is_reserved":false,"is_disabled":false,"rental_uris":{"android":"levelo://app?vid=e577bfc5-d7d7-4ada-a086-4531e88bc82a","ios":"levelo://app?vid=e577bfc5-d7d7-4ada-a086-4531e88bc82a"},"vehicle_type_id":"4","last_reported":1734081048,"current_range_meters":22800,"station_id":"ce4bhq12rcd13ifvqhhg","pricing_plan_id":"cebpf4jnsgd1na2vs0mg"},{"bike_id":"fec03a7a-132e-4b92-b45c-af4d4538e0d9","system_id":"levelo_inurba_marseille","lat":43.26952,"lon":5.38645,"is_reserved":false,"is_disabled":false,"rental_uris":{"android":"levelo://app?vid=fec03a7a-132e-4b92-b45c-af4d4538e0d9","ios":"levelo://app?vid=fec03a7a-132e-4b92-b45c-af4d4538e0d9"},"vehicle_type_id":"4","last_reported":1734081048,"current_range_meters":34000,"station_id":"ce4bhh92rcd13ifvqfh0","pricing_plan_id":"cebpf4jnsgd1na2vs0mg"},{"bike_id":"60f262a5-32eb-4956-9f37-28ce4a834e9f","system_id":"levelo_inurba_marseille","lat":43.29173,"lon":5.3714,"is_reserved":false,"is_disabled":false,"rental_uris":{"android":"levelo://app?vid=60f262a5-32eb-4956-9f37-28ce4a834e9f","ios":"levelo://app?vid=60f262a5-32eb-4956-9f37-28ce4a834e9f"},"vehicle_type_id":"4","last_reported":1734081048,"current_range_meters":29600,"station_id":"ce4bha92rcd13ifvqeh0","pricing_plan_id":"cebpf4jnsgd1na2vs0mg"},{"bike_id":"d0783b84-e4a1-4ee4-a14d-fee32f697e4a","system_id":"levelo_inurba_marseille","lat":43.30965,"lon":5.39105,"is_reserved":false,"is_disabled":false,"rental_uris":{"android":"levelo://app?vid=d0783b84-e4a1-4ee4-a14d-fee32f697e4a","ios":"levelo://app?vid=d0783b84-e4a1-4ee4-a14d-fee32f697e4a"},"vehicle_type_id":"4","last_reported":1734081048,"current_range_meters":27200,"station_id":"ce4bgup2rcd13ifvqco0","pricing_plan_id":"cebpf4jnsgd1na2vs0mg"},{"bike_id":"2d848d3a-9190-42ee-bf57-62d1b72c92bd","system_id":"levelo_inurba_marseille","lat":43.26197,"lon":5.37928,"is_reserved":false,"is_disabled":false,"rental_uris":{"android":"levelo://app?vid=2d848d3a-9190-42ee-bf57-62d1b72c92bd","ios":"levelo://app?vid=2d848d3a-9190-42ee-bf57-62d1b72c92bd"},"vehicle_type_id":"4","last_reported":1734081048,"current_range_meters":4400,"station_id":"ce4bhjp2rcd13ifvqg90","pricing_plan_id":"cebpf4jnsgd1na2vs0mg"},{"bike_id":"b53b3ab3-c41d-46fb-a14f-a29253fdadd2","system_id":"levelo_inurba_marseille","lat":43.26918,"lon":5.38652,"is_reserved":false,"is_disabled":false,"rental_uris":{"android":"levelo://app?vid=b53b3ab3-c41d-46fb-a14f-a29253fdadd2","ios":"levelo://app?vid=b53b3ab3-c41d-46fb-a14f-a29253fdadd2"},"vehicle_type_id":"4","last_reported":1734081048,"current_range_meters":39200,"station_id":"ce4bhh92rcd13ifvqfh0","pricing_plan_id":"cebpf4jnsgd1na2vs0mg"},{"bike_id":"18449eca-7cd4-4637-aad8-d740a9109818","system_id":"levelo_inurba_marseille","lat":43.26801,"lon":5.40267,"is_reserved":false,"is_disabled":false,"rental_uris":{"android":"levelo://app?vid=18449eca-7cd4-4637-aad8-d740a9109818","ios":"levelo://app?vid=18449eca-7cd4-4637-aad8-d740a9109818"},"vehicle_type_id":"4","last_reported":1734081048,"current_range_meters":38800,"station_id":"ce501612rcd8frsf0b60","pricing_plan_id":"cebpf4jnsgd1na2vs0mg"},{"bike_id":"93d8c9bc-d2a0-40ea-b5e8-67546ef5b4b9","system_id":"levelo_inurba_marseille","lat":43.24078,"lon":5.37754,"is_reserved":false,"is_disabled":false,"rental_uris":{"android":"levelo://app?vid=93d8c9bc-d2a0-40ea-b5e8-67546ef5b4b9","ios":"levelo://app?vid=93d8c9bc-d2a0-40ea-b5e8-67546ef5b4b9"},"vehicle_type_id":"4","last_reported":1734081048,"current_range_meters":28000,"station_id":"ce4bhnp2rcd13ifvqgvg","pricing_plan_id":"cebpf4jnsgd1na2vs0mg"},{"bike_id":"d6eb7335-d7e1-4ea9-98cb-3773ad770e3e","system_id":"levelo_inurba_marseille","lat":43.26496,"lon":5.39535,"is_reserved":false,"is_disabled":false,"rental_uris":{"android":"levelo://app?vid=d6eb7335-d7e1-4ea9-98cb-3773ad770e3e","ios":"levelo://app?vid=d6eb7335-d7e1-4ea9-98cb-3773ad770e3e"},"vehicle_type_id":"4","last_reported":1734081048,"current_range_meters":32800,"station_id":"ce4bhi12rcd13ifvqfq0","pricing_plan_id":"cebpf4jnsgd1na2vs0mg"},{"bike_id":"3d91e3c5-7cef-4a6b-b72c-1f72f9823e2d","system_id":"levelo_inurba_marseille","lat":43.29838,"lon":5.36261,"is_reserved":false,"is_disabled":false,"rental_uris":{"android":"levelo://app?vid=3d91e3c5-7cef-4a6b-b72c-1f72f9823e2d","ios":"levelo://app?vid=3d91e3c5-7cef-4a6b-b72c-1f72f9823e2d"},"vehicle_type_id":"4","last_reported":1734081048,"current_range_meters":38800,"station_id":"ce4bgpp2rcd13ifvqc3g","pricing_plan_id":"cebpf4jnsgd1na2vs0mg"},{"bike_id":"3fee6898-60f1-4466-844b-db1346feec96","system_id":"levelo_inurba_marseille","lat":43.30951,"lon":5.39031,"is_reserved":false,"is_disabled":false,"rental_uris":{"android":"levelo://app?vid=3fee6898-60f1-4466-844b-db1346feec96","ios":"levelo://app?vid=3fee6898-60f1-4466-844b-db1346feec96"},"vehicle_type_id":"4","last_reported":1734081048,"current_range_meters":22800,"station_id":"ce4bgup2rcd13ifvqco0","pricing_plan_id":"cebpf4jnsgd1na2vs0mg"},{"bike_id":"ed21cbfd-1f19-44f5-ba93-62f6ccb283c1","system_id":"levelo_inurba_marseille","lat":43.24075,"lon":5.37757,"is_reserved":false,"is_disabled":false,"rental_uris":{"android":"levelo://app?vid=ed21cbfd-1f19-44f5-ba93-62f6ccb283c1","ios":"levelo://app?vid=ed21cbfd-1f19-44f5-ba93-62f6ccb283c1"},"vehicle_type_id":"4","last_reported":1734081048,"current_range_meters":39200,"station_id":"ce4bhnp2rcd13ifvqgvg","pricing_plan_id":"cebpf4jnsgd1na2vs0mg"},{"bike_id":"e939de06-d909-4758-b8f3-8d43330311ae","system_id":"levelo_inurba_marseille","lat":43.25582,"lon":5.38245,"is_reserved":false,"is_disabled":false,"rental_uris":{"android":"levelo://app?vid=e939de06-d909-4758-b8f3-8d43330311ae","ios":"levelo://app?vid=e939de06-d909-4758-b8f3-8d43330311ae"},"vehicle_type_id":"4","last_reported":1734081048,"current_range_meters":37600,"station_id":"ce4bhih2rcd13ifvqfs0","pricing_plan_id":"cebpf4jnsgd1na2vs0mg"},{"bike_id":"88d45b3a-e7dc-444f-a889-701f623007b2","system_id":"levelo_inurba_marseille","lat":43.29367,"lon":5.37842,"is_reserved":false,"is_disabled":false,"rental_uris":{"android":"levelo://app?vid=88d45b3a-e7dc-444f-a889-701f623007b2","ios":"levelo://app?vid=88d45b3a-e7dc-444f-a889-701f623007b2"},"vehicle_type_id":"4","last_reported":1734081048,"current_range_meters":33600,"station_id":"ce4bgjh2rcd13ifvqbf0","pricing_plan_id":"cebpf4jnsgd1na2vs0mg"},{"bike_id":"efb655cb-2785-4efc-abaf-ae9549ebe3e6","system_id":"levelo_inurba_marseille","lat":43.24083,"lon":5.37746,"is_reserved":false,"is_disabled":false,"rental_uris":{"android":"levelo://app?vid=efb655cb-2785-4efc-abaf-ae9549ebe3e6","ios":"levelo://app?vid=efb655cb-2785-4efc-abaf-ae9549ebe3e6"},"vehicle_type_id":"4","last_reported":1734081048,"current_range_meters":36400,"station_id":"ce4bhnp2rcd13ifvqgvg","pricing_plan_id":"cebpf4jnsgd1na2vs0mg"},{"bike_id":"8c8bad0e-eec2-4927-9599-8cfdaf514754","system_id":"levelo_inurba_marseille","lat":43.2998,"lon":5.38486,"is_reserved":false,"is_disabled":true,"rental_uris":{"android":"levelo://app?vid=8c8bad0e-eec2-4927-9599-8cfdaf514754","ios":"levelo://app?vid=8c8bad0e-eec2-4927-9599-8cfdaf514754"},"vehicle_type_id":"4","last_reported":1734081048,"current_range_meters":19600,"station_id":"ce4bgj92rcd13ifvqbd0","pricing_plan_id":"cebpf4jnsgd1na2vs0mg"},{"bike_id":"c9e1454b-54c0-42a6-b3fa-918fdc07bf7b","system_id":"levelo_inurba_marseille","lat":43.30146,"lon":5.37421,"is_reserved":false,"is_disabled":false,"rental_uris":{"android":"levelo://app?vid=c9e1454b-54c0-42a6-b3fa-918fdc07bf7b","ios":"levelo://app?vid=c9e1454b-54c0-42a6-b3fa-918fdc07bf7b"},"vehicle_type_id":"4","last_reported":1734081048,"current_range_meters":38800,"station_id":"ce4bgs92rcd13ifvqcc0","pricing_plan_id":"cebpf4jnsgd1na2vs0mg"},{"bike_id":"cfb1effe-5f2f-4f39-9956-43a0cf6b039f","system_id":"levelo_inurba_marseille","lat":43.29909,"lon":5.37476,"is_reserved":false,"is_disabled":false,"rental_uris":{"android":"levelo://app?vid=cfb1effe-5f2f-4f39-9956-43a0cf6b039f","ios":"levelo://app?vid=cfb1effe-5f2f-4f39-9956-43a0cf6b039f"},"vehicle_type_id":"4","last_reported":1734081048,"current_range_meters":38400,"station_id":"ce4bgjh2rcd13ifvqbg0","pricing_plan_id":"cebpf4jnsgd1na2vs0mg"},{"bike_id":"7cdd39d6-8a67-4596-bb8f-bf0e8ef3dd41","system_id":"levelo_inurba_marseille","lat":43.28668,"lon":5.36346,"is_reserved":false,"is_disabled":false,"rental_uris":{"android":"levelo://app?vid=7cdd39d6-8a67-4596-bb8f-bf0e8ef3dd41","ios":"levelo://app?vid=7cdd39d6-8a67-4596-bb8f-bf0e8ef3dd41"},"vehicle_type_id":"4","last_reported":1734081048,"current_range_meters":33600,"station_id":"ce4bhah2rcd13ifvqej0","pricing_plan_id":"cebpf4jnsgd1na2vs0mg"},{"bike_id":"97b55a38-976a-4015-b3d7-3ad989b0be89","system_id":"levelo_inurba_marseille","lat":43.33008,"lon":5.39009,"is_reserved":false,"is_disabled":false,"rental_uris":{"android":"levelo://app?vid=97b55a38-976a-4015-b3d7-3ad989b0be89","ios":"levelo://app?vid=97b55a38-976a-4015-b3d7-3ad989b0be89"},"vehicle_type_id":"4","last_reported":1734081048,"current_range_meters":38800,"station_id":"ce4bhr92rcd13ifvqhrg","pricing_plan_id":"cebpf4jnsgd1na2vs0mg"},{"bike_id":"6b4cd506-06f6-4b0f-b9f1-303318c155a5","system_id":"levelo_inurba_marseille","lat":43.31341,"lon":5.36733,"is_reserved":false,"is_disabled":false,"rental_uris":{"android":"levelo://app?vid=6b4cd506-06f6-4b0f-b9f1-303318c155a5","ios":"levelo://app?vid=6b4cd506-06f6-4b0f-b9f1-303318c155a5"},"vehicle_type_id":"4","last_reported":1734081048,"current_range_meters":11600,"station_id":"ce4bgr92rcd13ifvqc6g","pricing_plan_id":"cebpf4jnsgd1na2vs0mg"},{"bike_id":"a14aba16-cfc5-4137-9e77-70b062cf9d6a","system_id":"levelo_inurba_marseille","lat":43.33771,"lon":5.37424,"is_reserved":false,"is_disabled":false,"rental_uris":{"android":"levelo://app?vid=a14aba16-cfc5-4137-9e77-70b062cf9d6a","ios":"levelo://app?vid=a14aba16-cfc5-4137-9e77-70b062cf9d6a"},"vehicle_type_id":"4","last_reported":1734081048,"current_range_meters":36800,"station_id":"","pricing_plan_id":"cebpf4jnsgd1na2vs0mg"},{"bike_id":"265a59a5-1f8b-40cd-bb56-038ad2f60a5d","system_id":"levelo_inurba_marseille","lat":43.29032,"lon":5.3996,"is_reserved":false,"is_disabled":true,"rental_uris":{"android":"levelo://app?vid=265a59a5-1f8b-40cd-bb56-038ad2f60a5d","ios":"levelo://app?vid=265a59a5-1f8b-40cd-bb56-038ad2f60a5d"},"vehicle_type_id":"4","last_reported":1734081048,"current_range_meters":38800,"station_id":"ce4bh392rcd13ifvqdm0","pricing_plan_id":"cebpf4jnsgd1na2vs0mg"},{"bike_id":"c4b5272e-5431-464d-adec-b7639ea1307b","system_id":"levelo_inurba_marseille","lat":43.25493,"lon":5.3765,"is_reserved":false,"is_disabled":false,"rental_uris":{"android":"levelo://app?vid=c4b5272e-5431-464d-adec-b7639ea1307b","ios":"levelo://app?vid=c4b5272e-5431-464d-adec-b7639ea1307b"},"vehicle_type_id":"4","last_reported":1734081048,"current_range_meters":25200,"station_id":"ce4bhh12rcd13ifvqff0","pricing_plan_id":"cebpf4jnsgd1na2vs0mg"},{"bike_id":"6bc7401a-ad66-4e4d-bfd6-a954bc5b40c0","system_id":"levelo_inurba_marseille","lat":43.337527,"lon":5.37441,"is_reserved":false,"is_disabled":false,"rental_uris":{"android":"levelo://app?vid=6bc7401a-ad66-4e4d-bfd6-a954bc5b40c0","ios":"levelo://app?vid=6bc7401a-ad66-4e4d-bfd6-a954bc5b40c0"},"vehicle_type_id":"4","last_reported":1734081048,"current_range_meters":30800,"station_id":"","pricing_plan_id":"cebpf4jnsgd1na2vs0mg"},{"bike_id":"e89553f0-3470-45f5-935f-7d00cfd09bbb","system_id":"levelo_inurba_marseille","lat":43.28846,"lon":5.35853,"is_reserved":false,"is_disabled":false,"rental_uris":{"android":"levelo://app?vid=e89553f0-3470-45f5-935f-7d00cfd09bbb","ios":"levelo://app?vid=e89553f0-3470-45f5-935f-7d00cfd09bbb"},"vehicle_type_id":"4","last_reported":1734081048,"current_range_meters":30800,"station_id":"ce4bhb12rcd13ifvqem0","pricing_plan_id":"cebpf4jnsgd1na2vs0mg"},{"bike_id":"f0a4f587-2333-4a7a-8819-09121e495e1b","system_id":"levelo_inurba_marseille","lat":43.22935,"lon":5.3538,"is_reserved":false,"is_disabled":false,"rental_uris":{"android":"levelo://app?vid=f0a4f587-2333-4a7a-8819-09121e495e1b","ios":"levelo://app?vid=f0a4f587-2333-4a7a-8819-09121e495e1b"},"vehicle_type_id":"4","last_reported":1734081048,"current_range_meters":5600,"station_id":"cpo3532slgdg3j2ikp40","pricing_plan_id":"cebpf4jnsgd1na2vs0mg"},{"bike_id":"d03ed5ce-e520-4069-9e0e-9e1df4579056","system_id":"levelo_inurba_marseille","lat":43.29837,"lon":5.36265,"is_reserved":false,"is_disabled":false,"rental_uris":{"android":"levelo://app?vid=d03ed5ce-e520-4069-9e0e-9e1df4579056","ios":"levelo://app?vid=d03ed5ce-e520-4069-9e0e-9e1df4579056"},"vehicle_type_id":"4","last_reported":1734081048,"current_range_meters":38000,"station_id":"ce4bgpp2rcd13ifvqc3g","pricing_plan_id":"cebpf4jnsgd1na2vs0mg"},{"bike_id":"1b220d30-3141-46d2-9384-1a5e1a00a2c3","system_id":"levelo_inurba_marseille","lat":43.28148,"lon":5.42642,"is_reserved":false,"is_disabled":false,"rental_uris":{"android":"levelo://app?vid=1b220d30-3141-46d2-9384-1a5e1a00a2c3","ios":"levelo://app?vid=1b220d30-3141-46d2-9384-1a5e1a00a2c3"},"vehicle_type_id":"4","last_reported":1734081048,"current_range_meters":26800,"station_id":"ce4bhnh2rcd13ifvqgug","pricing_plan_id":"cebpf4jnsgd1na2vs0mg"},{"bike_id":"5f7350aa-6be0-4012-bc16-bb17a1538b4c","system_id":"levelo_inurba_marseille","lat":43.30953,"lon":5.39046,"is_reserved":false,"is_disabled":true,"rental_uris":{"android":"levelo://app?vid=5f7350aa-6be0-4012-bc16-bb17a1538b4c","ios":"levelo://app?vid=5f7350aa-6be0-4012-bc16-bb17a1538b4c"},"vehicle_type_id":"4","last_reported":1734081048,"current_range_meters":38800,"station_id":"ce4bgup2rcd13ifvqco0","pricing_plan_id":"cebpf4jnsgd1na2vs0mg"},{"bike_id":"e2b090ff-7c7f-4d4a-8f5b-c317e750043e","system_id":"levelo_inurba_marseille","lat":43.27072,"lon":5.42277,"is_reserved":false,"is_disabled":true,"rental_uris":{"android":"levelo://app?vid=e2b090ff-7c7f-4d4a-8f5b-c317e750043e","ios":"levelo://app?vid=e2b090ff-7c7f-4d4a-8f5b-c317e750043e"},"vehicle_type_id":"4","last_reported":1734081048,"current_range_meters":0,"station_id":"ce4bhk92rcd13ifvqgb0","pricing_plan_id":"cebpf4jnsgd1na2vs0mg"},{"bike_id":"1be4dfd7-b95c-4558-b62a-debc1f52eb94","system_id":"levelo_inurba_marseille","lat":43.27068,"lon":5.42268,"is_reserved":false,"is_disabled":false,"rental_uris":{"android":"levelo://app?vid=1be4dfd7-b95c-4558-b62a-debc1f52eb94","ios":"levelo://app?vid=1be4dfd7-b95c-4558-b62a-debc1f52eb94"},"vehicle_type_id":"4","last_reported":1734081048,"current_range_meters":38800,"station_id":"ce4bhk92rcd13ifvqgb0","pricing_plan_id":"cebpf4jnsgd1na2vs0mg"},{"bike_id":"eb1496f4-67ed-47fd-8660-60023378367f","system_id":"levelo_inurba_marseille","lat":43.294212,"lon":5.374322,"is_reserved":false,"is_disabled":true,"rental_uris":{"android":"levelo://app?vid=eb1496f4-67ed-47fd-8660-60023378367f","ios":"levelo://app?vid=eb1496f4-67ed-47fd-8660-60023378367f"},"vehicle_type_id":"4","last_reported":1734081048,"current_range_meters":0,"station_id":"","pricing_plan_id":"cebpf4jnsgd1na2vs0mg"},{"bike_id":"d8c38b2d-b44a-4b92-9de2-3398fbee6529","system_id":"levelo_inurba_marseille","lat":43.30952,"lon":5.39049,"is_reserved":false,"is_disabled":false,"rental_uris":{"android":"levelo://app?vid=d8c38b2d-b44a-4b92-9de2-3398fbee6529","ios":"levelo://app?vid=d8c38b2d-b44a-4b92-9de2-3398fbee6529"},"vehicle_type_id":"4","last_reported":1734081048,"current_range_meters":39200,"station_id":"ce4bgup2rcd13ifvqco0","pricing_plan_id":"cebpf4jnsgd1na2vs0mg"},{"bike_id":"0516ba00-eba1-4706-b9ce-2e89b466a72e","system_id":"levelo_inurba_marseille","lat":43.30943,"lon":5.39052,"is_reserved":false,"is_disabled":false,"rental_uris":{"android":"levelo://app?vid=0516ba00-eba1-4706-b9ce-2e89b466a72e","ios":"levelo://app?vid=0516ba00-eba1-4706-b9ce-2e89b466a72e"},"vehicle_type_id":"4","last_reported":1734081048,"current_range_meters":36400,"station_id":"ce4bgup2rcd13ifvqco0","pricing_plan_id":"cebpf4jnsgd1na2vs0mg"},{"bike_id":"0a1612fc-d027-4748-910f-382c7b5de3be","system_id":"levelo_inurba_marseille","lat":43.29966,"lon":5.41316,"is_reserved":false,"is_disabled":false,"rental_uris":{"android":"levelo://app?vid=0a1612fc-d027-4748-910f-382c7b5de3be","ios":"levelo://app?vid=0a1612fc-d027-4748-910f-382c7b5de3be"},"vehicle_type_id":"4","last_reported":1734081048,"current_range_meters":21600,"station_id":"ce4bhp12rcd13ifvqh9g","pricing_plan_id":"cebpf4jnsgd1na2vs0mg"},{"bike_id":"a2e3bf37-f1e5-4b35-adeb-0da3e0fe69d3","system_id":"levelo_inurba_marseille","lat":43.28635,"lon":5.38614,"is_reserved":false,"is_disabled":true,"rental_uris":{"android":"levelo://app?vid=a2e3bf37-f1e5-4b35-adeb-0da3e0fe69d3","ios":"levelo://app?vid=a2e3bf37-f1e5-4b35-adeb-0da3e0fe69d3"},"vehicle_type_id":"4","last_reported":1734081048,"current_range_meters":0,"station_id":"","pricing_plan_id":"cebpf4jnsgd1na2vs0mg"},{"bike_id":"a29ec15a-0267-4de8-b687-0d568e0a6a18","system_id":"levelo_inurba_marseille","lat":43.3098,"lon":5.37967,"is_reserved":false,"is_disabled":true,"rental_uris":{"android":"levelo://app?vid=a29ec15a-0267-4de8-b687-0d568e0a6a18","ios":"levelo://app?vid=a29ec15a-0267-4de8-b687-0d568e0a6a18"},"vehicle_type_id":"4","last_reported":1734081048,"current_range_meters":0,"station_id":"","pricing_plan_id":"cebpf4jnsgd1na2vs0mg"},{"bike_id":"4e1a89e0-73cd-4fdb-823a-d951d9f182c3","system_id":"levelo_inurba_marseille","lat":43.25001,"lon":5.38924,"is_reserved":false,"is_disabled":false,"rental_uris":{"android":"levelo://app?vid=4e1a89e0-73cd-4fdb-823a-d951d9f182c3","ios":"levelo://app?vid=4e1a89e0-73cd-4fdb-823a-d951d9f182c3"},"vehicle_type_id":"4","last_reported":1734081048,"current_range_meters":16400,"station_id":"ce4bhgp2rcd13ifvqfd0","pricing_plan_id":"cebpf4jnsgd1na2vs0mg"},{"bike_id":"1f01128d-fc05-4e40-8477-0fd2da76d6ff","system_id":"levelo_inurba_marseille","lat":43.27393,"lon":5.42386,"is_reserved":false,"is_disabled":false,"rental_uris":{"android":"levelo://app?vid=1f01128d-fc05-4e40-8477-0fd2da76d6ff","ios":"levelo://app?vid=1f01128d-fc05-4e40-8477-0fd2da76d6ff"},"vehicle_type_id":"4","last_reported":1734081048,"current_range_meters":36400,"station_id":"","pricing_plan_id":"cebpf4jnsgd1na2vs0mg"},{"bike_id":"4505fb73-6c16-4c2f-8ef6-5815f06d183e","system_id":"levelo_inurba_marseille","lat":43.31357,"lon":5.36707,"is_reserved":false,"is_disabled":false,"rental_uris":{"android":"levelo://app?vid=4505fb73-6c16-4c2f-8ef6-5815f06d183e","ios":"levelo://app?vid=4505fb73-6c16-4c2f-8ef6-5815f06d183e"},"vehicle_type_id":"4","last_reported":1734081048,"current_range_meters":39200,"station_id":"ce4bgr92rcd13ifvqc6g","pricing_plan_id":"cebpf4jnsgd1na2vs0mg"},{"bike_id":"97b1cd87-8606-4c2a-9862-6a741e594f6f","system_id":"levelo_inurba_marseille","lat":43.29629,"lon":5.37174,"is_reserved":false,"is_disabled":false,"rental_uris":{"android":"levelo://app?vid=97b1cd87-8606-4c2a-9862-6a741e594f6f","ios":"levelo://app?vid=97b1cd87-8606-4c2a-9862-6a741e594f6f"},"vehicle_type_id":"4","last_reported":1734081048,"current_range_meters":38800,"station_id":"ce4bgnh2rcd13ifvqc0g","pricing_plan_id":"cebpf4jnsgd1na2vs0mg"},{"bike_id":"097a41bf-6635-41a6-b7a7-1173cae29ada","system_id":"levelo_inurba_marseille","lat":43.22932,"lon":5.35375,"is_reserved":false,"is_disabled":false,"rental_uris":{"android":"levelo://app?vid=097a41bf-6635-41a6-b7a7-1173cae29ada","ios":"levelo://app?vid=097a41bf-6635-41a6-b7a7-1173cae29ada"},"vehicle_type_id":"4","last_reported":1734081048,"current_range_meters":38800,"station_id":"cpo3532slgdg3j2ikp40","pricing_plan_id":"cebpf4jnsgd1na2vs0mg"},{"bike_id":"cdf16078-1095-4dd1-bef1-046651739475","system_id":"levelo_inurba_marseille","lat":43.29538,"lon":5.37517,"is_reserved":false,"is_disabled":false,"rental_uris":{"android":"levelo://app?vid=cdf16078-1095-4dd1-bef1-046651739475","ios":"levelo://app?vid=cdf16078-1095-4dd1-bef1-046651739475"},"vehicle_type_id":"4","last_reported":1734081048,"current_range_meters":19200,"station_id":"ce4bgkp2rcd13ifvqbmg","pricing_plan_id":"cebpf4jnsgd1na2vs0mg"},{"bike_id":"4d56c413-db90-42be-a375-00547f171e51","system_id":"levelo_inurba_marseille","lat":43.28467,"lon":5.38417,"is_reserved":false,"is_disabled":false,"rental_uris":{"android":"levelo://app?vid=4d56c413-db90-42be-a375-00547f171e51","ios":"levelo://app?vid=4d56c413-db90-42be-a375-00547f171e51"},"vehicle_type_id":"4","last_reported":1734081048,"current_range_meters":38800,"station_id":"ce4bh512rcd13ifvqe3g","pricing_plan_id":"cebpf4jnsgd1na2vs0mg"},{"bike_id":"6edc535c-8cd1-4283-8522-b250c6e76830","system_id":"levelo_inurba_marseille","lat":43.27968,"lon":5.38753,"is_reserved":false,"is_disabled":false,"rental_uris":{"android":"levelo://app?vid=6edc535c-8cd1-4283-8522-b250c6e76830","ios":"levelo://app?vid=6edc535c-8cd1-4283-8522-b250c6e76830"},"vehicle_type_id":"4","last_reported":1734081048,"current_range_meters":14800,"station_id":"ce4bhg12rcd13ifvqf80","pricing_plan_id":"cebpf4jnsgd1na2vs0mg"},{"bike_id":"e74372ac-2a6c-47ae-afc7-e1b4e1c3d13f","system_id":"levelo_inurba_marseille","lat":43.23052,"lon":5.35487,"is_reserved":false,"is_disabled":false,"rental_uris":{"android":"levelo://app?vid=e74372ac-2a6c-47ae-afc7-e1b4e1c3d13f","ios":"levelo://app?vid=e74372ac-2a6c-47ae-afc7-e1b4e1c3d13f"},"vehicle_type_id":"4","last_reported":1734081048,"current_range_meters":9600,"station_id":"cpo3342slgdg3j2ifvpg","pricing_plan_id":"cebpf4jnsgd1na2vs0mg"},{"bike_id":"d937db70-f7a3-4428-b2b8-402916faf695","system_id":"levelo_inurba_marseille","lat":43.33612,"lon":5.41035,"is_reserved":false,"is_disabled":false,"rental_uris":{"android":"levelo://app?vid=d937db70-f7a3-4428-b2b8-402916faf695","ios":"levelo://app?vid=d937db70-f7a3-4428-b2b8-402916faf695"},"vehicle_type_id":"4","last_reported":1734081048,"current_range_meters":25200,"station_id":"ce4bhqh2rcd13ifvqhmg","pricing_plan_id":"cebpf4jnsgd1na2vs0mg"},{"bike_id":"e193ef0e-e328-415a-a8ad-7b8f709bf396","system_id":"levelo_inurba_marseille","lat":43.28491,"lon":5.37904,"is_reserved":false,"is_disabled":true,"rental_uris":{"android":"levelo://app?vid=e193ef0e-e328-415a-a8ad-7b8f709bf396","ios":"levelo://app?vid=e193ef0e-e328-415a-a8ad-7b8f709bf396"},"vehicle_type_id":"4","last_reported":1734081048,"current_range_meters":25200,"station_id":"","pricing_plan_id":"cebpf4jnsgd1na2vs0mg"},{"bike_id":"395c4989-d660-4d1f-9b86-dba48f2d4031","system_id":"levelo_inurba_marseille","lat":43.31328,"lon":5.39701,"is_reserved":false,"is_disabled":false,"rental_uris":{"android":"levelo://app?vid=395c4989-d660-4d1f-9b86-dba48f2d4031","ios":"levelo://app?vid=395c4989-d660-4d1f-9b86-dba48f2d4031"},"vehicle_type_id":"4","last_reported":1734081048,"current_range_meters":36400,"station_id":"ce4bgvp2rcd13ifvqcu0","pricing_plan_id":"cebpf4jnsgd1na2vs0mg"},{"bike_id":"1f3bb220-68bc-4ae2-ad43-3a927d11010e","system_id":"levelo_inurba_marseille","lat":43.27055,"lon":5.40265,"is_reserved":false,"is_disabled":false,"rental_uris":{"android":"levelo://app?vid=1f3bb220-68bc-4ae2-ad43-3a927d11010e","ios":"levelo://app?vid=1f3bb220-68bc-4ae2-ad43-3a927d11010e"},"vehicle_type_id":"4","last_reported":1734081048,"current_range_meters":6800,"station_id":"ce4bhk92rcd13ifvqgc0","pricing_plan_id":"cebpf4jnsgd1na2vs0mg"},{"bike_id":"8baa433b-728a-4d5f-a801-0811a829010a","system_id":"levelo_inurba_marseille","lat":43.30121,"lon":5.37425,"is_reserved":false,"is_disabled":false,"rental_uris":{"android":"levelo://app?vid=8baa433b-728a-4d5f-a801-0811a829010a","ios":"levelo://app?vid=8baa433b-728a-4d5f-a801-0811a829010a"},"vehicle_type_id":"4","last_reported":1734081048,"current_range_meters":37600,"station_id":"ce4bgs92rcd13ifvqcc0","pricing_plan_id":"cebpf4jnsgd1na2vs0mg"},{"bike_id":"48e2ac3f-e925-4b33-9ce3-13df3fa9afe4","system_id":"levelo_inurba_marseille","lat":43.23149,"lon":5.43721,"is_reserved":false,"is_disabled":false,"rental_uris":{"android":"levelo://app?vid=48e2ac3f-e925-4b33-9ce3-13df3fa9afe4","ios":"levelo://app?vid=48e2ac3f-e925-4b33-9ce3-13df3fa9afe4"},"vehicle_type_id":"4","last_reported":1734081048,"current_range_meters":38400,"station_id":"ce4bhmp2rcd13ifvqgog","pricing_plan_id":"cebpf4jnsgd1na2vs0mg"},{"bike_id":"00adb086-f5ac-4024-847a-00b6643eef73","system_id":"levelo_inurba_marseille","lat":43.2919,"lon":5.39318,"is_reserved":false,"is_disabled":false,"rental_uris":{"android":"levelo://app?vid=00adb086-f5ac-4024-847a-00b6643eef73","ios":"levelo://app?vid=00adb086-f5ac-4024-847a-00b6643eef73"},"vehicle_type_id":"4","last_reported":1734081048,"current_range_meters":34000,"station_id":"ce4bh192rcd13ifvqdd0","pricing_plan_id":"cebpf4jnsgd1na2vs0mg"},{"bike_id":"950ecf50-c462-457f-910e-b809f85f28f1","system_id":"levelo_inurba_marseille","lat":43.30951,"lon":5.3903,"is_reserved":false,"is_disabled":false,"rental_uris":{"android":"levelo://app?vid=950ecf50-c462-457f-910e-b809f85f28f1","ios":"levelo://app?vid=950ecf50-c462-457f-910e-b809f85f28f1"},"vehicle_type_id":"4","last_reported":1734081048,"current_range_meters":16400,"station_id":"ce4bgup2rcd13ifvqco0","pricing_plan_id":"cebpf4jnsgd1na2vs0mg"},{"bike_id":"8cf6d7ef-fe4e-4eed-99c0-5d0a155c6b9c","system_id":"levelo_inurba_marseille","lat":43.29041,"lon":5.37559,"is_reserved":false,"is_disabled":false,"rental_uris":{"android":"levelo://app?vid=8cf6d7ef-fe4e-4eed-99c0-5d0a155c6b9c","ios":"levelo://app?vid=8cf6d7ef-fe4e-4eed-99c0-5d0a155c6b9c"},"vehicle_type_id":"4","last_reported":1734081048,"current_range_meters":38800,"station_id":"ce4bh692rcd13ifvqe90","pricing_plan_id":"cebpf4jnsgd1na2vs0mg"},{"bike_id":"f43b60c0-f88c-4e14-af84-90e9e26b07b0","system_id":"levelo_inurba_marseille","lat":43.30907,"lon":5.36883,"is_reserved":false,"is_disabled":false,"rental_uris":{"android":"levelo://app?vid=f43b60c0-f88c-4e14-af84-90e9e26b07b0","ios":"levelo://app?vid=f43b60c0-f88c-4e14-af84-90e9e26b07b0"},"vehicle_type_id":"4","last_reported":1734081048,"current_range_meters":38400,"station_id":"ce4bgn92rcd13ifvqbvg","pricing_plan_id":"cebpf4jnsgd1na2vs0mg"},{"bike_id":"183df209-7bdc-42d2-a896-0d81460cdaf8","system_id":"levelo_inurba_marseille","lat":43.28483,"lon":5.38416,"is_reserved":false,"is_disabled":false,"rental_uris":{"android":"levelo://app?vid=183df209-7bdc-42d2-a896-0d81460cdaf8","ios":"levelo://app?vid=183df209-7bdc-42d2-a896-0d81460cdaf8"},"vehicle_type_id":"4","last_reported":1734081048,"current_range_meters":10800,"station_id":"ce4bh512rcd13ifvqe3g","pricing_plan_id":"cebpf4jnsgd1na2vs0mg"},{"bike_id":"025f1225-8950-47f1-b769-ee793cba0979","system_id":"levelo_inurba_marseille","lat":43.2407,"lon":5.3775,"is_reserved":false,"is_disabled":false,"rental_uris":{"android":"levelo://app?vid=025f1225-8950-47f1-b769-ee793cba0979","ios":"levelo://app?vid=025f1225-8950-47f1-b769-ee793cba0979"},"vehicle_type_id":"4","last_reported":1734081048,"current_range_meters":35600,"station_id":"ce4bhnp2rcd13ifvqgvg","pricing_plan_id":"cebpf4jnsgd1na2vs0mg"},{"bike_id":"6af5705e-0b63-4941-bd75-095717cfa6f1","system_id":"levelo_inurba_marseille","lat":43.2968,"lon":5.37299,"is_reserved":false,"is_disabled":false,"rental_uris":{"android":"levelo://app?vid=6af5705e-0b63-4941-bd75-095717cfa6f1","ios":"levelo://app?vid=6af5705e-0b63-4941-bd75-095717cfa6f1"},"vehicle_type_id":"4","last_reported":1734081048,"current_range_meters":38000,"station_id":"ce4bgk12rcd13ifvqbj0","pricing_plan_id":"cebpf4jnsgd1na2vs0mg"},{"bike_id":"08dda458-54ac-4769-8b92-e7c2ea3b2bee","system_id":"levelo_inurba_marseille","lat":43.305995,"lon":5.39359,"is_reserved":false,"is_disabled":true,"rental_uris":{"android":"levelo://app?vid=08dda458-54ac-4769-8b92-e7c2ea3b2bee","ios":"levelo://app?vid=08dda458-54ac-4769-8b92-e7c2ea3b2bee"},"vehicle_type_id":"4","last_reported":1734081048,"current_range_meters":12400,"station_id":"ce4bh0p2rcd13ifvqd80","pricing_plan_id":"cebpf4jnsgd1na2vs0mg"},{"bike_id":"4816fffd-4eb5-48db-97dc-f79cf46ccdbd","system_id":"levelo_inurba_marseille","lat":43.26674,"lon":5.38253,"is_reserved":false,"is_disabled":false,"rental_uris":{"android":"levelo://app?vid=4816fffd-4eb5-48db-97dc-f79cf46ccdbd","ios":"levelo://app?vid=4816fffd-4eb5-48db-97dc-f79cf46ccdbd"},"vehicle_type_id":"4","last_reported":1734081048,"current_range_meters":38800,"station_id":"ce4bhg92rcd13ifvqf90","pricing_plan_id":"cebpf4jnsgd1na2vs0mg"},{"bike_id":"0b9b1eb6-bf49-4e9d-995e-245f768cff0d","system_id":"levelo_inurba_marseille","lat":43.28474,"lon":5.38412,"is_reserved":false,"is_disabled":false,"rental_uris":{"android":"levelo://app?vid=0b9b1eb6-bf49-4e9d-995e-245f768cff0d","ios":"levelo://app?vid=0b9b1eb6-bf49-4e9d-995e-245f768cff0d"},"vehicle_type_id":"4","last_reported":1734081048,"current_range_meters":38800,"station_id":"ce4bh512rcd13ifvqe3g","pricing_plan_id":"cebpf4jnsgd1na2vs0mg"},{"bike_id":"002069da-d74c-4e41-ae54-1da711c0eed6","system_id":"levelo_inurba_marseille","lat":43.285962,"lon":5.412981,"is_reserved":false,"is_disabled":true,"rental_uris":{"android":"levelo://app?vid=002069da-d74c-4e41-ae54-1da711c0eed6","ios":"levelo://app?vid=002069da-d74c-4e41-ae54-1da711c0eed6"},"vehicle_type_id":"4","last_reported":1734081048,"current_range_meters":0,"station_id":"","pricing_plan_id":"cebpf4jnsgd1na2vs0mg"},{"bike_id":"63481ad9-2e1c-4c79-86ba-4261df66f71a","system_id":"levelo_inurba_marseille","lat":43.25494,"lon":5.37652,"is_reserved":false,"is_disabled":false,"rental_uris":{"android":"levelo://app?vid=63481ad9-2e1c-4c79-86ba-4261df66f71a","ios":"levelo://app?vid=63481ad9-2e1c-4c79-86ba-4261df66f71a"},"vehicle_type_id":"4","last_reported":1734081048,"current_range_meters":39200,"station_id":"ce4bhh12rcd13ifvqff0","pricing_plan_id":"cebpf4jnsgd1na2vs0mg"},{"bike_id":"003fcc20-75cd-4e78-9b9a-bd60ee138a76","system_id":"levelo_inurba_marseille","lat":43.25593,"lon":5.38268,"is_reserved":false,"is_disabled":false,"rental_uris":{"android":"levelo://app?vid=003fcc20-75cd-4e78-9b9a-bd60ee138a76","ios":"levelo://app?vid=003fcc20-75cd-4e78-9b9a-bd60ee138a76"},"vehicle_type_id":"4","last_reported":1734081048,"current_range_meters":38000,"station_id":"ce4bhih2rcd13ifvqfs0","pricing_plan_id":"cebpf4jnsgd1na2vs0mg"},{"bike_id":"e2f124c7-d990-40c0-b50f-b56a2eaf596e","system_id":"levelo_inurba_marseille","lat":43.23961,"lon":5.36632,"is_reserved":false,"is_disabled":false,"rental_uris":{"android":"levelo://app?vid=e2f124c7-d990-40c0-b50f-b56a2eaf596e","ios":"levelo://app?vid=e2f124c7-d990-40c0-b50f-b56a2eaf596e"},"vehicle_type_id":"4","last_reported":1734081048,"current_range_meters":20000,"station_id":"ce4bhi12rcd13ifvqfp0","pricing_plan_id":"cebpf4jnsgd1na2vs0mg"},{"bike_id":"0dc53ed0-703c-41c7-a7ba-e5fe121ea6cc","system_id":"levelo_inurba_marseille","lat":43.27844,"lon":5.39199,"is_reserved":false,"is_disabled":false,"rental_uris":{"android":"levelo://app?vid=0dc53ed0-703c-41c7-a7ba-e5fe121ea6cc","ios":"levelo://app?vid=0dc53ed0-703c-41c7-a7ba-e5fe121ea6cc"},"vehicle_type_id":"4","last_reported":1734081048,"current_range_meters":33600,"station_id":"ce4bhjp2rcd13ifvqga0","pricing_plan_id":"cebpf4jnsgd1na2vs0mg"},{"bike_id":"a1b3e7ef-122c-4c3b-8be9-c3cc1fd01590","system_id":"levelo_inurba_marseille","lat":43.24542,"lon":5.39513,"is_reserved":false,"is_disabled":false,"rental_uris":{"android":"levelo://app?vid=a1b3e7ef-122c-4c3b-8be9-c3cc1fd01590","ios":"levelo://app?vid=a1b3e7ef-122c-4c3b-8be9-c3cc1fd01590"},"vehicle_type_id":"4","last_reported":1734081048,"current_range_meters":5600,"station_id":"ce4bhlp2rcd13ifvqgjg","pricing_plan_id":"cebpf4jnsgd1na2vs0mg"},{"bike_id":"1e09aea1-6592-4606-838e-01c5295332d1","system_id":"levelo_inurba_marseille","lat":43.32663,"lon":5.40982,"is_reserved":false,"is_disabled":true,"rental_uris":{"android":"levelo://app?vid=1e09aea1-6592-4606-838e-01c5295332d1","ios":"levelo://app?vid=1e09aea1-6592-4606-838e-01c5295332d1"},"vehicle_type_id":"4","last_reported":1734081048,"current_range_meters":33600,"station_id":"ce4bhpp2rcd13ifvqhgg","pricing_plan_id":"cebpf4jnsgd1na2vs0mg"},{"bike_id":"117995f4-b8d9-45ec-80c9-df0eb7dadab5","system_id":"levelo_inurba_marseille","lat":43.30141,"lon":5.37411,"is_reserved":false,"is_disabled":false,"rental_uris":{"android":"levelo://app?vid=117995f4-b8d9-45ec-80c9-df0eb7dadab5","ios":"levelo://app?vid=117995f4-b8d9-45ec-80c9-df0eb7dadab5"},"vehicle_type_id":"4","last_reported":1734081048,"current_range_meters":36000,"station_id":"ce4bgs92rcd13ifvqcc0","pricing_plan_id":"cebpf4jnsgd1na2vs0mg"},{"bike_id":"d8f67190-4c7d-4cc0-9da5-c2da183fa853","system_id":"levelo_inurba_marseille","lat":43.24061,"lon":5.37742,"is_reserved":false,"is_disabled":false,"rental_uris":{"android":"levelo://app?vid=d8f67190-4c7d-4cc0-9da5-c2da183fa853","ios":"levelo://app?vid=d8f67190-4c7d-4cc0-9da5-c2da183fa853"},"vehicle_type_id":"4","last_reported":1734081048,"current_range_meters":38800,"station_id":"ce4bhnp2rcd13ifvqgvg","pricing_plan_id":"cebpf4jnsgd1na2vs0mg"},{"bike_id":"dfd6a7b1-1bfd-45d4-b3ac-ca6eb00299de","system_id":"levelo_inurba_marseille","lat":43.24086,"lon":5.37748,"is_reserved":false,"is_disabled":false,"rental_uris":{"android":"levelo://app?vid=dfd6a7b1-1bfd-45d4-b3ac-ca6eb00299de","ios":"levelo://app?vid=dfd6a7b1-1bfd-45d4-b3ac-ca6eb00299de"},"vehicle_type_id":"4","last_reported":1734081048,"current_range_meters":38800,"station_id":"ce4bhnp2rcd13ifvqgvg","pricing_plan_id":"cebpf4jnsgd1na2vs0mg"},{"bike_id":"f8c5f35a-4d44-44ff-a274-7427f9977a03","system_id":"levelo_inurba_marseille","lat":43.29693,"lon":5.37702,"is_reserved":false,"is_disabled":false,"rental_uris":{"android":"levelo://app?vid=f8c5f35a-4d44-44ff-a274-7427f9977a03","ios":"levelo://app?vid=f8c5f35a-4d44-44ff-a274-7427f9977a03"},"vehicle_type_id":"4","last_reported":1734081048,"current_range_meters":29600,"station_id":"ce4bgkh2rcd13ifvqbl0","pricing_plan_id":"cebpf4jnsgd1na2vs0mg"},{"bike_id":"f7235e1b-bd49-4bfc-85da-79dbffe2ae1b","system_id":"levelo_inurba_marseille","lat":43.25575,"lon":5.38234,"is_reserved":false,"is_disabled":false,"rental_uris":{"android":"levelo://app?vid=f7235e1b-bd49-4bfc-85da-79dbffe2ae1b","ios":"levelo://app?vid=f7235e1b-bd49-4bfc-85da-79dbffe2ae1b"},"vehicle_type_id":"4","last_reported":1734081048,"current_range_meters":28400,"station_id":"ce4bhih2rcd13ifvqfs0","pricing_plan_id":"cebpf4jnsgd1na2vs0mg"},{"bike_id":"1a6191e2-ac99-485d-8e32-fe2f8071e4a9","system_id":"levelo_inurba_marseille","lat":43.29413,"lon":5.38603,"is_reserved":false,"is_disabled":true,"rental_uris":{"android":"levelo://app?vid=1a6191e2-ac99-485d-8e32-fe2f8071e4a9","ios":"levelo://app?vid=1a6191e2-ac99-485d-8e32-fe2f8071e4a9"},"vehicle_type_id":"4","last_reported":1734081048,"current_range_meters":0,"station_id":"ce4bh2h2rcd13ifvqdh0","pricing_plan_id":"cebpf4jnsgd1na2vs0mg"},{"bike_id":"ebdbc8d5-b290-4e69-aa5c-3c2a17f728a0","system_id":"levelo_inurba_marseille","lat":43.30106,"lon":5.3743,"is_reserved":false,"is_disabled":false,"rental_uris":{"android":"levelo://app?vid=ebdbc8d5-b290-4e69-aa5c-3c2a17f728a0","ios":"levelo://app?vid=ebdbc8d5-b290-4e69-aa5c-3c2a17f728a0"},"vehicle_type_id":"4","last_reported":1734081048,"current_range_meters":38800,"station_id":"ce4bgs92rcd13ifvqcc0","pricing_plan_id":"cebpf4jnsgd1na2vs0mg"},{"bike_id":"4793a77e-bece-4a69-b846-b8ef7b1dd4df","system_id":"levelo_inurba_marseille","lat":43.26686,"lon":5.38271,"is_reserved":false,"is_disabled":false,"rental_uris":{"android":"levelo://app?vid=4793a77e-bece-4a69-b846-b8ef7b1dd4df","ios":"levelo://app?vid=4793a77e-bece-4a69-b846-b8ef7b1dd4df"},"vehicle_type_id":"4","last_reported":1734081048,"current_range_meters":28800,"station_id":"ce4bhg92rcd13ifvqf90","pricing_plan_id":"cebpf4jnsgd1na2vs0mg"},{"bike_id":"bced2216-fe81-4039-bef5-7e9843b329f3","system_id":"levelo_inurba_marseille","lat":43.28146,"lon":5.42647,"is_reserved":false,"is_disabled":false,"rental_uris":{"android":"levelo://app?vid=bced2216-fe81-4039-bef5-7e9843b329f3","ios":"levelo://app?vid=bced2216-fe81-4039-bef5-7e9843b329f3"},"vehicle_type_id":"4","last_reported":1734081048,"current_range_meters":38000,"station_id":"ce4bhnh2rcd13ifvqgug","pricing_plan_id":"cebpf4jnsgd1na2vs0mg"},{"bike_id":"8f3ef525-18ab-484b-bd73-955fdffdddfb","system_id":"levelo_inurba_marseille","lat":43.27565,"lon":5.38408,"is_reserved":false,"is_disabled":false,"rental_uris":{"android":"levelo://app?vid=8f3ef525-18ab-484b-bd73-955fdffdddfb","ios":"levelo://app?vid=8f3ef525-18ab-484b-bd73-955fdffdddfb"},"vehicle_type_id":"4","last_reported":1734081048,"current_range_meters":33200,"station_id":"ce4bhh92rcd13ifvqfi0","pricing_plan_id":"cebpf4jnsgd1na2vs0mg"},{"bike_id":"9332f19c-96e3-47ac-8807-c5c2384614c0","system_id":"levelo_inurba_marseille","lat":43.230563,"lon":5.355003,"is_reserved":false,"is_disabled":false,"rental_uris":{"android":"levelo://app?vid=9332f19c-96e3-47ac-8807-c5c2384614c0","ios":"levelo://app?vid=9332f19c-96e3-47ac-8807-c5c2384614c0"},"vehicle_type_id":"4","last_reported":1734081048,"current_range_meters":8000,"station_id":"cpo3342slgdg3j2ifvpg","pricing_plan_id":"cebpf4jnsgd1na2vs0mg"},{"bike_id":"507a9668-9123-4b65-b9a1-3df80fdee677","system_id":"levelo_inurba_marseille","lat":43.30599,"lon":5.3935,"is_reserved":false,"is_disabled":true,"rental_uris":{"android":"levelo://app?vid=507a9668-9123-4b65-b9a1-3df80fdee677","ios":"levelo://app?vid=507a9668-9123-4b65-b9a1-3df80fdee677"},"vehicle_type_id":"4","last_reported":1734081048,"current_range_meters":32000,"station_id":"ce4bh0p2rcd13ifvqd80","pricing_plan_id":"cebpf4jnsgd1na2vs0mg"},{"bike_id":"1e5b3424-92e2-4d6e-a8c1-3ffc43434050","system_id":"levelo_inurba_marseille","lat":43.28166,"lon":5.42655,"is_reserved":false,"is_disabled":false,"rental_uris":{"android":"levelo://app?vid=1e5b3424-92e2-4d6e-a8c1-3ffc43434050","ios":"levelo://app?vid=1e5b3424-92e2-4d6e-a8c1-3ffc43434050"},"vehicle_type_id":"4","last_reported":1734081048,"current_range_meters":21600,"station_id":"ce4bhnh2rcd13ifvqgug","pricing_plan_id":"cebpf4jnsgd1na2vs0mg"},{"bike_id":"a8942e43-f3d6-46fd-8576-2cc6b2787f3e","system_id":"levelo_inurba_marseille","lat":43.33018,"lon":5.39052,"is_reserved":false,"is_disabled":false,"rental_uris":{"android":"levelo://app?vid=a8942e43-f3d6-46fd-8576-2cc6b2787f3e","ios":"levelo://app?vid=a8942e43-f3d6-46fd-8576-2cc6b2787f3e"},"vehicle_type_id":"4","last_reported":1734081048,"current_range_meters":21600,"station_id":"ce4bhr92rcd13ifvqhrg","pricing_plan_id":"cebpf4jnsgd1na2vs0mg"},{"bike_id":"99cefe7f-201a-4f40-b97b-64dac98346ce","system_id":"levelo_inurba_marseille","lat":43.3112,"lon":5.37768,"is_reserved":false,"is_disabled":false,"rental_uris":{"android":"levelo://app?vid=99cefe7f-201a-4f40-b97b-64dac98346ce","ios":"levelo://app?vid=99cefe7f-201a-4f40-b97b-64dac98346ce"},"vehicle_type_id":"4","last_reported":1734081048,"current_range_meters":37600,"station_id":"ce4bgt92rcd13ifvqcg0","pricing_plan_id":"cebpf4jnsgd1na2vs0mg"},{"bike_id":"22e276f1-6c56-4989-be7c-fe5e1049944d","system_id":"levelo_inurba_marseille","lat":43.31389,"lon":5.36707,"is_reserved":false,"is_disabled":false,"rental_uris":{"android":"levelo://app?vid=22e276f1-6c56-4989-be7c-fe5e1049944d","ios":"levelo://app?vid=22e276f1-6c56-4989-be7c-fe5e1049944d"},"vehicle_type_id":"4","last_reported":1734081048,"current_range_meters":33200,"station_id":"ce4bgr92rcd13ifvqc6g","pricing_plan_id":"cebpf4jnsgd1na2vs0mg"},{"bike_id":"d008ef1b-ded1-44b6-a802-684884d045ff","system_id":"levelo_inurba_marseille","lat":43.2979,"lon":5.39357,"is_reserved":false,"is_disabled":true,"rental_uris":{"android":"levelo://app?vid=d008ef1b-ded1-44b6-a802-684884d045ff","ios":"levelo://app?vid=d008ef1b-ded1-44b6-a802-684884d045ff"},"vehicle_type_id":"4","last_reported":1734081048,"current_range_meters":17600,"station_id":"chh1huq6cuj3fo74tm60","pricing_plan_id":"cebpf4jnsgd1na2vs0mg"},{"bike_id":"8c7f6e29-cc78-4f0f-99f9-ee975cacc61c","system_id":"levelo_inurba_marseille","lat":43.337444,"lon":5.374475,"is_reserved":false,"is_disabled":false,"rental_uris":{"android":"levelo://app?vid=8c7f6e29-cc78-4f0f-99f9-ee975cacc61c","ios":"levelo://app?vid=8c7f6e29-cc78-4f0f-99f9-ee975cacc61c"},"vehicle_type_id":"4","last_reported":1734081048,"current_range_meters":14400,"station_id":"ce4bh092rcd13ifvqd20","pricing_plan_id":"cebpf4jnsgd1na2vs0mg"},{"bike_id":"208886c0-de2e-43ca-abbf-3e8665653f84","system_id":"levelo_inurba_marseille","lat":43.30404,"lon":5.37714,"is_reserved":false,"is_disabled":true,"rental_uris":{"android":"levelo://app?vid=208886c0-de2e-43ca-abbf-3e8665653f84","ios":"levelo://app?vid=208886c0-de2e-43ca-abbf-3e8665653f84"},"vehicle_type_id":"4","last_reported":1734081048,"current_range_meters":0,"station_id":"","pricing_plan_id":"cebpf4jnsgd1na2vs0mg"},{"bike_id":"bc3b427c-024d-41ea-bc56-b82c2450a35e","system_id":"levelo_inurba_marseille","lat":43.29786,"lon":5.37117,"is_reserved":false,"is_disabled":false,"rental_uris":{"android":"levelo://app?vid=bc3b427c-024d-41ea-bc56-b82c2450a35e","ios":"levelo://app?vid=bc3b427c-024d-41ea-bc56-b82c2450a35e"},"vehicle_type_id":"4","last_reported":1734081048,"current_range_meters":22400,"station_id":"ce4bgop2rcd13ifvqc1g","pricing_plan_id":"cebpf4jnsgd1na2vs0mg"},{"bike_id":"96ef27b0-d49e-42f9-ac02-31e916e33695","system_id":"levelo_inurba_marseille","lat":43.25927,"lon":5.40903,"is_reserved":false,"is_disabled":false,"rental_uris":{"android":"levelo://app?vid=96ef27b0-d49e-42f9-ac02-31e916e33695","ios":"levelo://app?vid=96ef27b0-d49e-42f9-ac02-31e916e33695"},"vehicle_type_id":"4","last_reported":1734081048,"current_range_meters":21600,"station_id":"ce4bhm92rcd13ifvqglg","pricing_plan_id":"cebpf4jnsgd1na2vs0mg"},{"bike_id":"36a6aaf7-7942-4cf8-a178-14100534e00e","system_id":"levelo_inurba_marseille","lat":43.28446,"lon":5.3918,"is_reserved":false,"is_disabled":true,"rental_uris":{"android":"levelo://app?vid=36a6aaf7-7942-4cf8-a178-14100534e00e","ios":"levelo://app?vid=36a6aaf7-7942-4cf8-a178-14100534e00e"},"vehicle_type_id":"4","last_reported":1734081048,"current_range_meters":28000,"station_id":"ce4bhoh2rcd13ifvqh5g","pricing_plan_id":"cebpf4jnsgd1na2vs0mg"},{"bike_id":"7f014d92-7469-41a1-8877-2858610992f9","system_id":"levelo_inurba_marseille","lat":43.3095,"lon":5.39047,"is_reserved":false,"is_disabled":false,"rental_uris":{"android":"levelo://app?vid=7f014d92-7469-41a1-8877-2858610992f9","ios":"levelo://app?vid=7f014d92-7469-41a1-8877-2858610992f9"},"vehicle_type_id":"4","last_reported":1734081048,"current_range_meters":28000,"station_id":"ce4bgup2rcd13ifvqco0","pricing_plan_id":"cebpf4jnsgd1na2vs0mg"},{"bike_id":"539e3e84-b6a2-43c0-8d9b-2c34eefac678","system_id":"levelo_inurba_marseille","lat":43.30465,"lon":5.37897,"is_reserved":false,"is_disabled":false,"rental_uris":{"android":"levelo://app?vid=539e3e84-b6a2-43c0-8d9b-2c34eefac678","ios":"levelo://app?vid=539e3e84-b6a2-43c0-8d9b-2c34eefac678"},"vehicle_type_id":"4","last_reported":1734081048,"current_range_meters":31200,"station_id":"ce4bgup2rcd13ifvqcn0","pricing_plan_id":"cebpf4jnsgd1na2vs0mg"},{"bike_id":"899e75e2-1dfc-49d5-b1b3-48dd26b380f6","system_id":"levelo_inurba_marseille","lat":43.28427,"lon":5.39175,"is_reserved":false,"is_disabled":false,"rental_uris":{"android":"levelo://app?vid=899e75e2-1dfc-49d5-b1b3-48dd26b380f6","ios":"levelo://app?vid=899e75e2-1dfc-49d5-b1b3-48dd26b380f6"},"vehicle_type_id":"4","last_reported":1734081048,"current_range_meters":38400,"station_id":"ce4bhoh2rcd13ifvqh5g","pricing_plan_id":"cebpf4jnsgd1na2vs0mg"},{"bike_id":"5d3c681d-f286-4f02-8f83-78ddf36f2ff0","system_id":"levelo_inurba_marseille","lat":43.2418,"lon":5.39709,"is_reserved":false,"is_disabled":true,"rental_uris":{"android":"levelo://app?vid=5d3c681d-f286-4f02-8f83-78ddf36f2ff0","ios":"levelo://app?vid=5d3c681d-f286-4f02-8f83-78ddf36f2ff0"},"vehicle_type_id":"4","last_reported":1734081048,"current_range_meters":38800,"station_id":"ce4bhn12rcd13ifvqgpg","pricing_plan_id":"cebpf4jnsgd1na2vs0mg"},{"bike_id":"f3cb3fa5-f996-4779-a72c-c8dc29955965","system_id":"levelo_inurba_marseille","lat":43.26544,"lon":5.37289,"is_reserved":false,"is_disabled":false,"rental_uris":{"android":"levelo://app?vid=f3cb3fa5-f996-4779-a72c-c8dc29955965","ios":"levelo://app?vid=f3cb3fa5-f996-4779-a72c-c8dc29955965"},"vehicle_type_id":"4","last_reported":1734081048,"current_range_meters":28000,"station_id":"ce4bhg12rcd13ifvqf70","pricing_plan_id":"cebpf4jnsgd1na2vs0mg"},{"bike_id":"6e6a004b-462d-4b03-aeaa-2611256f0d89","system_id":"levelo_inurba_marseille","lat":43.28108,"lon":5.38924,"is_reserved":false,"is_disabled":true,"rental_uris":{"android":"levelo://app?vid=6e6a004b-462d-4b03-aeaa-2611256f0d89","ios":"levelo://app?vid=6e6a004b-462d-4b03-aeaa-2611256f0d89"},"vehicle_type_id":"4","last_reported":1734081048,"current_range_meters":0,"station_id":"","pricing_plan_id":"cebpf4jnsgd1na2vs0mg"},{"bike_id":"7666f2af-c3f7-435c-8ae2-bb615f8ddfef","system_id":"levelo_inurba_marseille","lat":43.23155,"lon":5.43714,"is_reserved":false,"is_disabled":false,"rental_uris":{"android":"levelo://app?vid=7666f2af-c3f7-435c-8ae2-bb615f8ddfef","ios":"levelo://app?vid=7666f2af-c3f7-435c-8ae2-bb615f8ddfef"},"vehicle_type_id":"4","last_reported":1734081048,"current_range_meters":25200,"station_id":"ce4bhmp2rcd13ifvqgog","pricing_plan_id":"cebpf4jnsgd1na2vs0mg"},{"bike_id":"14845a8f-c0c8-4311-843d-ef820014914a","system_id":"levelo_inurba_marseille","lat":43.26809,"lon":5.40263,"is_reserved":false,"is_disabled":false,"rental_uris":{"android":"levelo://app?vid=14845a8f-c0c8-4311-843d-ef820014914a","ios":"levelo://app?vid=14845a8f-c0c8-4311-843d-ef820014914a"},"vehicle_type_id":"4","last_reported":1734081048,"current_range_meters":38000,"station_id":"ce501612rcd8frsf0b60","pricing_plan_id":"cebpf4jnsgd1na2vs0mg"},{"bike_id":"dd643bc6-5b37-42ec-9cd1-25f6f7772e52","system_id":"levelo_inurba_marseille","lat":43.31752,"lon":5.39017,"is_reserved":false,"is_disabled":true,"rental_uris":{"android":"levelo://app?vid=dd643bc6-5b37-42ec-9cd1-25f6f7772e52","ios":"levelo://app?vid=dd643bc6-5b37-42ec-9cd1-25f6f7772e52"},"vehicle_type_id":"4","last_reported":1734081048,"current_range_meters":33200,"station_id":"ce4bhqp2rcd13ifvqhng","pricing_plan_id":"cebpf4jnsgd1na2vs0mg"},{"bike_id":"89b7528c-fd56-4128-b133-e3ab623913c3","system_id":"levelo_inurba_marseille","lat":43.30545,"lon":5.36714,"is_reserved":false,"is_disabled":false,"rental_uris":{"android":"levelo://app?vid=89b7528c-fd56-4128-b133-e3ab623913c3","ios":"levelo://app?vid=89b7528c-fd56-4128-b133-e3ab623913c3"},"vehicle_type_id":"4","last_reported":1734081048,"current_range_meters":36000,"station_id":"ce4bgrp2rcd13ifvqc9g","pricing_plan_id":"cebpf4jnsgd1na2vs0mg"},{"bike_id":"2eb05da0-f8a6-4cae-a816-73f55da77d64","system_id":"levelo_inurba_marseille","lat":43.3016,"lon":5.38072,"is_reserved":false,"is_disabled":false,"rental_uris":{"android":"levelo://app?vid=2eb05da0-f8a6-4cae-a816-73f55da77d64","ios":"levelo://app?vid=2eb05da0-f8a6-4cae-a816-73f55da77d64"},"vehicle_type_id":"4","last_reported":1734081048,"current_range_meters":39200,"station_id":"ce4bgjp2rcd13ifvqbh0","pricing_plan_id":"cebpf4jnsgd1na2vs0mg"},{"bike_id":"065259c9-a811-4848-9879-2c397f5afe18","system_id":"levelo_inurba_marseille","lat":43.26584,"lon":5.39007,"is_reserved":false,"is_disabled":false,"rental_uris":{"android":"levelo://app?vid=065259c9-a811-4848-9879-2c397f5afe18","ios":"levelo://app?vid=065259c9-a811-4848-9879-2c397f5afe18"},"vehicle_type_id":"4","last_reported":1734081048,"current_range_meters":25600,"station_id":"ce4bhe12rcd13ifvqf30","pricing_plan_id":"cebpf4jnsgd1na2vs0mg"},{"bike_id":"e738fcc8-c725-46f1-b7fe-8f522bd56ad4","system_id":"levelo_inurba_marseille","lat":43.2292,"lon":5.35354,"is_reserved":false,"is_disabled":false,"rental_uris":{"android":"levelo://app?vid=e738fcc8-c725-46f1-b7fe-8f522bd56ad4","ios":"levelo://app?vid=e738fcc8-c725-46f1-b7fe-8f522bd56ad4"},"vehicle_type_id":"4","last_reported":1734081048,"current_range_meters":6800,"station_id":"cpo3532slgdg3j2ikp40","pricing_plan_id":"cebpf4jnsgd1na2vs0mg"},{"bike_id":"5f1cfd8c-9d3d-4847-b38c-c599318bbbeb","system_id":"levelo_inurba_marseille","lat":43.29308,"lon":5.37166,"is_reserved":false,"is_disabled":false,"rental_uris":{"android":"levelo://app?vid=5f1cfd8c-9d3d-4847-b38c-c599318bbbeb","ios":"levelo://app?vid=5f1cfd8c-9d3d-4847-b38c-c599318bbbeb"},"vehicle_type_id":"4","last_reported":1734081048,"current_range_meters":38800,"station_id":"ce4bgh92rcd13ifvqb40","pricing_plan_id":"cebpf4jnsgd1na2vs0mg"},{"bike_id":"7965bd8b-65b9-4460-9e65-36f253ebc53b","system_id":"levelo_inurba_marseille","lat":43.32051,"lon":5.41498,"is_reserved":false,"is_disabled":false,"rental_uris":{"android":"levelo://app?vid=7965bd8b-65b9-4460-9e65-36f253ebc53b","ios":"levelo://app?vid=7965bd8b-65b9-4460-9e65-36f253ebc53b"},"vehicle_type_id":"4","last_reported":1734081048,"current_range_meters":24400,"station_id":"ce4bhq92rcd13ifvqhkg","pricing_plan_id":"cebpf4jnsgd1na2vs0mg"},{"bike_id":"54b7a8a9-d7d4-4fe1-ab15-b56f2aa8b6d9","system_id":"levelo_inurba_marseille","lat":43.29423,"lon":5.38603,"is_reserved":false,"is_disabled":true,"rental_uris":{"android":"levelo://app?vid=54b7a8a9-d7d4-4fe1-ab15-b56f2aa8b6d9","ios":"levelo://app?vid=54b7a8a9-d7d4-4fe1-ab15-b56f2aa8b6d9"},"vehicle_type_id":"4","last_reported":1734081048,"current_range_meters":22800,"station_id":"ce4bh2h2rcd13ifvqdh0","pricing_plan_id":"cebpf4jnsgd1na2vs0mg"},{"bike_id":"698ad75d-4505-4127-812a-dfdea147bfbd","system_id":"levelo_inurba_marseille","lat":43.36728,"lon":5.34614,"is_reserved":false,"is_disabled":false,"rental_uris":{"android":"levelo://app?vid=698ad75d-4505-4127-812a-dfdea147bfbd","ios":"levelo://app?vid=698ad75d-4505-4127-812a-dfdea147bfbd"},"vehicle_type_id":"4","last_reported":1734081048,"current_range_meters":28400,"station_id":"","pricing_plan_id":"cebpf4jnsgd1na2vs0mg"},{"bike_id":"467a8ed9-8f9d-4f9c-a7a2-b2a4bc21bd4a","system_id":"levelo_inurba_marseille","lat":43.2464,"lon":5.38898,"is_reserved":false,"is_disabled":false,"rental_uris":{"android":"levelo://app?vid=467a8ed9-8f9d-4f9c-a7a2-b2a4bc21bd4a","ios":"levelo://app?vid=467a8ed9-8f9d-4f9c-a7a2-b2a4bc21bd4a"},"vehicle_type_id":"4","last_reported":1734081048,"current_range_meters":30800,"station_id":"ce4bhg12rcd13ifvqf60","pricing_plan_id":"cebpf4jnsgd1na2vs0mg"},{"bike_id":"3f376398-b9b7-4419-aed9-9595c8c18ff6","system_id":"levelo_inurba_marseille","lat":43.2955,"lon":5.42276,"is_reserved":false,"is_disabled":false,"rental_uris":{"android":"levelo://app?vid=3f376398-b9b7-4419-aed9-9595c8c18ff6","ios":"levelo://app?vid=3f376398-b9b7-4419-aed9-9595c8c18ff6"},"vehicle_type_id":"4","last_reported":1734081048,"current_range_meters":36000,"station_id":"ce4bhph2rcd13ifvqhdg","pricing_plan_id":"cebpf4jnsgd1na2vs0mg"},{"bike_id":"432e6559-b4d5-4c95-af34-184bb7f8ca47","system_id":"levelo_inurba_marseille","lat":43.295528,"lon":5.422262,"is_reserved":false,"is_disabled":false,"rental_uris":{"android":"levelo://app?vid=432e6559-b4d5-4c95-af34-184bb7f8ca47","ios":"levelo://app?vid=432e6559-b4d5-4c95-af34-184bb7f8ca47"},"vehicle_type_id":"4","last_reported":1734081048,"current_range_meters":38800,"station_id":"","pricing_plan_id":"cebpf4jnsgd1na2vs0mg"},{"bike_id":"a5589391-a7e4-412b-9a87-f917b2322580","system_id":"levelo_inurba_marseille","lat":43.2306,"lon":5.354891,"is_reserved":false,"is_disabled":false,"rental_uris":{"android":"levelo://app?vid=a5589391-a7e4-412b-9a87-f917b2322580","ios":"levelo://app?vid=a5589391-a7e4-412b-9a87-f917b2322580"},"vehicle_type_id":"4","last_reported":1734081048,"current_range_meters":9200,"station_id":"cpo3342slgdg3j2ifvpg","pricing_plan_id":"cebpf4jnsgd1na2vs0mg"},{"bike_id":"80122f82-2a34-42b2-9142-51ebe480d7dc","system_id":"levelo_inurba_marseille","lat":43.30151,"lon":5.38084,"is_reserved":false,"is_disabled":false,"rental_uris":{"android":"levelo://app?vid=80122f82-2a34-42b2-9142-51ebe480d7dc","ios":"levelo://app?vid=80122f82-2a34-42b2-9142-51ebe480d7dc"},"vehicle_type_id":"4","last_reported":1734081048,"current_range_meters":38400,"station_id":"ce4bgjp2rcd13ifvqbh0","pricing_plan_id":"cebpf4jnsgd1na2vs0mg"},{"bike_id":"103e9cb3-a529-4d55-b047-75adf6d60c18","system_id":"levelo_inurba_marseille","lat":43.27967,"lon":5.39923,"is_reserved":false,"is_disabled":true,"rental_uris":{"android":"levelo://app?vid=103e9cb3-a529-4d55-b047-75adf6d60c18","ios":"levelo://app?vid=103e9cb3-a529-4d55-b047-75adf6d60c18"},"vehicle_type_id":"4","last_reported":1734081048,"current_range_meters":0,"station_id":"","pricing_plan_id":"cebpf4jnsgd1na2vs0mg"},{"bike_id":"4f77c076-f9a8-4fe0-84dd-e356814ec51e","system_id":"levelo_inurba_marseille","lat":43.28934,"lon":5.36633,"is_reserved":false,"is_disabled":true,"rental_uris":{"android":"levelo://app?vid=4f77c076-f9a8-4fe0-84dd-e356814ec51e","ios":"levelo://app?vid=4f77c076-f9a8-4fe0-84dd-e356814ec51e"},"vehicle_type_id":"4","last_reported":1734081048,"current_range_meters":28400,"station_id":"ce4bhap2rcd13ifvqek0","pricing_plan_id":"cebpf4jnsgd1na2vs0mg"},{"bike_id":"2abcec0c-aafa-4f10-b40b-0344473164ae","system_id":"levelo_inurba_marseille","lat":43.23964,"lon":5.36644,"is_reserved":false,"is_disabled":false,"rental_uris":{"android":"levelo://app?vid=2abcec0c-aafa-4f10-b40b-0344473164ae","ios":"levelo://app?vid=2abcec0c-aafa-4f10-b40b-0344473164ae"},"vehicle_type_id":"4","last_reported":1734081048,"current_range_meters":16800,"station_id":"ce4bhi12rcd13ifvqfp0","pricing_plan_id":"cebpf4jnsgd1na2vs0mg"},{"bike_id":"cf2a554d-dca1-468f-a79f-dbc5900e9168","system_id":"levelo_inurba_marseille","lat":43.33014,"lon":5.39047,"is_reserved":false,"is_disabled":false,"rental_uris":{"android":"levelo://app?vid=cf2a554d-dca1-468f-a79f-dbc5900e9168","ios":"levelo://app?vid=cf2a554d-dca1-468f-a79f-dbc5900e9168"},"vehicle_type_id":"4","last_reported":1734081048,"current_range_meters":31200,"station_id":"ce4bhr92rcd13ifvqhrg","pricing_plan_id":"cebpf4jnsgd1na2vs0mg"},{"bike_id":"5cd0227d-828f-4635-a4e6-90752f4b4e94","system_id":"levelo_inurba_marseille","lat":43.29195,"lon":5.35794,"is_reserved":false,"is_disabled":true,"rental_uris":{"android":"levelo://app?vid=5cd0227d-828f-4635-a4e6-90752f4b4e94","ios":"levelo://app?vid=5cd0227d-828f-4635-a4e6-90752f4b4e94"},"vehicle_type_id":"4","last_reported":1734081048,"current_range_meters":38000,"station_id":"ce4bhb12rcd13ifvqel0","pricing_plan_id":"cebpf4jnsgd1na2vs0mg"},{"bike_id":"9170b74c-6ab9-4aed-ae3b-75ae727d0100","system_id":"levelo_inurba_marseille","lat":43.27406,"lon":5.38999,"is_reserved":false,"is_disabled":false,"rental_uris":{"android":"levelo://app?vid=9170b74c-6ab9-4aed-ae3b-75ae727d0100","ios":"levelo://app?vid=9170b74c-6ab9-4aed-ae3b-75ae727d0100"},"vehicle_type_id":"4","last_reported":1734081048,"current_range_meters":10800,"station_id":"","pricing_plan_id":"cebpf4jnsgd1na2vs0mg"},{"bike_id":"bf26ba67-e67a-47f2-aeb5-22efb7770553","system_id":"levelo_inurba_marseille","lat":43.28616,"lon":5.35097,"is_reserved":false,"is_disabled":true,"rental_uris":{"android":"levelo://app?vid=bf26ba67-e67a-47f2-aeb5-22efb7770553","ios":"levelo://app?vid=bf26ba67-e67a-47f2-aeb5-22efb7770553"},"vehicle_type_id":"4","last_reported":1734081048,"current_range_meters":28800,"station_id":"ce4bhch2rcd13ifvqeug","pricing_plan_id":"cebpf4jnsgd1na2vs0mg"},{"bike_id":"1edcb435-be97-41f8-aa8c-4a20808cef7c","system_id":"levelo_inurba_marseille","lat":43.26815,"lon":5.40271,"is_reserved":false,"is_disabled":false,"rental_uris":{"android":"levelo://app?vid=1edcb435-be97-41f8-aa8c-4a20808cef7c","ios":"levelo://app?vid=1edcb435-be97-41f8-aa8c-4a20808cef7c"},"vehicle_type_id":"4","last_reported":1734081048,"current_range_meters":6000,"station_id":"ce501612rcd8frsf0b60","pricing_plan_id":"cebpf4jnsgd1na2vs0mg"},{"bike_id":"dd95b514-06c0-4cdf-8f36-c898a523926b","system_id":"levelo_inurba_marseille","lat":43.30957,"lon":5.39054,"is_reserved":false,"is_disabled":false,"rental_uris":{"android":"levelo://app?vid=dd95b514-06c0-4cdf-8f36-c898a523926b","ios":"levelo://app?vid=dd95b514-06c0-4cdf-8f36-c898a523926b"},"vehicle_type_id":"4","last_reported":1734081048,"current_range_meters":25200,"station_id":"ce4bgup2rcd13ifvqco0","pricing_plan_id":"cebpf4jnsgd1na2vs0mg"},{"bike_id":"79efbb5a-a5a0-4710-a47a-ff1244106665","system_id":"levelo_inurba_marseille","lat":43.29535,"lon":5.38549,"is_reserved":false,"is_disabled":true,"rental_uris":{"android":"levelo://app?vid=79efbb5a-a5a0-4710-a47a-ff1244106665","ios":"levelo://app?vid=79efbb5a-a5a0-4710-a47a-ff1244106665"},"vehicle_type_id":"4","last_reported":1734081048,"current_range_meters":0,"station_id":"ce4bgih2rcd13ifvqba0","pricing_plan_id":"cebpf4jnsgd1na2vs0mg"},{"bike_id":"61df4582-7c9f-489e-b7da-d6a0cfdcd7c7","system_id":"levelo_inurba_marseille","lat":43.28659,"lon":5.36351,"is_reserved":false,"is_disabled":true,"rental_uris":{"android":"levelo://app?vid=61df4582-7c9f-489e-b7da-d6a0cfdcd7c7","ios":"levelo://app?vid=61df4582-7c9f-489e-b7da-d6a0cfdcd7c7"},"vehicle_type_id":"4","last_reported":1734081048,"current_range_meters":0,"station_id":"ce4bhah2rcd13ifvqej0","pricing_plan_id":"cebpf4jnsgd1na2vs0mg"},{"bike_id":"101f11c0-d0df-4db7-8cbf-d437ee429d15","system_id":"levelo_inurba_marseille","lat":43.33023,"lon":5.39037,"is_reserved":false,"is_disabled":false,"rental_uris":{"android":"levelo://app?vid=101f11c0-d0df-4db7-8cbf-d437ee429d15","ios":"levelo://app?vid=101f11c0-d0df-4db7-8cbf-d437ee429d15"},"vehicle_type_id":"4","last_reported":1734081048,"current_range_meters":38000,"station_id":"ce4bhr92rcd13ifvqhrg","pricing_plan_id":"cebpf4jnsgd1na2vs0mg"},{"bike_id":"069bd7be-d7b1-4fb4-8a31-6d5c7733f3a6","system_id":"levelo_inurba_marseille","lat":43.30145,"lon":5.37414,"is_reserved":false,"is_disabled":false,"rental_uris":{"android":"levelo://app?vid=069bd7be-d7b1-4fb4-8a31-6d5c7733f3a6","ios":"levelo://app?vid=069bd7be-d7b1-4fb4-8a31-6d5c7733f3a6"},"vehicle_type_id":"4","last_reported":1734081048,"current_range_meters":16800,"station_id":"ce4bgs92rcd13ifvqcc0","pricing_plan_id":"cebpf4jnsgd1na2vs0mg"},{"bike_id":"ca3bf6a0-806c-4046-b219-bbea4c2ba646","system_id":"levelo_inurba_marseille","lat":43.23197,"lon":5.35542,"is_reserved":false,"is_disabled":false,"rental_uris":{"android":"levelo://app?vid=ca3bf6a0-806c-4046-b219-bbea4c2ba646","ios":"levelo://app?vid=ca3bf6a0-806c-4046-b219-bbea4c2ba646"},"vehicle_type_id":"4","last_reported":1734081048,"current_range_meters":38800,"station_id":"ce4bhu92rcd13ifvqi70","pricing_plan_id":"cebpf4jnsgd1na2vs0mg"},{"bike_id":"2b988a4f-7293-46e7-a188-2f6b9d7b0aca","system_id":"levelo_inurba_marseille","lat":43.295875,"lon":5.380905,"is_reserved":false,"is_disabled":false,"rental_uris":{"android":"levelo://app?vid=2b988a4f-7293-46e7-a188-2f6b9d7b0aca","ios":"levelo://app?vid=2b988a4f-7293-46e7-a188-2f6b9d7b0aca"},"vehicle_type_id":"4","last_reported":1734081048,"current_range_meters":37600,"station_id":"ce4bgl12rcd13ifvqbo0","pricing_plan_id":"cebpf4jnsgd1na2vs0mg"},{"bike_id":"057d46ff-2ee8-4fe4-a32e-cfffa3f5aaa8","system_id":"levelo_inurba_marseille","lat":43.28435,"lon":5.39189,"is_reserved":false,"is_disabled":true,"rental_uris":{"android":"levelo://app?vid=057d46ff-2ee8-4fe4-a32e-cfffa3f5aaa8","ios":"levelo://app?vid=057d46ff-2ee8-4fe4-a32e-cfffa3f5aaa8"},"vehicle_type_id":"4","last_reported":1734081048,"current_range_meters":0,"station_id":"ce4bhoh2rcd13ifvqh5g","pricing_plan_id":"cebpf4jnsgd1na2vs0mg"},{"bike_id":"46b2fdec-0870-4ae2-84dc-b1f57512351e","system_id":"levelo_inurba_marseille","lat":43.337444,"lon":5.374475,"is_reserved":false,"is_disabled":true,"rental_uris":{"android":"levelo://app?vid=46b2fdec-0870-4ae2-84dc-b1f57512351e","ios":"levelo://app?vid=46b2fdec-0870-4ae2-84dc-b1f57512351e"},"vehicle_type_id":"4","last_reported":1734081048,"current_range_meters":0,"station_id":"","pricing_plan_id":"cebpf4jnsgd1na2vs0mg"},{"bike_id":"f6bfa59a-017c-4ffa-b401-cde289947443","system_id":"levelo_inurba_marseille","lat":43.25869,"lon":5.39899,"is_reserved":false,"is_disabled":false,"rental_uris":{"android":"levelo://app?vid=f6bfa59a-017c-4ffa-b401-cde289947443","ios":"levelo://app?vid=f6bfa59a-017c-4ffa-b401-cde289947443"},"vehicle_type_id":"4","last_reported":1734081048,"current_range_meters":26800,"station_id":"ce4bhl92rcd13ifvqghg","pricing_plan_id":"cebpf4jnsgd1na2vs0mg"},{"bike_id":"cbe01e99-0ff7-479e-ac8d-a89f5a65b0d8","system_id":"levelo_inurba_marseille","lat":43.25581,"lon":5.38226,"is_reserved":false,"is_disabled":false,"rental_uris":{"android":"levelo://app?vid=cbe01e99-0ff7-479e-ac8d-a89f5a65b0d8","ios":"levelo://app?vid=cbe01e99-0ff7-479e-ac8d-a89f5a65b0d8"},"vehicle_type_id":"4","last_reported":1734081048,"current_range_meters":37600,"station_id":"ce4bhih2rcd13ifvqfs0","pricing_plan_id":"cebpf4jnsgd1na2vs0mg"},{"bike_id":"919d3571-0425-4640-9cf9-03f52f255e02","system_id":"levelo_inurba_marseille","lat":43.26948,"lon":5.38634,"is_reserved":false,"is_disabled":false,"rental_uris":{"android":"levelo://app?vid=919d3571-0425-4640-9cf9-03f52f255e02","ios":"levelo://app?vid=919d3571-0425-4640-9cf9-03f52f255e02"},"vehicle_type_id":"4","last_reported":1734081048,"current_range_meters":12400,"station_id":"ce4bhh92rcd13ifvqfh0","pricing_plan_id":"cebpf4jnsgd1na2vs0mg"},{"bike_id":"c8f061b9-cdf8-456e-b591-d2629d387532","system_id":"levelo_inurba_marseille","lat":43.24082,"lon":5.37746,"is_reserved":false,"is_disabled":false,"rental_uris":{"android":"levelo://app?vid=c8f061b9-cdf8-456e-b591-d2629d387532","ios":"levelo://app?vid=c8f061b9-cdf8-456e-b591-d2629d387532"},"vehicle_type_id":"4","last_reported":1734081048,"current_range_meters":14800,"station_id":"ce4bhnp2rcd13ifvqgvg","pricing_plan_id":"cebpf4jnsgd1na2vs0mg"},