{"last_updated":1744052856,"ttl":60,"version":"2.2","data":{"bikes":[{"bike_id":"46aaf249-f504-46ae-93ce-7245839b78b5","system_id":"levelo_inurba_marseille","lat":43.26207,"lon":5.37964,"is_reserved":false,"is_disabled":true,"rental_uris":{"android":"levelo://app?vid=46aaf249-f504-46ae-93ce-7245839b78b5","ios":"levelo://app?vid=46aaf249-f504-46ae-93ce-7245839b78b5"},"vehicle_type_id":"4","last_reported":1744052856,"current_range_meters":3200,"station_id":"ce4bhjp2rcd13ifvqg90","pricing_plan_id":"cebpf4jnsgd1na2vs0mg"},{"bike_id":"bc98e7ef-b3b7-43ab-8df2-3de8f3976a74","system_id":"levelo_inurba_marseille","lat":43.30609,"lon":5.37131,"is_reserved":false,"is_disabled":false,"rental_uris":{"android":"levelo://app?vid=bc98e7ef-b3b7-43ab-8df2-3de8f3976a74","ios":"levelo://app?vid=bc98e7ef-b3b7-43ab-8df2-3de8f3976a74"},"vehicle_type_id":"4","last_reported":1744052856,"current_range_meters":2800,"station_id":"","pricing_plan_id":"cebpf4jnsgd1na2vs0mg"},{"bike_id":"eb79d1f9-7c91-4ea2-b5f8-796189743e1a","system_id":"levelo_inurba_marseille","lat":43.34262,"lon":5.38086,"is_reserved":false,"is_disabled":false,"rental_uris":{"android":"levelo://app?vid=eb79d1f9-7c91-4ea2-b5f8-796189743e1a","ios":"levelo://app?vid=eb79d1f9-7c91-4ea2-b5f8-796189743e1a"},"vehicle_type_id":"4","last_reported":1744052856,"current_range_meters":3200,"station_id":"","pricing_plan_id":"cebpf4jnsgd1na2vs0mg"},{"bike_id":"784e136c-a4e1-449b-9aac-863a6089305e","system_id":"levelo_inurba_marseille","lat":43.31328,"lon":5.39696,"is_reserved":false,"is_disabled":false,"rental_uris":{"android":"levelo://app?vid=784e136c-a4e1-449b-9aac-863a6089305e","ios":"levelo://app?vid=784e136c-a4e1-449b-9aac-863a6089305e"},"vehicle_type_id":"4","last_reported":1744052856,"current_range_meters":3200,"station_id":"ce4bgvp2rcd13ifvqcu0","pricing_plan_id":"cebpf4jnsgd1na2vs0mg"},{"bike_id":"55a413a3-75ad-43b0-b7c5-e20997f5150a","system_id":"levelo_inurba_marseille","lat":43.28157,"lon":5.4265,"is_reserved":false,"is_disabled":false,"rental_uris":{"android":"levelo://app?vid=55a413a3-75ad-43b0-b7c5-e20997f5150a","ios":"levelo://app?vid=55a413a3-75ad-43b0-b7c5-e20997f5150a"},"vehicle_type_id":"4","last_reported":1744052856,"current_range_meters":3200,"station_id":"ce4bhnh2rcd13ifvqgug","pricing_plan_id":"cebpf4jnsgd1na2vs0mg"},{"bike_id":"655de01b-7e70-4bf7-b458-37e1d363d717","system_id":"levelo_inurba_marseille","lat":43.24398,"lon":5.37051,"is_reserved":false,"is_disabled":true,"rental_uris":{"android":"levelo://app?vid=655de01b-7e70-4bf7-b458-37e1d363d717","ios":"levelo://app?vid=655de01b-7e70-4bf7-b458-37e1d363d717"},"vehicle_type_id":"4","last_reported":1744052856,"current_range_meters":3200,"station_id":"ce4bhhh2rcd13ifvqfk0","pricing_plan_id":"cebpf4jnsgd1na2vs0mg"},{"bike_id":"76fa7e12-bd4b-4070-992a-4b4cb7e8cc90","system_id":"levelo_inurba_marseille","lat":43.27956,"lon":5.41044,"is_reserved":false,"is_disabled":false,"rental_uris":{"android":"levelo://app?vid=76fa7e12-bd4b-4070-992a-4b4cb7e8cc90","ios":"levelo://app?vid=76fa7e12-bd4b-4070-992a-4b4cb7e8cc90"},"vehicle_type_id":"4","last_reported":1744052856,"current_range_meters":3200,"station_id":"ce4bhnp2rcd13ifvqh0g","pricing_plan_id":"cebpf4jnsgd1na2vs0mg"},{"bike_id":"11a797cb-912a-43d3-b135-ae89120e15e9","system_id":"levelo_inurba_marseille","lat":43.295463,"lon":5.393803,"is_reserved":false,"is_disabled":false,"rental_uris":{"android":"levelo://app?vid=11a797cb-912a-43d3-b135-ae89120e15e9","ios":"levelo://app?vid=11a797cb-912a-43d3-b135-ae89120e15e9"},"vehicle_type_id":"4","last_reported":1744052856,"current_range_meters":3200,"station_id":"ce4bh292rcd13ifvqdf0","pricing_plan_id":"cebpf4jnsgd1na2vs0mg"},{"bike_id":"6ebe9ec3-b74c-497b-aa8c-e68d0877c617","system_id":"levelo_inurba_marseille","lat":43.25111,"lon":5.40318,"is_reserved":false,"is_disabled":false,"rental_uris":{"android":"levelo://app?vid=6ebe9ec3-b74c-497b-aa8c-e68d0877c617","ios":"levelo://app?vid=6ebe9ec3-b74c-497b-aa8c-e68d0877c617"},"vehicle_type_id":"4","last_reported":1744052856,"current_range_meters":3200,"station_id":"ce4bhlh2rcd13ifvqgig","pricing_plan_id":"cebpf4jnsgd1na2vs0mg"},{"bike_id":"43dae4b5-a23f-4b28-97e6-93280573ec6a","system_id":"levelo_inurba_marseille","lat":43.29592,"lon":5.38097,"is_reserved":false,"is_disabled":true,"rental_uris":{"android":"levelo://app?vid=43dae4b5-a23f-4b28-97e6-93280573ec6a","ios":"levelo://app?vid=43dae4b5-a23f-4b28-97e6-93280573ec6a"},"vehicle_type_id":"4","last_reported":1744052856,"current_range_meters":3600,"station_id":"ce4bgl12rcd13ifvqbo0","pricing_plan_id":"cebpf4jnsgd1na2vs0mg"},{"bike_id":"7fb9f3ea-9b55-4cab-a2bd-bc30882fb49b","system_id":"levelo_inurba_marseille","lat":43.29544,"lon":5.39406,"is_reserved":false,"is_disabled":false,"rental_uris":{"android":"levelo://app?vid=7fb9f3ea-9b55-4cab-a2bd-bc30882fb49b","ios":"levelo://app?vid=7fb9f3ea-9b55-4cab-a2bd-bc30882fb49b"},"vehicle_type_id":"4","last_reported":1744052856,"current_range_meters":3600,"station_id":"ce4bh292rcd13ifvqdf0","pricing_plan_id":"cebpf4jnsgd1na2vs0mg"},{"bike_id":"9aa4d41e-55d4-41e8-9d36-1362df3ac962","system_id":"levelo_inurba_marseille","lat":43.29094,"lon":5.38151,"is_reserved":false,"is_disabled":false,"rental_uris":{"android":"levelo://app?vid=9aa4d41e-55d4-41e8-9d36-1362df3ac962","ios":"levelo://app?vid=9aa4d41e-55d4-41e8-9d36-1362df3ac962"},"vehicle_type_id":"4","last_reported":1744052856,"current_range_meters":3600,"station_id":"ce4bh512rcd13ifvqe2g","pricing_plan_id":"cebpf4jnsgd1na2vs0mg"},{"bike_id":"6e6745e2-b7b0-4f16-b54f-7c8313f11b47","system_id":"levelo_inurba_marseille","lat":43.28,"lon":5.40014,"is_reserved":false,"is_disabled":false,"rental_uris":{"android":"levelo://app?vid=6e6745e2-b7b0-4f16-b54f-7c8313f11b47","ios":"levelo://app?vid=6e6745e2-b7b0-4f16-b54f-7c8313f11b47"},"vehicle_type_id":"4","last_reported":1744052856,"current_range_meters":3600,"station_id":"ce4bho92rcd13ifvqh4g","pricing_plan_id":"cebpf4jnsgd1na2vs0mg"},{"bike_id":"d8f246d4-63b0-40ac-97f8-ab32d9b8478c","system_id":"levelo_inurba_marseille","lat":43.27382,"lon":5.3625,"is_reserved":false,"is_disabled":true,"rental_uris":{"android":"levelo://app?vid=d8f246d4-63b0-40ac-97f8-ab32d9b8478c","ios":"levelo://app?vid=d8f246d4-63b0-40ac-97f8-ab32d9b8478c"},"vehicle_type_id":"4","last_reported":1744052856,"current_range_meters":4000,"station_id":"ce4bhbh2rcd13ifvqeo0","pricing_plan_id":"cebpf4jnsgd1na2vs0mg"},{"bike_id":"1f1f28c7-9ad1-459e-9b21-e6773ca5ac4e","system_id":"levelo_inurba_marseille","lat":43.300903,"lon":5.390688,"is_reserved":false,"is_disabled":false,"rental_uris":{"android":"levelo://app?vid=1f1f28c7-9ad1-459e-9b21-e6773ca5ac4e","ios":"levelo://app?vid=1f1f28c7-9ad1-459e-9b21-e6773ca5ac4e"},"vehicle_type_id":"4","last_reported":1744052856,"current_range_meters":4000,"station_id":"ce4bgi92rcd13ifvqb90","pricing_plan_id":"cebpf4jnsgd1na2vs0mg"},{"bike_id":"8f5c07b7-3579-4f6d-aef2-8f1f4aae6be3","system_id":"levelo_inurba_marseille","lat":43.308014,"lon":5.381468,"is_reserved":false,"is_disabled":false,"rental_uris":{"android":"levelo://app?vid=8f5c07b7-3579-4f6d-aef2-8f1f4aae6be3","ios":"levelo://app?vid=8f5c07b7-3579-4f6d-aef2-8f1f4aae6be3"},"vehicle_type_id":"4","last_reported":1744052856,"current_range_meters":1600,"station_id":"ce4bgt12rcd13ifvqce0","pricing_plan_id":"cebpf4jnsgd1na2vs0mg"},{"bike_id":"4889699b-3168-433b-88ed-2c3962e6411c","system_id":"levelo_inurba_marseille","lat":43.299748,"lon":5.385024,"is_reserved":false,"is_disabled":false,"rental_uris":{"android":"levelo://app?vid=4889699b-3168-433b-88ed-2c3962e6411c","ios":"levelo://app?vid=4889699b-3168-433b-88ed-2c3962e6411c"},"vehicle_type_id":"4","last_reported":1744052856,"current_range_meters":4400,"station_id":"ce4bgj92rcd13ifvqbd0","pricing_plan_id":"cebpf4jnsgd1na2vs0mg"},{"bike_id":"231c9b68-2b23-4752-bca0-224575735cb2","system_id":"levelo_inurba_marseille","lat":43.28444,"lon":5.39207,"is_reserved":false,"is_disabled":false,"rental_uris":{"android":"levelo://app?vid=231c9b68-2b23-4752-bca0-224575735cb2","ios":"levelo://app?vid=231c9b68-2b23-4752-bca0-224575735cb2"},"vehicle_type_id":"4","last_reported":1744052856,"current_range_meters":4000,"station_id":"ce4bhoh2rcd13ifvqh5g","pricing_plan_id":"cebpf4jnsgd1na2vs0mg"},{"bike_id":"f5d4db43-3a12-4756-9a95-baab6e0e7313","system_id":"levelo_inurba_marseille","lat":43.23971,"lon":5.36647,"is_reserved":false,"is_disabled":false,"rental_uris":{"android":"levelo://app?vid=f5d4db43-3a12-4756-9a95-baab6e0e7313","ios":"levelo://app?vid=f5d4db43-3a12-4756-9a95-baab6e0e7313"},"vehicle_type_id":"4","last_reported":1744052856,"current_range_meters":4800,"station_id":"ce4bhi12rcd13ifvqfp0","pricing_plan_id":"cebpf4jnsgd1na2vs0mg"},{"bike_id":"84664750-914f-4773-92f0-ec08ad702917","system_id":"levelo_inurba_marseille","lat":43.2439,"lon":5.37064,"is_reserved":false,"is_disabled":true,"rental_uris":{"android":"levelo://app?vid=84664750-914f-4773-92f0-ec08ad702917","ios":"levelo://app?vid=84664750-914f-4773-92f0-ec08ad702917"},"vehicle_type_id":"4","last_reported":1744052856,"current_range_meters":4400,"station_id":"ce4bgvp2rcd13ifvqcu0","pricing_plan_id":"cebpf4jnsgd1na2vs0mg"},{"bike_id":"e61a654a-adbc-47b7-b251-320f9e64b992","system_id":"levelo_inurba_marseille","lat":43.29197,"lon":5.39325,"is_reserved":false,"is_disabled":false,"rental_uris":{"android":"levelo://app?vid=e61a654a-adbc-47b7-b251-320f9e64b992","ios":"levelo://app?vid=e61a654a-adbc-47b7-b251-320f9e64b992"},"vehicle_type_id":"4","last_reported":1744052856,"current_range_meters":4800,"station_id":"ce4bh192rcd13ifvqdd0","pricing_plan_id":"cebpf4jnsgd1na2vs0mg"},{"bike_id":"558d5e11-c42b-4274-a5a5-444005adcdcf","system_id":"levelo_inurba_marseille","lat":43.28715,"lon":5.36096,"is_reserved":false,"is_disabled":false,"rental_uris":{"android":"levelo://app?vid=558d5e11-c42b-4274-a5a5-444005adcdcf","ios":"levelo://app?vid=558d5e11-c42b-4274-a5a5-444005adcdcf"},"vehicle_type_id":"4","last_reported":1744052856,"current_range_meters":5600,"station_id":"cki0cbj6b192h4jlfktg","pricing_plan_id":"cebpf4jnsgd1na2vs0mg"},{"bike_id":"eb196ca8-2856-4a88-bf1e-807e56297980","system_id":"levelo_inurba_marseille","lat":43.29785,"lon":5.39341,"is_reserved":false,"is_disabled":false,"rental_uris":{"android":"levelo://app?vid=eb196ca8-2856-4a88-bf1e-807e56297980","ios":"levelo://app?vid=eb196ca8-2856-4a88-bf1e-807e56297980"},"vehicle_type_id":"4","last_reported":1744052856,"current_range_meters":4800,"station_id":"chh1huq6cuj3fo74tm60","pricing_plan_id":"cebpf4jnsgd1na2vs0mg"},{"bike_id":"dc0c471b-9495-4d93-9670-de709bd8179d","system_id":"levelo_inurba_marseille","lat":43.27905,"lon":5.38016,"is_reserved":false,"is_disabled":false,"rental_uris":{"android":"levelo://app?vid=dc0c471b-9495-4d93-9670-de709bd8179d","ios":"levelo://app?vid=dc0c471b-9495-4d93-9670-de709bd8179d"},"vehicle_type_id":"4","last_reported":1744052856,"current_range_meters":5600,"station_id":"ce4bhf92rcd13ifvqf50","pricing_plan_id":"cebpf4jnsgd1na2vs0mg"},{"bike_id":"cf313ea9-0c1b-41c9-9843-f622afd4423a","system_id":"levelo_inurba_marseille","lat":43.298987,"lon":5.383358,"is_reserved":false,"is_disabled":false,"rental_uris":{"android":"levelo://app?vid=cf313ea9-0c1b-41c9-9843-f622afd4423a","ios":"levelo://app?vid=cf313ea9-0c1b-41c9-9843-f622afd4423a"},"vehicle_type_id":"4","last_reported":1744052856,"current_range_meters":5600,"station_id":"ce4bghh2rcd13ifvqb60","pricing_plan_id":"cebpf4jnsgd1na2vs0mg"},{"bike_id":"f95b4bd1-2602-448a-b970-68a1566ce595","system_id":"levelo_inurba_marseille","lat":43.30887,"lon":5.37206,"is_reserved":false,"is_disabled":false,"rental_uris":{"android":"levelo://app?vid=f95b4bd1-2602-448a-b970-68a1566ce595","ios":"levelo://app?vid=f95b4bd1-2602-448a-b970-68a1566ce595"},"vehicle_type_id":"4","last_reported":1744052856,"current_range_meters":5600,"station_id":"ce4bguh2rcd13ifvqckg","pricing_plan_id":"cebpf4jnsgd1na2vs0mg"},{"bike_id":"f85929bf-8ce3-4f64-9a38-f6ea21d51d14","system_id":"levelo_inurba_marseille","lat":43.28035,"lon":5.36958,"is_reserved":false,"is_disabled":false,"rental_uris":{"android":"levelo://app?vid=f85929bf-8ce3-4f64-9a38-f6ea21d51d14","ios":"levelo://app?vid=f85929bf-8ce3-4f64-9a38-f6ea21d51d14"},"vehicle_type_id":"4","last_reported":1744052856,"current_range_meters":6000,"station_id":"ce4bha12rcd13ifvqef0","pricing_plan_id":"cebpf4jnsgd1na2vs0mg"},{"bike_id":"bda28d1e-0f84-474d-a739-6c6b9ce16d63","system_id":"levelo_inurba_marseille","lat":43.27063,"lon":5.4227,"is_reserved":false,"is_disabled":false,"rental_uris":{"android":"levelo://app?vid=bda28d1e-0f84-474d-a739-6c6b9ce16d63","ios":"levelo://app?vid=bda28d1e-0f84-474d-a739-6c6b9ce16d63"},"vehicle_type_id":"4","last_reported":1744052856,"current_range_meters":6000,"station_id":"ce4bhk92rcd13ifvqgb0","pricing_plan_id":"cebpf4jnsgd1na2vs0mg"},{"bike_id":"116c37ff-a3e6-4d62-a10b-8469b1731982","system_id":"levelo_inurba_marseille","lat":43.290942,"lon":5.381373,"is_reserved":false,"is_disabled":false,"rental_uris":{"android":"levelo://app?vid=116c37ff-a3e6-4d62-a10b-8469b1731982","ios":"levelo://app?vid=116c37ff-a3e6-4d62-a10b-8469b1731982"},"vehicle_type_id":"4","last_reported":1744052856,"current_range_meters":6000,"station_id":"ce4bh512rcd13ifvqe2g","pricing_plan_id":"cebpf4jnsgd1na2vs0mg"},{"bike_id":"3050ace1-33b2-4607-89f2-9f5e7aca0a12","system_id":"levelo_inurba_marseille","lat":43.28411,"lon":5.37523,"is_reserved":false,"is_disabled":false,"rental_uris":{"android":"levelo://app?vid=3050ace1-33b2-4607-89f2-9f5e7aca0a12","ios":"levelo://app?vid=3050ace1-33b2-4607-89f2-9f5e7aca0a12"},"vehicle_type_id":"4","last_reported":1744052856,"current_range_meters":6000,"station_id":"ce4bh412rcd13ifvqds0","pricing_plan_id":"cebpf4jnsgd1na2vs0mg"},{"bike_id":"f3a82a8f-9c35-45c4-ba4d-a07bdb15f8b5","system_id":"levelo_inurba_marseille","lat":43.33146,"lon":5.41068,"is_reserved":false,"is_disabled":false,"rental_uris":{"android":"levelo://app?vid=f3a82a8f-9c35-45c4-ba4d-a07bdb15f8b5","ios":"levelo://app?vid=f3a82a8f-9c35-45c4-ba4d-a07bdb15f8b5"},"vehicle_type_id":"4","last_reported":1744052856,"current_range_meters":6000,"station_id":"","pricing_plan_id":"cebpf4jnsgd1na2vs0mg"},{"bike_id":"b29aff3b-6390-4b57-b2d8-2d4f62df2edc","system_id":"levelo_inurba_marseille","lat":43.28156,"lon":5.42645,"is_reserved":false,"is_disabled":false,"rental_uris":{"android":"levelo://app?vid=b29aff3b-6390-4b57-b2d8-2d4f62df2edc","ios":"levelo://app?vid=b29aff3b-6390-4b57-b2d8-2d4f62df2edc"},"vehicle_type_id":"4","last_reported":1744052856,"current_range_meters":6000,"station_id":"ce4bhnh2rcd13ifvqgug","pricing_plan_id":"cebpf4jnsgd1na2vs0mg"},{"bike_id":"8b1ab1f4-b096-46e6-8b39-bc5aa8067dda","system_id":"levelo_inurba_marseille","lat":43.2931,"lon":5.37178,"is_reserved":false,"is_disabled":false,"rental_uris":{"android":"levelo://app?vid=8b1ab1f4-b096-46e6-8b39-bc5aa8067dda","ios":"levelo://app?vid=8b1ab1f4-b096-46e6-8b39-bc5aa8067dda"},"vehicle_type_id":"4","last_reported":1744052856,"current_range_meters":6000,"station_id":"ce4bgh92rcd13ifvqb40","pricing_plan_id":"cebpf4jnsgd1na2vs0mg"},{"bike_id":"e91901fe-2444-4ec9-ae14-a894d2578dcb","system_id":"levelo_inurba_marseille","lat":43.30134,"lon":5.39873,"is_reserved":false,"is_disabled":false,"rental_uris":{"android":"levelo://app?vid=e91901fe-2444-4ec9-ae14-a894d2578dcb","ios":"levelo://app?vid=e91901fe-2444-4ec9-ae14-a894d2578dcb"},"vehicle_type_id":"4","last_reported":1744052856,"current_range_meters":6400,"station_id":"ce4bh0h2rcd13ifvqd40","pricing_plan_id":"cebpf4jnsgd1na2vs0mg"},{"bike_id":"00393ee2-317d-4e98-a30d-fd25773ef49f","system_id":"levelo_inurba_marseille","lat":43.35229,"lon":5.35834,"is_reserved":false,"is_disabled":false,"rental_uris":{"android":"levelo://app?vid=00393ee2-317d-4e98-a30d-fd25773ef49f","ios":"levelo://app?vid=00393ee2-317d-4e98-a30d-fd25773ef49f"},"vehicle_type_id":"4","last_reported":1744052856,"current_range_meters":6400,"station_id":"","pricing_plan_id":"cebpf4jnsgd1na2vs0mg"},{"bike_id":"aba5e844-f429-4fca-8fbd-34616f5265a2","system_id":"levelo_inurba_marseille","lat":43.28199,"lon":5.42631,"is_reserved":false,"is_disabled":false,"rental_uris":{"android":"levelo://app?vid=aba5e844-f429-4fca-8fbd-34616f5265a2","ios":"levelo://app?vid=aba5e844-f429-4fca-8fbd-34616f5265a2"},"vehicle_type_id":"4","last_reported":1744052856,"current_range_meters":6400,"station_id":"","pricing_plan_id":"cebpf4jnsgd1na2vs0mg"},{"bike_id":"ee1f7e81-c3a6-451c-be88-03ce9a3ee549","system_id":"levelo_inurba_marseille","lat":43.29919,"lon":5.37468,"is_reserved":false,"is_disabled":false,"rental_uris":{"android":"levelo://app?vid=ee1f7e81-c3a6-451c-be88-03ce9a3ee549","ios":"levelo://app?vid=ee1f7e81-c3a6-451c-be88-03ce9a3ee549"},"vehicle_type_id":"4","last_reported":1744052856,"current_range_meters":6400,"station_id":"ce4bgjh2rcd13ifvqbg0","pricing_plan_id":"cebpf4jnsgd1na2vs0mg"},{"bike_id":"40d2f783-fcea-4182-86f8-dc6ff1df2372","system_id":"levelo_inurba_marseille","lat":43.246523,"lon":5.389271,"is_reserved":false,"is_disabled":false,"rental_uris":{"android":"levelo://app?vid=40d2f783-fcea-4182-86f8-dc6ff1df2372","ios":"levelo://app?vid=40d2f783-fcea-4182-86f8-dc6ff1df2372"},"vehicle_type_id":"4","last_reported":1744052856,"current_range_meters":6400,"station_id":"ce4bhg12rcd13ifvqf60","pricing_plan_id":"cebpf4jnsgd1na2vs0mg"},{"bike_id":"136b6e45-ee21-453e-aa22-e07947db9071","system_id":"levelo_inurba_marseille","lat":43.23155,"lon":5.436964,"is_reserved":false,"is_disabled":true,"rental_uris":{"android":"levelo://app?vid=136b6e45-ee21-453e-aa22-e07947db9071","ios":"levelo://app?vid=136b6e45-ee21-453e-aa22-e07947db9071"},"vehicle_type_id":"4","last_reported":1744052856,"current_range_meters":6400,"station_id":"ce4bhmp2rcd13ifvqgog","pricing_plan_id":"cebpf4jnsgd1na2vs0mg"},{"bike_id":"ae004712-2121-4d57-9f9d-1378fdf7d6bc","system_id":"levelo_inurba_marseille","lat":43.32482,"lon":5.36571,"is_reserved":false,"is_disabled":false,"rental_uris":{"android":"levelo://app?vid=ae004712-2121-4d57-9f9d-1378fdf7d6bc","ios":"levelo://app?vid=ae004712-2121-4d57-9f9d-1378fdf7d6bc"},"vehicle_type_id":"4","last_reported":1744052856,"current_range_meters":6800,"station_id":"ce4bhs12rcd13ifvqhvg","pricing_plan_id":"cebpf4jnsgd1na2vs0mg"},{"bike_id":"b7723d15-4b7a-4e2a-8a3e-0a66051f1876","system_id":"levelo_inurba_marseille","lat":43.26817,"lon":5.40267,"is_reserved":false,"is_disabled":false,"rental_uris":{"android":"levelo://app?vid=b7723d15-4b7a-4e2a-8a3e-0a66051f1876","ios":"levelo://app?vid=b7723d15-4b7a-4e2a-8a3e-0a66051f1876"},"vehicle_type_id":"4","last_reported":1744052856,"current_range_meters":6800,"station_id":"ce501612rcd8frsf0b60","pricing_plan_id":"cebpf4jnsgd1na2vs0mg"},{"bike_id":"cb951067-5421-444d-a9ce-e78a71cf4a92","system_id":"levelo_inurba_marseille","lat":43.29054,"lon":5.38123,"is_reserved":false,"is_disabled":false,"rental_uris":{"android":"levelo://app?vid=cb951067-5421-444d-a9ce-e78a71cf4a92","ios":"levelo://app?vid=cb951067-5421-444d-a9ce-e78a71cf4a92"},"vehicle_type_id":"4","last_reported":1744052856,"current_range_meters":6800,"station_id":"ce4bh4p2rcd13ifvqe1g","pricing_plan_id":"cebpf4jnsgd1na2vs0mg"},{"bike_id":"351b921a-1463-4cf6-859d-ca5bd51a6e76","system_id":"levelo_inurba_marseille","lat":43.31796,"lon":5.36758,"is_reserved":false,"is_disabled":false,"rental_uris":{"android":"levelo://app?vid=351b921a-1463-4cf6-859d-ca5bd51a6e76","ios":"levelo://app?vid=351b921a-1463-4cf6-859d-ca5bd51a6e76"},"vehicle_type_id":"4","last_reported":1744052856,"current_range_meters":6800,"station_id":"","pricing_plan_id":"cebpf4jnsgd1na2vs0mg"},{"bike_id":"daf6a452-989a-4adf-8322-03c647d30ee1","system_id":"levelo_inurba_marseille","lat":43.26929,"lon":5.38913,"is_reserved":false,"is_disabled":false,"rental_uris":{"android":"levelo://app?vid=daf6a452-989a-4adf-8322-03c647d30ee1","ios":"levelo://app?vid=daf6a452-989a-4adf-8322-03c647d30ee1"},"vehicle_type_id":"4","last_reported":1744052856,"current_range_meters":6400,"station_id":"ce4bhhh2rcd13ifvqfl0","pricing_plan_id":"cebpf4jnsgd1na2vs0mg"},{"bike_id":"6018a73e-4728-4ef7-bdcc-cbf21821b537","system_id":"levelo_inurba_marseille","lat":43.28725,"lon":5.36086,"is_reserved":false,"is_disabled":false,"rental_uris":{"android":"levelo://app?vid=6018a73e-4728-4ef7-bdcc-cbf21821b537","ios":"levelo://app?vid=6018a73e-4728-4ef7-bdcc-cbf21821b537"},"vehicle_type_id":"4","last_reported":1744052856,"current_range_meters":6800,"station_id":"cki0cbj6b192h4jlfktg","pricing_plan_id":"cebpf4jnsgd1na2vs0mg"},{"bike_id":"f4af320d-9338-4cb8-b2bd-80ae2e6a57ea","system_id":"levelo_inurba_marseille","lat":43.29526,"lon":5.39034,"is_reserved":false,"is_disabled":false,"rental_uris":{"android":"levelo://app?vid=f4af320d-9338-4cb8-b2bd-80ae2e6a57ea","ios":"levelo://app?vid=f4af320d-9338-4cb8-b2bd-80ae2e6a57ea"},"vehicle_type_id":"4","last_reported":1744052856,"current_range_meters":6800,"station_id":"ce4bh3p2rcd13ifvqdp0","pricing_plan_id":"cebpf4jnsgd1na2vs0mg"},{"bike_id":"9701f943-d73f-4db4-8ad9-e8f0a312347a","system_id":"levelo_inurba_marseille","lat":43.30797,"lon":5.38161,"is_reserved":false,"is_disabled":false,"rental_uris":{"android":"levelo://app?vid=9701f943-d73f-4db4-8ad9-e8f0a312347a","ios":"levelo://app?vid=9701f943-d73f-4db4-8ad9-e8f0a312347a"},"vehicle_type_id":"4","last_reported":1744052856,"current_range_meters":6800,"station_id":"ce4bgt12rcd13ifvqce0","pricing_plan_id":"cebpf4jnsgd1na2vs0mg"},{"bike_id":"64c293e3-092b-468a-a02d-3355770c6bba","system_id":"levelo_inurba_marseille","lat":43.30416,"lon":5.41271,"is_reserved":false,"is_disabled":false,"rental_uris":{"android":"levelo://app?vid=64c293e3-092b-468a-a02d-3355770c6bba","ios":"levelo://app?vid=64c293e3-092b-468a-a02d-3355770c6bba"},"vehicle_type_id":"4","last_reported":1744052856,"current_range_meters":7200,"station_id":"ce4bhop2rcd13ifvqh8g","pricing_plan_id":"cebpf4jnsgd1na2vs0mg"},{"bike_id":"79ab7e2b-c8a0-4086-a8e4-f12e17aa0560","system_id":"levelo_inurba_marseille","lat":43.30286,"lon":5.37132,"is_reserved":false,"is_disabled":false,"rental_uris":{"android":"levelo://app?vid=79ab7e2b-c8a0-4086-a8e4-f12e17aa0560","ios":"levelo://app?vid=79ab7e2b-c8a0-4086-a8e4-f12e17aa0560"},"vehicle_type_id":"4","last_reported":1744052856,"current_range_meters":7200,"station_id":"","pricing_plan_id":"cebpf4jnsgd1na2vs0mg"},{"bike_id":"7c33950e-6814-43ff-99af-bcd2af9f75d1","system_id":"levelo_inurba_marseille","lat":43.29259,"lon":5.38441,"is_reserved":false,"is_disabled":false,"rental_uris":{"android":"levelo://app?vid=7c33950e-6814-43ff-99af-bcd2af9f75d1","ios":"levelo://app?vid=7c33950e-6814-43ff-99af-bcd2af9f75d1"},"vehicle_type_id":"4","last_reported":1744052856,"current_range_meters":7200,"station_id":"ce4bh692rcd13ifvqea0","pricing_plan_id":"cebpf4jnsgd1na2vs0mg"},{"bike_id":"1f18e397-6199-44c4-9b69-c3746d46a850","system_id":"levelo_inurba_marseille","lat":43.29422,"lon":5.386366,"is_reserved":false,"is_disabled":false,"rental_uris":{"android":"levelo://app?vid=1f18e397-6199-44c4-9b69-c3746d46a850","ios":"levelo://app?vid=1f18e397-6199-44c4-9b69-c3746d46a850"},"vehicle_type_id":"4","last_reported":1744052856,"current_range_meters":7200,"station_id":"ce4bgv12rcd13ifvqcp0","pricing_plan_id":"cebpf4jnsgd1na2vs0mg"},{"bike_id":"6b770536-e0ee-4074-a4d5-7fac1065bae9","system_id":"levelo_inurba_marseille","lat":43.33739,"lon":5.39141,"is_reserved":false,"is_disabled":false,"rental_uris":{"android":"levelo://app?vid=6b770536-e0ee-4074-a4d5-7fac1065bae9","ios":"levelo://app?vid=6b770536-e0ee-4074-a4d5-7fac1065bae9"},"vehicle_type_id":"4","last_reported":1744052856,"current_range_meters":8000,"station_id":"ce4bhr92rcd13ifvqhsg","pricing_plan_id":"cebpf4jnsgd1na2vs0mg"},{"bike_id":"7b30b772-8bed-4dd6-bb6b-36db6de85526","system_id":"levelo_inurba_marseille","lat":43.29877,"lon":5.39714,"is_reserved":false,"is_disabled":false,"rental_uris":{"android":"levelo://app?vid=7b30b772-8bed-4dd6-bb6b-36db6de85526","ios":"levelo://app?vid=7b30b772-8bed-4dd6-bb6b-36db6de85526"},"vehicle_type_id":"4","last_reported":1744052856,"current_range_meters":8000,"station_id":"ce4bh0h2rcd13ifvqd50","pricing_plan_id":"cebpf4jnsgd1na2vs0mg"},{"bike_id":"c3e6d442-6282-4c88-9f90-93d85aff9e76","system_id":"levelo_inurba_marseille","lat":43.28146,"lon":5.42684,"is_reserved":false,"is_disabled":false,"rental_uris":{"android":"levelo://app?vid=c3e6d442-6282-4c88-9f90-93d85aff9e76","ios":"levelo://app?vid=c3e6d442-6282-4c88-9f90-93d85aff9e76"},"vehicle_type_id":"4","last_reported":1744052856,"current_range_meters":8000,"station_id":"ce4bhnh2rcd13ifvqgug","pricing_plan_id":"cebpf4jnsgd1na2vs0mg"},{"bike_id":"516d1131-8d22-4c00-9743-8f8296b9be79","system_id":"levelo_inurba_marseille","lat":43.25546,"lon":5.3762,"is_reserved":false,"is_disabled":true,"rental_uris":{"android":"levelo://app?vid=516d1131-8d22-4c00-9743-8f8296b9be79","ios":"levelo://app?vid=516d1131-8d22-4c00-9743-8f8296b9be79"},"vehicle_type_id":"4","last_reported":1744052856,"current_range_meters":8000,"station_id":"","pricing_plan_id":"cebpf4jnsgd1na2vs0mg"},{"bike_id":"909e2664-11bd-4df8-bebf-6eff5570fba4","system_id":"levelo_inurba_marseille","lat":43.2942,"lon":5.38617,"is_reserved":false,"is_disabled":false,"rental_uris":{"android":"levelo://app?vid=909e2664-11bd-4df8-bebf-6eff5570fba4","ios":"levelo://app?vid=909e2664-11bd-4df8-bebf-6eff5570fba4"},"vehicle_type_id":"4","last_reported":1744052856,"current_range_meters":8000,"station_id":"ce4bh2h2rcd13ifvqdh0","pricing_plan_id":"cebpf4jnsgd1na2vs0mg"},{"bike_id":"7c49e682-e77e-4b13-b7aa-05698060056c","system_id":"levelo_inurba_marseille","lat":43.28842,"lon":5.35852,"is_reserved":false,"is_disabled":false,"rental_uris":{"android":"levelo://app?vid=7c49e682-e77e-4b13-b7aa-05698060056c","ios":"levelo://app?vid=7c49e682-e77e-4b13-b7aa-05698060056c"},"vehicle_type_id":"4","last_reported":1744052856,"current_range_meters":8000,"station_id":"ce4bhb12rcd13ifvqem0","pricing_plan_id":"cebpf4jnsgd1na2vs0mg"},{"bike_id":"454ad229-ae8c-47df-9402-1bfe4abd3acd","system_id":"levelo_inurba_marseille","lat":43.28159,"lon":5.42653,"is_reserved":false,"is_disabled":false,"rental_uris":{"android":"levelo://app?vid=454ad229-ae8c-47df-9402-1bfe4abd3acd","ios":"levelo://app?vid=454ad229-ae8c-47df-9402-1bfe4abd3acd"},"vehicle_type_id":"4","last_reported":1744052856,"current_range_meters":8000,"station_id":"ce4bhnh2rcd13ifvqgug","pricing_plan_id":"cebpf4jnsgd1na2vs0mg"},{"bike_id":"5d2287c0-4ada-4563-8c65-f98548c3fa0f","system_id":"levelo_inurba_marseille","lat":43.2846,"lon":5.35887,"is_reserved":false,"is_disabled":false,"rental_uris":{"android":"levelo://app?vid=5d2287c0-4ada-4563-8c65-f98548c3fa0f","ios":"levelo://app?vid=5d2287c0-4ada-4563-8c65-f98548c3fa0f"},"vehicle_type_id":"4","last_reported":1744052856,"current_range_meters":7200,"station_id":"ce4bhah2rcd13ifvqei0","pricing_plan_id":"cebpf4jnsgd1na2vs0mg"},{"bike_id":"9ca4f843-dcad-4f45-8d26-7c4dac79f76c","system_id":"levelo_inurba_marseille","lat":43.2991,"lon":5.38152,"is_reserved":false,"is_disabled":false,"rental_uris":{"android":"levelo://app?vid=9ca4f843-dcad-4f45-8d26-7c4dac79f76c","ios":"levelo://app?vid=9ca4f843-dcad-4f45-8d26-7c4dac79f76c"},"vehicle_type_id":"4","last_reported":1744052856,"current_range_meters":8400,"station_id":"ce4bgj12rcd13ifvqbc0","pricing_plan_id":"cebpf4jnsgd1na2vs0mg"},{"bike_id":"26185945-03a1-4050-ba84-d21a74b1f8e4","system_id":"levelo_inurba_marseille","lat":43.29275,"lon":5.36845,"is_reserved":false,"is_disabled":false,"rental_uris":{"android":"levelo://app?vid=26185945-03a1-4050-ba84-d21a74b1f8e4","ios":"levelo://app?vid=26185945-03a1-4050-ba84-d21a74b1f8e4"},"vehicle_type_id":"4","last_reported":1744052856,"current_range_meters":8400,"station_id":"ce4bhbp2rcd13ifvqesg","pricing_plan_id":"cebpf4jnsgd1na2vs0mg"},{"bike_id":"6bcd1981-cf12-4bae-bbdd-c30cfb519553","system_id":"levelo_inurba_marseille","lat":43.31172,"lon":5.38701,"is_reserved":false,"is_disabled":true,"rental_uris":{"android":"levelo://app?vid=6bcd1981-cf12-4bae-bbdd-c30cfb519553","ios":"levelo://app?vid=6bcd1981-cf12-4bae-bbdd-c30cfb519553"},"vehicle_type_id":"4","last_reported":1744052856,"current_range_meters":8400,"station_id":"ce4bgv12rcd13ifvqcp0","pricing_plan_id":"cebpf4jnsgd1na2vs0mg"},{"bike_id":"8a38320c-a733-4cf5-8c8e-152497fe8f8f","system_id":"levelo_inurba_marseille","lat":43.281545,"lon":5.426358,"is_reserved":false,"is_disabled":false,"rental_uris":{"android":"levelo://app?vid=8a38320c-a733-4cf5-8c8e-152497fe8f8f","ios":"levelo://app?vid=8a38320c-a733-4cf5-8c8e-152497fe8f8f"},"vehicle_type_id":"4","last_reported":1744052856,"current_range_meters":8400,"station_id":"ce4bhnh2rcd13ifvqgug","pricing_plan_id":"cebpf4jnsgd1na2vs0mg"},{"bike_id":"5b56bc0f-3caf-41b3-b8e7-48ec605acb0b","system_id":"levelo_inurba_marseille","lat":43.29297,"lon":5.37462,"is_reserved":false,"is_disabled":false,"rental_uris":{"android":"levelo://app?vid=5b56bc0f-3caf-41b3-b8e7-48ec605acb0b","ios":"levelo://app?vid=5b56bc0f-3caf-41b3-b8e7-48ec605acb0b"},"vehicle_type_id":"4","last_reported":1744052856,"current_range_meters":8000,"station_id":"ce4bgi12rcd13ifvqb70","pricing_plan_id":"cebpf4jnsgd1na2vs0mg"},{"bike_id":"3a6cf4dd-4a04-48a6-bbfb-6b1ea18759b5","system_id":"levelo_inurba_marseille","lat":43.32379,"lon":5.36775,"is_reserved":false,"is_disabled":false,"rental_uris":{"android":"levelo://app?vid=3a6cf4dd-4a04-48a6-bbfb-6b1ea18759b5","ios":"levelo://app?vid=3a6cf4dd-4a04-48a6-bbfb-6b1ea18759b5"},"vehicle_type_id":"4","last_reported":1744052856,"current_range_meters":8400,"station_id":"ce4bhsh2rcd13ifvqi2g","pricing_plan_id":"cebpf4jnsgd1na2vs0mg"},{"bike_id":"68c32485-b48e-414f-b1f5-6e4abcf1d274","system_id":"levelo_inurba_marseille","lat":43.28425,"lon":5.34984,"is_reserved":false,"is_disabled":false,"rental_uris":{"android":"levelo://app?vid=68c32485-b48e-414f-b1f5-6e4abcf1d274","ios":"levelo://app?vid=68c32485-b48e-414f-b1f5-6e4abcf1d274"},"vehicle_type_id":"4","last_reported":1744052856,"current_range_meters":8400,"station_id":"ce4bhbh2rcd13ifvqepg","pricing_plan_id":"cebpf4jnsgd1na2vs0mg"},{"bike_id":"ebc84582-195b-4b4a-b4a4-256c36fe0b00","system_id":"levelo_inurba_marseille","lat":43.27061,"lon":5.42266,"is_reserved":false,"is_disabled":false,"rental_uris":{"android":"levelo://app?vid=ebc84582-195b-4b4a-b4a4-256c36fe0b00","ios":"levelo://app?vid=ebc84582-195b-4b4a-b4a4-256c36fe0b00"},"vehicle_type_id":"4","last_reported":1744052856,"current_range_meters":8400,"station_id":"ce4bhk92rcd13ifvqgb0","pricing_plan_id":"cebpf4jnsgd1na2vs0mg"},{"bike_id":"755acd57-59ea-49ed-ad6a-698107bd5c37","system_id":"levelo_inurba_marseille","lat":43.323549,"lon":5.367506,"is_reserved":false,"is_disabled":false,"rental_uris":{"android":"levelo://app?vid=755acd57-59ea-49ed-ad6a-698107bd5c37","ios":"levelo://app?vid=755acd57-59ea-49ed-ad6a-698107bd5c37"},"vehicle_type_id":"4","last_reported":1744052856,"current_range_meters":8400,"station_id":"ce4bhsh2rcd13ifvqi2g","pricing_plan_id":"cebpf4jnsgd1na2vs0mg"},{"bike_id":"e973de3c-0913-4ed0-ac6e-7648e98f8d97","system_id":"levelo_inurba_marseille","lat":43.24812,"lon":5.37456,"is_reserved":false,"is_disabled":false,"rental_uris":{"android":"levelo://app?vid=e973de3c-0913-4ed0-ac6e-7648e98f8d97","ios":"levelo://app?vid=e973de3c-0913-4ed0-ac6e-7648e98f8d97"},"vehicle_type_id":"4","last_reported":1744052856,"current_range_meters":8400,"station_id":"ce4bhgh2rcd13ifvqfb0","pricing_plan_id":"cebpf4jnsgd1na2vs0mg"},{"bike_id":"f3b83e8a-c65f-4f5d-8899-2b84c089f530","system_id":"levelo_inurba_marseille","lat":43.32109,"lon":5.36764,"is_reserved":false,"is_disabled":false,"rental_uris":{"android":"levelo://app?vid=f3b83e8a-c65f-4f5d-8899-2b84c089f530","ios":"levelo://app?vid=f3b83e8a-c65f-4f5d-8899-2b84c089f530"},"vehicle_type_id":"4","last_reported":1744052856,"current_range_meters":8400,"station_id":"ce4bhrh2rcd13ifvqhug","pricing_plan_id":"cebpf4jnsgd1na2vs0mg"},{"bike_id":"a959694d-18ce-4d80-917f-23c91ed81065","system_id":"levelo_inurba_marseille","lat":43.29901,"lon":5.43669,"is_reserved":false,"is_disabled":false,"rental_uris":{"android":"levelo://app?vid=a959694d-18ce-4d80-917f-23c91ed81065","ios":"levelo://app?vid=a959694d-18ce-4d80-917f-23c91ed81065"},"vehicle_type_id":"4","last_reported":1744052856,"current_range_meters":8400,"station_id":"ce4bhpp2rcd13ifvqhfg","pricing_plan_id":"cebpf4jnsgd1na2vs0mg"},{"bike_id":"73276e73-379c-4215-bfe8-0a4cdf26f8fb","system_id":"levelo_inurba_marseille","lat":43.27386,"lon":5.3626,"is_reserved":false,"is_disabled":true,"rental_uris":{"android":"levelo://app?vid=73276e73-379c-4215-bfe8-0a4cdf26f8fb","ios":"levelo://app?vid=73276e73-379c-4215-bfe8-0a4cdf26f8fb"},"vehicle_type_id":"4","last_reported":1744052856,"current_range_meters":8400,"station_id":"ce4bhbh2rcd13ifvqeo0","pricing_plan_id":"cebpf4jnsgd1na2vs0mg"},{"bike_id":"d023cb83-7489-43ba-981e-e29c23958648","system_id":"levelo_inurba_marseille","lat":43.295291,"lon":5.390409,"is_reserved":false,"is_disabled":false,"rental_uris":{"android":"levelo://app?vid=d023cb83-7489-43ba-981e-e29c23958648","ios":"levelo://app?vid=d023cb83-7489-43ba-981e-e29c23958648"},"vehicle_type_id":"4","last_reported":1744052856,"current_range_meters":8400,"station_id":"","pricing_plan_id":"cebpf4jnsgd1na2vs0mg"},{"bike_id":"f7fbf500-59c4-4c49-9dfe-dc95344ef2a6","system_id":"levelo_inurba_marseille","lat":43.2836,"lon":5.38117,"is_reserved":false,"is_disabled":false,"rental_uris":{"android":"levelo://app?vid=f7fbf500-59c4-4c49-9dfe-dc95344ef2a6","ios":"levelo://app?vid=f7fbf500-59c4-4c49-9dfe-dc95344ef2a6"},"vehicle_type_id":"4","last_reported":1744052856,"current_range_meters":8000,"station_id":"ce4bh412rcd13ifvqdr0","pricing_plan_id":"cebpf4jnsgd1na2vs0mg"},{"bike_id":"d0b769d4-acda-4a9a-ae13-b4d2ecb3217a","system_id":"levelo_inurba_marseille","lat":43.24663,"lon":5.38161,"is_reserved":false,"is_disabled":false,"rental_uris":{"android":"levelo://app?vid=d0b769d4-acda-4a9a-ae13-b4d2ecb3217a","ios":"levelo://app?vid=d0b769d4-acda-4a9a-ae13-b4d2ecb3217a"},"vehicle_type_id":"4","last_reported":1744052856,"current_range_meters":8400,"station_id":"ce4bhih2rcd13ifvqfr0","pricing_plan_id":"cebpf4jnsgd1na2vs0mg"},{"bike_id":"bd3970ff-aa23-4942-99b6-af83f724ece8","system_id":"levelo_inurba_marseille","lat":43.294464,"lon":5.385406,"is_reserved":false,"is_disabled":false,"rental_uris":{"android":"levelo://app?vid=bd3970ff-aa23-4942-99b6-af83f724ece8","ios":"levelo://app?vid=bd3970ff-aa23-4942-99b6-af83f724ece8"},"vehicle_type_id":"4","last_reported":1744052856,"current_range_meters":8000,"station_id":"ce4bh612rcd13ifvqe6g","pricing_plan_id":"cebpf4jnsgd1na2vs0mg"},{"bike_id":"19b3010c-dc41-487c-915c-9a18e867c9d3","system_id":"levelo_inurba_marseille","lat":43.293,"lon":5.37468,"is_reserved":false,"is_disabled":false,"rental_uris":{"android":"levelo://app?vid=19b3010c-dc41-487c-915c-9a18e867c9d3","ios":"levelo://app?vid=19b3010c-dc41-487c-915c-9a18e867c9d3"},"vehicle_type_id":"4","last_reported":1744052856,"current_range_meters":8400,"station_id":"ce4bgi12rcd13ifvqb70","pricing_plan_id":"cebpf4jnsgd1na2vs0mg"},{"bike_id":"2d3b5feb-87ae-443e-af61-9d8aa3624181","system_id":"levelo_inurba_marseille","lat":43.254932,"lon":5.376482,"is_reserved":false,"is_disabled":false,"rental_uris":{"android":"levelo://app?vid=2d3b5feb-87ae-443e-af61-9d8aa3624181","ios":"levelo://app?vid=2d3b5feb-87ae-443e-af61-9d8aa3624181"},"vehicle_type_id":"4","last_reported":1744052856,"current_range_meters":8800,"station_id":"ce4bhh12rcd13ifvqff0","pricing_plan_id":"cebpf4jnsgd1na2vs0mg"},{"bike_id":"3197b0bf-ab2d-49e1-82fd-109691e437c9","system_id":"levelo_inurba_marseille","lat":43.28459,"lon":5.3589,"is_reserved":false,"is_disabled":false,"rental_uris":{"android":"levelo://app?vid=3197b0bf-ab2d-49e1-82fd-109691e437c9","ios":"levelo://app?vid=3197b0bf-ab2d-49e1-82fd-109691e437c9"},"vehicle_type_id":"4","last_reported":1744052856,"current_range_meters":8800,"station_id":"ce4bhah2rcd13ifvqei0","pricing_plan_id":"cebpf4jnsgd1na2vs0mg"},{"bike_id":"87bda883-ac94-49fc-94c2-3a86e52b4f97","system_id":"levelo_inurba_marseille","lat":43.307385,"lon":5.383565,"is_reserved":false,"is_disabled":false,"rental_uris":{"android":"levelo://app?vid=87bda883-ac94-49fc-94c2-3a86e52b4f97","ios":"levelo://app?vid=87bda883-ac94-49fc-94c2-3a86e52b4f97"},"vehicle_type_id":"4","last_reported":1744052856,"current_range_meters":9200,"station_id":"","pricing_plan_id":"cebpf4jnsgd1na2vs0mg"},{"bike_id":"71087a5b-02b6-4a46-932a-009561f906a3","system_id":"levelo_inurba_marseille","lat":43.28939,"lon":5.36629,"is_reserved":false,"is_disabled":true,"rental_uris":{"android":"levelo://app?vid=71087a5b-02b6-4a46-932a-009561f906a3","ios":"levelo://app?vid=71087a5b-02b6-4a46-932a-009561f906a3"},"vehicle_type_id":"4","last_reported":1744052856,"current_range_meters":8800,"station_id":"ce4bhap2rcd13ifvqek0","pricing_plan_id":"cebpf4jnsgd1na2vs0mg"},{"bike_id":"24101b69-192e-4733-9401-417177f71fc4","system_id":"levelo_inurba_marseille","lat":43.29917,"lon":5.37476,"is_reserved":false,"is_disabled":false,"rental_uris":{"android":"levelo://app?vid=24101b69-192e-4733-9401-417177f71fc4","ios":"levelo://app?vid=24101b69-192e-4733-9401-417177f71fc4"},"vehicle_type_id":"4","last_reported":1744052856,"current_range_meters":8800,"station_id":"ce4bgjh2rcd13ifvqbg0","pricing_plan_id":"cebpf4jnsgd1na2vs0mg"},{"bike_id":"e223670b-5545-4017-934f-c2adf2f3c08b","system_id":"levelo_inurba_marseille","lat":43.27068,"lon":5.42267,"is_reserved":false,"is_disabled":false,"rental_uris":{"android":"levelo://app?vid=e223670b-5545-4017-934f-c2adf2f3c08b","ios":"levelo://app?vid=e223670b-5545-4017-934f-c2adf2f3c08b"},"vehicle_type_id":"4","last_reported":1744052856,"current_range_meters":8800,"station_id":"ce4bhk92rcd13ifvqgb0","pricing_plan_id":"cebpf4jnsgd1na2vs0mg"},{"bike_id":"dc373a8f-2fb5-45d6-8f67-bcb08a32e91a","system_id":"levelo_inurba_marseille","lat":43.28856,"lon":5.39324,"is_reserved":false,"is_disabled":true,"rental_uris":{"android":"levelo://app?vid=dc373a8f-2fb5-45d6-8f67-bcb08a32e91a","ios":"levelo://app?vid=dc373a8f-2fb5-45d6-8f67-bcb08a32e91a"},"vehicle_type_id":"4","last_reported":1744052856,"current_range_meters":8800,"station_id":"ce4bh2p2rcd13ifvqdi0","pricing_plan_id":"cebpf4jnsgd1na2vs0mg"},{"bike_id":"7ae1c95c-1e2c-400a-8efd-618212ebe707","system_id":"levelo_inurba_marseille","lat":43.3154,"lon":5.38051,"is_reserved":false,"is_disabled":false,"rental_uris":{"android":"levelo://app?vid=7ae1c95c-1e2c-400a-8efd-618212ebe707","ios":"levelo://app?vid=7ae1c95c-1e2c-400a-8efd-618212ebe707"},"vehicle_type_id":"4","last_reported":1744052856,"current_range_meters":8800,"station_id":"ce4bhsp2rcd13ifvqi50","pricing_plan_id":"cebpf4jnsgd1na2vs0mg"},{"bike_id":"21ad2b20-e326-40c8-a3d6-b2092488dc26","system_id":"levelo_inurba_marseille","lat":43.24373,"lon":5.37006,"is_reserved":false,"is_disabled":false,"rental_uris":{"android":"levelo://app?vid=21ad2b20-e326-40c8-a3d6-b2092488dc26","ios":"levelo://app?vid=21ad2b20-e326-40c8-a3d6-b2092488dc26"},"vehicle_type_id":"4","last_reported":1744052856,"current_range_meters":8800,"station_id":"","pricing_plan_id":"cebpf4jnsgd1na2vs0mg"},{"bike_id":"1e135bb9-2996-44c8-a5fc-6958b4edfbec","system_id":"levelo_inurba_marseille","lat":43.28696,"lon":5.37391,"is_reserved":false,"is_disabled":false,"rental_uris":{"android":"levelo://app?vid=1e135bb9-2996-44c8-a5fc-6958b4edfbec","ios":"levelo://app?vid=1e135bb9-2996-44c8-a5fc-6958b4edfbec"},"vehicle_type_id":"4","last_reported":1744052856,"current_range_meters":9200,"station_id":"ce4bh3p2rcd13ifvqdq0","pricing_plan_id":"cebpf4jnsgd1na2vs0mg"},{"bike_id":"08e4998a-1903-4cbe-92e4-a068e610e269","system_id":"levelo_inurba_marseille","lat":43.28624,"lon":5.35106,"is_reserved":false,"is_disabled":false,"rental_uris":{"android":"levelo://app?vid=08e4998a-1903-4cbe-92e4-a068e610e269","ios":"levelo://app?vid=08e4998a-1903-4cbe-92e4-a068e610e269"},"vehicle_type_id":"4","last_reported":1744052856,"current_range_meters":9200,"station_id":"ce4bhch2rcd13ifvqeug","pricing_plan_id":"cebpf4jnsgd1na2vs0mg"},{"bike_id":"4f9035ff-8f54-4f29-9066-ebc9ba8e1dd8","system_id":"levelo_inurba_marseille","lat":43.28433,"lon":5.37528,"is_reserved":false,"is_disabled":false,"rental_uris":{"android":"levelo://app?vid=4f9035ff-8f54-4f29-9066-ebc9ba8e1dd8","ios":"levelo://app?vid=4f9035ff-8f54-4f29-9066-ebc9ba8e1dd8"},"vehicle_type_id":"4","last_reported":1744052856,"current_range_meters":9200,"station_id":"ce4bh412rcd13ifvqds0","pricing_plan_id":"cebpf4jnsgd1na2vs0mg"},{"bike_id":"b2f15075-c51b-4a93-8789-58048368fe8a","system_id":"levelo_inurba_marseille","lat":43.26225,"lon":5.4045,"is_reserved":false,"is_disabled":false,"rental_uris":{"android":"levelo://app?vid=b2f15075-c51b-4a93-8789-58048368fe8a","ios":"levelo://app?vid=b2f15075-c51b-4a93-8789-58048368fe8a"},"vehicle_type_id":"4","last_reported":1744052856,"current_range_meters":9200,"station_id":"ce4bhmh2rcd13ifvqgmg","pricing_plan_id":"cebpf4jnsgd1na2vs0mg"},{"bike_id":"b23b9655-e473-456b-9ad4-83de4968d0ee","system_id":"levelo_inurba_marseille","lat":43.28865,"lon":5.35857,"is_reserved":false,"is_disabled":false,"rental_uris":{"android":"levelo://app?vid=b23b9655-e473-456b-9ad4-83de4968d0ee","ios":"levelo://app?vid=b23b9655-e473-456b-9ad4-83de4968d0ee"},"vehicle_type_id":"4","last_reported":1744052856,"current_range_meters":9200,"station_id":"ce4bhb12rcd13ifvqem0","pricing_plan_id":"cebpf4jnsgd1na2vs0mg"},{"bike_id":"5a955c92-6040-49d6-8db0-3b8ab7c4938d","system_id":"levelo_inurba_marseille","lat":43.31886,"lon":5.40751,"is_reserved":false,"is_disabled":false,"rental_uris":{"android":"levelo://app?vid=5a955c92-6040-49d6-8db0-3b8ab7c4938d","ios":"levelo://app?vid=5a955c92-6040-49d6-8db0-3b8ab7c4938d"},"vehicle_type_id":"4","last_reported":1744052856,"current_range_meters":9200,"station_id":"ce4bhq12rcd13ifvqhig","pricing_plan_id":"cebpf4jnsgd1na2vs0mg"},{"bike_id":"1a58a830-97d6-479c-b929-678336cf052d","system_id":"levelo_inurba_marseille","lat":43.31059,"lon":5.38337,"is_reserved":false,"is_disabled":false,"rental_uris":{"android":"levelo://app?vid=1a58a830-97d6-479c-b929-678336cf052d","ios":"levelo://app?vid=1a58a830-97d6-479c-b929-678336cf052d"},"vehicle_type_id":"4","last_reported":1744052856,"current_range_meters":9200,"station_id":"ce4bgv92rcd13ifvqcr0","pricing_plan_id":"cebpf4jnsgd1na2vs0mg"},{"bike_id":"de0e4ce4-b5e7-4884-9f7b-7fa35cc8048d","system_id":"levelo_inurba_marseille","lat":43.29027,"lon":5.38643,"is_reserved":false,"is_disabled":false,"rental_uris":{"android":"levelo://app?vid=de0e4ce4-b5e7-4884-9f7b-7fa35cc8048d","ios":"levelo://app?vid=de0e4ce4-b5e7-4884-9f7b-7fa35cc8048d"},"vehicle_type_id":"4","last_reported":1744052856,"current_range_meters":9200,"station_id":"ce4bh4p2rcd13ifvqe0g","pricing_plan_id":"cebpf4jnsgd1na2vs0mg"},{"bike_id":"cc057f14-b1e1-4dee-b107-8741c01c5964","system_id":"levelo_inurba_marseille","lat":43.32111,"lon":5.36779,"is_reserved":false,"is_disabled":true,"rental_uris":{"android":"levelo://app?vid=cc057f14-b1e1-4dee-b107-8741c01c5964","ios":"levelo://app?vid=cc057f14-b1e1-4dee-b107-8741c01c5964"},"vehicle_type_id":"4","last_reported":1744052856,"current_range_meters":9200,"station_id":"ce4bhrh2rcd13ifvqhug","pricing_plan_id":"cebpf4jnsgd1na2vs0mg"},{"bike_id":"8138ea8d-8c2d-4a4b-b778-00ed8c220ce5","system_id":"levelo_inurba_marseille","lat":43.30664,"lon":5.40077,"is_reserved":false,"is_disabled":false,"rental_uris":{"android":"levelo://app?vid=8138ea8d-8c2d-4a4b-b778-00ed8c220ce5","ios":"levelo://app?vid=8138ea8d-8c2d-4a4b-b778-00ed8c220ce5"},"vehicle_type_id":"4","last_reported":1744052856,"current_range_meters":9200,"station_id":"ce4bh112rcd13ifvqda0","pricing_plan_id":"cebpf4jnsgd1na2vs0mg"},{"bike_id":"e43179e7-9ea1-42f1-8703-ea2392df2443","system_id":"levelo_inurba_marseille","lat":43.29422,"lon":5.38629,"is_reserved":false,"is_disabled":false,"rental_uris":{"android":"levelo://app?vid=e43179e7-9ea1-42f1-8703-ea2392df2443","ios":"levelo://app?vid=e43179e7-9ea1-42f1-8703-ea2392df2443"},"vehicle_type_id":"4","last_reported":1744052856,"current_range_meters":9600,"station_id":"ce4bh2h2rcd13ifvqdh0","pricing_plan_id":"cebpf4jnsgd1na2vs0mg"},{"bike_id":"b2deccc2-3273-4428-a01b-1656a9a457d0","system_id":"levelo_inurba_marseille","lat":43.30252,"lon":5.40076,"is_reserved":false,"is_disabled":false,"rental_uris":{"android":"levelo://app?vid=b2deccc2-3273-4428-a01b-1656a9a457d0","ios":"levelo://app?vid=b2deccc2-3273-4428-a01b-1656a9a457d0"},"vehicle_type_id":"4","last_reported":1744052856,"current_range_meters":9200,"station_id":"ce4bgvh2rcd13ifvqcs0","pricing_plan_id":"cebpf4jnsgd1na2vs0mg"},{"bike_id":"a63260f1-8813-4b13-9226-d487617af015","system_id":"levelo_inurba_marseille","lat":43.27061,"lon":5.40269,"is_reserved":false,"is_disabled":false,"rental_uris":{"android":"levelo://app?vid=a63260f1-8813-4b13-9226-d487617af015","ios":"levelo://app?vid=a63260f1-8813-4b13-9226-d487617af015"},"vehicle_type_id":"4","last_reported":1744052856,"current_range_meters":9600,"station_id":"ce4bhk92rcd13ifvqgc0","pricing_plan_id":"cebpf4jnsgd1na2vs0mg"},{"bike_id":"d172a948-5b54-446c-9325-17335baba5c1","system_id":"levelo_inurba_marseille","lat":43.29374,"lon":5.37851,"is_reserved":false,"is_disabled":true,"rental_uris":{"android":"levelo://app?vid=d172a948-5b54-446c-9325-17335baba5c1","ios":"levelo://app?vid=d172a948-5b54-446c-9325-17335baba5c1"},"vehicle_type_id":"4","last_reported":1744052856,"current_range_meters":9600,"station_id":"ce4bgjh2rcd13ifvqbf0","pricing_plan_id":"cebpf4jnsgd1na2vs0mg"},{"bike_id":"3e071ab8-0af8-44f4-9b55-eef4e30116e6","system_id":"levelo_inurba_marseille","lat":43.27834,"lon":5.39207,"is_reserved":false,"is_disabled":false,"rental_uris":{"android":"levelo://app?vid=3e071ab8-0af8-44f4-9b55-eef4e30116e6","ios":"levelo://app?vid=3e071ab8-0af8-44f4-9b55-eef4e30116e6"},"vehicle_type_id":"4","last_reported":1744052856,"current_range_meters":9600,"station_id":"ce4bhjp2rcd13ifvqga0","pricing_plan_id":"cebpf4jnsgd1na2vs0mg"},{"bike_id":"f8961f89-d6f1-4b4e-a806-0cf089a169c0","system_id":"levelo_inurba_marseille","lat":43.29299,"lon":5.37468,"is_reserved":false,"is_disabled":false,"rental_uris":{"android":"levelo://app?vid=f8961f89-d6f1-4b4e-a806-0cf089a169c0","ios":"levelo://app?vid=f8961f89-d6f1-4b4e-a806-0cf089a169c0"},"vehicle_type_id":"4","last_reported":1744052856,"current_range_meters":9600,"station_id":"ce4bgi12rcd13ifvqb70","pricing_plan_id":"cebpf4jnsgd1na2vs0mg"},{"bike_id":"db77aa95-72db-470c-9c43-5322da612de8","system_id":"levelo_inurba_marseille","lat":43.31807,"lon":5.40192,"is_reserved":false,"is_disabled":false,"rental_uris":{"android":"levelo://app?vid=db77aa95-72db-470c-9c43-5322da612de8","ios":"levelo://app?vid=db77aa95-72db-470c-9c43-5322da612de8"},"vehicle_type_id":"4","last_reported":1744052856,"current_range_meters":9600,"station_id":"","pricing_plan_id":"cebpf4jnsgd1na2vs0mg"},{"bike_id":"6e668542-2fd8-4333-959c-ab95ed8a37e7","system_id":"levelo_inurba_marseille","lat":43.29527,"lon":5.39042,"is_reserved":false,"is_disabled":false,"rental_uris":{"android":"levelo://app?vid=6e668542-2fd8-4333-959c-ab95ed8a37e7","ios":"levelo://app?vid=6e668542-2fd8-4333-959c-ab95ed8a37e7"},"vehicle_type_id":"4","last_reported":1744052856,"current_range_meters":9600,"station_id":"ce4bh3p2rcd13ifvqdp0","pricing_plan_id":"cebpf4jnsgd1na2vs0mg"},{"bike_id":"14b3f9d4-3533-4279-b094-1355f1281d04","system_id":"levelo_inurba_marseille","lat":43.25569,"lon":5.38259,"is_reserved":false,"is_disabled":false,"rental_uris":{"android":"levelo://app?vid=14b3f9d4-3533-4279-b094-1355f1281d04","ios":"levelo://app?vid=14b3f9d4-3533-4279-b094-1355f1281d04"},"vehicle_type_id":"4","last_reported":1744052856,"current_range_meters":9600,"station_id":"ce4bhih2rcd13ifvqfs0","pricing_plan_id":"cebpf4jnsgd1na2vs0mg"},{"bike_id":"5ba02e57-e745-47ce-9b93-c851debe9e12","system_id":"levelo_inurba_marseille","lat":43.27198,"lon":5.40994,"is_reserved":false,"is_disabled":false,"rental_uris":{"android":"levelo://app?vid=5ba02e57-e745-47ce-9b93-c851debe9e12","ios":"levelo://app?vid=5ba02e57-e745-47ce-9b93-c851debe9e12"},"vehicle_type_id":"4","last_reported":1744052856,"current_range_meters":9600,"station_id":"ce4bhl12rcd13ifvqgf0","pricing_plan_id":"cebpf4jnsgd1na2vs0mg"},{"bike_id":"4e63bc7f-b907-45ea-bc67-f61c9be2b9d6","system_id":"levelo_inurba_marseille","lat":43.29984,"lon":5.38505,"is_reserved":false,"is_disabled":true,"rental_uris":{"android":"levelo://app?vid=4e63bc7f-b907-45ea-bc67-f61c9be2b9d6","ios":"levelo://app?vid=4e63bc7f-b907-45ea-bc67-f61c9be2b9d6"},"vehicle_type_id":"4","last_reported":1744052856,"current_range_meters":9600,"station_id":"ce4bgj92rcd13ifvqbd0","pricing_plan_id":"cebpf4jnsgd1na2vs0mg"},{"bike_id":"3cbad1fb-d71d-4e4f-90fa-c1465f9f9b65","system_id":"levelo_inurba_marseille","lat":43.21204,"lon":5.35088,"is_reserved":false,"is_disabled":false,"rental_uris":{"android":"levelo://app?vid=3cbad1fb-d71d-4e4f-90fa-c1465f9f9b65","ios":"levelo://app?vid=3cbad1fb-d71d-4e4f-90fa-c1465f9f9b65"},"vehicle_type_id":"4","last_reported":1744052856,"current_range_meters":9600,"station_id":"st_cvj6sg6p6f1abm77japg","pricing_plan_id":"cebpf4jnsgd1na2vs0mg"},{"bike_id":"ff0b2453-2fbb-467c-80b5-41964aa97aa4","system_id":"levelo_inurba_marseille","lat":43.31077,"lon":5.38366,"is_reserved":false,"is_disabled":false,"rental_uris":{"android":"levelo://app?vid=ff0b2453-2fbb-467c-80b5-41964aa97aa4","ios":"levelo://app?vid=ff0b2453-2fbb-467c-80b5-41964aa97aa4"},"vehicle_type_id":"4","last_reported":1744052856,"current_range_meters":9600,"station_id":"ce4bgv92rcd13ifvqcr0","pricing_plan_id":"cebpf4jnsgd1na2vs0mg"},{"bike_id":"50331bc9-3ff4-45df-bda4-49cc63118a84","system_id":"levelo_inurba_marseille","lat":43.27613,"lon":5.36142,"is_reserved":false,"is_disabled":false,"rental_uris":{"android":"levelo://app?vid=50331bc9-3ff4-45df-bda4-49cc63118a84","ios":"levelo://app?vid=50331bc9-3ff4-45df-bda4-49cc63118a84"},"vehicle_type_id":"4","last_reported":1744052856,"current_range_meters":10000,"station_id":"ce4bgj92rcd13ifvqbe0","pricing_plan_id":"cebpf4jnsgd1na2vs0mg"},{"bike_id":"a53244d2-ca1c-4c62-b4cd-9c4cfc95b2b1","system_id":"levelo_inurba_marseille","lat":43.3148,"lon":5.37311,"is_reserved":false,"is_disabled":false,"rental_uris":{"android":"levelo://app?vid=a53244d2-ca1c-4c62-b4cd-9c4cfc95b2b1","ios":"levelo://app?vid=a53244d2-ca1c-4c62-b4cd-9c4cfc95b2b1"},"vehicle_type_id":"4","last_reported":1744052856,"current_range_meters":10000,"station_id":"ce4bgt12rcd13ifvqcd0","pricing_plan_id":"cebpf4jnsgd1na2vs0mg"},{"bike_id":"750bc9c2-8244-4f27-a571-77c62d7d6b92","system_id":"levelo_inurba_marseille","lat":43.31308,"lon":5.3778,"is_reserved":false,"is_disabled":false,"rental_uris":{"android":"levelo://app?vid=750bc9c2-8244-4f27-a571-77c62d7d6b92","ios":"levelo://app?vid=750bc9c2-8244-4f27-a571-77c62d7d6b92"},"vehicle_type_id":"4","last_reported":1744052856,"current_range_meters":10000,"station_id":"","pricing_plan_id":"cebpf4jnsgd1na2vs0mg"},{"bike_id":"17d99dfd-747a-4c52-ac39-e535d04d1d82","system_id":"levelo_inurba_marseille","lat":43.28848,"lon":5.35851,"is_reserved":false,"is_disabled":false,"rental_uris":{"android":"levelo://app?vid=17d99dfd-747a-4c52-ac39-e535d04d1d82","ios":"levelo://app?vid=17d99dfd-747a-4c52-ac39-e535d04d1d82"},"vehicle_type_id":"4","last_reported":1744052856,"current_range_meters":10000,"station_id":"ce4bhb12rcd13ifvqem0","pricing_plan_id":"cebpf4jnsgd1na2vs0mg"},{"bike_id":"9389f907-78e2-4c8e-b008-de9739faa63f","system_id":"levelo_inurba_marseille","lat":43.33027,"lon":5.39439,"is_reserved":false,"is_disabled":false,"rental_uris":{"android":"levelo://app?vid=9389f907-78e2-4c8e-b008-de9739faa63f","ios":"levelo://app?vid=9389f907-78e2-4c8e-b008-de9739faa63f"},"vehicle_type_id":"4","last_reported":1744052856,"current_range_meters":10000,"station_id":"","pricing_plan_id":"cebpf4jnsgd1na2vs0mg"},{"bike_id":"89771962-fe60-4144-a8a6-39dd0f7b9fb3","system_id":"levelo_inurba_marseille","lat":43.21222,"lon":5.35058,"is_reserved":false,"is_disabled":false,"rental_uris":{"android":"levelo://app?vid=89771962-fe60-4144-a8a6-39dd0f7b9fb3","ios":"levelo://app?vid=89771962-fe60-4144-a8a6-39dd0f7b9fb3"},"vehicle_type_id":"4","last_reported":1744052856,"current_range_meters":10000,"station_id":"","pricing_plan_id":"cebpf4jnsgd1na2vs0mg"},{"bike_id":"8b497f79-9857-4c2e-ae6e-95b0d6ccbc52","system_id":"levelo_inurba_marseille","lat":43.32464,"lon":5.36582,"is_reserved":false,"is_disabled":true,"rental_uris":{"android":"levelo://app?vid=8b497f79-9857-4c2e-ae6e-95b0d6ccbc52","ios":"levelo://app?vid=8b497f79-9857-4c2e-ae6e-95b0d6ccbc52"},"vehicle_type_id":"4","last_reported":1744052856,"current_range_meters":10000,"station_id":"ce4bhs12rcd13ifvqhvg","pricing_plan_id":"cebpf4jnsgd1na2vs0mg"},{"bike_id":"7b3646e0-cbf2-40de-92a8-c829ec618775","system_id":"levelo_inurba_marseille","lat":43.32033,"lon":5.38132,"is_reserved":false,"is_disabled":true,"rental_uris":{"android":"levelo://app?vid=7b3646e0-cbf2-40de-92a8-c829ec618775","ios":"levelo://app?vid=7b3646e0-cbf2-40de-92a8-c829ec618775"},"vehicle_type_id":"4","last_reported":1744052856,"current_range_meters":10000,"station_id":"","pricing_plan_id":"cebpf4jnsgd1na2vs0mg"},{"bike_id":"a061eb6d-7b4b-43be-b402-6ce183ce47f3","system_id":"levelo_inurba_marseille","lat":43.27986,"lon":5.41662,"is_reserved":false,"is_disabled":false,"rental_uris":{"android":"levelo://app?vid=a061eb6d-7b4b-43be-b402-6ce183ce47f3","ios":"levelo://app?vid=a061eb6d-7b4b-43be-b402-6ce183ce47f3"},"vehicle_type_id":"4","last_reported":1744052856,"current_range_meters":10000,"station_id":"ce4bho12rcd13ifvqh1g","pricing_plan_id":"cebpf4jnsgd1na2vs0mg"},{"bike_id":"79537ffb-5232-4549-a0c1-44d0c11f25a2","system_id":"levelo_inurba_marseille","lat":43.3173,"lon":5.43733,"is_reserved":false,"is_disabled":false,"rental_uris":{"android":"levelo://app?vid=79537ffb-5232-4549-a0c1-44d0c11f25a2","ios":"levelo://app?vid=79537ffb-5232-4549-a0c1-44d0c11f25a2"},"vehicle_type_id":"4","last_reported":1744052856,"current_range_meters":10000,"station_id":"ce4bhp92rcd13ifvqhcg","pricing_plan_id":"cebpf4jnsgd1na2vs0mg"},{"bike_id":"d5336e05-c483-42e9-9d22-06117ee9ac14","system_id":"levelo_inurba_marseille","lat":43.28626,"lon":5.35093,"is_reserved":false,"is_disabled":false,"rental_uris":{"android":"levelo://app?vid=d5336e05-c483-42e9-9d22-06117ee9ac14","ios":"levelo://app?vid=d5336e05-c483-42e9-9d22-06117ee9ac14"},"vehicle_type_id":"4","last_reported":1744052856,"current_range_meters":10000,"station_id":"ce4bhch2rcd13ifvqeug","pricing_plan_id":"cebpf4jnsgd1na2vs0mg"},{"bike_id":"3d6afae4-d9ed-4e63-884e-626425068dc6","system_id":"levelo_inurba_marseille","lat":43.31364,"lon":5.38487,"is_reserved":false,"is_disabled":false,"rental_uris":{"android":"levelo://app?vid=3d6afae4-d9ed-4e63-884e-626425068dc6","ios":"levelo://app?vid=3d6afae4-d9ed-4e63-884e-626425068dc6"},"vehicle_type_id":"4","last_reported":1744052856,"current_range_meters":10000,"station_id":"ce4bgt92rcd13ifvqcf0","pricing_plan_id":"cebpf4jnsgd1na2vs0mg"},{"bike_id":"05d12fe5-5e20-40c2-8d1f-cf2706c101b7","system_id":"levelo_inurba_marseille","lat":43.24076,"lon":5.37755,"is_reserved":false,"is_disabled":false,"rental_uris":{"android":"levelo://app?vid=05d12fe5-5e20-40c2-8d1f-cf2706c101b7","ios":"levelo://app?vid=05d12fe5-5e20-40c2-8d1f-cf2706c101b7"},"vehicle_type_id":"4","last_reported":1744052856,"current_range_meters":10000,"station_id":"ce4bhnp2rcd13ifvqgvg","pricing_plan_id":"cebpf4jnsgd1na2vs0mg"},{"bike_id":"892a8b70-f096-4aab-b59d-4282869faee5","system_id":"levelo_inurba_marseille","lat":43.24829,"lon":5.37446,"is_reserved":false,"is_disabled":false,"rental_uris":{"android":"levelo://app?vid=892a8b70-f096-4aab-b59d-4282869faee5","ios":"levelo://app?vid=892a8b70-f096-4aab-b59d-4282869faee5"},"vehicle_type_id":"4","last_reported":1744052856,"current_range_meters":10000,"station_id":"ce4bhgh2rcd13ifvqfb0","pricing_plan_id":"cebpf4jnsgd1na2vs0mg"},{"bike_id":"bebb522c-04be-433b-905d-5d328f0bd36e","system_id":"levelo_inurba_marseille","lat":43.30439,"lon":5.39746,"is_reserved":false,"is_disabled":false,"rental_uris":{"android":"levelo://app?vid=bebb522c-04be-433b-905d-5d328f0bd36e","ios":"levelo://app?vid=bebb522c-04be-433b-905d-5d328f0bd36e"},"vehicle_type_id":"4","last_reported":1744052856,"current_range_meters":10000,"station_id":"ce4bh092rcd13ifvqd20","pricing_plan_id":"cebpf4jnsgd1na2vs0mg"},{"bike_id":"3988b2a7-96a3-402c-a5ae-44709191123f","system_id":"levelo_inurba_marseille","lat":43.29189,"lon":5.39314,"is_reserved":false,"is_disabled":false,"rental_uris":{"android":"levelo://app?vid=3988b2a7-96a3-402c-a5ae-44709191123f","ios":"levelo://app?vid=3988b2a7-96a3-402c-a5ae-44709191123f"},"vehicle_type_id":"4","last_reported":1744052856,"current_range_meters":10000,"station_id":"ce4bh192rcd13ifvqdd0","pricing_plan_id":"cebpf4jnsgd1na2vs0mg"},{"bike_id":"7b879770-1bbd-421d-9c8b-e0235cabedcf","system_id":"levelo_inurba_marseille","lat":43.25399,"lon":5.41938,"is_reserved":false,"is_disabled":false,"rental_uris":{"android":"levelo://app?vid=7b879770-1bbd-421d-9c8b-e0235cabedcf","ios":"levelo://app?vid=7b879770-1bbd-421d-9c8b-e0235cabedcf"},"vehicle_type_id":"4","last_reported":1744052856,"current_range_meters":10800,"station_id":"","pricing_plan_id":"cebpf4jnsgd1na2vs0mg"},{"bike_id":"151c5665-5fbd-495d-92fa-fa5baa84ee72","system_id":"levelo_inurba_marseille","lat":43.29868,"lon":5.39734,"is_reserved":false,"is_disabled":false,"rental_uris":{"android":"levelo://app?vid=151c5665-5fbd-495d-92fa-fa5baa84ee72","ios":"levelo://app?vid=151c5665-5fbd-495d-92fa-fa5baa84ee72"},"vehicle_type_id":"4","last_reported":1744052856,"current_range_meters":10800,"station_id":"ce4bh0h2rcd13ifvqd50","pricing_plan_id":"cebpf4jnsgd1na2vs0mg"},{"bike_id":"e53b9e9b-ac51-4f70-ad60-ed3149b8c178","system_id":"levelo_inurba_marseille","lat":43.31355,"lon":5.37343,"is_reserved":false,"is_disabled":false,"rental_uris":{"android":"levelo://app?vid=e53b9e9b-ac51-4f70-ad60-ed3149b8c178","ios":"levelo://app?vid=e53b9e9b-ac51-4f70-ad60-ed3149b8c178"},"vehicle_type_id":"4","last_reported":1744052856,"current_range_meters":10800,"station_id":"","pricing_plan_id":"cebpf4jnsgd1na2vs0mg"},{"bike_id":"4f4a13e7-6926-49c7-b0ea-2c8ae8d34576","system_id":"levelo_inurba_marseille","lat":43.256319,"lon":5.37681,"is_reserved":false,"is_disabled":false,"rental_uris":{"android":"levelo://app?vid=4f4a13e7-6926-49c7-b0ea-2c8ae8d34576","ios":"levelo://app?vid=4f4a13e7-6926-49c7-b0ea-2c8ae8d34576"},"vehicle_type_id":"4","last_reported":1744052856,"current_range_meters":10800,"station_id":"ce4bgk12rcd13ifvqbi0","pricing_plan_id":"cebpf4jnsgd1na2vs0mg"},{"bike_id":"4aa55ac3-6671-4389-ae58-5dbcc06deebe","system_id":"levelo_inurba_marseille","lat":43.28546,"lon":5.39476,"is_reserved":false,"is_disabled":false,"rental_uris":{"android":"levelo://app?vid=4aa55ac3-6671-4389-ae58-5dbcc06deebe","ios":"levelo://app?vid=4aa55ac3-6671-4389-ae58-5dbcc06deebe"},"vehicle_type_id":"4","last_reported":1744052856,"current_range_meters":10800,"station_id":"ce4bh292rcd13ifvqdg0","pricing_plan_id":"cebpf4jnsgd1na2vs0mg"},{"bike_id":"24270324-e8d5-41ee-bd67-9414d36909fc","system_id":"levelo_inurba_marseille","lat":43.2904,"lon":5.3865,"is_reserved":false,"is_disabled":false,"rental_uris":{"android":"levelo://app?vid=24270324-e8d5-41ee-bd67-9414d36909fc","ios":"levelo://app?vid=24270324-e8d5-41ee-bd67-9414d36909fc"},"vehicle_type_id":"4","last_reported":1744052856,"current_range_meters":10800,"station_id":"ce4bh4p2rcd13ifvqe0g","pricing_plan_id":"cebpf4jnsgd1na2vs0mg"},{"bike_id":"19224d95-e048-4cbb-8884-43e0e6b3db9b","system_id":"levelo_inurba_marseille","lat":43.29852,"lon":5.39739,"is_reserved":false,"is_disabled":true,"rental_uris":{"android":"levelo://app?vid=19224d95-e048-4cbb-8884-43e0e6b3db9b","ios":"levelo://app?vid=19224d95-e048-4cbb-8884-43e0e6b3db9b"},"vehicle_type_id":"4","last_reported":1744052856,"current_range_meters":10800,"station_id":"ce4bh0h2rcd13ifvqd50","pricing_plan_id":"cebpf4jnsgd1na2vs0mg"},{"bike_id":"9aac2fe2-cdbb-4c6c-a98a-ccac5f4e4d8e","system_id":"levelo_inurba_marseille","lat":43.27881,"lon":5.38005,"is_reserved":false,"is_disabled":false,"rental_uris":{"android":"levelo://app?vid=9aac2fe2-cdbb-4c6c-a98a-ccac5f4e4d8e","ios":"levelo://app?vid=9aac2fe2-cdbb-4c6c-a98a-ccac5f4e4d8e"},"vehicle_type_id":"4","last_reported":1744052856,"current_range_meters":10800,"station_id":"ce4bhf92rcd13ifvqf50","pricing_plan_id":"cebpf4jnsgd1na2vs0mg"},{"bike_id":"2787c4d7-36eb-4c05-abe5-c0ade5503385","system_id":"levelo_inurba_marseille","lat":43.2791,"lon":5.39576,"is_reserved":false,"is_disabled":false,"rental_uris":{"android":"levelo://app?vid=2787c4d7-36eb-4c05-abe5-c0ade5503385","ios":"levelo://app?vid=2787c4d7-36eb-4c05-abe5-c0ade5503385"},"vehicle_type_id":"4","last_reported":1744052856,"current_range_meters":10800,"station_id":"ce4bhf92rcd13ifvqf40","pricing_plan_id":"cebpf4jnsgd1na2vs0mg"},{"bike_id":"444a5f07-09c5-40f5-8d58-60f1f25c67b9","system_id":"levelo_inurba_marseille","lat":43.32001,"lon":5.3815,"is_reserved":false,"is_disabled":false,"rental_uris":{"android":"levelo://app?vid=444a5f07-09c5-40f5-8d58-60f1f25c67b9","ios":"levelo://app?vid=444a5f07-09c5-40f5-8d58-60f1f25c67b9"},"vehicle_type_id":"4","last_reported":1744052856,"current_range_meters":10800,"station_id":"ce4bhr12rcd13ifvqhpg","pricing_plan_id":"cebpf4jnsgd1na2vs0mg"},{"bike_id":"71d7400d-5ad0-4f16-a5fb-6abb34947ca0","system_id":"levelo_inurba_marseille","lat":43.301303,"lon":5.398594,"is_reserved":false,"is_disabled":false,"rental_uris":{"android":"levelo://app?vid=71d7400d-5ad0-4f16-a5fb-6abb34947ca0","ios":"levelo://app?vid=71d7400d-5ad0-4f16-a5fb-6abb34947ca0"},"vehicle_type_id":"4","last_reported":1744052856,"current_range_meters":11200,"station_id":"ce4bh0h2rcd13ifvqd40","pricing_plan_id":"cebpf4jnsgd1na2vs0mg"},{"bike_id":"f39be6f5-2f69-4c37-b021-559d20b299a4","system_id":"levelo_inurba_marseille","lat":43.30031,"lon":5.376,"is_reserved":false,"is_disabled":false,"rental_uris":{"android":"levelo://app?vid=f39be6f5-2f69-4c37-b021-559d20b299a4","ios":"levelo://app?vid=f39be6f5-2f69-4c37-b021-559d20b299a4"},"vehicle_type_id":"4","last_reported":1744052856,"current_range_meters":11600,"station_id":"","pricing_plan_id":"cebpf4jnsgd1na2vs0mg"},{"bike_id":"1e01d50e-cead-45bb-a3a4-7e0d04b7b063","system_id":"levelo_inurba_marseille","lat":43.2904,"lon":5.3865,"is_reserved":false,"is_disabled":true,"rental_uris":{"android":"levelo://app?vid=1e01d50e-cead-45bb-a3a4-7e0d04b7b063","ios":"levelo://app?vid=1e01d50e-cead-45bb-a3a4-7e0d04b7b063"},"vehicle_type_id":"4","last_reported":1744052856,"current_range_meters":11200,"station_id":"ce4bh4p2rcd13ifvqe0g","pricing_plan_id":"cebpf4jnsgd1na2vs0mg"},{"bike_id":"847cff54-9149-4fb3-8217-2338a6e302d9","system_id":"levelo_inurba_marseille","lat":43.2884,"lon":5.3586,"is_reserved":false,"is_disabled":false,"rental_uris":{"android":"levelo://app?vid=847cff54-9149-4fb3-8217-2338a6e302d9","ios":"levelo://app?vid=847cff54-9149-4fb3-8217-2338a6e302d9"},"vehicle_type_id":"4","last_reported":1744052856,"current_range_meters":11200,"station_id":"ce4bhb12rcd13ifvqem0","pricing_plan_id":"cebpf4jnsgd1na2vs0mg"},{"bike_id":"2e9000dc-6400-4918-a994-dd60039ca96d","system_id":"levelo_inurba_marseille","lat":43.31993,"lon":5.38152,"is_reserved":false,"is_disabled":true,"rental_uris":{"android":"levelo://app?vid=2e9000dc-6400-4918-a994-dd60039ca96d","ios":"levelo://app?vid=2e9000dc-6400-4918-a994-dd60039ca96d"},"vehicle_type_id":"4","last_reported":1744052856,"current_range_meters":11200,"station_id":"ce4bhr12rcd13ifvqhpg","pricing_plan_id":"cebpf4jnsgd1na2vs0mg"},{"bike_id":"7646bd0c-8d5c-4b84-ac07-f74aada3b683","system_id":"levelo_inurba_marseille","lat":43.2465,"lon":5.39026,"is_reserved":false,"is_disabled":false,"rental_uris":{"android":"levelo://app?vid=7646bd0c-8d5c-4b84-ac07-f74aada3b683","ios":"levelo://app?vid=7646bd0c-8d5c-4b84-ac07-f74aada3b683"},"vehicle_type_id":"4","last_reported":1744052856,"current_range_meters":11600,"station_id":"","pricing_plan_id":"cebpf4jnsgd1na2vs0mg"},{"bike_id":"13e161f2-45e3-4393-9a53-5a300d1a054d","system_id":"levelo_inurba_marseille","lat":43.28158,"lon":5.4265,"is_reserved":false,"is_disabled":false,"rental_uris":{"android":"levelo://app?vid=13e161f2-45e3-4393-9a53-5a300d1a054d","ios":"levelo://app?vid=13e161f2-45e3-4393-9a53-5a300d1a054d"},"vehicle_type_id":"4","last_reported":1744052856,"current_range_meters":11600,"station_id":"ce4bhnh2rcd13ifvqgug","pricing_plan_id":"cebpf4jnsgd1na2vs0mg"},{"bike_id":"87846fea-2a7d-4ecf-84f6-c1a120ac8997","system_id":"levelo_inurba_marseille","lat":43.2941,"lon":5.38622,"is_reserved":false,"is_disabled":false,"rental_uris":{"android":"levelo://app?vid=87846fea-2a7d-4ecf-84f6-c1a120ac8997","ios":"levelo://app?vid=87846fea-2a7d-4ecf-84f6-c1a120ac8997"},"vehicle_type_id":"4","last_reported":1744052856,"current_range_meters":11600,"station_id":"ce4bh2h2rcd13ifvqdh0","pricing_plan_id":"cebpf4jnsgd1na2vs0mg"},{"bike_id":"257d1c02-5396-419e-a612-6a8a1704493e","system_id":"levelo_inurba_marseille","lat":43.29024,"lon":5.3755,"is_reserved":false,"is_disabled":true,"rental_uris":{"android":"levelo://app?vid=257d1c02-5396-419e-a612-6a8a1704493e","ios":"levelo://app?vid=257d1c02-5396-419e-a612-6a8a1704493e"},"vehicle_type_id":"4","last_reported":1744052856,"current_range_meters":11600,"station_id":"ce4bh692rcd13ifvqe90","pricing_plan_id":"cebpf4jnsgd1na2vs0mg"},{"bike_id":"e1f6ef10-16ce-4440-bda5-cfffa029a3b7","system_id":"levelo_inurba_marseille","lat":43.28345,"lon":5.38093,"is_reserved":false,"is_disabled":false,"rental_uris":{"android":"levelo://app?vid=e1f6ef10-16ce-4440-bda5-cfffa029a3b7","ios":"levelo://app?vid=e1f6ef10-16ce-4440-bda5-cfffa029a3b7"},"vehicle_type_id":"4","last_reported":1744052856,"current_range_meters":11600,"station_id":"ce4bh412rcd13ifvqdr0","pricing_plan_id":"cebpf4jnsgd1na2vs0mg"},{"bike_id":"b14741f3-a96f-4111-be95-1d93619463b4","system_id":"levelo_inurba_marseille","lat":43.29038,"lon":5.37564,"is_reserved":false,"is_disabled":false,"rental_uris":{"android":"levelo://app?vid=b14741f3-a96f-4111-be95-1d93619463b4","ios":"levelo://app?vid=b14741f3-a96f-4111-be95-1d93619463b4"},"vehicle_type_id":"4","last_reported":1744052856,"current_range_meters":11600,"station_id":"ce4bh692rcd13ifvqe90","pricing_plan_id":"cebpf4jnsgd1na2vs0mg"},{"bike_id":"c8aa664a-4796-4c11-a066-04ca1586721a","system_id":"levelo_inurba_marseille","lat":43.2934,"lon":5.3715,"is_reserved":false,"is_disabled":false,"rental_uris":{"android":"levelo://app?vid=c8aa664a-4796-4c11-a066-04ca1586721a","ios":"levelo://app?vid=c8aa664a-4796-4c11-a066-04ca1586721a"},"vehicle_type_id":"4","last_reported":1744052856,"current_range_meters":12000,"station_id":"ce4bgh92rcd13ifvqb40","pricing_plan_id":"cebpf4jnsgd1na2vs0mg"},{"bike_id":"9119ecaa-4b7b-43d1-ac0a-74475dda5e24","system_id":"levelo_inurba_marseille","lat":43.29574,"lon":5.39961,"is_reserved":false,"is_disabled":false,"rental_uris":{"android":"levelo://app?vid=9119ecaa-4b7b-43d1-ac0a-74475dda5e24","ios":"levelo://app?vid=9119ecaa-4b7b-43d1-ac0a-74475dda5e24"},"vehicle_type_id":"4","last_reported":1744052856,"current_range_meters":11600,"station_id":"ce4bh312rcd13ifvqdj0","pricing_plan_id":"cebpf4jnsgd1na2vs0mg"},{"bike_id":"e0bf1f21-3a28-4429-8519-f30155a3610f","system_id":"levelo_inurba_marseille","lat":43.29909,"lon":5.38144,"is_reserved":false,"is_disabled":false,"rental_uris":{"android":"levelo://app?vid=e0bf1f21-3a28-4429-8519-f30155a3610f","ios":"levelo://app?vid=e0bf1f21-3a28-4429-8519-f30155a3610f"},"vehicle_type_id":"4","last_reported":1744052856,"current_range_meters":12000,"station_id":"ce4bgj12rcd13ifvqbc0","pricing_plan_id":"cebpf4jnsgd1na2vs0mg"},{"bike_id":"e8411f2d-4168-4e00-ac8c-405a90da7bae","system_id":"levelo_inurba_marseille","lat":43.2511,"lon":5.40309,"is_reserved":false,"is_disabled":false,"rental_uris":{"android":"levelo://app?vid=e8411f2d-4168-4e00-ac8c-405a90da7bae","ios":"levelo://app?vid=e8411f2d-4168-4e00-ac8c-405a90da7bae"},"vehicle_type_id":"4","last_reported":1744052856,"current_range_meters":11600,"station_id":"ce4bhlh2rcd13ifvqgig","pricing_plan_id":"cebpf4jnsgd1na2vs0mg"},{"bike_id":"3576b946-70b3-456f-a60a-d98e227f015c","system_id":"levelo_inurba_marseille","lat":43.30111,"lon":5.38201,"is_reserved":false,"is_disabled":false,"rental_uris":{"android":"levelo://app?vid=3576b946-70b3-456f-a60a-d98e227f015c","ios":"levelo://app?vid=3576b946-70b3-456f-a60a-d98e227f015c"},"vehicle_type_id":"4","last_reported":1744052856,"current_range_meters":12000,"station_id":"ce4bgup2rcd13ifvqcn0","pricing_plan_id":"cebpf4jnsgd1na2vs0mg"},{"bike_id":"c7169289-4b15-4cde-946e-e60f8877f72d","system_id":"levelo_inurba_marseille","lat":43.28631,"lon":5.35089,"is_reserved":false,"is_disabled":false,"rental_uris":{"android":"levelo://app?vid=c7169289-4b15-4cde-946e-e60f8877f72d","ios":"levelo://app?vid=c7169289-4b15-4cde-946e-e60f8877f72d"},"vehicle_type_id":"4","last_reported":1744052856,"current_range_meters":12000,"station_id":"ce4bhch2rcd13ifvqeug","pricing_plan_id":"cebpf4jnsgd1na2vs0mg"},{"bike_id":"9838c33c-dea0-4e09-ad23-7c5da508349d","system_id":"levelo_inurba_marseille","lat":43.27833,"lon":5.3921,"is_reserved":false,"is_disabled":false,"rental_uris":{"android":"levelo://app?vid=9838c33c-dea0-4e09-ad23-7c5da508349d","ios":"levelo://app?vid=9838c33c-dea0-4e09-ad23-7c5da508349d"},"vehicle_type_id":"4","last_reported":1744052856,"current_range_meters":12000,"station_id":"ce4bhjp2rcd13ifvqga0","pricing_plan_id":"cebpf4jnsgd1na2vs0mg"},{"bike_id":"1caaf187-7c56-4777-81af-6cb943962ba6","system_id":"levelo_inurba_marseille","lat":43.30308,"lon":5.39213,"is_reserved":false,"is_disabled":true,"rental_uris":{"android":"levelo://app?vid=1caaf187-7c56-4777-81af-6cb943962ba6","ios":"levelo://app?vid=1caaf187-7c56-4777-81af-6cb943962ba6"},"vehicle_type_id":"4","last_reported":1744052856,"current_range_meters":12000,"station_id":"ce4bgkh2rcd13ifvqbk0","pricing_plan_id":"cebpf4jnsgd1na2vs0mg"},{"bike_id":"cc769df6-e2a9-4629-b09e-73a97f376e2a","system_id":"levelo_inurba_marseille","lat":43.27796,"lon":5.40726,"is_reserved":false,"is_disabled":false,"rental_uris":{"android":"levelo://app?vid=cc769df6-e2a9-4629-b09e-73a97f376e2a","ios":"levelo://app?vid=cc769df6-e2a9-4629-b09e-73a97f376e2a"},"vehicle_type_id":"4","last_reported":1744052856,"current_range_meters":11600,"station_id":"ce4bhnh2rcd13ifvqgtg","pricing_plan_id":"cebpf4jnsgd1na2vs0mg"},{"bike_id":"866ab764-e7e7-48a3-917d-d205773d3560","system_id":"levelo_inurba_marseille","lat":43.30431,"lon":5.38895,"is_reserved":false,"is_disabled":false,"rental_uris":{"android":"levelo://app?vid=866ab764-e7e7-48a3-917d-d205773d3560","ios":"levelo://app?vid=866ab764-e7e7-48a3-917d-d205773d3560"},"vehicle_type_id":"4","last_reported":1744052856,"current_range_meters":12000,"station_id":"ce4bgk12rcd13ifvqbi0","pricing_plan_id":"cebpf4jnsgd1na2vs0mg"},{"bike_id":"d60278f8-25d4-4be7-94bc-8b28fb889a1c","system_id":"levelo_inurba_marseille","lat":43.28352,"lon":5.38111,"is_reserved":false,"is_disabled":false,"rental_uris":{"android":"levelo://app?vid=d60278f8-25d4-4be7-94bc-8b28fb889a1c","ios":"levelo://app?vid=d60278f8-25d4-4be7-94bc-8b28fb889a1c"},"vehicle_type_id":"4","last_reported":1744052856,"current_range_meters":12000,"station_id":"ce4bh412rcd13ifvqdr0","pricing_plan_id":"cebpf4jnsgd1na2vs0mg"},{"bike_id":"82f28cf6-556c-431d-a12b-bd3ce5fc2f28","system_id":"levelo_inurba_marseille","lat":43.27506,"lon":5.37763,"is_reserved":false,"is_disabled":false,"rental_uris":{"android":"levelo://app?vid=82f28cf6-556c-431d-a12b-bd3ce5fc2f28","ios":"levelo://app?vid=82f28cf6-556c-431d-a12b-bd3ce5fc2f28"},"vehicle_type_id":"4","last_reported":1744052856,"current_range_meters":12400,"station_id":"","pricing_plan_id":"cebpf4jnsgd1na2vs0mg"},{"bike_id":"a53de02b-7b61-41ff-8442-68c8123b7d38","system_id":"levelo_inurba_marseille","lat":43.29912,"lon":5.38132,"is_reserved":false,"is_disabled":false,"rental_uris":{"android":"levelo://app?vid=a53de02b-7b61-41ff-8442-68c8123b7d38","ios":"levelo://app?vid=a53de02b-7b61-41ff-8442-68c8123b7d38"},"vehicle_type_id":"4","last_reported":1744052856,"current_range_meters":12400,"station_id":"ce4bgj12rcd13ifvqbc0","pricing_plan_id":"cebpf4jnsgd1na2vs0mg"},{"bike_id":"f6db48fe-cf6c-4b70-8341-b7888df13619","system_id":"levelo_inurba_marseille","lat":43.29263,"lon":5.40912,"is_reserved":false,"is_disabled":false,"rental_uris":{"android":"levelo://app?vid=f6db48fe-cf6c-4b70-8341-b7888df13619","ios":"levelo://app?vid=f6db48fe-cf6c-4b70-8341-b7888df13619"},"vehicle_type_id":"4","last_reported":1744052856,"current_range_meters":12400,"station_id":"ce4bh192rcd13ifvqdc0","pricing_plan_id":"cebpf4jnsgd1na2vs0mg"},{"bike_id":"3b68a275-d99d-484e-8664-0ad3148ec759","system_id":"levelo_inurba_marseille","lat":43.28455,"lon":5.39196,"is_reserved":false,"is_disabled":false,"rental_uris":{"android":"levelo://app?vid=3b68a275-d99d-484e-8664-0ad3148ec759","ios":"levelo://app?vid=3b68a275-d99d-484e-8664-0ad3148ec759"},"vehicle_type_id":"4","last_reported":1744052856,"current_range_meters":12400,"station_id":"ce4bhoh2rcd13ifvqh5g","pricing_plan_id":"cebpf4jnsgd1na2vs0mg"},{"bike_id":"c5bae2bb-c73e-4ca2-b43d-4337416cbb6f","system_id":"levelo_inurba_marseille","lat":43.27943,"lon":5.4105,"is_reserved":false,"is_disabled":false,"rental_uris":{"android":"levelo://app?vid=c5bae2bb-c73e-4ca2-b43d-4337416cbb6f","ios":"levelo://app?vid=c5bae2bb-c73e-4ca2-b43d-4337416cbb6f"},"vehicle_type_id":"4","last_reported":1744052856,"current_range_meters":12400,"station_id":"ce4bhnp2rcd13ifvqh0g","pricing_plan_id":"cebpf4jnsgd1na2vs0mg"},{"bike_id":"57a20044-8482-4461-9a83-389bfb2991a7","system_id":"levelo_inurba_marseille","lat":43.284237,"lon":5.34984,"is_reserved":false,"is_disabled":false,"rental_uris":{"android":"levelo://app?vid=57a20044-8482-4461-9a83-389bfb2991a7","ios":"levelo://app?vid=57a20044-8482-4461-9a83-389bfb2991a7"},"vehicle_type_id":"4","last_reported":1744052856,"current_range_meters":12400,"station_id":"ce4bhbh2rcd13ifvqepg","pricing_plan_id":"cebpf4jnsgd1na2vs0mg"},{"bike_id":"c87f557f-f781-416d-99ac-f7b368074085","system_id":"levelo_inurba_marseille","lat":43.29569,"lon":5.39968,"is_reserved":false,"is_disabled":false,"rental_uris":{"android":"levelo://app?vid=c87f557f-f781-416d-99ac-f7b368074085","ios":"levelo://app?vid=c87f557f-f781-416d-99ac-f7b368074085"},"vehicle_type_id":"4","last_reported":1744052856,"current_range_meters":12400,"station_id":"ce4bh312rcd13ifvqdj0","pricing_plan_id":"cebpf4jnsgd1na2vs0mg"},{"bike_id":"923974d6-d5a3-42b6-9fdb-dc94be389fc6","system_id":"levelo_inurba_marseille","lat":43.28666,"lon":5.38641,"is_reserved":false,"is_disabled":false,"rental_uris":{"android":"levelo://app?vid=923974d6-d5a3-42b6-9fdb-dc94be389fc6","ios":"levelo://app?vid=923974d6-d5a3-42b6-9fdb-dc94be389fc6"},"vehicle_type_id":"4","last_reported":1744052856,"current_range_meters":12400,"station_id":"ce4bh492rcd13ifvqdug","pricing_plan_id":"cebpf4jnsgd1na2vs0mg"},{"bike_id":"149d12c1-918e-45ca-96d3-9e3d71a1137b","system_id":"levelo_inurba_marseille","lat":43.29036,"lon":5.40013,"is_reserved":false,"is_disabled":false,"rental_uris":{"android":"levelo://app?vid=149d12c1-918e-45ca-96d3-9e3d71a1137b","ios":"levelo://app?vid=149d12c1-918e-45ca-96d3-9e3d71a1137b"},"vehicle_type_id":"4","last_reported":1744052856,"current_range_meters":12400,"station_id":"","pricing_plan_id":"cebpf4jnsgd1na2vs0mg"},{"bike_id":"f17ce36f-e80a-4732-89e2-7a7dfab19d87","system_id":"levelo_inurba_marseille","lat":43.29903,"lon":5.43644,"is_reserved":false,"is_disabled":false,"rental_uris":{"android":"levelo://app?vid=f17ce36f-e80a-4732-89e2-7a7dfab19d87","ios":"levelo://app?vid=f17ce36f-e80a-4732-89e2-7a7dfab19d87"},"vehicle_type_id":"4","last_reported":1744052856,"current_range_meters":12800,"station_id":"ce4bhpp2rcd13ifvqhfg","pricing_plan_id":"cebpf4jnsgd1na2vs0mg"},{"bike_id":"e84b39f9-ba88-499a-99ee-c5affab701dc","system_id":"levelo_inurba_marseille","lat":43.29098,"lon":5.38122,"is_reserved":false,"is_disabled":false,"rental_uris":{"android":"levelo://app?vid=e84b39f9-ba88-499a-99ee-c5affab701dc","ios":"levelo://app?vid=e84b39f9-ba88-499a-99ee-c5affab701dc"},"vehicle_type_id":"4","last_reported":1744052856,"current_range_meters":12800,"station_id":"ce4bh512rcd13ifvqe2g","pricing_plan_id":"cebpf4jnsgd1na2vs0mg"},{"bike_id":"abd81cd9-d311-4cf6-a467-69a90210c882","system_id":"levelo_inurba_marseille","lat":43.28722,"lon":5.37939,"is_reserved":false,"is_disabled":false,"rental_uris":{"android":"levelo://app?vid=abd81cd9-d311-4cf6-a467-69a90210c882","ios":"levelo://app?vid=abd81cd9-d311-4cf6-a467-69a90210c882"},"vehicle_type_id":"4","last_reported":1744052856,"current_range_meters":12800,"station_id":"ce4bh9p2rcd13ifvqec0","pricing_plan_id":"cebpf4jnsgd1na2vs0mg"},{"bike_id":"b7d15525-0102-4d63-b7d3-eaa2bc4c21c3","system_id":"levelo_inurba_marseille","lat":43.21757,"lon":5.34594,"is_reserved":false,"is_disabled":true,"rental_uris":{"android":"levelo://app?vid=b7d15525-0102-4d63-b7d3-eaa2bc4c21c3","ios":"levelo://app?vid=b7d15525-0102-4d63-b7d3-eaa2bc4c21c3"},"vehicle_type_id":"4","last_reported":1744052856,"current_range_meters":12800,"station_id":"","pricing_plan_id":"cebpf4jnsgd1na2vs0mg"},{"bike_id":"298e8aa8-f36d-4aed-bfec-3855b68a7d9b","system_id":"levelo_inurba_marseille","lat":43.24071,"lon":5.37754,"is_reserved":false,"is_disabled":false,"rental_uris":{"android":"levelo://app?vid=298e8aa8-f36d-4aed-bfec-3855b68a7d9b","ios":"levelo://app?vid=298e8aa8-f36d-4aed-bfec-3855b68a7d9b"},"vehicle_type_id":"4","last_reported":1744052856,"current_range_meters":12800,"station_id":"ce4bhnp2rcd13ifvqgvg","pricing_plan_id":"cebpf4jnsgd1na2vs0mg"},{"bike_id":"83f82f1c-140d-48b7-88d4-16ce8cc9b99a","system_id":"levelo_inurba_marseille","lat":43.28353,"lon":5.38104,"is_reserved":false,"is_disabled":false,"rental_uris":{"android":"levelo://app?vid=83f82f1c-140d-48b7-88d4-16ce8cc9b99a","ios":"levelo://app?vid=83f82f1c-140d-48b7-88d4-16ce8cc9b99a"},"vehicle_type_id":"4","last_reported":1744052856,"current_range_meters":12800,"station_id":"ce4bh412rcd13ifvqdr0","pricing_plan_id":"cebpf4jnsgd1na2vs0mg"},{"bike_id":"d3347dfc-82a5-43e9-a4cc-6141daafe75c","system_id":"levelo_inurba_marseille","lat":43.24094,"lon":5.37774,"is_reserved":false,"is_disabled":false,"rental_uris":{"android":"levelo://app?vid=d3347dfc-82a5-43e9-a4cc-6141daafe75c","ios":"levelo://app?vid=d3347dfc-82a5-43e9-a4cc-6141daafe75c"},"vehicle_type_id":"4","last_reported":1744052856,"current_range_meters":12800,"station_id":"ce4bhnp2rcd13ifvqgvg","pricing_plan_id":"cebpf4jnsgd1na2vs0mg"},{"bike_id":"4b9dfe05-0e60-423c-af4b-3ef6e8cad4ce","system_id":"levelo_inurba_marseille","lat":43.25097,"lon":5.40309,"is_reserved":false,"is_disabled":true,"rental_uris":{"android":"levelo://app?vid=4b9dfe05-0e60-423c-af4b-3ef6e8cad4ce","ios":"levelo://app?vid=4b9dfe05-0e60-423c-af4b-3ef6e8cad4ce"},"vehicle_type_id":"4","last_reported":1744052856,"current_range_meters":12800,"station_id":"ce4bhlh2rcd13ifvqgig","pricing_plan_id":"cebpf4jnsgd1na2vs0mg"},{"bike_id":"ff512b25-2fe5-4468-a3dd-e078aa0170d2","system_id":"levelo_inurba_marseille","lat":43.29567,"lon":5.39993,"is_reserved":false,"is_disabled":false,"rental_uris":{"android":"levelo://app?vid=ff512b25-2fe5-4468-a3dd-e078aa0170d2","ios":"levelo://app?vid=ff512b25-2fe5-4468-a3dd-e078aa0170d2"},"vehicle_type_id":"4","last_reported":1744052856,"current_range_meters":12800,"station_id":"ce4bh312rcd13ifvqdj0","pricing_plan_id":"cebpf4jnsgd1na2vs0mg"},{"bike_id":"d07f8a2e-815f-42d6-9c9a-f129cdbf6127","system_id":"levelo_inurba_marseille","lat":43.30278,"lon":5.37718,"is_reserved":false,"is_disabled":false,"rental_uris":{"android":"levelo://app?vid=d07f8a2e-815f-42d6-9c9a-f129cdbf6127","ios":"levelo://app?vid=d07f8a2e-815f-42d6-9c9a-f129cdbf6127"},"vehicle_type_id":"4","last_reported":1744052856,"current_range_meters":12400,"station_id":"ce4bguh2rcd13ifvqcj0","pricing_plan_id":"cebpf4jnsgd1na2vs0mg"},{"bike_id":"5563dcf0-5ad7-4ebf-930e-b1e8987b91fa","system_id":"levelo_inurba_marseille","lat":43.286969,"lon":5.373798,"is_reserved":false,"is_disabled":false,"rental_uris":{"android":"levelo://app?vid=5563dcf0-5ad7-4ebf-930e-b1e8987b91fa","ios":"levelo://app?vid=5563dcf0-5ad7-4ebf-930e-b1e8987b91fa"},"vehicle_type_id":"4","last_reported":1744052856,"current_range_meters":12800,"station_id":"ce4bh3p2rcd13ifvqdq0","pricing_plan_id":"cebpf4jnsgd1na2vs0mg"},{"bike_id":"673cf71f-5086-4812-8e9c-61811c6b36f2","system_id":"levelo_inurba_marseille","lat":43.28857,"lon":5.39326,"is_reserved":false,"is_disabled":false,"rental_uris":{"android":"levelo://app?vid=673cf71f-5086-4812-8e9c-61811c6b36f2","ios":"levelo://app?vid=673cf71f-5086-4812-8e9c-61811c6b36f2"},"vehicle_type_id":"4","last_reported":1744052856,"current_range_meters":12800,"station_id":"ce4bh2p2rcd13ifvqdi0","pricing_plan_id":"cebpf4jnsgd1na2vs0mg"},{"bike_id":"ea7c4563-3a64-4725-bee3-88cf7807dae0","system_id":"levelo_inurba_marseille","lat":43.24809,"lon":5.37444,"is_reserved":false,"is_disabled":false,"rental_uris":{"android":"levelo://app?vid=ea7c4563-3a64-4725-bee3-88cf7807dae0","ios":"levelo://app?vid=ea7c4563-3a64-4725-bee3-88cf7807dae0"},"vehicle_type_id":"4","last_reported":1744052856,"current_range_meters":13600,"station_id":"ce4bhgh2rcd13ifvqfb0","pricing_plan_id":"cebpf4jnsgd1na2vs0mg"},{"bike_id":"c86be446-33b4-453c-bc7e-58f1c0a41d7e","system_id":"levelo_inurba_marseille","lat":43.29525,"lon":5.3905,"is_reserved":false,"is_disabled":false,"rental_uris":{"android":"levelo://app?vid=c86be446-33b4-453c-bc7e-58f1c0a41d7e","ios":"levelo://app?vid=c86be446-33b4-453c-bc7e-58f1c0a41d7e"},"vehicle_type_id":"4","last_reported":1744052856,"current_range_meters":13600,"station_id":"ce4bh3p2rcd13ifvqdp0","pricing_plan_id":"cebpf4jnsgd1na2vs0mg"},{"bike_id":"bb53d251-c2a9-4c03-a6c7-9d1272d728dc","system_id":"levelo_inurba_marseille","lat":43.31366,"lon":5.38502,"is_reserved":false,"is_disabled":false,"rental_uris":{"android":"levelo://app?vid=bb53d251-c2a9-4c03-a6c7-9d1272d728dc","ios":"levelo://app?vid=bb53d251-c2a9-4c03-a6c7-9d1272d728dc"},"vehicle_type_id":"4","last_reported":1744052856,"current_range_meters":13600,"station_id":"ce4bgt92rcd13ifvqcf0","pricing_plan_id":"cebpf4jnsgd1na2vs0mg"},{"bike_id":"fb9f6b16-b64d-4eb9-b329-0548a57bc9c5","system_id":"levelo_inurba_marseille","lat":43.300934,"lon":5.390926,"is_reserved":false,"is_disabled":false,"rental_uris":{"android":"levelo://app?vid=fb9f6b16-b64d-4eb9-b329-0548a57bc9c5","ios":"levelo://app?vid=fb9f6b16-b64d-4eb9-b329-0548a57bc9c5"},"vehicle_type_id":"4","last_reported":1744052856,"current_range_meters":13600,"station_id":"ce4bh192rcd13ifvqdb0","pricing_plan_id":"cebpf4jnsgd1na2vs0mg"},{"bike_id":"01850216-63bf-4827-8671-38d49ce7bcee","system_id":"levelo_inurba_marseille","lat":43.2963,"lon":5.37733,"is_reserved":false,"is_disabled":false,"rental_uris":{"android":"levelo://app?vid=01850216-63bf-4827-8671-38d49ce7bcee","ios":"levelo://app?vid=01850216-63bf-4827-8671-38d49ce7bcee"},"vehicle_type_id":"4","last_reported":1744052856,"current_range_meters":13600,"station_id":"ce4bgi92rcd13ifvqb90","pricing_plan_id":"cebpf4jnsgd1na2vs0mg"},{"bike_id":"ec7d3251-d53b-4874-b96d-6dae899b6aa1","system_id":"levelo_inurba_marseille","lat":43.27206,"lon":5.39187,"is_reserved":false,"is_disabled":true,"rental_uris":{"android":"levelo://app?vid=ec7d3251-d53b-4874-b96d-6dae899b6aa1","ios":"levelo://app?vid=ec7d3251-d53b-4874-b96d-6dae899b6aa1"},"vehicle_type_id":"4","last_reported":1744052856,"current_range_meters":13600,"station_id":"ce4bhhp2rcd13ifvqfm0","pricing_plan_id":"cebpf4jnsgd1na2vs0mg"},{"bike_id":"65ad890c-571d-4c44-a8a0-2f7397e9b146","system_id":"levelo_inurba_marseille","lat":43.31756,"lon":5.39017,"is_reserved":false,"is_disabled":false,"rental_uris":{"android":"levelo://app?vid=65ad890c-571d-4c44-a8a0-2f7397e9b146","ios":"levelo://app?vid=65ad890c-571d-4c44-a8a0-2f7397e9b146"},"vehicle_type_id":"4","last_reported":1744052856,"current_range_meters":13600,"station_id":"ce4bhqp2rcd13ifvqhng","pricing_plan_id":"cebpf4jnsgd1na2vs0mg"},{"bike_id":"1582a457-d8e0-4ef6-a951-1abf50520133","system_id":"levelo_inurba_marseille","lat":43.31329,"lon":5.39697,"is_reserved":false,"is_disabled":false,"rental_uris":{"android":"levelo://app?vid=1582a457-d8e0-4ef6-a951-1abf50520133","ios":"levelo://app?vid=1582a457-d8e0-4ef6-a951-1abf50520133"},"vehicle_type_id":"4","last_reported":1744052856,"current_range_meters":13600,"station_id":"ce4bgvp2rcd13ifvqcu0","pricing_plan_id":"cebpf4jnsgd1na2vs0mg"},{"bike_id":"2264b281-4e8b-4ecc-90c2-b72112590ac3","system_id":"levelo_inurba_marseille","lat":43.31266,"lon":5.40168,"is_reserved":false,"is_disabled":false,"rental_uris":{"android":"levelo://app?vid=2264b281-4e8b-4ecc-90c2-b72112590ac3","ios":"levelo://app?vid=2264b281-4e8b-4ecc-90c2-b72112590ac3"},"vehicle_type_id":"4","last_reported":1744052856,"current_range_meters":13600,"station_id":"ce4bh092rcd13ifvqd30","pricing_plan_id":"cebpf4jnsgd1na2vs0mg"},{"bike_id":"8162e87e-c165-40e1-8764-58e0664b7378","system_id":"levelo_inurba_marseille","lat":43.28934,"lon":5.36656,"is_reserved":false,"is_disabled":false,"rental_uris":{"android":"levelo://app?vid=8162e87e-c165-40e1-8764-58e0664b7378","ios":"levelo://app?vid=8162e87e-c165-40e1-8764-58e0664b7378"},"vehicle_type_id":"4","last_reported":1744052856,"current_range_meters":14000,"station_id":"ce4bhap2rcd13ifvqek0","pricing_plan_id":"cebpf4jnsgd1na2vs0mg"},{"bike_id":"a04aea4c-13ed-48a3-b06d-b1ddf9b90bfa","system_id":"levelo_inurba_marseille","lat":43.30146,"lon":5.39892,"is_reserved":false,"is_disabled":false,"rental_uris":{"android":"levelo://app?vid=a04aea4c-13ed-48a3-b06d-b1ddf9b90bfa","ios":"levelo://app?vid=a04aea4c-13ed-48a3-b06d-b1ddf9b90bfa"},"vehicle_type_id":"4","last_reported":1744052856,"current_range_meters":13600,"station_id":"ce4bh0h2rcd13ifvqd40","pricing_plan_id":"cebpf4jnsgd1na2vs0mg"},{"bike_id":"e3ed0949-d4ea-48a0-8cd5-c8512b754579","system_id":"levelo_inurba_marseille","lat":43.29528,"lon":5.39042,"is_reserved":false,"is_disabled":false,"rental_uris":{"android":"levelo://app?vid=e3ed0949-d4ea-48a0-8cd5-c8512b754579","ios":"levelo://app?vid=e3ed0949-d4ea-48a0-8cd5-c8512b754579"},"vehicle_type_id":"4","last_reported":1744052856,"current_range_meters":13600,"station_id":"ce4bh3p2rcd13ifvqdp0","pricing_plan_id":"cebpf4jnsgd1na2vs0mg"},{"bike_id":"70395dc4-fa96-4e7e-bc6d-3ca242baa7c3","system_id":"levelo_inurba_marseille","lat":43.28412,"lon":5.37527,"is_reserved":false,"is_disabled":false,"rental_uris":{"android":"levelo://app?vid=70395dc4-fa96-4e7e-bc6d-3ca242baa7c3","ios":"levelo://app?vid=70395dc4-fa96-4e7e-bc6d-3ca242baa7c3"},"vehicle_type_id":"4","last_reported":1744052856,"current_range_meters":14400,"station_id":"ce4bh412rcd13ifvqds0","pricing_plan_id":"cebpf4jnsgd1na2vs0mg"},{"bike_id":"5a804964-ef88-46a4-bdaa-341175c91649","system_id":"levelo_inurba_marseille","lat":43.28154,"lon":5.42637,"is_reserved":false,"is_disabled":false,"rental_uris":{"android":"levelo://app?vid=5a804964-ef88-46a4-bdaa-341175c91649","ios":"levelo://app?vid=5a804964-ef88-46a4-bdaa-341175c91649"},"vehicle_type_id":"4","last_reported":1744052856,"current_range_meters":14000,"station_id":"ce4bhnh2rcd13ifvqgug","pricing_plan_id":"cebpf4jnsgd1na2vs0mg"},{"bike_id":"2797898c-d618-496f-a9d1-96bca7ec6f3a","system_id":"levelo_inurba_marseille","lat":43.29704,"lon":5.36611,"is_reserved":false,"is_disabled":false,"rental_uris":{"android":"levelo://app?vid=2797898c-d618-496f-a9d1-96bca7ec6f3a","ios":"levelo://app?vid=2797898c-d618-496f-a9d1-96bca7ec6f3a"},"vehicle_type_id":"4","last_reported":1744052856,"current_range_meters":14400,"station_id":"ce4bgn12rcd13ifvqbt0","pricing_plan_id":"cebpf4jnsgd1na2vs0mg"},{"bike_id":"5aadd92b-8c5b-499e-bb58-d442b48f650b","system_id":"levelo_inurba_marseille","lat":43.32286,"lon":5.38283,"is_reserved":false,"is_disabled":false,"rental_uris":{"android":"levelo://app?vid=5aadd92b-8c5b-499e-bb58-d442b48f650b","ios":"levelo://app?vid=5aadd92b-8c5b-499e-bb58-d442b48f650b"},"vehicle_type_id":"4","last_reported":1744052856,"current_range_meters":14000,"station_id":"ce4bhr12rcd13ifvqhqg","pricing_plan_id":"cebpf4jnsgd1na2vs0mg"},{"bike_id":"f4594073-018b-4a2f-bf5d-ad469ddb5aa5","system_id":"levelo_inurba_marseille","lat":43.28661,"lon":5.36346,"is_reserved":false,"is_disabled":false,"rental_uris":{"android":"levelo://app?vid=f4594073-018b-4a2f-bf5d-ad469ddb5aa5","ios":"levelo://app?vid=f4594073-018b-4a2f-bf5d-ad469ddb5aa5"},"vehicle_type_id":"4","last_reported":1744052856,"current_range_meters":14400,"station_id":"ce4bhah2rcd13ifvqej0","pricing_plan_id":"cebpf4jnsgd1na2vs0mg"},{"bike_id":"37329f70-528e-433a-b1a6-394eb2d28f1f","system_id":"levelo_inurba_marseille","lat":43.28154,"lon":5.42645,"is_reserved":false,"is_disabled":false,"rental_uris":{"android":"levelo://app?vid=37329f70-528e-433a-b1a6-394eb2d28f1f","ios":"levelo://app?vid=37329f70-528e-433a-b1a6-394eb2d28f1f"},"vehicle_type_id":"4","last_reported":1744052856,"current_range_meters":14400,"station_id":"ce4bhnh2rcd13ifvqgug","pricing_plan_id":"cebpf4jnsgd1na2vs0mg"},{"bike_id":"0b3ac1f4-f064-4ef8-a70b-0b33df8c4a90","system_id":"levelo_inurba_marseille","lat":43.30883,"lon":5.39646,"is_reserved":false,"is_disabled":false,"rental_uris":{"android":"levelo://app?vid=0b3ac1f4-f064-4ef8-a70b-0b33df8c4a90","ios":"levelo://app?vid=0b3ac1f4-f064-4ef8-a70b-0b33df8c4a90"},"vehicle_type_id":"4","last_reported":1744052856,"current_range_meters":14400,"station_id":"ce4bh012rcd13ifvqcv0","pricing_plan_id":"cebpf4jnsgd1na2vs0mg"},{"bike_id":"bc02448f-4d1e-415e-91d9-f9402ef24c51","system_id":"levelo_inurba_marseille","lat":43.29368,"lon":5.37852,"is_reserved":false,"is_disabled":false,"rental_uris":{"android":"levelo://app?vid=bc02448f-4d1e-415e-91d9-f9402ef24c51","ios":"levelo://app?vid=bc02448f-4d1e-415e-91d9-f9402ef24c51"},"vehicle_type_id":"4","last_reported":1744052856,"current_range_meters":14800,"station_id":"ce4bgjh2rcd13ifvqbf0","pricing_plan_id":"cebpf4jnsgd1na2vs0mg"},{"bike_id":"4e0de06a-5fb6-425c-864f-446dbfc90cbc","system_id":"levelo_inurba_marseille","lat":43.28457,"lon":5.35895,"is_reserved":false,"is_disabled":false,"rental_uris":{"android":"levelo://app?vid=4e0de06a-5fb6-425c-864f-446dbfc90cbc","ios":"levelo://app?vid=4e0de06a-5fb6-425c-864f-446dbfc90cbc"},"vehicle_type_id":"4","last_reported":1744052856,"current_range_meters":14400,"station_id":"ce4bhah2rcd13ifvqei0","pricing_plan_id":"cebpf4jnsgd1na2vs0mg"},{"bike_id":"9341c371-65f6-4d52-acb2-9df76258eee1","system_id":"levelo_inurba_marseille","lat":43.30432,"lon":5.38884,"is_reserved":false,"is_disabled":false,"rental_uris":{"android":"levelo://app?vid=9341c371-65f6-4d52-acb2-9df76258eee1","ios":"levelo://app?vid=9341c371-65f6-4d52-acb2-9df76258eee1"},"vehicle_type_id":"4","last_reported":1744052856,"current_range_meters":14400,"station_id":"ce4bgk12rcd13ifvqbi0","pricing_plan_id":"cebpf4jnsgd1na2vs0mg"},{"bike_id":"6d59871d-a2bb-46af-a9c2-81186c24fbb2","system_id":"levelo_inurba_marseille","lat":43.26928,"lon":5.38909,"is_reserved":false,"is_disabled":false,"rental_uris":{"android":"levelo://app?vid=6d59871d-a2bb-46af-a9c2-81186c24fbb2","ios":"levelo://app?vid=6d59871d-a2bb-46af-a9c2-81186c24fbb2"},"vehicle_type_id":"4","last_reported":1744052856,"current_range_meters":14800,"station_id":"ce4bhhh2rcd13ifvqfl0","pricing_plan_id":"cebpf4jnsgd1na2vs0mg"},{"bike_id":"2a307174-b7ad-403b-a152-c861d8c97e5d","system_id":"levelo_inurba_marseille","lat":43.3026,"lon":5.40043,"is_reserved":false,"is_disabled":false,"rental_uris":{"android":"levelo://app?vid=2a307174-b7ad-403b-a152-c861d8c97e5d","ios":"levelo://app?vid=2a307174-b7ad-403b-a152-c861d8c97e5d"},"vehicle_type_id":"4","last_reported":1744052856,"current_range_meters":14400,"station_id":"ce4bgvh2rcd13ifvqcs0","pricing_plan_id":"cebpf4jnsgd1na2vs0mg"},{"bike_id":"0aa02c49-cbb3-4907-a588-f754056f3ba8","system_id":"levelo_inurba_marseille","lat":43.30801,"lon":5.38152,"is_reserved":false,"is_disabled":true,"rental_uris":{"android":"levelo://app?vid=0aa02c49-cbb3-4907-a588-f754056f3ba8","ios":"levelo://app?vid=0aa02c49-cbb3-4907-a588-f754056f3ba8"},"vehicle_type_id":"4","last_reported":1744052856,"current_range_meters":14800,"station_id":"ce4bgt12rcd13ifvqce0","pricing_plan_id":"cebpf4jnsgd1na2vs0mg"},{"bike_id":"034b881e-44c7-46eb-affa-8c5577be2c99","system_id":"levelo_inurba_marseille","lat":43.27813,"lon":5.407153,"is_reserved":false,"is_disabled":false,"rental_uris":{"android":"levelo://app?vid=034b881e-44c7-46eb-affa-8c5577be2c99","ios":"levelo://app?vid=034b881e-44c7-46eb-affa-8c5577be2c99"},"vehicle_type_id":"4","last_reported":1744052856,"current_range_meters":14800,"station_id":"ce4bhnh2rcd13ifvqgtg","pricing_plan_id":"cebpf4jnsgd1na2vs0mg"},{"bike_id":"68d1cc33-0218-451e-8e10-d32225c21263","system_id":"levelo_inurba_marseille","lat":43.23159,"lon":5.43712,"is_reserved":false,"is_disabled":true,"rental_uris":{"android":"levelo://app?vid=68d1cc33-0218-451e-8e10-d32225c21263","ios":"levelo://app?vid=68d1cc33-0218-451e-8e10-d32225c21263"},"vehicle_type_id":"4","last_reported":1744052856,"current_range_meters":14800,"station_id":"ce4bhmp2rcd13ifvqgog","pricing_plan_id":"cebpf4jnsgd1na2vs0mg"},{"bike_id":"299c4ae7-e297-4d0d-a592-11225162b1cb","system_id":"levelo_inurba_marseille","lat":43.28033,"lon":5.36944,"is_reserved":false,"is_disabled":false,"rental_uris":{"android":"levelo://app?vid=299c4ae7-e297-4d0d-a592-11225162b1cb","ios":"levelo://app?vid=299c4ae7-e297-4d0d-a592-11225162b1cb"},"vehicle_type_id":"4","last_reported":1744052856,"current_range_meters":14800,"station_id":"ce4bha12rcd13ifvqef0","pricing_plan_id":"cebpf4jnsgd1na2vs0mg"},{"bike_id":"93e6b926-84ae-4be7-b35c-f97b9a0b42d5","system_id":"levelo_inurba_marseille","lat":43.28702,"lon":5.374,"is_reserved":false,"is_disabled":false,"rental_uris":{"android":"levelo://app?vid=93e6b926-84ae-4be7-b35c-f97b9a0b42d5","ios":"levelo://app?vid=93e6b926-84ae-4be7-b35c-f97b9a0b42d5"},"vehicle_type_id":"4","last_reported":1744052856,"current_range_meters":14800,"station_id":"ce4bh3p2rcd13ifvqdq0","pricing_plan_id":"cebpf4jnsgd1na2vs0mg"},{"bike_id":"c8351757-3fec-4594-855b-7d7cf1a199dd","system_id":"levelo_inurba_marseille","lat":43.28407,"lon":5.37511,"is_reserved":false,"is_disabled":false,"rental_uris":{"android":"levelo://app?vid=c8351757-3fec-4594-855b-7d7cf1a199dd","ios":"levelo://app?vid=c8351757-3fec-4594-855b-7d7cf1a199dd"},"vehicle_type_id":"4","last_reported":1744052856,"current_range_meters":14800,"station_id":"ce4bh412rcd13ifvqds0","pricing_plan_id":"cebpf4jnsgd1na2vs0mg"},{"bike_id":"28106982-b4c2-4a17-a517-f2f6ec8e207f","system_id":"levelo_inurba_marseille","lat":43.31355,"lon":5.38497,"is_reserved":false,"is_disabled":false,"rental_uris":{"android":"levelo://app?vid=28106982-b4c2-4a17-a517-f2f6ec8e207f","ios":"levelo://app?vid=28106982-b4c2-4a17-a517-f2f6ec8e207f"},"vehicle_type_id":"4","last_reported":1744052856,"current_range_meters":14800,"station_id":"ce4bgt92rcd13ifvqcf0","pricing_plan_id":"cebpf4jnsgd1na2vs0mg"},{"bike_id":"93e3fd92-d65f-4f36-ba40-a3e5476ebc87","system_id":"levelo_inurba_marseille","lat":43.30665,"lon":5.36569,"is_reserved":false,"is_disabled":false,"rental_uris":{"android":"levelo://app?vid=93e3fd92-d65f-4f36-ba40-a3e5476ebc87","ios":"levelo://app?vid=93e3fd92-d65f-4f36-ba40-a3e5476ebc87"},"vehicle_type_id":"4","last_reported":1744052856,"current_range_meters":15200,"station_id":"","pricing_plan_id":"cebpf4jnsgd1na2vs0mg"},{"bike_id":"e642f7f4-7313-415d-9a80-d0d6b0477e6a","system_id":"levelo_inurba_marseille","lat":43.29797,"lon":5.38104,"is_reserved":false,"is_disabled":true,"rental_uris":{"android":"levelo://app?vid=e642f7f4-7313-415d-9a80-d0d6b0477e6a","ios":"levelo://app?vid=e642f7f4-7313-415d-9a80-d0d6b0477e6a"},"vehicle_type_id":"4","last_reported":1744052856,"current_range_meters":15200,"station_id":"ce4bgip2rcd13ifvqbb0","pricing_plan_id":"cebpf4jnsgd1na2vs0mg"},{"bike_id":"61cd41de-07c4-4597-a74e-0c712a9e4d87","system_id":"levelo_inurba_marseille","lat":43.22953,"lon":5.35438,"is_reserved":false,"is_disabled":true,"rental_uris":{"android":"levelo://app?vid=61cd41de-07c4-4597-a74e-0c712a9e4d87","ios":"levelo://app?vid=61cd41de-07c4-4597-a74e-0c712a9e4d87"},"vehicle_type_id":"4","last_reported":1744052856,"current_range_meters":15200,"station_id":"","pricing_plan_id":"cebpf4jnsgd1na2vs0mg"},{"bike_id":"ce12dbef-0102-4745-a685-36ae073d2958","system_id":"levelo_inurba_marseille","lat":43.30283,"lon":5.37711,"is_reserved":false,"is_disabled":false,"rental_uris":{"android":"levelo://app?vid=ce12dbef-0102-4745-a685-36ae073d2958","ios":"levelo://app?vid=ce12dbef-0102-4745-a685-36ae073d2958"},"vehicle_type_id":"4","last_reported":1744052856,"current_range_meters":15200,"station_id":"ce4bguh2rcd13ifvqcj0","pricing_plan_id":"cebpf4jnsgd1na2vs0mg"},{"bike_id":"1374b7de-1143-4a51-a5e2-1ae92fd2606a","system_id":"levelo_inurba_marseille","lat":43.31328,"lon":5.39693,"is_reserved":false,"is_disabled":false,"rental_uris":{"android":"levelo://app?vid=1374b7de-1143-4a51-a5e2-1ae92fd2606a","ios":"levelo://app?vid=1374b7de-1143-4a51-a5e2-1ae92fd2606a"},"vehicle_type_id":"4","last_reported":1744052856,"current_range_meters":15200,"station_id":"ce4bgvp2rcd13ifvqcu0","pricing_plan_id":"cebpf4jnsgd1na2vs0mg"},{"bike_id":"10bd3f10-fda0-4047-ad39-44e037266260","system_id":"levelo_inurba_marseille","lat":43.25118,"lon":5.40325,"is_reserved":false,"is_disabled":false,"rental_uris":{"android":"levelo://app?vid=10bd3f10-fda0-4047-ad39-44e037266260","ios":"levelo://app?vid=10bd3f10-fda0-4047-ad39-44e037266260"},"vehicle_type_id":"4","last_reported":1744052856,"current_range_meters":15200,"station_id":"ce4bhlh2rcd13ifvqgig","pricing_plan_id":"cebpf4jnsgd1na2vs0mg"},{"bike_id":"158df057-ca83-4895-ad1d-881f1e1b56e6","system_id":"levelo_inurba_marseille","lat":43.2721,"lon":5.39195,"is_reserved":false,"is_disabled":true,"rental_uris":{"android":"levelo://app?vid=158df057-ca83-4895-ad1d-881f1e1b56e6","ios":"levelo://app?vid=158df057-ca83-4895-ad1d-881f1e1b56e6"},"vehicle_type_id":"4","last_reported":1744052856,"current_range_meters":16000,"station_id":"ce4bhhp2rcd13ifvqfm0","pricing_plan_id":"cebpf4jnsgd1na2vs0mg"},{"bike_id":"09e8ab8c-5990-4a13-be28-c71f62b934d1","system_id":"levelo_inurba_marseille","lat":43.28428,"lon":5.35005,"is_reserved":false,"is_disabled":false,"rental_uris":{"android":"levelo://app?vid=09e8ab8c-5990-4a13-be28-c71f62b934d1","ios":"levelo://app?vid=09e8ab8c-5990-4a13-be28-c71f62b934d1"},"vehicle_type_id":"4","last_reported":1744052856,"current_range_meters":16000,"station_id":"ce4bhbh2rcd13ifvqepg","pricing_plan_id":"cebpf4jnsgd1na2vs0mg"},{"bike_id":"8c180c6b-3847-4801-977a-2f1d1f813c53","system_id":"levelo_inurba_marseille","lat":43.30094,"lon":5.39896,"is_reserved":false,"is_disabled":false,"rental_uris":{"android":"levelo://app?vid=8c180c6b-3847-4801-977a-2f1d1f813c53","ios":"levelo://app?vid=8c180c6b-3847-4801-977a-2f1d1f813c53"},"vehicle_type_id":"4","last_reported":1744052856,"current_range_meters":16000,"station_id":"ce4bh0h2rcd13ifvqd40","pricing_plan_id":"cebpf4jnsgd1na2vs0mg"},{"bike_id":"e0c712a4-8c41-4e69-a875-50251525a0f6","system_id":"levelo_inurba_marseille","lat":43.27897,"lon":5.40883,"is_reserved":false,"is_disabled":false,"rental_uris":{"android":"levelo://app?vid=e0c712a4-8c41-4e69-a875-50251525a0f6","ios":"levelo://app?vid=e0c712a4-8c41-4e69-a875-50251525a0f6"},"vehicle_type_id":"4","last_reported":1744052856,"current_range_meters":16000,"station_id":"","pricing_plan_id":"cebpf4jnsgd1na2vs0mg"},{"bike_id":"a2b55975-55e4-4a3f-8af7-2c27ff45ed68","system_id":"levelo_inurba_marseille","lat":43.28151,"lon":5.42645,"is_reserved":false,"is_disabled":true,"rental_uris":{"android":"levelo://app?vid=a2b55975-55e4-4a3f-8af7-2c27ff45ed68","ios":"levelo://app?vid=a2b55975-55e4-4a3f-8af7-2c27ff45ed68"},"vehicle_type_id":"4","last_reported":1744052856,"current_range_meters":16400,"station_id":"ce4bhnh2rcd13ifvqgug","pricing_plan_id":"cebpf4jnsgd1na2vs0mg"},