{"last_updated":1748722229,"ttl":60,"version":"2.2","data":{"bikes":[{"bike_id":"e08641d7-f032-4280-be4e-a580e06d508e","system_id":"levelo_inurba_marseille","lat":43.2594,"lon":5.40903,"is_reserved":false,"is_disabled":false,"rental_uris":{"android":"levelo://app?vid=e08641d7-f032-4280-be4e-a580e06d508e","ios":"levelo://app?vid=e08641d7-f032-4280-be4e-a580e06d508e"},"vehicle_type_id":"4","last_reported":1748722229,"current_range_meters":2800,"station_id":"ce4bhm92rcd13ifvqglg","pricing_plan_id":"cebpf4jnsgd1na2vs0mg"},{"bike_id":"5e442864-4d13-4fec-aa91-1a10b07f4d47","system_id":"levelo_inurba_marseille","lat":43.31952,"lon":5.44181,"is_reserved":false,"is_disabled":false,"rental_uris":{"android":"levelo://app?vid=5e442864-4d13-4fec-aa91-1a10b07f4d47","ios":"levelo://app?vid=5e442864-4d13-4fec-aa91-1a10b07f4d47"},"vehicle_type_id":"4","last_reported":1748722229,"current_range_meters":2800,"station_id":"","pricing_plan_id":"cebpf4jnsgd1na2vs0mg"},{"bike_id":"58275c73-811e-4031-83c8-78973a6fa692","system_id":"levelo_inurba_marseille","lat":43.28938,"lon":5.36626,"is_reserved":false,"is_disabled":false,"rental_uris":{"android":"levelo://app?vid=58275c73-811e-4031-83c8-78973a6fa692","ios":"levelo://app?vid=58275c73-811e-4031-83c8-78973a6fa692"},"vehicle_type_id":"4","last_reported":1748722229,"current_range_meters":2800,"station_id":"ce4bhap2rcd13ifvqek0","pricing_plan_id":"cebpf4jnsgd1na2vs0mg"},{"bike_id":"a8611f9d-1966-4e62-a468-19cbb346249e","system_id":"levelo_inurba_marseille","lat":43.30345,"lon":5.39308,"is_reserved":false,"is_disabled":false,"rental_uris":{"android":"levelo://app?vid=a8611f9d-1966-4e62-a468-19cbb346249e","ios":"levelo://app?vid=a8611f9d-1966-4e62-a468-19cbb346249e"},"vehicle_type_id":"4","last_reported":1748722229,"current_range_meters":3600,"station_id":"","pricing_plan_id":"cebpf4jnsgd1na2vs0mg"},{"bike_id":"9b6e2007-c9b4-4121-bb2c-ce0d76155e47","system_id":"levelo_inurba_marseille","lat":43.28104,"lon":5.37841,"is_reserved":false,"is_disabled":false,"rental_uris":{"android":"levelo://app?vid=9b6e2007-c9b4-4121-bb2c-ce0d76155e47","ios":"levelo://app?vid=9b6e2007-c9b4-4121-bb2c-ce0d76155e47"},"vehicle_type_id":"4","last_reported":1748722229,"current_range_meters":3600,"station_id":"","pricing_plan_id":"cebpf4jnsgd1na2vs0mg"},{"bike_id":"d28aeaad-f5f2-4c4f-a0cd-6b7231965959","system_id":"levelo_inurba_marseille","lat":43.32995,"lon":5.3927,"is_reserved":false,"is_disabled":false,"rental_uris":{"android":"levelo://app?vid=d28aeaad-f5f2-4c4f-a0cd-6b7231965959","ios":"levelo://app?vid=d28aeaad-f5f2-4c4f-a0cd-6b7231965959"},"vehicle_type_id":"4","last_reported":1748722229,"current_range_meters":3600,"station_id":"","pricing_plan_id":"cebpf4jnsgd1na2vs0mg"},{"bike_id":"6b4836e8-61da-4e22-a94c-c730da022283","system_id":"levelo_inurba_marseille","lat":43.26212,"lon":5.3744,"is_reserved":false,"is_disabled":false,"rental_uris":{"android":"levelo://app?vid=6b4836e8-61da-4e22-a94c-c730da022283","ios":"levelo://app?vid=6b4836e8-61da-4e22-a94c-c730da022283"},"vehicle_type_id":"4","last_reported":1748722229,"current_range_meters":3600,"station_id":"ce4bhgp2rcd13ifvqfc0","pricing_plan_id":"cebpf4jnsgd1na2vs0mg"},{"bike_id":"1443a4bd-5711-42c1-bb09-5d87bbf857cc","system_id":"levelo_inurba_marseille","lat":43.27827,"lon":5.39207,"is_reserved":false,"is_disabled":false,"rental_uris":{"android":"levelo://app?vid=1443a4bd-5711-42c1-bb09-5d87bbf857cc","ios":"levelo://app?vid=1443a4bd-5711-42c1-bb09-5d87bbf857cc"},"vehicle_type_id":"4","last_reported":1748722229,"current_range_meters":3600,"station_id":"ce4bhjp2rcd13ifvqga0","pricing_plan_id":"cebpf4jnsgd1na2vs0mg"},{"bike_id":"f7984701-ba42-467b-a4e4-ac86d486cfad","system_id":"levelo_inurba_marseille","lat":43.29967,"lon":5.385227,"is_reserved":false,"is_disabled":false,"rental_uris":{"android":"levelo://app?vid=f7984701-ba42-467b-a4e4-ac86d486cfad","ios":"levelo://app?vid=f7984701-ba42-467b-a4e4-ac86d486cfad"},"vehicle_type_id":"4","last_reported":1748722229,"current_range_meters":3600,"station_id":"ce4bgj92rcd13ifvqbd0","pricing_plan_id":"cebpf4jnsgd1na2vs0mg"},{"bike_id":"4ea9999a-521a-421b-8382-43785c8666dd","system_id":"levelo_inurba_marseille","lat":43.265615,"lon":5.403203,"is_reserved":false,"is_disabled":false,"rental_uris":{"android":"levelo://app?vid=4ea9999a-521a-421b-8382-43785c8666dd","ios":"levelo://app?vid=4ea9999a-521a-421b-8382-43785c8666dd"},"vehicle_type_id":"4","last_reported":1748722229,"current_range_meters":4000,"station_id":"","pricing_plan_id":"cebpf4jnsgd1na2vs0mg"},{"bike_id":"70b0fc18-a2a2-4128-ae47-a4bac74981bf","system_id":"levelo_inurba_marseille","lat":43.30204,"lon":5.39459,"is_reserved":false,"is_disabled":false,"rental_uris":{"android":"levelo://app?vid=70b0fc18-a2a2-4128-ae47-a4bac74981bf","ios":"levelo://app?vid=70b0fc18-a2a2-4128-ae47-a4bac74981bf"},"vehicle_type_id":"4","last_reported":1748722229,"current_range_meters":4400,"station_id":"ce4bh0p2rcd13ifvqd70","pricing_plan_id":"cebpf4jnsgd1na2vs0mg"},{"bike_id":"7d4d6a45-dbe9-4a2d-b2fc-b0110d93bdc9","system_id":"levelo_inurba_marseille","lat":43.26034,"lon":5.37541,"is_reserved":false,"is_disabled":false,"rental_uris":{"android":"levelo://app?vid=7d4d6a45-dbe9-4a2d-b2fc-b0110d93bdc9","ios":"levelo://app?vid=7d4d6a45-dbe9-4a2d-b2fc-b0110d93bdc9"},"vehicle_type_id":"4","last_reported":1748722229,"current_range_meters":4400,"station_id":"ce4bhgh2rcd13ifvqfa0","pricing_plan_id":"cebpf4jnsgd1na2vs0mg"},{"bike_id":"f32d4296-21c8-461b-a651-b1f8237849c8","system_id":"levelo_inurba_marseille","lat":43.3033,"lon":5.40425,"is_reserved":false,"is_disabled":false,"rental_uris":{"android":"levelo://app?vid=f32d4296-21c8-461b-a651-b1f8237849c8","ios":"levelo://app?vid=f32d4296-21c8-461b-a651-b1f8237849c8"},"vehicle_type_id":"4","last_reported":1748722229,"current_range_meters":4400,"station_id":"ce4bh012rcd13ifvqd10","pricing_plan_id":"cebpf4jnsgd1na2vs0mg"},{"bike_id":"3e2fc2e2-fc0b-4e0b-b239-a41dbac758ab","system_id":"levelo_inurba_marseille","lat":43.29427,"lon":5.38608,"is_reserved":false,"is_disabled":false,"rental_uris":{"android":"levelo://app?vid=3e2fc2e2-fc0b-4e0b-b239-a41dbac758ab","ios":"levelo://app?vid=3e2fc2e2-fc0b-4e0b-b239-a41dbac758ab"},"vehicle_type_id":"4","last_reported":1748722229,"current_range_meters":4800,"station_id":"ce4bh2h2rcd13ifvqdh0","pricing_plan_id":"cebpf4jnsgd1na2vs0mg"},{"bike_id":"49484bbd-0d72-49ab-82a1-c25983efd228","system_id":"levelo_inurba_marseille","lat":43.30592,"lon":5.3936,"is_reserved":false,"is_disabled":false,"rental_uris":{"android":"levelo://app?vid=49484bbd-0d72-49ab-82a1-c25983efd228","ios":"levelo://app?vid=49484bbd-0d72-49ab-82a1-c25983efd228"},"vehicle_type_id":"4","last_reported":1748722229,"current_range_meters":4800,"station_id":"ce4bh0p2rcd13ifvqd80","pricing_plan_id":"cebpf4jnsgd1na2vs0mg"},{"bike_id":"33fe8c32-4b15-472a-9bf7-124687146537","system_id":"levelo_inurba_marseille","lat":43.32861,"lon":5.40581,"is_reserved":false,"is_disabled":false,"rental_uris":{"android":"levelo://app?vid=33fe8c32-4b15-472a-9bf7-124687146537","ios":"levelo://app?vid=33fe8c32-4b15-472a-9bf7-124687146537"},"vehicle_type_id":"4","last_reported":1748722229,"current_range_meters":5600,"station_id":"","pricing_plan_id":"cebpf4jnsgd1na2vs0mg"},{"bike_id":"c285d9b4-ea52-40e4-b58c-5b14f7910b11","system_id":"levelo_inurba_marseille","lat":43.26225,"lon":5.40448,"is_reserved":false,"is_disabled":false,"rental_uris":{"android":"levelo://app?vid=c285d9b4-ea52-40e4-b58c-5b14f7910b11","ios":"levelo://app?vid=c285d9b4-ea52-40e4-b58c-5b14f7910b11"},"vehicle_type_id":"4","last_reported":1748722229,"current_range_meters":5600,"station_id":"ce4bhmh2rcd13ifvqgmg","pricing_plan_id":"cebpf4jnsgd1na2vs0mg"},{"bike_id":"52f0f4e2-bddd-422b-9d45-9fed2f1ef091","system_id":"levelo_inurba_marseille","lat":43.28041,"lon":5.36943,"is_reserved":false,"is_disabled":false,"rental_uris":{"android":"levelo://app?vid=52f0f4e2-bddd-422b-9d45-9fed2f1ef091","ios":"levelo://app?vid=52f0f4e2-bddd-422b-9d45-9fed2f1ef091"},"vehicle_type_id":"4","last_reported":1748722229,"current_range_meters":5600,"station_id":"ce4bha12rcd13ifvqef0","pricing_plan_id":"cebpf4jnsgd1na2vs0mg"},{"bike_id":"c6599abf-759e-448e-bd4e-97f347f64933","system_id":"levelo_inurba_marseille","lat":43.30588,"lon":5.39349,"is_reserved":false,"is_disabled":false,"rental_uris":{"android":"levelo://app?vid=c6599abf-759e-448e-bd4e-97f347f64933","ios":"levelo://app?vid=c6599abf-759e-448e-bd4e-97f347f64933"},"vehicle_type_id":"4","last_reported":1748722229,"current_range_meters":5600,"station_id":"ce4bh0p2rcd13ifvqd80","pricing_plan_id":"cebpf4jnsgd1na2vs0mg"},{"bike_id":"906af0ba-bfeb-466a-9146-88ae0ff414fc","system_id":"levelo_inurba_marseille","lat":43.246553,"lon":5.381676,"is_reserved":false,"is_disabled":false,"rental_uris":{"android":"levelo://app?vid=906af0ba-bfeb-466a-9146-88ae0ff414fc","ios":"levelo://app?vid=906af0ba-bfeb-466a-9146-88ae0ff414fc"},"vehicle_type_id":"4","last_reported":1748722229,"current_range_meters":6000,"station_id":"ce4bhih2rcd13ifvqfr0","pricing_plan_id":"cebpf4jnsgd1na2vs0mg"},{"bike_id":"912d0013-853d-4a7a-a3d9-b07e0c5085b6","system_id":"levelo_inurba_marseille","lat":43.30594,"lon":5.39357,"is_reserved":false,"is_disabled":false,"rental_uris":{"android":"levelo://app?vid=912d0013-853d-4a7a-a3d9-b07e0c5085b6","ios":"levelo://app?vid=912d0013-853d-4a7a-a3d9-b07e0c5085b6"},"vehicle_type_id":"4","last_reported":1748722229,"current_range_meters":6000,"station_id":"ce4bh0p2rcd13ifvqd80","pricing_plan_id":"cebpf4jnsgd1na2vs0mg"},{"bike_id":"91c737c9-942a-40b1-8073-cc1be40e313b","system_id":"levelo_inurba_marseille","lat":43.24181,"lon":5.39728,"is_reserved":false,"is_disabled":false,"rental_uris":{"android":"levelo://app?vid=91c737c9-942a-40b1-8073-cc1be40e313b","ios":"levelo://app?vid=91c737c9-942a-40b1-8073-cc1be40e313b"},"vehicle_type_id":"4","last_reported":1748722229,"current_range_meters":6000,"station_id":"ce4bhn12rcd13ifvqgpg","pricing_plan_id":"cebpf4jnsgd1na2vs0mg"},{"bike_id":"3feffd94-b1f8-4904-a4cf-e5629abe4092","system_id":"levelo_inurba_marseille","lat":43.259215,"lon":5.408855,"is_reserved":false,"is_disabled":false,"rental_uris":{"android":"levelo://app?vid=3feffd94-b1f8-4904-a4cf-e5629abe4092","ios":"levelo://app?vid=3feffd94-b1f8-4904-a4cf-e5629abe4092"},"vehicle_type_id":"4","last_reported":1748722229,"current_range_meters":6000,"station_id":"ce4bhm92rcd13ifvqglg","pricing_plan_id":"cebpf4jnsgd1na2vs0mg"},{"bike_id":"5d877d19-d94b-485c-898e-cc75332e54d9","system_id":"levelo_inurba_marseille","lat":43.28731,"lon":5.36076,"is_reserved":false,"is_disabled":false,"rental_uris":{"android":"levelo://app?vid=5d877d19-d94b-485c-898e-cc75332e54d9","ios":"levelo://app?vid=5d877d19-d94b-485c-898e-cc75332e54d9"},"vehicle_type_id":"4","last_reported":1748722229,"current_range_meters":6000,"station_id":"cki0cbj6b192h4jlfktg","pricing_plan_id":"cebpf4jnsgd1na2vs0mg"},{"bike_id":"7243d7c8-02f5-4392-89cf-8c360e846d55","system_id":"levelo_inurba_marseille","lat":43.253,"lon":5.37848,"is_reserved":false,"is_disabled":false,"rental_uris":{"android":"levelo://app?vid=7243d7c8-02f5-4392-89cf-8c360e846d55","ios":"levelo://app?vid=7243d7c8-02f5-4392-89cf-8c360e846d55"},"vehicle_type_id":"4","last_reported":1748722229,"current_range_meters":6400,"station_id":"","pricing_plan_id":"cebpf4jnsgd1na2vs0mg"},{"bike_id":"ef5d4347-f2cb-405c-affd-0ef65fd25ebb","system_id":"levelo_inurba_marseille","lat":43.26559,"lon":5.37281,"is_reserved":false,"is_disabled":false,"rental_uris":{"android":"levelo://app?vid=ef5d4347-f2cb-405c-affd-0ef65fd25ebb","ios":"levelo://app?vid=ef5d4347-f2cb-405c-affd-0ef65fd25ebb"},"vehicle_type_id":"4","last_reported":1748722229,"current_range_meters":6400,"station_id":"ce4bhg12rcd13ifvqf70","pricing_plan_id":"cebpf4jnsgd1na2vs0mg"},{"bike_id":"dddf88cd-a72d-402c-9e8d-62f196f0fea7","system_id":"levelo_inurba_marseille","lat":43.25013,"lon":5.38893,"is_reserved":false,"is_disabled":false,"rental_uris":{"android":"levelo://app?vid=dddf88cd-a72d-402c-9e8d-62f196f0fea7","ios":"levelo://app?vid=dddf88cd-a72d-402c-9e8d-62f196f0fea7"},"vehicle_type_id":"4","last_reported":1748722229,"current_range_meters":6400,"station_id":"ce4bhgp2rcd13ifvqfd0","pricing_plan_id":"cebpf4jnsgd1na2vs0mg"},{"bike_id":"5ec073aa-18e6-4044-bcd0-8d52437b0fc1","system_id":"levelo_inurba_marseille","lat":43.27561,"lon":5.38423,"is_reserved":false,"is_disabled":false,"rental_uris":{"android":"levelo://app?vid=5ec073aa-18e6-4044-bcd0-8d52437b0fc1","ios":"levelo://app?vid=5ec073aa-18e6-4044-bcd0-8d52437b0fc1"},"vehicle_type_id":"4","last_reported":1748722229,"current_range_meters":6400,"station_id":"ce4bhh92rcd13ifvqfi0","pricing_plan_id":"cebpf4jnsgd1na2vs0mg"},{"bike_id":"1ccdd54d-71de-48ca-80cd-80f6896af0c0","system_id":"levelo_inurba_marseille","lat":43.31226,"lon":5.36839,"is_reserved":false,"is_disabled":false,"rental_uris":{"android":"levelo://app?vid=1ccdd54d-71de-48ca-80cd-80f6896af0c0","ios":"levelo://app?vid=1ccdd54d-71de-48ca-80cd-80f6896af0c0"},"vehicle_type_id":"4","last_reported":1748722229,"current_range_meters":6400,"station_id":"ce4bgl92rcd13ifvqbq0","pricing_plan_id":"cebpf4jnsgd1na2vs0mg"},{"bike_id":"b33c7bdb-0ed1-478c-9987-528c22fedbe9","system_id":"levelo_inurba_marseille","lat":43.240753,"lon":5.377611,"is_reserved":false,"is_disabled":false,"rental_uris":{"android":"levelo://app?vid=b33c7bdb-0ed1-478c-9987-528c22fedbe9","ios":"levelo://app?vid=b33c7bdb-0ed1-478c-9987-528c22fedbe9"},"vehicle_type_id":"4","last_reported":1748722229,"current_range_meters":6400,"station_id":"ce4bhnp2rcd13ifvqgvg","pricing_plan_id":"cebpf4jnsgd1na2vs0mg"},{"bike_id":"f114cddd-b530-4e18-bffd-fbee3bac4dac","system_id":"levelo_inurba_marseille","lat":43.32294,"lon":5.38274,"is_reserved":false,"is_disabled":false,"rental_uris":{"android":"levelo://app?vid=f114cddd-b530-4e18-bffd-fbee3bac4dac","ios":"levelo://app?vid=f114cddd-b530-4e18-bffd-fbee3bac4dac"},"vehicle_type_id":"4","last_reported":1748722229,"current_range_meters":6800,"station_id":"ce4bhr12rcd13ifvqhqg","pricing_plan_id":"cebpf4jnsgd1na2vs0mg"},{"bike_id":"3b96b2e2-a24d-410e-b651-125f4c2d43b0","system_id":"levelo_inurba_marseille","lat":43.3078,"lon":5.37645,"is_reserved":false,"is_disabled":false,"rental_uris":{"android":"levelo://app?vid=3b96b2e2-a24d-410e-b651-125f4c2d43b0","ios":"levelo://app?vid=3b96b2e2-a24d-410e-b651-125f4c2d43b0"},"vehicle_type_id":"4","last_reported":1748722229,"current_range_meters":6800,"station_id":"ce4bgv92rcd13ifvqcq0","pricing_plan_id":"cebpf4jnsgd1na2vs0mg"},{"bike_id":"3ac07f5e-7063-4806-95dc-abbb4c9f9e33","system_id":"levelo_inurba_marseille","lat":43.31533,"lon":5.38037,"is_reserved":false,"is_disabled":false,"rental_uris":{"android":"levelo://app?vid=3ac07f5e-7063-4806-95dc-abbb4c9f9e33","ios":"levelo://app?vid=3ac07f5e-7063-4806-95dc-abbb4c9f9e33"},"vehicle_type_id":"4","last_reported":1748722229,"current_range_meters":6400,"station_id":"ce4bhsp2rcd13ifvqi50","pricing_plan_id":"cebpf4jnsgd1na2vs0mg"},{"bike_id":"2e5d65dc-7b75-4e49-9e17-db185fe11321","system_id":"levelo_inurba_marseille","lat":43.31236,"lon":5.36857,"is_reserved":false,"is_disabled":true,"rental_uris":{"android":"levelo://app?vid=2e5d65dc-7b75-4e49-9e17-db185fe11321","ios":"levelo://app?vid=2e5d65dc-7b75-4e49-9e17-db185fe11321"},"vehicle_type_id":"4","last_reported":1748722229,"current_range_meters":6800,"station_id":"ce4bgl92rcd13ifvqbq0","pricing_plan_id":"cebpf4jnsgd1na2vs0mg"},{"bike_id":"6e732bca-9e80-4539-8286-d1b6800f59b4","system_id":"levelo_inurba_marseille","lat":43.30971,"lon":5.39033,"is_reserved":false,"is_disabled":false,"rental_uris":{"android":"levelo://app?vid=6e732bca-9e80-4539-8286-d1b6800f59b4","ios":"levelo://app?vid=6e732bca-9e80-4539-8286-d1b6800f59b4"},"vehicle_type_id":"4","last_reported":1748722229,"current_range_meters":6800,"station_id":"ce4bgup2rcd13ifvqco0","pricing_plan_id":"cebpf4jnsgd1na2vs0mg"},{"bike_id":"be024976-933a-4734-9e1e-ce6ed8fedd4f","system_id":"levelo_inurba_marseille","lat":43.26059,"lon":5.394,"is_reserved":false,"is_disabled":false,"rental_uris":{"android":"levelo://app?vid=be024976-933a-4734-9e1e-ce6ed8fedd4f","ios":"levelo://app?vid=be024976-933a-4734-9e1e-ce6ed8fedd4f"},"vehicle_type_id":"4","last_reported":1748722229,"current_range_meters":6400,"station_id":"ce4bhh92rcd13ifvqfj0","pricing_plan_id":"cebpf4jnsgd1na2vs0mg"},{"bike_id":"381f1f40-406f-4c66-9b5c-2d132a2aab7f","system_id":"levelo_inurba_marseille","lat":43.231528,"lon":5.437137,"is_reserved":false,"is_disabled":false,"rental_uris":{"android":"levelo://app?vid=381f1f40-406f-4c66-9b5c-2d132a2aab7f","ios":"levelo://app?vid=381f1f40-406f-4c66-9b5c-2d132a2aab7f"},"vehicle_type_id":"4","last_reported":1748722229,"current_range_meters":6800,"station_id":"","pricing_plan_id":"cebpf4jnsgd1na2vs0mg"},{"bike_id":"0c0c0eb4-585a-4deb-a8df-eb8f2ff31799","system_id":"levelo_inurba_marseille","lat":43.29629,"lon":5.40593,"is_reserved":false,"is_disabled":false,"rental_uris":{"android":"levelo://app?vid=0c0c0eb4-585a-4deb-a8df-eb8f2ff31799","ios":"levelo://app?vid=0c0c0eb4-585a-4deb-a8df-eb8f2ff31799"},"vehicle_type_id":"4","last_reported":1748722229,"current_range_meters":6800,"station_id":"ce4bh0h2rcd13ifvqd60","pricing_plan_id":"cebpf4jnsgd1na2vs0mg"},{"bike_id":"82ce820a-c4c6-4ac7-9b7f-30fa70c9c3f3","system_id":"levelo_inurba_marseille","lat":43.27823,"lon":5.40718,"is_reserved":false,"is_disabled":false,"rental_uris":{"android":"levelo://app?vid=82ce820a-c4c6-4ac7-9b7f-30fa70c9c3f3","ios":"levelo://app?vid=82ce820a-c4c6-4ac7-9b7f-30fa70c9c3f3"},"vehicle_type_id":"4","last_reported":1748722229,"current_range_meters":6800,"station_id":"ce4bhnh2rcd13ifvqgtg","pricing_plan_id":"cebpf4jnsgd1na2vs0mg"},{"bike_id":"5fd552c5-fa26-4bb2-bc74-1e9dd8e3f325","system_id":"levelo_inurba_marseille","lat":43.31363,"lon":5.38494,"is_reserved":false,"is_disabled":false,"rental_uris":{"android":"levelo://app?vid=5fd552c5-fa26-4bb2-bc74-1e9dd8e3f325","ios":"levelo://app?vid=5fd552c5-fa26-4bb2-bc74-1e9dd8e3f325"},"vehicle_type_id":"4","last_reported":1748722229,"current_range_meters":6800,"station_id":"ce4bgt92rcd13ifvqcf0","pricing_plan_id":"cebpf4jnsgd1na2vs0mg"},{"bike_id":"ab83736a-975e-485a-85b4-dda2704f05ed","system_id":"levelo_inurba_marseille","lat":43.27907,"lon":5.38027,"is_reserved":false,"is_disabled":false,"rental_uris":{"android":"levelo://app?vid=ab83736a-975e-485a-85b4-dda2704f05ed","ios":"levelo://app?vid=ab83736a-975e-485a-85b4-dda2704f05ed"},"vehicle_type_id":"4","last_reported":1748722229,"current_range_meters":7200,"station_id":"ce4bhf92rcd13ifvqf50","pricing_plan_id":"cebpf4jnsgd1na2vs0mg"},{"bike_id":"7744b0bc-9255-402e-8dd0-6b3090927fb9","system_id":"levelo_inurba_marseille","lat":43.26941,"lon":5.40271,"is_reserved":false,"is_disabled":true,"rental_uris":{"android":"levelo://app?vid=7744b0bc-9255-402e-8dd0-6b3090927fb9","ios":"levelo://app?vid=7744b0bc-9255-402e-8dd0-6b3090927fb9"},"vehicle_type_id":"4","last_reported":1748722229,"current_range_meters":7200,"station_id":"cjm6bp8fraef2m0cb0m0","pricing_plan_id":"cebpf4jnsgd1na2vs0mg"},{"bike_id":"414f50f9-4176-475f-adf2-0466f70c8059","system_id":"levelo_inurba_marseille","lat":43.25942,"lon":5.40909,"is_reserved":false,"is_disabled":false,"rental_uris":{"android":"levelo://app?vid=414f50f9-4176-475f-adf2-0466f70c8059","ios":"levelo://app?vid=414f50f9-4176-475f-adf2-0466f70c8059"},"vehicle_type_id":"4","last_reported":1748722229,"current_range_meters":7200,"station_id":"ce4bhm92rcd13ifvqglg","pricing_plan_id":"cebpf4jnsgd1na2vs0mg"},{"bike_id":"c6171ce6-fe5c-4557-a8d2-781d84c40efa","system_id":"levelo_inurba_marseille","lat":43.2706,"lon":5.40256,"is_reserved":false,"is_disabled":false,"rental_uris":{"android":"levelo://app?vid=c6171ce6-fe5c-4557-a8d2-781d84c40efa","ios":"levelo://app?vid=c6171ce6-fe5c-4557-a8d2-781d84c40efa"},"vehicle_type_id":"4","last_reported":1748722229,"current_range_meters":7200,"station_id":"ce4bhk92rcd13ifvqgc0","pricing_plan_id":"cebpf4jnsgd1na2vs0mg"},{"bike_id":"e372cd62-3f54-4399-8b54-ee30195f8351","system_id":"levelo_inurba_marseille","lat":43.262258,"lon":5.4046,"is_reserved":false,"is_disabled":false,"rental_uris":{"android":"levelo://app?vid=e372cd62-3f54-4399-8b54-ee30195f8351","ios":"levelo://app?vid=e372cd62-3f54-4399-8b54-ee30195f8351"},"vehicle_type_id":"4","last_reported":1748722229,"current_range_meters":7200,"station_id":"ce4bhmh2rcd13ifvqgmg","pricing_plan_id":"cebpf4jnsgd1na2vs0mg"},{"bike_id":"fa8ce86e-34a8-4e2d-a373-be7085b62d48","system_id":"levelo_inurba_marseille","lat":43.31486,"lon":5.37306,"is_reserved":false,"is_disabled":false,"rental_uris":{"android":"levelo://app?vid=fa8ce86e-34a8-4e2d-a373-be7085b62d48","ios":"levelo://app?vid=fa8ce86e-34a8-4e2d-a373-be7085b62d48"},"vehicle_type_id":"4","last_reported":1748722229,"current_range_meters":7200,"station_id":"ce4bgt12rcd13ifvqcd0","pricing_plan_id":"cebpf4jnsgd1na2vs0mg"},{"bike_id":"ea1f019a-11dc-43d8-9095-9a5b356bf87d","system_id":"levelo_inurba_marseille","lat":43.26225,"lon":5.4045,"is_reserved":false,"is_disabled":false,"rental_uris":{"android":"levelo://app?vid=ea1f019a-11dc-43d8-9095-9a5b356bf87d","ios":"levelo://app?vid=ea1f019a-11dc-43d8-9095-9a5b356bf87d"},"vehicle_type_id":"4","last_reported":1748722229,"current_range_meters":7200,"station_id":"ce4bhmh2rcd13ifvqgmg","pricing_plan_id":"cebpf4jnsgd1na2vs0mg"},{"bike_id":"c33cd229-276e-4b18-8c3b-6e68856b0ec1","system_id":"levelo_inurba_marseille","lat":43.23154,"lon":5.43709,"is_reserved":false,"is_disabled":false,"rental_uris":{"android":"levelo://app?vid=c33cd229-276e-4b18-8c3b-6e68856b0ec1","ios":"levelo://app?vid=c33cd229-276e-4b18-8c3b-6e68856b0ec1"},"vehicle_type_id":"4","last_reported":1748722229,"current_range_meters":7200,"station_id":"ce4bhmp2rcd13ifvqgog","pricing_plan_id":"cebpf4jnsgd1na2vs0mg"},{"bike_id":"f2a9d16c-47c0-4612-8bf1-88597c5b6853","system_id":"levelo_inurba_marseille","lat":43.29928,"lon":5.37489,"is_reserved":false,"is_disabled":false,"rental_uris":{"android":"levelo://app?vid=f2a9d16c-47c0-4612-8bf1-88597c5b6853","ios":"levelo://app?vid=f2a9d16c-47c0-4612-8bf1-88597c5b6853"},"vehicle_type_id":"4","last_reported":1748722229,"current_range_meters":7200,"station_id":"ce4bgjh2rcd13ifvqbg0","pricing_plan_id":"cebpf4jnsgd1na2vs0mg"},{"bike_id":"391f01da-bda5-42cb-847e-5bd541a160b5","system_id":"levelo_inurba_marseille","lat":43.27378,"lon":5.36251,"is_reserved":false,"is_disabled":true,"rental_uris":{"android":"levelo://app?vid=391f01da-bda5-42cb-847e-5bd541a160b5","ios":"levelo://app?vid=391f01da-bda5-42cb-847e-5bd541a160b5"},"vehicle_type_id":"4","last_reported":1748722229,"current_range_meters":8000,"station_id":"ce4bhbh2rcd13ifvqeo0","pricing_plan_id":"cebpf4jnsgd1na2vs0mg"},{"bike_id":"f6c18757-42cd-40e6-82c2-99bf51f27297","system_id":"levelo_inurba_marseille","lat":43.21779,"lon":5.34573,"is_reserved":false,"is_disabled":true,"rental_uris":{"android":"levelo://app?vid=f6c18757-42cd-40e6-82c2-99bf51f27297","ios":"levelo://app?vid=f6c18757-42cd-40e6-82c2-99bf51f27297"},"vehicle_type_id":"4","last_reported":1748722229,"current_range_meters":8000,"station_id":"","pricing_plan_id":"cebpf4jnsgd1na2vs0mg"},{"bike_id":"4587c898-1014-4728-ba58-926f5211c4f4","system_id":"levelo_inurba_marseille","lat":43.27962,"lon":5.41021,"is_reserved":false,"is_disabled":false,"rental_uris":{"android":"levelo://app?vid=4587c898-1014-4728-ba58-926f5211c4f4","ios":"levelo://app?vid=4587c898-1014-4728-ba58-926f5211c4f4"},"vehicle_type_id":"4","last_reported":1748722229,"current_range_meters":8000,"station_id":"ce4bhnp2rcd13ifvqh0g","pricing_plan_id":"cebpf4jnsgd1na2vs0mg"},{"bike_id":"8b9b6455-f705-477c-b3bc-36b00650ea20","system_id":"levelo_inurba_marseille","lat":43.25115,"lon":5.403262,"is_reserved":false,"is_disabled":false,"rental_uris":{"android":"levelo://app?vid=8b9b6455-f705-477c-b3bc-36b00650ea20","ios":"levelo://app?vid=8b9b6455-f705-477c-b3bc-36b00650ea20"},"vehicle_type_id":"4","last_reported":1748722229,"current_range_meters":8000,"station_id":"ce4bhlh2rcd13ifvqgig","pricing_plan_id":"cebpf4jnsgd1na2vs0mg"},{"bike_id":"742ea022-7ec3-403b-ab76-b027020c7592","system_id":"levelo_inurba_marseille","lat":43.32299,"lon":5.38255,"is_reserved":false,"is_disabled":false,"rental_uris":{"android":"levelo://app?vid=742ea022-7ec3-403b-ab76-b027020c7592","ios":"levelo://app?vid=742ea022-7ec3-403b-ab76-b027020c7592"},"vehicle_type_id":"4","last_reported":1748722229,"current_range_meters":8400,"station_id":"ce4bhr12rcd13ifvqhqg","pricing_plan_id":"cebpf4jnsgd1na2vs0mg"},{"bike_id":"7d94d141-85b7-459f-8145-ecf7ff558aa4","system_id":"levelo_inurba_marseille","lat":43.29416,"lon":5.38623,"is_reserved":false,"is_disabled":false,"rental_uris":{"android":"levelo://app?vid=7d94d141-85b7-459f-8145-ecf7ff558aa4","ios":"levelo://app?vid=7d94d141-85b7-459f-8145-ecf7ff558aa4"},"vehicle_type_id":"4","last_reported":1748722229,"current_range_meters":8400,"station_id":"ce4bh2h2rcd13ifvqdh0","pricing_plan_id":"cebpf4jnsgd1na2vs0mg"},{"bike_id":"b3d3327c-bc79-4ae9-9e3d-342d722fe218","system_id":"levelo_inurba_marseille","lat":43.309581,"lon":5.390331,"is_reserved":false,"is_disabled":false,"rental_uris":{"android":"levelo://app?vid=b3d3327c-bc79-4ae9-9e3d-342d722fe218","ios":"levelo://app?vid=b3d3327c-bc79-4ae9-9e3d-342d722fe218"},"vehicle_type_id":"4","last_reported":1748722229,"current_range_meters":8400,"station_id":"ce4bgup2rcd13ifvqco0","pricing_plan_id":"cebpf4jnsgd1na2vs0mg"},{"bike_id":"2b201de7-06ee-44b6-9c85-dda11376754f","system_id":"levelo_inurba_marseille","lat":43.24368,"lon":5.38018,"is_reserved":false,"is_disabled":false,"rental_uris":{"android":"levelo://app?vid=2b201de7-06ee-44b6-9c85-dda11376754f","ios":"levelo://app?vid=2b201de7-06ee-44b6-9c85-dda11376754f"},"vehicle_type_id":"4","last_reported":1748722229,"current_range_meters":8400,"station_id":"","pricing_plan_id":"cebpf4jnsgd1na2vs0mg"},{"bike_id":"4b135618-3d37-4c3b-99a9-8ae08d5df65d","system_id":"levelo_inurba_marseille","lat":43.302,"lon":5.36623,"is_reserved":false,"is_disabled":false,"rental_uris":{"android":"levelo://app?vid=4b135618-3d37-4c3b-99a9-8ae08d5df65d","ios":"levelo://app?vid=4b135618-3d37-4c3b-99a9-8ae08d5df65d"},"vehicle_type_id":"4","last_reported":1748722229,"current_range_meters":8800,"station_id":"ce4bgrh2rcd13ifvqc8g","pricing_plan_id":"cebpf4jnsgd1na2vs0mg"},{"bike_id":"e62a208c-23d3-4f22-bdab-aa660ac5353a","system_id":"levelo_inurba_marseille","lat":43.26237,"lon":5.37946,"is_reserved":false,"is_disabled":false,"rental_uris":{"android":"levelo://app?vid=e62a208c-23d3-4f22-bdab-aa660ac5353a","ios":"levelo://app?vid=e62a208c-23d3-4f22-bdab-aa660ac5353a"},"vehicle_type_id":"4","last_reported":1748722229,"current_range_meters":8800,"station_id":"ce4bhjp2rcd13ifvqg90","pricing_plan_id":"cebpf4jnsgd1na2vs0mg"},{"bike_id":"a14d8e40-c994-4f1c-b643-8a3b58a2eb79","system_id":"levelo_inurba_marseille","lat":43.29266,"lon":5.38206,"is_reserved":false,"is_disabled":false,"rental_uris":{"android":"levelo://app?vid=a14d8e40-c994-4f1c-b643-8a3b58a2eb79","ios":"levelo://app?vid=a14d8e40-c994-4f1c-b643-8a3b58a2eb79"},"vehicle_type_id":"4","last_reported":1748722229,"current_range_meters":8800,"station_id":"","pricing_plan_id":"cebpf4jnsgd1na2vs0mg"},{"bike_id":"c3eafc8a-e92a-4041-883e-6ae81451ec71","system_id":"levelo_inurba_marseille","lat":43.27816,"lon":5.407128,"is_reserved":false,"is_disabled":false,"rental_uris":{"android":"levelo://app?vid=c3eafc8a-e92a-4041-883e-6ae81451ec71","ios":"levelo://app?vid=c3eafc8a-e92a-4041-883e-6ae81451ec71"},"vehicle_type_id":"4","last_reported":1748722229,"current_range_meters":8800,"station_id":"ce4bhnh2rcd13ifvqgtg","pricing_plan_id":"cebpf4jnsgd1na2vs0mg"},{"bike_id":"786c9962-5b69-4992-9175-960138a81900","system_id":"levelo_inurba_marseille","lat":43.31056,"lon":5.38358,"is_reserved":false,"is_disabled":false,"rental_uris":{"android":"levelo://app?vid=786c9962-5b69-4992-9175-960138a81900","ios":"levelo://app?vid=786c9962-5b69-4992-9175-960138a81900"},"vehicle_type_id":"4","last_reported":1748722229,"current_range_meters":9200,"station_id":"ce4bgv92rcd13ifvqcr0","pricing_plan_id":"cebpf4jnsgd1na2vs0mg"},{"bike_id":"5f3bda68-84fc-4d7e-bc5f-1436594c8068","system_id":"levelo_inurba_marseille","lat":43.2408,"lon":5.37748,"is_reserved":false,"is_disabled":false,"rental_uris":{"android":"levelo://app?vid=5f3bda68-84fc-4d7e-bc5f-1436594c8068","ios":"levelo://app?vid=5f3bda68-84fc-4d7e-bc5f-1436594c8068"},"vehicle_type_id":"4","last_reported":1748722229,"current_range_meters":9200,"station_id":"ce4bhnp2rcd13ifvqgvg","pricing_plan_id":"cebpf4jnsgd1na2vs0mg"},{"bike_id":"5f4d66b3-1843-4afa-a9e4-716510d4befe","system_id":"levelo_inurba_marseille","lat":43.299591,"lon":5.384915,"is_reserved":false,"is_disabled":false,"rental_uris":{"android":"levelo://app?vid=5f4d66b3-1843-4afa-a9e4-716510d4befe","ios":"levelo://app?vid=5f4d66b3-1843-4afa-a9e4-716510d4befe"},"vehicle_type_id":"4","last_reported":1748722229,"current_range_meters":9200,"station_id":"ce4bgj92rcd13ifvqbd0","pricing_plan_id":"cebpf4jnsgd1na2vs0mg"},{"bike_id":"27ba562f-12f3-4f62-9853-58ba40f25d32","system_id":"levelo_inurba_marseille","lat":43.27994,"lon":5.41656,"is_reserved":false,"is_disabled":false,"rental_uris":{"android":"levelo://app?vid=27ba562f-12f3-4f62-9853-58ba40f25d32","ios":"levelo://app?vid=27ba562f-12f3-4f62-9853-58ba40f25d32"},"vehicle_type_id":"4","last_reported":1748722229,"current_range_meters":8800,"station_id":"ce4bho12rcd13ifvqh1g","pricing_plan_id":"cebpf4jnsgd1na2vs0mg"},{"bike_id":"8d48119e-760e-4c00-b401-59af0a322afa","system_id":"levelo_inurba_marseille","lat":43.256624,"lon":5.408649,"is_reserved":false,"is_disabled":false,"rental_uris":{"android":"levelo://app?vid=8d48119e-760e-4c00-b401-59af0a322afa","ios":"levelo://app?vid=8d48119e-760e-4c00-b401-59af0a322afa"},"vehicle_type_id":"4","last_reported":1748722229,"current_range_meters":9200,"station_id":"","pricing_plan_id":"cebpf4jnsgd1na2vs0mg"},{"bike_id":"820a6ed9-e749-41d2-a98b-54129352e8fa","system_id":"levelo_inurba_marseille","lat":43.30295,"lon":5.39217,"is_reserved":false,"is_disabled":false,"rental_uris":{"android":"levelo://app?vid=820a6ed9-e749-41d2-a98b-54129352e8fa","ios":"levelo://app?vid=820a6ed9-e749-41d2-a98b-54129352e8fa"},"vehicle_type_id":"4","last_reported":1748722229,"current_range_meters":9200,"station_id":"ce4bgkh2rcd13ifvqbk0","pricing_plan_id":"cebpf4jnsgd1na2vs0mg"},{"bike_id":"ead2a1ba-470f-4b26-b075-7b90071654cb","system_id":"levelo_inurba_marseille","lat":43.31173,"lon":5.38714,"is_reserved":false,"is_disabled":false,"rental_uris":{"android":"levelo://app?vid=ead2a1ba-470f-4b26-b075-7b90071654cb","ios":"levelo://app?vid=ead2a1ba-470f-4b26-b075-7b90071654cb"},"vehicle_type_id":"4","last_reported":1748722229,"current_range_meters":9200,"station_id":"ce4bgv12rcd13ifvqcp0","pricing_plan_id":"cebpf4jnsgd1na2vs0mg"},{"bike_id":"ddcde283-4067-4c90-9ac3-7f8f2acdd2b2","system_id":"levelo_inurba_marseille","lat":43.30597,"lon":5.39367,"is_reserved":false,"is_disabled":false,"rental_uris":{"android":"levelo://app?vid=ddcde283-4067-4c90-9ac3-7f8f2acdd2b2","ios":"levelo://app?vid=ddcde283-4067-4c90-9ac3-7f8f2acdd2b2"},"vehicle_type_id":"4","last_reported":1748722229,"current_range_meters":9600,"station_id":"ce4bh0p2rcd13ifvqd80","pricing_plan_id":"cebpf4jnsgd1na2vs0mg"},{"bike_id":"2a8d62df-9a59-400a-b2a2-107ab546e90d","system_id":"levelo_inurba_marseille","lat":43.28937,"lon":5.36643,"is_reserved":false,"is_disabled":false,"rental_uris":{"android":"levelo://app?vid=2a8d62df-9a59-400a-b2a2-107ab546e90d","ios":"levelo://app?vid=2a8d62df-9a59-400a-b2a2-107ab546e90d"},"vehicle_type_id":"4","last_reported":1748722229,"current_range_meters":9600,"station_id":"ce4bhap2rcd13ifvqek0","pricing_plan_id":"cebpf4jnsgd1na2vs0mg"},{"bike_id":"896a8302-610b-4858-980f-e3e84e78d174","system_id":"levelo_inurba_marseille","lat":43.29431,"lon":5.38663,"is_reserved":false,"is_disabled":false,"rental_uris":{"android":"levelo://app?vid=896a8302-610b-4858-980f-e3e84e78d174","ios":"levelo://app?vid=896a8302-610b-4858-980f-e3e84e78d174"},"vehicle_type_id":"4","last_reported":1748722229,"current_range_meters":9600,"station_id":"ce4bh2h2rcd13ifvqdh0","pricing_plan_id":"cebpf4jnsgd1na2vs0mg"},{"bike_id":"6dbec55b-fee0-4a3a-9ed2-723f9ae1c783","system_id":"levelo_inurba_marseille","lat":43.299113,"lon":5.436576,"is_reserved":false,"is_disabled":true,"rental_uris":{"android":"levelo://app?vid=6dbec55b-fee0-4a3a-9ed2-723f9ae1c783","ios":"levelo://app?vid=6dbec55b-fee0-4a3a-9ed2-723f9ae1c783"},"vehicle_type_id":"4","last_reported":1748722229,"current_range_meters":9600,"station_id":"ce4bhpp2rcd13ifvqhfg","pricing_plan_id":"cebpf4jnsgd1na2vs0mg"},{"bike_id":"d2e03246-f3a4-4bf9-b14c-37edacb42565","system_id":"levelo_inurba_marseille","lat":43.289423,"lon":5.363857,"is_reserved":false,"is_disabled":false,"rental_uris":{"android":"levelo://app?vid=d2e03246-f3a4-4bf9-b14c-37edacb42565","ios":"levelo://app?vid=d2e03246-f3a4-4bf9-b14c-37edacb42565"},"vehicle_type_id":"4","last_reported":1748722229,"current_range_meters":9600,"station_id":"ce4bhc92rcd13ifvqetg","pricing_plan_id":"cebpf4jnsgd1na2vs0mg"},{"bike_id":"d44ce7c5-185e-4aba-bc3d-6b055ffe9d13","system_id":"levelo_inurba_marseille","lat":43.28931,"lon":5.36655,"is_reserved":false,"is_disabled":false,"rental_uris":{"android":"levelo://app?vid=d44ce7c5-185e-4aba-bc3d-6b055ffe9d13","ios":"levelo://app?vid=d44ce7c5-185e-4aba-bc3d-6b055ffe9d13"},"vehicle_type_id":"4","last_reported":1748722229,"current_range_meters":9600,"station_id":"ce4bhap2rcd13ifvqek0","pricing_plan_id":"cebpf4jnsgd1na2vs0mg"},{"bike_id":"01e4ed6b-e9a5-4944-8ecd-6edf8a5120d9","system_id":"levelo_inurba_marseille","lat":43.31063,"lon":5.38358,"is_reserved":false,"is_disabled":false,"rental_uris":{"android":"levelo://app?vid=01e4ed6b-e9a5-4944-8ecd-6edf8a5120d9","ios":"levelo://app?vid=01e4ed6b-e9a5-4944-8ecd-6edf8a5120d9"},"vehicle_type_id":"4","last_reported":1748722229,"current_range_meters":9600,"station_id":"ce4bgv92rcd13ifvqcr0","pricing_plan_id":"cebpf4jnsgd1na2vs0mg"},{"bike_id":"eb1bc43a-9598-4323-bc64-8e66ae02fec9","system_id":"levelo_inurba_marseille","lat":43.30141,"lon":5.39867,"is_reserved":false,"is_disabled":false,"rental_uris":{"android":"levelo://app?vid=eb1bc43a-9598-4323-bc64-8e66ae02fec9","ios":"levelo://app?vid=eb1bc43a-9598-4323-bc64-8e66ae02fec9"},"vehicle_type_id":"4","last_reported":1748722229,"current_range_meters":9600,"station_id":"ce4bh0h2rcd13ifvqd40","pricing_plan_id":"cebpf4jnsgd1na2vs0mg"},{"bike_id":"a2a7a170-def3-4e36-a979-f9f30666f671","system_id":"levelo_inurba_marseille","lat":43.29377,"lon":5.37825,"is_reserved":false,"is_disabled":false,"rental_uris":{"android":"levelo://app?vid=a2a7a170-def3-4e36-a979-f9f30666f671","ios":"levelo://app?vid=a2a7a170-def3-4e36-a979-f9f30666f671"},"vehicle_type_id":"4","last_reported":1748722229,"current_range_meters":9600,"station_id":"ce4bgjh2rcd13ifvqbf0","pricing_plan_id":"cebpf4jnsgd1na2vs0mg"},{"bike_id":"6d7c16a6-7340-444a-951d-e56443909105","system_id":"levelo_inurba_marseille","lat":43.21205,"lon":5.35071,"is_reserved":false,"is_disabled":false,"rental_uris":{"android":"levelo://app?vid=6d7c16a6-7340-444a-951d-e56443909105","ios":"levelo://app?vid=6d7c16a6-7340-444a-951d-e56443909105"},"vehicle_type_id":"4","last_reported":1748722229,"current_range_meters":9600,"station_id":"st_cvj6sg6p6f1abm77japg","pricing_plan_id":"cebpf4jnsgd1na2vs0mg"},{"bike_id":"faad8554-a7cc-4f94-9b2f-9338c86d7d5d","system_id":"levelo_inurba_marseille","lat":43.292767,"lon":5.401132,"is_reserved":false,"is_disabled":false,"rental_uris":{"android":"levelo://app?vid=faad8554-a7cc-4f94-9b2f-9338c86d7d5d","ios":"levelo://app?vid=faad8554-a7cc-4f94-9b2f-9338c86d7d5d"},"vehicle_type_id":"4","last_reported":1748722229,"current_range_meters":9200,"station_id":"ce4bh312rcd13ifvqdk0","pricing_plan_id":"cebpf4jnsgd1na2vs0mg"},{"bike_id":"23a8f3c4-21a6-46df-a7da-136674bed0a1","system_id":"levelo_inurba_marseille","lat":43.27815,"lon":5.40711,"is_reserved":false,"is_disabled":false,"rental_uris":{"android":"levelo://app?vid=23a8f3c4-21a6-46df-a7da-136674bed0a1","ios":"levelo://app?vid=23a8f3c4-21a6-46df-a7da-136674bed0a1"},"vehicle_type_id":"4","last_reported":1748722229,"current_range_meters":9600,"station_id":"ce4bhnh2rcd13ifvqgtg","pricing_plan_id":"cebpf4jnsgd1na2vs0mg"},{"bike_id":"63c9de02-e7e2-4389-913f-d4fb455361cd","system_id":"levelo_inurba_marseille","lat":43.27338,"lon":5.39099,"is_reserved":false,"is_disabled":false,"rental_uris":{"android":"levelo://app?vid=63c9de02-e7e2-4389-913f-d4fb455361cd","ios":"levelo://app?vid=63c9de02-e7e2-4389-913f-d4fb455361cd"},"vehicle_type_id":"4","last_reported":1748722229,"current_range_meters":9600,"station_id":"ce4bhgp2rcd13ifvqfe0","pricing_plan_id":"cebpf4jnsgd1na2vs0mg"},{"bike_id":"ffcf4a1d-39b8-42f4-ae2c-20b438bad2f3","system_id":"levelo_inurba_marseille","lat":43.29535,"lon":5.38549,"is_reserved":false,"is_disabled":false,"rental_uris":{"android":"levelo://app?vid=ffcf4a1d-39b8-42f4-ae2c-20b438bad2f3","ios":"levelo://app?vid=ffcf4a1d-39b8-42f4-ae2c-20b438bad2f3"},"vehicle_type_id":"4","last_reported":1748722229,"current_range_meters":9600,"station_id":"ce4bgih2rcd13ifvqba0","pricing_plan_id":"cebpf4jnsgd1na2vs0mg"},{"bike_id":"0d3bab2f-26cf-41f1-82dd-bb5db963b288","system_id":"levelo_inurba_marseille","lat":43.32542,"lon":5.36483,"is_reserved":false,"is_disabled":true,"rental_uris":{"android":"levelo://app?vid=0d3bab2f-26cf-41f1-82dd-bb5db963b288","ios":"levelo://app?vid=0d3bab2f-26cf-41f1-82dd-bb5db963b288"},"vehicle_type_id":"4","last_reported":1748722229,"current_range_meters":9600,"station_id":"","pricing_plan_id":"cebpf4jnsgd1na2vs0mg"},{"bike_id":"cdfe7084-954a-44fe-ab3e-19ab80148445","system_id":"levelo_inurba_marseille","lat":43.30965,"lon":5.39038,"is_reserved":false,"is_disabled":false,"rental_uris":{"android":"levelo://app?vid=cdfe7084-954a-44fe-ab3e-19ab80148445","ios":"levelo://app?vid=cdfe7084-954a-44fe-ab3e-19ab80148445"},"vehicle_type_id":"4","last_reported":1748722229,"current_range_meters":9600,"station_id":"ce4bgup2rcd13ifvqco0","pricing_plan_id":"cebpf4jnsgd1na2vs0mg"},{"bike_id":"39c30834-140a-4375-850c-22aefa03482a","system_id":"levelo_inurba_marseille","lat":43.25111,"lon":5.40321,"is_reserved":false,"is_disabled":false,"rental_uris":{"android":"levelo://app?vid=39c30834-140a-4375-850c-22aefa03482a","ios":"levelo://app?vid=39c30834-140a-4375-850c-22aefa03482a"},"vehicle_type_id":"4","last_reported":1748722229,"current_range_meters":9600,"station_id":"ce4bhlh2rcd13ifvqgig","pricing_plan_id":"cebpf4jnsgd1na2vs0mg"},{"bike_id":"79a5f6b8-3eb7-4888-b9a1-76e848c5f305","system_id":"levelo_inurba_marseille","lat":43.29517,"lon":5.39412,"is_reserved":false,"is_disabled":true,"rental_uris":{"android":"levelo://app?vid=79a5f6b8-3eb7-4888-b9a1-76e848c5f305","ios":"levelo://app?vid=79a5f6b8-3eb7-4888-b9a1-76e848c5f305"},"vehicle_type_id":"4","last_reported":1748722229,"current_range_meters":9600,"station_id":"ce4bh292rcd13ifvqdf0","pricing_plan_id":"cebpf4jnsgd1na2vs0mg"},{"bike_id":"08d05153-89d3-4edf-8e37-c9b7c4af0579","system_id":"levelo_inurba_marseille","lat":43.28407,"lon":5.3751,"is_reserved":false,"is_disabled":false,"rental_uris":{"android":"levelo://app?vid=08d05153-89d3-4edf-8e37-c9b7c4af0579","ios":"levelo://app?vid=08d05153-89d3-4edf-8e37-c9b7c4af0579"},"vehicle_type_id":"4","last_reported":1748722229,"current_range_meters":9600,"station_id":"ce4bh412rcd13ifvqds0","pricing_plan_id":"cebpf4jnsgd1na2vs0mg"},{"bike_id":"22949bde-52c0-42f8-aed6-0536d4296339","system_id":"levelo_inurba_marseille","lat":43.295807,"lon":5.37499,"is_reserved":false,"is_disabled":true,"rental_uris":{"android":"levelo://app?vid=22949bde-52c0-42f8-aed6-0536d4296339","ios":"levelo://app?vid=22949bde-52c0-42f8-aed6-0536d4296339"},"vehicle_type_id":"4","last_reported":1748722229,"current_range_meters":10000,"station_id":"ce4bgh92rcd13ifvqb50","pricing_plan_id":"cebpf4jnsgd1na2vs0mg"},{"bike_id":"f4e49996-ce0c-42e7-9a15-35b5f4497b3e","system_id":"levelo_inurba_marseille","lat":43.32287,"lon":5.382755,"is_reserved":false,"is_disabled":false,"rental_uris":{"android":"levelo://app?vid=f4e49996-ce0c-42e7-9a15-35b5f4497b3e","ios":"levelo://app?vid=f4e49996-ce0c-42e7-9a15-35b5f4497b3e"},"vehicle_type_id":"4","last_reported":1748722229,"current_range_meters":10000,"station_id":"ce4bhr12rcd13ifvqhqg","pricing_plan_id":"cebpf4jnsgd1na2vs0mg"},{"bike_id":"5eefbdd1-9f53-452d-9830-9fdb2b29353d","system_id":"levelo_inurba_marseille","lat":43.30212,"lon":5.39471,"is_reserved":false,"is_disabled":false,"rental_uris":{"android":"levelo://app?vid=5eefbdd1-9f53-452d-9830-9fdb2b29353d","ios":"levelo://app?vid=5eefbdd1-9f53-452d-9830-9fdb2b29353d"},"vehicle_type_id":"4","last_reported":1748722229,"current_range_meters":10000,"station_id":"ce4bh0p2rcd13ifvqd70","pricing_plan_id":"cebpf4jnsgd1na2vs0mg"},{"bike_id":"acfbab2f-8c03-44c7-8a2f-cb74efcc20a6","system_id":"levelo_inurba_marseille","lat":43.30286,"lon":5.37315,"is_reserved":false,"is_disabled":false,"rental_uris":{"android":"levelo://app?vid=acfbab2f-8c03-44c7-8a2f-cb74efcc20a6","ios":"levelo://app?vid=acfbab2f-8c03-44c7-8a2f-cb74efcc20a6"},"vehicle_type_id":"4","last_reported":1748722229,"current_range_meters":10000,"station_id":"","pricing_plan_id":"cebpf4jnsgd1na2vs0mg"},{"bike_id":"88156d05-def4-4b36-a01c-bf5f823d7052","system_id":"levelo_inurba_marseille","lat":43.269524,"lon":5.402478,"is_reserved":false,"is_disabled":false,"rental_uris":{"android":"levelo://app?vid=88156d05-def4-4b36-a01c-bf5f823d7052","ios":"levelo://app?vid=88156d05-def4-4b36-a01c-bf5f823d7052"},"vehicle_type_id":"4","last_reported":1748722229,"current_range_meters":10000,"station_id":"cjm6bp8fraef2m0cb0m0","pricing_plan_id":"cebpf4jnsgd1na2vs0mg"},{"bike_id":"9854e2a4-f9c6-4c61-9386-aa9bad1e97ae","system_id":"levelo_inurba_marseille","lat":43.24661,"lon":5.38876,"is_reserved":false,"is_disabled":false,"rental_uris":{"android":"levelo://app?vid=9854e2a4-f9c6-4c61-9386-aa9bad1e97ae","ios":"levelo://app?vid=9854e2a4-f9c6-4c61-9386-aa9bad1e97ae"},"vehicle_type_id":"4","last_reported":1748722229,"current_range_meters":10000,"station_id":"ce4bhg12rcd13ifvqf60","pricing_plan_id":"cebpf4jnsgd1na2vs0mg"},{"bike_id":"6581ab83-0f99-4e86-9c7b-86625aafd107","system_id":"levelo_inurba_marseille","lat":43.274305,"lon":5.39419,"is_reserved":false,"is_disabled":false,"rental_uris":{"android":"levelo://app?vid=6581ab83-0f99-4e86-9c7b-86625aafd107","ios":"levelo://app?vid=6581ab83-0f99-4e86-9c7b-86625aafd107"},"vehicle_type_id":"4","last_reported":1748722229,"current_range_meters":10000,"station_id":"","pricing_plan_id":"cebpf4jnsgd1na2vs0mg"},{"bike_id":"c9ba1849-3db3-4065-98d8-5f0119655c61","system_id":"levelo_inurba_marseille","lat":43.28981,"lon":5.37828,"is_reserved":false,"is_disabled":false,"rental_uris":{"android":"levelo://app?vid=c9ba1849-3db3-4065-98d8-5f0119655c61","ios":"levelo://app?vid=c9ba1849-3db3-4065-98d8-5f0119655c61"},"vehicle_type_id":"4","last_reported":1748722229,"current_range_meters":10000,"station_id":"ce4bh9p2rcd13ifvqed0","pricing_plan_id":"cebpf4jnsgd1na2vs0mg"},{"bike_id":"b9dbee2c-5ddf-4684-981c-617fd4b5d81b","system_id":"levelo_inurba_marseille","lat":43.313,"lon":5.38486,"is_reserved":false,"is_disabled":false,"rental_uris":{"android":"levelo://app?vid=b9dbee2c-5ddf-4684-981c-617fd4b5d81b","ios":"levelo://app?vid=b9dbee2c-5ddf-4684-981c-617fd4b5d81b"},"vehicle_type_id":"4","last_reported":1748722229,"current_range_meters":10000,"station_id":"","pricing_plan_id":"cebpf4jnsgd1na2vs0mg"},{"bike_id":"16956ecc-ed47-44a5-bf64-7ac7c0de85fa","system_id":"levelo_inurba_marseille","lat":43.315686,"lon":5.369044,"is_reserved":false,"is_disabled":false,"rental_uris":{"android":"levelo://app?vid=16956ecc-ed47-44a5-bf64-7ac7c0de85fa","ios":"levelo://app?vid=16956ecc-ed47-44a5-bf64-7ac7c0de85fa"},"vehicle_type_id":"4","last_reported":1748722229,"current_range_meters":10000,"station_id":"","pricing_plan_id":"cebpf4jnsgd1na2vs0mg"},{"bike_id":"3870ab77-47e4-4934-b6b7-1b329f6c1102","system_id":"levelo_inurba_marseille","lat":43.295102,"lon":5.418113,"is_reserved":false,"is_disabled":false,"rental_uris":{"android":"levelo://app?vid=3870ab77-47e4-4934-b6b7-1b329f6c1102","ios":"levelo://app?vid=3870ab77-47e4-4934-b6b7-1b329f6c1102"},"vehicle_type_id":"4","last_reported":1748722229,"current_range_meters":10800,"station_id":"ce4bhop2rcd13ifvqh7g","pricing_plan_id":"cebpf4jnsgd1na2vs0mg"},{"bike_id":"9b994b70-5e3e-469c-aa68-c243e7ec5aaf","system_id":"levelo_inurba_marseille","lat":43.28365,"lon":5.38107,"is_reserved":false,"is_disabled":false,"rental_uris":{"android":"levelo://app?vid=9b994b70-5e3e-469c-aa68-c243e7ec5aaf","ios":"levelo://app?vid=9b994b70-5e3e-469c-aa68-c243e7ec5aaf"},"vehicle_type_id":"4","last_reported":1748722229,"current_range_meters":10000,"station_id":"ce4bh412rcd13ifvqdr0","pricing_plan_id":"cebpf4jnsgd1na2vs0mg"},{"bike_id":"c2f4feb8-42b5-42b5-9ed4-3cf882559179","system_id":"levelo_inurba_marseille","lat":43.29805,"lon":5.37382,"is_reserved":false,"is_disabled":false,"rental_uris":{"android":"levelo://app?vid=c2f4feb8-42b5-42b5-9ed4-3cf882559179","ios":"levelo://app?vid=c2f4feb8-42b5-42b5-9ed4-3cf882559179"},"vehicle_type_id":"4","last_reported":1748722229,"current_range_meters":10800,"station_id":"","pricing_plan_id":"cebpf4jnsgd1na2vs0mg"},{"bike_id":"ec864dde-b65e-4158-bd35-75127cf90271","system_id":"levelo_inurba_marseille","lat":43.21747,"lon":5.34587,"is_reserved":false,"is_disabled":true,"rental_uris":{"android":"levelo://app?vid=ec864dde-b65e-4158-bd35-75127cf90271","ios":"levelo://app?vid=ec864dde-b65e-4158-bd35-75127cf90271"},"vehicle_type_id":"4","last_reported":1748722229,"current_range_meters":10800,"station_id":"st_cvj6r9ubvosntc0bgbag","pricing_plan_id":"cebpf4jnsgd1na2vs0mg"},{"bike_id":"76a945ba-9ba8-414f-963a-73e1a106e0fc","system_id":"levelo_inurba_marseille","lat":43.26245,"lon":5.40431,"is_reserved":false,"is_disabled":false,"rental_uris":{"android":"levelo://app?vid=76a945ba-9ba8-414f-963a-73e1a106e0fc","ios":"levelo://app?vid=76a945ba-9ba8-414f-963a-73e1a106e0fc"},"vehicle_type_id":"4","last_reported":1748722229,"current_range_meters":10800,"station_id":"ce4bhmh2rcd13ifvqgmg","pricing_plan_id":"cebpf4jnsgd1na2vs0mg"},{"bike_id":"f6de2a97-b532-4ef7-aded-87c2addc6336","system_id":"levelo_inurba_marseille","lat":43.30937,"lon":5.40143,"is_reserved":false,"is_disabled":false,"rental_uris":{"android":"levelo://app?vid=f6de2a97-b532-4ef7-aded-87c2addc6336","ios":"levelo://app?vid=f6de2a97-b532-4ef7-aded-87c2addc6336"},"vehicle_type_id":"4","last_reported":1748722229,"current_range_meters":10000,"station_id":"ce4bgvp2rcd13ifvqct0","pricing_plan_id":"cebpf4jnsgd1na2vs0mg"},{"bike_id":"9661cf5c-50f5-42b2-9e85-122933661bff","system_id":"levelo_inurba_marseille","lat":43.29272,"lon":5.38441,"is_reserved":false,"is_disabled":false,"rental_uris":{"android":"levelo://app?vid=9661cf5c-50f5-42b2-9e85-122933661bff","ios":"levelo://app?vid=9661cf5c-50f5-42b2-9e85-122933661bff"},"vehicle_type_id":"4","last_reported":1748722229,"current_range_meters":10800,"station_id":"ce4bh692rcd13ifvqea0","pricing_plan_id":"cebpf4jnsgd1na2vs0mg"},{"bike_id":"751834c0-57f6-4c10-b4cd-1e9e6f27cbf6","system_id":"levelo_inurba_marseille","lat":43.26198,"lon":5.37461,"is_reserved":false,"is_disabled":false,"rental_uris":{"android":"levelo://app?vid=751834c0-57f6-4c10-b4cd-1e9e6f27cbf6","ios":"levelo://app?vid=751834c0-57f6-4c10-b4cd-1e9e6f27cbf6"},"vehicle_type_id":"4","last_reported":1748722229,"current_range_meters":19200,"station_id":"ce4bhgp2rcd13ifvqfc0","pricing_plan_id":"cebpf4jnsgd1na2vs0mg"},{"bike_id":"da213bf2-f099-4aff-84aa-2b2c9219bf56","system_id":"levelo_inurba_marseille","lat":43.28364,"lon":5.3861,"is_reserved":false,"is_disabled":false,"rental_uris":{"android":"levelo://app?vid=da213bf2-f099-4aff-84aa-2b2c9219bf56","ios":"levelo://app?vid=da213bf2-f099-4aff-84aa-2b2c9219bf56"},"vehicle_type_id":"4","last_reported":1748722229,"current_range_meters":10800,"station_id":"ce4bh492rcd13ifvqdvg","pricing_plan_id":"cebpf4jnsgd1na2vs0mg"},{"bike_id":"ca45ae50-8fdf-43fd-8443-30c134198d86","system_id":"levelo_inurba_marseille","lat":43.26569,"lon":5.40311,"is_reserved":false,"is_disabled":false,"rental_uris":{"android":"levelo://app?vid=ca45ae50-8fdf-43fd-8443-30c134198d86","ios":"levelo://app?vid=ca45ae50-8fdf-43fd-8443-30c134198d86"},"vehicle_type_id":"4","last_reported":1748722229,"current_range_meters":10800,"station_id":"","pricing_plan_id":"cebpf4jnsgd1na2vs0mg"},{"bike_id":"de9ef9f7-970f-4522-bbf1-82e38daacf67","system_id":"levelo_inurba_marseille","lat":43.29546,"lon":5.38532,"is_reserved":false,"is_disabled":false,"rental_uris":{"android":"levelo://app?vid=de9ef9f7-970f-4522-bbf1-82e38daacf67","ios":"levelo://app?vid=de9ef9f7-970f-4522-bbf1-82e38daacf67"},"vehicle_type_id":"4","last_reported":1748722229,"current_range_meters":11200,"station_id":"ce4bgih2rcd13ifvqba0","pricing_plan_id":"cebpf4jnsgd1na2vs0mg"},{"bike_id":"db009481-435b-4017-95ce-570778b2ec79","system_id":"levelo_inurba_marseille","lat":43.31168,"lon":5.38723,"is_reserved":false,"is_disabled":false,"rental_uris":{"android":"levelo://app?vid=db009481-435b-4017-95ce-570778b2ec79","ios":"levelo://app?vid=db009481-435b-4017-95ce-570778b2ec79"},"vehicle_type_id":"4","last_reported":1748722229,"current_range_meters":11200,"station_id":"ce4bgv12rcd13ifvqcp0","pricing_plan_id":"cebpf4jnsgd1na2vs0mg"},{"bike_id":"bf098457-1a9d-4859-bb7b-b279d65986a5","system_id":"levelo_inurba_marseille","lat":43.23977,"lon":5.36622,"is_reserved":false,"is_disabled":false,"rental_uris":{"android":"levelo://app?vid=bf098457-1a9d-4859-bb7b-b279d65986a5","ios":"levelo://app?vid=bf098457-1a9d-4859-bb7b-b279d65986a5"},"vehicle_type_id":"4","last_reported":1748722229,"current_range_meters":11200,"station_id":"ce4bhi12rcd13ifvqfp0","pricing_plan_id":"cebpf4jnsgd1na2vs0mg"},{"bike_id":"26eef72d-bf72-4fd7-866e-62385c4210f1","system_id":"levelo_inurba_marseille","lat":43.312,"lon":5.40118,"is_reserved":false,"is_disabled":false,"rental_uris":{"android":"levelo://app?vid=26eef72d-bf72-4fd7-866e-62385c4210f1","ios":"levelo://app?vid=26eef72d-bf72-4fd7-866e-62385c4210f1"},"vehicle_type_id":"4","last_reported":1748722229,"current_range_meters":11200,"station_id":"","pricing_plan_id":"cebpf4jnsgd1na2vs0mg"},{"bike_id":"ac485955-7960-4e2a-81e1-3336ba26d4dc","system_id":"levelo_inurba_marseille","lat":43.30141,"lon":5.38787,"is_reserved":false,"is_disabled":false,"rental_uris":{"android":"levelo://app?vid=ac485955-7960-4e2a-81e1-3336ba26d4dc","ios":"levelo://app?vid=ac485955-7960-4e2a-81e1-3336ba26d4dc"},"vehicle_type_id":"4","last_reported":1748722229,"current_range_meters":11200,"station_id":"ce4bghh2rcd13ifvqb60","pricing_plan_id":"cebpf4jnsgd1na2vs0mg"},{"bike_id":"424abc49-7098-476e-9563-b7acdbab96ad","system_id":"levelo_inurba_marseille","lat":43.25097,"lon":5.40323,"is_reserved":false,"is_disabled":false,"rental_uris":{"android":"levelo://app?vid=424abc49-7098-476e-9563-b7acdbab96ad","ios":"levelo://app?vid=424abc49-7098-476e-9563-b7acdbab96ad"},"vehicle_type_id":"4","last_reported":1748722229,"current_range_meters":11600,"station_id":"ce4bhlh2rcd13ifvqgig","pricing_plan_id":"cebpf4jnsgd1na2vs0mg"},{"bike_id":"7f08a69a-2d5b-48e6-8e97-32333e7c1f12","system_id":"levelo_inurba_marseille","lat":43.254536,"lon":5.375376,"is_reserved":false,"is_disabled":false,"rental_uris":{"android":"levelo://app?vid=7f08a69a-2d5b-48e6-8e97-32333e7c1f12","ios":"levelo://app?vid=7f08a69a-2d5b-48e6-8e97-32333e7c1f12"},"vehicle_type_id":"4","last_reported":1748722229,"current_range_meters":11600,"station_id":"","pricing_plan_id":"cebpf4jnsgd1na2vs0mg"},{"bike_id":"ad6f47cd-8c88-4407-9927-40e17b78d68e","system_id":"levelo_inurba_marseille","lat":43.25105,"lon":5.40304,"is_reserved":false,"is_disabled":false,"rental_uris":{"android":"levelo://app?vid=ad6f47cd-8c88-4407-9927-40e17b78d68e","ios":"levelo://app?vid=ad6f47cd-8c88-4407-9927-40e17b78d68e"},"vehicle_type_id":"4","last_reported":1748722229,"current_range_meters":11600,"station_id":"ce4bhlh2rcd13ifvqgig","pricing_plan_id":"cebpf4jnsgd1na2vs0mg"},{"bike_id":"b4a389d7-474d-4a9d-8dec-223a88612b5c","system_id":"levelo_inurba_marseille","lat":43.24995,"lon":5.37954,"is_reserved":false,"is_disabled":false,"rental_uris":{"android":"levelo://app?vid=b4a389d7-474d-4a9d-8dec-223a88612b5c","ios":"levelo://app?vid=b4a389d7-474d-4a9d-8dec-223a88612b5c"},"vehicle_type_id":"4","last_reported":1748722229,"current_range_meters":11600,"station_id":"","pricing_plan_id":"cebpf4jnsgd1na2vs0mg"},{"bike_id":"e6bf0c37-d2a0-4cf7-bda5-bdec7e2a1f23","system_id":"levelo_inurba_marseille","lat":43.32305,"lon":5.38251,"is_reserved":false,"is_disabled":false,"rental_uris":{"android":"levelo://app?vid=e6bf0c37-d2a0-4cf7-bda5-bdec7e2a1f23","ios":"levelo://app?vid=e6bf0c37-d2a0-4cf7-bda5-bdec7e2a1f23"},"vehicle_type_id":"4","last_reported":1748722229,"current_range_meters":11600,"station_id":"ce4bhr12rcd13ifvqhqg","pricing_plan_id":"cebpf4jnsgd1na2vs0mg"},{"bike_id":"9515be88-66db-492e-b43e-02feb729ae33","system_id":"levelo_inurba_marseille","lat":43.29298,"lon":5.3747,"is_reserved":false,"is_disabled":false,"rental_uris":{"android":"levelo://app?vid=9515be88-66db-492e-b43e-02feb729ae33","ios":"levelo://app?vid=9515be88-66db-492e-b43e-02feb729ae33"},"vehicle_type_id":"4","last_reported":1748722229,"current_range_meters":11600,"station_id":"ce4bgi12rcd13ifvqb70","pricing_plan_id":"cebpf4jnsgd1na2vs0mg"},{"bike_id":"c2abc73d-03c7-4502-8c12-35e5466bb341","system_id":"levelo_inurba_marseille","lat":43.3088,"lon":5.39636,"is_reserved":false,"is_disabled":false,"rental_uris":{"android":"levelo://app?vid=c2abc73d-03c7-4502-8c12-35e5466bb341","ios":"levelo://app?vid=c2abc73d-03c7-4502-8c12-35e5466bb341"},"vehicle_type_id":"4","last_reported":1748722229,"current_range_meters":11600,"station_id":"ce4bh012rcd13ifvqcv0","pricing_plan_id":"cebpf4jnsgd1na2vs0mg"},{"bike_id":"e8aa9d7b-30f3-4049-8c5f-62b74a6c992b","system_id":"levelo_inurba_marseille","lat":43.32121,"lon":5.36779,"is_reserved":false,"is_disabled":false,"rental_uris":{"android":"levelo://app?vid=e8aa9d7b-30f3-4049-8c5f-62b74a6c992b","ios":"levelo://app?vid=e8aa9d7b-30f3-4049-8c5f-62b74a6c992b"},"vehicle_type_id":"4","last_reported":1748722229,"current_range_meters":11600,"station_id":"ce4bhrh2rcd13ifvqhug","pricing_plan_id":"cebpf4jnsgd1na2vs0mg"},{"bike_id":"d26ba28a-79d2-4a0c-b743-91aa21faf51a","system_id":"levelo_inurba_marseille","lat":43.315058,"lon":5.372886,"is_reserved":false,"is_disabled":false,"rental_uris":{"android":"levelo://app?vid=d26ba28a-79d2-4a0c-b743-91aa21faf51a","ios":"levelo://app?vid=d26ba28a-79d2-4a0c-b743-91aa21faf51a"},"vehicle_type_id":"4","last_reported":1748722229,"current_range_meters":11200,"station_id":"ce4bgt12rcd13ifvqcd0","pricing_plan_id":"cebpf4jnsgd1na2vs0mg"},{"bike_id":"dc1b77bb-0c5c-438e-b937-ebd825529e8d","system_id":"levelo_inurba_marseille","lat":43.25117,"lon":5.403213,"is_reserved":false,"is_disabled":false,"rental_uris":{"android":"levelo://app?vid=dc1b77bb-0c5c-438e-b937-ebd825529e8d","ios":"levelo://app?vid=dc1b77bb-0c5c-438e-b937-ebd825529e8d"},"vehicle_type_id":"4","last_reported":1748722229,"current_range_meters":11600,"station_id":"ce4bhlh2rcd13ifvqgig","pricing_plan_id":"cebpf4jnsgd1na2vs0mg"},{"bike_id":"46950156-2911-4ef2-8225-00a2c367410a","system_id":"levelo_inurba_marseille","lat":43.282623,"lon":5.350542,"is_reserved":false,"is_disabled":false,"rental_uris":{"android":"levelo://app?vid=46950156-2911-4ef2-8225-00a2c367410a","ios":"levelo://app?vid=46950156-2911-4ef2-8225-00a2c367410a"},"vehicle_type_id":"4","last_reported":1748722229,"current_range_meters":12000,"station_id":"ce4bhbp2rcd13ifvqerg","pricing_plan_id":"cebpf4jnsgd1na2vs0mg"},{"bike_id":"7fff8cf9-ce40-478f-b5a6-e2d40df87fa7","system_id":"levelo_inurba_marseille","lat":43.29068,"lon":5.36946,"is_reserved":false,"is_disabled":false,"rental_uris":{"android":"levelo://app?vid=7fff8cf9-ce40-478f-b5a6-e2d40df87fa7","ios":"levelo://app?vid=7fff8cf9-ce40-478f-b5a6-e2d40df87fa7"},"vehicle_type_id":"4","last_reported":1748722229,"current_range_meters":12000,"station_id":"","pricing_plan_id":"cebpf4jnsgd1na2vs0mg"},{"bike_id":"ae2c918a-d2e2-439b-aa6f-16e6722edd86","system_id":"levelo_inurba_marseille","lat":43.24335,"lon":5.38023,"is_reserved":false,"is_disabled":false,"rental_uris":{"android":"levelo://app?vid=ae2c918a-d2e2-439b-aa6f-16e6722edd86","ios":"levelo://app?vid=ae2c918a-d2e2-439b-aa6f-16e6722edd86"},"vehicle_type_id":"4","last_reported":1748722229,"current_range_meters":12000,"station_id":"","pricing_plan_id":"cebpf4jnsgd1na2vs0mg"},{"bike_id":"47d3c585-5a75-4788-92ad-52a1af86f4e5","system_id":"levelo_inurba_marseille","lat":43.29422,"lon":5.38624,"is_reserved":false,"is_disabled":false,"rental_uris":{"android":"levelo://app?vid=47d3c585-5a75-4788-92ad-52a1af86f4e5","ios":"levelo://app?vid=47d3c585-5a75-4788-92ad-52a1af86f4e5"},"vehicle_type_id":"4","last_reported":1748722229,"current_range_meters":12000,"station_id":"ce4bh2h2rcd13ifvqdh0","pricing_plan_id":"cebpf4jnsgd1na2vs0mg"},{"bike_id":"8f0300e4-899f-4e13-b8a7-90f137ab1640","system_id":"levelo_inurba_marseille","lat":43.27066,"lon":5.39269,"is_reserved":false,"is_disabled":false,"rental_uris":{"android":"levelo://app?vid=8f0300e4-899f-4e13-b8a7-90f137ab1640","ios":"levelo://app?vid=8f0300e4-899f-4e13-b8a7-90f137ab1640"},"vehicle_type_id":"4","last_reported":1748722229,"current_range_meters":12000,"station_id":"","pricing_plan_id":"cebpf4jnsgd1na2vs0mg"},{"bike_id":"395725b1-48e3-44c2-879e-2f9d260a4d1a","system_id":"levelo_inurba_marseille","lat":43.312235,"lon":5.36858,"is_reserved":false,"is_disabled":false,"rental_uris":{"android":"levelo://app?vid=395725b1-48e3-44c2-879e-2f9d260a4d1a","ios":"levelo://app?vid=395725b1-48e3-44c2-879e-2f9d260a4d1a"},"vehicle_type_id":"4","last_reported":1748722229,"current_range_meters":12000,"station_id":"ce4bgl92rcd13ifvqbq0","pricing_plan_id":"cebpf4jnsgd1na2vs0mg"},{"bike_id":"366f9e7a-a402-451f-a86f-eb66b77443ae","system_id":"levelo_inurba_marseille","lat":43.2931,"lon":5.37181,"is_reserved":false,"is_disabled":false,"rental_uris":{"android":"levelo://app?vid=366f9e7a-a402-451f-a86f-eb66b77443ae","ios":"levelo://app?vid=366f9e7a-a402-451f-a86f-eb66b77443ae"},"vehicle_type_id":"4","last_reported":1748722229,"current_range_meters":12000,"station_id":"ce4bgh92rcd13ifvqb40","pricing_plan_id":"cebpf4jnsgd1na2vs0mg"},{"bike_id":"1cbc3454-ff5d-4ea4-b25c-b28e2bf616a9","system_id":"levelo_inurba_marseille","lat":43.25095,"lon":5.40335,"is_reserved":false,"is_disabled":false,"rental_uris":{"android":"levelo://app?vid=1cbc3454-ff5d-4ea4-b25c-b28e2bf616a9","ios":"levelo://app?vid=1cbc3454-ff5d-4ea4-b25c-b28e2bf616a9"},"vehicle_type_id":"4","last_reported":1748722229,"current_range_meters":12000,"station_id":"ce4bhlh2rcd13ifvqgig","pricing_plan_id":"cebpf4jnsgd1na2vs0mg"},{"bike_id":"14036455-f919-44f7-8d5e-0b2e84f48674","system_id":"levelo_inurba_marseille","lat":43.30936,"lon":5.403983,"is_reserved":false,"is_disabled":false,"rental_uris":{"android":"levelo://app?vid=14036455-f919-44f7-8d5e-0b2e84f48674","ios":"levelo://app?vid=14036455-f919-44f7-8d5e-0b2e84f48674"},"vehicle_type_id":"4","last_reported":1748722229,"current_range_meters":12000,"station_id":"","pricing_plan_id":"cebpf4jnsgd1na2vs0mg"},{"bike_id":"2a2ef887-b4c1-4c7c-b71f-11e2c947929d","system_id":"levelo_inurba_marseille","lat":43.26062,"lon":5.39397,"is_reserved":false,"is_disabled":false,"rental_uris":{"android":"levelo://app?vid=2a2ef887-b4c1-4c7c-b71f-11e2c947929d","ios":"levelo://app?vid=2a2ef887-b4c1-4c7c-b71f-11e2c947929d"},"vehicle_type_id":"4","last_reported":1748722229,"current_range_meters":12000,"station_id":"ce4bhh92rcd13ifvqfj0","pricing_plan_id":"cebpf4jnsgd1na2vs0mg"},{"bike_id":"97c2bc50-b253-470d-bf7a-d78dda94dee2","system_id":"levelo_inurba_marseille","lat":43.29254,"lon":5.38442,"is_reserved":false,"is_disabled":false,"rental_uris":{"android":"levelo://app?vid=97c2bc50-b253-470d-bf7a-d78dda94dee2","ios":"levelo://app?vid=97c2bc50-b253-470d-bf7a-d78dda94dee2"},"vehicle_type_id":"4","last_reported":1748722229,"current_range_meters":12000,"station_id":"ce4bh692rcd13ifvqea0","pricing_plan_id":"cebpf4jnsgd1na2vs0mg"},{"bike_id":"2d777263-57bd-4335-b9ac-5e24727d9349","system_id":"levelo_inurba_marseille","lat":43.31335,"lon":5.39685,"is_reserved":false,"is_disabled":false,"rental_uris":{"android":"levelo://app?vid=2d777263-57bd-4335-b9ac-5e24727d9349","ios":"levelo://app?vid=2d777263-57bd-4335-b9ac-5e24727d9349"},"vehicle_type_id":"4","last_reported":1748722229,"current_range_meters":12000,"station_id":"ce4bgvp2rcd13ifvqcu0","pricing_plan_id":"cebpf4jnsgd1na2vs0mg"},{"bike_id":"a1e338f0-2ee2-44c3-bac0-2f6d41ec23aa","system_id":"levelo_inurba_marseille","lat":43.29305,"lon":5.37171,"is_reserved":false,"is_disabled":false,"rental_uris":{"android":"levelo://app?vid=a1e338f0-2ee2-44c3-bac0-2f6d41ec23aa","ios":"levelo://app?vid=a1e338f0-2ee2-44c3-bac0-2f6d41ec23aa"},"vehicle_type_id":"4","last_reported":1748722229,"current_range_meters":12400,"station_id":"ce4bgh92rcd13ifvqb40","pricing_plan_id":"cebpf4jnsgd1na2vs0mg"},{"bike_id":"5ef067e7-b281-4ef9-ad2a-1c6b02a54c04","system_id":"levelo_inurba_marseille","lat":43.319015,"lon":5.4404,"is_reserved":false,"is_disabled":false,"rental_uris":{"android":"levelo://app?vid=5ef067e7-b281-4ef9-ad2a-1c6b02a54c04","ios":"levelo://app?vid=5ef067e7-b281-4ef9-ad2a-1c6b02a54c04"},"vehicle_type_id":"4","last_reported":1748722229,"current_range_meters":12400,"station_id":"","pricing_plan_id":"cebpf4jnsgd1na2vs0mg"},{"bike_id":"9b03c3f1-a97d-4170-ab8e-5b6ce67f019f","system_id":"levelo_inurba_marseille","lat":43.31541,"lon":5.38024,"is_reserved":false,"is_disabled":false,"rental_uris":{"android":"levelo://app?vid=9b03c3f1-a97d-4170-ab8e-5b6ce67f019f","ios":"levelo://app?vid=9b03c3f1-a97d-4170-ab8e-5b6ce67f019f"},"vehicle_type_id":"4","last_reported":1748722229,"current_range_meters":12800,"station_id":"ce4bhsp2rcd13ifvqi50","pricing_plan_id":"cebpf4jnsgd1na2vs0mg"},{"bike_id":"d4b1747a-32c1-4785-8647-495495f2634b","system_id":"levelo_inurba_marseille","lat":43.30158,"lon":5.3877,"is_reserved":false,"is_disabled":false,"rental_uris":{"android":"levelo://app?vid=d4b1747a-32c1-4785-8647-495495f2634b","ios":"levelo://app?vid=d4b1747a-32c1-4785-8647-495495f2634b"},"vehicle_type_id":"4","last_reported":1748722229,"current_range_meters":12400,"station_id":"ce4bghh2rcd13ifvqb60","pricing_plan_id":"cebpf4jnsgd1na2vs0mg"},{"bike_id":"f54d1107-e273-4f88-9930-7ded5099e450","system_id":"levelo_inurba_marseille","lat":43.29296,"lon":5.37144,"is_reserved":false,"is_disabled":false,"rental_uris":{"android":"levelo://app?vid=f54d1107-e273-4f88-9930-7ded5099e450","ios":"levelo://app?vid=f54d1107-e273-4f88-9930-7ded5099e450"},"vehicle_type_id":"4","last_reported":1748722229,"current_range_meters":12800,"station_id":"ce4bgh92rcd13ifvqb40","pricing_plan_id":"cebpf4jnsgd1na2vs0mg"},{"bike_id":"90661731-e0ab-494e-b197-0ad194ea14f4","system_id":"levelo_inurba_marseille","lat":43.26936,"lon":5.40258,"is_reserved":false,"is_disabled":false,"rental_uris":{"android":"levelo://app?vid=90661731-e0ab-494e-b197-0ad194ea14f4","ios":"levelo://app?vid=90661731-e0ab-494e-b197-0ad194ea14f4"},"vehicle_type_id":"4","last_reported":1748722229,"current_range_meters":12800,"station_id":"cjm6bp8fraef2m0cb0m0","pricing_plan_id":"cebpf4jnsgd1na2vs0mg"},{"bike_id":"823a2611-9e4e-4938-83e1-63bacff8634d","system_id":"levelo_inurba_marseille","lat":43.32366,"lon":5.38877,"is_reserved":false,"is_disabled":false,"rental_uris":{"android":"levelo://app?vid=823a2611-9e4e-4938-83e1-63bacff8634d","ios":"levelo://app?vid=823a2611-9e4e-4938-83e1-63bacff8634d"},"vehicle_type_id":"4","last_reported":1748722229,"current_range_meters":12800,"station_id":"ce4bhqp2rcd13ifvqhog","pricing_plan_id":"cebpf4jnsgd1na2vs0mg"},{"bike_id":"3b56a76a-b0e9-4fdd-956d-9e50e7fa3ccf","system_id":"levelo_inurba_marseille","lat":43.2931,"lon":5.37157,"is_reserved":false,"is_disabled":false,"rental_uris":{"android":"levelo://app?vid=3b56a76a-b0e9-4fdd-956d-9e50e7fa3ccf","ios":"levelo://app?vid=3b56a76a-b0e9-4fdd-956d-9e50e7fa3ccf"},"vehicle_type_id":"4","last_reported":1748722229,"current_range_meters":12800,"station_id":"ce4bgh92rcd13ifvqb40","pricing_plan_id":"cebpf4jnsgd1na2vs0mg"},{"bike_id":"fe0ac1d1-8e4d-4194-9328-5de1ad727941","system_id":"levelo_inurba_marseille","lat":43.28943,"lon":5.36642,"is_reserved":false,"is_disabled":false,"rental_uris":{"android":"levelo://app?vid=fe0ac1d1-8e4d-4194-9328-5de1ad727941","ios":"levelo://app?vid=fe0ac1d1-8e4d-4194-9328-5de1ad727941"},"vehicle_type_id":"4","last_reported":1748722229,"current_range_meters":12800,"station_id":"ce4bhap2rcd13ifvqek0","pricing_plan_id":"cebpf4jnsgd1na2vs0mg"},{"bike_id":"3c9d0a36-567f-4660-a51c-4c0937a8b9ff","system_id":"levelo_inurba_marseille","lat":43.29304,"lon":5.37175,"is_reserved":false,"is_disabled":false,"rental_uris":{"android":"levelo://app?vid=3c9d0a36-567f-4660-a51c-4c0937a8b9ff","ios":"levelo://app?vid=3c9d0a36-567f-4660-a51c-4c0937a8b9ff"},"vehicle_type_id":"4","last_reported":1748722229,"current_range_meters":12800,"station_id":"ce4bgh92rcd13ifvqb40","pricing_plan_id":"cebpf4jnsgd1na2vs0mg"},{"bike_id":"63226803-31c6-4bba-8fb5-6056cb981b44","system_id":"levelo_inurba_marseille","lat":43.21776,"lon":5.34584,"is_reserved":false,"is_disabled":true,"rental_uris":{"android":"levelo://app?vid=63226803-31c6-4bba-8fb5-6056cb981b44","ios":"levelo://app?vid=63226803-31c6-4bba-8fb5-6056cb981b44"},"vehicle_type_id":"4","last_reported":1748722229,"current_range_meters":12800,"station_id":"st_cvj6r9ubvosntc0bgbag","pricing_plan_id":"cebpf4jnsgd1na2vs0mg"},{"bike_id":"289348b1-f496-48d7-9095-5593c941cd7a","system_id":"levelo_inurba_marseille","lat":43.29557,"lon":5.37501,"is_reserved":false,"is_disabled":true,"rental_uris":{"android":"levelo://app?vid=289348b1-f496-48d7-9095-5593c941cd7a","ios":"levelo://app?vid=289348b1-f496-48d7-9095-5593c941cd7a"},"vehicle_type_id":"4","last_reported":1748722229,"current_range_meters":12800,"station_id":"ce4bgh92rcd13ifvqb50","pricing_plan_id":"cebpf4jnsgd1na2vs0mg"},{"bike_id":"0a8a3a8e-e790-4dd4-85b2-3292af590401","system_id":"levelo_inurba_marseille","lat":43.32347,"lon":5.3887,"is_reserved":false,"is_disabled":false,"rental_uris":{"android":"levelo://app?vid=0a8a3a8e-e790-4dd4-85b2-3292af590401","ios":"levelo://app?vid=0a8a3a8e-e790-4dd4-85b2-3292af590401"},"vehicle_type_id":"4","last_reported":1748722229,"current_range_meters":12800,"station_id":"ce4bhqp2rcd13ifvqhog","pricing_plan_id":"cebpf4jnsgd1na2vs0mg"},{"bike_id":"c213034b-f9a3-48e8-9a07-6d97a3c51b73","system_id":"levelo_inurba_marseille","lat":43.2514,"lon":5.40318,"is_reserved":false,"is_disabled":false,"rental_uris":{"android":"levelo://app?vid=c213034b-f9a3-48e8-9a07-6d97a3c51b73","ios":"levelo://app?vid=c213034b-f9a3-48e8-9a07-6d97a3c51b73"},"vehicle_type_id":"4","last_reported":1748722229,"current_range_meters":12800,"station_id":"ce4bhlh2rcd13ifvqgig","pricing_plan_id":"cebpf4jnsgd1na2vs0mg"},{"bike_id":"eb53b293-4ac6-4e93-90d1-2088113efc0b","system_id":"levelo_inurba_marseille","lat":43.29518,"lon":5.39056,"is_reserved":false,"is_disabled":false,"rental_uris":{"android":"levelo://app?vid=eb53b293-4ac6-4e93-90d1-2088113efc0b","ios":"levelo://app?vid=eb53b293-4ac6-4e93-90d1-2088113efc0b"},"vehicle_type_id":"4","last_reported":1748722229,"current_range_meters":12400,"station_id":"ce4bh3p2rcd13ifvqdp0","pricing_plan_id":"cebpf4jnsgd1na2vs0mg"},{"bike_id":"38e6fc33-f313-4f17-87f3-31abf34a5e41","system_id":"levelo_inurba_marseille","lat":43.31072,"lon":5.38355,"is_reserved":false,"is_disabled":false,"rental_uris":{"android":"levelo://app?vid=38e6fc33-f313-4f17-87f3-31abf34a5e41","ios":"levelo://app?vid=38e6fc33-f313-4f17-87f3-31abf34a5e41"},"vehicle_type_id":"4","last_reported":1748722229,"current_range_meters":12800,"station_id":"ce4bgv92rcd13ifvqcr0","pricing_plan_id":"cebpf4jnsgd1na2vs0mg"},{"bike_id":"49be7336-be2c-43ca-98e2-fea580b53299","system_id":"levelo_inurba_marseille","lat":43.25118,"lon":5.40319,"is_reserved":false,"is_disabled":false,"rental_uris":{"android":"levelo://app?vid=49be7336-be2c-43ca-98e2-fea580b53299","ios":"levelo://app?vid=49be7336-be2c-43ca-98e2-fea580b53299"},"vehicle_type_id":"4","last_reported":1748722229,"current_range_meters":12800,"station_id":"ce4bhlh2rcd13ifvqgig","pricing_plan_id":"cebpf4jnsgd1na2vs0mg"},{"bike_id":"8439d92e-5772-4f96-a929-2d7c840e29b9","system_id":"levelo_inurba_marseille","lat":43.28419,"lon":5.37518,"is_reserved":false,"is_disabled":false,"rental_uris":{"android":"levelo://app?vid=8439d92e-5772-4f96-a929-2d7c840e29b9","ios":"levelo://app?vid=8439d92e-5772-4f96-a929-2d7c840e29b9"},"vehicle_type_id":"4","last_reported":1748722229,"current_range_meters":13600,"station_id":"ce4bh412rcd13ifvqds0","pricing_plan_id":"cebpf4jnsgd1na2vs0mg"},{"bike_id":"f9b6111d-297f-42b0-b622-4a4d069f2689","system_id":"levelo_inurba_marseille","lat":43.29423,"lon":5.38623,"is_reserved":false,"is_disabled":false,"rental_uris":{"android":"levelo://app?vid=f9b6111d-297f-42b0-b622-4a4d069f2689","ios":"levelo://app?vid=f9b6111d-297f-42b0-b622-4a4d069f2689"},"vehicle_type_id":"4","last_reported":1748722229,"current_range_meters":13600,"station_id":"ce4bh2h2rcd13ifvqdh0","pricing_plan_id":"cebpf4jnsgd1na2vs0mg"},{"bike_id":"adea266a-1798-4cf0-b023-54bff17111a1","system_id":"levelo_inurba_marseille","lat":43.29254,"lon":5.38442,"is_reserved":false,"is_disabled":false,"rental_uris":{"android":"levelo://app?vid=adea266a-1798-4cf0-b023-54bff17111a1","ios":"levelo://app?vid=adea266a-1798-4cf0-b023-54bff17111a1"},"vehicle_type_id":"4","last_reported":1748722229,"current_range_meters":13600,"station_id":"ce4bh692rcd13ifvqea0","pricing_plan_id":"cebpf4jnsgd1na2vs0mg"},{"bike_id":"ae3155dd-6b02-4a17-9583-86b8ffb8a8ed","system_id":"levelo_inurba_marseille","lat":43.29275,"lon":5.37181,"is_reserved":false,"is_disabled":false,"rental_uris":{"android":"levelo://app?vid=ae3155dd-6b02-4a17-9583-86b8ffb8a8ed","ios":"levelo://app?vid=ae3155dd-6b02-4a17-9583-86b8ffb8a8ed"},"vehicle_type_id":"4","last_reported":1748722229,"current_range_meters":13600,"station_id":"ce4bgh92rcd13ifvqb40","pricing_plan_id":"cebpf4jnsgd1na2vs0mg"},{"bike_id":"ff941e69-8cee-4130-9154-37ec9c999c26","system_id":"levelo_inurba_marseille","lat":43.28222,"lon":5.39047,"is_reserved":false,"is_disabled":false,"rental_uris":{"android":"levelo://app?vid=ff941e69-8cee-4130-9154-37ec9c999c26","ios":"levelo://app?vid=ff941e69-8cee-4130-9154-37ec9c999c26"},"vehicle_type_id":"4","last_reported":1748722229,"current_range_meters":13600,"station_id":"ce4bhh92rcd13ifvqfh0","pricing_plan_id":"cebpf4jnsgd1na2vs0mg"},{"bike_id":"ebebd6c6-0895-4316-b492-a82cc973f651","system_id":"levelo_inurba_marseille","lat":43.31517,"lon":5.37285,"is_reserved":false,"is_disabled":false,"rental_uris":{"android":"levelo://app?vid=ebebd6c6-0895-4316-b492-a82cc973f651","ios":"levelo://app?vid=ebebd6c6-0895-4316-b492-a82cc973f651"},"vehicle_type_id":"4","last_reported":1748722229,"current_range_meters":13600,"station_id":"ce4bgt12rcd13ifvqcd0","pricing_plan_id":"cebpf4jnsgd1na2vs0mg"},{"bike_id":"bac7235f-d44b-4e43-a3e5-710e5194bcdc","system_id":"levelo_inurba_marseille","lat":43.30599,"lon":5.39358,"is_reserved":false,"is_disabled":false,"rental_uris":{"android":"levelo://app?vid=bac7235f-d44b-4e43-a3e5-710e5194bcdc","ios":"levelo://app?vid=bac7235f-d44b-4e43-a3e5-710e5194bcdc"},"vehicle_type_id":"4","last_reported":1748722229,"current_range_meters":13600,"station_id":"ce4bh0p2rcd13ifvqd80","pricing_plan_id":"cebpf4jnsgd1na2vs0mg"},{"bike_id":"f2d24b18-d214-4b88-99a9-26c99e5fd23c","system_id":"levelo_inurba_marseille","lat":43.24645,"lon":5.39312,"is_reserved":false,"is_disabled":false,"rental_uris":{"android":"levelo://app?vid=f2d24b18-d214-4b88-99a9-26c99e5fd23c","ios":"levelo://app?vid=f2d24b18-d214-4b88-99a9-26c99e5fd23c"},"vehicle_type_id":"4","last_reported":1748722229,"current_range_meters":13600,"station_id":"","pricing_plan_id":"cebpf4jnsgd1na2vs0mg"},{"bike_id":"5542403e-a18a-4f92-9d8a-0a656fa37580","system_id":"levelo_inurba_marseille","lat":43.29314,"lon":5.37442,"is_reserved":false,"is_disabled":false,"rental_uris":{"android":"levelo://app?vid=5542403e-a18a-4f92-9d8a-0a656fa37580","ios":"levelo://app?vid=5542403e-a18a-4f92-9d8a-0a656fa37580"},"vehicle_type_id":"4","last_reported":1748722229,"current_range_meters":13600,"station_id":"ce4bgi12rcd13ifvqb70","pricing_plan_id":"cebpf4jnsgd1na2vs0mg"},{"bike_id":"44785c3c-6a2e-421a-beeb-9aa51d48f610","system_id":"levelo_inurba_marseille","lat":43.29887,"lon":5.38144,"is_reserved":false,"is_disabled":false,"rental_uris":{"android":"levelo://app?vid=44785c3c-6a2e-421a-beeb-9aa51d48f610","ios":"levelo://app?vid=44785c3c-6a2e-421a-beeb-9aa51d48f610"},"vehicle_type_id":"4","last_reported":1748722229,"current_range_meters":14000,"station_id":"ce4bgj12rcd13ifvqbc0","pricing_plan_id":"cebpf4jnsgd1na2vs0mg"},{"bike_id":"62b9fb40-b3b6-4001-a515-0c87ced39043","system_id":"levelo_inurba_marseille","lat":43.23978,"lon":5.36602,"is_reserved":false,"is_disabled":true,"rental_uris":{"android":"levelo://app?vid=62b9fb40-b3b6-4001-a515-0c87ced39043","ios":"levelo://app?vid=62b9fb40-b3b6-4001-a515-0c87ced39043"},"vehicle_type_id":"4","last_reported":1748722229,"current_range_meters":14000,"station_id":"ce4bhi12rcd13ifvqfp0","pricing_plan_id":"cebpf4jnsgd1na2vs0mg"},{"bike_id":"33ce954c-3291-4895-bc8c-28f4fec81a57","system_id":"levelo_inurba_marseille","lat":43.29533,"lon":5.38549,"is_reserved":false,"is_disabled":false,"rental_uris":{"android":"levelo://app?vid=33ce954c-3291-4895-bc8c-28f4fec81a57","ios":"levelo://app?vid=33ce954c-3291-4895-bc8c-28f4fec81a57"},"vehicle_type_id":"4","last_reported":1748722229,"current_range_meters":14000,"station_id":"ce4bgih2rcd13ifvqba0","pricing_plan_id":"cebpf4jnsgd1na2vs0mg"},{"bike_id":"d3e73657-2c05-4fde-861c-8f40cd2af339","system_id":"levelo_inurba_marseille","lat":43.292603,"lon":5.384328,"is_reserved":false,"is_disabled":false,"rental_uris":{"android":"levelo://app?vid=d3e73657-2c05-4fde-861c-8f40cd2af339","ios":"levelo://app?vid=d3e73657-2c05-4fde-861c-8f40cd2af339"},"vehicle_type_id":"4","last_reported":1748722229,"current_range_meters":14400,"station_id":"ce4bh692rcd13ifvqea0","pricing_plan_id":"cebpf4jnsgd1na2vs0mg"},{"bike_id":"32407856-ed5d-44c1-bf56-2797534505b3","system_id":"levelo_inurba_marseille","lat":43.29989,"lon":5.38492,"is_reserved":false,"is_disabled":false,"rental_uris":{"android":"levelo://app?vid=32407856-ed5d-44c1-bf56-2797534505b3","ios":"levelo://app?vid=32407856-ed5d-44c1-bf56-2797534505b3"},"vehicle_type_id":"4","last_reported":1748722229,"current_range_meters":14400,"station_id":"ce4bgj92rcd13ifvqbd0","pricing_plan_id":"cebpf4jnsgd1na2vs0mg"},{"bike_id":"5df05316-524d-4046-90a8-d4f2dfb87ecf","system_id":"levelo_inurba_marseille","lat":43.2435,"lon":5.38014,"is_reserved":false,"is_disabled":false,"rental_uris":{"android":"levelo://app?vid=5df05316-524d-4046-90a8-d4f2dfb87ecf","ios":"levelo://app?vid=5df05316-524d-4046-90a8-d4f2dfb87ecf"},"vehicle_type_id":"4","last_reported":1748722229,"current_range_meters":14400,"station_id":"","pricing_plan_id":"cebpf4jnsgd1na2vs0mg"},{"bike_id":"d95a8927-9413-4ee6-b8dd-9b96d5af8d5e","system_id":"levelo_inurba_marseille","lat":43.28349,"lon":5.350442,"is_reserved":false,"is_disabled":false,"rental_uris":{"android":"levelo://app?vid=d95a8927-9413-4ee6-b8dd-9b96d5af8d5e","ios":"levelo://app?vid=d95a8927-9413-4ee6-b8dd-9b96d5af8d5e"},"vehicle_type_id":"4","last_reported":1748722229,"current_range_meters":14400,"station_id":"","pricing_plan_id":"cebpf4jnsgd1na2vs0mg"},{"bike_id":"fbdff89c-6eb2-4bb4-adff-92e23d969f91","system_id":"levelo_inurba_marseille","lat":43.29051,"lon":5.38644,"is_reserved":false,"is_disabled":false,"rental_uris":{"android":"levelo://app?vid=fbdff89c-6eb2-4bb4-adff-92e23d969f91","ios":"levelo://app?vid=fbdff89c-6eb2-4bb4-adff-92e23d969f91"},"vehicle_type_id":"4","last_reported":1748722229,"current_range_meters":14400,"station_id":"ce4bh4p2rcd13ifvqe0g","pricing_plan_id":"cebpf4jnsgd1na2vs0mg"},{"bike_id":"e210be7e-07b8-44d3-ae09-6702f28e2ae8","system_id":"levelo_inurba_marseille","lat":43.25138,"lon":5.39341,"is_reserved":false,"is_disabled":false,"rental_uris":{"android":"levelo://app?vid=e210be7e-07b8-44d3-ae09-6702f28e2ae8","ios":"levelo://app?vid=e210be7e-07b8-44d3-ae09-6702f28e2ae8"},"vehicle_type_id":"4","last_reported":1748722229,"current_range_meters":14400,"station_id":"","pricing_plan_id":"cebpf4jnsgd1na2vs0mg"},{"bike_id":"a6efd2f0-8192-4078-8a22-9d12c83b767e","system_id":"levelo_inurba_marseille","lat":43.29305,"lon":5.37185,"is_reserved":false,"is_disabled":false,"rental_uris":{"android":"levelo://app?vid=a6efd2f0-8192-4078-8a22-9d12c83b767e","ios":"levelo://app?vid=a6efd2f0-8192-4078-8a22-9d12c83b767e"},"vehicle_type_id":"4","last_reported":1748722229,"current_range_meters":14400,"station_id":"ce4bgh92rcd13ifvqb40","pricing_plan_id":"cebpf4jnsgd1na2vs0mg"},{"bike_id":"cd53d0f5-0123-4709-b477-2ba9d664ca27","system_id":"levelo_inurba_marseille","lat":43.2742,"lon":5.39415,"is_reserved":false,"is_disabled":false,"rental_uris":{"android":"levelo://app?vid=cd53d0f5-0123-4709-b477-2ba9d664ca27","ios":"levelo://app?vid=cd53d0f5-0123-4709-b477-2ba9d664ca27"},"vehicle_type_id":"4","last_reported":1748722229,"current_range_meters":14800,"station_id":"ce4bhdp2rcd13ifvqf20","pricing_plan_id":"cebpf4jnsgd1na2vs0mg"},{"bike_id":"7f4a867f-3d78-4b9e-9602-1fb3d949c60b","system_id":"levelo_inurba_marseille","lat":43.29416,"lon":5.38593,"is_reserved":false,"is_disabled":false,"rental_uris":{"android":"levelo://app?vid=7f4a867f-3d78-4b9e-9602-1fb3d949c60b","ios":"levelo://app?vid=7f4a867f-3d78-4b9e-9602-1fb3d949c60b"},"vehicle_type_id":"4","last_reported":1748722229,"current_range_meters":14800,"station_id":"ce4bh2h2rcd13ifvqdh0","pricing_plan_id":"cebpf4jnsgd1na2vs0mg"},{"bike_id":"9a189ee8-27ed-444b-b171-f705371af28f","system_id":"levelo_inurba_marseille","lat":43.28276,"lon":5.34897,"is_reserved":false,"is_disabled":false,"rental_uris":{"android":"levelo://app?vid=9a189ee8-27ed-444b-b171-f705371af28f","ios":"levelo://app?vid=9a189ee8-27ed-444b-b171-f705371af28f"},"vehicle_type_id":"4","last_reported":1748722229,"current_range_meters":14800,"station_id":"","pricing_plan_id":"cebpf4jnsgd1na2vs0mg"},{"bike_id":"9fa7aa89-c3e6-4a1c-ba7e-5045dfd94d81","system_id":"levelo_inurba_marseille","lat":43.30787,"lon":5.37638,"is_reserved":false,"is_disabled":false,"rental_uris":{"android":"levelo://app?vid=9fa7aa89-c3e6-4a1c-ba7e-5045dfd94d81","ios":"levelo://app?vid=9fa7aa89-c3e6-4a1c-ba7e-5045dfd94d81"},"vehicle_type_id":"4","last_reported":1748722229,"current_range_meters":14800,"station_id":"ce4bgv92rcd13ifvqcq0","pricing_plan_id":"cebpf4jnsgd1na2vs0mg"},{"bike_id":"cde3f0bd-eb16-42f4-aeb5-41f434a3dda8","system_id":"levelo_inurba_marseille","lat":43.29288,"lon":5.38414,"is_reserved":false,"is_disabled":false,"rental_uris":{"android":"levelo://app?vid=cde3f0bd-eb16-42f4-aeb5-41f434a3dda8","ios":"levelo://app?vid=cde3f0bd-eb16-42f4-aeb5-41f434a3dda8"},"vehicle_type_id":"4","last_reported":1748722229,"current_range_meters":14800,"station_id":"ce4bh692rcd13ifvqea0","pricing_plan_id":"cebpf4jnsgd1na2vs0mg"},{"bike_id":"773d31f6-076f-44aa-939b-a11c8709e494","system_id":"levelo_inurba_marseille","lat":43.29525,"lon":5.37508,"is_reserved":false,"is_disabled":false,"rental_uris":{"android":"levelo://app?vid=773d31f6-076f-44aa-939b-a11c8709e494","ios":"levelo://app?vid=773d31f6-076f-44aa-939b-a11c8709e494"},"vehicle_type_id":"4","last_reported":1748722229,"current_range_meters":14400,"station_id":"ce4bgkp2rcd13ifvqbmg","pricing_plan_id":"cebpf4jnsgd1na2vs0mg"},{"bike_id":"435f712e-8e5b-494a-9ab4-36835f10e96d","system_id":"levelo_inurba_marseille","lat":43.29417,"lon":5.38637,"is_reserved":false,"is_disabled":false,"rental_uris":{"android":"levelo://app?vid=435f712e-8e5b-494a-9ab4-36835f10e96d","ios":"levelo://app?vid=435f712e-8e5b-494a-9ab4-36835f10e96d"},"vehicle_type_id":"4","last_reported":1748722229,"current_range_meters":14800,"station_id":"ce4bh2h2rcd13ifvqdh0","pricing_plan_id":"cebpf4jnsgd1na2vs0mg"},{"bike_id":"13e10e62-dd60-4cfa-b0d8-d05722a25748","system_id":"levelo_inurba_marseille","lat":43.30883,"lon":5.39659,"is_reserved":false,"is_disabled":false,"rental_uris":{"android":"levelo://app?vid=13e10e62-dd60-4cfa-b0d8-d05722a25748","ios":"levelo://app?vid=13e10e62-dd60-4cfa-b0d8-d05722a25748"},"vehicle_type_id":"4","last_reported":1748722229,"current_range_meters":14800,"station_id":"ce4bh012rcd13ifvqcv0","pricing_plan_id":"cebpf4jnsgd1na2vs0mg"},{"bike_id":"32503fa7-7208-4269-b40f-34ba3dae0f9e","system_id":"levelo_inurba_marseille","lat":43.30866,"lon":5.40373,"is_reserved":false,"is_disabled":false,"rental_uris":{"android":"levelo://app?vid=32503fa7-7208-4269-b40f-34ba3dae0f9e","ios":"levelo://app?vid=32503fa7-7208-4269-b40f-34ba3dae0f9e"},"vehicle_type_id":"4","last_reported":1748722229,"current_range_meters":15200,"station_id":"","pricing_plan_id":"cebpf4jnsgd1na2vs0mg"},{"bike_id":"c22d8d9f-d784-44b2-bb57-5c12ae572794","system_id":"levelo_inurba_marseille","lat":43.30422,"lon":5.41288,"is_reserved":false,"is_disabled":false,"rental_uris":{"android":"levelo://app?vid=c22d8d9f-d784-44b2-bb57-5c12ae572794","ios":"levelo://app?vid=c22d8d9f-d784-44b2-bb57-5c12ae572794"},"vehicle_type_id":"4","last_reported":1748722229,"current_range_meters":14800,"station_id":"ce4bhop2rcd13ifvqh8g","pricing_plan_id":"cebpf4jnsgd1na2vs0mg"},{"bike_id":"8672d1d1-8bac-4f2a-9617-2a7643cc3a5c","system_id":"levelo_inurba_marseille","lat":43.29037,"lon":5.38643,"is_reserved":false,"is_disabled":false,"rental_uris":{"android":"levelo://app?vid=8672d1d1-8bac-4f2a-9617-2a7643cc3a5c","ios":"levelo://app?vid=8672d1d1-8bac-4f2a-9617-2a7643cc3a5c"},"vehicle_type_id":"4","last_reported":1748722229,"current_range_meters":15200,"station_id":"ce4bh4p2rcd13ifvqe0g","pricing_plan_id":"cebpf4jnsgd1na2vs0mg"},{"bike_id":"4020df04-632b-4ee7-9c6c-7254b0c7be04","system_id":"levelo_inurba_marseille","lat":43.32358,"lon":5.40603,"is_reserved":false,"is_disabled":false,"rental_uris":{"android":"levelo://app?vid=4020df04-632b-4ee7-9c6c-7254b0c7be04","ios":"levelo://app?vid=4020df04-632b-4ee7-9c6c-7254b0c7be04"},"vehicle_type_id":"4","last_reported":1748722229,"current_range_meters":15200,"station_id":"ce4bhq92rcd13ifvqhjg","pricing_plan_id":"cebpf4jnsgd1na2vs0mg"},{"bike_id":"4501ed9c-aff3-48ba-8f2e-a075a0f013ef","system_id":"levelo_inurba_marseille","lat":43.266875,"lon":5.382635,"is_reserved":false,"is_disabled":false,"rental_uris":{"android":"levelo://app?vid=4501ed9c-aff3-48ba-8f2e-a075a0f013ef","ios":"levelo://app?vid=4501ed9c-aff3-48ba-8f2e-a075a0f013ef"},"vehicle_type_id":"4","last_reported":1748722229,"current_range_meters":15200,"station_id":"ce4bhg92rcd13ifvqf90","pricing_plan_id":"cebpf4jnsgd1na2vs0mg"},{"bike_id":"5344a6f7-f2b1-43fb-956c-32a014cd9682","system_id":"levelo_inurba_marseille","lat":43.29419,"lon":5.38612,"is_reserved":false,"is_disabled":true,"rental_uris":{"android":"levelo://app?vid=5344a6f7-f2b1-43fb-956c-32a014cd9682","ios":"levelo://app?vid=5344a6f7-f2b1-43fb-956c-32a014cd9682"},"vehicle_type_id":"4","last_reported":1748722229,"current_range_meters":15200,"station_id":"ce4bh2h2rcd13ifvqdh0","pricing_plan_id":"cebpf4jnsgd1na2vs0mg"},{"bike_id":"19acb86c-d41f-4c99-95c0-a1f69c0413f6","system_id":"levelo_inurba_marseille","lat":43.25126,"lon":5.40276,"is_reserved":false,"is_disabled":false,"rental_uris":{"android":"levelo://app?vid=19acb86c-d41f-4c99-95c0-a1f69c0413f6","ios":"levelo://app?vid=19acb86c-d41f-4c99-95c0-a1f69c0413f6"},"vehicle_type_id":"4","last_reported":1748722229,"current_range_meters":15200,"station_id":"ce4bhlh2rcd13ifvqgig","pricing_plan_id":"cebpf4jnsgd1na2vs0mg"},{"bike_id":"c6edadbb-ce75-49f3-947c-84f86659aae4","system_id":"levelo_inurba_marseille","lat":43.29258,"lon":5.38437,"is_reserved":false,"is_disabled":false,"rental_uris":{"android":"levelo://app?vid=c6edadbb-ce75-49f3-947c-84f86659aae4","ios":"levelo://app?vid=c6edadbb-ce75-49f3-947c-84f86659aae4"},"vehicle_type_id":"4","last_reported":1748722229,"current_range_meters":16000,"station_id":"ce4bh692rcd13ifvqea0","pricing_plan_id":"cebpf4jnsgd1na2vs0mg"},{"bike_id":"0cc868ca-367c-433c-a2f5-1a26a49004bf","system_id":"levelo_inurba_marseille","lat":43.28857,"lon":5.3931,"is_reserved":false,"is_disabled":false,"rental_uris":{"android":"levelo://app?vid=0cc868ca-367c-433c-a2f5-1a26a49004bf","ios":"levelo://app?vid=0cc868ca-367c-433c-a2f5-1a26a49004bf"},"vehicle_type_id":"4","last_reported":1748722229,"current_range_meters":16000,"station_id":"ce4bh2p2rcd13ifvqdi0","pricing_plan_id":"cebpf4jnsgd1na2vs0mg"},{"bike_id":"f5a90625-b7e8-48a8-90c6-777efe255a32","system_id":"levelo_inurba_marseille","lat":43.25098,"lon":5.40973,"is_reserved":false,"is_disabled":false,"rental_uris":{"android":"levelo://app?vid=f5a90625-b7e8-48a8-90c6-777efe255a32","ios":"levelo://app?vid=f5a90625-b7e8-48a8-90c6-777efe255a32"},"vehicle_type_id":"4","last_reported":1748722229,"current_range_meters":16000,"station_id":"","pricing_plan_id":"cebpf4jnsgd1na2vs0mg"},{"bike_id":"84e94b65-0704-41b9-b45c-33b81545a7c4","system_id":"levelo_inurba_marseille","lat":43.30312,"lon":5.36914,"is_reserved":false,"is_disabled":true,"rental_uris":{"android":"levelo://app?vid=84e94b65-0704-41b9-b45c-33b81545a7c4","ios":"levelo://app?vid=84e94b65-0704-41b9-b45c-33b81545a7c4"},"vehicle_type_id":"4","last_reported":1748722229,"current_range_meters":16000,"station_id":"ce4bgqh2rcd13ifvqc5g","pricing_plan_id":"cebpf4jnsgd1na2vs0mg"},{"bike_id":"6492f311-533a-462c-ba1d-292999ee8f86","system_id":"levelo_inurba_marseille","lat":43.30608,"lon":5.393303,"is_reserved":false,"is_disabled":false,"rental_uris":{"android":"levelo://app?vid=6492f311-533a-462c-ba1d-292999ee8f86","ios":"levelo://app?vid=6492f311-533a-462c-ba1d-292999ee8f86"},"vehicle_type_id":"4","last_reported":1748722229,"current_range_meters":16000,"station_id":"ce4bh0p2rcd13ifvqd80","pricing_plan_id":"cebpf4jnsgd1na2vs0mg"},{"bike_id":"e5125a75-6225-4186-b496-b2776e97957c","system_id":"levelo_inurba_marseille","lat":43.29268,"lon":5.38441,"is_reserved":false,"is_disabled":false,"rental_uris":{"android":"levelo://app?vid=e5125a75-6225-4186-b496-b2776e97957c","ios":"levelo://app?vid=e5125a75-6225-4186-b496-b2776e97957c"},"vehicle_type_id":"4","last_reported":1748722229,"current_range_meters":16000,"station_id":"ce4bh692rcd13ifvqea0","pricing_plan_id":"cebpf4jnsgd1na2vs0mg"},{"bike_id":"c882bfb0-3b15-4936-bd02-b662c171941c","system_id":"levelo_inurba_marseille","lat":43.29263,"lon":5.38432,"is_reserved":false,"is_disabled":false,"rental_uris":{"android":"levelo://app?vid=c882bfb0-3b15-4936-bd02-b662c171941c","ios":"levelo://app?vid=c882bfb0-3b15-4936-bd02-b662c171941c"},"vehicle_type_id":"4","last_reported":1748722229,"current_range_meters":16000,"station_id":"ce4bh692rcd13ifvqea0","pricing_plan_id":"cebpf4jnsgd1na2vs0mg"},{"bike_id":"6cccbaeb-2c1e-4759-aca3-f2dd368559e3","system_id":"levelo_inurba_marseille","lat":43.29526,"lon":5.37499,"is_reserved":false,"is_disabled":false,"rental_uris":{"android":"levelo://app?vid=6cccbaeb-2c1e-4759-aca3-f2dd368559e3","ios":"levelo://app?vid=6cccbaeb-2c1e-4759-aca3-f2dd368559e3"},"vehicle_type_id":"4","last_reported":1748722229,"current_range_meters":16000,"station_id":"ce4bgkp2rcd13ifvqbmg","pricing_plan_id":"cebpf4jnsgd1na2vs0mg"},{"bike_id":"bfc6dce9-77ca-4235-96b6-63b5fbc4d6e2","system_id":"levelo_inurba_marseille","lat":43.33673,"lon":5.38554,"is_reserved":false,"is_disabled":false,"rental_uris":{"android":"levelo://app?vid=bfc6dce9-77ca-4235-96b6-63b5fbc4d6e2","ios":"levelo://app?vid=bfc6dce9-77ca-4235-96b6-63b5fbc4d6e2"},"vehicle_type_id":"4","last_reported":1748722229,"current_range_meters":16400,"station_id":"","pricing_plan_id":"cebpf4jnsgd1na2vs0mg"},{"bike_id":"63b6aa33-651a-404a-a312-1e118682d790","system_id":"levelo_inurba_marseille","lat":43.29172,"lon":5.3715,"is_reserved":false,"is_disabled":false,"rental_uris":{"android":"levelo://app?vid=63b6aa33-651a-404a-a312-1e118682d790","ios":"levelo://app?vid=63b6aa33-651a-404a-a312-1e118682d790"},"vehicle_type_id":"4","last_reported":1748722229,"current_range_meters":16400,"station_id":"ce4bha92rcd13ifvqeh0","pricing_plan_id":"cebpf4jnsgd1na2vs0mg"},{"bike_id":"3c677ebe-cadc-4f54-bc9d-87f2750a6541","system_id":"levelo_inurba_marseille","lat":43.29974,"lon":5.37179,"is_reserved":false,"is_disabled":false,"rental_uris":{"android":"levelo://app?vid=3c677ebe-cadc-4f54-bc9d-87f2750a6541","ios":"levelo://app?vid=3c677ebe-cadc-4f54-bc9d-87f2750a6541"},"vehicle_type_id":"4","last_reported":1748722229,"current_range_meters":16400,"station_id":"ce4bgr92rcd13ifvqc7g","pricing_plan_id":"cebpf4jnsgd1na2vs0mg"},{"bike_id":"96317ca0-e235-4892-8034-bcea25bba125","system_id":"levelo_inurba_marseille","lat":43.29419,"lon":5.38631,"is_reserved":false,"is_disabled":false,"rental_uris":{"android":"levelo://app?vid=96317ca0-e235-4892-8034-bcea25bba125","ios":"levelo://app?vid=96317ca0-e235-4892-8034-bcea25bba125"},"vehicle_type_id":"4","last_reported":1748722229,"current_range_meters":16400,"station_id":"ce4bh2h2rcd13ifvqdh0","pricing_plan_id":"cebpf4jnsgd1na2vs0mg"},{"bike_id":"2ad0113a-a4be-420b-9dc2-ed425d06cf2c","system_id":"levelo_inurba_marseille","lat":43.29612,"lon":5.37726,"is_reserved":false,"is_disabled":false,"rental_uris":{"android":"levelo://app?vid=2ad0113a-a4be-420b-9dc2-ed425d06cf2c","ios":"levelo://app?vid=2ad0113a-a4be-420b-9dc2-ed425d06cf2c"},"vehicle_type_id":"4","last_reported":1748722229,"current_range_meters":16400,"station_id":"ce4bgi92rcd13ifvqb90","pricing_plan_id":"cebpf4jnsgd1na2vs0mg"},{"bike_id":"77520d45-03bf-4b26-9f9b-8ac6c162ce6b","system_id":"levelo_inurba_marseille","lat":43.24374,"lon":5.41137,"is_reserved":false,"is_disabled":false,"rental_uris":{"android":"levelo://app?vid=77520d45-03bf-4b26-9f9b-8ac6c162ce6b","ios":"levelo://app?vid=77520d45-03bf-4b26-9f9b-8ac6c162ce6b"},"vehicle_type_id":"4","last_reported":1748722229,"current_range_meters":16400,"station_id":"","pricing_plan_id":"cebpf4jnsgd1na2vs0mg"},{"bike_id":"2914b3fa-2c94-4229-96a8-a2315fb10d95","system_id":"levelo_inurba_marseille","lat":43.29302,"lon":5.37146,"is_reserved":false,"is_disabled":false,"rental_uris":{"android":"levelo://app?vid=2914b3fa-2c94-4229-96a8-a2315fb10d95","ios":"levelo://app?vid=2914b3fa-2c94-4229-96a8-a2315fb10d95"},"vehicle_type_id":"4","last_reported":1748722229,"current_range_meters":16400,"station_id":"ce4bgh92rcd13ifvqb40","pricing_plan_id":"cebpf4jnsgd1na2vs0mg"},{"bike_id":"52138315-f13b-4871-ab78-9e5155a1008c","system_id":"levelo_inurba_marseille","lat":43.32295,"lon":5.38277,"is_reserved":false,"is_disabled":false,"rental_uris":{"android":"levelo://app?vid=52138315-f13b-4871-ab78-9e5155a1008c","ios":"levelo://app?vid=52138315-f13b-4871-ab78-9e5155a1008c"},"vehicle_type_id":"4","last_reported":1748722229,"current_range_meters":16400,"station_id":"ce4bhr12rcd13ifvqhqg","pricing_plan_id":"cebpf4jnsgd1na2vs0mg"},{"bike_id":"76f771a0-d27e-462d-a1fe-7bd311768559","system_id":"levelo_inurba_marseille","lat":43.28435,"lon":5.34988,"is_reserved":false,"is_disabled":true,"rental_uris":{"android":"levelo://app?vid=76f771a0-d27e-462d-a1fe-7bd311768559","ios":"levelo://app?vid=76f771a0-d27e-462d-a1fe-7bd311768559"},"vehicle_type_id":"4","last_reported":1748722229,"current_range_meters":16400,"station_id":"ce4bhbh2rcd13ifvqepg","pricing_plan_id":"cebpf4jnsgd1na2vs0mg"},{"bike_id":"70e8d285-458c-4eec-97ff-8e9a018bb71e","system_id":"levelo_inurba_marseille","lat":43.28571,"lon":5.39499,"is_reserved":false,"is_disabled":false,"rental_uris":{"android":"levelo://app?vid=70e8d285-458c-4eec-97ff-8e9a018bb71e","ios":"levelo://app?vid=70e8d285-458c-4eec-97ff-8e9a018bb71e"},"vehicle_type_id":"4","last_reported":1748722229,"current_range_meters":16000,"station_id":"ce4bh292rcd13ifvqdg0","pricing_plan_id":"cebpf4jnsgd1na2vs0mg"},{"bike_id":"d787cfdb-50c2-451d-8448-0eff07939f1e","system_id":"levelo_inurba_marseille","lat":43.23174,"lon":5.43692,"is_reserved":false,"is_disabled":true,"rental_uris":{"android":"levelo://app?vid=d787cfdb-50c2-451d-8448-0eff07939f1e","ios":"levelo://app?vid=d787cfdb-50c2-451d-8448-0eff07939f1e"},"vehicle_type_id":"4","last_reported":1748722229,"current_range_meters":17200,"station_id":"ce4bhmp2rcd13ifvqgog","pricing_plan_id":"cebpf4jnsgd1na2vs0mg"},{"bike_id":"a92e05e1-4b38-44a3-b6b4-eb562920f482","system_id":"levelo_inurba_marseille","lat":43.21752,"lon":5.346,"is_reserved":false,"is_disabled":false,"rental_uris":{"android":"levelo://app?vid=a92e05e1-4b38-44a3-b6b4-eb562920f482","ios":"levelo://app?vid=a92e05e1-4b38-44a3-b6b4-eb562920f482"},"vehicle_type_id":"4","last_reported":1748722229,"current_range_meters":16800,"station_id":"","pricing_plan_id":"cebpf4jnsgd1na2vs0mg"},{"bike_id":"f51ce3c7-90ae-402b-a217-cab512e2feb7","system_id":"levelo_inurba_marseille","lat":43.25085,"lon":5.39515,"is_reserved":false,"is_disabled":false,"rental_uris":{"android":"levelo://app?vid=f51ce3c7-90ae-402b-a217-cab512e2feb7","ios":"levelo://app?vid=f51ce3c7-90ae-402b-a217-cab512e2feb7"},"vehicle_type_id":"4","last_reported":1748722229,"current_range_meters":16400,"station_id":"ce4bhm12rcd13ifvqgkg","pricing_plan_id":"cebpf4jnsgd1na2vs0mg"},{"bike_id":"2d0bdb08-2477-400c-89b6-3ed8aea96045","system_id":"levelo_inurba_marseille","lat":43.309526,"lon":5.390366,"is_reserved":false,"is_disabled":false,"rental_uris":{"android":"levelo://app?vid=2d0bdb08-2477-400c-89b6-3ed8aea96045","ios":"levelo://app?vid=2d0bdb08-2477-400c-89b6-3ed8aea96045"},"vehicle_type_id":"4","last_reported":1748722229,"current_range_meters":16800,"station_id":"ce4bgup2rcd13ifvqco0","pricing_plan_id":"cebpf4jnsgd1na2vs0mg"},{"bike_id":"e74ebf15-3f21-436b-8539-5c3607ed04fb","system_id":"levelo_inurba_marseille","lat":43.29259,"lon":5.38441,"is_reserved":false,"is_disabled":false,"rental_uris":{"android":"levelo://app?vid=e74ebf15-3f21-436b-8539-5c3607ed04fb","ios":"levelo://app?vid=e74ebf15-3f21-436b-8539-5c3607ed04fb"},"vehicle_type_id":"4","last_reported":1748722229,"current_range_meters":16800,"station_id":"ce4bh692rcd13ifvqea0","pricing_plan_id":"cebpf4jnsgd1na2vs0mg"},{"bike_id":"edf637b9-92fd-46c7-9477-825412856041","system_id":"levelo_inurba_marseille","lat":43.28448,"lon":5.37502,"is_reserved":false,"is_disabled":false,"rental_uris":{"android":"levelo://app?vid=edf637b9-92fd-46c7-9477-825412856041","ios":"levelo://app?vid=edf637b9-92fd-46c7-9477-825412856041"},"vehicle_type_id":"4","last_reported":1748722229,"current_range_meters":16800,"station_id":"","pricing_plan_id":"cebpf4jnsgd1na2vs0mg"},{"bike_id":"46e9e1e7-2fa7-40d1-a64b-c59e31c5c036","system_id":"levelo_inurba_marseille","lat":43.2926,"lon":5.38439,"is_reserved":false,"is_disabled":false,"rental_uris":{"android":"levelo://app?vid=46e9e1e7-2fa7-40d1-a64b-c59e31c5c036","ios":"levelo://app?vid=46e9e1e7-2fa7-40d1-a64b-c59e31c5c036"},"vehicle_type_id":"4","last_reported":1748722229,"current_range_meters":16800,"station_id":"ce4bh692rcd13ifvqea0","pricing_plan_id":"cebpf4jnsgd1na2vs0mg"},{"bike_id":"5725b4d4-4cf6-4a17-9df4-2d832af4dac0","system_id":"levelo_inurba_marseille","lat":43.29032,"lon":5.37571,"is_reserved":false,"is_disabled":false,"rental_uris":{"android":"levelo://app?vid=5725b4d4-4cf6-4a17-9df4-2d832af4dac0","ios":"levelo://app?vid=5725b4d4-4cf6-4a17-9df4-2d832af4dac0"},"vehicle_type_id":"4","last_reported":1748722229,"current_range_meters":16800,"station_id":"ce4bh692rcd13ifvqe90","pricing_plan_id":"cebpf4jnsgd1na2vs0mg"},{"bike_id":"14eb70df-2302-402f-85ec-7e17c956a4e5","system_id":"levelo_inurba_marseille","lat":43.2942,"lon":5.38623,"is_reserved":false,"is_disabled":false,"rental_uris":{"android":"levelo://app?vid=14eb70df-2302-402f-85ec-7e17c956a4e5","ios":"levelo://app?vid=14eb70df-2302-402f-85ec-7e17c956a4e5"},"vehicle_type_id":"4","last_reported":1748722229,"current_range_meters":16800,"station_id":"ce4bh2h2rcd13ifvqdh0","pricing_plan_id":"cebpf4jnsgd1na2vs0mg"},{"bike_id":"2689eeec-9534-4eeb-a892-1266a671c7a0","system_id":"levelo_inurba_marseille","lat":43.26562,"lon":5.37283,"is_reserved":false,"is_disabled":false,"rental_uris":{"android":"levelo://app?vid=2689eeec-9534-4eeb-a892-1266a671c7a0","ios":"levelo://app?vid=2689eeec-9534-4eeb-a892-1266a671c7a0"},"vehicle_type_id":"4","last_reported":1748722229,"current_range_meters":16800,"station_id":"ce4bhg12rcd13ifvqf70","pricing_plan_id":"cebpf4jnsgd1na2vs0mg"},{"bike_id":"cb6d2147-7c94-4685-a291-c69991daf387","system_id":"levelo_inurba_marseille","lat":43.30146,"lon":5.38769,"is_reserved":false,"is_disabled":false,"rental_uris":{"android":"levelo://app?vid=cb6d2147-7c94-4685-a291-c69991daf387","ios":"levelo://app?vid=cb6d2147-7c94-4685-a291-c69991daf387"},"vehicle_type_id":"4","last_reported":1748722229,"current_range_meters":17200,"station_id":"ce4bghh2rcd13ifvqb60","pricing_plan_id":"cebpf4jnsgd1na2vs0mg"},{"bike_id":"0124daaf-983d-4db1-a25d-60e2257d9a9e","system_id":"levelo_inurba_marseille","lat":43.2972,"lon":5.36584,"is_reserved":false,"is_disabled":false,"rental_uris":{"android":"levelo://app?vid=0124daaf-983d-4db1-a25d-60e2257d9a9e","ios":"levelo://app?vid=0124daaf-983d-4db1-a25d-60e2257d9a9e"},"vehicle_type_id":"4","last_reported":1748722229,"current_range_meters":17200,"station_id":"ce4bgn12rcd13ifvqbt0","pricing_plan_id":"cebpf4jnsgd1na2vs0mg"},{"bike_id":"572ca9ea-62ad-4979-8159-25e0c87fae3c","system_id":"levelo_inurba_marseille","lat":43.27585,"lon":5.37787,"is_reserved":false,"is_disabled":false,"rental_uris":{"android":"levelo://app?vid=572ca9ea-62ad-4979-8159-25e0c87fae3c","ios":"levelo://app?vid=572ca9ea-62ad-4979-8159-25e0c87fae3c"},"vehicle_type_id":"4","last_reported":1748722229,"current_range_meters":17200,"station_id":"","pricing_plan_id":"cebpf4jnsgd1na2vs0mg"},{"bike_id":"d0adb92a-e89a-46d9-831f-e62500290c27","system_id":"levelo_inurba_marseille","lat":43.3154,"lon":5.38044,"is_reserved":false,"is_disabled":false,"rental_uris":{"android":"levelo://app?vid=d0adb92a-e89a-46d9-831f-e62500290c27","ios":"levelo://app?vid=d0adb92a-e89a-46d9-831f-e62500290c27"},"vehicle_type_id":"4","last_reported":1748722229,"current_range_meters":17200,"station_id":"ce4bhsp2rcd13ifvqi50","pricing_plan_id":"cebpf4jnsgd1na2vs0mg"},{"bike_id":"bd6645f7-a516-4ceb-9eb8-5a4884936f5b","system_id":"levelo_inurba_marseille","lat":43.29265,"lon":5.38436,"is_reserved":false,"is_disabled":false,"rental_uris":{"android":"levelo://app?vid=bd6645f7-a516-4ceb-9eb8-5a4884936f5b","ios":"levelo://app?vid=bd6645f7-a516-4ceb-9eb8-5a4884936f5b"},"vehicle_type_id":"4","last_reported":1748722229,"current_range_meters":17200,"station_id":"ce4bh692rcd13ifvqea0","pricing_plan_id":"cebpf4jnsgd1na2vs0mg"},{"bike_id":"68894236-7bd9-4073-91e1-152beaa06d42","system_id":"levelo_inurba_marseille","lat":43.29255,"lon":5.38442,"is_reserved":false,"is_disabled":false,"rental_uris":{"android":"levelo://app?vid=68894236-7bd9-4073-91e1-152beaa06d42","ios":"levelo://app?vid=68894236-7bd9-4073-91e1-152beaa06d42"},"vehicle_type_id":"4","last_reported":1748722229,"current_range_meters":17200,"station_id":"ce4bh692rcd13ifvqea0","pricing_plan_id":"cebpf4jnsgd1na2vs0mg"},{"bike_id":"5235f953-dd85-4cff-a974-1bb0a1f88a2d","system_id":"levelo_inurba_marseille","lat":43.29254,"lon":5.38427,"is_reserved":false,"is_disabled":false,"rental_uris":{"android":"levelo://app?vid=5235f953-dd85-4cff-a974-1bb0a1f88a2d","ios":"levelo://app?vid=5235f953-dd85-4cff-a974-1bb0a1f88a2d"},"vehicle_type_id":"4","last_reported":1748722229,"current_range_meters":17200,"station_id":"ce4bh692rcd13ifvqea0","pricing_plan_id":"cebpf4jnsgd1na2vs0mg"},