{"last_updated":1742425839,"ttl":60,"version":"2.2","data":{"bikes":[{"bike_id":"6d6c8024-ca50-4879-b306-358b4dcb48e3","system_id":"levelo_inurba_marseille","lat":43.30211,"lon":5.3948,"is_reserved":false,"is_disabled":false,"rental_uris":{"android":"levelo://app?vid=6d6c8024-ca50-4879-b306-358b4dcb48e3","ios":"levelo://app?vid=6d6c8024-ca50-4879-b306-358b4dcb48e3"},"vehicle_type_id":"4","last_reported":1742425839,"current_range_meters":2800,"station_id":"ce4bh0p2rcd13ifvqd70","pricing_plan_id":"cebpf4jnsgd1na2vs0mg"},{"bike_id":"e582d1fe-4879-4f27-8671-77ca2ba0d27e","system_id":"levelo_inurba_marseille","lat":43.24829,"lon":5.37478,"is_reserved":false,"is_disabled":true,"rental_uris":{"android":"levelo://app?vid=e582d1fe-4879-4f27-8671-77ca2ba0d27e","ios":"levelo://app?vid=e582d1fe-4879-4f27-8671-77ca2ba0d27e"},"vehicle_type_id":"4","last_reported":1742425839,"current_range_meters":2800,"station_id":"","pricing_plan_id":"cebpf4jnsgd1na2vs0mg"},{"bike_id":"fe6c75a9-9bbb-4e79-8180-0e3e854b5fa7","system_id":"levelo_inurba_marseille","lat":43.31886,"lon":5.40728,"is_reserved":false,"is_disabled":false,"rental_uris":{"android":"levelo://app?vid=fe6c75a9-9bbb-4e79-8180-0e3e854b5fa7","ios":"levelo://app?vid=fe6c75a9-9bbb-4e79-8180-0e3e854b5fa7"},"vehicle_type_id":"4","last_reported":1742425839,"current_range_meters":2800,"station_id":"ce4bhq12rcd13ifvqhig","pricing_plan_id":"cebpf4jnsgd1na2vs0mg"},{"bike_id":"7be357ca-49f9-45d6-a962-754132a73fd4","system_id":"levelo_inurba_marseille","lat":43.30421,"lon":5.41293,"is_reserved":false,"is_disabled":false,"rental_uris":{"android":"levelo://app?vid=7be357ca-49f9-45d6-a962-754132a73fd4","ios":"levelo://app?vid=7be357ca-49f9-45d6-a962-754132a73fd4"},"vehicle_type_id":"4","last_reported":1742425839,"current_range_meters":2800,"station_id":"ce4bhop2rcd13ifvqh8g","pricing_plan_id":"cebpf4jnsgd1na2vs0mg"},{"bike_id":"d835339a-815c-4f2d-bc5f-06df97638758","system_id":"levelo_inurba_marseille","lat":43.31389,"lon":5.38597,"is_reserved":false,"is_disabled":false,"rental_uris":{"android":"levelo://app?vid=d835339a-815c-4f2d-bc5f-06df97638758","ios":"levelo://app?vid=d835339a-815c-4f2d-bc5f-06df97638758"},"vehicle_type_id":"4","last_reported":1742425839,"current_range_meters":2800,"station_id":"","pricing_plan_id":"cebpf4jnsgd1na2vs0mg"},{"bike_id":"025b93a4-47c9-4472-823d-76319b10550f","system_id":"levelo_inurba_marseille","lat":43.31159,"lon":5.38698,"is_reserved":false,"is_disabled":false,"rental_uris":{"android":"levelo://app?vid=025b93a4-47c9-4472-823d-76319b10550f","ios":"levelo://app?vid=025b93a4-47c9-4472-823d-76319b10550f"},"vehicle_type_id":"4","last_reported":1742425839,"current_range_meters":2800,"station_id":"ce4bgv12rcd13ifvqcp0","pricing_plan_id":"cebpf4jnsgd1na2vs0mg"},{"bike_id":"1dcce64e-8423-4818-aac1-0a108d81dde3","system_id":"levelo_inurba_marseille","lat":43.27958,"lon":5.38719,"is_reserved":false,"is_disabled":false,"rental_uris":{"android":"levelo://app?vid=1dcce64e-8423-4818-aac1-0a108d81dde3","ios":"levelo://app?vid=1dcce64e-8423-4818-aac1-0a108d81dde3"},"vehicle_type_id":"4","last_reported":1742425839,"current_range_meters":3200,"station_id":"ce4bhg12rcd13ifvqf80","pricing_plan_id":"cebpf4jnsgd1na2vs0mg"},{"bike_id":"97820cc4-93f7-472f-a6a3-bb0b3708ecd1","system_id":"levelo_inurba_marseille","lat":43.26566,"lon":5.37342,"is_reserved":false,"is_disabled":true,"rental_uris":{"android":"levelo://app?vid=97820cc4-93f7-472f-a6a3-bb0b3708ecd1","ios":"levelo://app?vid=97820cc4-93f7-472f-a6a3-bb0b3708ecd1"},"vehicle_type_id":"4","last_reported":1742425839,"current_range_meters":3200,"station_id":"ce4bhg12rcd13ifvqf70","pricing_plan_id":"cebpf4jnsgd1na2vs0mg"},{"bike_id":"6368f354-6da7-4884-a394-062f1a963ed6","system_id":"levelo_inurba_marseille","lat":43.29287,"lon":5.42798,"is_reserved":false,"is_disabled":false,"rental_uris":{"android":"levelo://app?vid=6368f354-6da7-4884-a394-062f1a963ed6","ios":"levelo://app?vid=6368f354-6da7-4884-a394-062f1a963ed6"},"vehicle_type_id":"4","last_reported":1742425839,"current_range_meters":3200,"station_id":"","pricing_plan_id":"cebpf4jnsgd1na2vs0mg"},{"bike_id":"6a62c2b5-d005-4b76-9c2d-d4aaca5893f3","system_id":"levelo_inurba_marseille","lat":43.28713,"lon":5.3794,"is_reserved":false,"is_disabled":false,"rental_uris":{"android":"levelo://app?vid=6a62c2b5-d005-4b76-9c2d-d4aaca5893f3","ios":"levelo://app?vid=6a62c2b5-d005-4b76-9c2d-d4aaca5893f3"},"vehicle_type_id":"4","last_reported":1742425839,"current_range_meters":3600,"station_id":"ce4bh9p2rcd13ifvqec0","pricing_plan_id":"cebpf4jnsgd1na2vs0mg"},{"bike_id":"8d83e8cb-bc34-4c17-ad29-fbe2d4a7c5e7","system_id":"levelo_inurba_marseille","lat":43.2796,"lon":5.38724,"is_reserved":false,"is_disabled":false,"rental_uris":{"android":"levelo://app?vid=8d83e8cb-bc34-4c17-ad29-fbe2d4a7c5e7","ios":"levelo://app?vid=8d83e8cb-bc34-4c17-ad29-fbe2d4a7c5e7"},"vehicle_type_id":"4","last_reported":1742425839,"current_range_meters":3600,"station_id":"ce4bhg12rcd13ifvqf80","pricing_plan_id":"cebpf4jnsgd1na2vs0mg"},{"bike_id":"397c954e-b72b-443d-b6b2-d5354ca96d04","system_id":"levelo_inurba_marseille","lat":43.32538,"lon":5.41421,"is_reserved":false,"is_disabled":false,"rental_uris":{"android":"levelo://app?vid=397c954e-b72b-443d-b6b2-d5354ca96d04","ios":"levelo://app?vid=397c954e-b72b-443d-b6b2-d5354ca96d04"},"vehicle_type_id":"4","last_reported":1742425839,"current_range_meters":3200,"station_id":"ce4bhq12rcd13ifvqhhg","pricing_plan_id":"cebpf4jnsgd1na2vs0mg"},{"bike_id":"72fa9928-6f34-4e20-a699-21c02d9b6490","system_id":"levelo_inurba_marseille","lat":43.27904,"lon":5.41222,"is_reserved":false,"is_disabled":false,"rental_uris":{"android":"levelo://app?vid=72fa9928-6f34-4e20-a699-21c02d9b6490","ios":"levelo://app?vid=72fa9928-6f34-4e20-a699-21c02d9b6490"},"vehicle_type_id":"4","last_reported":1742425839,"current_range_meters":4000,"station_id":"","pricing_plan_id":"cebpf4jnsgd1na2vs0mg"},{"bike_id":"4ab60c3c-0e31-4a02-9d5f-acb594ff22ad","system_id":"levelo_inurba_marseille","lat":43.29908,"lon":5.37458,"is_reserved":false,"is_disabled":true,"rental_uris":{"android":"levelo://app?vid=4ab60c3c-0e31-4a02-9d5f-acb594ff22ad","ios":"levelo://app?vid=4ab60c3c-0e31-4a02-9d5f-acb594ff22ad"},"vehicle_type_id":"4","last_reported":1742425839,"current_range_meters":4400,"station_id":"ce4bgjh2rcd13ifvqbg0","pricing_plan_id":"cebpf4jnsgd1na2vs0mg"},{"bike_id":"52aee246-4ecc-4a47-8f20-61d73378a59c","system_id":"levelo_inurba_marseille","lat":43.28264,"lon":5.35078,"is_reserved":false,"is_disabled":false,"rental_uris":{"android":"levelo://app?vid=52aee246-4ecc-4a47-8f20-61d73378a59c","ios":"levelo://app?vid=52aee246-4ecc-4a47-8f20-61d73378a59c"},"vehicle_type_id":"4","last_reported":1742425839,"current_range_meters":4400,"station_id":"ce4bhbp2rcd13ifvqerg","pricing_plan_id":"cebpf4jnsgd1na2vs0mg"},{"bike_id":"6ae6f76c-6a01-4d75-9d3f-dfa610803a78","system_id":"levelo_inurba_marseille","lat":43.23067,"lon":5.35487,"is_reserved":false,"is_disabled":false,"rental_uris":{"android":"levelo://app?vid=6ae6f76c-6a01-4d75-9d3f-dfa610803a78","ios":"levelo://app?vid=6ae6f76c-6a01-4d75-9d3f-dfa610803a78"},"vehicle_type_id":"4","last_reported":1742425839,"current_range_meters":4800,"station_id":"cpo3342slgdg3j2ifvpg","pricing_plan_id":"cebpf4jnsgd1na2vs0mg"},{"bike_id":"c849e512-8241-40ea-82b7-ef1c1b5cdc02","system_id":"levelo_inurba_marseille","lat":43.26046,"lon":5.39384,"is_reserved":false,"is_disabled":false,"rental_uris":{"android":"levelo://app?vid=c849e512-8241-40ea-82b7-ef1c1b5cdc02","ios":"levelo://app?vid=c849e512-8241-40ea-82b7-ef1c1b5cdc02"},"vehicle_type_id":"4","last_reported":1742425839,"current_range_meters":4800,"station_id":"ce4bhh92rcd13ifvqfj0","pricing_plan_id":"cebpf4jnsgd1na2vs0mg"},{"bike_id":"f26f3d5a-4028-424d-9faf-78c43bb5f4de","system_id":"levelo_inurba_marseille","lat":43.27906,"lon":5.3959,"is_reserved":false,"is_disabled":false,"rental_uris":{"android":"levelo://app?vid=f26f3d5a-4028-424d-9faf-78c43bb5f4de","ios":"levelo://app?vid=f26f3d5a-4028-424d-9faf-78c43bb5f4de"},"vehicle_type_id":"4","last_reported":1742425839,"current_range_meters":4800,"station_id":"ce4bhf92rcd13ifvqf40","pricing_plan_id":"cebpf4jnsgd1na2vs0mg"},{"bike_id":"0b60e72b-d8b1-4266-9b63-b94b87c1ad4b","system_id":"levelo_inurba_marseille","lat":43.23187,"lon":5.39998,"is_reserved":false,"is_disabled":false,"rental_uris":{"android":"levelo://app?vid=0b60e72b-d8b1-4266-9b63-b94b87c1ad4b","ios":"levelo://app?vid=0b60e72b-d8b1-4266-9b63-b94b87c1ad4b"},"vehicle_type_id":"4","last_reported":1742425839,"current_range_meters":5600,"station_id":"ce4bhn12rcd13ifvqgqg","pricing_plan_id":"cebpf4jnsgd1na2vs0mg"},{"bike_id":"df7a5771-f6ca-49c2-a35a-7cdb11f39a28","system_id":"levelo_inurba_marseille","lat":43.29527,"lon":5.39047,"is_reserved":false,"is_disabled":false,"rental_uris":{"android":"levelo://app?vid=df7a5771-f6ca-49c2-a35a-7cdb11f39a28","ios":"levelo://app?vid=df7a5771-f6ca-49c2-a35a-7cdb11f39a28"},"vehicle_type_id":"4","last_reported":1742425839,"current_range_meters":5600,"station_id":"ce4bh3p2rcd13ifvqdp0","pricing_plan_id":"cebpf4jnsgd1na2vs0mg"},{"bike_id":"41ccd72c-504a-4b33-907d-e3b6bd114bcb","system_id":"levelo_inurba_marseille","lat":43.23211,"lon":5.35552,"is_reserved":false,"is_disabled":false,"rental_uris":{"android":"levelo://app?vid=41ccd72c-504a-4b33-907d-e3b6bd114bcb","ios":"levelo://app?vid=41ccd72c-504a-4b33-907d-e3b6bd114bcb"},"vehicle_type_id":"4","last_reported":1742425839,"current_range_meters":5600,"station_id":"ce4bhu92rcd13ifvqi70","pricing_plan_id":"cebpf4jnsgd1na2vs0mg"},{"bike_id":"ed167cf2-fcca-45d3-a06f-d2b9c6a361e0","system_id":"levelo_inurba_marseille","lat":43.28032,"lon":5.40065,"is_reserved":false,"is_disabled":false,"rental_uris":{"android":"levelo://app?vid=ed167cf2-fcca-45d3-a06f-d2b9c6a361e0","ios":"levelo://app?vid=ed167cf2-fcca-45d3-a06f-d2b9c6a361e0"},"vehicle_type_id":"4","last_reported":1742425839,"current_range_meters":5600,"station_id":"","pricing_plan_id":"cebpf4jnsgd1na2vs0mg"},{"bike_id":"dd2ed7bd-b7fd-4968-a45f-8f49550d4b0d","system_id":"levelo_inurba_marseille","lat":43.28428,"lon":5.39205,"is_reserved":false,"is_disabled":false,"rental_uris":{"android":"levelo://app?vid=dd2ed7bd-b7fd-4968-a45f-8f49550d4b0d","ios":"levelo://app?vid=dd2ed7bd-b7fd-4968-a45f-8f49550d4b0d"},"vehicle_type_id":"4","last_reported":1742425839,"current_range_meters":5600,"station_id":"ce4bhoh2rcd13ifvqh5g","pricing_plan_id":"cebpf4jnsgd1na2vs0mg"},{"bike_id":"c1ccf0a5-89fe-4d49-a5d7-808fb720c652","system_id":"levelo_inurba_marseille","lat":43.26031,"lon":5.41743,"is_reserved":false,"is_disabled":false,"rental_uris":{"android":"levelo://app?vid=c1ccf0a5-89fe-4d49-a5d7-808fb720c652","ios":"levelo://app?vid=c1ccf0a5-89fe-4d49-a5d7-808fb720c652"},"vehicle_type_id":"4","last_reported":1742425839,"current_range_meters":6000,"station_id":"","pricing_plan_id":"cebpf4jnsgd1na2vs0mg"},{"bike_id":"3266adc3-b662-4228-bccb-80bbd1deec2e","system_id":"levelo_inurba_marseille","lat":43.28447,"lon":5.35883,"is_reserved":false,"is_disabled":false,"rental_uris":{"android":"levelo://app?vid=3266adc3-b662-4228-bccb-80bbd1deec2e","ios":"levelo://app?vid=3266adc3-b662-4228-bccb-80bbd1deec2e"},"vehicle_type_id":"4","last_reported":1742425839,"current_range_meters":6000,"station_id":"ce4bhah2rcd13ifvqei0","pricing_plan_id":"cebpf4jnsgd1na2vs0mg"},{"bike_id":"4382fcbb-ab3a-4082-a593-40cf743c03e0","system_id":"levelo_inurba_marseille","lat":43.25124,"lon":5.40334,"is_reserved":false,"is_disabled":false,"rental_uris":{"android":"levelo://app?vid=4382fcbb-ab3a-4082-a593-40cf743c03e0","ios":"levelo://app?vid=4382fcbb-ab3a-4082-a593-40cf743c03e0"},"vehicle_type_id":"4","last_reported":1742425839,"current_range_meters":6000,"station_id":"ce4bhlh2rcd13ifvqgig","pricing_plan_id":"cebpf4jnsgd1na2vs0mg"},{"bike_id":"ca1c0a28-8faf-435f-9d8b-370c3a07ff34","system_id":"levelo_inurba_marseille","lat":43.24166,"lon":5.36408,"is_reserved":false,"is_disabled":false,"rental_uris":{"android":"levelo://app?vid=ca1c0a28-8faf-435f-9d8b-370c3a07ff34","ios":"levelo://app?vid=ca1c0a28-8faf-435f-9d8b-370c3a07ff34"},"vehicle_type_id":"4","last_reported":1742425839,"current_range_meters":6000,"station_id":"cpo36qri1sfpv3e86is0","pricing_plan_id":"cebpf4jnsgd1na2vs0mg"},{"bike_id":"316b5ba9-2790-4d55-91cb-595f1ebd680a","system_id":"levelo_inurba_marseille","lat":43.28417,"lon":5.3752,"is_reserved":false,"is_disabled":false,"rental_uris":{"android":"levelo://app?vid=316b5ba9-2790-4d55-91cb-595f1ebd680a","ios":"levelo://app?vid=316b5ba9-2790-4d55-91cb-595f1ebd680a"},"vehicle_type_id":"4","last_reported":1742425839,"current_range_meters":6000,"station_id":"ce4bh412rcd13ifvqds0","pricing_plan_id":"cebpf4jnsgd1na2vs0mg"},{"bike_id":"6f110260-f2ef-4661-98e1-47369abd2ff9","system_id":"levelo_inurba_marseille","lat":43.30529,"lon":5.38429,"is_reserved":false,"is_disabled":false,"rental_uris":{"android":"levelo://app?vid=6f110260-f2ef-4661-98e1-47369abd2ff9","ios":"levelo://app?vid=6f110260-f2ef-4661-98e1-47369abd2ff9"},"vehicle_type_id":"4","last_reported":1742425839,"current_range_meters":6000,"station_id":"ce4bgg92rcd13ifvqb30","pricing_plan_id":"cebpf4jnsgd1na2vs0mg"},{"bike_id":"8997f540-8acf-4714-9054-8cd70c106aba","system_id":"levelo_inurba_marseille","lat":43.25882,"lon":5.39908,"is_reserved":false,"is_disabled":false,"rental_uris":{"android":"levelo://app?vid=8997f540-8acf-4714-9054-8cd70c106aba","ios":"levelo://app?vid=8997f540-8acf-4714-9054-8cd70c106aba"},"vehicle_type_id":"4","last_reported":1742425839,"current_range_meters":6000,"station_id":"ce4bhl92rcd13ifvqghg","pricing_plan_id":"cebpf4jnsgd1na2vs0mg"},{"bike_id":"6c1383c4-ce25-49bd-9e8f-5404db35746c","system_id":"levelo_inurba_marseille","lat":43.23632,"lon":5.39153,"is_reserved":false,"is_disabled":false,"rental_uris":{"android":"levelo://app?vid=6c1383c4-ce25-49bd-9e8f-5404db35746c","ios":"levelo://app?vid=6c1383c4-ce25-49bd-9e8f-5404db35746c"},"vehicle_type_id":"4","last_reported":1742425839,"current_range_meters":6000,"station_id":"","pricing_plan_id":"cebpf4jnsgd1na2vs0mg"},{"bike_id":"3971f77a-b88d-4f35-bb02-cd0729f773be","system_id":"levelo_inurba_marseille","lat":43.2581,"lon":5.3942,"is_reserved":false,"is_disabled":false,"rental_uris":{"android":"levelo://app?vid=3971f77a-b88d-4f35-bb02-cd0729f773be","ios":"levelo://app?vid=3971f77a-b88d-4f35-bb02-cd0729f773be"},"vehicle_type_id":"4","last_reported":1742425839,"current_range_meters":6000,"station_id":"ce4bhip2rcd13ifvqft0","pricing_plan_id":"cebpf4jnsgd1na2vs0mg"},{"bike_id":"b4de28f4-8a25-4498-9ea9-5ae001331785","system_id":"levelo_inurba_marseille","lat":43.24665,"lon":5.38154,"is_reserved":false,"is_disabled":false,"rental_uris":{"android":"levelo://app?vid=b4de28f4-8a25-4498-9ea9-5ae001331785","ios":"levelo://app?vid=b4de28f4-8a25-4498-9ea9-5ae001331785"},"vehicle_type_id":"4","last_reported":1742425839,"current_range_meters":6000,"station_id":"ce4bhih2rcd13ifvqfr0","pricing_plan_id":"cebpf4jnsgd1na2vs0mg"},{"bike_id":"d0f8fd34-84ff-4859-8903-7aee9c800007","system_id":"levelo_inurba_marseille","lat":43.28355,"lon":5.38644,"is_reserved":false,"is_disabled":false,"rental_uris":{"android":"levelo://app?vid=d0f8fd34-84ff-4859-8903-7aee9c800007","ios":"levelo://app?vid=d0f8fd34-84ff-4859-8903-7aee9c800007"},"vehicle_type_id":"4","last_reported":1742425839,"current_range_meters":6400,"station_id":"ce4bh492rcd13ifvqdvg","pricing_plan_id":"cebpf4jnsgd1na2vs0mg"},{"bike_id":"93c8459b-99b3-44b8-ba99-136ecf8bee55","system_id":"levelo_inurba_marseille","lat":43.24809,"lon":5.37452,"is_reserved":false,"is_disabled":false,"rental_uris":{"android":"levelo://app?vid=93c8459b-99b3-44b8-ba99-136ecf8bee55","ios":"levelo://app?vid=93c8459b-99b3-44b8-ba99-136ecf8bee55"},"vehicle_type_id":"4","last_reported":1742425839,"current_range_meters":6400,"station_id":"ce4bhgh2rcd13ifvqfb0","pricing_plan_id":"cebpf4jnsgd1na2vs0mg"},{"bike_id":"999c912f-01dd-411f-a2be-b00bc98467e7","system_id":"levelo_inurba_marseille","lat":43.30957,"lon":5.40133,"is_reserved":false,"is_disabled":false,"rental_uris":{"android":"levelo://app?vid=999c912f-01dd-411f-a2be-b00bc98467e7","ios":"levelo://app?vid=999c912f-01dd-411f-a2be-b00bc98467e7"},"vehicle_type_id":"4","last_reported":1742425839,"current_range_meters":6400,"station_id":"ce4bgvp2rcd13ifvqct0","pricing_plan_id":"cebpf4jnsgd1na2vs0mg"},{"bike_id":"a342afa1-fe1b-4de5-8f98-f3f81167fac6","system_id":"levelo_inurba_marseille","lat":43.22919,"lon":5.35352,"is_reserved":false,"is_disabled":false,"rental_uris":{"android":"levelo://app?vid=a342afa1-fe1b-4de5-8f98-f3f81167fac6","ios":"levelo://app?vid=a342afa1-fe1b-4de5-8f98-f3f81167fac6"},"vehicle_type_id":"4","last_reported":1742425839,"current_range_meters":6400,"station_id":"cpo3532slgdg3j2ikp40","pricing_plan_id":"cebpf4jnsgd1na2vs0mg"},{"bike_id":"8a2aee9f-027f-415a-9d5c-83912e4bbe0d","system_id":"levelo_inurba_marseille","lat":43.31756,"lon":5.39021,"is_reserved":false,"is_disabled":false,"rental_uris":{"android":"levelo://app?vid=8a2aee9f-027f-415a-9d5c-83912e4bbe0d","ios":"levelo://app?vid=8a2aee9f-027f-415a-9d5c-83912e4bbe0d"},"vehicle_type_id":"4","last_reported":1742425839,"current_range_meters":6400,"station_id":"ce4bhqp2rcd13ifvqhng","pricing_plan_id":"cebpf4jnsgd1na2vs0mg"},{"bike_id":"66ebd736-d0e1-4909-b91a-8b8e170e1ed9","system_id":"levelo_inurba_marseille","lat":43.24086,"lon":5.37759,"is_reserved":false,"is_disabled":false,"rental_uris":{"android":"levelo://app?vid=66ebd736-d0e1-4909-b91a-8b8e170e1ed9","ios":"levelo://app?vid=66ebd736-d0e1-4909-b91a-8b8e170e1ed9"},"vehicle_type_id":"4","last_reported":1742425839,"current_range_meters":6400,"station_id":"ce4bhnp2rcd13ifvqgvg","pricing_plan_id":"cebpf4jnsgd1na2vs0mg"},{"bike_id":"4156866b-a0ed-4dcf-b9d2-e7765ca102e2","system_id":"levelo_inurba_marseille","lat":43.30541,"lon":5.36686,"is_reserved":false,"is_disabled":true,"rental_uris":{"android":"levelo://app?vid=4156866b-a0ed-4dcf-b9d2-e7765ca102e2","ios":"levelo://app?vid=4156866b-a0ed-4dcf-b9d2-e7765ca102e2"},"vehicle_type_id":"4","last_reported":1742425839,"current_range_meters":6400,"station_id":"ce4bgrp2rcd13ifvqc9g","pricing_plan_id":"cebpf4jnsgd1na2vs0mg"},{"bike_id":"07a84210-640a-4451-abeb-0f9d302f1d58","system_id":"levelo_inurba_marseille","lat":43.26551,"lon":5.38998,"is_reserved":false,"is_disabled":false,"rental_uris":{"android":"levelo://app?vid=07a84210-640a-4451-abeb-0f9d302f1d58","ios":"levelo://app?vid=07a84210-640a-4451-abeb-0f9d302f1d58"},"vehicle_type_id":"4","last_reported":1742425839,"current_range_meters":6400,"station_id":"ce4bhe12rcd13ifvqf30","pricing_plan_id":"cebpf4jnsgd1na2vs0mg"},{"bike_id":"36398751-62bc-42f9-97fc-ed7aa66a199a","system_id":"levelo_inurba_marseille","lat":43.24781,"lon":5.37335,"is_reserved":false,"is_disabled":false,"rental_uris":{"android":"levelo://app?vid=36398751-62bc-42f9-97fc-ed7aa66a199a","ios":"levelo://app?vid=36398751-62bc-42f9-97fc-ed7aa66a199a"},"vehicle_type_id":"4","last_reported":1742425839,"current_range_meters":6400,"station_id":"ce4bhgh2rcd13ifvqfb0","pricing_plan_id":"cebpf4jnsgd1na2vs0mg"},{"bike_id":"781997d5-043d-49ab-8994-d86e794a8344","system_id":"levelo_inurba_marseille","lat":43.28946,"lon":5.36399,"is_reserved":false,"is_disabled":false,"rental_uris":{"android":"levelo://app?vid=781997d5-043d-49ab-8994-d86e794a8344","ios":"levelo://app?vid=781997d5-043d-49ab-8994-d86e794a8344"},"vehicle_type_id":"4","last_reported":1742425839,"current_range_meters":6400,"station_id":"ce4bhc92rcd13ifvqetg","pricing_plan_id":"cebpf4jnsgd1na2vs0mg"},{"bike_id":"13c50ce8-ac37-403c-9a91-fd3d918d2a4f","system_id":"levelo_inurba_marseille","lat":43.27801,"lon":5.40709,"is_reserved":false,"is_disabled":false,"rental_uris":{"android":"levelo://app?vid=13c50ce8-ac37-403c-9a91-fd3d918d2a4f","ios":"levelo://app?vid=13c50ce8-ac37-403c-9a91-fd3d918d2a4f"},"vehicle_type_id":"4","last_reported":1742425839,"current_range_meters":6400,"station_id":"ce4bhnh2rcd13ifvqgtg","pricing_plan_id":"cebpf4jnsgd1na2vs0mg"},{"bike_id":"4c70aa0c-617e-4251-a340-d9c29f05d5ee","system_id":"levelo_inurba_marseille","lat":43.30864,"lon":5.39657,"is_reserved":false,"is_disabled":false,"rental_uris":{"android":"levelo://app?vid=4c70aa0c-617e-4251-a340-d9c29f05d5ee","ios":"levelo://app?vid=4c70aa0c-617e-4251-a340-d9c29f05d5ee"},"vehicle_type_id":"4","last_reported":1742425839,"current_range_meters":6400,"station_id":"ce4bh012rcd13ifvqcv0","pricing_plan_id":"cebpf4jnsgd1na2vs0mg"},{"bike_id":"f6ab5706-aa19-447f-bbcb-333c7534d072","system_id":"levelo_inurba_marseille","lat":43.30884,"lon":5.39649,"is_reserved":false,"is_disabled":false,"rental_uris":{"android":"levelo://app?vid=f6ab5706-aa19-447f-bbcb-333c7534d072","ios":"levelo://app?vid=f6ab5706-aa19-447f-bbcb-333c7534d072"},"vehicle_type_id":"4","last_reported":1742425839,"current_range_meters":6800,"station_id":"ce4bh012rcd13ifvqcv0","pricing_plan_id":"cebpf4jnsgd1na2vs0mg"},{"bike_id":"24b319de-b7c8-4a45-b779-0612ec0e6a69","system_id":"levelo_inurba_marseille","lat":43.29536,"lon":5.38525,"is_reserved":false,"is_disabled":false,"rental_uris":{"android":"levelo://app?vid=24b319de-b7c8-4a45-b779-0612ec0e6a69","ios":"levelo://app?vid=24b319de-b7c8-4a45-b779-0612ec0e6a69"},"vehicle_type_id":"4","last_reported":1742425839,"current_range_meters":6800,"station_id":"ce4bgqh2rcd13ifvqc4g","pricing_plan_id":"cebpf4jnsgd1na2vs0mg"},{"bike_id":"d0319f7d-1e4e-4987-9ebf-a6b766baebff","system_id":"levelo_inurba_marseille","lat":43.299302,"lon":5.397391,"is_reserved":false,"is_disabled":false,"rental_uris":{"android":"levelo://app?vid=d0319f7d-1e4e-4987-9ebf-a6b766baebff","ios":"levelo://app?vid=d0319f7d-1e4e-4987-9ebf-a6b766baebff"},"vehicle_type_id":"4","last_reported":1742425839,"current_range_meters":6800,"station_id":"ce4bh0h2rcd13ifvqd50","pricing_plan_id":"cebpf4jnsgd1na2vs0mg"},{"bike_id":"4f70ebff-4208-422e-8c95-09d5bebf9c84","system_id":"levelo_inurba_marseille","lat":43.2787,"lon":5.39615,"is_reserved":false,"is_disabled":false,"rental_uris":{"android":"levelo://app?vid=4f70ebff-4208-422e-8c95-09d5bebf9c84","ios":"levelo://app?vid=4f70ebff-4208-422e-8c95-09d5bebf9c84"},"vehicle_type_id":"4","last_reported":1742425839,"current_range_meters":6800,"station_id":"ce4bhf92rcd13ifvqf40","pricing_plan_id":"cebpf4jnsgd1na2vs0mg"},{"bike_id":"d05e5468-eb7b-4568-b909-8890d3a6af2b","system_id":"levelo_inurba_marseille","lat":43.3171,"lon":5.40461,"is_reserved":false,"is_disabled":false,"rental_uris":{"android":"levelo://app?vid=d05e5468-eb7b-4568-b909-8890d3a6af2b","ios":"levelo://app?vid=d05e5468-eb7b-4568-b909-8890d3a6af2b"},"vehicle_type_id":"4","last_reported":1742425839,"current_range_meters":6800,"station_id":"ce4bh012rcd13ifvqd00","pricing_plan_id":"cebpf4jnsgd1na2vs0mg"},{"bike_id":"865b135a-b505-4801-b213-2527312db79d","system_id":"levelo_inurba_marseille","lat":43.23886,"lon":5.37103,"is_reserved":false,"is_disabled":false,"rental_uris":{"android":"levelo://app?vid=865b135a-b505-4801-b213-2527312db79d","ios":"levelo://app?vid=865b135a-b505-4801-b213-2527312db79d"},"vehicle_type_id":"4","last_reported":1742425839,"current_range_meters":7200,"station_id":"","pricing_plan_id":"cebpf4jnsgd1na2vs0mg"},{"bike_id":"d3aee935-e07d-4388-bbdb-0f36c5d2addd","system_id":"levelo_inurba_marseille","lat":43.28697,"lon":5.37385,"is_reserved":false,"is_disabled":false,"rental_uris":{"android":"levelo://app?vid=d3aee935-e07d-4388-bbdb-0f36c5d2addd","ios":"levelo://app?vid=d3aee935-e07d-4388-bbdb-0f36c5d2addd"},"vehicle_type_id":"4","last_reported":1742425839,"current_range_meters":7200,"station_id":"ce4bh3p2rcd13ifvqdq0","pricing_plan_id":"cebpf4jnsgd1na2vs0mg"},{"bike_id":"361822fa-663c-449d-9c8f-b3dec5b6d89a","system_id":"levelo_inurba_marseille","lat":43.27497,"lon":5.42466,"is_reserved":false,"is_disabled":false,"rental_uris":{"android":"levelo://app?vid=361822fa-663c-449d-9c8f-b3dec5b6d89a","ios":"levelo://app?vid=361822fa-663c-449d-9c8f-b3dec5b6d89a"},"vehicle_type_id":"4","last_reported":1742425839,"current_range_meters":7200,"station_id":"ce4bhn92rcd13ifvqgrg","pricing_plan_id":"cebpf4jnsgd1na2vs0mg"},{"bike_id":"ed32af05-a93a-40af-b3e3-3171404acc80","system_id":"levelo_inurba_marseille","lat":43.27376,"lon":5.36253,"is_reserved":false,"is_disabled":false,"rental_uris":{"android":"levelo://app?vid=ed32af05-a93a-40af-b3e3-3171404acc80","ios":"levelo://app?vid=ed32af05-a93a-40af-b3e3-3171404acc80"},"vehicle_type_id":"4","last_reported":1742425839,"current_range_meters":7200,"station_id":"ce4bhbh2rcd13ifvqeo0","pricing_plan_id":"cebpf4jnsgd1na2vs0mg"},{"bike_id":"3c0f86bf-2134-4462-a7ab-79aaede557c9","system_id":"levelo_inurba_marseille","lat":43.31718,"lon":5.43705,"is_reserved":false,"is_disabled":false,"rental_uris":{"android":"levelo://app?vid=3c0f86bf-2134-4462-a7ab-79aaede557c9","ios":"levelo://app?vid=3c0f86bf-2134-4462-a7ab-79aaede557c9"},"vehicle_type_id":"4","last_reported":1742425839,"current_range_meters":7200,"station_id":"ce4bhp92rcd13ifvqhcg","pricing_plan_id":"cebpf4jnsgd1na2vs0mg"},{"bike_id":"d36999e5-1ec8-4299-a4fc-068061d2f0c7","system_id":"levelo_inurba_marseille","lat":43.31276,"lon":5.40166,"is_reserved":false,"is_disabled":false,"rental_uris":{"android":"levelo://app?vid=d36999e5-1ec8-4299-a4fc-068061d2f0c7","ios":"levelo://app?vid=d36999e5-1ec8-4299-a4fc-068061d2f0c7"},"vehicle_type_id":"4","last_reported":1742425839,"current_range_meters":7200,"station_id":"ce4bh092rcd13ifvqd30","pricing_plan_id":"cebpf4jnsgd1na2vs0mg"},{"bike_id":"c632951f-97ff-4417-a231-2f19dfc211bb","system_id":"levelo_inurba_marseille","lat":43.27827,"lon":5.40725,"is_reserved":false,"is_disabled":false,"rental_uris":{"android":"levelo://app?vid=c632951f-97ff-4417-a231-2f19dfc211bb","ios":"levelo://app?vid=c632951f-97ff-4417-a231-2f19dfc211bb"},"vehicle_type_id":"4","last_reported":1742425839,"current_range_meters":7200,"station_id":"ce4bhnh2rcd13ifvqgtg","pricing_plan_id":"cebpf4jnsgd1na2vs0mg"},{"bike_id":"693926d2-fd1b-4d98-a528-fed8b223a2c0","system_id":"levelo_inurba_marseille","lat":43.28041,"lon":5.36978,"is_reserved":false,"is_disabled":false,"rental_uris":{"android":"levelo://app?vid=693926d2-fd1b-4d98-a528-fed8b223a2c0","ios":"levelo://app?vid=693926d2-fd1b-4d98-a528-fed8b223a2c0"},"vehicle_type_id":"4","last_reported":1742425839,"current_range_meters":7200,"station_id":"ce4bha12rcd13ifvqef0","pricing_plan_id":"cebpf4jnsgd1na2vs0mg"},{"bike_id":"704bac85-0999-494b-ab70-f77e05470586","system_id":"levelo_inurba_marseille","lat":43.27947,"lon":5.41063,"is_reserved":false,"is_disabled":false,"rental_uris":{"android":"levelo://app?vid=704bac85-0999-494b-ab70-f77e05470586","ios":"levelo://app?vid=704bac85-0999-494b-ab70-f77e05470586"},"vehicle_type_id":"4","last_reported":1742425839,"current_range_meters":7200,"station_id":"ce4bhnp2rcd13ifvqh0g","pricing_plan_id":"cebpf4jnsgd1na2vs0mg"},{"bike_id":"cd3f6418-d471-43bd-a8af-c4289f0429a3","system_id":"levelo_inurba_marseille","lat":43.24172,"lon":5.39723,"is_reserved":false,"is_disabled":false,"rental_uris":{"android":"levelo://app?vid=cd3f6418-d471-43bd-a8af-c4289f0429a3","ios":"levelo://app?vid=cd3f6418-d471-43bd-a8af-c4289f0429a3"},"vehicle_type_id":"4","last_reported":1742425839,"current_range_meters":8000,"station_id":"ce4bhn12rcd13ifvqgpg","pricing_plan_id":"cebpf4jnsgd1na2vs0mg"},{"bike_id":"1fe8cbb2-e61f-4748-8f3f-eff906305549","system_id":"levelo_inurba_marseille","lat":43.23068,"lon":5.35492,"is_reserved":false,"is_disabled":false,"rental_uris":{"android":"levelo://app?vid=1fe8cbb2-e61f-4748-8f3f-eff906305549","ios":"levelo://app?vid=1fe8cbb2-e61f-4748-8f3f-eff906305549"},"vehicle_type_id":"4","last_reported":1742425839,"current_range_meters":8000,"station_id":"cpo3342slgdg3j2ifvpg","pricing_plan_id":"cebpf4jnsgd1na2vs0mg"},{"bike_id":"5da21120-765c-493a-addc-469da6f3f383","system_id":"levelo_inurba_marseille","lat":43.30851,"lon":5.37486,"is_reserved":false,"is_disabled":false,"rental_uris":{"android":"levelo://app?vid=5da21120-765c-493a-addc-469da6f3f383","ios":"levelo://app?vid=5da21120-765c-493a-addc-469da6f3f383"},"vehicle_type_id":"4","last_reported":1742425839,"current_range_meters":8000,"station_id":"","pricing_plan_id":"cebpf4jnsgd1na2vs0mg"},{"bike_id":"287397f1-301a-46cd-a566-760697ced275","system_id":"levelo_inurba_marseille","lat":43.28152,"lon":5.4266,"is_reserved":false,"is_disabled":false,"rental_uris":{"android":"levelo://app?vid=287397f1-301a-46cd-a566-760697ced275","ios":"levelo://app?vid=287397f1-301a-46cd-a566-760697ced275"},"vehicle_type_id":"4","last_reported":1742425839,"current_range_meters":8000,"station_id":"ce4bhnh2rcd13ifvqgug","pricing_plan_id":"cebpf4jnsgd1na2vs0mg"},{"bike_id":"478ecfc4-5241-4dbc-9c90-9e831269f219","system_id":"levelo_inurba_marseille","lat":43.29022,"lon":5.38628,"is_reserved":false,"is_disabled":true,"rental_uris":{"android":"levelo://app?vid=478ecfc4-5241-4dbc-9c90-9e831269f219","ios":"levelo://app?vid=478ecfc4-5241-4dbc-9c90-9e831269f219"},"vehicle_type_id":"4","last_reported":1742425839,"current_range_meters":8000,"station_id":"ce4bh4p2rcd13ifvqe0g","pricing_plan_id":"cebpf4jnsgd1na2vs0mg"},{"bike_id":"9e1177ed-b926-4924-9367-ed84f37e2b9b","system_id":"levelo_inurba_marseille","lat":43.28959,"lon":5.36385,"is_reserved":false,"is_disabled":false,"rental_uris":{"android":"levelo://app?vid=9e1177ed-b926-4924-9367-ed84f37e2b9b","ios":"levelo://app?vid=9e1177ed-b926-4924-9367-ed84f37e2b9b"},"vehicle_type_id":"4","last_reported":1742425839,"current_range_meters":8000,"station_id":"ce4bhc92rcd13ifvqetg","pricing_plan_id":"cebpf4jnsgd1na2vs0mg"},{"bike_id":"4383040d-fbd2-4d09-b966-c2b15978917e","system_id":"levelo_inurba_marseille","lat":43.24176,"lon":5.3972,"is_reserved":false,"is_disabled":false,"rental_uris":{"android":"levelo://app?vid=4383040d-fbd2-4d09-b966-c2b15978917e","ios":"levelo://app?vid=4383040d-fbd2-4d09-b966-c2b15978917e"},"vehicle_type_id":"4","last_reported":1742425839,"current_range_meters":8000,"station_id":"ce4bhn12rcd13ifvqgpg","pricing_plan_id":"cebpf4jnsgd1na2vs0mg"},{"bike_id":"f900da6c-7e5c-4ec1-bb80-501e71312a52","system_id":"levelo_inurba_marseille","lat":43.27383,"lon":5.36252,"is_reserved":false,"is_disabled":false,"rental_uris":{"android":"levelo://app?vid=f900da6c-7e5c-4ec1-bb80-501e71312a52","ios":"levelo://app?vid=f900da6c-7e5c-4ec1-bb80-501e71312a52"},"vehicle_type_id":"4","last_reported":1742425839,"current_range_meters":8000,"station_id":"ce4bhbh2rcd13ifvqeo0","pricing_plan_id":"cebpf4jnsgd1na2vs0mg"},{"bike_id":"4858167e-edc8-4792-9d1c-05670cc1275f","system_id":"levelo_inurba_marseille","lat":43.29264,"lon":5.42774,"is_reserved":false,"is_disabled":false,"rental_uris":{"android":"levelo://app?vid=4858167e-edc8-4792-9d1c-05670cc1275f","ios":"levelo://app?vid=4858167e-edc8-4792-9d1c-05670cc1275f"},"vehicle_type_id":"4","last_reported":1742425839,"current_range_meters":8000,"station_id":"","pricing_plan_id":"cebpf4jnsgd1na2vs0mg"},{"bike_id":"4fa0322d-b201-409d-9218-57726b4a4ca2","system_id":"levelo_inurba_marseille","lat":43.30653,"lon":5.40077,"is_reserved":false,"is_disabled":false,"rental_uris":{"android":"levelo://app?vid=4fa0322d-b201-409d-9218-57726b4a4ca2","ios":"levelo://app?vid=4fa0322d-b201-409d-9218-57726b4a4ca2"},"vehicle_type_id":"4","last_reported":1742425839,"current_range_meters":8000,"station_id":"ce4bh112rcd13ifvqda0","pricing_plan_id":"cebpf4jnsgd1na2vs0mg"},{"bike_id":"dfcc8bbb-6cc0-487f-9f53-6c4f09735ec3","system_id":"levelo_inurba_marseille","lat":43.27488,"lon":5.42474,"is_reserved":false,"is_disabled":true,"rental_uris":{"android":"levelo://app?vid=dfcc8bbb-6cc0-487f-9f53-6c4f09735ec3","ios":"levelo://app?vid=dfcc8bbb-6cc0-487f-9f53-6c4f09735ec3"},"vehicle_type_id":"4","last_reported":1742425839,"current_range_meters":8000,"station_id":"ce4bhn92rcd13ifvqgrg","pricing_plan_id":"cebpf4jnsgd1na2vs0mg"},{"bike_id":"227ea19f-289e-4a92-895e-218ec5d5c552","system_id":"levelo_inurba_marseille","lat":43.27493,"lon":5.42457,"is_reserved":false,"is_disabled":false,"rental_uris":{"android":"levelo://app?vid=227ea19f-289e-4a92-895e-218ec5d5c552","ios":"levelo://app?vid=227ea19f-289e-4a92-895e-218ec5d5c552"},"vehicle_type_id":"4","last_reported":1742425839,"current_range_meters":8000,"station_id":"ce4bhn92rcd13ifvqgrg","pricing_plan_id":"cebpf4jnsgd1na2vs0mg"},{"bike_id":"2e8de5c8-bc6b-4860-80fb-b3264ca3f282","system_id":"levelo_inurba_marseille","lat":43.30878,"lon":5.39652,"is_reserved":false,"is_disabled":false,"rental_uris":{"android":"levelo://app?vid=2e8de5c8-bc6b-4860-80fb-b3264ca3f282","ios":"levelo://app?vid=2e8de5c8-bc6b-4860-80fb-b3264ca3f282"},"vehicle_type_id":"4","last_reported":1742425839,"current_range_meters":8000,"station_id":"ce4bh012rcd13ifvqcv0","pricing_plan_id":"cebpf4jnsgd1na2vs0mg"},{"bike_id":"50052a34-cd4d-455e-89a2-d030d8c6c1ad","system_id":"levelo_inurba_marseille","lat":43.24173,"lon":5.38942,"is_reserved":false,"is_disabled":false,"rental_uris":{"android":"levelo://app?vid=50052a34-cd4d-455e-89a2-d030d8c6c1ad","ios":"levelo://app?vid=50052a34-cd4d-455e-89a2-d030d8c6c1ad"},"vehicle_type_id":"4","last_reported":1742425839,"current_range_meters":8400,"station_id":"","pricing_plan_id":"cebpf4jnsgd1na2vs0mg"},{"bike_id":"ebd45e7b-1c45-4b94-a31a-e5fdc9535d41","system_id":"levelo_inurba_marseille","lat":43.23958,"lon":5.36651,"is_reserved":false,"is_disabled":false,"rental_uris":{"android":"levelo://app?vid=ebd45e7b-1c45-4b94-a31a-e5fdc9535d41","ios":"levelo://app?vid=ebd45e7b-1c45-4b94-a31a-e5fdc9535d41"},"vehicle_type_id":"4","last_reported":1742425839,"current_range_meters":8400,"station_id":"ce4bhi12rcd13ifvqfp0","pricing_plan_id":"cebpf4jnsgd1na2vs0mg"},{"bike_id":"034cbda5-a269-406e-ac7d-9962861bb824","system_id":"levelo_inurba_marseille","lat":43.31753,"lon":5.39047,"is_reserved":false,"is_disabled":false,"rental_uris":{"android":"levelo://app?vid=034cbda5-a269-406e-ac7d-9962861bb824","ios":"levelo://app?vid=034cbda5-a269-406e-ac7d-9962861bb824"},"vehicle_type_id":"4","last_reported":1742425839,"current_range_meters":8400,"station_id":"ce4bhqp2rcd13ifvqhng","pricing_plan_id":"cebpf4jnsgd1na2vs0mg"},{"bike_id":"3058eb37-35b9-4277-898b-f9025638e045","system_id":"levelo_inurba_marseille","lat":43.25933,"lon":5.40907,"is_reserved":false,"is_disabled":false,"rental_uris":{"android":"levelo://app?vid=3058eb37-35b9-4277-898b-f9025638e045","ios":"levelo://app?vid=3058eb37-35b9-4277-898b-f9025638e045"},"vehicle_type_id":"4","last_reported":1742425839,"current_range_meters":8400,"station_id":"ce4bhm92rcd13ifvqglg","pricing_plan_id":"cebpf4jnsgd1na2vs0mg"},{"bike_id":"49bedc22-a45a-435f-a8a8-e80d086cef58","system_id":"levelo_inurba_marseille","lat":43.3116,"lon":5.38716,"is_reserved":false,"is_disabled":false,"rental_uris":{"android":"levelo://app?vid=49bedc22-a45a-435f-a8a8-e80d086cef58","ios":"levelo://app?vid=49bedc22-a45a-435f-a8a8-e80d086cef58"},"vehicle_type_id":"4","last_reported":1742425839,"current_range_meters":8400,"station_id":"ce4bgv12rcd13ifvqcp0","pricing_plan_id":"cebpf4jnsgd1na2vs0mg"},{"bike_id":"87dbed1b-ca5f-4559-b4e0-6657c214f315","system_id":"levelo_inurba_marseille","lat":43.23948,"lon":5.36657,"is_reserved":false,"is_disabled":false,"rental_uris":{"android":"levelo://app?vid=87dbed1b-ca5f-4559-b4e0-6657c214f315","ios":"levelo://app?vid=87dbed1b-ca5f-4559-b4e0-6657c214f315"},"vehicle_type_id":"4","last_reported":1742425839,"current_range_meters":8400,"station_id":"ce4bhi12rcd13ifvqfp0","pricing_plan_id":"cebpf4jnsgd1na2vs0mg"},{"bike_id":"d36dd5c9-f023-4afa-aa74-4c7e9499d0cd","system_id":"levelo_inurba_marseille","lat":43.27366,"lon":5.36266,"is_reserved":false,"is_disabled":false,"rental_uris":{"android":"levelo://app?vid=d36dd5c9-f023-4afa-aa74-4c7e9499d0cd","ios":"levelo://app?vid=d36dd5c9-f023-4afa-aa74-4c7e9499d0cd"},"vehicle_type_id":"4","last_reported":1742425839,"current_range_meters":8400,"station_id":"ce4bhbh2rcd13ifvqeo0","pricing_plan_id":"cebpf4jnsgd1na2vs0mg"},{"bike_id":"dff22bde-84fd-490a-8837-d6c39b979395","system_id":"levelo_inurba_marseille","lat":43.28612,"lon":5.37072,"is_reserved":false,"is_disabled":false,"rental_uris":{"android":"levelo://app?vid=dff22bde-84fd-490a-8837-d6c39b979395","ios":"levelo://app?vid=dff22bde-84fd-490a-8837-d6c39b979395"},"vehicle_type_id":"4","last_reported":1742425839,"current_range_meters":8400,"station_id":"ce4bht12rcd13ifvqi60","pricing_plan_id":"cebpf4jnsgd1na2vs0mg"},{"bike_id":"054b79e5-3c6c-4562-a1d6-d64bd099ac6b","system_id":"levelo_inurba_marseille","lat":43.24673,"lon":5.38155,"is_reserved":false,"is_disabled":false,"rental_uris":{"android":"levelo://app?vid=054b79e5-3c6c-4562-a1d6-d64bd099ac6b","ios":"levelo://app?vid=054b79e5-3c6c-4562-a1d6-d64bd099ac6b"},"vehicle_type_id":"4","last_reported":1742425839,"current_range_meters":8400,"station_id":"ce4bhih2rcd13ifvqfr0","pricing_plan_id":"cebpf4jnsgd1na2vs0mg"},{"bike_id":"a2ad3ef3-40b0-40fc-8ad0-893f4e20ab03","system_id":"levelo_inurba_marseille","lat":43.24805,"lon":5.37453,"is_reserved":false,"is_disabled":false,"rental_uris":{"android":"levelo://app?vid=a2ad3ef3-40b0-40fc-8ad0-893f4e20ab03","ios":"levelo://app?vid=a2ad3ef3-40b0-40fc-8ad0-893f4e20ab03"},"vehicle_type_id":"4","last_reported":1742425839,"current_range_meters":8400,"station_id":"ce4bhgh2rcd13ifvqfb0","pricing_plan_id":"cebpf4jnsgd1na2vs0mg"},{"bike_id":"d93f7c08-da52-4e30-9820-635a51b3bc10","system_id":"levelo_inurba_marseille","lat":43.28702,"lon":5.37385,"is_reserved":false,"is_disabled":false,"rental_uris":{"android":"levelo://app?vid=d93f7c08-da52-4e30-9820-635a51b3bc10","ios":"levelo://app?vid=d93f7c08-da52-4e30-9820-635a51b3bc10"},"vehicle_type_id":"4","last_reported":1742425839,"current_range_meters":8400,"station_id":"ce4bh3p2rcd13ifvqdq0","pricing_plan_id":"cebpf4jnsgd1na2vs0mg"},{"bike_id":"f66918bb-7675-439c-a940-07ef470d6a94","system_id":"levelo_inurba_marseille","lat":43.31269,"lon":5.40168,"is_reserved":false,"is_disabled":false,"rental_uris":{"android":"levelo://app?vid=f66918bb-7675-439c-a940-07ef470d6a94","ios":"levelo://app?vid=f66918bb-7675-439c-a940-07ef470d6a94"},"vehicle_type_id":"4","last_reported":1742425839,"current_range_meters":8800,"station_id":"ce4bh092rcd13ifvqd30","pricing_plan_id":"cebpf4jnsgd1na2vs0mg"},{"bike_id":"d45aa902-4bcb-471b-8a0f-8cdc3416ec8c","system_id":"levelo_inurba_marseille","lat":43.27612,"lon":5.36117,"is_reserved":false,"is_disabled":false,"rental_uris":{"android":"levelo://app?vid=d45aa902-4bcb-471b-8a0f-8cdc3416ec8c","ios":"levelo://app?vid=d45aa902-4bcb-471b-8a0f-8cdc3416ec8c"},"vehicle_type_id":"4","last_reported":1742425839,"current_range_meters":8800,"station_id":"ce4bgj92rcd13ifvqbe0","pricing_plan_id":"cebpf4jnsgd1na2vs0mg"},{"bike_id":"3455258b-4135-46b9-9a26-10bf95160e40","system_id":"levelo_inurba_marseille","lat":43.23188,"lon":5.35544,"is_reserved":false,"is_disabled":false,"rental_uris":{"android":"levelo://app?vid=3455258b-4135-46b9-9a26-10bf95160e40","ios":"levelo://app?vid=3455258b-4135-46b9-9a26-10bf95160e40"},"vehicle_type_id":"4","last_reported":1742425839,"current_range_meters":8800,"station_id":"ce4bhu92rcd13ifvqi70","pricing_plan_id":"cebpf4jnsgd1na2vs0mg"},{"bike_id":"0cf839ab-e587-4ab8-b08d-84e42ef6ef98","system_id":"levelo_inurba_marseille","lat":43.23962,"lon":5.36632,"is_reserved":false,"is_disabled":false,"rental_uris":{"android":"levelo://app?vid=0cf839ab-e587-4ab8-b08d-84e42ef6ef98","ios":"levelo://app?vid=0cf839ab-e587-4ab8-b08d-84e42ef6ef98"},"vehicle_type_id":"4","last_reported":1742425839,"current_range_meters":8800,"station_id":"ce4bhi12rcd13ifvqfp0","pricing_plan_id":"cebpf4jnsgd1na2vs0mg"},{"bike_id":"3da64548-8b6a-42d6-898f-dc427d7ab309","system_id":"levelo_inurba_marseille","lat":43.27955,"lon":5.41041,"is_reserved":false,"is_disabled":false,"rental_uris":{"android":"levelo://app?vid=3da64548-8b6a-42d6-898f-dc427d7ab309","ios":"levelo://app?vid=3da64548-8b6a-42d6-898f-dc427d7ab309"},"vehicle_type_id":"4","last_reported":1742425839,"current_range_meters":8800,"station_id":"ce4bhnp2rcd13ifvqh0g","pricing_plan_id":"cebpf4jnsgd1na2vs0mg"},{"bike_id":"193b783c-2679-46f6-ba35-02d5ec60c905","system_id":"levelo_inurba_marseille","lat":43.29431,"lon":5.39751,"is_reserved":false,"is_disabled":false,"rental_uris":{"android":"levelo://app?vid=193b783c-2679-46f6-ba35-02d5ec60c905","ios":"levelo://app?vid=193b783c-2679-46f6-ba35-02d5ec60c905"},"vehicle_type_id":"4","last_reported":1742425839,"current_range_meters":8400,"station_id":"ce4bh3h2rcd13ifvqdo0","pricing_plan_id":"cebpf4jnsgd1na2vs0mg"},{"bike_id":"a2a6db60-0906-4bdf-872c-8533f7fe0239","system_id":"levelo_inurba_marseille","lat":43.26231,"lon":5.40425,"is_reserved":false,"is_disabled":false,"rental_uris":{"android":"levelo://app?vid=a2a6db60-0906-4bdf-872c-8533f7fe0239","ios":"levelo://app?vid=a2a6db60-0906-4bdf-872c-8533f7fe0239"},"vehicle_type_id":"4","last_reported":1742425839,"current_range_meters":8800,"station_id":"ce4bhmh2rcd13ifvqgmg","pricing_plan_id":"cebpf4jnsgd1na2vs0mg"},{"bike_id":"1fea0b3c-94ab-41af-b18e-d9bbaa7dda49","system_id":"levelo_inurba_marseille","lat":43.31702,"lon":5.43708,"is_reserved":false,"is_disabled":false,"rental_uris":{"android":"levelo://app?vid=1fea0b3c-94ab-41af-b18e-d9bbaa7dda49","ios":"levelo://app?vid=1fea0b3c-94ab-41af-b18e-d9bbaa7dda49"},"vehicle_type_id":"4","last_reported":1742425839,"current_range_meters":8800,"station_id":"ce4bhp92rcd13ifvqhcg","pricing_plan_id":"cebpf4jnsgd1na2vs0mg"},{"bike_id":"01139db8-6c8c-4ec8-8005-27406f2d0c7b","system_id":"levelo_inurba_marseille","lat":43.29605,"lon":5.38101,"is_reserved":false,"is_disabled":false,"rental_uris":{"android":"levelo://app?vid=01139db8-6c8c-4ec8-8005-27406f2d0c7b","ios":"levelo://app?vid=01139db8-6c8c-4ec8-8005-27406f2d0c7b"},"vehicle_type_id":"4","last_reported":1742425839,"current_range_meters":9200,"station_id":"ce4bgl12rcd13ifvqbo0","pricing_plan_id":"cebpf4jnsgd1na2vs0mg"},{"bike_id":"71f2cd9d-ef15-44a1-a9cf-33002d842832","system_id":"levelo_inurba_marseille","lat":43.24669,"lon":5.38149,"is_reserved":false,"is_disabled":false,"rental_uris":{"android":"levelo://app?vid=71f2cd9d-ef15-44a1-a9cf-33002d842832","ios":"levelo://app?vid=71f2cd9d-ef15-44a1-a9cf-33002d842832"},"vehicle_type_id":"4","last_reported":1742425839,"current_range_meters":9200,"station_id":"ce4bhih2rcd13ifvqfr0","pricing_plan_id":"cebpf4jnsgd1na2vs0mg"},{"bike_id":"4ad231a2-6656-4750-b2aa-69ad2e40651e","system_id":"levelo_inurba_marseille","lat":43.31159,"lon":5.38719,"is_reserved":false,"is_disabled":false,"rental_uris":{"android":"levelo://app?vid=4ad231a2-6656-4750-b2aa-69ad2e40651e","ios":"levelo://app?vid=4ad231a2-6656-4750-b2aa-69ad2e40651e"},"vehicle_type_id":"4","last_reported":1742425839,"current_range_meters":9200,"station_id":"ce4bgv12rcd13ifvqcp0","pricing_plan_id":"cebpf4jnsgd1na2vs0mg"},{"bike_id":"bfd67b10-fd7c-4b25-bc6e-0830b23c1f4b","system_id":"levelo_inurba_marseille","lat":43.25825,"lon":5.39437,"is_reserved":false,"is_disabled":false,"rental_uris":{"android":"levelo://app?vid=bfd67b10-fd7c-4b25-bc6e-0830b23c1f4b","ios":"levelo://app?vid=bfd67b10-fd7c-4b25-bc6e-0830b23c1f4b"},"vehicle_type_id":"4","last_reported":1742425839,"current_range_meters":9200,"station_id":"ce4bhip2rcd13ifvqft0","pricing_plan_id":"cebpf4jnsgd1na2vs0mg"},{"bike_id":"86618eeb-713f-4456-85a3-39e216841099","system_id":"levelo_inurba_marseille","lat":43.30656,"lon":5.40072,"is_reserved":false,"is_disabled":false,"rental_uris":{"android":"levelo://app?vid=86618eeb-713f-4456-85a3-39e216841099","ios":"levelo://app?vid=86618eeb-713f-4456-85a3-39e216841099"},"vehicle_type_id":"4","last_reported":1742425839,"current_range_meters":9200,"station_id":"ce4bh112rcd13ifvqda0","pricing_plan_id":"cebpf4jnsgd1na2vs0mg"},{"bike_id":"7a55fbbc-7e2e-4c20-82cd-8ebe5e2490ba","system_id":"levelo_inurba_marseille","lat":43.28711,"lon":5.39981,"is_reserved":false,"is_disabled":false,"rental_uris":{"android":"levelo://app?vid=7a55fbbc-7e2e-4c20-82cd-8ebe5e2490ba","ios":"levelo://app?vid=7a55fbbc-7e2e-4c20-82cd-8ebe5e2490ba"},"vehicle_type_id":"4","last_reported":1742425839,"current_range_meters":9200,"station_id":"ce4bho92rcd13ifvqh3g","pricing_plan_id":"cebpf4jnsgd1na2vs0mg"},{"bike_id":"9d32c503-5f1f-4b14-8d26-4a233bb720e6","system_id":"levelo_inurba_marseille","lat":43.3079,"lon":5.37635,"is_reserved":false,"is_disabled":false,"rental_uris":{"android":"levelo://app?vid=9d32c503-5f1f-4b14-8d26-4a233bb720e6","ios":"levelo://app?vid=9d32c503-5f1f-4b14-8d26-4a233bb720e6"},"vehicle_type_id":"4","last_reported":1742425839,"current_range_meters":9200,"station_id":"ce4bgv92rcd13ifvqcq0","pricing_plan_id":"cebpf4jnsgd1na2vs0mg"},{"bike_id":"ff40212a-8f7d-43a8-822c-31c34c2bf0d5","system_id":"levelo_inurba_marseille","lat":43.2503,"lon":5.38947,"is_reserved":false,"is_disabled":false,"rental_uris":{"android":"levelo://app?vid=ff40212a-8f7d-43a8-822c-31c34c2bf0d5","ios":"levelo://app?vid=ff40212a-8f7d-43a8-822c-31c34c2bf0d5"},"vehicle_type_id":"4","last_reported":1742425839,"current_range_meters":9200,"station_id":"ce4bhgp2rcd13ifvqfd0","pricing_plan_id":"cebpf4jnsgd1na2vs0mg"},{"bike_id":"f1fcaa64-8777-41b7-8701-8233132e1bca","system_id":"levelo_inurba_marseille","lat":43.27933,"lon":5.41095,"is_reserved":false,"is_disabled":false,"rental_uris":{"android":"levelo://app?vid=f1fcaa64-8777-41b7-8701-8233132e1bca","ios":"levelo://app?vid=f1fcaa64-8777-41b7-8701-8233132e1bca"},"vehicle_type_id":"4","last_reported":1742425839,"current_range_meters":9200,"station_id":"ce4bhnp2rcd13ifvqh0g","pricing_plan_id":"cebpf4jnsgd1na2vs0mg"},{"bike_id":"31828970-c009-4ed9-aebf-16065803e2c2","system_id":"levelo_inurba_marseille","lat":43.26936,"lon":5.40251,"is_reserved":false,"is_disabled":false,"rental_uris":{"android":"levelo://app?vid=31828970-c009-4ed9-aebf-16065803e2c2","ios":"levelo://app?vid=31828970-c009-4ed9-aebf-16065803e2c2"},"vehicle_type_id":"4","last_reported":1742425839,"current_range_meters":8800,"station_id":"cjm6bp8fraef2m0cb0m0","pricing_plan_id":"cebpf4jnsgd1na2vs0mg"},{"bike_id":"963a17fa-4222-4f93-b414-09c4cce8d25a","system_id":"levelo_inurba_marseille","lat":43.284,"lon":5.3849,"is_reserved":false,"is_disabled":false,"rental_uris":{"android":"levelo://app?vid=963a17fa-4222-4f93-b414-09c4cce8d25a","ios":"levelo://app?vid=963a17fa-4222-4f93-b414-09c4cce8d25a"},"vehicle_type_id":"4","last_reported":1742425839,"current_range_meters":9200,"station_id":"","pricing_plan_id":"cebpf4jnsgd1na2vs0mg"},{"bike_id":"a3175949-f9d6-40da-9481-3578df78d3a4","system_id":"levelo_inurba_marseille","lat":43.25018,"lon":5.38915,"is_reserved":false,"is_disabled":false,"rental_uris":{"android":"levelo://app?vid=a3175949-f9d6-40da-9481-3578df78d3a4","ios":"levelo://app?vid=a3175949-f9d6-40da-9481-3578df78d3a4"},"vehicle_type_id":"4","last_reported":1742425839,"current_range_meters":9600,"station_id":"ce4bhgp2rcd13ifvqfd0","pricing_plan_id":"cebpf4jnsgd1na2vs0mg"},{"bike_id":"53c52c3d-ed26-42c7-8d0d-8214d01bc438","system_id":"levelo_inurba_marseille","lat":43.31419,"lon":5.393658,"is_reserved":false,"is_disabled":false,"rental_uris":{"android":"levelo://app?vid=53c52c3d-ed26-42c7-8d0d-8214d01bc438","ios":"levelo://app?vid=53c52c3d-ed26-42c7-8d0d-8214d01bc438"},"vehicle_type_id":"4","last_reported":1742425839,"current_range_meters":9600,"station_id":"","pricing_plan_id":"cebpf4jnsgd1na2vs0mg"},{"bike_id":"4190958f-3dab-482a-94a8-57626ebcdefa","system_id":"levelo_inurba_marseille","lat":43.26541,"lon":5.37302,"is_reserved":false,"is_disabled":false,"rental_uris":{"android":"levelo://app?vid=4190958f-3dab-482a-94a8-57626ebcdefa","ios":"levelo://app?vid=4190958f-3dab-482a-94a8-57626ebcdefa"},"vehicle_type_id":"4","last_reported":1742425839,"current_range_meters":9600,"station_id":"ce4bhg12rcd13ifvqf70","pricing_plan_id":"cebpf4jnsgd1na2vs0mg"},{"bike_id":"c8a5c5c1-331e-4477-bcc8-5f636ea1891c","system_id":"levelo_inurba_marseille","lat":43.31175,"lon":5.38708,"is_reserved":false,"is_disabled":false,"rental_uris":{"android":"levelo://app?vid=c8a5c5c1-331e-4477-bcc8-5f636ea1891c","ios":"levelo://app?vid=c8a5c5c1-331e-4477-bcc8-5f636ea1891c"},"vehicle_type_id":"4","last_reported":1742425839,"current_range_meters":9600,"station_id":"ce4bgv12rcd13ifvqcp0","pricing_plan_id":"cebpf4jnsgd1na2vs0mg"},{"bike_id":"a043f14d-7bfe-4e58-bb46-3233f50b724e","system_id":"levelo_inurba_marseille","lat":43.31166,"lon":5.38711,"is_reserved":false,"is_disabled":false,"rental_uris":{"android":"levelo://app?vid=a043f14d-7bfe-4e58-bb46-3233f50b724e","ios":"levelo://app?vid=a043f14d-7bfe-4e58-bb46-3233f50b724e"},"vehicle_type_id":"4","last_reported":1742425839,"current_range_meters":9600,"station_id":"ce4bgv12rcd13ifvqcp0","pricing_plan_id":"cebpf4jnsgd1na2vs0mg"},{"bike_id":"8168e555-e617-42c3-b56a-13243fda4113","system_id":"levelo_inurba_marseille","lat":43.27945,"lon":5.41043,"is_reserved":false,"is_disabled":false,"rental_uris":{"android":"levelo://app?vid=8168e555-e617-42c3-b56a-13243fda4113","ios":"levelo://app?vid=8168e555-e617-42c3-b56a-13243fda4113"},"vehicle_type_id":"4","last_reported":1742425839,"current_range_meters":9600,"station_id":"ce4bhnp2rcd13ifvqh0g","pricing_plan_id":"cebpf4jnsgd1na2vs0mg"},{"bike_id":"9ec46162-37e3-44bb-af2e-51d8d78f70d4","system_id":"levelo_inurba_marseille","lat":43.28558,"lon":5.39486,"is_reserved":false,"is_disabled":false,"rental_uris":{"android":"levelo://app?vid=9ec46162-37e3-44bb-af2e-51d8d78f70d4","ios":"levelo://app?vid=9ec46162-37e3-44bb-af2e-51d8d78f70d4"},"vehicle_type_id":"4","last_reported":1742425839,"current_range_meters":9600,"station_id":"ce4bh292rcd13ifvqdg0","pricing_plan_id":"cebpf4jnsgd1na2vs0mg"},{"bike_id":"4d63c31a-f817-4692-a906-fcd52c58350a","system_id":"levelo_inurba_marseille","lat":43.32352,"lon":5.40619,"is_reserved":false,"is_disabled":false,"rental_uris":{"android":"levelo://app?vid=4d63c31a-f817-4692-a906-fcd52c58350a","ios":"levelo://app?vid=4d63c31a-f817-4692-a906-fcd52c58350a"},"vehicle_type_id":"4","last_reported":1742425839,"current_range_meters":9600,"station_id":"ce4bhq92rcd13ifvqhjg","pricing_plan_id":"cebpf4jnsgd1na2vs0mg"},{"bike_id":"78b95c41-f57f-46b7-8807-c311e5a77278","system_id":"levelo_inurba_marseille","lat":43.23953,"lon":5.36631,"is_reserved":false,"is_disabled":false,"rental_uris":{"android":"levelo://app?vid=78b95c41-f57f-46b7-8807-c311e5a77278","ios":"levelo://app?vid=78b95c41-f57f-46b7-8807-c311e5a77278"},"vehicle_type_id":"4","last_reported":1742425839,"current_range_meters":9600,"station_id":"ce4bhi12rcd13ifvqfp0","pricing_plan_id":"cebpf4jnsgd1na2vs0mg"},{"bike_id":"11a593f9-e28a-4d60-9990-7d92ced3ba47","system_id":"levelo_inurba_marseille","lat":43.28844,"lon":5.35872,"is_reserved":false,"is_disabled":false,"rental_uris":{"android":"levelo://app?vid=11a593f9-e28a-4d60-9990-7d92ced3ba47","ios":"levelo://app?vid=11a593f9-e28a-4d60-9990-7d92ced3ba47"},"vehicle_type_id":"4","last_reported":1742425839,"current_range_meters":9600,"station_id":"ce4bhb12rcd13ifvqem0","pricing_plan_id":"cebpf4jnsgd1na2vs0mg"},{"bike_id":"5edb3c9d-ffdb-4b2a-b674-17f6a28418bf","system_id":"levelo_inurba_marseille","lat":43.32308,"lon":5.38297,"is_reserved":false,"is_disabled":false,"rental_uris":{"android":"levelo://app?vid=5edb3c9d-ffdb-4b2a-b674-17f6a28418bf","ios":"levelo://app?vid=5edb3c9d-ffdb-4b2a-b674-17f6a28418bf"},"vehicle_type_id":"4","last_reported":1742425839,"current_range_meters":9600,"station_id":"ce4bhr12rcd13ifvqhqg","pricing_plan_id":"cebpf4jnsgd1na2vs0mg"},{"bike_id":"3341571f-bd27-401c-8b47-8fe3403f266a","system_id":"levelo_inurba_marseille","lat":43.2871,"lon":5.37397,"is_reserved":false,"is_disabled":false,"rental_uris":{"android":"levelo://app?vid=3341571f-bd27-401c-8b47-8fe3403f266a","ios":"levelo://app?vid=3341571f-bd27-401c-8b47-8fe3403f266a"},"vehicle_type_id":"4","last_reported":1742425839,"current_range_meters":9600,"station_id":"ce4bh3p2rcd13ifvqdq0","pricing_plan_id":"cebpf4jnsgd1na2vs0mg"},{"bike_id":"f182cefc-27ad-47f5-9c3b-19932b6dd685","system_id":"levelo_inurba_marseille","lat":43.31175,"lon":5.38715,"is_reserved":false,"is_disabled":false,"rental_uris":{"android":"levelo://app?vid=f182cefc-27ad-47f5-9c3b-19932b6dd685","ios":"levelo://app?vid=f182cefc-27ad-47f5-9c3b-19932b6dd685"},"vehicle_type_id":"4","last_reported":1742425839,"current_range_meters":9600,"station_id":"ce4bgv12rcd13ifvqcp0","pricing_plan_id":"cebpf4jnsgd1na2vs0mg"},{"bike_id":"02f43b01-3b74-45fa-a40e-2df823c84cda","system_id":"levelo_inurba_marseille","lat":43.24166,"lon":5.39716,"is_reserved":false,"is_disabled":false,"rental_uris":{"android":"levelo://app?vid=02f43b01-3b74-45fa-a40e-2df823c84cda","ios":"levelo://app?vid=02f43b01-3b74-45fa-a40e-2df823c84cda"},"vehicle_type_id":"4","last_reported":1742425839,"current_range_meters":9600,"station_id":"ce4bhn12rcd13ifvqgpg","pricing_plan_id":"cebpf4jnsgd1na2vs0mg"},{"bike_id":"149a7237-4b0c-4c09-b5e1-e29dc8e198e1","system_id":"levelo_inurba_marseille","lat":43.31251,"lon":5.40173,"is_reserved":false,"is_disabled":false,"rental_uris":{"android":"levelo://app?vid=149a7237-4b0c-4c09-b5e1-e29dc8e198e1","ios":"levelo://app?vid=149a7237-4b0c-4c09-b5e1-e29dc8e198e1"},"vehicle_type_id":"4","last_reported":1742425839,"current_range_meters":9600,"station_id":"ce4bh092rcd13ifvqd30","pricing_plan_id":"cebpf4jnsgd1na2vs0mg"},{"bike_id":"9d26c008-8ec1-4269-9cd2-f45774f03ccb","system_id":"levelo_inurba_marseille","lat":43.28009,"lon":5.37936,"is_reserved":false,"is_disabled":false,"rental_uris":{"android":"levelo://app?vid=9d26c008-8ec1-4269-9cd2-f45774f03ccb","ios":"levelo://app?vid=9d26c008-8ec1-4269-9cd2-f45774f03ccb"},"vehicle_type_id":"4","last_reported":1742425839,"current_range_meters":9600,"station_id":"","pricing_plan_id":"cebpf4jnsgd1na2vs0mg"},{"bike_id":"f1645a4b-a4f8-4d65-9e70-33df978114e1","system_id":"levelo_inurba_marseille","lat":43.28941,"lon":5.364,"is_reserved":false,"is_disabled":false,"rental_uris":{"android":"levelo://app?vid=f1645a4b-a4f8-4d65-9e70-33df978114e1","ios":"levelo://app?vid=f1645a4b-a4f8-4d65-9e70-33df978114e1"},"vehicle_type_id":"4","last_reported":1742425839,"current_range_meters":9600,"station_id":"ce4bhc92rcd13ifvqetg","pricing_plan_id":"cebpf4jnsgd1na2vs0mg"},{"bike_id":"6eb98e18-92f8-411c-92c0-82d5569fb85c","system_id":"levelo_inurba_marseille","lat":43.32337,"lon":5.36704,"is_reserved":false,"is_disabled":false,"rental_uris":{"android":"levelo://app?vid=6eb98e18-92f8-411c-92c0-82d5569fb85c","ios":"levelo://app?vid=6eb98e18-92f8-411c-92c0-82d5569fb85c"},"vehicle_type_id":"4","last_reported":1742425839,"current_range_meters":10000,"station_id":"ce4bhsh2rcd13ifvqi2g","pricing_plan_id":"cebpf4jnsgd1na2vs0mg"},{"bike_id":"b33d3006-5cb8-4275-831f-3ff20c9eb329","system_id":"levelo_inurba_marseille","lat":43.30648,"lon":5.4008,"is_reserved":false,"is_disabled":false,"rental_uris":{"android":"levelo://app?vid=b33d3006-5cb8-4275-831f-3ff20c9eb329","ios":"levelo://app?vid=b33d3006-5cb8-4275-831f-3ff20c9eb329"},"vehicle_type_id":"4","last_reported":1742425839,"current_range_meters":10000,"station_id":"ce4bh112rcd13ifvqda0","pricing_plan_id":"cebpf4jnsgd1na2vs0mg"},{"bike_id":"4de03db8-98f0-4442-9f47-5d0a4ef807b1","system_id":"levelo_inurba_marseille","lat":43.28697,"lon":5.36113,"is_reserved":false,"is_disabled":false,"rental_uris":{"android":"levelo://app?vid=4de03db8-98f0-4442-9f47-5d0a4ef807b1","ios":"levelo://app?vid=4de03db8-98f0-4442-9f47-5d0a4ef807b1"},"vehicle_type_id":"4","last_reported":1742425839,"current_range_meters":10000,"station_id":"cki0cbj6b192h4jlfktg","pricing_plan_id":"cebpf4jnsgd1na2vs0mg"},{"bike_id":"a8b8dae1-87ef-4f8a-a2c8-fe9fd9bf0f77","system_id":"levelo_inurba_marseille","lat":43.23538,"lon":5.37737,"is_reserved":false,"is_disabled":false,"rental_uris":{"android":"levelo://app?vid=a8b8dae1-87ef-4f8a-a2c8-fe9fd9bf0f77","ios":"levelo://app?vid=a8b8dae1-87ef-4f8a-a2c8-fe9fd9bf0f77"},"vehicle_type_id":"4","last_reported":1742425839,"current_range_meters":10000,"station_id":"","pricing_plan_id":"cebpf4jnsgd1na2vs0mg"},{"bike_id":"d666a6ad-a0a4-4127-8c39-8ef5817c6721","system_id":"levelo_inurba_marseille","lat":43.24758,"lon":5.38307,"is_reserved":false,"is_disabled":false,"rental_uris":{"android":"levelo://app?vid=d666a6ad-a0a4-4127-8c39-8ef5817c6721","ios":"levelo://app?vid=d666a6ad-a0a4-4127-8c39-8ef5817c6721"},"vehicle_type_id":"4","last_reported":1742425839,"current_range_meters":10000,"station_id":"","pricing_plan_id":"cebpf4jnsgd1na2vs0mg"},{"bike_id":"fedf69d6-ece1-4270-9c88-3e82bb1ab634","system_id":"levelo_inurba_marseille","lat":43.311874,"lon":5.387064,"is_reserved":false,"is_disabled":false,"rental_uris":{"android":"levelo://app?vid=fedf69d6-ece1-4270-9c88-3e82bb1ab634","ios":"levelo://app?vid=fedf69d6-ece1-4270-9c88-3e82bb1ab634"},"vehicle_type_id":"4","last_reported":1742425839,"current_range_meters":10000,"station_id":"ce4bgv12rcd13ifvqcp0","pricing_plan_id":"cebpf4jnsgd1na2vs0mg"},{"bike_id":"b6c30d9d-2400-4d71-b65f-ecfd70be0394","system_id":"levelo_inurba_marseille","lat":43.28027,"lon":5.36937,"is_reserved":false,"is_disabled":false,"rental_uris":{"android":"levelo://app?vid=b6c30d9d-2400-4d71-b65f-ecfd70be0394","ios":"levelo://app?vid=b6c30d9d-2400-4d71-b65f-ecfd70be0394"},"vehicle_type_id":"4","last_reported":1742425839,"current_range_meters":10000,"station_id":"ce4bha12rcd13ifvqef0","pricing_plan_id":"cebpf4jnsgd1na2vs0mg"},{"bike_id":"35c29046-1d03-462d-9c91-5813a4d5a08e","system_id":"levelo_inurba_marseille","lat":43.28446,"lon":5.39188,"is_reserved":false,"is_disabled":false,"rental_uris":{"android":"levelo://app?vid=35c29046-1d03-462d-9c91-5813a4d5a08e","ios":"levelo://app?vid=35c29046-1d03-462d-9c91-5813a4d5a08e"},"vehicle_type_id":"4","last_reported":1742425839,"current_range_meters":10000,"station_id":"ce4bhoh2rcd13ifvqh5g","pricing_plan_id":"cebpf4jnsgd1na2vs0mg"},{"bike_id":"f4c4bf6d-48a4-4198-942b-eda89b945e41","system_id":"levelo_inurba_marseille","lat":43.2737,"lon":5.36261,"is_reserved":false,"is_disabled":false,"rental_uris":{"android":"levelo://app?vid=f4c4bf6d-48a4-4198-942b-eda89b945e41","ios":"levelo://app?vid=f4c4bf6d-48a4-4198-942b-eda89b945e41"},"vehicle_type_id":"4","last_reported":1742425839,"current_range_meters":10000,"station_id":"ce4bhbh2rcd13ifvqeo0","pricing_plan_id":"cebpf4jnsgd1na2vs0mg"},{"bike_id":"ee0f687c-08bb-4e36-98a2-e3de6b954481","system_id":"levelo_inurba_marseille","lat":43.24182,"lon":5.39737,"is_reserved":false,"is_disabled":false,"rental_uris":{"android":"levelo://app?vid=ee0f687c-08bb-4e36-98a2-e3de6b954481","ios":"levelo://app?vid=ee0f687c-08bb-4e36-98a2-e3de6b954481"},"vehicle_type_id":"4","last_reported":1742425839,"current_range_meters":10000,"station_id":"ce4bhn12rcd13ifvqgpg","pricing_plan_id":"cebpf4jnsgd1na2vs0mg"},{"bike_id":"e6c8473b-6f16-40c7-9d09-903e0bcd4e87","system_id":"levelo_inurba_marseille","lat":43.32606,"lon":5.41957,"is_reserved":false,"is_disabled":false,"rental_uris":{"android":"levelo://app?vid=e6c8473b-6f16-40c7-9d09-903e0bcd4e87","ios":"levelo://app?vid=e6c8473b-6f16-40c7-9d09-903e0bcd4e87"},"vehicle_type_id":"4","last_reported":1742425839,"current_range_meters":10000,"station_id":"","pricing_plan_id":"cebpf4jnsgd1na2vs0mg"},{"bike_id":"b86b9459-f18f-46a4-aa03-8866eb6a16ee","system_id":"levelo_inurba_marseille","lat":43.3023,"lon":5.39454,"is_reserved":false,"is_disabled":false,"rental_uris":{"android":"levelo://app?vid=b86b9459-f18f-46a4-aa03-8866eb6a16ee","ios":"levelo://app?vid=b86b9459-f18f-46a4-aa03-8866eb6a16ee"},"vehicle_type_id":"4","last_reported":1742425839,"current_range_meters":10000,"station_id":"ce4bh0p2rcd13ifvqd70","pricing_plan_id":"cebpf4jnsgd1na2vs0mg"},{"bike_id":"96ee9b6a-93d1-44f4-a827-40cf0b688b55","system_id":"levelo_inurba_marseille","lat":43.31378,"lon":5.3849,"is_reserved":false,"is_disabled":false,"rental_uris":{"android":"levelo://app?vid=96ee9b6a-93d1-44f4-a827-40cf0b688b55","ios":"levelo://app?vid=96ee9b6a-93d1-44f4-a827-40cf0b688b55"},"vehicle_type_id":"4","last_reported":1742425839,"current_range_meters":10000,"station_id":"ce4bgt92rcd13ifvqcf0","pricing_plan_id":"cebpf4jnsgd1na2vs0mg"},{"bike_id":"09202724-fb16-47b4-8abc-ddba2c95ece7","system_id":"levelo_inurba_marseille","lat":43.24078,"lon":5.37757,"is_reserved":false,"is_disabled":false,"rental_uris":{"android":"levelo://app?vid=09202724-fb16-47b4-8abc-ddba2c95ece7","ios":"levelo://app?vid=09202724-fb16-47b4-8abc-ddba2c95ece7"},"vehicle_type_id":"4","last_reported":1742425839,"current_range_meters":10000,"station_id":"ce4bhnp2rcd13ifvqgvg","pricing_plan_id":"cebpf4jnsgd1na2vs0mg"},{"bike_id":"e11dfbbb-3eaa-484f-b7fb-28865ddb305e","system_id":"levelo_inurba_marseille","lat":43.31484,"lon":5.3731,"is_reserved":false,"is_disabled":false,"rental_uris":{"android":"levelo://app?vid=e11dfbbb-3eaa-484f-b7fb-28865ddb305e","ios":"levelo://app?vid=e11dfbbb-3eaa-484f-b7fb-28865ddb305e"},"vehicle_type_id":"4","last_reported":1742425839,"current_range_meters":10000,"station_id":"ce4bgt12rcd13ifvqcd0","pricing_plan_id":"cebpf4jnsgd1na2vs0mg"},{"bike_id":"6b467574-69f1-40a2-a88f-6859ed54971d","system_id":"levelo_inurba_marseille","lat":43.33434,"lon":5.40069,"is_reserved":false,"is_disabled":false,"rental_uris":{"android":"levelo://app?vid=6b467574-69f1-40a2-a88f-6859ed54971d","ios":"levelo://app?vid=6b467574-69f1-40a2-a88f-6859ed54971d"},"vehicle_type_id":"4","last_reported":1742425839,"current_range_meters":10000,"station_id":"","pricing_plan_id":"cebpf4jnsgd1na2vs0mg"},{"bike_id":"86da5b62-d19c-41eb-9417-15eac028c300","system_id":"levelo_inurba_marseille","lat":43.29781,"lon":5.39371,"is_reserved":false,"is_disabled":false,"rental_uris":{"android":"levelo://app?vid=86da5b62-d19c-41eb-9417-15eac028c300","ios":"levelo://app?vid=86da5b62-d19c-41eb-9417-15eac028c300"},"vehicle_type_id":"4","last_reported":1742425839,"current_range_meters":10800,"station_id":"chh1huq6cuj3fo74tm60","pricing_plan_id":"cebpf4jnsgd1na2vs0mg"},{"bike_id":"ef52c551-eb67-486d-85cc-ce2612d4cc9c","system_id":"levelo_inurba_marseille","lat":43.30317,"lon":5.40448,"is_reserved":false,"is_disabled":false,"rental_uris":{"android":"levelo://app?vid=ef52c551-eb67-486d-85cc-ce2612d4cc9c","ios":"levelo://app?vid=ef52c551-eb67-486d-85cc-ce2612d4cc9c"},"vehicle_type_id":"4","last_reported":1742425839,"current_range_meters":10800,"station_id":"ce4bh012rcd13ifvqd10","pricing_plan_id":"cebpf4jnsgd1na2vs0mg"},{"bike_id":"a74bf8ef-9a67-48b0-83b7-af79b30b454c","system_id":"levelo_inurba_marseille","lat":43.30877,"lon":5.39639,"is_reserved":false,"is_disabled":false,"rental_uris":{"android":"levelo://app?vid=a74bf8ef-9a67-48b0-83b7-af79b30b454c","ios":"levelo://app?vid=a74bf8ef-9a67-48b0-83b7-af79b30b454c"},"vehicle_type_id":"4","last_reported":1742425839,"current_range_meters":10800,"station_id":"ce4bh012rcd13ifvqcv0","pricing_plan_id":"cebpf4jnsgd1na2vs0mg"},{"bike_id":"86eccc93-4fd8-4ef6-aed2-86921ac3f9c9","system_id":"levelo_inurba_marseille","lat":43.26681,"lon":5.38261,"is_reserved":false,"is_disabled":false,"rental_uris":{"android":"levelo://app?vid=86eccc93-4fd8-4ef6-aed2-86921ac3f9c9","ios":"levelo://app?vid=86eccc93-4fd8-4ef6-aed2-86921ac3f9c9"},"vehicle_type_id":"4","last_reported":1742425839,"current_range_meters":10800,"station_id":"ce4bhg92rcd13ifvqf90","pricing_plan_id":"cebpf4jnsgd1na2vs0mg"},{"bike_id":"7c62291a-b09b-4907-af3f-97c7035e40d0","system_id":"levelo_inurba_marseille","lat":43.28352,"lon":5.38118,"is_reserved":false,"is_disabled":false,"rental_uris":{"android":"levelo://app?vid=7c62291a-b09b-4907-af3f-97c7035e40d0","ios":"levelo://app?vid=7c62291a-b09b-4907-af3f-97c7035e40d0"},"vehicle_type_id":"4","last_reported":1742425839,"current_range_meters":10800,"station_id":"ce4bh412rcd13ifvqdr0","pricing_plan_id":"cebpf4jnsgd1na2vs0mg"},{"bike_id":"8008e9d1-08eb-4649-b985-79c87ba276a8","system_id":"levelo_inurba_marseille","lat":43.31117,"lon":5.37761,"is_reserved":false,"is_disabled":false,"rental_uris":{"android":"levelo://app?vid=8008e9d1-08eb-4649-b985-79c87ba276a8","ios":"levelo://app?vid=8008e9d1-08eb-4649-b985-79c87ba276a8"},"vehicle_type_id":"4","last_reported":1742425839,"current_range_meters":10800,"station_id":"ce4bgt92rcd13ifvqcg0","pricing_plan_id":"cebpf4jnsgd1na2vs0mg"},{"bike_id":"38700e88-0eed-4189-a7cd-49878612c994","system_id":"levelo_inurba_marseille","lat":43.31575,"lon":5.38922,"is_reserved":false,"is_disabled":false,"rental_uris":{"android":"levelo://app?vid=38700e88-0eed-4189-a7cd-49878612c994","ios":"levelo://app?vid=38700e88-0eed-4189-a7cd-49878612c994"},"vehicle_type_id":"4","last_reported":1742425839,"current_range_meters":10800,"station_id":"","pricing_plan_id":"cebpf4jnsgd1na2vs0mg"},{"bike_id":"c6cc606a-35a6-4223-87eb-6e98e5eb5040","system_id":"levelo_inurba_marseille","lat":43.28414,"lon":5.37521,"is_reserved":false,"is_disabled":false,"rental_uris":{"android":"levelo://app?vid=c6cc606a-35a6-4223-87eb-6e98e5eb5040","ios":"levelo://app?vid=c6cc606a-35a6-4223-87eb-6e98e5eb5040"},"vehicle_type_id":"4","last_reported":1742425839,"current_range_meters":10800,"station_id":"ce4bh412rcd13ifvqds0","pricing_plan_id":"cebpf4jnsgd1na2vs0mg"},{"bike_id":"94ffa62a-c0a8-48b0-83e4-7237e17e0e07","system_id":"levelo_inurba_marseille","lat":43.2795,"lon":5.41074,"is_reserved":false,"is_disabled":false,"rental_uris":{"android":"levelo://app?vid=94ffa62a-c0a8-48b0-83e4-7237e17e0e07","ios":"levelo://app?vid=94ffa62a-c0a8-48b0-83e4-7237e17e0e07"},"vehicle_type_id":"4","last_reported":1742425839,"current_range_meters":10800,"station_id":"ce4bhnp2rcd13ifvqh0g","pricing_plan_id":"cebpf4jnsgd1na2vs0mg"},{"bike_id":"7c23dcb0-31a4-457d-8cd5-05a913c017d4","system_id":"levelo_inurba_marseille","lat":43.33051,"lon":5.39021,"is_reserved":false,"is_disabled":false,"rental_uris":{"android":"levelo://app?vid=7c23dcb0-31a4-457d-8cd5-05a913c017d4","ios":"levelo://app?vid=7c23dcb0-31a4-457d-8cd5-05a913c017d4"},"vehicle_type_id":"4","last_reported":1742425839,"current_range_meters":10800,"station_id":"ce4bhr92rcd13ifvqhrg","pricing_plan_id":"cebpf4jnsgd1na2vs0mg"},{"bike_id":"c6c8dd2d-5b6e-4c3a-8293-f6b60960b982","system_id":"levelo_inurba_marseille","lat":43.30881,"lon":5.37447,"is_reserved":false,"is_disabled":false,"rental_uris":{"android":"levelo://app?vid=c6c8dd2d-5b6e-4c3a-8293-f6b60960b982","ios":"levelo://app?vid=c6c8dd2d-5b6e-4c3a-8293-f6b60960b982"},"vehicle_type_id":"4","last_reported":1742425839,"current_range_meters":10800,"station_id":"","pricing_plan_id":"cebpf4jnsgd1na2vs0mg"},{"bike_id":"9a407e55-d314-42fc-8c32-c5b5dcba6239","system_id":"levelo_inurba_marseille","lat":43.26218,"lon":5.40415,"is_reserved":false,"is_disabled":false,"rental_uris":{"android":"levelo://app?vid=9a407e55-d314-42fc-8c32-c5b5dcba6239","ios":"levelo://app?vid=9a407e55-d314-42fc-8c32-c5b5dcba6239"},"vehicle_type_id":"4","last_reported":1742425839,"current_range_meters":11200,"station_id":"ce4bhmh2rcd13ifvqgmg","pricing_plan_id":"cebpf4jnsgd1na2vs0mg"},{"bike_id":"3d6e5bb2-49a5-4ae9-ac7c-7c3250491a49","system_id":"levelo_inurba_marseille","lat":43.2884,"lon":5.3593,"is_reserved":false,"is_disabled":false,"rental_uris":{"android":"levelo://app?vid=3d6e5bb2-49a5-4ae9-ac7c-7c3250491a49","ios":"levelo://app?vid=3d6e5bb2-49a5-4ae9-ac7c-7c3250491a49"},"vehicle_type_id":"4","last_reported":1742425839,"current_range_meters":11200,"station_id":"","pricing_plan_id":"cebpf4jnsgd1na2vs0mg"},{"bike_id":"d3269e03-9275-4322-bf89-882128b5d35e","system_id":"levelo_inurba_marseille","lat":43.3129,"lon":5.40166,"is_reserved":false,"is_disabled":false,"rental_uris":{"android":"levelo://app?vid=d3269e03-9275-4322-bf89-882128b5d35e","ios":"levelo://app?vid=d3269e03-9275-4322-bf89-882128b5d35e"},"vehicle_type_id":"4","last_reported":1742425839,"current_range_meters":11200,"station_id":"ce4bh092rcd13ifvqd30","pricing_plan_id":"cebpf4jnsgd1na2vs0mg"},{"bike_id":"e571732a-bd15-4218-b100-a5ee642d86ef","system_id":"levelo_inurba_marseille","lat":43.30802,"lon":5.37658,"is_reserved":false,"is_disabled":false,"rental_uris":{"android":"levelo://app?vid=e571732a-bd15-4218-b100-a5ee642d86ef","ios":"levelo://app?vid=e571732a-bd15-4218-b100-a5ee642d86ef"},"vehicle_type_id":"4","last_reported":1742425839,"current_range_meters":11200,"station_id":"ce4bgv92rcd13ifvqcq0","pricing_plan_id":"cebpf4jnsgd1na2vs0mg"},{"bike_id":"471b8c1a-1a85-4080-b533-fb41f3dbfd81","system_id":"levelo_inurba_marseille","lat":43.23193,"lon":5.35562,"is_reserved":false,"is_disabled":false,"rental_uris":{"android":"levelo://app?vid=471b8c1a-1a85-4080-b533-fb41f3dbfd81","ios":"levelo://app?vid=471b8c1a-1a85-4080-b533-fb41f3dbfd81"},"vehicle_type_id":"4","last_reported":1742425839,"current_range_meters":11200,"station_id":"ce4bhu92rcd13ifvqi70","pricing_plan_id":"cebpf4jnsgd1na2vs0mg"},{"bike_id":"671210b1-9e8f-4893-953f-985ab8b97e34","system_id":"levelo_inurba_marseille","lat":43.32117,"lon":5.36767,"is_reserved":false,"is_disabled":false,"rental_uris":{"android":"levelo://app?vid=671210b1-9e8f-4893-953f-985ab8b97e34","ios":"levelo://app?vid=671210b1-9e8f-4893-953f-985ab8b97e34"},"vehicle_type_id":"4","last_reported":1742425839,"current_range_meters":11200,"station_id":"ce4bhrh2rcd13ifvqhug","pricing_plan_id":"cebpf4jnsgd1na2vs0mg"},{"bike_id":"477b3b7f-28c2-49ea-8f4e-2b4d1861b94d","system_id":"levelo_inurba_marseille","lat":43.25567,"lon":5.38252,"is_reserved":false,"is_disabled":false,"rental_uris":{"android":"levelo://app?vid=477b3b7f-28c2-49ea-8f4e-2b4d1861b94d","ios":"levelo://app?vid=477b3b7f-28c2-49ea-8f4e-2b4d1861b94d"},"vehicle_type_id":"4","last_reported":1742425839,"current_range_meters":11200,"station_id":"ce4bhih2rcd13ifvqfs0","pricing_plan_id":"cebpf4jnsgd1na2vs0mg"},{"bike_id":"815d7014-c6fe-4564-82ce-d8b51f90d2f6","system_id":"levelo_inurba_marseille","lat":43.33721,"lon":5.39182,"is_reserved":false,"is_disabled":false,"rental_uris":{"android":"levelo://app?vid=815d7014-c6fe-4564-82ce-d8b51f90d2f6","ios":"levelo://app?vid=815d7014-c6fe-4564-82ce-d8b51f90d2f6"},"vehicle_type_id":"4","last_reported":1742425839,"current_range_meters":11200,"station_id":"ce4bhr92rcd13ifvqhsg","pricing_plan_id":"cebpf4jnsgd1na2vs0mg"},{"bike_id":"4cb6b837-43dc-40de-9cea-cfcec3746b95","system_id":"levelo_inurba_marseille","lat":43.30873,"lon":5.39692,"is_reserved":false,"is_disabled":false,"rental_uris":{"android":"levelo://app?vid=4cb6b837-43dc-40de-9cea-cfcec3746b95","ios":"levelo://app?vid=4cb6b837-43dc-40de-9cea-cfcec3746b95"},"vehicle_type_id":"4","last_reported":1742425839,"current_range_meters":11200,"station_id":"ce4bh012rcd13ifvqcv0","pricing_plan_id":"cebpf4jnsgd1na2vs0mg"},{"bike_id":"1689fa84-13f6-46a5-be92-d2be23b25286","system_id":"levelo_inurba_marseille","lat":43.31474,"lon":5.37625,"is_reserved":false,"is_disabled":false,"rental_uris":{"android":"levelo://app?vid=1689fa84-13f6-46a5-be92-d2be23b25286","ios":"levelo://app?vid=1689fa84-13f6-46a5-be92-d2be23b25286"},"vehicle_type_id":"4","last_reported":1742425839,"current_range_meters":11200,"station_id":"","pricing_plan_id":"cebpf4jnsgd1na2vs0mg"},{"bike_id":"176d2e0b-da43-4b98-b92e-b45d4ab12b2f","system_id":"levelo_inurba_marseille","lat":43.30222,"lon":5.3848,"is_reserved":false,"is_disabled":false,"rental_uris":{"android":"levelo://app?vid=176d2e0b-da43-4b98-b92e-b45d4ab12b2f","ios":"levelo://app?vid=176d2e0b-da43-4b98-b92e-b45d4ab12b2f"},"vehicle_type_id":"4","last_reported":1742425839,"current_range_meters":11200,"station_id":"","pricing_plan_id":"cebpf4jnsgd1na2vs0mg"},{"bike_id":"3814871c-e444-4b86-8623-d81856e5c86c","system_id":"levelo_inurba_marseille","lat":43.30262,"lon":5.40042,"is_reserved":false,"is_disabled":false,"rental_uris":{"android":"levelo://app?vid=3814871c-e444-4b86-8623-d81856e5c86c","ios":"levelo://app?vid=3814871c-e444-4b86-8623-d81856e5c86c"},"vehicle_type_id":"4","last_reported":1742425839,"current_range_meters":11600,"station_id":"ce4bgvh2rcd13ifvqcs0","pricing_plan_id":"cebpf4jnsgd1na2vs0mg"},{"bike_id":"0af285be-0294-4c23-9728-cedd0c1ca6b2","system_id":"levelo_inurba_marseille","lat":43.23204,"lon":5.39984,"is_reserved":false,"is_disabled":false,"rental_uris":{"android":"levelo://app?vid=0af285be-0294-4c23-9728-cedd0c1ca6b2","ios":"levelo://app?vid=0af285be-0294-4c23-9728-cedd0c1ca6b2"},"vehicle_type_id":"4","last_reported":1742425839,"current_range_meters":11600,"station_id":"ce4bhn12rcd13ifvqgqg","pricing_plan_id":"cebpf4jnsgd1na2vs0mg"},{"bike_id":"86b1b110-d208-4984-95b0-e9853712aa1f","system_id":"levelo_inurba_marseille","lat":43.31901,"lon":5.40746,"is_reserved":false,"is_disabled":false,"rental_uris":{"android":"levelo://app?vid=86b1b110-d208-4984-95b0-e9853712aa1f","ios":"levelo://app?vid=86b1b110-d208-4984-95b0-e9853712aa1f"},"vehicle_type_id":"4","last_reported":1742425839,"current_range_meters":11600,"station_id":"ce4bhq12rcd13ifvqhig","pricing_plan_id":"cebpf4jnsgd1na2vs0mg"},{"bike_id":"cf6bafc1-9b50-49fe-a0d0-5b7f33be3ca1","system_id":"levelo_inurba_marseille","lat":43.28668,"lon":5.36339,"is_reserved":false,"is_disabled":false,"rental_uris":{"android":"levelo://app?vid=cf6bafc1-9b50-49fe-a0d0-5b7f33be3ca1","ios":"levelo://app?vid=cf6bafc1-9b50-49fe-a0d0-5b7f33be3ca1"},"vehicle_type_id":"4","last_reported":1742425839,"current_range_meters":11600,"station_id":"ce4bhah2rcd13ifvqej0","pricing_plan_id":"cebpf4jnsgd1na2vs0mg"},{"bike_id":"47ea3048-b4ed-4961-add5-e9397baaad3a","system_id":"levelo_inurba_marseille","lat":43.31325,"lon":5.39695,"is_reserved":false,"is_disabled":false,"rental_uris":{"android":"levelo://app?vid=47ea3048-b4ed-4961-add5-e9397baaad3a","ios":"levelo://app?vid=47ea3048-b4ed-4961-add5-e9397baaad3a"},"vehicle_type_id":"4","last_reported":1742425839,"current_range_meters":11200,"station_id":"ce4bgvp2rcd13ifvqcu0","pricing_plan_id":"cebpf4jnsgd1na2vs0mg"},{"bike_id":"153c2b1a-c06c-4899-a846-d0ebf48e2f80","system_id":"levelo_inurba_marseille","lat":43.299153,"lon":5.381539,"is_reserved":false,"is_disabled":false,"rental_uris":{"android":"levelo://app?vid=153c2b1a-c06c-4899-a846-d0ebf48e2f80","ios":"levelo://app?vid=153c2b1a-c06c-4899-a846-d0ebf48e2f80"},"vehicle_type_id":"4","last_reported":1742425839,"current_range_meters":11600,"station_id":"cki0cbj6b192h4jlfktg","pricing_plan_id":"cebpf4jnsgd1na2vs0mg"},{"bike_id":"6c7e51d2-e2f9-4032-b4ac-95afc513e72e","system_id":"levelo_inurba_marseille","lat":43.27379,"lon":5.36258,"is_reserved":false,"is_disabled":false,"rental_uris":{"android":"levelo://app?vid=6c7e51d2-e2f9-4032-b4ac-95afc513e72e","ios":"levelo://app?vid=6c7e51d2-e2f9-4032-b4ac-95afc513e72e"},"vehicle_type_id":"4","last_reported":1742425839,"current_range_meters":12000,"station_id":"ce4bhbh2rcd13ifvqeo0","pricing_plan_id":"cebpf4jnsgd1na2vs0mg"},{"bike_id":"11bd8d6d-27dc-4740-9c7d-3b5375e8c83b","system_id":"levelo_inurba_marseille","lat":43.31659,"lon":5.39582,"is_reserved":false,"is_disabled":false,"rental_uris":{"android":"levelo://app?vid=11bd8d6d-27dc-4740-9c7d-3b5375e8c83b","ios":"levelo://app?vid=11bd8d6d-27dc-4740-9c7d-3b5375e8c83b"},"vehicle_type_id":"4","last_reported":1742425839,"current_range_meters":12000,"station_id":"","pricing_plan_id":"cebpf4jnsgd1na2vs0mg"},{"bike_id":"cb6062cd-3cfa-4917-b79b-5707b99e3c03","system_id":"levelo_inurba_marseille","lat":43.321185,"lon":5.367534,"is_reserved":false,"is_disabled":false,"rental_uris":{"android":"levelo://app?vid=cb6062cd-3cfa-4917-b79b-5707b99e3c03","ios":"levelo://app?vid=cb6062cd-3cfa-4917-b79b-5707b99e3c03"},"vehicle_type_id":"4","last_reported":1742425839,"current_range_meters":12000,"station_id":"ce4bho92rcd13ifvqh3g","pricing_plan_id":"cebpf4jnsgd1na2vs0mg"},{"bike_id":"a6c26f49-f3e7-46f4-ac2a-6068f61eda81","system_id":"levelo_inurba_marseille","lat":43.29382,"lon":5.37862,"is_reserved":false,"is_disabled":true,"rental_uris":{"android":"levelo://app?vid=a6c26f49-f3e7-46f4-ac2a-6068f61eda81","ios":"levelo://app?vid=a6c26f49-f3e7-46f4-ac2a-6068f61eda81"},"vehicle_type_id":"4","last_reported":1742425839,"current_range_meters":12000,"station_id":"ce4bgjh2rcd13ifvqbf0","pricing_plan_id":"cebpf4jnsgd1na2vs0mg"},{"bike_id":"eca24668-5a1d-44e2-a2b2-ff33a9dd09d8","system_id":"levelo_inurba_marseille","lat":43.2481,"lon":5.37457,"is_reserved":false,"is_disabled":false,"rental_uris":{"android":"levelo://app?vid=eca24668-5a1d-44e2-a2b2-ff33a9dd09d8","ios":"levelo://app?vid=eca24668-5a1d-44e2-a2b2-ff33a9dd09d8"},"vehicle_type_id":"4","last_reported":1742425839,"current_range_meters":12000,"station_id":"ce4bhgh2rcd13ifvqfb0","pricing_plan_id":"cebpf4jnsgd1na2vs0mg"},{"bike_id":"d7645557-54c5-44ed-8c44-41e433a350da","system_id":"levelo_inurba_marseille","lat":43.29474,"lon":5.35565,"is_reserved":false,"is_disabled":false,"rental_uris":{"android":"levelo://app?vid=d7645557-54c5-44ed-8c44-41e433a350da","ios":"levelo://app?vid=d7645557-54c5-44ed-8c44-41e433a350da"},"vehicle_type_id":"4","last_reported":1742425839,"current_range_meters":12000,"station_id":"","pricing_plan_id":"cebpf4jnsgd1na2vs0mg"},{"bike_id":"ec5e2ef2-c1eb-48b0-a19d-521e6460b8d2","system_id":"levelo_inurba_marseille","lat":43.29788,"lon":5.39341,"is_reserved":false,"is_disabled":false,"rental_uris":{"android":"levelo://app?vid=ec5e2ef2-c1eb-48b0-a19d-521e6460b8d2","ios":"levelo://app?vid=ec5e2ef2-c1eb-48b0-a19d-521e6460b8d2"},"vehicle_type_id":"4","last_reported":1742425839,"current_range_meters":12000,"station_id":"chh1huq6cuj3fo74tm60","pricing_plan_id":"cebpf4jnsgd1na2vs0mg"},{"bike_id":"a0deeb6c-62a7-4efb-834c-1bec837aaba6","system_id":"levelo_inurba_marseille","lat":43.33656,"lon":5.37829,"is_reserved":false,"is_disabled":false,"rental_uris":{"android":"levelo://app?vid=a0deeb6c-62a7-4efb-834c-1bec837aaba6","ios":"levelo://app?vid=a0deeb6c-62a7-4efb-834c-1bec837aaba6"},"vehicle_type_id":"4","last_reported":1742425839,"current_range_meters":12400,"station_id":"","pricing_plan_id":"cebpf4jnsgd1na2vs0mg"},{"bike_id":"1641e73c-b1a0-405f-933f-1fce35939c96","system_id":"levelo_inurba_marseille","lat":43.30885,"lon":5.39658,"is_reserved":false,"is_disabled":false,"rental_uris":{"android":"levelo://app?vid=1641e73c-b1a0-405f-933f-1fce35939c96","ios":"levelo://app?vid=1641e73c-b1a0-405f-933f-1fce35939c96"},"vehicle_type_id":"4","last_reported":1742425839,"current_range_meters":12400,"station_id":"ce4bh012rcd13ifvqcv0","pricing_plan_id":"cebpf4jnsgd1na2vs0mg"},{"bike_id":"c3171a6d-07dd-4c33-a5ee-bcaedbbad7d7","system_id":"levelo_inurba_marseille","lat":43.30804,"lon":5.43517,"is_reserved":false,"is_disabled":false,"rental_uris":{"android":"levelo://app?vid=c3171a6d-07dd-4c33-a5ee-bcaedbbad7d7","ios":"levelo://app?vid=c3171a6d-07dd-4c33-a5ee-bcaedbbad7d7"},"vehicle_type_id":"4","last_reported":1742425839,"current_range_meters":12400,"station_id":"ce4bhph2rcd13ifvqheg","pricing_plan_id":"cebpf4jnsgd1na2vs0mg"},{"bike_id":"211ee8ec-5df5-49d9-862c-6084256cf9d2","system_id":"levelo_inurba_marseille","lat":43.31872,"lon":5.40763,"is_reserved":false,"is_disabled":false,"rental_uris":{"android":"levelo://app?vid=211ee8ec-5df5-49d9-862c-6084256cf9d2","ios":"levelo://app?vid=211ee8ec-5df5-49d9-862c-6084256cf9d2"},"vehicle_type_id":"4","last_reported":1742425839,"current_range_meters":12400,"station_id":"ce4bhq12rcd13ifvqhig","pricing_plan_id":"cebpf4jnsgd1na2vs0mg"},{"bike_id":"fe43f2e2-68ef-4fcd-bb23-84fd515f2ed0","system_id":"levelo_inurba_marseille","lat":43.3126,"lon":5.40171,"is_reserved":false,"is_disabled":false,"rental_uris":{"android":"levelo://app?vid=fe43f2e2-68ef-4fcd-bb23-84fd515f2ed0","ios":"levelo://app?vid=fe43f2e2-68ef-4fcd-bb23-84fd515f2ed0"},"vehicle_type_id":"4","last_reported":1742425839,"current_range_meters":12400,"station_id":"ce4bh092rcd13ifvqd30","pricing_plan_id":"cebpf4jnsgd1na2vs0mg"},{"bike_id":"99637088-0169-4fcc-8cf3-00601154c76a","system_id":"levelo_inurba_marseille","lat":43.29641,"lon":5.40598,"is_reserved":false,"is_disabled":false,"rental_uris":{"android":"levelo://app?vid=99637088-0169-4fcc-8cf3-00601154c76a","ios":"levelo://app?vid=99637088-0169-4fcc-8cf3-00601154c76a"},"vehicle_type_id":"4","last_reported":1742425839,"current_range_meters":12400,"station_id":"ce4bh0h2rcd13ifvqd60","pricing_plan_id":"cebpf4jnsgd1na2vs0mg"},{"bike_id":"0d90e074-2d4e-4ecb-86ba-820d133e1b46","system_id":"levelo_inurba_marseille","lat":43.28031,"lon":5.36939,"is_reserved":false,"is_disabled":false,"rental_uris":{"android":"levelo://app?vid=0d90e074-2d4e-4ecb-86ba-820d133e1b46","ios":"levelo://app?vid=0d90e074-2d4e-4ecb-86ba-820d133e1b46"},"vehicle_type_id":"4","last_reported":1742425839,"current_range_meters":12800,"station_id":"ce4bha12rcd13ifvqef0","pricing_plan_id":"cebpf4jnsgd1na2vs0mg"},{"bike_id":"f92b8978-fb07-4ab8-88d4-4b146768399a","system_id":"levelo_inurba_marseille","lat":43.2731,"lon":5.3908,"is_reserved":false,"is_disabled":false,"rental_uris":{"android":"levelo://app?vid=f92b8978-fb07-4ab8-88d4-4b146768399a","ios":"levelo://app?vid=f92b8978-fb07-4ab8-88d4-4b146768399a"},"vehicle_type_id":"4","last_reported":1742425839,"current_range_meters":12400,"station_id":"ce4bhgp2rcd13ifvqfe0","pricing_plan_id":"cebpf4jnsgd1na2vs0mg"},{"bike_id":"e84d075b-25a6-4b86-8454-449d0c7277c1","system_id":"levelo_inurba_marseille","lat":43.30302,"lon":5.39207,"is_reserved":false,"is_disabled":false,"rental_uris":{"android":"levelo://app?vid=e84d075b-25a6-4b86-8454-449d0c7277c1","ios":"levelo://app?vid=e84d075b-25a6-4b86-8454-449d0c7277c1"},"vehicle_type_id":"4","last_reported":1742425839,"current_range_meters":12800,"station_id":"ce4bgkh2rcd13ifvqbk0","pricing_plan_id":"cebpf4jnsgd1na2vs0mg"},{"bike_id":"5f474075-5c97-4d14-b6ed-363bf61d51c6","system_id":"levelo_inurba_marseille","lat":43.30263,"lon":5.40073,"is_reserved":false,"is_disabled":false,"rental_uris":{"android":"levelo://app?vid=5f474075-5c97-4d14-b6ed-363bf61d51c6","ios":"levelo://app?vid=5f474075-5c97-4d14-b6ed-363bf61d51c6"},"vehicle_type_id":"4","last_reported":1742425839,"current_range_meters":12800,"station_id":"ce4bgvh2rcd13ifvqcs0","pricing_plan_id":"cebpf4jnsgd1na2vs0mg"},{"bike_id":"f7629e3d-4aa5-4911-a5a4-b65ca5ee571a","system_id":"levelo_inurba_marseille","lat":43.28345,"lon":5.38111,"is_reserved":false,"is_disabled":false,"rental_uris":{"android":"levelo://app?vid=f7629e3d-4aa5-4911-a5a4-b65ca5ee571a","ios":"levelo://app?vid=f7629e3d-4aa5-4911-a5a4-b65ca5ee571a"},"vehicle_type_id":"4","last_reported":1742425839,"current_range_meters":13600,"station_id":"ce4bh412rcd13ifvqdr0","pricing_plan_id":"cebpf4jnsgd1na2vs0mg"},{"bike_id":"13cc78a0-eee8-44bf-ba66-2bb5c4a0d700","system_id":"levelo_inurba_marseille","lat":43.31884,"lon":5.4073,"is_reserved":false,"is_disabled":false,"rental_uris":{"android":"levelo://app?vid=13cc78a0-eee8-44bf-ba66-2bb5c4a0d700","ios":"levelo://app?vid=13cc78a0-eee8-44bf-ba66-2bb5c4a0d700"},"vehicle_type_id":"4","last_reported":1742425839,"current_range_meters":13600,"station_id":"ce4bhq12rcd13ifvqhig","pricing_plan_id":"cebpf4jnsgd1na2vs0mg"},{"bike_id":"f43a1c44-6a62-4987-8c19-349574f83478","system_id":"levelo_inurba_marseille","lat":43.25137,"lon":5.4036,"is_reserved":false,"is_disabled":false,"rental_uris":{"android":"levelo://app?vid=f43a1c44-6a62-4987-8c19-349574f83478","ios":"levelo://app?vid=f43a1c44-6a62-4987-8c19-349574f83478"},"vehicle_type_id":"4","last_reported":1742425839,"current_range_meters":13600,"station_id":"ce4bhlh2rcd13ifvqgig","pricing_plan_id":"cebpf4jnsgd1na2vs0mg"},{"bike_id":"bc1594f0-f23b-46fa-bccc-f3ff1c68a71d","system_id":"levelo_inurba_marseille","lat":43.25827,"lon":5.39445,"is_reserved":false,"is_disabled":false,"rental_uris":{"android":"levelo://app?vid=bc1594f0-f23b-46fa-bccc-f3ff1c68a71d","ios":"levelo://app?vid=bc1594f0-f23b-46fa-bccc-f3ff1c68a71d"},"vehicle_type_id":"4","last_reported":1742425839,"current_range_meters":13600,"station_id":"ce4bhip2rcd13ifvqft0","pricing_plan_id":"cebpf4jnsgd1na2vs0mg"},{"bike_id":"7721c1d1-8e22-4af6-b461-42e564891d17","system_id":"levelo_inurba_marseille","lat":43.30116,"lon":5.39874,"is_reserved":false,"is_disabled":true,"rental_uris":{"android":"levelo://app?vid=7721c1d1-8e22-4af6-b461-42e564891d17","ios":"levelo://app?vid=7721c1d1-8e22-4af6-b461-42e564891d17"},"vehicle_type_id":"4","last_reported":1742425839,"current_range_meters":13600,"station_id":"ce4bh0h2rcd13ifvqd40","pricing_plan_id":"cebpf4jnsgd1na2vs0mg"},{"bike_id":"d7fb3117-8b22-47f2-81e8-30ae0a3c4279","system_id":"levelo_inurba_marseille","lat":43.31481,"lon":5.37302,"is_reserved":false,"is_disabled":false,"rental_uris":{"android":"levelo://app?vid=d7fb3117-8b22-47f2-81e8-30ae0a3c4279","ios":"levelo://app?vid=d7fb3117-8b22-47f2-81e8-30ae0a3c4279"},"vehicle_type_id":"4","last_reported":1742425839,"current_range_meters":13600,"station_id":"ce4bgt12rcd13ifvqcd0","pricing_plan_id":"cebpf4jnsgd1na2vs0mg"},{"bike_id":"6883c811-8746-429a-bd41-848ecf4dd19e","system_id":"levelo_inurba_marseille","lat":43.23523,"lon":5.37747,"is_reserved":false,"is_disabled":false,"rental_uris":{"android":"levelo://app?vid=6883c811-8746-429a-bd41-848ecf4dd19e","ios":"levelo://app?vid=6883c811-8746-429a-bd41-848ecf4dd19e"},"vehicle_type_id":"4","last_reported":1742425839,"current_range_meters":13600,"station_id":"","pricing_plan_id":"cebpf4jnsgd1na2vs0mg"},{"bike_id":"3541b254-27bb-462a-9b76-258b8d38b3e8","system_id":"levelo_inurba_marseille","lat":43.31072,"lon":5.3835,"is_reserved":false,"is_disabled":false,"rental_uris":{"android":"levelo://app?vid=3541b254-27bb-462a-9b76-258b8d38b3e8","ios":"levelo://app?vid=3541b254-27bb-462a-9b76-258b8d38b3e8"},"vehicle_type_id":"4","last_reported":1742425839,"current_range_meters":13600,"station_id":"ce4bgv92rcd13ifvqcr0","pricing_plan_id":"cebpf4jnsgd1na2vs0mg"},{"bike_id":"f4ecdf2e-9609-44f7-bd98-2edcf10853b9","system_id":"levelo_inurba_marseille","lat":43.31689,"lon":5.40466,"is_reserved":false,"is_disabled":false,"rental_uris":{"android":"levelo://app?vid=f4ecdf2e-9609-44f7-bd98-2edcf10853b9","ios":"levelo://app?vid=f4ecdf2e-9609-44f7-bd98-2edcf10853b9"},"vehicle_type_id":"4","last_reported":1742425839,"current_range_meters":13600,"station_id":"ce4bh012rcd13ifvqd00","pricing_plan_id":"cebpf4jnsgd1na2vs0mg"},{"bike_id":"181b1742-09ee-46ab-8712-67d8396af664","system_id":"levelo_inurba_marseille","lat":43.24166,"lon":5.39733,"is_reserved":false,"is_disabled":false,"rental_uris":{"android":"levelo://app?vid=181b1742-09ee-46ab-8712-67d8396af664","ios":"levelo://app?vid=181b1742-09ee-46ab-8712-67d8396af664"},"vehicle_type_id":"4","last_reported":1742425839,"current_range_meters":13600,"station_id":"ce4bhn12rcd13ifvqgpg","pricing_plan_id":"cebpf4jnsgd1na2vs0mg"},{"bike_id":"4fcd06ae-4851-4c19-aff2-bf420ac261fc","system_id":"levelo_inurba_marseille","lat":43.283649,"lon":5.386431,"is_reserved":false,"is_disabled":true,"rental_uris":{"android":"levelo://app?vid=4fcd06ae-4851-4c19-aff2-bf420ac261fc","ios":"levelo://app?vid=4fcd06ae-4851-4c19-aff2-bf420ac261fc"},"vehicle_type_id":"4","last_reported":1742425839,"current_range_meters":13600,"station_id":"ce4bh492rcd13ifvqdvg","pricing_plan_id":"cebpf4jnsgd1na2vs0mg"},{"bike_id":"675354a7-7e74-4ac4-8495-05729e28580b","system_id":"levelo_inurba_marseille","lat":43.3371,"lon":5.39176,"is_reserved":false,"is_disabled":false,"rental_uris":{"android":"levelo://app?vid=675354a7-7e74-4ac4-8495-05729e28580b","ios":"levelo://app?vid=675354a7-7e74-4ac4-8495-05729e28580b"},"vehicle_type_id":"4","last_reported":1742425839,"current_range_meters":13600,"station_id":"ce4bhr92rcd13ifvqhsg","pricing_plan_id":"cebpf4jnsgd1na2vs0mg"},{"bike_id":"4f768683-98ef-4058-a6fa-4682623e24f5","system_id":"levelo_inurba_marseille","lat":43.30883,"lon":5.3963,"is_reserved":false,"is_disabled":false,"rental_uris":{"android":"levelo://app?vid=4f768683-98ef-4058-a6fa-4682623e24f5","ios":"levelo://app?vid=4f768683-98ef-4058-a6fa-4682623e24f5"},"vehicle_type_id":"4","last_reported":1742425839,"current_range_meters":14000,"station_id":"ce4bh012rcd13ifvqcv0","pricing_plan_id":"cebpf4jnsgd1na2vs0mg"},{"bike_id":"ffbee1c9-ab8d-45ee-b606-c546ab78c5f2","system_id":"levelo_inurba_marseille","lat":43.29718,"lon":5.37795,"is_reserved":false,"is_disabled":false,"rental_uris":{"android":"levelo://app?vid=ffbee1c9-ab8d-45ee-b606-c546ab78c5f2","ios":"levelo://app?vid=ffbee1c9-ab8d-45ee-b606-c546ab78c5f2"},"vehicle_type_id":"4","last_reported":1742425839,"current_range_meters":14000,"station_id":"","pricing_plan_id":"cebpf4jnsgd1na2vs0mg"},{"bike_id":"f8246623-cd18-45c0-ba8c-85989ad82b2f","system_id":"levelo_inurba_marseille","lat":43.27832,"lon":5.39205,"is_reserved":false,"is_disabled":false,"rental_uris":{"android":"levelo://app?vid=f8246623-cd18-45c0-ba8c-85989ad82b2f","ios":"levelo://app?vid=f8246623-cd18-45c0-ba8c-85989ad82b2f"},"vehicle_type_id":"4","last_reported":1742425839,"current_range_meters":14000,"station_id":"ce4bhjp2rcd13ifvqga0","pricing_plan_id":"cebpf4jnsgd1na2vs0mg"},{"bike_id":"71cee084-4971-41dd-8931-6915b0a1225e","system_id":"levelo_inurba_marseille","lat":43.27817,"lon":5.40733,"is_reserved":false,"is_disabled":false,"rental_uris":{"android":"levelo://app?vid=71cee084-4971-41dd-8931-6915b0a1225e","ios":"levelo://app?vid=71cee084-4971-41dd-8931-6915b0a1225e"},"vehicle_type_id":"4","last_reported":1742425839,"current_range_meters":14000,"station_id":"ce4bhnh2rcd13ifvqgtg","pricing_plan_id":"cebpf4jnsgd1na2vs0mg"},{"bike_id":"7f0f1461-453e-41a8-ab84-5bec6473e280","system_id":"levelo_inurba_marseille","lat":43.26196,"lon":5.37445,"is_reserved":false,"is_disabled":false,"rental_uris":{"android":"levelo://app?vid=7f0f1461-453e-41a8-ab84-5bec6473e280","ios":"levelo://app?vid=7f0f1461-453e-41a8-ab84-5bec6473e280"},"vehicle_type_id":"4","last_reported":1742425839,"current_range_meters":14000,"station_id":"ce4bhgp2rcd13ifvqfc0","pricing_plan_id":"cebpf4jnsgd1na2vs0mg"},{"bike_id":"76f0a242-d0ee-4b33-969e-248778f81ac7","system_id":"levelo_inurba_marseille","lat":43.28937,"lon":5.36626,"is_reserved":false,"is_disabled":false,"rental_uris":{"android":"levelo://app?vid=76f0a242-d0ee-4b33-969e-248778f81ac7","ios":"levelo://app?vid=76f0a242-d0ee-4b33-969e-248778f81ac7"},"vehicle_type_id":"4","last_reported":1742425839,"current_range_meters":14000,"station_id":"ce4bhap2rcd13ifvqek0","pricing_plan_id":"cebpf4jnsgd1na2vs0mg"},{"bike_id":"c5bb5dca-1dc9-450e-9a3d-9fa737cf345d","system_id":"levelo_inurba_marseille","lat":43.24645,"lon":5.38893,"is_reserved":false,"is_disabled":false,"rental_uris":{"android":"levelo://app?vid=c5bb5dca-1dc9-450e-9a3d-9fa737cf345d","ios":"levelo://app?vid=c5bb5dca-1dc9-450e-9a3d-9fa737cf345d"},"vehicle_type_id":"4","last_reported":1742425839,"current_range_meters":14000,"station_id":"ce4bhg12rcd13ifvqf60","pricing_plan_id":"cebpf4jnsgd1na2vs0mg"},{"bike_id":"0303b0ed-f8c8-4727-a934-eab1ff5762e3","system_id":"levelo_inurba_marseille","lat":43.30892,"lon":5.39644,"is_reserved":false,"is_disabled":false,"rental_uris":{"android":"levelo://app?vid=0303b0ed-f8c8-4727-a934-eab1ff5762e3","ios":"levelo://app?vid=0303b0ed-f8c8-4727-a934-eab1ff5762e3"},"vehicle_type_id":"4","last_reported":1742425839,"current_range_meters":14000,"station_id":"ce4bh012rcd13ifvqcv0","pricing_plan_id":"cebpf4jnsgd1na2vs0mg"},{"bike_id":"8879e25f-e10f-420b-a3cf-17b5a4037281","system_id":"levelo_inurba_marseille","lat":43.25818,"lon":5.39429,"is_reserved":false,"is_disabled":false,"rental_uris":{"android":"levelo://app?vid=8879e25f-e10f-420b-a3cf-17b5a4037281","ios":"levelo://app?vid=8879e25f-e10f-420b-a3cf-17b5a4037281"},"vehicle_type_id":"4","last_reported":1742425839,"current_range_meters":14000,"station_id":"ce4bhip2rcd13ifvqft0","pricing_plan_id":"cebpf4jnsgd1na2vs0mg"},{"bike_id":"f0ecc41c-3e76-4973-9ac5-ce0caabd5642","system_id":"levelo_inurba_marseille","lat":43.29897,"lon":5.39743,"is_reserved":false,"is_disabled":false,"rental_uris":{"android":"levelo://app?vid=f0ecc41c-3e76-4973-9ac5-ce0caabd5642","ios":"levelo://app?vid=f0ecc41c-3e76-4973-9ac5-ce0caabd5642"},"vehicle_type_id":"4","last_reported":1742425839,"current_range_meters":14400,"station_id":"ce4bh0h2rcd13ifvqd50","pricing_plan_id":"cebpf4jnsgd1na2vs0mg"},{"bike_id":"eaa90a4b-b35b-4e9d-bcb5-dc00cebc1f8d","system_id":"levelo_inurba_marseille","lat":43.32352,"lon":5.38901,"is_reserved":false,"is_disabled":false,"rental_uris":{"android":"levelo://app?vid=eaa90a4b-b35b-4e9d-bcb5-dc00cebc1f8d","ios":"levelo://app?vid=eaa90a4b-b35b-4e9d-bcb5-dc00cebc1f8d"},"vehicle_type_id":"4","last_reported":1742425839,"current_range_meters":14400,"station_id":"ce4bhqp2rcd13ifvqhog","pricing_plan_id":"cebpf4jnsgd1na2vs0mg"},{"bike_id":"f239c964-fe5d-448c-8524-569ed1071734","system_id":"levelo_inurba_marseille","lat":43.25818,"lon":5.39421,"is_reserved":false,"is_disabled":false,"rental_uris":{"android":"levelo://app?vid=f239c964-fe5d-448c-8524-569ed1071734","ios":"levelo://app?vid=f239c964-fe5d-448c-8524-569ed1071734"},"vehicle_type_id":"4","last_reported":1742425839,"current_range_meters":14400,"station_id":"ce4bhip2rcd13ifvqft0","pricing_plan_id":"cebpf4jnsgd1na2vs0mg"},{"bike_id":"ebafa0fd-ee12-47f4-b68c-4a54737665d1","system_id":"levelo_inurba_marseille","lat":43.30883,"lon":5.39642,"is_reserved":false,"is_disabled":false,"rental_uris":{"android":"levelo://app?vid=ebafa0fd-ee12-47f4-b68c-4a54737665d1","ios":"levelo://app?vid=ebafa0fd-ee12-47f4-b68c-4a54737665d1"},"vehicle_type_id":"4","last_reported":1742425839,"current_range_meters":14400,"station_id":"ce4bh012rcd13ifvqcv0","pricing_plan_id":"cebpf4jnsgd1na2vs0mg"},{"bike_id":"b9e4bdd0-024c-4547-9a94-39d0c7923642","system_id":"levelo_inurba_marseille","lat":43.24173,"lon":5.36409,"is_reserved":false,"is_disabled":false,"rental_uris":{"android":"levelo://app?vid=b9e4bdd0-024c-4547-9a94-39d0c7923642","ios":"levelo://app?vid=b9e4bdd0-024c-4547-9a94-39d0c7923642"},"vehicle_type_id":"4","last_reported":1742425839,"current_range_meters":14400,"station_id":"cpo36qri1sfpv3e86is0","pricing_plan_id":"cebpf4jnsgd1na2vs0mg"},{"bike_id":"ac08bea7-a3db-4aa4-b663-22ba38e2c807","system_id":"levelo_inurba_marseille","lat":43.27946,"lon":5.4104,"is_reserved":false,"is_disabled":false,"rental_uris":{"android":"levelo://app?vid=ac08bea7-a3db-4aa4-b663-22ba38e2c807","ios":"levelo://app?vid=ac08bea7-a3db-4aa4-b663-22ba38e2c807"},"vehicle_type_id":"4","last_reported":1742425839,"current_range_meters":14400,"station_id":"ce4bhnp2rcd13ifvqh0g","pricing_plan_id":"cebpf4jnsgd1na2vs0mg"},{"bike_id":"44b51cae-1f8d-4c3f-8cfa-49c7965edddc","system_id":"levelo_inurba_marseille","lat":43.28843,"lon":5.35867,"is_reserved":false,"is_disabled":false,"rental_uris":{"android":"levelo://app?vid=44b51cae-1f8d-4c3f-8cfa-49c7965edddc","ios":"levelo://app?vid=44b51cae-1f8d-4c3f-8cfa-49c7965edddc"},"vehicle_type_id":"4","last_reported":1742425839,"current_range_meters":14800,"station_id":"ce4bhb12rcd13ifvqem0","pricing_plan_id":"cebpf4jnsgd1na2vs0mg"},{"bike_id":"9e416160-7c0f-441b-b3e5-6061b7c9ea3e","system_id":"levelo_inurba_marseille","lat":43.30252,"lon":5.40067,"is_reserved":false,"is_disabled":false,"rental_uris":{"android":"levelo://app?vid=9e416160-7c0f-441b-b3e5-6061b7c9ea3e","ios":"levelo://app?vid=9e416160-7c0f-441b-b3e5-6061b7c9ea3e"},"vehicle_type_id":"4","last_reported":1742425839,"current_range_meters":14800,"station_id":"ce4bgvh2rcd13ifvqcs0","pricing_plan_id":"cebpf4jnsgd1na2vs0mg"},{"bike_id":"cfcd43ac-55d6-41fe-bcae-b87609468037","system_id":"levelo_inurba_marseille","lat":43.27678,"lon":5.38943,"is_reserved":false,"is_disabled":true,"rental_uris":{"android":"levelo://app?vid=cfcd43ac-55d6-41fe-bcae-b87609468037","ios":"levelo://app?vid=cfcd43ac-55d6-41fe-bcae-b87609468037"},"vehicle_type_id":"4","last_reported":1742425839,"current_range_meters":14800,"station_id":"ce4bhi12rcd13ifvqfo0","pricing_plan_id":"cebpf4jnsgd1na2vs0mg"},{"bike_id":"3d99ec99-f4e3-44c4-a02b-6647b0cf18e6","system_id":"levelo_inurba_marseille","lat":43.2826,"lon":5.35083,"is_reserved":false,"is_disabled":false,"rental_uris":{"android":"levelo://app?vid=3d99ec99-f4e3-44c4-a02b-6647b0cf18e6","ios":"levelo://app?vid=3d99ec99-f4e3-44c4-a02b-6647b0cf18e6"},"vehicle_type_id":"4","last_reported":1742425839,"current_range_meters":14400,"station_id":"ce4bhbp2rcd13ifvqerg","pricing_plan_id":"cebpf4jnsgd1na2vs0mg"},{"bike_id":"dcfce11f-23fd-43b3-ac6a-2331b19f3e91","system_id":"levelo_inurba_marseille","lat":43.30883,"lon":5.39658,"is_reserved":false,"is_disabled":false,"rental_uris":{"android":"levelo://app?vid=dcfce11f-23fd-43b3-ac6a-2331b19f3e91","ios":"levelo://app?vid=dcfce11f-23fd-43b3-ac6a-2331b19f3e91"},"vehicle_type_id":"4","last_reported":1742425839,"current_range_meters":14800,"station_id":"ce4bh012rcd13ifvqcv0","pricing_plan_id":"cebpf4jnsgd1na2vs0mg"},{"bike_id":"53450bb0-21c0-4770-bb90-2c842485b597","system_id":"levelo_inurba_marseille","lat":43.24998,"lon":5.3895,"is_reserved":false,"is_disabled":false,"rental_uris":{"android":"levelo://app?vid=53450bb0-21c0-4770-bb90-2c842485b597","ios":"levelo://app?vid=53450bb0-21c0-4770-bb90-2c842485b597"},"vehicle_type_id":"4","last_reported":1742425839,"current_range_meters":14800,"station_id":"ce4bhgp2rcd13ifvqfd0","pricing_plan_id":"cebpf4jnsgd1na2vs0mg"},{"bike_id":"4b68d577-e4ae-4081-8e85-b43d062fe045","system_id":"levelo_inurba_marseille","lat":43.30235,"lon":5.40032,"is_reserved":false,"is_disabled":false,"rental_uris":{"android":"levelo://app?vid=4b68d577-e4ae-4081-8e85-b43d062fe045","ios":"levelo://app?vid=4b68d577-e4ae-4081-8e85-b43d062fe045"},"vehicle_type_id":"4","last_reported":1742425839,"current_range_meters":14800,"station_id":"","pricing_plan_id":"cebpf4jnsgd1na2vs0mg"},{"bike_id":"48d1ca75-c6a4-4880-91e2-d975a9f9859a","system_id":"levelo_inurba_marseille","lat":43.31887,"lon":5.40744,"is_reserved":false,"is_disabled":false,"rental_uris":{"android":"levelo://app?vid=48d1ca75-c6a4-4880-91e2-d975a9f9859a","ios":"levelo://app?vid=48d1ca75-c6a4-4880-91e2-d975a9f9859a"},"vehicle_type_id":"4","last_reported":1742425839,"current_range_meters":14800,"station_id":"ce4bhq12rcd13ifvqhig","pricing_plan_id":"cebpf4jnsgd1na2vs0mg"},{"bike_id":"77c325ba-2e1c-4b5f-812e-882a5e158ec8","system_id":"levelo_inurba_marseille","lat":43.27597,"lon":5.36128,"is_reserved":false,"is_disabled":false,"rental_uris":{"android":"levelo://app?vid=77c325ba-2e1c-4b5f-812e-882a5e158ec8","ios":"levelo://app?vid=77c325ba-2e1c-4b5f-812e-882a5e158ec8"},"vehicle_type_id":"4","last_reported":1742425839,"current_range_meters":15200,"station_id":"ce4bgj92rcd13ifvqbe0","pricing_plan_id":"cebpf4jnsgd1na2vs0mg"},{"bike_id":"b180aee1-8494-4d04-ab85-035038a6747a","system_id":"levelo_inurba_marseille","lat":43.28029,"lon":5.36943,"is_reserved":false,"is_disabled":false,"rental_uris":{"android":"levelo://app?vid=b180aee1-8494-4d04-ab85-035038a6747a","ios":"levelo://app?vid=b180aee1-8494-4d04-ab85-035038a6747a"},"vehicle_type_id":"4","last_reported":1742425839,"current_range_meters":15200,"station_id":"ce4bha12rcd13ifvqef0","pricing_plan_id":"cebpf4jnsgd1na2vs0mg"},{"bike_id":"39a69217-5beb-4b90-9aec-4a4defd7fd6e","system_id":"levelo_inurba_marseille","lat":43.31175,"lon":5.38708,"is_reserved":false,"is_disabled":false,"rental_uris":{"android":"levelo://app?vid=39a69217-5beb-4b90-9aec-4a4defd7fd6e","ios":"levelo://app?vid=39a69217-5beb-4b90-9aec-4a4defd7fd6e"},"vehicle_type_id":"4","last_reported":1742425839,"current_range_meters":15200,"station_id":"ce4bgv12rcd13ifvqcp0","pricing_plan_id":"cebpf4jnsgd1na2vs0mg"},{"bike_id":"c3785270-e916-49c4-8938-772884b2125f","system_id":"levelo_inurba_marseille","lat":43.28667,"lon":5.36352,"is_reserved":false,"is_disabled":false,"rental_uris":{"android":"levelo://app?vid=c3785270-e916-49c4-8938-772884b2125f","ios":"levelo://app?vid=c3785270-e916-49c4-8938-772884b2125f"},"vehicle_type_id":"4","last_reported":1742425839,"current_range_meters":15200,"station_id":"ce4bhah2rcd13ifvqej0","pricing_plan_id":"cebpf4jnsgd1na2vs0mg"},{"bike_id":"7676f911-79e0-4de7-aca9-dcff942e9bd4","system_id":"levelo_inurba_marseille","lat":43.28614,"lon":5.351,"is_reserved":false,"is_disabled":false,"rental_uris":{"android":"levelo://app?vid=7676f911-79e0-4de7-aca9-dcff942e9bd4","ios":"levelo://app?vid=7676f911-79e0-4de7-aca9-dcff942e9bd4"},"vehicle_type_id":"4","last_reported":1742425839,"current_range_meters":15200,"station_id":"ce4bhch2rcd13ifvqeug","pricing_plan_id":"cebpf4jnsgd1na2vs0mg"},