{"last_updated":1747217493,"ttl":60,"version":"2.2","data":{"bikes":[{"bike_id":"c0b9fd4f-e181-46ce-b0bf-f5119973334f","system_id":"levelo_inurba_marseille","lat":43.33771,"lon":5.37424,"is_reserved":false,"is_disabled":false,"rental_uris":{"android":"levelo://app?vid=c0b9fd4f-e181-46ce-b0bf-f5119973334f","ios":"levelo://app?vid=c0b9fd4f-e181-46ce-b0bf-f5119973334f"},"vehicle_type_id":"4","last_reported":1747217493,"current_range_meters":19600,"station_id":"","pricing_plan_id":"cebpf4jnsgd1na2vs0mg"},{"bike_id":"3fae8334-a9d0-4ed3-aa20-0276813b60f6","system_id":"levelo_inurba_marseille","lat":43.26839,"lon":5.38461,"is_reserved":false,"is_disabled":true,"rental_uris":{"android":"levelo://app?vid=3fae8334-a9d0-4ed3-aa20-0276813b60f6","ios":"levelo://app?vid=3fae8334-a9d0-4ed3-aa20-0276813b60f6"},"vehicle_type_id":"4","last_reported":1747217493,"current_range_meters":0,"station_id":"","pricing_plan_id":"cebpf4jnsgd1na2vs0mg"},{"bike_id":"fc2577e7-1497-425b-9d4f-ab8d7dc843c6","system_id":"levelo_inurba_marseille","lat":43.33771,"lon":5.37485,"is_reserved":false,"is_disabled":true,"rental_uris":{"android":"levelo://app?vid=fc2577e7-1497-425b-9d4f-ab8d7dc843c6","ios":"levelo://app?vid=fc2577e7-1497-425b-9d4f-ab8d7dc843c6"},"vehicle_type_id":"4","last_reported":1747217493,"current_range_meters":0,"station_id":"","pricing_plan_id":"cebpf4jnsgd1na2vs0mg"},{"bike_id":"bce6dd6c-5f15-4ae5-8f21-e71db397b253","system_id":"levelo_inurba_marseille","lat":43.305465,"lon":5.365433,"is_reserved":false,"is_disabled":true,"rental_uris":{"android":"levelo://app?vid=bce6dd6c-5f15-4ae5-8f21-e71db397b253","ios":"levelo://app?vid=bce6dd6c-5f15-4ae5-8f21-e71db397b253"},"vehicle_type_id":"4","last_reported":1747217493,"current_range_meters":0,"station_id":"","pricing_plan_id":"cebpf4jnsgd1na2vs0mg"},{"bike_id":"0fedde00-40eb-40d2-8fc2-e61ecce46b7b","system_id":"levelo_inurba_marseille","lat":43.28302,"lon":5.43229,"is_reserved":false,"is_disabled":true,"rental_uris":{"android":"levelo://app?vid=0fedde00-40eb-40d2-8fc2-e61ecce46b7b","ios":"levelo://app?vid=0fedde00-40eb-40d2-8fc2-e61ecce46b7b"},"vehicle_type_id":"4","last_reported":1747217493,"current_range_meters":0,"station_id":"","pricing_plan_id":"cebpf4jnsgd1na2vs0mg"},{"bike_id":"792567c6-0442-4011-aff0-9c05e25deb48","system_id":"levelo_inurba_marseille","lat":43.28071,"lon":5.44168,"is_reserved":false,"is_disabled":true,"rental_uris":{"android":"levelo://app?vid=792567c6-0442-4011-aff0-9c05e25deb48","ios":"levelo://app?vid=792567c6-0442-4011-aff0-9c05e25deb48"},"vehicle_type_id":"4","last_reported":1747217493,"current_range_meters":0,"station_id":"","pricing_plan_id":"cebpf4jnsgd1na2vs0mg"},{"bike_id":"098ef9a6-aed9-498b-a2c2-d05f6293d3cd","system_id":"levelo_inurba_marseille","lat":43.29571,"lon":5.37522,"is_reserved":false,"is_disabled":true,"rental_uris":{"android":"levelo://app?vid=098ef9a6-aed9-498b-a2c2-d05f6293d3cd","ios":"levelo://app?vid=098ef9a6-aed9-498b-a2c2-d05f6293d3cd"},"vehicle_type_id":"4","last_reported":1747217493,"current_range_meters":0,"station_id":"ce4bgh92rcd13ifvqb50","pricing_plan_id":"cebpf4jnsgd1na2vs0mg"},{"bike_id":"326433f3-0a93-45f7-9a9f-41fbc422298c","system_id":"levelo_inurba_marseille","lat":43.30535,"lon":5.3652,"is_reserved":false,"is_disabled":true,"rental_uris":{"android":"levelo://app?vid=326433f3-0a93-45f7-9a9f-41fbc422298c","ios":"levelo://app?vid=326433f3-0a93-45f7-9a9f-41fbc422298c"},"vehicle_type_id":"4","last_reported":1747217493,"current_range_meters":0,"station_id":"ce4bgs12rcd13ifvqcag","pricing_plan_id":"cebpf4jnsgd1na2vs0mg"},{"bike_id":"acfd435a-de0a-4d9a-895b-482ce07b64c3","system_id":"levelo_inurba_marseille","lat":43.28667,"lon":5.38664,"is_reserved":false,"is_disabled":true,"rental_uris":{"android":"levelo://app?vid=acfd435a-de0a-4d9a-895b-482ce07b64c3","ios":"levelo://app?vid=acfd435a-de0a-4d9a-895b-482ce07b64c3"},"vehicle_type_id":"4","last_reported":1747217493,"current_range_meters":0,"station_id":"ce4bh492rcd13ifvqdug","pricing_plan_id":"cebpf4jnsgd1na2vs0mg"},{"bike_id":"641d9cd0-775b-4cd7-adc7-069caf91466c","system_id":"levelo_inurba_marseille","lat":43.29091,"lon":5.371903,"is_reserved":false,"is_disabled":true,"rental_uris":{"android":"levelo://app?vid=641d9cd0-775b-4cd7-adc7-069caf91466c","ios":"levelo://app?vid=641d9cd0-775b-4cd7-adc7-069caf91466c"},"vehicle_type_id":"4","last_reported":1747217493,"current_range_meters":0,"station_id":"ce4bh5p2rcd13ifvqe4g","pricing_plan_id":"cebpf4jnsgd1na2vs0mg"},{"bike_id":"e960a360-d145-48a2-bbc9-9382b60b68c0","system_id":"levelo_inurba_marseille","lat":43.26569,"lon":5.38995,"is_reserved":false,"is_disabled":true,"rental_uris":{"android":"levelo://app?vid=e960a360-d145-48a2-bbc9-9382b60b68c0","ios":"levelo://app?vid=e960a360-d145-48a2-bbc9-9382b60b68c0"},"vehicle_type_id":"4","last_reported":1747217493,"current_range_meters":0,"station_id":"ce4bhe12rcd13ifvqf30","pricing_plan_id":"cebpf4jnsgd1na2vs0mg"},{"bike_id":"f3fd69d4-efb4-47cf-98ad-2a450a9fc845","system_id":"levelo_inurba_marseille","lat":43.27951,"lon":5.38713,"is_reserved":false,"is_disabled":true,"rental_uris":{"android":"levelo://app?vid=f3fd69d4-efb4-47cf-98ad-2a450a9fc845","ios":"levelo://app?vid=f3fd69d4-efb4-47cf-98ad-2a450a9fc845"},"vehicle_type_id":"4","last_reported":1747217493,"current_range_meters":0,"station_id":"ce4bhg12rcd13ifvqf80","pricing_plan_id":"cebpf4jnsgd1na2vs0mg"},{"bike_id":"7d648bb7-ab7e-409a-add7-d4a17f03de12","system_id":"levelo_inurba_marseille","lat":43.231507,"lon":5.437001,"is_reserved":false,"is_disabled":true,"rental_uris":{"android":"levelo://app?vid=7d648bb7-ab7e-409a-add7-d4a17f03de12","ios":"levelo://app?vid=7d648bb7-ab7e-409a-add7-d4a17f03de12"},"vehicle_type_id":"4","last_reported":1747217493,"current_range_meters":0,"station_id":"ce4bhmp2rcd13ifvqgog","pricing_plan_id":"cebpf4jnsgd1na2vs0mg"},{"bike_id":"1f8dc911-40cf-4891-a3dd-b30f24c9fa87","system_id":"levelo_inurba_marseille","lat":43.23155,"lon":5.43725,"is_reserved":false,"is_disabled":true,"rental_uris":{"android":"levelo://app?vid=1f8dc911-40cf-4891-a3dd-b30f24c9fa87","ios":"levelo://app?vid=1f8dc911-40cf-4891-a3dd-b30f24c9fa87"},"vehicle_type_id":"4","last_reported":1747217493,"current_range_meters":0,"station_id":"ce4bhmp2rcd13ifvqgog","pricing_plan_id":"cebpf4jnsgd1na2vs0mg"},{"bike_id":"54715999-78c0-40df-8009-96dc643b2198","system_id":"levelo_inurba_marseille","lat":43.28137,"lon":5.42685,"is_reserved":false,"is_disabled":true,"rental_uris":{"android":"levelo://app?vid=54715999-78c0-40df-8009-96dc643b2198","ios":"levelo://app?vid=54715999-78c0-40df-8009-96dc643b2198"},"vehicle_type_id":"4","last_reported":1747217493,"current_range_meters":0,"station_id":"ce4bhnh2rcd13ifvqgug","pricing_plan_id":"cebpf4jnsgd1na2vs0mg"},{"bike_id":"97854dde-f062-4862-9117-fc2c99e80cfa","system_id":"levelo_inurba_marseille","lat":43.27938,"lon":5.41046,"is_reserved":false,"is_disabled":true,"rental_uris":{"android":"levelo://app?vid=97854dde-f062-4862-9117-fc2c99e80cfa","ios":"levelo://app?vid=97854dde-f062-4862-9117-fc2c99e80cfa"},"vehicle_type_id":"4","last_reported":1747217493,"current_range_meters":0,"station_id":"ce4bhnp2rcd13ifvqh0g","pricing_plan_id":"cebpf4jnsgd1na2vs0mg"},{"bike_id":"4f4f3227-c388-4a5e-86ad-e187ead60116","system_id":"levelo_inurba_marseille","lat":43.28706,"lon":5.39995,"is_reserved":false,"is_disabled":true,"rental_uris":{"android":"levelo://app?vid=4f4f3227-c388-4a5e-86ad-e187ead60116","ios":"levelo://app?vid=4f4f3227-c388-4a5e-86ad-e187ead60116"},"vehicle_type_id":"4","last_reported":1747217493,"current_range_meters":0,"station_id":"ce4bho92rcd13ifvqh3g","pricing_plan_id":"cebpf4jnsgd1na2vs0mg"},{"bike_id":"8aecad1a-6a65-4d9a-bc60-67a3daa52852","system_id":"levelo_inurba_marseille","lat":43.217516,"lon":5.346076,"is_reserved":false,"is_disabled":true,"rental_uris":{"android":"levelo://app?vid=8aecad1a-6a65-4d9a-bc60-67a3daa52852","ios":"levelo://app?vid=8aecad1a-6a65-4d9a-bc60-67a3daa52852"},"vehicle_type_id":"4","last_reported":1747217493,"current_range_meters":0,"station_id":"st_cvj6r9ubvosntc0bgbag","pricing_plan_id":"cebpf4jnsgd1na2vs0mg"},{"bike_id":"986c18d8-74d7-4caf-9a65-ed5970f61353","system_id":"levelo_inurba_marseille","lat":43.21173,"lon":5.35059,"is_reserved":false,"is_disabled":true,"rental_uris":{"android":"levelo://app?vid=986c18d8-74d7-4caf-9a65-ed5970f61353","ios":"levelo://app?vid=986c18d8-74d7-4caf-9a65-ed5970f61353"},"vehicle_type_id":"4","last_reported":1747217493,"current_range_meters":0,"station_id":"st_cvj6sg6p6f1abm77japg","pricing_plan_id":"cebpf4jnsgd1na2vs0mg"},{"bike_id":"2e320c68-00b0-403a-8a0c-c01d43ee44a1","system_id":"levelo_inurba_marseille","lat":43.29884,"lon":5.38883,"is_reserved":false,"is_disabled":true,"rental_uris":{"android":"levelo://app?vid=2e320c68-00b0-403a-8a0c-c01d43ee44a1","ios":"levelo://app?vid=2e320c68-00b0-403a-8a0c-c01d43ee44a1"},"vehicle_type_id":"4","last_reported":1747217493,"current_range_meters":400,"station_id":"ce4bh392rcd13ifvqdl0","pricing_plan_id":"cebpf4jnsgd1na2vs0mg"},{"bike_id":"9a25bed3-4398-4392-9b03-c5786aa7ee81","system_id":"levelo_inurba_marseille","lat":43.2826,"lon":5.35067,"is_reserved":false,"is_disabled":true,"rental_uris":{"android":"levelo://app?vid=9a25bed3-4398-4392-9b03-c5786aa7ee81","ios":"levelo://app?vid=9a25bed3-4398-4392-9b03-c5786aa7ee81"},"vehicle_type_id":"4","last_reported":1747217493,"current_range_meters":400,"station_id":"ce4bhbp2rcd13ifvqerg","pricing_plan_id":"cebpf4jnsgd1na2vs0mg"},{"bike_id":"e78ed1c1-195a-4763-adfc-d9bd46dfb54f","system_id":"levelo_inurba_marseille","lat":43.27818,"lon":5.40696,"is_reserved":false,"is_disabled":true,"rental_uris":{"android":"levelo://app?vid=e78ed1c1-195a-4763-adfc-d9bd46dfb54f","ios":"levelo://app?vid=e78ed1c1-195a-4763-adfc-d9bd46dfb54f"},"vehicle_type_id":"4","last_reported":1747217493,"current_range_meters":400,"station_id":"ce4bhnh2rcd13ifvqgtg","pricing_plan_id":"cebpf4jnsgd1na2vs0mg"},{"bike_id":"e2b51381-ab36-4f41-a7de-2d872631ebe4","system_id":"levelo_inurba_marseille","lat":43.2654,"lon":5.38981,"is_reserved":false,"is_disabled":true,"rental_uris":{"android":"levelo://app?vid=e2b51381-ab36-4f41-a7de-2d872631ebe4","ios":"levelo://app?vid=e2b51381-ab36-4f41-a7de-2d872631ebe4"},"vehicle_type_id":"4","last_reported":1747217493,"current_range_meters":800,"station_id":"ce4bhe12rcd13ifvqf30","pricing_plan_id":"cebpf4jnsgd1na2vs0mg"},{"bike_id":"eeedddb1-f46f-4afb-ae44-7b75c31951a6","system_id":"levelo_inurba_marseille","lat":43.27922,"lon":5.36337,"is_reserved":false,"is_disabled":true,"rental_uris":{"android":"levelo://app?vid=eeedddb1-f46f-4afb-ae44-7b75c31951a6","ios":"levelo://app?vid=eeedddb1-f46f-4afb-ae44-7b75c31951a6"},"vehicle_type_id":"4","last_reported":1747217493,"current_range_meters":1200,"station_id":"","pricing_plan_id":"cebpf4jnsgd1na2vs0mg"},{"bike_id":"34a4c186-1bff-4050-9512-98fe29918844","system_id":"levelo_inurba_marseille","lat":43.30925,"lon":5.36881,"is_reserved":false,"is_disabled":true,"rental_uris":{"android":"levelo://app?vid=34a4c186-1bff-4050-9512-98fe29918844","ios":"levelo://app?vid=34a4c186-1bff-4050-9512-98fe29918844"},"vehicle_type_id":"4","last_reported":1747217493,"current_range_meters":1200,"station_id":"ce4bgn92rcd13ifvqbvg","pricing_plan_id":"cebpf4jnsgd1na2vs0mg"},{"bike_id":"8fa5c164-da04-4ea7-8ef8-7001dbe0f92b","system_id":"levelo_inurba_marseille","lat":43.28487,"lon":5.38415,"is_reserved":false,"is_disabled":true,"rental_uris":{"android":"levelo://app?vid=8fa5c164-da04-4ea7-8ef8-7001dbe0f92b","ios":"levelo://app?vid=8fa5c164-da04-4ea7-8ef8-7001dbe0f92b"},"vehicle_type_id":"4","last_reported":1747217493,"current_range_meters":1200,"station_id":"ce4bh512rcd13ifvqe3g","pricing_plan_id":"cebpf4jnsgd1na2vs0mg"},{"bike_id":"d0bc366f-b351-42dc-8ff0-67517fbdccec","system_id":"levelo_inurba_marseille","lat":43.27999,"lon":5.40013,"is_reserved":false,"is_disabled":true,"rental_uris":{"android":"levelo://app?vid=d0bc366f-b351-42dc-8ff0-67517fbdccec","ios":"levelo://app?vid=d0bc366f-b351-42dc-8ff0-67517fbdccec"},"vehicle_type_id":"4","last_reported":1747217493,"current_range_meters":1200,"station_id":"ce4bho92rcd13ifvqh4g","pricing_plan_id":"cebpf4jnsgd1na2vs0mg"},{"bike_id":"941d30b5-5e94-4309-94c4-3feab644f5a9","system_id":"levelo_inurba_marseille","lat":43.29975,"lon":5.38519,"is_reserved":false,"is_disabled":true,"rental_uris":{"android":"levelo://app?vid=941d30b5-5e94-4309-94c4-3feab644f5a9","ios":"levelo://app?vid=941d30b5-5e94-4309-94c4-3feab644f5a9"},"vehicle_type_id":"4","last_reported":1747217493,"current_range_meters":1600,"station_id":"ce4bgj92rcd13ifvqbd0","pricing_plan_id":"cebpf4jnsgd1na2vs0mg"},{"bike_id":"ccafc6df-94d2-44c2-bb51-9921e5063510","system_id":"levelo_inurba_marseille","lat":43.30541,"lon":5.36551,"is_reserved":false,"is_disabled":true,"rental_uris":{"android":"levelo://app?vid=ccafc6df-94d2-44c2-bb51-9921e5063510","ios":"levelo://app?vid=ccafc6df-94d2-44c2-bb51-9921e5063510"},"vehicle_type_id":"4","last_reported":1747217493,"current_range_meters":1600,"station_id":"ce4bgs12rcd13ifvqcag","pricing_plan_id":"cebpf4jnsgd1na2vs0mg"},{"bike_id":"23c71528-68dc-497d-bc6b-58472e05716e","system_id":"levelo_inurba_marseille","lat":43.29622,"lon":5.37725,"is_reserved":false,"is_disabled":true,"rental_uris":{"android":"levelo://app?vid=23c71528-68dc-497d-bc6b-58472e05716e","ios":"levelo://app?vid=23c71528-68dc-497d-bc6b-58472e05716e"},"vehicle_type_id":"4","last_reported":1747217493,"current_range_meters":2000,"station_id":"ce4bgi92rcd13ifvqb90","pricing_plan_id":"cebpf4jnsgd1na2vs0mg"},{"bike_id":"01701904-1c4e-4e30-b3fb-2de5f53ac806","system_id":"levelo_inurba_marseille","lat":43.2972,"lon":5.37698,"is_reserved":false,"is_disabled":true,"rental_uris":{"android":"levelo://app?vid=01701904-1c4e-4e30-b3fb-2de5f53ac806","ios":"levelo://app?vid=01701904-1c4e-4e30-b3fb-2de5f53ac806"},"vehicle_type_id":"4","last_reported":1747217493,"current_range_meters":2000,"station_id":"ce4bgkh2rcd13ifvqbl0","pricing_plan_id":"cebpf4jnsgd1na2vs0mg"},{"bike_id":"79f94ac9-bc00-48c0-81ef-385e3f109153","system_id":"levelo_inurba_marseille","lat":43.2928,"lon":5.40121,"is_reserved":false,"is_disabled":true,"rental_uris":{"android":"levelo://app?vid=79f94ac9-bc00-48c0-81ef-385e3f109153","ios":"levelo://app?vid=79f94ac9-bc00-48c0-81ef-385e3f109153"},"vehicle_type_id":"4","last_reported":1747217493,"current_range_meters":2000,"station_id":"ce4bh312rcd13ifvqdk0","pricing_plan_id":"cebpf4jnsgd1na2vs0mg"},{"bike_id":"26e9a6b0-41d1-44d5-a86b-fc6cdf52815c","system_id":"levelo_inurba_marseille","lat":43.284199,"lon":5.375022,"is_reserved":false,"is_disabled":true,"rental_uris":{"android":"levelo://app?vid=26e9a6b0-41d1-44d5-a86b-fc6cdf52815c","ios":"levelo://app?vid=26e9a6b0-41d1-44d5-a86b-fc6cdf52815c"},"vehicle_type_id":"4","last_reported":1747217493,"current_range_meters":2000,"station_id":"ce4bh412rcd13ifvqds0","pricing_plan_id":"cebpf4jnsgd1na2vs0mg"},{"bike_id":"a090fbe5-c969-4b96-8a94-ed495ca9feff","system_id":"levelo_inurba_marseille","lat":43.27808,"lon":5.40706,"is_reserved":false,"is_disabled":true,"rental_uris":{"android":"levelo://app?vid=a090fbe5-c969-4b96-8a94-ed495ca9feff","ios":"levelo://app?vid=a090fbe5-c969-4b96-8a94-ed495ca9feff"},"vehicle_type_id":"4","last_reported":1747217493,"current_range_meters":2000,"station_id":"ce4bhnh2rcd13ifvqgtg","pricing_plan_id":"cebpf4jnsgd1na2vs0mg"},{"bike_id":"04d2d0ea-48be-437c-b5cb-f943238168f9","system_id":"levelo_inurba_marseille","lat":43.30325,"lon":5.3691,"is_reserved":false,"is_disabled":false,"rental_uris":{"android":"levelo://app?vid=04d2d0ea-48be-437c-b5cb-f943238168f9","ios":"levelo://app?vid=04d2d0ea-48be-437c-b5cb-f943238168f9"},"vehicle_type_id":"4","last_reported":1747217493,"current_range_meters":3200,"station_id":"ce4bgqh2rcd13ifvqc5g","pricing_plan_id":"cebpf4jnsgd1na2vs0mg"},{"bike_id":"a0a82e8a-0a14-44bb-927d-eca47ae2d2c4","system_id":"levelo_inurba_marseille","lat":43.28665,"lon":5.36359,"is_reserved":false,"is_disabled":false,"rental_uris":{"android":"levelo://app?vid=a0a82e8a-0a14-44bb-927d-eca47ae2d2c4","ios":"levelo://app?vid=a0a82e8a-0a14-44bb-927d-eca47ae2d2c4"},"vehicle_type_id":"4","last_reported":1747217493,"current_range_meters":4000,"station_id":"ce4bhah2rcd13ifvqej0","pricing_plan_id":"cebpf4jnsgd1na2vs0mg"},{"bike_id":"dfe8d392-d726-43f8-9946-2527646b6d75","system_id":"levelo_inurba_marseille","lat":43.26785,"lon":5.39415,"is_reserved":false,"is_disabled":false,"rental_uris":{"android":"levelo://app?vid=dfe8d392-d726-43f8-9946-2527646b6d75","ios":"levelo://app?vid=dfe8d392-d726-43f8-9946-2527646b6d75"},"vehicle_type_id":"4","last_reported":1747217493,"current_range_meters":4400,"station_id":"ce4bhh12rcd13ifvqfg0","pricing_plan_id":"cebpf4jnsgd1na2vs0mg"},{"bike_id":"f61d6bdd-c4f1-4f6d-b581-ea58987bcae0","system_id":"levelo_inurba_marseille","lat":43.23152,"lon":5.43706,"is_reserved":false,"is_disabled":false,"rental_uris":{"android":"levelo://app?vid=f61d6bdd-c4f1-4f6d-b581-ea58987bcae0","ios":"levelo://app?vid=f61d6bdd-c4f1-4f6d-b581-ea58987bcae0"},"vehicle_type_id":"4","last_reported":1747217493,"current_range_meters":4400,"station_id":"ce4bhmp2rcd13ifvqgog","pricing_plan_id":"cebpf4jnsgd1na2vs0mg"},{"bike_id":"05e5022c-c936-446e-966f-9210e977466d","system_id":"levelo_inurba_marseille","lat":43.27943,"lon":5.41053,"is_reserved":false,"is_disabled":false,"rental_uris":{"android":"levelo://app?vid=05e5022c-c936-446e-966f-9210e977466d","ios":"levelo://app?vid=05e5022c-c936-446e-966f-9210e977466d"},"vehicle_type_id":"4","last_reported":1747217493,"current_range_meters":4400,"station_id":"ce4bhnp2rcd13ifvqh0g","pricing_plan_id":"cebpf4jnsgd1na2vs0mg"},{"bike_id":"5733b0f4-4efb-495a-b96d-6563685294cb","system_id":"levelo_inurba_marseille","lat":43.2826,"lon":5.35066,"is_reserved":false,"is_disabled":false,"rental_uris":{"android":"levelo://app?vid=5733b0f4-4efb-495a-b96d-6563685294cb","ios":"levelo://app?vid=5733b0f4-4efb-495a-b96d-6563685294cb"},"vehicle_type_id":"4","last_reported":1747217493,"current_range_meters":4800,"station_id":"ce4bhbp2rcd13ifvqerg","pricing_plan_id":"cebpf4jnsgd1na2vs0mg"},{"bike_id":"2ac20b4c-b92f-4ccf-b4e7-7423e48bce1f","system_id":"levelo_inurba_marseille","lat":43.27192,"lon":5.40972,"is_reserved":false,"is_disabled":false,"rental_uris":{"android":"levelo://app?vid=2ac20b4c-b92f-4ccf-b4e7-7423e48bce1f","ios":"levelo://app?vid=2ac20b4c-b92f-4ccf-b4e7-7423e48bce1f"},"vehicle_type_id":"4","last_reported":1747217493,"current_range_meters":4800,"station_id":"ce4bhl12rcd13ifvqgf0","pricing_plan_id":"cebpf4jnsgd1na2vs0mg"},{"bike_id":"3a7a364f-2dd1-40ad-b066-b8be424cdeb5","system_id":"levelo_inurba_marseille","lat":43.24167,"lon":5.39724,"is_reserved":false,"is_disabled":false,"rental_uris":{"android":"levelo://app?vid=3a7a364f-2dd1-40ad-b066-b8be424cdeb5","ios":"levelo://app?vid=3a7a364f-2dd1-40ad-b066-b8be424cdeb5"},"vehicle_type_id":"4","last_reported":1747217493,"current_range_meters":4800,"station_id":"ce4bhn12rcd13ifvqgpg","pricing_plan_id":"cebpf4jnsgd1na2vs0mg"},{"bike_id":"810f3210-bbc7-4475-bb40-b2f3a8c7220f","system_id":"levelo_inurba_marseille","lat":43.24663,"lon":5.38164,"is_reserved":false,"is_disabled":false,"rental_uris":{"android":"levelo://app?vid=810f3210-bbc7-4475-bb40-b2f3a8c7220f","ios":"levelo://app?vid=810f3210-bbc7-4475-bb40-b2f3a8c7220f"},"vehicle_type_id":"4","last_reported":1747217493,"current_range_meters":5600,"station_id":"ce4bhih2rcd13ifvqfr0","pricing_plan_id":"cebpf4jnsgd1na2vs0mg"},{"bike_id":"5b93401d-5b3f-4427-8fa6-f4a4f87b263f","system_id":"levelo_inurba_marseille","lat":43.23156,"lon":5.43702,"is_reserved":false,"is_disabled":false,"rental_uris":{"android":"levelo://app?vid=5b93401d-5b3f-4427-8fa6-f4a4f87b263f","ios":"levelo://app?vid=5b93401d-5b3f-4427-8fa6-f4a4f87b263f"},"vehicle_type_id":"4","last_reported":1747217493,"current_range_meters":5600,"station_id":"ce4bhmp2rcd13ifvqgog","pricing_plan_id":"cebpf4jnsgd1na2vs0mg"},{"bike_id":"e2cbea66-f3b0-4053-8ee0-f91086c64ef9","system_id":"levelo_inurba_marseille","lat":43.28437,"lon":5.39206,"is_reserved":false,"is_disabled":false,"rental_uris":{"android":"levelo://app?vid=e2cbea66-f3b0-4053-8ee0-f91086c64ef9","ios":"levelo://app?vid=e2cbea66-f3b0-4053-8ee0-f91086c64ef9"},"vehicle_type_id":"4","last_reported":1747217493,"current_range_meters":5600,"station_id":"ce4bhoh2rcd13ifvqh5g","pricing_plan_id":"cebpf4jnsgd1na2vs0mg"},{"bike_id":"e42e17e5-d574-40b9-811b-e914acd6632f","system_id":"levelo_inurba_marseille","lat":43.23051,"lon":5.35499,"is_reserved":false,"is_disabled":false,"rental_uris":{"android":"levelo://app?vid=e42e17e5-d574-40b9-811b-e914acd6632f","ios":"levelo://app?vid=e42e17e5-d574-40b9-811b-e914acd6632f"},"vehicle_type_id":"4","last_reported":1747217493,"current_range_meters":5600,"station_id":"cpo3342slgdg3j2ifvpg","pricing_plan_id":"cebpf4jnsgd1na2vs0mg"},{"bike_id":"3f8a6c15-fda2-4503-bb07-f0504bf7b72c","system_id":"levelo_inurba_marseille","lat":43.29621,"lon":5.37711,"is_reserved":false,"is_disabled":false,"rental_uris":{"android":"levelo://app?vid=3f8a6c15-fda2-4503-bb07-f0504bf7b72c","ios":"levelo://app?vid=3f8a6c15-fda2-4503-bb07-f0504bf7b72c"},"vehicle_type_id":"4","last_reported":1747217493,"current_range_meters":6000,"station_id":"ce4bgi92rcd13ifvqb90","pricing_plan_id":"cebpf4jnsgd1na2vs0mg"},{"bike_id":"3e577899-1cf5-4142-a5ff-faff2612ecac","system_id":"levelo_inurba_marseille","lat":43.28613,"lon":5.35105,"is_reserved":false,"is_disabled":false,"rental_uris":{"android":"levelo://app?vid=3e577899-1cf5-4142-a5ff-faff2612ecac","ios":"levelo://app?vid=3e577899-1cf5-4142-a5ff-faff2612ecac"},"vehicle_type_id":"4","last_reported":1747217493,"current_range_meters":6000,"station_id":"ce4bhch2rcd13ifvqeug","pricing_plan_id":"cebpf4jnsgd1na2vs0mg"},{"bike_id":"60525c38-d627-44a1-89f7-4dc59fccb371","system_id":"levelo_inurba_marseille","lat":43.28648,"lon":5.39875,"is_reserved":false,"is_disabled":false,"rental_uris":{"android":"levelo://app?vid=60525c38-d627-44a1-89f7-4dc59fccb371","ios":"levelo://app?vid=60525c38-d627-44a1-89f7-4dc59fccb371"},"vehicle_type_id":"4","last_reported":1747217493,"current_range_meters":6000,"station_id":"ce4bho92rcd13ifvqh3g","pricing_plan_id":"cebpf4jnsgd1na2vs0mg"},{"bike_id":"22314cb5-11f2-4604-a5a5-9d4d7504b3d9","system_id":"levelo_inurba_marseille","lat":43.23152,"lon":5.43755,"is_reserved":false,"is_disabled":false,"rental_uris":{"android":"levelo://app?vid=22314cb5-11f2-4604-a5a5-9d4d7504b3d9","ios":"levelo://app?vid=22314cb5-11f2-4604-a5a5-9d4d7504b3d9"},"vehicle_type_id":"4","last_reported":1747217493,"current_range_meters":6400,"station_id":"","pricing_plan_id":"cebpf4jnsgd1na2vs0mg"},{"bike_id":"dfe479e4-5fd8-42e3-81cd-067c2edcd0d5","system_id":"levelo_inurba_marseille","lat":43.27064,"lon":5.42277,"is_reserved":false,"is_disabled":false,"rental_uris":{"android":"levelo://app?vid=dfe479e4-5fd8-42e3-81cd-067c2edcd0d5","ios":"levelo://app?vid=dfe479e4-5fd8-42e3-81cd-067c2edcd0d5"},"vehicle_type_id":"4","last_reported":1747217493,"current_range_meters":6400,"station_id":"ce4bhk92rcd13ifvqgb0","pricing_plan_id":"cebpf4jnsgd1na2vs0mg"},{"bike_id":"cca50493-ac88-48f5-b782-ba119c17d309","system_id":"levelo_inurba_marseille","lat":43.25934,"lon":5.40909,"is_reserved":false,"is_disabled":false,"rental_uris":{"android":"levelo://app?vid=cca50493-ac88-48f5-b782-ba119c17d309","ios":"levelo://app?vid=cca50493-ac88-48f5-b782-ba119c17d309"},"vehicle_type_id":"4","last_reported":1747217493,"current_range_meters":6400,"station_id":"ce4bhm92rcd13ifvqglg","pricing_plan_id":"cebpf4jnsgd1na2vs0mg"},{"bike_id":"c40f0d15-5105-4695-95ae-03b230916a62","system_id":"levelo_inurba_marseille","lat":43.2871,"lon":5.39999,"is_reserved":false,"is_disabled":false,"rental_uris":{"android":"levelo://app?vid=c40f0d15-5105-4695-95ae-03b230916a62","ios":"levelo://app?vid=c40f0d15-5105-4695-95ae-03b230916a62"},"vehicle_type_id":"4","last_reported":1747217493,"current_range_meters":6400,"station_id":"ce4bho92rcd13ifvqh3g","pricing_plan_id":"cebpf4jnsgd1na2vs0mg"},{"bike_id":"ce4325af-2448-4172-bdec-81d552ee0b62","system_id":"levelo_inurba_marseille","lat":43.26179,"lon":5.42027,"is_reserved":false,"is_disabled":false,"rental_uris":{"android":"levelo://app?vid=ce4325af-2448-4172-bdec-81d552ee0b62","ios":"levelo://app?vid=ce4325af-2448-4172-bdec-81d552ee0b62"},"vehicle_type_id":"4","last_reported":1747217493,"current_range_meters":6800,"station_id":"","pricing_plan_id":"cebpf4jnsgd1na2vs0mg"},{"bike_id":"3b763487-9989-4bfd-963d-7d6731a25421","system_id":"levelo_inurba_marseille","lat":43.30566,"lon":5.366985,"is_reserved":false,"is_disabled":false,"rental_uris":{"android":"levelo://app?vid=3b763487-9989-4bfd-963d-7d6731a25421","ios":"levelo://app?vid=3b763487-9989-4bfd-963d-7d6731a25421"},"vehicle_type_id":"4","last_reported":1747217493,"current_range_meters":6800,"station_id":"ce4bgrp2rcd13ifvqc9g","pricing_plan_id":"cebpf4jnsgd1na2vs0mg"},{"bike_id":"3f40cce7-bfb2-4d47-a25b-e48f7902c1e3","system_id":"levelo_inurba_marseille","lat":43.23156,"lon":5.43701,"is_reserved":false,"is_disabled":false,"rental_uris":{"android":"levelo://app?vid=3f40cce7-bfb2-4d47-a25b-e48f7902c1e3","ios":"levelo://app?vid=3f40cce7-bfb2-4d47-a25b-e48f7902c1e3"},"vehicle_type_id":"4","last_reported":1747217493,"current_range_meters":6800,"station_id":"ce4bhmp2rcd13ifvqgog","pricing_plan_id":"cebpf4jnsgd1na2vs0mg"},{"bike_id":"35b5cea5-eb5e-4949-bb0d-c4b66c729e32","system_id":"levelo_inurba_marseille","lat":43.335931,"lon":5.410201,"is_reserved":false,"is_disabled":false,"rental_uris":{"android":"levelo://app?vid=35b5cea5-eb5e-4949-bb0d-c4b66c729e32","ios":"levelo://app?vid=35b5cea5-eb5e-4949-bb0d-c4b66c729e32"},"vehicle_type_id":"4","last_reported":1747217493,"current_range_meters":6800,"station_id":"ce4bhqh2rcd13ifvqhmg","pricing_plan_id":"cebpf4jnsgd1na2vs0mg"},{"bike_id":"56bea2d5-1851-4bc0-b9ec-2abbd891bd8c","system_id":"levelo_inurba_marseille","lat":43.24175,"lon":5.36392,"is_reserved":false,"is_disabled":false,"rental_uris":{"android":"levelo://app?vid=56bea2d5-1851-4bc0-b9ec-2abbd891bd8c","ios":"levelo://app?vid=56bea2d5-1851-4bc0-b9ec-2abbd891bd8c"},"vehicle_type_id":"4","last_reported":1747217493,"current_range_meters":6800,"station_id":"cpo36qri1sfpv3e86is0","pricing_plan_id":"cebpf4jnsgd1na2vs0mg"},{"bike_id":"01e2d29b-0149-4d84-b2df-4402cb147ee6","system_id":"levelo_inurba_marseille","lat":43.2992,"lon":5.36535,"is_reserved":false,"is_disabled":false,"rental_uris":{"android":"levelo://app?vid=01e2d29b-0149-4d84-b2df-4402cb147ee6","ios":"levelo://app?vid=01e2d29b-0149-4d84-b2df-4402cb147ee6"},"vehicle_type_id":"4","last_reported":1747217493,"current_range_meters":7200,"station_id":"ce4bgm92rcd13ifvqbr0","pricing_plan_id":"cebpf4jnsgd1na2vs0mg"},{"bike_id":"5de1e8df-cec1-47cf-b554-41f6e726d337","system_id":"levelo_inurba_marseille","lat":43.27433,"lon":5.40594,"is_reserved":false,"is_disabled":false,"rental_uris":{"android":"levelo://app?vid=5de1e8df-cec1-47cf-b554-41f6e726d337","ios":"levelo://app?vid=5de1e8df-cec1-47cf-b554-41f6e726d337"},"vehicle_type_id":"4","last_reported":1747217493,"current_range_meters":8000,"station_id":"","pricing_plan_id":"cebpf4jnsgd1na2vs0mg"},{"bike_id":"fb41f6a6-26c1-49fd-8408-1e889faf645e","system_id":"levelo_inurba_marseille","lat":43.29885,"lon":5.38892,"is_reserved":false,"is_disabled":false,"rental_uris":{"android":"levelo://app?vid=fb41f6a6-26c1-49fd-8408-1e889faf645e","ios":"levelo://app?vid=fb41f6a6-26c1-49fd-8408-1e889faf645e"},"vehicle_type_id":"4","last_reported":1747217493,"current_range_meters":8000,"station_id":"ce4bh392rcd13ifvqdl0","pricing_plan_id":"cebpf4jnsgd1na2vs0mg"},{"bike_id":"27e9377b-a741-4bdb-8e93-04c77d44e403","system_id":"levelo_inurba_marseille","lat":43.28672,"lon":5.36372,"is_reserved":false,"is_disabled":false,"rental_uris":{"android":"levelo://app?vid=27e9377b-a741-4bdb-8e93-04c77d44e403","ios":"levelo://app?vid=27e9377b-a741-4bdb-8e93-04c77d44e403"},"vehicle_type_id":"4","last_reported":1747217493,"current_range_meters":8000,"station_id":"ce4bhah2rcd13ifvqej0","pricing_plan_id":"cebpf4jnsgd1na2vs0mg"},{"bike_id":"ef2056fe-fc71-4cde-833c-bc557c580097","system_id":"levelo_inurba_marseille","lat":43.24808,"lon":5.37459,"is_reserved":false,"is_disabled":false,"rental_uris":{"android":"levelo://app?vid=ef2056fe-fc71-4cde-833c-bc557c580097","ios":"levelo://app?vid=ef2056fe-fc71-4cde-833c-bc557c580097"},"vehicle_type_id":"4","last_reported":1747217493,"current_range_meters":8000,"station_id":"ce4bhgh2rcd13ifvqfb0","pricing_plan_id":"cebpf4jnsgd1na2vs0mg"},{"bike_id":"d165ebe9-72e4-4dea-92a0-4589e2d21c6d","system_id":"levelo_inurba_marseille","lat":43.21189,"lon":5.35082,"is_reserved":false,"is_disabled":false,"rental_uris":{"android":"levelo://app?vid=d165ebe9-72e4-4dea-92a0-4589e2d21c6d","ios":"levelo://app?vid=d165ebe9-72e4-4dea-92a0-4589e2d21c6d"},"vehicle_type_id":"4","last_reported":1747217493,"current_range_meters":8000,"station_id":"st_cvj6sg6p6f1abm77japg","pricing_plan_id":"cebpf4jnsgd1na2vs0mg"},{"bike_id":"f37b7848-b34f-4203-8cd6-ee4ac88ff930","system_id":"levelo_inurba_marseille","lat":43.239561,"lon":5.366264,"is_reserved":false,"is_disabled":false,"rental_uris":{"android":"levelo://app?vid=f37b7848-b34f-4203-8cd6-ee4ac88ff930","ios":"levelo://app?vid=f37b7848-b34f-4203-8cd6-ee4ac88ff930"},"vehicle_type_id":"4","last_reported":1747217493,"current_range_meters":8400,"station_id":"ce4bhi12rcd13ifvqfp0","pricing_plan_id":"cebpf4jnsgd1na2vs0mg"},{"bike_id":"df01bf56-fa20-408c-a8ef-c07192a995ae","system_id":"levelo_inurba_marseille","lat":43.23148,"lon":5.43719,"is_reserved":false,"is_disabled":false,"rental_uris":{"android":"levelo://app?vid=df01bf56-fa20-408c-a8ef-c07192a995ae","ios":"levelo://app?vid=df01bf56-fa20-408c-a8ef-c07192a995ae"},"vehicle_type_id":"4","last_reported":1747217493,"current_range_meters":8400,"station_id":"ce4bhmp2rcd13ifvqgog","pricing_plan_id":"cebpf4jnsgd1na2vs0mg"},{"bike_id":"3c73459e-f91a-4aa2-ba97-ce20e4cd22da","system_id":"levelo_inurba_marseille","lat":43.31216,"lon":5.36866,"is_reserved":false,"is_disabled":false,"rental_uris":{"android":"levelo://app?vid=3c73459e-f91a-4aa2-ba97-ce20e4cd22da","ios":"levelo://app?vid=3c73459e-f91a-4aa2-ba97-ce20e4cd22da"},"vehicle_type_id":"4","last_reported":1747217493,"current_range_meters":8800,"station_id":"ce4bgl92rcd13ifvqbq0","pricing_plan_id":"cebpf4jnsgd1na2vs0mg"},{"bike_id":"3b10439d-cb21-4a5e-9660-09353cde8a78","system_id":"levelo_inurba_marseille","lat":43.29841,"lon":5.36264,"is_reserved":false,"is_disabled":false,"rental_uris":{"android":"levelo://app?vid=3b10439d-cb21-4a5e-9660-09353cde8a78","ios":"levelo://app?vid=3b10439d-cb21-4a5e-9660-09353cde8a78"},"vehicle_type_id":"4","last_reported":1747217493,"current_range_meters":8800,"station_id":"ce4bgpp2rcd13ifvqc3g","pricing_plan_id":"cebpf4jnsgd1na2vs0mg"},{"bike_id":"0647ad68-de49-412d-8b71-f129781ad5c8","system_id":"levelo_inurba_marseille","lat":43.2622,"lon":5.37472,"is_reserved":false,"is_disabled":false,"rental_uris":{"android":"levelo://app?vid=0647ad68-de49-412d-8b71-f129781ad5c8","ios":"levelo://app?vid=0647ad68-de49-412d-8b71-f129781ad5c8"},"vehicle_type_id":"4","last_reported":1747217493,"current_range_meters":8800,"station_id":"ce4bhgp2rcd13ifvqfc0","pricing_plan_id":"cebpf4jnsgd1na2vs0mg"},{"bike_id":"bae0709b-c933-441a-ab47-3aad58f66d78","system_id":"levelo_inurba_marseille","lat":43.21757,"lon":5.34586,"is_reserved":false,"is_disabled":false,"rental_uris":{"android":"levelo://app?vid=bae0709b-c933-441a-ab47-3aad58f66d78","ios":"levelo://app?vid=bae0709b-c933-441a-ab47-3aad58f66d78"},"vehicle_type_id":"4","last_reported":1747217493,"current_range_meters":8800,"station_id":"st_cvj6r9ubvosntc0bgbag","pricing_plan_id":"cebpf4jnsgd1na2vs0mg"},{"bike_id":"6380b036-1e9c-47c8-bfa1-3784d6a37319","system_id":"levelo_inurba_marseille","lat":43.28105,"lon":5.37851,"is_reserved":false,"is_disabled":false,"rental_uris":{"android":"levelo://app?vid=6380b036-1e9c-47c8-bfa1-3784d6a37319","ios":"levelo://app?vid=6380b036-1e9c-47c8-bfa1-3784d6a37319"},"vehicle_type_id":"4","last_reported":1747217493,"current_range_meters":9200,"station_id":"ce4bha12rcd13ifvqee0","pricing_plan_id":"cebpf4jnsgd1na2vs0mg"},{"bike_id":"f8885f32-f9b1-4dea-97d5-0d6ab03e0a41","system_id":"levelo_inurba_marseille","lat":43.29188,"lon":5.35805,"is_reserved":false,"is_disabled":false,"rental_uris":{"android":"levelo://app?vid=f8885f32-f9b1-4dea-97d5-0d6ab03e0a41","ios":"levelo://app?vid=f8885f32-f9b1-4dea-97d5-0d6ab03e0a41"},"vehicle_type_id":"4","last_reported":1747217493,"current_range_meters":9200,"station_id":"ce4bhb12rcd13ifvqel0","pricing_plan_id":"cebpf4jnsgd1na2vs0mg"},{"bike_id":"71e3c66b-295c-422e-8a2e-07088555be29","system_id":"levelo_inurba_marseille","lat":43.21192,"lon":5.35066,"is_reserved":false,"is_disabled":false,"rental_uris":{"android":"levelo://app?vid=71e3c66b-295c-422e-8a2e-07088555be29","ios":"levelo://app?vid=71e3c66b-295c-422e-8a2e-07088555be29"},"vehicle_type_id":"4","last_reported":1747217493,"current_range_meters":9200,"station_id":"st_cvj6sg6p6f1abm77japg","pricing_plan_id":"cebpf4jnsgd1na2vs0mg"},{"bike_id":"59af256a-7624-40fc-aea1-4d80b2b595fc","system_id":"levelo_inurba_marseille","lat":43.311,"lon":5.40072,"is_reserved":false,"is_disabled":false,"rental_uris":{"android":"levelo://app?vid=59af256a-7624-40fc-aea1-4d80b2b595fc","ios":"levelo://app?vid=59af256a-7624-40fc-aea1-4d80b2b595fc"},"vehicle_type_id":"4","last_reported":1747217493,"current_range_meters":9600,"station_id":"","pricing_plan_id":"cebpf4jnsgd1na2vs0mg"},{"bike_id":"617fc2ab-9566-4b28-ad56-20bf63d0c56e","system_id":"levelo_inurba_marseille","lat":43.30928,"lon":5.3684,"is_reserved":false,"is_disabled":false,"rental_uris":{"android":"levelo://app?vid=617fc2ab-9566-4b28-ad56-20bf63d0c56e","ios":"levelo://app?vid=617fc2ab-9566-4b28-ad56-20bf63d0c56e"},"vehicle_type_id":"4","last_reported":1747217493,"current_range_meters":9600,"station_id":"ce4bgn92rcd13ifvqbvg","pricing_plan_id":"cebpf4jnsgd1na2vs0mg"},{"bike_id":"f3be808f-1ceb-4250-a3d0-c853b32bd89b","system_id":"levelo_inurba_marseille","lat":43.29577,"lon":5.36741,"is_reserved":false,"is_disabled":false,"rental_uris":{"android":"levelo://app?vid=f3be808f-1ceb-4250-a3d0-c853b32bd89b","ios":"levelo://app?vid=f3be808f-1ceb-4250-a3d0-c853b32bd89b"},"vehicle_type_id":"4","last_reported":1747217493,"current_range_meters":9600,"station_id":"ce4bgph2rcd13ifvqc2g","pricing_plan_id":"cebpf4jnsgd1na2vs0mg"},{"bike_id":"d559a899-b1bd-4a71-a12e-4458bcd0cdbf","system_id":"levelo_inurba_marseille","lat":43.230579,"lon":5.354886,"is_reserved":false,"is_disabled":false,"rental_uris":{"android":"levelo://app?vid=d559a899-b1bd-4a71-a12e-4458bcd0cdbf","ios":"levelo://app?vid=d559a899-b1bd-4a71-a12e-4458bcd0cdbf"},"vehicle_type_id":"4","last_reported":1747217493,"current_range_meters":9600,"station_id":"cpo3342slgdg3j2ifvpg","pricing_plan_id":"cebpf4jnsgd1na2vs0mg"},{"bike_id":"c0cd8e78-3496-481b-86f3-5b64f7b096b9","system_id":"levelo_inurba_marseille","lat":43.29959,"lon":5.37151,"is_reserved":false,"is_disabled":false,"rental_uris":{"android":"levelo://app?vid=c0cd8e78-3496-481b-86f3-5b64f7b096b9","ios":"levelo://app?vid=c0cd8e78-3496-481b-86f3-5b64f7b096b9"},"vehicle_type_id":"4","last_reported":1747217493,"current_range_meters":10000,"station_id":"ce4bgr92rcd13ifvqc7g","pricing_plan_id":"cebpf4jnsgd1na2vs0mg"},{"bike_id":"11f99379-395b-4569-9efc-607256d4d34e","system_id":"levelo_inurba_marseille","lat":43.28105,"lon":5.3783,"is_reserved":false,"is_disabled":false,"rental_uris":{"android":"levelo://app?vid=11f99379-395b-4569-9efc-607256d4d34e","ios":"levelo://app?vid=11f99379-395b-4569-9efc-607256d4d34e"},"vehicle_type_id":"4","last_reported":1747217493,"current_range_meters":10000,"station_id":"ce4bha12rcd13ifvqee0","pricing_plan_id":"cebpf4jnsgd1na2vs0mg"},{"bike_id":"019cbd95-f20f-4b55-9f8d-26453960c795","system_id":"levelo_inurba_marseille","lat":43.28469,"lon":5.35901,"is_reserved":false,"is_disabled":false,"rental_uris":{"android":"levelo://app?vid=019cbd95-f20f-4b55-9f8d-26453960c795","ios":"levelo://app?vid=019cbd95-f20f-4b55-9f8d-26453960c795"},"vehicle_type_id":"4","last_reported":1747217493,"current_range_meters":10000,"station_id":"ce4bhah2rcd13ifvqei0","pricing_plan_id":"cebpf4jnsgd1na2vs0mg"},{"bike_id":"cef4dd6b-9722-4c21-9b62-1862a2f76d1f","system_id":"levelo_inurba_marseille","lat":43.272067,"lon":5.391823,"is_reserved":false,"is_disabled":false,"rental_uris":{"android":"levelo://app?vid=cef4dd6b-9722-4c21-9b62-1862a2f76d1f","ios":"levelo://app?vid=cef4dd6b-9722-4c21-9b62-1862a2f76d1f"},"vehicle_type_id":"4","last_reported":1747217493,"current_range_meters":10000,"station_id":"ce4bhhp2rcd13ifvqfm0","pricing_plan_id":"cebpf4jnsgd1na2vs0mg"},{"bike_id":"52202e1a-d9c0-40fd-9746-818dfcbbbf8b","system_id":"levelo_inurba_marseille","lat":43.28499,"lon":5.38582,"is_reserved":false,"is_disabled":false,"rental_uris":{"android":"levelo://app?vid=52202e1a-d9c0-40fd-9746-818dfcbbbf8b","ios":"levelo://app?vid=52202e1a-d9c0-40fd-9746-818dfcbbbf8b"},"vehicle_type_id":"4","last_reported":1747217493,"current_range_meters":10800,"station_id":"ce4bh8p2rcd13ifvqeb0","pricing_plan_id":"cebpf4jnsgd1na2vs0mg"},{"bike_id":"50465f87-3d57-4d63-bc39-610feee2254c","system_id":"levelo_inurba_marseille","lat":43.285154,"lon":5.383966,"is_reserved":false,"is_disabled":false,"rental_uris":{"android":"levelo://app?vid=50465f87-3d57-4d63-bc39-610feee2254c","ios":"levelo://app?vid=50465f87-3d57-4d63-bc39-610feee2254c"},"vehicle_type_id":"4","last_reported":1747217493,"current_range_meters":10800,"station_id":"ce4bhg12rcd13ifvqf80","pricing_plan_id":"cebpf4jnsgd1na2vs0mg"},{"bike_id":"c01b8e04-c4d9-48f2-81be-6e7cd9622a46","system_id":"levelo_inurba_marseille","lat":43.26192,"lon":5.3745,"is_reserved":false,"is_disabled":false,"rental_uris":{"android":"levelo://app?vid=c01b8e04-c4d9-48f2-81be-6e7cd9622a46","ios":"levelo://app?vid=c01b8e04-c4d9-48f2-81be-6e7cd9622a46"},"vehicle_type_id":"4","last_reported":1747217493,"current_range_meters":10800,"station_id":"ce4bhgp2rcd13ifvqfc0","pricing_plan_id":"cebpf4jnsgd1na2vs0mg"},{"bike_id":"40c02d98-2abb-4ffe-b51b-2eb349bcf3e7","system_id":"levelo_inurba_marseille","lat":43.24672,"lon":5.38172,"is_reserved":false,"is_disabled":false,"rental_uris":{"android":"levelo://app?vid=40c02d98-2abb-4ffe-b51b-2eb349bcf3e7","ios":"levelo://app?vid=40c02d98-2abb-4ffe-b51b-2eb349bcf3e7"},"vehicle_type_id":"4","last_reported":1747217493,"current_range_meters":10800,"station_id":"ce4bhih2rcd13ifvqfr0","pricing_plan_id":"cebpf4jnsgd1na2vs0mg"},{"bike_id":"2d9c08c0-bf40-45c9-b1a8-d15c183a79bf","system_id":"levelo_inurba_marseille","lat":43.24176,"lon":5.39741,"is_reserved":false,"is_disabled":false,"rental_uris":{"android":"levelo://app?vid=2d9c08c0-bf40-45c9-b1a8-d15c183a79bf","ios":"levelo://app?vid=2d9c08c0-bf40-45c9-b1a8-d15c183a79bf"},"vehicle_type_id":"4","last_reported":1747217493,"current_range_meters":10800,"station_id":"ce4bhn12rcd13ifvqgpg","pricing_plan_id":"cebpf4jnsgd1na2vs0mg"},{"bike_id":"970b296e-c927-4bfc-89cc-9f289cee04a0","system_id":"levelo_inurba_marseille","lat":43.32107,"lon":5.36763,"is_reserved":false,"is_disabled":false,"rental_uris":{"android":"levelo://app?vid=970b296e-c927-4bfc-89cc-9f289cee04a0","ios":"levelo://app?vid=970b296e-c927-4bfc-89cc-9f289cee04a0"},"vehicle_type_id":"4","last_reported":1747217493,"current_range_meters":10800,"station_id":"ce4bhrh2rcd13ifvqhug","pricing_plan_id":"cebpf4jnsgd1na2vs0mg"},{"bike_id":"80e2ea7f-511c-4555-b6e4-0b32fa4ec3f0","system_id":"levelo_inurba_marseille","lat":43.305276,"lon":5.365328,"is_reserved":false,"is_disabled":false,"rental_uris":{"android":"levelo://app?vid=80e2ea7f-511c-4555-b6e4-0b32fa4ec3f0","ios":"levelo://app?vid=80e2ea7f-511c-4555-b6e4-0b32fa4ec3f0"},"vehicle_type_id":"4","last_reported":1747217493,"current_range_meters":11200,"station_id":"ce4bgs12rcd13ifvqcag","pricing_plan_id":"cebpf4jnsgd1na2vs0mg"},{"bike_id":"c5b49fd4-20d7-4694-9978-acab0a2553d7","system_id":"levelo_inurba_marseille","lat":43.30281,"lon":5.37702,"is_reserved":false,"is_disabled":false,"rental_uris":{"android":"levelo://app?vid=c5b49fd4-20d7-4694-9978-acab0a2553d7","ios":"levelo://app?vid=c5b49fd4-20d7-4694-9978-acab0a2553d7"},"vehicle_type_id":"4","last_reported":1747217493,"current_range_meters":11200,"station_id":"ce4bguh2rcd13ifvqcj0","pricing_plan_id":"cebpf4jnsgd1na2vs0mg"},{"bike_id":"ff98b847-da64-4de0-979f-c3b4ba27c3f2","system_id":"levelo_inurba_marseille","lat":43.27375,"lon":5.36258,"is_reserved":false,"is_disabled":false,"rental_uris":{"android":"levelo://app?vid=ff98b847-da64-4de0-979f-c3b4ba27c3f2","ios":"levelo://app?vid=ff98b847-da64-4de0-979f-c3b4ba27c3f2"},"vehicle_type_id":"4","last_reported":1747217493,"current_range_meters":11200,"station_id":"ce4bhbh2rcd13ifvqeo0","pricing_plan_id":"cebpf4jnsgd1na2vs0mg"},{"bike_id":"8c5f530e-a1ca-42f6-afa9-82a6df52a3d8","system_id":"levelo_inurba_marseille","lat":43.31993,"lon":5.38168,"is_reserved":false,"is_disabled":false,"rental_uris":{"android":"levelo://app?vid=8c5f530e-a1ca-42f6-afa9-82a6df52a3d8","ios":"levelo://app?vid=8c5f530e-a1ca-42f6-afa9-82a6df52a3d8"},"vehicle_type_id":"4","last_reported":1747217493,"current_range_meters":11200,"station_id":"ce4bhr12rcd13ifvqhpg","pricing_plan_id":"cebpf4jnsgd1na2vs0mg"},{"bike_id":"cd844e34-8c0e-477b-bd76-87c2a59c2ca8","system_id":"levelo_inurba_marseille","lat":43.2925,"lon":5.37681,"is_reserved":false,"is_disabled":false,"rental_uris":{"android":"levelo://app?vid=cd844e34-8c0e-477b-bd76-87c2a59c2ca8","ios":"levelo://app?vid=cd844e34-8c0e-477b-bd76-87c2a59c2ca8"},"vehicle_type_id":"4","last_reported":1747217493,"current_range_meters":11600,"station_id":"ce4bgi12rcd13ifvqb80","pricing_plan_id":"cebpf4jnsgd1na2vs0mg"},{"bike_id":"20de94ba-2d55-4ecb-aff2-5ab25e51fa41","system_id":"levelo_inurba_marseille","lat":43.31074,"lon":5.38363,"is_reserved":false,"is_disabled":false,"rental_uris":{"android":"levelo://app?vid=20de94ba-2d55-4ecb-aff2-5ab25e51fa41","ios":"levelo://app?vid=20de94ba-2d55-4ecb-aff2-5ab25e51fa41"},"vehicle_type_id":"4","last_reported":1747217493,"current_range_meters":11600,"station_id":"ce4bgv92rcd13ifvqcr0","pricing_plan_id":"cebpf4jnsgd1na2vs0mg"},{"bike_id":"940b3909-b6f0-4f89-adfd-175725c0aab3","system_id":"levelo_inurba_marseille","lat":43.25938,"lon":5.40897,"is_reserved":false,"is_disabled":false,"rental_uris":{"android":"levelo://app?vid=940b3909-b6f0-4f89-adfd-175725c0aab3","ios":"levelo://app?vid=940b3909-b6f0-4f89-adfd-175725c0aab3"},"vehicle_type_id":"4","last_reported":1747217493,"current_range_meters":11600,"station_id":"ce4bhm92rcd13ifvqglg","pricing_plan_id":"cebpf4jnsgd1na2vs0mg"},{"bike_id":"d91402de-e6e3-4577-89ea-24814ab57041","system_id":"levelo_inurba_marseille","lat":43.23153,"lon":5.43712,"is_reserved":false,"is_disabled":false,"rental_uris":{"android":"levelo://app?vid=d91402de-e6e3-4577-89ea-24814ab57041","ios":"levelo://app?vid=d91402de-e6e3-4577-89ea-24814ab57041"},"vehicle_type_id":"4","last_reported":1747217493,"current_range_meters":11600,"station_id":"ce4bhmp2rcd13ifvqgog","pricing_plan_id":"cebpf4jnsgd1na2vs0mg"},{"bike_id":"45cd3168-9d91-47df-b3a8-3a2e83ff8fd8","system_id":"levelo_inurba_marseille","lat":43.2315,"lon":5.43723,"is_reserved":false,"is_disabled":false,"rental_uris":{"android":"levelo://app?vid=45cd3168-9d91-47df-b3a8-3a2e83ff8fd8","ios":"levelo://app?vid=45cd3168-9d91-47df-b3a8-3a2e83ff8fd8"},"vehicle_type_id":"4","last_reported":1747217493,"current_range_meters":11600,"station_id":"ce4bhmp2rcd13ifvqgog","pricing_plan_id":"cebpf4jnsgd1na2vs0mg"},{"bike_id":"7395c0f9-eb26-4cbc-9f9b-9c1edf7364f4","system_id":"levelo_inurba_marseille","lat":43.3297,"lon":5.40564,"is_reserved":false,"is_disabled":false,"rental_uris":{"android":"levelo://app?vid=7395c0f9-eb26-4cbc-9f9b-9c1edf7364f4","ios":"levelo://app?vid=7395c0f9-eb26-4cbc-9f9b-9c1edf7364f4"},"vehicle_type_id":"4","last_reported":1747217493,"current_range_meters":12000,"station_id":"","pricing_plan_id":"cebpf4jnsgd1na2vs0mg"},{"bike_id":"e1b52372-8bf8-496d-8dcf-101dbb6e3dfe","system_id":"levelo_inurba_marseille","lat":43.291097,"lon":5.381253,"is_reserved":false,"is_disabled":false,"rental_uris":{"android":"levelo://app?vid=e1b52372-8bf8-496d-8dcf-101dbb6e3dfe","ios":"levelo://app?vid=e1b52372-8bf8-496d-8dcf-101dbb6e3dfe"},"vehicle_type_id":"4","last_reported":1747217493,"current_range_meters":12000,"station_id":"ce4bh512rcd13ifvqe2g","pricing_plan_id":"cebpf4jnsgd1na2vs0mg"},{"bike_id":"0ab6b8c1-b208-4709-8d06-8097217882ba","system_id":"levelo_inurba_marseille","lat":43.217496,"lon":5.345997,"is_reserved":false,"is_disabled":false,"rental_uris":{"android":"levelo://app?vid=0ab6b8c1-b208-4709-8d06-8097217882ba","ios":"levelo://app?vid=0ab6b8c1-b208-4709-8d06-8097217882ba"},"vehicle_type_id":"4","last_reported":1747217493,"current_range_meters":12000,"station_id":"st_cvj6r9ubvosntc0bgbag","pricing_plan_id":"cebpf4jnsgd1na2vs0mg"},{"bike_id":"dfb423ca-5aff-49db-9e19-40444dccc9a2","system_id":"levelo_inurba_marseille","lat":43.30895,"lon":5.36917,"is_reserved":false,"is_disabled":false,"rental_uris":{"android":"levelo://app?vid=dfb423ca-5aff-49db-9e19-40444dccc9a2","ios":"levelo://app?vid=dfb423ca-5aff-49db-9e19-40444dccc9a2"},"vehicle_type_id":"4","last_reported":1747217493,"current_range_meters":12400,"station_id":"","pricing_plan_id":"cebpf4jnsgd1na2vs0mg"},{"bike_id":"40115fd5-f59f-4b0c-9552-a95b14ed5e7f","system_id":"levelo_inurba_marseille","lat":43.30929,"lon":5.36839,"is_reserved":false,"is_disabled":false,"rental_uris":{"android":"levelo://app?vid=40115fd5-f59f-4b0c-9552-a95b14ed5e7f","ios":"levelo://app?vid=40115fd5-f59f-4b0c-9552-a95b14ed5e7f"},"vehicle_type_id":"4","last_reported":1747217493,"current_range_meters":12800,"station_id":"ce4bgn92rcd13ifvqbvg","pricing_plan_id":"cebpf4jnsgd1na2vs0mg"},{"bike_id":"20be7e85-e350-4398-a65c-4d686a9251cf","system_id":"levelo_inurba_marseille","lat":43.29853,"lon":5.36274,"is_reserved":false,"is_disabled":false,"rental_uris":{"android":"levelo://app?vid=20be7e85-e350-4398-a65c-4d686a9251cf","ios":"levelo://app?vid=20be7e85-e350-4398-a65c-4d686a9251cf"},"vehicle_type_id":"4","last_reported":1747217493,"current_range_meters":12800,"station_id":"ce4bgpp2rcd13ifvqc3g","pricing_plan_id":"cebpf4jnsgd1na2vs0mg"},{"bike_id":"356eb65b-4211-494a-b4a2-fba28f60c55b","system_id":"levelo_inurba_marseille","lat":43.312703,"lon":5.401672,"is_reserved":false,"is_disabled":false,"rental_uris":{"android":"levelo://app?vid=356eb65b-4211-494a-b4a2-fba28f60c55b","ios":"levelo://app?vid=356eb65b-4211-494a-b4a2-fba28f60c55b"},"vehicle_type_id":"4","last_reported":1747217493,"current_range_meters":13600,"station_id":"ce4bh092rcd13ifvqd30","pricing_plan_id":"cebpf4jnsgd1na2vs0mg"},{"bike_id":"46a4df82-ed4d-4ffb-9084-b0d168965e45","system_id":"levelo_inurba_marseille","lat":43.28025,"lon":5.36935,"is_reserved":false,"is_disabled":false,"rental_uris":{"android":"levelo://app?vid=46a4df82-ed4d-4ffb-9084-b0d168965e45","ios":"levelo://app?vid=46a4df82-ed4d-4ffb-9084-b0d168965e45"},"vehicle_type_id":"4","last_reported":1747217493,"current_range_meters":13600,"station_id":"ce4bha12rcd13ifvqef0","pricing_plan_id":"cebpf4jnsgd1na2vs0mg"},{"bike_id":"0317d5e4-8858-43da-8df7-6424312ec563","system_id":"levelo_inurba_marseille","lat":43.30415,"lon":5.41314,"is_reserved":false,"is_disabled":false,"rental_uris":{"android":"levelo://app?vid=0317d5e4-8858-43da-8df7-6424312ec563","ios":"levelo://app?vid=0317d5e4-8858-43da-8df7-6424312ec563"},"vehicle_type_id":"4","last_reported":1747217493,"current_range_meters":13600,"station_id":"ce4bhop2rcd13ifvqh8g","pricing_plan_id":"cebpf4jnsgd1na2vs0mg"},{"bike_id":"1e297e0e-a907-489c-9a22-1dfb89bfb64f","system_id":"levelo_inurba_marseille","lat":43.29254,"lon":5.36416,"is_reserved":false,"is_disabled":false,"rental_uris":{"android":"levelo://app?vid=1e297e0e-a907-489c-9a22-1dfb89bfb64f","ios":"levelo://app?vid=1e297e0e-a907-489c-9a22-1dfb89bfb64f"},"vehicle_type_id":"4","last_reported":1747217493,"current_range_meters":14000,"station_id":"","pricing_plan_id":"cebpf4jnsgd1na2vs0mg"},{"bike_id":"1dffea47-932b-472d-a926-7c8a262923fb","system_id":"levelo_inurba_marseille","lat":43.25934,"lon":5.40891,"is_reserved":false,"is_disabled":false,"rental_uris":{"android":"levelo://app?vid=1dffea47-932b-472d-a926-7c8a262923fb","ios":"levelo://app?vid=1dffea47-932b-472d-a926-7c8a262923fb"},"vehicle_type_id":"4","last_reported":1747217493,"current_range_meters":14000,"station_id":"ce4bhm92rcd13ifvqglg","pricing_plan_id":"cebpf4jnsgd1na2vs0mg"},{"bike_id":"ef8b8435-5a14-4516-ac5d-8d497e1e85ba","system_id":"levelo_inurba_marseille","lat":43.25926,"lon":5.4091,"is_reserved":false,"is_disabled":false,"rental_uris":{"android":"levelo://app?vid=ef8b8435-5a14-4516-ac5d-8d497e1e85ba","ios":"levelo://app?vid=ef8b8435-5a14-4516-ac5d-8d497e1e85ba"},"vehicle_type_id":"4","last_reported":1747217493,"current_range_meters":14000,"station_id":"ce4bhm92rcd13ifvqglg","pricing_plan_id":"cebpf4jnsgd1na2vs0mg"},{"bike_id":"2dd664ef-527c-4fd8-90a6-dc5ad0763560","system_id":"levelo_inurba_marseille","lat":43.27989,"lon":5.41668,"is_reserved":false,"is_disabled":false,"rental_uris":{"android":"levelo://app?vid=2dd664ef-527c-4fd8-90a6-dc5ad0763560","ios":"levelo://app?vid=2dd664ef-527c-4fd8-90a6-dc5ad0763560"},"vehicle_type_id":"4","last_reported":1747217493,"current_range_meters":14400,"station_id":"ce4bho12rcd13ifvqh1g","pricing_plan_id":"cebpf4jnsgd1na2vs0mg"},{"bike_id":"0ee57cd3-b290-46af-a35a-6f306772e452","system_id":"levelo_inurba_marseille","lat":43.30662,"lon":5.40273,"is_reserved":false,"is_disabled":false,"rental_uris":{"android":"levelo://app?vid=0ee57cd3-b290-46af-a35a-6f306772e452","ios":"levelo://app?vid=0ee57cd3-b290-46af-a35a-6f306772e452"},"vehicle_type_id":"4","last_reported":1747217493,"current_range_meters":14800,"station_id":"","pricing_plan_id":"cebpf4jnsgd1na2vs0mg"},{"bike_id":"cf748dd6-d3e7-4171-8c1f-3a4e5dfbf4fb","system_id":"levelo_inurba_marseille","lat":43.29883,"lon":5.38899,"is_reserved":false,"is_disabled":false,"rental_uris":{"android":"levelo://app?vid=cf748dd6-d3e7-4171-8c1f-3a4e5dfbf4fb","ios":"levelo://app?vid=cf748dd6-d3e7-4171-8c1f-3a4e5dfbf4fb"},"vehicle_type_id":"4","last_reported":1747217493,"current_range_meters":14800,"station_id":"ce4bh392rcd13ifvqdl0","pricing_plan_id":"cebpf4jnsgd1na2vs0mg"},{"bike_id":"014bef53-af0e-48e7-ad43-98d4a2618334","system_id":"levelo_inurba_marseille","lat":43.25497,"lon":5.37648,"is_reserved":false,"is_disabled":false,"rental_uris":{"android":"levelo://app?vid=014bef53-af0e-48e7-ad43-98d4a2618334","ios":"levelo://app?vid=014bef53-af0e-48e7-ad43-98d4a2618334"},"vehicle_type_id":"4","last_reported":1747217493,"current_range_meters":14800,"station_id":"ce4bhh12rcd13ifvqff0","pricing_plan_id":"cebpf4jnsgd1na2vs0mg"},{"bike_id":"2ba6460c-7fa2-4b74-a9dc-70e733548168","system_id":"levelo_inurba_marseille","lat":43.27617,"lon":5.36104,"is_reserved":false,"is_disabled":false,"rental_uris":{"android":"levelo://app?vid=2ba6460c-7fa2-4b74-a9dc-70e733548168","ios":"levelo://app?vid=2ba6460c-7fa2-4b74-a9dc-70e733548168"},"vehicle_type_id":"4","last_reported":1747217493,"current_range_meters":15200,"station_id":"ce4bgj92rcd13ifvqbe0","pricing_plan_id":"cebpf4jnsgd1na2vs0mg"},{"bike_id":"288ee187-cb95-47c3-b1dd-aa5eee972d5f","system_id":"levelo_inurba_marseille","lat":43.29794,"lon":5.40402,"is_reserved":false,"is_disabled":false,"rental_uris":{"android":"levelo://app?vid=288ee187-cb95-47c3-b1dd-aa5eee972d5f","ios":"levelo://app?vid=288ee187-cb95-47c3-b1dd-aa5eee972d5f"},"vehicle_type_id":"4","last_reported":1747217493,"current_range_meters":15200,"station_id":"ce4bh112rcd13ifvqd90","pricing_plan_id":"cebpf4jnsgd1na2vs0mg"},{"bike_id":"d0b8d0a5-6b8c-4d70-b046-6a5754b291ef","system_id":"levelo_inurba_marseille","lat":43.28375,"lon":5.3864,"is_reserved":false,"is_disabled":false,"rental_uris":{"android":"levelo://app?vid=d0b8d0a5-6b8c-4d70-b046-6a5754b291ef","ios":"levelo://app?vid=d0b8d0a5-6b8c-4d70-b046-6a5754b291ef"},"vehicle_type_id":"4","last_reported":1747217493,"current_range_meters":15200,"station_id":"ce4bh492rcd13ifvqdvg","pricing_plan_id":"cebpf4jnsgd1na2vs0mg"},{"bike_id":"b358e4a6-945c-4e4d-9433-46a669e1bbab","system_id":"levelo_inurba_marseille","lat":43.28266,"lon":5.35064,"is_reserved":false,"is_disabled":false,"rental_uris":{"android":"levelo://app?vid=b358e4a6-945c-4e4d-9433-46a669e1bbab","ios":"levelo://app?vid=b358e4a6-945c-4e4d-9433-46a669e1bbab"},"vehicle_type_id":"4","last_reported":1747217493,"current_range_meters":15200,"station_id":"ce4bhbp2rcd13ifvqerg","pricing_plan_id":"cebpf4jnsgd1na2vs0mg"},{"bike_id":"20b335f8-9934-40f9-a4dd-675012c56e2e","system_id":"levelo_inurba_marseille","lat":43.305979,"lon":5.372306,"is_reserved":false,"is_disabled":false,"rental_uris":{"android":"levelo://app?vid=20b335f8-9934-40f9-a4dd-675012c56e2e","ios":"levelo://app?vid=20b335f8-9934-40f9-a4dd-675012c56e2e"},"vehicle_type_id":"4","last_reported":1747217493,"current_range_meters":16000,"station_id":"","pricing_plan_id":"cebpf4jnsgd1na2vs0mg"},{"bike_id":"f0461f09-2cb2-4b60-be17-9880adc6dc06","system_id":"levelo_inurba_marseille","lat":43.30923,"lon":5.36889,"is_reserved":false,"is_disabled":false,"rental_uris":{"android":"levelo://app?vid=f0461f09-2cb2-4b60-be17-9880adc6dc06","ios":"levelo://app?vid=f0461f09-2cb2-4b60-be17-9880adc6dc06"},"vehicle_type_id":"4","last_reported":1747217493,"current_range_meters":16000,"station_id":"ce4bgn92rcd13ifvqbvg","pricing_plan_id":"cebpf4jnsgd1na2vs0mg"},{"bike_id":"3c855199-68ef-4b73-91c5-9c5620ddd198","system_id":"levelo_inurba_marseille","lat":43.31356,"lon":5.36736,"is_reserved":false,"is_disabled":false,"rental_uris":{"android":"levelo://app?vid=3c855199-68ef-4b73-91c5-9c5620ddd198","ios":"levelo://app?vid=3c855199-68ef-4b73-91c5-9c5620ddd198"},"vehicle_type_id":"4","last_reported":1747217493,"current_range_meters":16000,"station_id":"ce4bgr92rcd13ifvqc6g","pricing_plan_id":"cebpf4jnsgd1na2vs0mg"},{"bike_id":"c40b8f11-0bc0-48c8-92c7-ec58046b71ac","system_id":"levelo_inurba_marseille","lat":43.2827,"lon":5.350642,"is_reserved":false,"is_disabled":false,"rental_uris":{"android":"levelo://app?vid=c40b8f11-0bc0-48c8-92c7-ec58046b71ac","ios":"levelo://app?vid=c40b8f11-0bc0-48c8-92c7-ec58046b71ac"},"vehicle_type_id":"4","last_reported":1747217493,"current_range_meters":16000,"station_id":"ce4bhbp2rcd13ifvqerg","pricing_plan_id":"cebpf4jnsgd1na2vs0mg"},{"bike_id":"1c5b676c-9de4-49c9-8aa1-3578233e2190","system_id":"levelo_inurba_marseille","lat":43.33585,"lon":5.40974,"is_reserved":false,"is_disabled":false,"rental_uris":{"android":"levelo://app?vid=1c5b676c-9de4-49c9-8aa1-3578233e2190","ios":"levelo://app?vid=1c5b676c-9de4-49c9-8aa1-3578233e2190"},"vehicle_type_id":"4","last_reported":1747217493,"current_range_meters":16000,"station_id":"ce4bhqh2rcd13ifvqhmg","pricing_plan_id":"cebpf4jnsgd1na2vs0mg"},{"bike_id":"5e794677-7be6-46d4-b252-ad01dc1dd61b","system_id":"levelo_inurba_marseille","lat":43.24426,"lon":5.37066,"is_reserved":false,"is_disabled":false,"rental_uris":{"android":"levelo://app?vid=5e794677-7be6-46d4-b252-ad01dc1dd61b","ios":"levelo://app?vid=5e794677-7be6-46d4-b252-ad01dc1dd61b"},"vehicle_type_id":"4","last_reported":1747217493,"current_range_meters":16400,"station_id":"ce4bhhh2rcd13ifvqfk0","pricing_plan_id":"cebpf4jnsgd1na2vs0mg"},{"bike_id":"69757105-9188-4d0d-87fa-3cb5b4a9e6c7","system_id":"levelo_inurba_marseille","lat":43.231502,"lon":5.437181,"is_reserved":false,"is_disabled":false,"rental_uris":{"android":"levelo://app?vid=69757105-9188-4d0d-87fa-3cb5b4a9e6c7","ios":"levelo://app?vid=69757105-9188-4d0d-87fa-3cb5b4a9e6c7"},"vehicle_type_id":"4","last_reported":1747217493,"current_range_meters":16400,"station_id":"ce4bhmp2rcd13ifvqgog","pricing_plan_id":"cebpf4jnsgd1na2vs0mg"},{"bike_id":"abfb92f6-8d0f-4b08-9ee4-7aa1cbf9fe97","system_id":"levelo_inurba_marseille","lat":43.26798,"lon":5.40268,"is_reserved":false,"is_disabled":false,"rental_uris":{"android":"levelo://app?vid=abfb92f6-8d0f-4b08-9ee4-7aa1cbf9fe97","ios":"levelo://app?vid=abfb92f6-8d0f-4b08-9ee4-7aa1cbf9fe97"},"vehicle_type_id":"4","last_reported":1747217493,"current_range_meters":16400,"station_id":"ce501612rcd8frsf0b60","pricing_plan_id":"cebpf4jnsgd1na2vs0mg"},{"bike_id":"c5a6038e-e242-4c42-a6da-186787771b16","system_id":"levelo_inurba_marseille","lat":43.21751,"lon":5.34609,"is_reserved":false,"is_disabled":false,"rental_uris":{"android":"levelo://app?vid=c5a6038e-e242-4c42-a6da-186787771b16","ios":"levelo://app?vid=c5a6038e-e242-4c42-a6da-186787771b16"},"vehicle_type_id":"4","last_reported":1747217493,"current_range_meters":16400,"station_id":"st_cvj6r9ubvosntc0bgbag","pricing_plan_id":"cebpf4jnsgd1na2vs0mg"},{"bike_id":"6bc4d3dd-7663-476a-b29e-6612440bdfbc","system_id":"levelo_inurba_marseille","lat":43.27936,"lon":5.41046,"is_reserved":false,"is_disabled":false,"rental_uris":{"android":"levelo://app?vid=6bc4d3dd-7663-476a-b29e-6612440bdfbc","ios":"levelo://app?vid=6bc4d3dd-7663-476a-b29e-6612440bdfbc"},"vehicle_type_id":"4","last_reported":1747217493,"current_range_meters":16800,"station_id":"ce4bhnp2rcd13ifvqh0g","pricing_plan_id":"cebpf4jnsgd1na2vs0mg"},{"bike_id":"c31e5abf-211d-43ee-bd94-73969be1843c","system_id":"levelo_inurba_marseille","lat":43.33608,"lon":5.41034,"is_reserved":false,"is_disabled":false,"rental_uris":{"android":"levelo://app?vid=c31e5abf-211d-43ee-bd94-73969be1843c","ios":"levelo://app?vid=c31e5abf-211d-43ee-bd94-73969be1843c"},"vehicle_type_id":"4","last_reported":1747217493,"current_range_meters":16800,"station_id":"ce4bhqh2rcd13ifvqhmg","pricing_plan_id":"cebpf4jnsgd1na2vs0mg"},{"bike_id":"c77744cd-dd85-473a-952b-e9873b6afa4f","system_id":"levelo_inurba_marseille","lat":43.33236,"lon":5.40421,"is_reserved":false,"is_disabled":false,"rental_uris":{"android":"levelo://app?vid=c77744cd-dd85-473a-952b-e9873b6afa4f","ios":"levelo://app?vid=c77744cd-dd85-473a-952b-e9873b6afa4f"},"vehicle_type_id":"4","last_reported":1747217493,"current_range_meters":17200,"station_id":"","pricing_plan_id":"cebpf4jnsgd1na2vs0mg"},{"bike_id":"c0daaaf9-e6fd-4259-bd00-00b3169616a6","system_id":"levelo_inurba_marseille","lat":43.33574,"lon":5.40964,"is_reserved":false,"is_disabled":false,"rental_uris":{"android":"levelo://app?vid=c0daaaf9-e6fd-4259-bd00-00b3169616a6","ios":"levelo://app?vid=c0daaaf9-e6fd-4259-bd00-00b3169616a6"},"vehicle_type_id":"4","last_reported":1747217493,"current_range_meters":17200,"station_id":"","pricing_plan_id":"cebpf4jnsgd1na2vs0mg"},{"bike_id":"8c882482-d271-420f-a4e9-831677c3410a","system_id":"levelo_inurba_marseille","lat":43.30548,"lon":5.36721,"is_reserved":false,"is_disabled":false,"rental_uris":{"android":"levelo://app?vid=8c882482-d271-420f-a4e9-831677c3410a","ios":"levelo://app?vid=8c882482-d271-420f-a4e9-831677c3410a"},"vehicle_type_id":"4","last_reported":1747217493,"current_range_meters":17200,"station_id":"ce4bgrp2rcd13ifvqc9g","pricing_plan_id":"cebpf4jnsgd1na2vs0mg"},{"bike_id":"8ddf2484-9cdc-4cd6-a517-d3e9033cc97f","system_id":"levelo_inurba_marseille","lat":43.274019,"lon":5.393777,"is_reserved":false,"is_disabled":false,"rental_uris":{"android":"levelo://app?vid=8ddf2484-9cdc-4cd6-a517-d3e9033cc97f","ios":"levelo://app?vid=8ddf2484-9cdc-4cd6-a517-d3e9033cc97f"},"vehicle_type_id":"4","last_reported":1747217493,"current_range_meters":17200,"station_id":"ce4bhdp2rcd13ifvqf20","pricing_plan_id":"cebpf4jnsgd1na2vs0mg"},{"bike_id":"81df83bd-96fe-4025-8404-279d0c4d21a9","system_id":"levelo_inurba_marseille","lat":43.25939,"lon":5.40917,"is_reserved":false,"is_disabled":false,"rental_uris":{"android":"levelo://app?vid=81df83bd-96fe-4025-8404-279d0c4d21a9","ios":"levelo://app?vid=81df83bd-96fe-4025-8404-279d0c4d21a9"},"vehicle_type_id":"4","last_reported":1747217493,"current_range_meters":17200,"station_id":"ce4bhm92rcd13ifvqglg","pricing_plan_id":"cebpf4jnsgd1na2vs0mg"},{"bike_id":"5b2bf2cc-e79c-4a99-a91f-20d49657d90b","system_id":"levelo_inurba_marseille","lat":43.24179,"lon":5.39741,"is_reserved":false,"is_disabled":false,"rental_uris":{"android":"levelo://app?vid=5b2bf2cc-e79c-4a99-a91f-20d49657d90b","ios":"levelo://app?vid=5b2bf2cc-e79c-4a99-a91f-20d49657d90b"},"vehicle_type_id":"4","last_reported":1747217493,"current_range_meters":17200,"station_id":"ce4bhn12rcd13ifvqgpg","pricing_plan_id":"cebpf4jnsgd1na2vs0mg"},{"bike_id":"5647a91f-31a6-41fb-82bb-83893a94fc73","system_id":"levelo_inurba_marseille","lat":43.21198,"lon":5.35051,"is_reserved":false,"is_disabled":false,"rental_uris":{"android":"levelo://app?vid=5647a91f-31a6-41fb-82bb-83893a94fc73","ios":"levelo://app?vid=5647a91f-31a6-41fb-82bb-83893a94fc73"},"vehicle_type_id":"4","last_reported":1747217493,"current_range_meters":17200,"station_id":"st_cvj6sg6p6f1abm77japg","pricing_plan_id":"cebpf4jnsgd1na2vs0mg"},{"bike_id":"6ed6b045-5fdd-4b23-810c-9f519910480c","system_id":"levelo_inurba_marseille","lat":43.30895,"lon":5.36858,"is_reserved":false,"is_disabled":false,"rental_uris":{"android":"levelo://app?vid=6ed6b045-5fdd-4b23-810c-9f519910480c","ios":"levelo://app?vid=6ed6b045-5fdd-4b23-810c-9f519910480c"},"vehicle_type_id":"4","last_reported":1747217493,"current_range_meters":17600,"station_id":"ce4bgn92rcd13ifvqbvg","pricing_plan_id":"cebpf4jnsgd1na2vs0mg"},{"bike_id":"79551c89-5000-4c4f-9697-71b8d28a3132","system_id":"levelo_inurba_marseille","lat":43.31344,"lon":5.36744,"is_reserved":false,"is_disabled":false,"rental_uris":{"android":"levelo://app?vid=79551c89-5000-4c4f-9697-71b8d28a3132","ios":"levelo://app?vid=79551c89-5000-4c4f-9697-71b8d28a3132"},"vehicle_type_id":"4","last_reported":1747217493,"current_range_meters":17600,"station_id":"ce4bgr92rcd13ifvqc6g","pricing_plan_id":"cebpf4jnsgd1na2vs0mg"},{"bike_id":"af4475bc-32e1-46d9-a06d-9686a61f7fbc","system_id":"levelo_inurba_marseille","lat":43.28476,"lon":5.38419,"is_reserved":false,"is_disabled":false,"rental_uris":{"android":"levelo://app?vid=af4475bc-32e1-46d9-a06d-9686a61f7fbc","ios":"levelo://app?vid=af4475bc-32e1-46d9-a06d-9686a61f7fbc"},"vehicle_type_id":"4","last_reported":1747217493,"current_range_meters":17600,"station_id":"ce4bh512rcd13ifvqe3g","pricing_plan_id":"cebpf4jnsgd1na2vs0mg"},{"bike_id":"160b125c-1b34-4088-ba69-3a67b6cf1ef3","system_id":"levelo_inurba_marseille","lat":43.26214,"lon":5.37453,"is_reserved":false,"is_disabled":false,"rental_uris":{"android":"levelo://app?vid=160b125c-1b34-4088-ba69-3a67b6cf1ef3","ios":"levelo://app?vid=160b125c-1b34-4088-ba69-3a67b6cf1ef3"},"vehicle_type_id":"4","last_reported":1747217493,"current_range_meters":17600,"station_id":"ce4bhgp2rcd13ifvqfc0","pricing_plan_id":"cebpf4jnsgd1na2vs0mg"},{"bike_id":"d39dbf52-b6ed-452b-bfe6-660d94ede48f","system_id":"levelo_inurba_marseille","lat":43.24549,"lon":5.39521,"is_reserved":false,"is_disabled":false,"rental_uris":{"android":"levelo://app?vid=d39dbf52-b6ed-452b-bfe6-660d94ede48f","ios":"levelo://app?vid=d39dbf52-b6ed-452b-bfe6-660d94ede48f"},"vehicle_type_id":"4","last_reported":1747217493,"current_range_meters":17600,"station_id":"ce4bhlp2rcd13ifvqgjg","pricing_plan_id":"cebpf4jnsgd1na2vs0mg"},{"bike_id":"7a906d5d-d156-472a-a645-d2ee30c1fbc8","system_id":"levelo_inurba_marseille","lat":43.33607,"lon":5.40982,"is_reserved":false,"is_disabled":false,"rental_uris":{"android":"levelo://app?vid=7a906d5d-d156-472a-a645-d2ee30c1fbc8","ios":"levelo://app?vid=7a906d5d-d156-472a-a645-d2ee30c1fbc8"},"vehicle_type_id":"4","last_reported":1747217493,"current_range_meters":17600,"station_id":"ce4bhqh2rcd13ifvqhmg","pricing_plan_id":"cebpf4jnsgd1na2vs0mg"},{"bike_id":"5d370f72-1749-4f0b-9815-d32525a7fd58","system_id":"levelo_inurba_marseille","lat":43.33785,"lon":5.37424,"is_reserved":false,"is_disabled":false,"rental_uris":{"android":"levelo://app?vid=5d370f72-1749-4f0b-9815-d32525a7fd58","ios":"levelo://app?vid=5d370f72-1749-4f0b-9815-d32525a7fd58"},"vehicle_type_id":"4","last_reported":1747217493,"current_range_meters":18000,"station_id":"","pricing_plan_id":"cebpf4jnsgd1na2vs0mg"},{"bike_id":"f83e264b-0ad9-47d8-a6e2-7e66a521c767","system_id":"levelo_inurba_marseille","lat":43.26548,"lon":5.37277,"is_reserved":false,"is_disabled":false,"rental_uris":{"android":"levelo://app?vid=f83e264b-0ad9-47d8-a6e2-7e66a521c767","ios":"levelo://app?vid=f83e264b-0ad9-47d8-a6e2-7e66a521c767"},"vehicle_type_id":"4","last_reported":1747217493,"current_range_meters":18000,"station_id":"ce4bhg12rcd13ifvqf70","pricing_plan_id":"cebpf4jnsgd1na2vs0mg"},{"bike_id":"e409cd08-b9c4-4d62-aefb-05d029e2c480","system_id":"levelo_inurba_marseille","lat":43.330333,"lon":5.41057,"is_reserved":false,"is_disabled":false,"rental_uris":{"android":"levelo://app?vid=e409cd08-b9c4-4d62-aefb-05d029e2c480","ios":"levelo://app?vid=e409cd08-b9c4-4d62-aefb-05d029e2c480"},"vehicle_type_id":"4","last_reported":1747217493,"current_range_meters":18800,"station_id":"","pricing_plan_id":"cebpf4jnsgd1na2vs0mg"},{"bike_id":"d74dda0c-2ae8-4a20-aee3-80ba3b692d64","system_id":"levelo_inurba_marseille","lat":43.3044,"lon":5.37179,"is_reserved":false,"is_disabled":false,"rental_uris":{"android":"levelo://app?vid=d74dda0c-2ae8-4a20-aee3-80ba3b692d64","ios":"levelo://app?vid=d74dda0c-2ae8-4a20-aee3-80ba3b692d64"},"vehicle_type_id":"4","last_reported":1747217493,"current_range_meters":18800,"station_id":"","pricing_plan_id":"cebpf4jnsgd1na2vs0mg"},{"bike_id":"fce239a4-cd5a-44e5-969f-3ce00530c244","system_id":"levelo_inurba_marseille","lat":43.29269,"lon":5.37638,"is_reserved":false,"is_disabled":false,"rental_uris":{"android":"levelo://app?vid=fce239a4-cd5a-44e5-969f-3ce00530c244","ios":"levelo://app?vid=fce239a4-cd5a-44e5-969f-3ce00530c244"},"vehicle_type_id":"4","last_reported":1747217493,"current_range_meters":18800,"station_id":"ce4bgi12rcd13ifvqb80","pricing_plan_id":"cebpf4jnsgd1na2vs0mg"},{"bike_id":"63b3b2cf-7c68-4841-b62c-5b9e97830b38","system_id":"levelo_inurba_marseille","lat":43.25939,"lon":5.40901,"is_reserved":false,"is_disabled":false,"rental_uris":{"android":"levelo://app?vid=63b3b2cf-7c68-4841-b62c-5b9e97830b38","ios":"levelo://app?vid=63b3b2cf-7c68-4841-b62c-5b9e97830b38"},"vehicle_type_id":"4","last_reported":1747217493,"current_range_meters":18800,"station_id":"ce4bhm92rcd13ifvqglg","pricing_plan_id":"cebpf4jnsgd1na2vs0mg"},{"bike_id":"33fe249f-7ac4-4a1f-80ee-2397fc46fd50","system_id":"levelo_inurba_marseille","lat":43.23153,"lon":5.43711,"is_reserved":false,"is_disabled":false,"rental_uris":{"android":"levelo://app?vid=33fe249f-7ac4-4a1f-80ee-2397fc46fd50","ios":"levelo://app?vid=33fe249f-7ac4-4a1f-80ee-2397fc46fd50"},"vehicle_type_id":"4","last_reported":1747217493,"current_range_meters":18800,"station_id":"ce4bhmp2rcd13ifvqgog","pricing_plan_id":"cebpf4jnsgd1na2vs0mg"},{"bike_id":"c785251c-780d-4a50-9ca1-3185167bc6d2","system_id":"levelo_inurba_marseille","lat":43.23154,"lon":5.4372,"is_reserved":false,"is_disabled":false,"rental_uris":{"android":"levelo://app?vid=c785251c-780d-4a50-9ca1-3185167bc6d2","ios":"levelo://app?vid=c785251c-780d-4a50-9ca1-3185167bc6d2"},"vehicle_type_id":"4","last_reported":1747217493,"current_range_meters":18800,"station_id":"ce4bhmp2rcd13ifvqgog","pricing_plan_id":"cebpf4jnsgd1na2vs0mg"},{"bike_id":"4269a203-34b5-408c-9237-8b2f72169f12","system_id":"levelo_inurba_marseille","lat":43.23149,"lon":5.43711,"is_reserved":false,"is_disabled":false,"rental_uris":{"android":"levelo://app?vid=4269a203-34b5-408c-9237-8b2f72169f12","ios":"levelo://app?vid=4269a203-34b5-408c-9237-8b2f72169f12"},"vehicle_type_id":"4","last_reported":1747217493,"current_range_meters":18800,"station_id":"ce4bhmp2rcd13ifvqgog","pricing_plan_id":"cebpf4jnsgd1na2vs0mg"},{"bike_id":"644511a3-94a8-4d9e-a99e-a8a4681f0634","system_id":"levelo_inurba_marseille","lat":43.24175,"lon":5.39737,"is_reserved":false,"is_disabled":false,"rental_uris":{"android":"levelo://app?vid=644511a3-94a8-4d9e-a99e-a8a4681f0634","ios":"levelo://app?vid=644511a3-94a8-4d9e-a99e-a8a4681f0634"},"vehicle_type_id":"4","last_reported":1747217493,"current_range_meters":18800,"station_id":"ce4bhn12rcd13ifvqgpg","pricing_plan_id":"cebpf4jnsgd1na2vs0mg"},{"bike_id":"ac0112c9-313e-422c-910b-a3523b05b0c9","system_id":"levelo_inurba_marseille","lat":43.23056,"lon":5.35489,"is_reserved":false,"is_disabled":false,"rental_uris":{"android":"levelo://app?vid=ac0112c9-313e-422c-910b-a3523b05b0c9","ios":"levelo://app?vid=ac0112c9-313e-422c-910b-a3523b05b0c9"},"vehicle_type_id":"4","last_reported":1747217493,"current_range_meters":18800,"station_id":"cpo3342slgdg3j2ifvpg","pricing_plan_id":"cebpf4jnsgd1na2vs0mg"},{"bike_id":"b42c1caf-6223-432c-a14e-ca1d54a282da","system_id":"levelo_inurba_marseille","lat":43.30799,"lon":5.38164,"is_reserved":false,"is_disabled":false,"rental_uris":{"android":"levelo://app?vid=b42c1caf-6223-432c-a14e-ca1d54a282da","ios":"levelo://app?vid=b42c1caf-6223-432c-a14e-ca1d54a282da"},"vehicle_type_id":"4","last_reported":1747217493,"current_range_meters":19200,"station_id":"ce4bgt12rcd13ifvqce0","pricing_plan_id":"cebpf4jnsgd1na2vs0mg"},{"bike_id":"848a305e-a782-426b-b344-ae683f56e5ca","system_id":"levelo_inurba_marseille","lat":43.28624,"lon":5.35102,"is_reserved":false,"is_disabled":false,"rental_uris":{"android":"levelo://app?vid=848a305e-a782-426b-b344-ae683f56e5ca","ios":"levelo://app?vid=848a305e-a782-426b-b344-ae683f56e5ca"},"vehicle_type_id":"4","last_reported":1747217493,"current_range_meters":19200,"station_id":"ce4bhch2rcd13ifvqeug","pricing_plan_id":"cebpf4jnsgd1na2vs0mg"},{"bike_id":"fdf5099d-3cb8-4fb5-90c4-f9dcbc7c2a8c","system_id":"levelo_inurba_marseille","lat":43.25958,"lon":5.40876,"is_reserved":false,"is_disabled":false,"rental_uris":{"android":"levelo://app?vid=fdf5099d-3cb8-4fb5-90c4-f9dcbc7c2a8c","ios":"levelo://app?vid=fdf5099d-3cb8-4fb5-90c4-f9dcbc7c2a8c"},"vehicle_type_id":"4","last_reported":1747217493,"current_range_meters":19200,"station_id":"ce4bhm92rcd13ifvqglg","pricing_plan_id":"cebpf4jnsgd1na2vs0mg"},{"bike_id":"341b3aaf-7b6b-4438-8a74-8bf62851b1a0","system_id":"levelo_inurba_marseille","lat":43.29555,"lon":5.42287,"is_reserved":false,"is_disabled":false,"rental_uris":{"android":"levelo://app?vid=341b3aaf-7b6b-4438-8a74-8bf62851b1a0","ios":"levelo://app?vid=341b3aaf-7b6b-4438-8a74-8bf62851b1a0"},"vehicle_type_id":"4","last_reported":1747217493,"current_range_meters":19200,"station_id":"ce4bhph2rcd13ifvqhdg","pricing_plan_id":"cebpf4jnsgd1na2vs0mg"},{"bike_id":"fb4e18ea-2c06-4f85-8ef3-280d26a9a9e7","system_id":"levelo_inurba_marseille","lat":43.21746,"lon":5.34598,"is_reserved":false,"is_disabled":false,"rental_uris":{"android":"levelo://app?vid=fb4e18ea-2c06-4f85-8ef3-280d26a9a9e7","ios":"levelo://app?vid=fb4e18ea-2c06-4f85-8ef3-280d26a9a9e7"},"vehicle_type_id":"4","last_reported":1747217493,"current_range_meters":19200,"station_id":"st_cvj6r9ubvosntc0bgbag","pricing_plan_id":"cebpf4jnsgd1na2vs0mg"},{"bike_id":"d9293c46-4f96-4fc8-b2c2-9959f8574602","system_id":"levelo_inurba_marseille","lat":43.31337,"lon":5.36717,"is_reserved":false,"is_disabled":false,"rental_uris":{"android":"levelo://app?vid=d9293c46-4f96-4fc8-b2c2-9959f8574602","ios":"levelo://app?vid=d9293c46-4f96-4fc8-b2c2-9959f8574602"},"vehicle_type_id":"4","last_reported":1747217493,"current_range_meters":19600,"station_id":"ce4bgr92rcd13ifvqc6g","pricing_plan_id":"cebpf4jnsgd1na2vs0mg"},{"bike_id":"8c32ae4c-85e3-47df-af02-7e8ca739be33","system_id":"levelo_inurba_marseille","lat":43.30543,"lon":5.36524,"is_reserved":false,"is_disabled":false,"rental_uris":{"android":"levelo://app?vid=8c32ae4c-85e3-47df-af02-7e8ca739be33","ios":"levelo://app?vid=8c32ae4c-85e3-47df-af02-7e8ca739be33"},"vehicle_type_id":"4","last_reported":1747217493,"current_range_meters":19600,"station_id":"ce4bgs12rcd13ifvqcag","pricing_plan_id":"cebpf4jnsgd1na2vs0mg"},{"bike_id":"54dea0b4-6de1-49f4-b984-880e150e7e1b","system_id":"levelo_inurba_marseille","lat":43.27434,"lon":5.39411,"is_reserved":false,"is_disabled":false,"rental_uris":{"android":"levelo://app?vid=54dea0b4-6de1-49f4-b984-880e150e7e1b","ios":"levelo://app?vid=54dea0b4-6de1-49f4-b984-880e150e7e1b"},"vehicle_type_id":"4","last_reported":1747217493,"current_range_meters":19600,"station_id":"ce4bhdp2rcd13ifvqf20","pricing_plan_id":"cebpf4jnsgd1na2vs0mg"},{"bike_id":"94bfaac1-5296-44ba-887f-1eaf56389800","system_id":"levelo_inurba_marseille","lat":43.246514,"lon":5.389212,"is_reserved":false,"is_disabled":false,"rental_uris":{"android":"levelo://app?vid=94bfaac1-5296-44ba-887f-1eaf56389800","ios":"levelo://app?vid=94bfaac1-5296-44ba-887f-1eaf56389800"},"vehicle_type_id":"4","last_reported":1747217493,"current_range_meters":19600,"station_id":"ce4bhg12rcd13ifvqf60","pricing_plan_id":"cebpf4jnsgd1na2vs0mg"},{"bike_id":"38211f5a-9e6b-43fb-a533-35898239b6a3","system_id":"levelo_inurba_marseille","lat":43.23956,"lon":5.36641,"is_reserved":false,"is_disabled":false,"rental_uris":{"android":"levelo://app?vid=38211f5a-9e6b-43fb-a533-35898239b6a3","ios":"levelo://app?vid=38211f5a-9e6b-43fb-a533-35898239b6a3"},"vehicle_type_id":"4","last_reported":1747217493,"current_range_meters":19600,"station_id":"ce4bhi12rcd13ifvqfp0","pricing_plan_id":"cebpf4jnsgd1na2vs0mg"},{"bike_id":"70136c98-e1a2-4944-bc03-8f5e5e059d96","system_id":"levelo_inurba_marseille","lat":43.23151,"lon":5.43719,"is_reserved":false,"is_disabled":false,"rental_uris":{"android":"levelo://app?vid=70136c98-e1a2-4944-bc03-8f5e5e059d96","ios":"levelo://app?vid=70136c98-e1a2-4944-bc03-8f5e5e059d96"},"vehicle_type_id":"4","last_reported":1747217493,"current_range_meters":19600,"station_id":"ce4bhmp2rcd13ifvqgog","pricing_plan_id":"cebpf4jnsgd1na2vs0mg"},{"bike_id":"297a85b0-fa8c-489e-bd98-6fd7f3aae510","system_id":"levelo_inurba_marseille","lat":43.24178,"lon":5.39725,"is_reserved":false,"is_disabled":false,"rental_uris":{"android":"levelo://app?vid=297a85b0-fa8c-489e-bd98-6fd7f3aae510","ios":"levelo://app?vid=297a85b0-fa8c-489e-bd98-6fd7f3aae510"},"vehicle_type_id":"4","last_reported":1747217493,"current_range_meters":19600,"station_id":"ce4bhn12rcd13ifvqgpg","pricing_plan_id":"cebpf4jnsgd1na2vs0mg"},{"bike_id":"6e9e1dc6-35c8-4ef3-b34b-1fd6e7cfb361","system_id":"levelo_inurba_marseille","lat":43.28706,"lon":5.3999,"is_reserved":false,"is_disabled":false,"rental_uris":{"android":"levelo://app?vid=6e9e1dc6-35c8-4ef3-b34b-1fd6e7cfb361","ios":"levelo://app?vid=6e9e1dc6-35c8-4ef3-b34b-1fd6e7cfb361"},"vehicle_type_id":"4","last_reported":1747217493,"current_range_meters":19600,"station_id":"ce4bho92rcd13ifvqh3g","pricing_plan_id":"cebpf4jnsgd1na2vs0mg"},{"bike_id":"0e8642d3-ec75-4e47-a53d-494336dd8f40","system_id":"levelo_inurba_marseille","lat":43.295656,"lon":5.422856,"is_reserved":false,"is_disabled":false,"rental_uris":{"android":"levelo://app?vid=0e8642d3-ec75-4e47-a53d-494336dd8f40","ios":"levelo://app?vid=0e8642d3-ec75-4e47-a53d-494336dd8f40"},"vehicle_type_id":"4","last_reported":1747217493,"current_range_meters":19600,"station_id":"ce4bhph2rcd13ifvqhdg","pricing_plan_id":"cebpf4jnsgd1na2vs0mg"},{"bike_id":"74e465a6-62f1-45be-9144-40f0ae71c9e6","system_id":"levelo_inurba_marseille","lat":43.323604,"lon":5.367509,"is_reserved":false,"is_disabled":false,"rental_uris":{"android":"levelo://app?vid=74e465a6-62f1-45be-9144-40f0ae71c9e6","ios":"levelo://app?vid=74e465a6-62f1-45be-9144-40f0ae71c9e6"},"vehicle_type_id":"4","last_reported":1747217493,"current_range_meters":19600,"station_id":"ce4bhsh2rcd13ifvqi2g","pricing_plan_id":"cebpf4jnsgd1na2vs0mg"},{"bike_id":"64824209-6cba-4c12-875a-1502c403c27a","system_id":"levelo_inurba_marseille","lat":43.212015,"lon":5.350609,"is_reserved":false,"is_disabled":false,"rental_uris":{"android":"levelo://app?vid=64824209-6cba-4c12-875a-1502c403c27a","ios":"levelo://app?vid=64824209-6cba-4c12-875a-1502c403c27a"},"vehicle_type_id":"4","last_reported":1747217493,"current_range_meters":19600,"station_id":"st_cvj6sg6p6f1abm77japg","pricing_plan_id":"cebpf4jnsgd1na2vs0mg"},{"bike_id":"50313156-ab91-4130-9e30-4c1b7c1c6d35","system_id":"levelo_inurba_marseille","lat":43.336,"lon":5.40949,"is_reserved":false,"is_disabled":false,"rental_uris":{"android":"levelo://app?vid=50313156-ab91-4130-9e30-4c1b7c1c6d35","ios":"levelo://app?vid=50313156-ab91-4130-9e30-4c1b7c1c6d35"},"vehicle_type_id":"4","last_reported":1747217493,"current_range_meters":20000,"station_id":"","pricing_plan_id":"cebpf4jnsgd1na2vs0mg"},{"bike_id":"f7d3a47f-5a5f-490b-9820-a15d28ef5b60","system_id":"levelo_inurba_marseille","lat":43.2961,"lon":5.38112,"is_reserved":false,"is_disabled":false,"rental_uris":{"android":"levelo://app?vid=f7d3a47f-5a5f-490b-9820-a15d28ef5b60","ios":"levelo://app?vid=f7d3a47f-5a5f-490b-9820-a15d28ef5b60"},"vehicle_type_id":"4","last_reported":1747217493,"current_range_meters":20000,"station_id":"ce4bgl12rcd13ifvqbo0","pricing_plan_id":"cebpf4jnsgd1na2vs0mg"},{"bike_id":"2ecb114f-5d75-4c5d-8f1f-6d26727f9732","system_id":"levelo_inurba_marseille","lat":43.28626,"lon":5.35095,"is_reserved":false,"is_disabled":false,"rental_uris":{"android":"levelo://app?vid=2ecb114f-5d75-4c5d-8f1f-6d26727f9732","ios":"levelo://app?vid=2ecb114f-5d75-4c5d-8f1f-6d26727f9732"},"vehicle_type_id":"4","last_reported":1747217493,"current_range_meters":20000,"station_id":"ce4bhch2rcd13ifvqeug","pricing_plan_id":"cebpf4jnsgd1na2vs0mg"},{"bike_id":"02f9e37a-6804-4b0a-ae3f-9fc789226e03","system_id":"levelo_inurba_marseille","lat":43.26202,"lon":5.37925,"is_reserved":false,"is_disabled":false,"rental_uris":{"android":"levelo://app?vid=02f9e37a-6804-4b0a-ae3f-9fc789226e03","ios":"levelo://app?vid=02f9e37a-6804-4b0a-ae3f-9fc789226e03"},"vehicle_type_id":"4","last_reported":1747217493,"current_range_meters":20000,"station_id":"ce4bhjp2rcd13ifvqg90","pricing_plan_id":"cebpf4jnsgd1na2vs0mg"},{"bike_id":"48db0a8c-78e3-4cb8-ac0d-f410ba2e6c93","system_id":"levelo_inurba_marseille","lat":43.29556,"lon":5.42286,"is_reserved":false,"is_disabled":false,"rental_uris":{"android":"levelo://app?vid=48db0a8c-78e3-4cb8-ac0d-f410ba2e6c93","ios":"levelo://app?vid=48db0a8c-78e3-4cb8-ac0d-f410ba2e6c93"},"vehicle_type_id":"4","last_reported":1747217493,"current_range_meters":20000,"station_id":"ce4bhph2rcd13ifvqhdg","pricing_plan_id":"cebpf4jnsgd1na2vs0mg"},{"bike_id":"236fe8a1-bb49-4378-9a13-707d1ea97db2","system_id":"levelo_inurba_marseille","lat":43.32112,"lon":5.36775,"is_reserved":false,"is_disabled":false,"rental_uris":{"android":"levelo://app?vid=236fe8a1-bb49-4378-9a13-707d1ea97db2","ios":"levelo://app?vid=236fe8a1-bb49-4378-9a13-707d1ea97db2"},"vehicle_type_id":"4","last_reported":1747217493,"current_range_meters":20000,"station_id":"ce4bhrh2rcd13ifvqhug","pricing_plan_id":"cebpf4jnsgd1na2vs0mg"},{"bike_id":"08a93b84-f9e2-4480-b23a-2ee7a592645e","system_id":"levelo_inurba_marseille","lat":43.21756,"lon":5.34604,"is_reserved":false,"is_disabled":false,"rental_uris":{"android":"levelo://app?vid=08a93b84-f9e2-4480-b23a-2ee7a592645e","ios":"levelo://app?vid=08a93b84-f9e2-4480-b23a-2ee7a592645e"},"vehicle_type_id":"4","last_reported":1747217493,"current_range_meters":20000,"station_id":"st_cvj6r9ubvosntc0bgbag","pricing_plan_id":"cebpf4jnsgd1na2vs0mg"},{"bike_id":"415d1367-47dd-4df3-93c6-a7303660e760","system_id":"levelo_inurba_marseille","lat":43.28371,"lon":5.38621,"is_reserved":false,"is_disabled":false,"rental_uris":{"android":"levelo://app?vid=415d1367-47dd-4df3-93c6-a7303660e760","ios":"levelo://app?vid=415d1367-47dd-4df3-93c6-a7303660e760"},"vehicle_type_id":"4","last_reported":1747217493,"current_range_meters":20400,"station_id":"ce4bh492rcd13ifvqdvg","pricing_plan_id":"cebpf4jnsgd1na2vs0mg"},{"bike_id":"3b28be9e-9d13-45fd-83f7-0a0aff78acd6","system_id":"levelo_inurba_marseille","lat":43.25867,"lon":5.39902,"is_reserved":false,"is_disabled":false,"rental_uris":{"android":"levelo://app?vid=3b28be9e-9d13-45fd-83f7-0a0aff78acd6","ios":"levelo://app?vid=3b28be9e-9d13-45fd-83f7-0a0aff78acd6"},"vehicle_type_id":"4","last_reported":1747217493,"current_range_meters":20400,"station_id":"ce4bhl92rcd13ifvqghg","pricing_plan_id":"cebpf4jnsgd1na2vs0mg"},{"bike_id":"31e180a1-f8c3-4073-b506-124e2e7b7677","system_id":"levelo_inurba_marseille","lat":43.33584,"lon":5.40981,"is_reserved":false,"is_disabled":false,"rental_uris":{"android":"levelo://app?vid=31e180a1-f8c3-4073-b506-124e2e7b7677","ios":"levelo://app?vid=31e180a1-f8c3-4073-b506-124e2e7b7677"},"vehicle_type_id":"4","last_reported":1747217493,"current_range_meters":20400,"station_id":"ce4bhqh2rcd13ifvqhmg","pricing_plan_id":"cebpf4jnsgd1na2vs0mg"},{"bike_id":"61aa1782-49d9-4762-bea1-94c390716a66","system_id":"levelo_inurba_marseille","lat":43.33598,"lon":5.40986,"is_reserved":false,"is_disabled":false,"rental_uris":{"android":"levelo://app?vid=61aa1782-49d9-4762-bea1-94c390716a66","ios":"levelo://app?vid=61aa1782-49d9-4762-bea1-94c390716a66"},"vehicle_type_id":"4","last_reported":1747217493,"current_range_meters":20400,"station_id":"ce4bhqh2rcd13ifvqhmg","pricing_plan_id":"cebpf4jnsgd1na2vs0mg"},{"bike_id":"307fc050-47b7-4404-b34b-b2cef028cd86","system_id":"levelo_inurba_marseille","lat":43.217438,"lon":5.345902,"is_reserved":false,"is_disabled":false,"rental_uris":{"android":"levelo://app?vid=307fc050-47b7-4404-b34b-b2cef028cd86","ios":"levelo://app?vid=307fc050-47b7-4404-b34b-b2cef028cd86"},"vehicle_type_id":"4","last_reported":1747217493,"current_range_meters":20400,"station_id":"st_cvj6r9ubvosntc0bgbag","pricing_plan_id":"cebpf4jnsgd1na2vs0mg"},{"bike_id":"cd15b410-e5eb-468f-885c-74fdc00b6bb7","system_id":"levelo_inurba_marseille","lat":43.21188,"lon":5.35066,"is_reserved":false,"is_disabled":false,"rental_uris":{"android":"levelo://app?vid=cd15b410-e5eb-468f-885c-74fdc00b6bb7","ios":"levelo://app?vid=cd15b410-e5eb-468f-885c-74fdc00b6bb7"},"vehicle_type_id":"4","last_reported":1747217493,"current_range_meters":20400,"station_id":"st_cvj6sg6p6f1abm77japg","pricing_plan_id":"cebpf4jnsgd1na2vs0mg"},{"bike_id":"13c9dde3-370f-4898-921a-52334846866b","system_id":"levelo_inurba_marseille","lat":43.312221,"lon":5.368836,"is_reserved":false,"is_disabled":false,"rental_uris":{"android":"levelo://app?vid=13c9dde3-370f-4898-921a-52334846866b","ios":"levelo://app?vid=13c9dde3-370f-4898-921a-52334846866b"},"vehicle_type_id":"4","last_reported":1747217493,"current_range_meters":20800,"station_id":"ce4bgl92rcd13ifvqbq0","pricing_plan_id":"cebpf4jnsgd1na2vs0mg"},{"bike_id":"c9be8c79-bbbb-4e73-bbc8-4b74d99d6b4d","system_id":"levelo_inurba_marseille","lat":43.27367,"lon":5.36242,"is_reserved":false,"is_disabled":false,"rental_uris":{"android":"levelo://app?vid=c9be8c79-bbbb-4e73-bbc8-4b74d99d6b4d","ios":"levelo://app?vid=c9be8c79-bbbb-4e73-bbc8-4b74d99d6b4d"},"vehicle_type_id":"4","last_reported":1747217493,"current_range_meters":20800,"station_id":"ce4bhbh2rcd13ifvqeo0","pricing_plan_id":"cebpf4jnsgd1na2vs0mg"},{"bike_id":"08e1826b-e839-4da6-8a09-e881ed9d8722","system_id":"levelo_inurba_marseille","lat":43.265596,"lon":5.373094,"is_reserved":false,"is_disabled":false,"rental_uris":{"android":"levelo://app?vid=08e1826b-e839-4da6-8a09-e881ed9d8722","ios":"levelo://app?vid=08e1826b-e839-4da6-8a09-e881ed9d8722"},"vehicle_type_id":"4","last_reported":1747217493,"current_range_meters":20800,"station_id":"ce4bhg12rcd13ifvqf70","pricing_plan_id":"cebpf4jnsgd1na2vs0mg"},{"bike_id":"5220c61f-5734-4e62-95f3-eee327d639ec","system_id":"levelo_inurba_marseille","lat":43.24658,"lon":5.3817,"is_reserved":false,"is_disabled":false,"rental_uris":{"android":"levelo://app?vid=5220c61f-5734-4e62-95f3-eee327d639ec","ios":"levelo://app?vid=5220c61f-5734-4e62-95f3-eee327d639ec"},"vehicle_type_id":"4","last_reported":1747217493,"current_range_meters":20800,"station_id":"ce4bhih2rcd13ifvqfr0","pricing_plan_id":"cebpf4jnsgd1na2vs0mg"},{"bike_id":"fed7c899-af85-4591-8c22-7d670ab4794d","system_id":"levelo_inurba_marseille","lat":43.25856,"lon":5.39901,"is_reserved":false,"is_disabled":false,"rental_uris":{"android":"levelo://app?vid=fed7c899-af85-4591-8c22-7d670ab4794d","ios":"levelo://app?vid=fed7c899-af85-4591-8c22-7d670ab4794d"},"vehicle_type_id":"4","last_reported":1747217493,"current_range_meters":20800,"station_id":"ce4bhl92rcd13ifvqghg","pricing_plan_id":"cebpf4jnsgd1na2vs0mg"},{"bike_id":"c41dfe03-8515-4f3b-be02-a998e39f9069","system_id":"levelo_inurba_marseille","lat":43.33617,"lon":5.41025,"is_reserved":false,"is_disabled":false,"rental_uris":{"android":"levelo://app?vid=c41dfe03-8515-4f3b-be02-a998e39f9069","ios":"levelo://app?vid=c41dfe03-8515-4f3b-be02-a998e39f9069"},"vehicle_type_id":"4","last_reported":1747217493,"current_range_meters":20800,"station_id":"ce4bhqh2rcd13ifvqhmg","pricing_plan_id":"cebpf4jnsgd1na2vs0mg"},{"bike_id":"1ae0b734-22b3-4b50-80d3-c63698279b7b","system_id":"levelo_inurba_marseille","lat":43.311039,"lon":5.375411,"is_reserved":false,"is_disabled":false,"rental_uris":{"android":"levelo://app?vid=1ae0b734-22b3-4b50-80d3-c63698279b7b","ios":"levelo://app?vid=1ae0b734-22b3-4b50-80d3-c63698279b7b"},"vehicle_type_id":"4","last_reported":1747217493,"current_range_meters":21600,"station_id":"","pricing_plan_id":"cebpf4jnsgd1na2vs0mg"},{"bike_id":"a5390ca9-819e-4d4e-9e56-93f79fe1d0b7","system_id":"levelo_inurba_marseille","lat":43.27185,"lon":5.40961,"is_reserved":false,"is_disabled":false,"rental_uris":{"android":"levelo://app?vid=a5390ca9-819e-4d4e-9e56-93f79fe1d0b7","ios":"levelo://app?vid=a5390ca9-819e-4d4e-9e56-93f79fe1d0b7"},"vehicle_type_id":"4","last_reported":1747217493,"current_range_meters":21600,"station_id":"ce4bhl12rcd13ifvqgf0","pricing_plan_id":"cebpf4jnsgd1na2vs0mg"},{"bike_id":"def2aa14-8fea-48c2-9e53-91c1ba85147e","system_id":"levelo_inurba_marseille","lat":43.241608,"lon":5.363971,"is_reserved":false,"is_disabled":false,"rental_uris":{"android":"levelo://app?vid=def2aa14-8fea-48c2-9e53-91c1ba85147e","ios":"levelo://app?vid=def2aa14-8fea-48c2-9e53-91c1ba85147e"},"vehicle_type_id":"4","last_reported":1747217493,"current_range_meters":21600,"station_id":"cpo36qri1sfpv3e86is0","pricing_plan_id":"cebpf4jnsgd1na2vs0mg"},{"bike_id":"9a402898-f116-408b-8709-c62dd77d2b5d","system_id":"levelo_inurba_marseille","lat":43.29364,"lon":5.42836,"is_reserved":false,"is_disabled":false,"rental_uris":{"android":"levelo://app?vid=9a402898-f116-408b-8709-c62dd77d2b5d","ios":"levelo://app?vid=9a402898-f116-408b-8709-c62dd77d2b5d"},"vehicle_type_id":"4","last_reported":1747217493,"current_range_meters":22000,"station_id":"","pricing_plan_id":"cebpf4jnsgd1na2vs0mg"},{"bike_id":"a9d31fe0-2508-42cc-8e0b-6f6a14799b08","system_id":"levelo_inurba_marseille","lat":43.30146,"lon":5.37241,"is_reserved":false,"is_disabled":false,"rental_uris":{"android":"levelo://app?vid=a9d31fe0-2508-42cc-8e0b-6f6a14799b08","ios":"levelo://app?vid=a9d31fe0-2508-42cc-8e0b-6f6a14799b08"},"vehicle_type_id":"4","last_reported":1747217493,"current_range_meters":22000,"station_id":"","pricing_plan_id":"cebpf4jnsgd1na2vs0mg"},{"bike_id":"1eff905b-de15-419c-91fc-44f8b6bf2836","system_id":"levelo_inurba_marseille","lat":43.29898,"lon":5.43674,"is_reserved":false,"is_disabled":false,"rental_uris":{"android":"levelo://app?vid=1eff905b-de15-419c-91fc-44f8b6bf2836","ios":"levelo://app?vid=1eff905b-de15-419c-91fc-44f8b6bf2836"},"vehicle_type_id":"4","last_reported":1747217493,"current_range_meters":22000,"station_id":"ce4bhpp2rcd13ifvqhfg","pricing_plan_id":"cebpf4jnsgd1na2vs0mg"},{"bike_id":"f03ed3f3-42d4-488a-9039-0789b1881240","system_id":"levelo_inurba_marseille","lat":43.30802,"lon":5.37425,"is_reserved":false,"is_disabled":false,"rental_uris":{"android":"levelo://app?vid=f03ed3f3-42d4-488a-9039-0789b1881240","ios":"levelo://app?vid=f03ed3f3-42d4-488a-9039-0789b1881240"},"vehicle_type_id":"4","last_reported":1747217493,"current_range_meters":22400,"station_id":"","pricing_plan_id":"cebpf4jnsgd1na2vs0mg"},{"bike_id":"2ee99a65-be8e-4714-9c13-e8e961d284db","system_id":"levelo_inurba_marseille","lat":43.30141,"lon":5.38062,"is_reserved":false,"is_disabled":false,"rental_uris":{"android":"levelo://app?vid=2ee99a65-be8e-4714-9c13-e8e961d284db","ios":"levelo://app?vid=2ee99a65-be8e-4714-9c13-e8e961d284db"},"vehicle_type_id":"4","last_reported":1747217493,"current_range_meters":22400,"station_id":"ce4bgjp2rcd13ifvqbh0","pricing_plan_id":"cebpf4jnsgd1na2vs0mg"},{"bike_id":"8cd6825a-e0c2-46e2-82c0-58d7402a82d1","system_id":"levelo_inurba_marseille","lat":43.29585,"lon":5.400336,"is_reserved":false,"is_disabled":false,"rental_uris":{"android":"levelo://app?vid=8cd6825a-e0c2-46e2-82c0-58d7402a82d1","ios":"levelo://app?vid=8cd6825a-e0c2-46e2-82c0-58d7402a82d1"},"vehicle_type_id":"4","last_reported":1747217493,"current_range_meters":22400,"station_id":"ce4bh312rcd13ifvqdj0","pricing_plan_id":"cebpf4jnsgd1na2vs0mg"},{"bike_id":"3b4b9fdf-710a-47c5-9469-605bcc91bc2f","system_id":"levelo_inurba_marseille","lat":43.29202,"lon":5.35812,"is_reserved":false,"is_disabled":false,"rental_uris":{"android":"levelo://app?vid=3b4b9fdf-710a-47c5-9469-605bcc91bc2f","ios":"levelo://app?vid=3b4b9fdf-710a-47c5-9469-605bcc91bc2f"},"vehicle_type_id":"4","last_reported":1747217493,"current_range_meters":22400,"station_id":"ce4bhb12rcd13ifvqel0","pricing_plan_id":"cebpf4jnsgd1na2vs0mg"},{"bike_id":"6d853f86-4beb-4a70-804c-52ea5b633ec4","system_id":"levelo_inurba_marseille","lat":43.24169,"lon":5.36406,"is_reserved":false,"is_disabled":false,"rental_uris":{"android":"levelo://app?vid=6d853f86-4beb-4a70-804c-52ea5b633ec4","ios":"levelo://app?vid=6d853f86-4beb-4a70-804c-52ea5b633ec4"},"vehicle_type_id":"4","last_reported":1747217493,"current_range_meters":22400,"station_id":"cpo36qri1sfpv3e86is0","pricing_plan_id":"cebpf4jnsgd1na2vs0mg"},{"bike_id":"6b7c691e-f2b5-488a-bb78-f3336304d229","system_id":"levelo_inurba_marseille","lat":43.241697,"lon":5.363955,"is_reserved":false,"is_disabled":false,"rental_uris":{"android":"levelo://app?vid=6b7c691e-f2b5-488a-bb78-f3336304d229","ios":"levelo://app?vid=6b7c691e-f2b5-488a-bb78-f3336304d229"},"vehicle_type_id":"4","last_reported":1747217493,"current_range_meters":22400,"station_id":"cpo36qri1sfpv3e86is0","pricing_plan_id":"cebpf4jnsgd1na2vs0mg"},{"bike_id":"6ecc99c8-b65b-4df5-ba19-f6978c22db4e","system_id":"levelo_inurba_marseille","lat":43.308902,"lon":5.372055,"is_reserved":false,"is_disabled":false,"rental_uris":{"android":"levelo://app?vid=6ecc99c8-b65b-4df5-ba19-f6978c22db4e","ios":"levelo://app?vid=6ecc99c8-b65b-4df5-ba19-f6978c22db4e"},"vehicle_type_id":"4","last_reported":1747217493,"current_range_meters":22800,"station_id":"ce4bguh2rcd13ifvqckg","pricing_plan_id":"cebpf4jnsgd1na2vs0mg"},{"bike_id":"0f027fa1-1ee7-4ad5-ade4-d2694e188097","system_id":"levelo_inurba_marseille","lat":43.29872,"lon":5.3972,"is_reserved":false,"is_disabled":false,"rental_uris":{"android":"levelo://app?vid=0f027fa1-1ee7-4ad5-ade4-d2694e188097","ios":"levelo://app?vid=0f027fa1-1ee7-4ad5-ade4-d2694e188097"},"vehicle_type_id":"4","last_reported":1747217493,"current_range_meters":22800,"station_id":"ce4bh0h2rcd13ifvqd50","pricing_plan_id":"cebpf4jnsgd1na2vs0mg"},{"bike_id":"5945529d-68d8-4b03-a0ac-b0ae3075b9c4","system_id":"levelo_inurba_marseille","lat":43.29039,"lon":5.37572,"is_reserved":false,"is_disabled":false,"rental_uris":{"android":"levelo://app?vid=5945529d-68d8-4b03-a0ac-b0ae3075b9c4","ios":"levelo://app?vid=5945529d-68d8-4b03-a0ac-b0ae3075b9c4"},"vehicle_type_id":"4","last_reported":1747217493,"current_range_meters":22800,"station_id":"ce4bh692rcd13ifvqe90","pricing_plan_id":"cebpf4jnsgd1na2vs0mg"},{"bike_id":"76a12f8f-7b59-4bfd-a715-49b7d1037fa3","system_id":"levelo_inurba_marseille","lat":43.308936,"lon":5.37203,"is_reserved":false,"is_disabled":false,"rental_uris":{"android":"levelo://app?vid=76a12f8f-7b59-4bfd-a715-49b7d1037fa3","ios":"levelo://app?vid=76a12f8f-7b59-4bfd-a715-49b7d1037fa3"},"vehicle_type_id":"4","last_reported":1747217493,"current_range_meters":22800,"station_id":"ce4bhbp2rcd13ifvqerg","pricing_plan_id":"cebpf4jnsgd1na2vs0mg"},{"bike_id":"f8b1959f-3139-4509-a0d1-93140f737f23","system_id":"levelo_inurba_marseille","lat":43.25947,"lon":5.40891,"is_reserved":false,"is_disabled":false,"rental_uris":{"android":"levelo://app?vid=f8b1959f-3139-4509-a0d1-93140f737f23","ios":"levelo://app?vid=f8b1959f-3139-4509-a0d1-93140f737f23"},"vehicle_type_id":"4","last_reported":1747217493,"current_range_meters":22800,"station_id":"ce4bhm92rcd13ifvqglg","pricing_plan_id":"cebpf4jnsgd1na2vs0mg"},{"bike_id":"b973af1f-9405-433f-a2b5-3d01a281cbf8","system_id":"levelo_inurba_marseille","lat":43.3249,"lon":5.36578,"is_reserved":false,"is_disabled":false,"rental_uris":{"android":"levelo://app?vid=b973af1f-9405-433f-a2b5-3d01a281cbf8","ios":"levelo://app?vid=b973af1f-9405-433f-a2b5-3d01a281cbf8"},"vehicle_type_id":"4","last_reported":1747217493,"current_range_meters":22800,"station_id":"ce4bhs12rcd13ifvqhvg","pricing_plan_id":"cebpf4jnsgd1na2vs0mg"},{"bike_id":"ca024189-6004-4897-9d44-452f5c0e58a3","system_id":"levelo_inurba_marseille","lat":43.28269,"lon":5.35066,"is_reserved":false,"is_disabled":false,"rental_uris":{"android":"levelo://app?vid=ca024189-6004-4897-9d44-452f5c0e58a3","ios":"levelo://app?vid=ca024189-6004-4897-9d44-452f5c0e58a3"},"vehicle_type_id":"4","last_reported":1747217493,"current_range_meters":23200,"station_id":"ce4bhbp2rcd13ifvqerg","pricing_plan_id":"cebpf4jnsgd1na2vs0mg"},{"bike_id":"e44cbd27-f228-4cd3-9910-daf75fcce52a","system_id":"levelo_inurba_marseille","lat":43.24659,"lon":5.38883,"is_reserved":false,"is_disabled":false,"rental_uris":{"android":"levelo://app?vid=e44cbd27-f228-4cd3-9910-daf75fcce52a","ios":"levelo://app?vid=e44cbd27-f228-4cd3-9910-daf75fcce52a"},"vehicle_type_id":"4","last_reported":1747217493,"current_range_meters":23200,"station_id":"ce4bhg12rcd13ifvqf60","pricing_plan_id":"cebpf4jnsgd1na2vs0mg"},{"bike_id":"3e3f9b5e-3a5d-4ff2-8449-976e763c890a","system_id":"levelo_inurba_marseille","lat":43.27071,"lon":5.42281,"is_reserved":false,"is_disabled":false,"rental_uris":{"android":"levelo://app?vid=3e3f9b5e-3a5d-4ff2-8449-976e763c890a","ios":"levelo://app?vid=3e3f9b5e-3a5d-4ff2-8449-976e763c890a"},"vehicle_type_id":"4","last_reported":1747217493,"current_range_meters":23200,"station_id":"ce4bhk92rcd13ifvqgb0","pricing_plan_id":"cebpf4jnsgd1na2vs0mg"},{"bike_id":"5bce479b-8d7c-437e-a71f-b784da45926a","system_id":"levelo_inurba_marseille","lat":43.23155,"lon":5.43713,"is_reserved":false,"is_disabled":false,"rental_uris":{"android":"levelo://app?vid=5bce479b-8d7c-437e-a71f-b784da45926a","ios":"levelo://app?vid=5bce479b-8d7c-437e-a71f-b784da45926a"},"vehicle_type_id":"4","last_reported":1747217493,"current_range_meters":23200,"station_id":"ce4bhmp2rcd13ifvqgog","pricing_plan_id":"cebpf4jnsgd1na2vs0mg"},{"bike_id":"c351ad74-cfad-4524-b23a-5f995cfa52ab","system_id":"levelo_inurba_marseille","lat":43.22509,"lon":5.34791,"is_reserved":false,"is_disabled":false,"rental_uris":{"android":"levelo://app?vid=c351ad74-cfad-4524-b23a-5f995cfa52ab","ios":"levelo://app?vid=c351ad74-cfad-4524-b23a-5f995cfa52ab"},"vehicle_type_id":"4","last_reported":1747217493,"current_range_meters":23200,"station_id":"st_cvj5dfep6f1abm77gieg","pricing_plan_id":"cebpf4jnsgd1na2vs0mg"},{"bike_id":"a7c765d8-0a85-4269-ac85-a35e44b6be61","system_id":"levelo_inurba_marseille","lat":43.30545,"lon":5.365448,"is_reserved":false,"is_disabled":false,"rental_uris":{"android":"levelo://app?vid=a7c765d8-0a85-4269-ac85-a35e44b6be61","ios":"levelo://app?vid=a7c765d8-0a85-4269-ac85-a35e44b6be61"},"vehicle_type_id":"4","last_reported":1747217493,"current_range_meters":24000,"station_id":"","pricing_plan_id":"cebpf4jnsgd1na2vs0mg"},{"bike_id":"746c3160-9cce-4fa5-91e9-221b85055246","system_id":"levelo_inurba_marseille","lat":43.270808,"lon":5.403173,"is_reserved":false,"is_disabled":false,"rental_uris":{"android":"levelo://app?vid=746c3160-9cce-4fa5-91e9-221b85055246","ios":"levelo://app?vid=746c3160-9cce-4fa5-91e9-221b85055246"},"vehicle_type_id":"4","last_reported":1747217493,"current_range_meters":24000,"station_id":"","pricing_plan_id":"cebpf4jnsgd1na2vs0mg"},{"bike_id":"f2979fee-d3a8-4198-ac65-c7761d1dca93","system_id":"levelo_inurba_marseille","lat":43.217489,"lon":5.345982,"is_reserved":false,"is_disabled":false,"rental_uris":{"android":"levelo://app?vid=f2979fee-d3a8-4198-ac65-c7761d1dca93","ios":"levelo://app?vid=f2979fee-d3a8-4198-ac65-c7761d1dca93"},"vehicle_type_id":"4","last_reported":1747217493,"current_range_meters":24000,"station_id":"","pricing_plan_id":"cebpf4jnsgd1na2vs0mg"},{"bike_id":"ca121c84-3763-4c94-a725-484cabd4a1b8","system_id":"levelo_inurba_marseille","lat":43.31249,"lon":5.36859,"is_reserved":false,"is_disabled":false,"rental_uris":{"android":"levelo://app?vid=ca121c84-3763-4c94-a725-484cabd4a1b8","ios":"levelo://app?vid=ca121c84-3763-4c94-a725-484cabd4a1b8"},"vehicle_type_id":"4","last_reported":1747217493,"current_range_meters":24000,"station_id":"ce4bgl92rcd13ifvqbq0","pricing_plan_id":"cebpf4jnsgd1na2vs0mg"},{"bike_id":"b4b13a70-35d0-4fd1-a856-66663fe5d321","system_id":"levelo_inurba_marseille","lat":43.28615,"lon":5.35106,"is_reserved":false,"is_disabled":false,"rental_uris":{"android":"levelo://app?vid=b4b13a70-35d0-4fd1-a856-66663fe5d321","ios":"levelo://app?vid=b4b13a70-35d0-4fd1-a856-66663fe5d321"},"vehicle_type_id":"4","last_reported":1747217493,"current_range_meters":24000,"station_id":"ce4bhch2rcd13ifvqeug","pricing_plan_id":"cebpf4jnsgd1na2vs0mg"},{"bike_id":"77d3a2aa-1138-495c-8258-47f606a4e3ec","system_id":"levelo_inurba_marseille","lat":43.23956,"lon":5.36653,"is_reserved":false,"is_disabled":false,"rental_uris":{"android":"levelo://app?vid=77d3a2aa-1138-495c-8258-47f606a4e3ec","ios":"levelo://app?vid=77d3a2aa-1138-495c-8258-47f606a4e3ec"},"vehicle_type_id":"4","last_reported":1747217493,"current_range_meters":24000,"station_id":"ce4bhi12rcd13ifvqfp0","pricing_plan_id":"cebpf4jnsgd1na2vs0mg"},{"bike_id":"a241100f-85e3-4b29-beef-65392eb6fd23","system_id":"levelo_inurba_marseille","lat":43.25861,"lon":5.39898,"is_reserved":false,"is_disabled":false,"rental_uris":{"android":"levelo://app?vid=a241100f-85e3-4b29-beef-65392eb6fd23","ios":"levelo://app?vid=a241100f-85e3-4b29-beef-65392eb6fd23"},"vehicle_type_id":"4","last_reported":1747217493,"current_range_meters":24000,"station_id":"ce4bhl92rcd13ifvqghg","pricing_plan_id":"cebpf4jnsgd1na2vs0mg"},{"bike_id":"e9d6e452-4a97-40e7-a82f-473f6ddcd933","system_id":"levelo_inurba_marseille","lat":43.2593,"lon":5.40891,"is_reserved":false,"is_disabled":false,"rental_uris":{"android":"levelo://app?vid=e9d6e452-4a97-40e7-a82f-473f6ddcd933","ios":"levelo://app?vid=e9d6e452-4a97-40e7-a82f-473f6ddcd933"},"vehicle_type_id":"4","last_reported":1747217493,"current_range_meters":24000,"station_id":"ce4bhm92rcd13ifvqglg","pricing_plan_id":"cebpf4jnsgd1na2vs0mg"},{"bike_id":"cc4a68f1-847e-4da3-9977-6fd2370aa180","system_id":"levelo_inurba_marseille","lat":43.23193,"lon":5.40001,"is_reserved":false,"is_disabled":false,"rental_uris":{"android":"levelo://app?vid=cc4a68f1-847e-4da3-9977-6fd2370aa180","ios":"levelo://app?vid=cc4a68f1-847e-4da3-9977-6fd2370aa180"},"vehicle_type_id":"4","last_reported":1747217493,"current_range_meters":24000,"station_id":"ce4bhn12rcd13ifvqgqg","pricing_plan_id":"cebpf4jnsgd1na2vs0mg"},{"bike_id":"2359f656-1202-4e06-bd34-1cbb1669bc47","system_id":"levelo_inurba_marseille","lat":43.29844,"lon":5.36273,"is_reserved":false,"is_disabled":false,"rental_uris":{"android":"levelo://app?vid=2359f656-1202-4e06-bd34-1cbb1669bc47","ios":"levelo://app?vid=2359f656-1202-4e06-bd34-1cbb1669bc47"},"vehicle_type_id":"4","last_reported":1747217493,"current_range_meters":24400,"station_id":"ce4bgpp2rcd13ifvqc3g","pricing_plan_id":"cebpf4jnsgd1na2vs0mg"},{"bike_id":"2533f82c-b880-49eb-b4c3-ec936a505a7d","system_id":"levelo_inurba_marseille","lat":43.30543,"lon":5.36519,"is_reserved":false,"is_disabled":false,"rental_uris":{"android":"levelo://app?vid=2533f82c-b880-49eb-b4c3-ec936a505a7d","ios":"levelo://app?vid=2533f82c-b880-49eb-b4c3-ec936a505a7d"},"vehicle_type_id":"4","last_reported":1747217493,"current_range_meters":24400,"station_id":"ce4bgs12rcd13ifvqcag","pricing_plan_id":"cebpf4jnsgd1na2vs0mg"},