{"last_updated":1734116844,"ttl":60,"version":"2.2","data":{"bikes":[{"bike_id":"45c22bfb-3859-46ca-bbdd-b43970628095","system_id":"levelo_inurba_marseille","lat":43.23182,"lon":5.39986,"is_reserved":false,"is_disabled":false,"rental_uris":{"android":"levelo://app?vid=45c22bfb-3859-46ca-bbdd-b43970628095","ios":"levelo://app?vid=45c22bfb-3859-46ca-bbdd-b43970628095"},"vehicle_type_id":"4","last_reported":1734116844,"current_range_meters":26800,"station_id":"ce4bhn12rcd13ifvqgqg","pricing_plan_id":"cebpf4jnsgd1na2vs0mg"},{"bike_id":"3e5d99b9-1aaf-48b9-b5fb-fb7a0b5b1ba5","system_id":"levelo_inurba_marseille","lat":43.29056,"lon":5.39211,"is_reserved":false,"is_disabled":true,"rental_uris":{"android":"levelo://app?vid=3e5d99b9-1aaf-48b9-b5fb-fb7a0b5b1ba5","ios":"levelo://app?vid=3e5d99b9-1aaf-48b9-b5fb-fb7a0b5b1ba5"},"vehicle_type_id":"4","last_reported":1734116844,"current_range_meters":0,"station_id":"","pricing_plan_id":"cebpf4jnsgd1na2vs0mg"},{"bike_id":"249070ef-7f3c-475f-a50c-f5adaa69a95a","system_id":"levelo_inurba_marseille","lat":43.29261,"lon":5.38434,"is_reserved":false,"is_disabled":false,"rental_uris":{"android":"levelo://app?vid=249070ef-7f3c-475f-a50c-f5adaa69a95a","ios":"levelo://app?vid=249070ef-7f3c-475f-a50c-f5adaa69a95a"},"vehicle_type_id":"4","last_reported":1734116844,"current_range_meters":10800,"station_id":"ce4bh692rcd13ifvqea0","pricing_plan_id":"cebpf4jnsgd1na2vs0mg"},{"bike_id":"886ec159-45a3-48e7-bada-ebf38861cbf4","system_id":"levelo_inurba_marseille","lat":43.29919,"lon":5.37481,"is_reserved":false,"is_disabled":false,"rental_uris":{"android":"levelo://app?vid=886ec159-45a3-48e7-bada-ebf38861cbf4","ios":"levelo://app?vid=886ec159-45a3-48e7-bada-ebf38861cbf4"},"vehicle_type_id":"4","last_reported":1734116844,"current_range_meters":27600,"station_id":"ce4bgjh2rcd13ifvqbg0","pricing_plan_id":"cebpf4jnsgd1na2vs0mg"},{"bike_id":"55c52e02-0cdf-453d-a05b-f0f604647bf3","system_id":"levelo_inurba_marseille","lat":43.27945,"lon":5.41098,"is_reserved":false,"is_disabled":false,"rental_uris":{"android":"levelo://app?vid=55c52e02-0cdf-453d-a05b-f0f604647bf3","ios":"levelo://app?vid=55c52e02-0cdf-453d-a05b-f0f604647bf3"},"vehicle_type_id":"4","last_reported":1734116844,"current_range_meters":14000,"station_id":"ce4bhnp2rcd13ifvqh0g","pricing_plan_id":"cebpf4jnsgd1na2vs0mg"},{"bike_id":"c1ba8960-5c9e-478d-9f51-c4bd04bfae50","system_id":"levelo_inurba_marseille","lat":43.31407,"lon":5.37515,"is_reserved":false,"is_disabled":false,"rental_uris":{"android":"levelo://app?vid=c1ba8960-5c9e-478d-9f51-c4bd04bfae50","ios":"levelo://app?vid=c1ba8960-5c9e-478d-9f51-c4bd04bfae50"},"vehicle_type_id":"4","last_reported":1734116844,"current_range_meters":24000,"station_id":"","pricing_plan_id":"cebpf4jnsgd1na2vs0mg"},{"bike_id":"f342e88e-d55d-43c8-818d-df1c0d3c8fd7","system_id":"levelo_inurba_marseille","lat":43.28562,"lon":5.39497,"is_reserved":false,"is_disabled":false,"rental_uris":{"android":"levelo://app?vid=f342e88e-d55d-43c8-818d-df1c0d3c8fd7","ios":"levelo://app?vid=f342e88e-d55d-43c8-818d-df1c0d3c8fd7"},"vehicle_type_id":"4","last_reported":1734116844,"current_range_meters":13600,"station_id":"ce4bh292rcd13ifvqdg0","pricing_plan_id":"cebpf4jnsgd1na2vs0mg"},{"bike_id":"136c5310-04b8-4831-81e4-542be0a9c7e7","system_id":"levelo_inurba_marseille","lat":43.29259,"lon":5.38432,"is_reserved":false,"is_disabled":false,"rental_uris":{"android":"levelo://app?vid=136c5310-04b8-4831-81e4-542be0a9c7e7","ios":"levelo://app?vid=136c5310-04b8-4831-81e4-542be0a9c7e7"},"vehicle_type_id":"4","last_reported":1734116844,"current_range_meters":38800,"station_id":"ce4bh692rcd13ifvqea0","pricing_plan_id":"cebpf4jnsgd1na2vs0mg"},{"bike_id":"418b99b7-8b81-45de-be19-3c820db2af29","system_id":"levelo_inurba_marseille","lat":43.25867,"lon":5.39897,"is_reserved":false,"is_disabled":false,"rental_uris":{"android":"levelo://app?vid=418b99b7-8b81-45de-be19-3c820db2af29","ios":"levelo://app?vid=418b99b7-8b81-45de-be19-3c820db2af29"},"vehicle_type_id":"4","last_reported":1734116844,"current_range_meters":38800,"station_id":"ce4bhl92rcd13ifvqghg","pricing_plan_id":"cebpf4jnsgd1na2vs0mg"},{"bike_id":"1210c1f2-8ca3-42fe-a7b5-07bf08771e6d","system_id":"levelo_inurba_marseille","lat":43.28621,"lon":5.35089,"is_reserved":false,"is_disabled":false,"rental_uris":{"android":"levelo://app?vid=1210c1f2-8ca3-42fe-a7b5-07bf08771e6d","ios":"levelo://app?vid=1210c1f2-8ca3-42fe-a7b5-07bf08771e6d"},"vehicle_type_id":"4","last_reported":1734116844,"current_range_meters":16000,"station_id":"ce4bhch2rcd13ifvqeug","pricing_plan_id":"cebpf4jnsgd1na2vs0mg"},{"bike_id":"8739096b-3171-488c-8937-9252bd86e618","system_id":"levelo_inurba_marseille","lat":43.24803,"lon":5.37447,"is_reserved":false,"is_disabled":false,"rental_uris":{"android":"levelo://app?vid=8739096b-3171-488c-8937-9252bd86e618","ios":"levelo://app?vid=8739096b-3171-488c-8937-9252bd86e618"},"vehicle_type_id":"4","last_reported":1734116844,"current_range_meters":30400,"station_id":"ce4bhgh2rcd13ifvqfb0","pricing_plan_id":"cebpf4jnsgd1na2vs0mg"},{"bike_id":"f53a51f1-6db0-4716-9c45-7ac4c7fcd208","system_id":"levelo_inurba_marseille","lat":43.32282,"lon":5.38268,"is_reserved":false,"is_disabled":false,"rental_uris":{"android":"levelo://app?vid=f53a51f1-6db0-4716-9c45-7ac4c7fcd208","ios":"levelo://app?vid=f53a51f1-6db0-4716-9c45-7ac4c7fcd208"},"vehicle_type_id":"4","last_reported":1734116844,"current_range_meters":34000,"station_id":"ce4bhr12rcd13ifvqhqg","pricing_plan_id":"cebpf4jnsgd1na2vs0mg"},{"bike_id":"980f96eb-32c9-4906-98f6-c44dbf4c84a1","system_id":"levelo_inurba_marseille","lat":43.27455,"lon":5.40073,"is_reserved":false,"is_disabled":true,"rental_uris":{"android":"levelo://app?vid=980f96eb-32c9-4906-98f6-c44dbf4c84a1","ios":"levelo://app?vid=980f96eb-32c9-4906-98f6-c44dbf4c84a1"},"vehicle_type_id":"4","last_reported":1734116844,"current_range_meters":0,"station_id":"","pricing_plan_id":"cebpf4jnsgd1na2vs0mg"},{"bike_id":"feb682ad-fe06-4ade-85ed-d8eb2d2261cc","system_id":"levelo_inurba_marseille","lat":43.28445,"lon":5.39206,"is_reserved":false,"is_disabled":false,"rental_uris":{"android":"levelo://app?vid=feb682ad-fe06-4ade-85ed-d8eb2d2261cc","ios":"levelo://app?vid=feb682ad-fe06-4ade-85ed-d8eb2d2261cc"},"vehicle_type_id":"4","last_reported":1734116844,"current_range_meters":6000,"station_id":"ce4bhoh2rcd13ifvqh5g","pricing_plan_id":"cebpf4jnsgd1na2vs0mg"},{"bike_id":"d62c4b6d-6385-483e-a950-59b1f6d595a4","system_id":"levelo_inurba_marseille","lat":43.28011,"lon":5.40007,"is_reserved":false,"is_disabled":false,"rental_uris":{"android":"levelo://app?vid=d62c4b6d-6385-483e-a950-59b1f6d595a4","ios":"levelo://app?vid=d62c4b6d-6385-483e-a950-59b1f6d595a4"},"vehicle_type_id":"4","last_reported":1734116844,"current_range_meters":16400,"station_id":"ce4bho92rcd13ifvqh4g","pricing_plan_id":"cebpf4jnsgd1na2vs0mg"},{"bike_id":"c0cb27a1-c96a-4028-89ff-6aa28577d390","system_id":"levelo_inurba_marseille","lat":43.29023,"lon":5.38634,"is_reserved":false,"is_disabled":false,"rental_uris":{"android":"levelo://app?vid=c0cb27a1-c96a-4028-89ff-6aa28577d390","ios":"levelo://app?vid=c0cb27a1-c96a-4028-89ff-6aa28577d390"},"vehicle_type_id":"4","last_reported":1734116844,"current_range_meters":9200,"station_id":"ce4bh4p2rcd13ifvqe0g","pricing_plan_id":"cebpf4jnsgd1na2vs0mg"},{"bike_id":"d64735b9-3201-48f9-b7d1-d8bd9269830f","system_id":"levelo_inurba_marseille","lat":43.31326,"lon":5.39698,"is_reserved":false,"is_disabled":false,"rental_uris":{"android":"levelo://app?vid=d64735b9-3201-48f9-b7d1-d8bd9269830f","ios":"levelo://app?vid=d64735b9-3201-48f9-b7d1-d8bd9269830f"},"vehicle_type_id":"4","last_reported":1734116844,"current_range_meters":35200,"station_id":"ce4bgvp2rcd13ifvqcu0","pricing_plan_id":"cebpf4jnsgd1na2vs0mg"},{"bike_id":"6c8f0fb1-dda3-46f8-8b7e-d47203e07a27","system_id":"levelo_inurba_marseille","lat":43.25412,"lon":5.38319,"is_reserved":false,"is_disabled":false,"rental_uris":{"android":"levelo://app?vid=6c8f0fb1-dda3-46f8-8b7e-d47203e07a27","ios":"levelo://app?vid=6c8f0fb1-dda3-46f8-8b7e-d47203e07a27"},"vehicle_type_id":"4","last_reported":1734116844,"current_range_meters":4800,"station_id":"","pricing_plan_id":"cebpf4jnsgd1na2vs0mg"},{"bike_id":"18f3cb1a-b797-49cc-b39b-f219fd82f626","system_id":"levelo_inurba_marseille","lat":43.28706,"lon":5.37383,"is_reserved":false,"is_disabled":false,"rental_uris":{"android":"levelo://app?vid=18f3cb1a-b797-49cc-b39b-f219fd82f626","ios":"levelo://app?vid=18f3cb1a-b797-49cc-b39b-f219fd82f626"},"vehicle_type_id":"4","last_reported":1734116844,"current_range_meters":30800,"station_id":"ce4bh3p2rcd13ifvqdq0","pricing_plan_id":"cebpf4jnsgd1na2vs0mg"},{"bike_id":"80e5c1e3-8d27-43e3-9451-b00f65b301df","system_id":"levelo_inurba_marseille","lat":43.23193,"lon":5.3555,"is_reserved":false,"is_disabled":false,"rental_uris":{"android":"levelo://app?vid=80e5c1e3-8d27-43e3-9451-b00f65b301df","ios":"levelo://app?vid=80e5c1e3-8d27-43e3-9451-b00f65b301df"},"vehicle_type_id":"4","last_reported":1734116844,"current_range_meters":9200,"station_id":"ce4bhu92rcd13ifvqi70","pricing_plan_id":"cebpf4jnsgd1na2vs0mg"},{"bike_id":"496b9119-850a-49b3-bf98-295bb079ca7c","system_id":"levelo_inurba_marseille","lat":43.28218,"lon":5.4457,"is_reserved":false,"is_disabled":false,"rental_uris":{"android":"levelo://app?vid=496b9119-850a-49b3-bf98-295bb079ca7c","ios":"levelo://app?vid=496b9119-850a-49b3-bf98-295bb079ca7c"},"vehicle_type_id":"4","last_reported":1734116844,"current_range_meters":16000,"station_id":"","pricing_plan_id":"cebpf4jnsgd1na2vs0mg"},{"bike_id":"8021032c-891a-4eef-8588-e3eee82280df","system_id":"levelo_inurba_marseille","lat":43.27995,"lon":5.41657,"is_reserved":false,"is_disabled":false,"rental_uris":{"android":"levelo://app?vid=8021032c-891a-4eef-8588-e3eee82280df","ios":"levelo://app?vid=8021032c-891a-4eef-8588-e3eee82280df"},"vehicle_type_id":"4","last_reported":1734116844,"current_range_meters":39200,"station_id":"ce4bho12rcd13ifvqh1g","pricing_plan_id":"cebpf4jnsgd1na2vs0mg"},{"bike_id":"ce2ffe22-db46-4464-b065-cd8df23833eb","system_id":"levelo_inurba_marseille","lat":43.27951,"lon":5.41034,"is_reserved":false,"is_disabled":false,"rental_uris":{"android":"levelo://app?vid=ce2ffe22-db46-4464-b065-cd8df23833eb","ios":"levelo://app?vid=ce2ffe22-db46-4464-b065-cd8df23833eb"},"vehicle_type_id":"4","last_reported":1734116844,"current_range_meters":38800,"station_id":"ce4bhnp2rcd13ifvqh0g","pricing_plan_id":"cebpf4jnsgd1na2vs0mg"},{"bike_id":"fb32aea2-d437-4e9e-95b8-ad6ed33d022d","system_id":"levelo_inurba_marseille","lat":43.2872,"lon":5.37941,"is_reserved":false,"is_disabled":true,"rental_uris":{"android":"levelo://app?vid=fb32aea2-d437-4e9e-95b8-ad6ed33d022d","ios":"levelo://app?vid=fb32aea2-d437-4e9e-95b8-ad6ed33d022d"},"vehicle_type_id":"4","last_reported":1734116844,"current_range_meters":28000,"station_id":"ce4bh9p2rcd13ifvqec0","pricing_plan_id":"cebpf4jnsgd1na2vs0mg"},{"bike_id":"d5c89c1f-3bad-4af2-9449-e04c277a4696","system_id":"levelo_inurba_marseille","lat":43.29983,"lon":5.4131,"is_reserved":false,"is_disabled":true,"rental_uris":{"android":"levelo://app?vid=d5c89c1f-3bad-4af2-9449-e04c277a4696","ios":"levelo://app?vid=d5c89c1f-3bad-4af2-9449-e04c277a4696"},"vehicle_type_id":"4","last_reported":1734116844,"current_range_meters":37600,"station_id":"ce4bhp12rcd13ifvqh9g","pricing_plan_id":"cebpf4jnsgd1na2vs0mg"},{"bike_id":"9638bd5a-6709-4ae5-844c-ab1839e55063","system_id":"levelo_inurba_marseille","lat":43.2293,"lon":5.35376,"is_reserved":false,"is_disabled":false,"rental_uris":{"android":"levelo://app?vid=9638bd5a-6709-4ae5-844c-ab1839e55063","ios":"levelo://app?vid=9638bd5a-6709-4ae5-844c-ab1839e55063"},"vehicle_type_id":"4","last_reported":1734116844,"current_range_meters":24800,"station_id":"cpo3532slgdg3j2ikp40","pricing_plan_id":"cebpf4jnsgd1na2vs0mg"},{"bike_id":"5dcb142e-3766-4e2c-b1fe-c9ebbc5d3c50","system_id":"levelo_inurba_marseille","lat":43.31992,"lon":5.38129,"is_reserved":false,"is_disabled":false,"rental_uris":{"android":"levelo://app?vid=5dcb142e-3766-4e2c-b1fe-c9ebbc5d3c50","ios":"levelo://app?vid=5dcb142e-3766-4e2c-b1fe-c9ebbc5d3c50"},"vehicle_type_id":"4","last_reported":1734116844,"current_range_meters":8000,"station_id":"ce4bhr12rcd13ifvqhpg","pricing_plan_id":"cebpf4jnsgd1na2vs0mg"},{"bike_id":"1e9befa5-33d0-4fbc-8f5e-1f6c8f1759bd","system_id":"levelo_inurba_marseille","lat":43.24799,"lon":5.37453,"is_reserved":false,"is_disabled":false,"rental_uris":{"android":"levelo://app?vid=1e9befa5-33d0-4fbc-8f5e-1f6c8f1759bd","ios":"levelo://app?vid=1e9befa5-33d0-4fbc-8f5e-1f6c8f1759bd"},"vehicle_type_id":"4","last_reported":1734116844,"current_range_meters":38800,"station_id":"ce4bhgh2rcd13ifvqfb0","pricing_plan_id":"cebpf4jnsgd1na2vs0mg"},{"bike_id":"3a312272-900a-4c4b-bb5b-4ed6000e4b63","system_id":"levelo_inurba_marseille","lat":43.30142,"lon":5.38075,"is_reserved":false,"is_disabled":true,"rental_uris":{"android":"levelo://app?vid=3a312272-900a-4c4b-bb5b-4ed6000e4b63","ios":"levelo://app?vid=3a312272-900a-4c4b-bb5b-4ed6000e4b63"},"vehicle_type_id":"4","last_reported":1734116844,"current_range_meters":31200,"station_id":"ce4bgjp2rcd13ifvqbh0","pricing_plan_id":"cebpf4jnsgd1na2vs0mg"},{"bike_id":"d1e92dab-af6b-40d1-ab8b-c4427d0e787c","system_id":"levelo_inurba_marseille","lat":43.29031,"lon":5.38643,"is_reserved":false,"is_disabled":false,"rental_uris":{"android":"levelo://app?vid=d1e92dab-af6b-40d1-ab8b-c4427d0e787c","ios":"levelo://app?vid=d1e92dab-af6b-40d1-ab8b-c4427d0e787c"},"vehicle_type_id":"4","last_reported":1734116844,"current_range_meters":8400,"station_id":"ce4bh4p2rcd13ifvqe0g","pricing_plan_id":"cebpf4jnsgd1na2vs0mg"},{"bike_id":"7cf11fe2-da02-49ac-afd6-c22aa6ca4e04","system_id":"levelo_inurba_marseille","lat":43.29297,"lon":5.37446,"is_reserved":false,"is_disabled":false,"rental_uris":{"android":"levelo://app?vid=7cf11fe2-da02-49ac-afd6-c22aa6ca4e04","ios":"levelo://app?vid=7cf11fe2-da02-49ac-afd6-c22aa6ca4e04"},"vehicle_type_id":"4","last_reported":1734116844,"current_range_meters":38800,"station_id":"ce4bgi12rcd13ifvqb70","pricing_plan_id":"cebpf4jnsgd1na2vs0mg"},{"bike_id":"1246e6b9-1bba-43b9-9075-2687b084a677","system_id":"levelo_inurba_marseille","lat":43.25873,"lon":5.39903,"is_reserved":false,"is_disabled":false,"rental_uris":{"android":"levelo://app?vid=1246e6b9-1bba-43b9-9075-2687b084a677","ios":"levelo://app?vid=1246e6b9-1bba-43b9-9075-2687b084a677"},"vehicle_type_id":"4","last_reported":1734116844,"current_range_meters":16400,"station_id":"ce4bhl92rcd13ifvqghg","pricing_plan_id":"cebpf4jnsgd1na2vs0mg"},{"bike_id":"ca962d64-b97b-4b45-97aa-d8544859a59a","system_id":"levelo_inurba_marseille","lat":43.29252,"lon":5.38442,"is_reserved":false,"is_disabled":false,"rental_uris":{"android":"levelo://app?vid=ca962d64-b97b-4b45-97aa-d8544859a59a","ios":"levelo://app?vid=ca962d64-b97b-4b45-97aa-d8544859a59a"},"vehicle_type_id":"4","last_reported":1734116844,"current_range_meters":32800,"station_id":"ce4bh692rcd13ifvqea0","pricing_plan_id":"cebpf4jnsgd1na2vs0mg"},{"bike_id":"e16d62ab-463a-4bd2-8d1d-336b938962a8","system_id":"levelo_inurba_marseille","lat":43.313312,"lon":5.396882,"is_reserved":false,"is_disabled":false,"rental_uris":{"android":"levelo://app?vid=e16d62ab-463a-4bd2-8d1d-336b938962a8","ios":"levelo://app?vid=e16d62ab-463a-4bd2-8d1d-336b938962a8"},"vehicle_type_id":"4","last_reported":1734116844,"current_range_meters":12400,"station_id":"ce4bgvp2rcd13ifvqcu0","pricing_plan_id":"cebpf4jnsgd1na2vs0mg"},{"bike_id":"9658b4e0-946e-4511-8e18-b51586108f8c","system_id":"levelo_inurba_marseille","lat":43.33767,"lon":5.37418,"is_reserved":false,"is_disabled":false,"rental_uris":{"android":"levelo://app?vid=9658b4e0-946e-4511-8e18-b51586108f8c","ios":"levelo://app?vid=9658b4e0-946e-4511-8e18-b51586108f8c"},"vehicle_type_id":"4","last_reported":1734116844,"current_range_meters":36800,"station_id":"","pricing_plan_id":"cebpf4jnsgd1na2vs0mg"},{"bike_id":"62deda22-1fb7-432c-b85a-e74584847620","system_id":"levelo_inurba_marseille","lat":43.31169,"lon":5.3726,"is_reserved":false,"is_disabled":true,"rental_uris":{"android":"levelo://app?vid=62deda22-1fb7-432c-b85a-e74584847620","ios":"levelo://app?vid=62deda22-1fb7-432c-b85a-e74584847620"},"vehicle_type_id":"4","last_reported":1734116844,"current_range_meters":800,"station_id":"","pricing_plan_id":"cebpf4jnsgd1na2vs0mg"},{"bike_id":"9bfcebe4-fee2-409c-a8ab-5608ab6f061f","system_id":"levelo_inurba_marseille","lat":43.28153,"lon":5.42741,"is_reserved":false,"is_disabled":true,"rental_uris":{"android":"levelo://app?vid=9bfcebe4-fee2-409c-a8ab-5608ab6f061f","ios":"levelo://app?vid=9bfcebe4-fee2-409c-a8ab-5608ab6f061f"},"vehicle_type_id":"4","last_reported":1734116844,"current_range_meters":37600,"station_id":"","pricing_plan_id":"cebpf4jnsgd1na2vs0mg"},{"bike_id":"8ae45784-b726-4006-8425-39b126c596e5","system_id":"levelo_inurba_marseille","lat":43.29639,"lon":5.40596,"is_reserved":false,"is_disabled":false,"rental_uris":{"android":"levelo://app?vid=8ae45784-b726-4006-8425-39b126c596e5","ios":"levelo://app?vid=8ae45784-b726-4006-8425-39b126c596e5"},"vehicle_type_id":"4","last_reported":1734116844,"current_range_meters":30800,"station_id":"ce4bh0h2rcd13ifvqd60","pricing_plan_id":"cebpf4jnsgd1na2vs0mg"},{"bike_id":"0e8a89dc-4e73-48a3-8682-6696627877b1","system_id":"levelo_inurba_marseille","lat":43.31755,"lon":5.39018,"is_reserved":false,"is_disabled":false,"rental_uris":{"android":"levelo://app?vid=0e8a89dc-4e73-48a3-8682-6696627877b1","ios":"levelo://app?vid=0e8a89dc-4e73-48a3-8682-6696627877b1"},"vehicle_type_id":"4","last_reported":1734116844,"current_range_meters":38800,"station_id":"ce4bhqp2rcd13ifvqhng","pricing_plan_id":"cebpf4jnsgd1na2vs0mg"},{"bike_id":"edaea664-24e0-4d6c-aa7a-497f5c5f88f6","system_id":"levelo_inurba_marseille","lat":43.27005,"lon":5.39158,"is_reserved":false,"is_disabled":true,"rental_uris":{"android":"levelo://app?vid=edaea664-24e0-4d6c-aa7a-497f5c5f88f6","ios":"levelo://app?vid=edaea664-24e0-4d6c-aa7a-497f5c5f88f6"},"vehicle_type_id":"4","last_reported":1734116844,"current_range_meters":0,"station_id":"","pricing_plan_id":"cebpf4jnsgd1na2vs0mg"},{"bike_id":"72ad76d7-5a2d-4089-9d42-96862758d84f","system_id":"levelo_inurba_marseille","lat":43.29518,"lon":5.39037,"is_reserved":false,"is_disabled":true,"rental_uris":{"android":"levelo://app?vid=72ad76d7-5a2d-4089-9d42-96862758d84f","ios":"levelo://app?vid=72ad76d7-5a2d-4089-9d42-96862758d84f"},"vehicle_type_id":"4","last_reported":1734116844,"current_range_meters":34800,"station_id":"ce4bh3p2rcd13ifvqdp0","pricing_plan_id":"cebpf4jnsgd1na2vs0mg"},{"bike_id":"20cd681c-e1b2-4e02-a36a-4c0f539a1945","system_id":"levelo_inurba_marseille","lat":43.29982,"lon":5.3719,"is_reserved":false,"is_disabled":false,"rental_uris":{"android":"levelo://app?vid=20cd681c-e1b2-4e02-a36a-4c0f539a1945","ios":"levelo://app?vid=20cd681c-e1b2-4e02-a36a-4c0f539a1945"},"vehicle_type_id":"4","last_reported":1734116844,"current_range_meters":38800,"station_id":"ce4bgr92rcd13ifvqc7g","pricing_plan_id":"cebpf4jnsgd1na2vs0mg"},{"bike_id":"403c9864-8ad3-48a2-b1b2-de2cbdd0b4eb","system_id":"levelo_inurba_marseille","lat":43.291959,"lon":5.358129,"is_reserved":false,"is_disabled":false,"rental_uris":{"android":"levelo://app?vid=403c9864-8ad3-48a2-b1b2-de2cbdd0b4eb","ios":"levelo://app?vid=403c9864-8ad3-48a2-b1b2-de2cbdd0b4eb"},"vehicle_type_id":"4","last_reported":1734116844,"current_range_meters":30800,"station_id":"ce4bhb12rcd13ifvqel0","pricing_plan_id":"cebpf4jnsgd1na2vs0mg"},{"bike_id":"031809f5-fdc4-4687-967d-86d6a0becf47","system_id":"levelo_inurba_marseille","lat":43.25873,"lon":5.399,"is_reserved":false,"is_disabled":false,"rental_uris":{"android":"levelo://app?vid=031809f5-fdc4-4687-967d-86d6a0becf47","ios":"levelo://app?vid=031809f5-fdc4-4687-967d-86d6a0becf47"},"vehicle_type_id":"4","last_reported":1734116844,"current_range_meters":38800,"station_id":"ce4bhl92rcd13ifvqghg","pricing_plan_id":"cebpf4jnsgd1na2vs0mg"},{"bike_id":"c9566f61-12e7-4c86-9f58-a4feb49836d4","system_id":"levelo_inurba_marseille","lat":43.31881,"lon":5.40733,"is_reserved":false,"is_disabled":false,"rental_uris":{"android":"levelo://app?vid=c9566f61-12e7-4c86-9f58-a4feb49836d4","ios":"levelo://app?vid=c9566f61-12e7-4c86-9f58-a4feb49836d4"},"vehicle_type_id":"4","last_reported":1734116844,"current_range_meters":36800,"station_id":"ce4bhq12rcd13ifvqhig","pricing_plan_id":"cebpf4jnsgd1na2vs0mg"},{"bike_id":"75d005f1-a104-4287-b501-1002db049ee7","system_id":"levelo_inurba_marseille","lat":43.33697,"lon":5.39175,"is_reserved":false,"is_disabled":false,"rental_uris":{"android":"levelo://app?vid=75d005f1-a104-4287-b501-1002db049ee7","ios":"levelo://app?vid=75d005f1-a104-4287-b501-1002db049ee7"},"vehicle_type_id":"4","last_reported":1734116844,"current_range_meters":38800,"station_id":"ce4bhr92rcd13ifvqhsg","pricing_plan_id":"cebpf4jnsgd1na2vs0mg"},{"bike_id":"9c1ce7b6-f5d4-48dd-b699-4ec030edf6d0","system_id":"levelo_inurba_marseille","lat":43.33017,"lon":5.39043,"is_reserved":false,"is_disabled":false,"rental_uris":{"android":"levelo://app?vid=9c1ce7b6-f5d4-48dd-b699-4ec030edf6d0","ios":"levelo://app?vid=9c1ce7b6-f5d4-48dd-b699-4ec030edf6d0"},"vehicle_type_id":"4","last_reported":1734116844,"current_range_meters":16000,"station_id":"ce4bhr92rcd13ifvqhrg","pricing_plan_id":"cebpf4jnsgd1na2vs0mg"},{"bike_id":"f033cfd4-7365-4186-a55c-05367d323832","system_id":"levelo_inurba_marseille","lat":43.30141,"lon":5.37424,"is_reserved":false,"is_disabled":false,"rental_uris":{"android":"levelo://app?vid=f033cfd4-7365-4186-a55c-05367d323832","ios":"levelo://app?vid=f033cfd4-7365-4186-a55c-05367d323832"},"vehicle_type_id":"4","last_reported":1734116844,"current_range_meters":36000,"station_id":"ce4bgs92rcd13ifvqcc0","pricing_plan_id":"cebpf4jnsgd1na2vs0mg"},{"bike_id":"30b7f7b0-cffb-44e8-9e23-86428fe1183d","system_id":"levelo_inurba_marseille","lat":43.23066,"lon":5.35489,"is_reserved":false,"is_disabled":false,"rental_uris":{"android":"levelo://app?vid=30b7f7b0-cffb-44e8-9e23-86428fe1183d","ios":"levelo://app?vid=30b7f7b0-cffb-44e8-9e23-86428fe1183d"},"vehicle_type_id":"4","last_reported":1734116844,"current_range_meters":36800,"station_id":"cpo3342slgdg3j2ifvpg","pricing_plan_id":"cebpf4jnsgd1na2vs0mg"},{"bike_id":"c962957d-ec10-4997-96e1-a869343f922e","system_id":"levelo_inurba_marseille","lat":43.32668,"lon":5.36078,"is_reserved":false,"is_disabled":false,"rental_uris":{"android":"levelo://app?vid=c962957d-ec10-4997-96e1-a869343f922e","ios":"levelo://app?vid=c962957d-ec10-4997-96e1-a869343f922e"},"vehicle_type_id":"4","last_reported":1734116844,"current_range_meters":4800,"station_id":"","pricing_plan_id":"cebpf4jnsgd1na2vs0mg"},{"bike_id":"1188eacb-58da-4d47-897c-1fe95868a1f1","system_id":"levelo_inurba_marseille","lat":43.30131,"lon":5.3877,"is_reserved":false,"is_disabled":false,"rental_uris":{"android":"levelo://app?vid=1188eacb-58da-4d47-897c-1fe95868a1f1","ios":"levelo://app?vid=1188eacb-58da-4d47-897c-1fe95868a1f1"},"vehicle_type_id":"4","last_reported":1734116844,"current_range_meters":25600,"station_id":"ce4bhoh2rcd13ifvqh6g","pricing_plan_id":"cebpf4jnsgd1na2vs0mg"},{"bike_id":"bb14f36d-3645-4531-9655-e845e98af035","system_id":"levelo_inurba_marseille","lat":43.32278,"lon":5.38226,"is_reserved":false,"is_disabled":false,"rental_uris":{"android":"levelo://app?vid=bb14f36d-3645-4531-9655-e845e98af035","ios":"levelo://app?vid=bb14f36d-3645-4531-9655-e845e98af035"},"vehicle_type_id":"4","last_reported":1734116844,"current_range_meters":7200,"station_id":"ce4bhr12rcd13ifvqhqg","pricing_plan_id":"cebpf4jnsgd1na2vs0mg"},{"bike_id":"29a8e006-8bd6-44e1-9ab2-02ee181f99b7","system_id":"levelo_inurba_marseille","lat":43.24647,"lon":5.38887,"is_reserved":false,"is_disabled":false,"rental_uris":{"android":"levelo://app?vid=29a8e006-8bd6-44e1-9ab2-02ee181f99b7","ios":"levelo://app?vid=29a8e006-8bd6-44e1-9ab2-02ee181f99b7"},"vehicle_type_id":"4","last_reported":1734116844,"current_range_meters":20400,"station_id":"ce4bhg12rcd13ifvqf60","pricing_plan_id":"cebpf4jnsgd1na2vs0mg"},{"bike_id":"cbbcf45e-974e-48ba-bce0-733787519ee1","system_id":"levelo_inurba_marseille","lat":43.29242,"lon":5.38453,"is_reserved":false,"is_disabled":false,"rental_uris":{"android":"levelo://app?vid=cbbcf45e-974e-48ba-bce0-733787519ee1","ios":"levelo://app?vid=cbbcf45e-974e-48ba-bce0-733787519ee1"},"vehicle_type_id":"4","last_reported":1734116844,"current_range_meters":38800,"station_id":"ce4bh692rcd13ifvqea0","pricing_plan_id":"cebpf4jnsgd1na2vs0mg"},{"bike_id":"bd733ec7-7958-403e-81a6-eae5589f111e","system_id":"levelo_inurba_marseille","lat":43.29984,"lon":5.3718,"is_reserved":false,"is_disabled":false,"rental_uris":{"android":"levelo://app?vid=bd733ec7-7958-403e-81a6-eae5589f111e","ios":"levelo://app?vid=bd733ec7-7958-403e-81a6-eae5589f111e"},"vehicle_type_id":"4","last_reported":1734116844,"current_range_meters":28000,"station_id":"ce4bgr92rcd13ifvqc7g","pricing_plan_id":"cebpf4jnsgd1na2vs0mg"},{"bike_id":"87a629a3-d105-40c3-86ef-ac690fff2805","system_id":"levelo_inurba_marseille","lat":43.29276,"lon":5.36839,"is_reserved":false,"is_disabled":false,"rental_uris":{"android":"levelo://app?vid=87a629a3-d105-40c3-86ef-ac690fff2805","ios":"levelo://app?vid=87a629a3-d105-40c3-86ef-ac690fff2805"},"vehicle_type_id":"4","last_reported":1734116844,"current_range_meters":6800,"station_id":"ce4bhbp2rcd13ifvqesg","pricing_plan_id":"cebpf4jnsgd1na2vs0mg"},{"bike_id":"bc77552c-f2bc-4368-bc19-7004372d4910","system_id":"levelo_inurba_marseille","lat":43.31329,"lon":5.39688,"is_reserved":false,"is_disabled":false,"rental_uris":{"android":"levelo://app?vid=bc77552c-f2bc-4368-bc19-7004372d4910","ios":"levelo://app?vid=bc77552c-f2bc-4368-bc19-7004372d4910"},"vehicle_type_id":"4","last_reported":1734116844,"current_range_meters":38800,"station_id":"ce4bgvp2rcd13ifvqcu0","pricing_plan_id":"cebpf4jnsgd1na2vs0mg"},{"bike_id":"773210ee-d19a-4226-90f8-e420da4ce6bd","system_id":"levelo_inurba_marseille","lat":43.30243,"lon":5.40035,"is_reserved":false,"is_disabled":true,"rental_uris":{"android":"levelo://app?vid=773210ee-d19a-4226-90f8-e420da4ce6bd","ios":"levelo://app?vid=773210ee-d19a-4226-90f8-e420da4ce6bd"},"vehicle_type_id":"4","last_reported":1734116844,"current_range_meters":6400,"station_id":"ce4bgvh2rcd13ifvqcs0","pricing_plan_id":"cebpf4jnsgd1na2vs0mg"},{"bike_id":"da345435-a4ab-4142-96e2-d4c3515056c7","system_id":"levelo_inurba_marseille","lat":43.30137,"lon":5.38781,"is_reserved":false,"is_disabled":true,"rental_uris":{"android":"levelo://app?vid=da345435-a4ab-4142-96e2-d4c3515056c7","ios":"levelo://app?vid=da345435-a4ab-4142-96e2-d4c3515056c7"},"vehicle_type_id":"4","last_reported":1734116844,"current_range_meters":0,"station_id":"ce4bghh2rcd13ifvqb60","pricing_plan_id":"cebpf4jnsgd1na2vs0mg"},{"bike_id":"db447041-11ac-4071-bfd3-851b70762ace","system_id":"levelo_inurba_marseille","lat":43.29926,"lon":5.36538,"is_reserved":false,"is_disabled":false,"rental_uris":{"android":"levelo://app?vid=db447041-11ac-4071-bfd3-851b70762ace","ios":"levelo://app?vid=db447041-11ac-4071-bfd3-851b70762ace"},"vehicle_type_id":"4","last_reported":1734116844,"current_range_meters":39200,"station_id":"ce4bgm92rcd13ifvqbr0","pricing_plan_id":"cebpf4jnsgd1na2vs0mg"},{"bike_id":"2d7a1d93-135c-496a-a928-c47315373230","system_id":"levelo_inurba_marseille","lat":43.2781,"lon":5.40711,"is_reserved":false,"is_disabled":false,"rental_uris":{"android":"levelo://app?vid=2d7a1d93-135c-496a-a928-c47315373230","ios":"levelo://app?vid=2d7a1d93-135c-496a-a928-c47315373230"},"vehicle_type_id":"4","last_reported":1734116844,"current_range_meters":39200,"station_id":"ce4bhnh2rcd13ifvqgtg","pricing_plan_id":"cebpf4jnsgd1na2vs0mg"},{"bike_id":"5dc193db-d061-4092-90a6-9c124be735be","system_id":"levelo_inurba_marseille","lat":43.29407,"lon":5.3863,"is_reserved":false,"is_disabled":false,"rental_uris":{"android":"levelo://app?vid=5dc193db-d061-4092-90a6-9c124be735be","ios":"levelo://app?vid=5dc193db-d061-4092-90a6-9c124be735be"},"vehicle_type_id":"4","last_reported":1734116844,"current_range_meters":8000,"station_id":"ce4bh2h2rcd13ifvqdh0","pricing_plan_id":"cebpf4jnsgd1na2vs0mg"},{"bike_id":"9ad311dd-c450-4f09-933a-ef53d4559dc3","system_id":"levelo_inurba_marseille","lat":43.269847,"lon":5.398539,"is_reserved":false,"is_disabled":false,"rental_uris":{"android":"levelo://app?vid=9ad311dd-c450-4f09-933a-ef53d4559dc3","ios":"levelo://app?vid=9ad311dd-c450-4f09-933a-ef53d4559dc3"},"vehicle_type_id":"4","last_reported":1734116844,"current_range_meters":30000,"station_id":"","pricing_plan_id":"cebpf4jnsgd1na2vs0mg"},{"bike_id":"912b883c-2b11-452d-8100-bed8ee358024","system_id":"levelo_inurba_marseille","lat":43.29306,"lon":5.374875,"is_reserved":false,"is_disabled":false,"rental_uris":{"android":"levelo://app?vid=912b883c-2b11-452d-8100-bed8ee358024","ios":"levelo://app?vid=912b883c-2b11-452d-8100-bed8ee358024"},"vehicle_type_id":"4","last_reported":1734116844,"current_range_meters":18000,"station_id":"ce4bgi12rcd13ifvqb70","pricing_plan_id":"cebpf4jnsgd1na2vs0mg"},{"bike_id":"bce1913d-13f5-469f-8709-44c0a7c45ffd","system_id":"levelo_inurba_marseille","lat":43.29039,"lon":5.37558,"is_reserved":false,"is_disabled":false,"rental_uris":{"android":"levelo://app?vid=bce1913d-13f5-469f-8709-44c0a7c45ffd","ios":"levelo://app?vid=bce1913d-13f5-469f-8709-44c0a7c45ffd"},"vehicle_type_id":"4","last_reported":1734116844,"current_range_meters":6800,"station_id":"ce4bh692rcd13ifvqe90","pricing_plan_id":"cebpf4jnsgd1na2vs0mg"},{"bike_id":"5a65a55d-8a1b-4f2f-b0f8-764836fd1a7c","system_id":"levelo_inurba_marseille","lat":43.24798,"lon":5.37459,"is_reserved":false,"is_disabled":false,"rental_uris":{"android":"levelo://app?vid=5a65a55d-8a1b-4f2f-b0f8-764836fd1a7c","ios":"levelo://app?vid=5a65a55d-8a1b-4f2f-b0f8-764836fd1a7c"},"vehicle_type_id":"4","last_reported":1734116844,"current_range_meters":17600,"station_id":"ce4bhgh2rcd13ifvqfb0","pricing_plan_id":"cebpf4jnsgd1na2vs0mg"},{"bike_id":"af67ac53-ba21-4ff0-8334-95679e9ff2cc","system_id":"levelo_inurba_marseille","lat":43.278805,"lon":5.388003,"is_reserved":false,"is_disabled":true,"rental_uris":{"android":"levelo://app?vid=af67ac53-ba21-4ff0-8334-95679e9ff2cc","ios":"levelo://app?vid=af67ac53-ba21-4ff0-8334-95679e9ff2cc"},"vehicle_type_id":"4","last_reported":1734116844,"current_range_meters":5600,"station_id":"","pricing_plan_id":"cebpf4jnsgd1na2vs0mg"},{"bike_id":"2a392c48-5f99-4704-96d2-f5c965baf6b6","system_id":"levelo_inurba_marseille","lat":43.26202,"lon":5.37925,"is_reserved":false,"is_disabled":false,"rental_uris":{"android":"levelo://app?vid=2a392c48-5f99-4704-96d2-f5c965baf6b6","ios":"levelo://app?vid=2a392c48-5f99-4704-96d2-f5c965baf6b6"},"vehicle_type_id":"4","last_reported":1734116844,"current_range_meters":17200,"station_id":"ce4bhjp2rcd13ifvqg90","pricing_plan_id":"cebpf4jnsgd1na2vs0mg"},{"bike_id":"de5da792-364e-4899-a64c-52c036f31a48","system_id":"levelo_inurba_marseille","lat":43.29574,"lon":5.37505,"is_reserved":false,"is_disabled":true,"rental_uris":{"android":"levelo://app?vid=de5da792-364e-4899-a64c-52c036f31a48","ios":"levelo://app?vid=de5da792-364e-4899-a64c-52c036f31a48"},"vehicle_type_id":"4","last_reported":1734116844,"current_range_meters":2000,"station_id":"ce4bgh92rcd13ifvqb50","pricing_plan_id":"cebpf4jnsgd1na2vs0mg"},{"bike_id":"6bdeafa2-9cf8-4a03-9b4b-71fe1c5f1eeb","system_id":"levelo_inurba_marseille","lat":43.26956,"lon":5.40239,"is_reserved":false,"is_disabled":true,"rental_uris":{"android":"levelo://app?vid=6bdeafa2-9cf8-4a03-9b4b-71fe1c5f1eeb","ios":"levelo://app?vid=6bdeafa2-9cf8-4a03-9b4b-71fe1c5f1eeb"},"vehicle_type_id":"4","last_reported":1734116844,"current_range_meters":1200,"station_id":"cjm6bp8fraef2m0cb0m0","pricing_plan_id":"cebpf4jnsgd1na2vs0mg"},{"bike_id":"88a00528-742e-454c-b180-00fe329b5d7b","system_id":"levelo_inurba_marseille","lat":43.27836,"lon":5.39201,"is_reserved":false,"is_disabled":false,"rental_uris":{"android":"levelo://app?vid=88a00528-742e-454c-b180-00fe329b5d7b","ios":"levelo://app?vid=88a00528-742e-454c-b180-00fe329b5d7b"},"vehicle_type_id":"4","last_reported":1734116844,"current_range_meters":20800,"station_id":"ce4bhjp2rcd13ifvqga0","pricing_plan_id":"cebpf4jnsgd1na2vs0mg"},{"bike_id":"d8d7ffef-ae54-446a-a28c-8265164b47ce","system_id":"levelo_inurba_marseille","lat":43.29166,"lon":5.43899,"is_reserved":false,"is_disabled":true,"rental_uris":{"android":"levelo://app?vid=d8d7ffef-ae54-446a-a28c-8265164b47ce","ios":"levelo://app?vid=d8d7ffef-ae54-446a-a28c-8265164b47ce"},"vehicle_type_id":"4","last_reported":1734116844,"current_range_meters":28400,"station_id":"","pricing_plan_id":"cebpf4jnsgd1na2vs0mg"},{"bike_id":"c5768e7e-b244-4dfc-973f-384fac771fcc","system_id":"levelo_inurba_marseille","lat":43.27991,"lon":5.41655,"is_reserved":false,"is_disabled":false,"rental_uris":{"android":"levelo://app?vid=c5768e7e-b244-4dfc-973f-384fac771fcc","ios":"levelo://app?vid=c5768e7e-b244-4dfc-973f-384fac771fcc"},"vehicle_type_id":"4","last_reported":1734116844,"current_range_meters":38800,"station_id":"ce4bho12rcd13ifvqh1g","pricing_plan_id":"cebpf4jnsgd1na2vs0mg"},{"bike_id":"d65fcea9-51ba-41f0-86fd-e798dfdd6f09","system_id":"levelo_inurba_marseille","lat":43.28676,"lon":5.38342,"is_reserved":false,"is_disabled":true,"rental_uris":{"android":"levelo://app?vid=d65fcea9-51ba-41f0-86fd-e798dfdd6f09","ios":"levelo://app?vid=d65fcea9-51ba-41f0-86fd-e798dfdd6f09"},"vehicle_type_id":"4","last_reported":1734116844,"current_range_meters":0,"station_id":"","pricing_plan_id":"cebpf4jnsgd1na2vs0mg"},{"bike_id":"02302532-92bc-4ff1-b1c5-e5a3b27f308c","system_id":"levelo_inurba_marseille","lat":43.28616,"lon":5.35101,"is_reserved":false,"is_disabled":false,"rental_uris":{"android":"levelo://app?vid=02302532-92bc-4ff1-b1c5-e5a3b27f308c","ios":"levelo://app?vid=02302532-92bc-4ff1-b1c5-e5a3b27f308c"},"vehicle_type_id":"4","last_reported":1734116844,"current_range_meters":28800,"station_id":"ce4bhch2rcd13ifvqeug","pricing_plan_id":"cebpf4jnsgd1na2vs0mg"},{"bike_id":"3cffa040-7e8b-4d9e-a1bd-b8a78d782447","system_id":"levelo_inurba_marseille","lat":43.314905,"lon":5.373088,"is_reserved":false,"is_disabled":true,"rental_uris":{"android":"levelo://app?vid=3cffa040-7e8b-4d9e-a1bd-b8a78d782447","ios":"levelo://app?vid=3cffa040-7e8b-4d9e-a1bd-b8a78d782447"},"vehicle_type_id":"4","last_reported":1734116844,"current_range_meters":2800,"station_id":"","pricing_plan_id":"cebpf4jnsgd1na2vs0mg"},{"bike_id":"ad5cbd3d-7c9b-45b6-9e26-bf9ba9cfbc39","system_id":"levelo_inurba_marseille","lat":43.28003,"lon":5.40008,"is_reserved":false,"is_disabled":false,"rental_uris":{"android":"levelo://app?vid=ad5cbd3d-7c9b-45b6-9e26-bf9ba9cfbc39","ios":"levelo://app?vid=ad5cbd3d-7c9b-45b6-9e26-bf9ba9cfbc39"},"vehicle_type_id":"4","last_reported":1734116844,"current_range_meters":39200,"station_id":"ce4bho92rcd13ifvqh4g","pricing_plan_id":"cebpf4jnsgd1na2vs0mg"},{"bike_id":"64203de9-e72b-4d66-9a84-7a315c7ed37f","system_id":"levelo_inurba_marseille","lat":43.294395,"lon":5.374353,"is_reserved":false,"is_disabled":true,"rental_uris":{"android":"levelo://app?vid=64203de9-e72b-4d66-9a84-7a315c7ed37f","ios":"levelo://app?vid=64203de9-e72b-4d66-9a84-7a315c7ed37f"},"vehicle_type_id":"4","last_reported":1734116844,"current_range_meters":0,"station_id":"","pricing_plan_id":"cebpf4jnsgd1na2vs0mg"},{"bike_id":"3f0d0fb5-feda-4ef6-a3a0-44978a5308a7","system_id":"levelo_inurba_marseille","lat":43.32112,"lon":5.36776,"is_reserved":false,"is_disabled":false,"rental_uris":{"android":"levelo://app?vid=3f0d0fb5-feda-4ef6-a3a0-44978a5308a7","ios":"levelo://app?vid=3f0d0fb5-feda-4ef6-a3a0-44978a5308a7"},"vehicle_type_id":"4","last_reported":1734116844,"current_range_meters":28400,"station_id":"ce4bhrh2rcd13ifvqhug","pricing_plan_id":"cebpf4jnsgd1na2vs0mg"},{"bike_id":"76af30ab-27aa-4350-8972-f8a294ad6b70","system_id":"levelo_inurba_marseille","lat":43.33019,"lon":5.39039,"is_reserved":false,"is_disabled":false,"rental_uris":{"android":"levelo://app?vid=76af30ab-27aa-4350-8972-f8a294ad6b70","ios":"levelo://app?vid=76af30ab-27aa-4350-8972-f8a294ad6b70"},"vehicle_type_id":"4","last_reported":1734116844,"current_range_meters":38400,"station_id":"ce4bhr92rcd13ifvqhrg","pricing_plan_id":"cebpf4jnsgd1na2vs0mg"},{"bike_id":"79366076-3d3f-4011-a05d-e752a9571446","system_id":"levelo_inurba_marseille","lat":43.3108,"lon":5.38351,"is_reserved":false,"is_disabled":false,"rental_uris":{"android":"levelo://app?vid=79366076-3d3f-4011-a05d-e752a9571446","ios":"levelo://app?vid=79366076-3d3f-4011-a05d-e752a9571446"},"vehicle_type_id":"4","last_reported":1734116844,"current_range_meters":33200,"station_id":"ce4bgv92rcd13ifvqcr0","pricing_plan_id":"cebpf4jnsgd1na2vs0mg"},{"bike_id":"9adc72a5-bbbe-4d5c-9f82-b6efe4a8f585","system_id":"levelo_inurba_marseille","lat":43.31349,"lon":5.38499,"is_reserved":false,"is_disabled":false,"rental_uris":{"android":"levelo://app?vid=9adc72a5-bbbe-4d5c-9f82-b6efe4a8f585","ios":"levelo://app?vid=9adc72a5-bbbe-4d5c-9f82-b6efe4a8f585"},"vehicle_type_id":"4","last_reported":1734116844,"current_range_meters":28400,"station_id":"ce4bgt92rcd13ifvqcf0","pricing_plan_id":"cebpf4jnsgd1na2vs0mg"},{"bike_id":"b6d5c7a7-b77a-42e4-8264-5d52156a33b6","system_id":"levelo_inurba_marseille","lat":43.30291,"lon":5.39231,"is_reserved":false,"is_disabled":false,"rental_uris":{"android":"levelo://app?vid=b6d5c7a7-b77a-42e4-8264-5d52156a33b6","ios":"levelo://app?vid=b6d5c7a7-b77a-42e4-8264-5d52156a33b6"},"vehicle_type_id":"4","last_reported":1734116844,"current_range_meters":24800,"station_id":"ce4bgkh2rcd13ifvqbk0","pricing_plan_id":"cebpf4jnsgd1na2vs0mg"},{"bike_id":"5c23befe-e7d4-4dee-ac43-14eb04f945cb","system_id":"levelo_inurba_marseille","lat":43.25943,"lon":5.39896,"is_reserved":false,"is_disabled":false,"rental_uris":{"android":"levelo://app?vid=5c23befe-e7d4-4dee-ac43-14eb04f945cb","ios":"levelo://app?vid=5c23befe-e7d4-4dee-ac43-14eb04f945cb"},"vehicle_type_id":"4","last_reported":1734116844,"current_range_meters":4400,"station_id":"","pricing_plan_id":"cebpf4jnsgd1na2vs0mg"},{"bike_id":"83697503-ebb6-4133-8865-690e94a16a9b","system_id":"levelo_inurba_marseille","lat":43.24181,"lon":5.39724,"is_reserved":false,"is_disabled":false,"rental_uris":{"android":"levelo://app?vid=83697503-ebb6-4133-8865-690e94a16a9b","ios":"levelo://app?vid=83697503-ebb6-4133-8865-690e94a16a9b"},"vehicle_type_id":"4","last_reported":1734116844,"current_range_meters":38800,"station_id":"ce4bhn12rcd13ifvqgpg","pricing_plan_id":"cebpf4jnsgd1na2vs0mg"},{"bike_id":"8a370a31-3c4f-4551-9a2a-97a57747688e","system_id":"levelo_inurba_marseille","lat":43.29532,"lon":5.39401,"is_reserved":false,"is_disabled":false,"rental_uris":{"android":"levelo://app?vid=8a370a31-3c4f-4551-9a2a-97a57747688e","ios":"levelo://app?vid=8a370a31-3c4f-4551-9a2a-97a57747688e"},"vehicle_type_id":"4","last_reported":1734116844,"current_range_meters":24800,"station_id":"ce4bh292rcd13ifvqdf0","pricing_plan_id":"cebpf4jnsgd1na2vs0mg"},{"bike_id":"587d1480-4fc3-4d5b-8eb5-a83598d69164","system_id":"levelo_inurba_marseille","lat":43.29267,"lon":5.40114,"is_reserved":false,"is_disabled":true,"rental_uris":{"android":"levelo://app?vid=587d1480-4fc3-4d5b-8eb5-a83598d69164","ios":"levelo://app?vid=587d1480-4fc3-4d5b-8eb5-a83598d69164"},"vehicle_type_id":"4","last_reported":1734116844,"current_range_meters":2000,"station_id":"ce4bh312rcd13ifvqdk0","pricing_plan_id":"cebpf4jnsgd1na2vs0mg"},{"bike_id":"2fb7b4e2-3197-42e8-a372-f51dff7d551f","system_id":"levelo_inurba_marseille","lat":43.29273,"lon":5.36842,"is_reserved":false,"is_disabled":true,"rental_uris":{"android":"levelo://app?vid=2fb7b4e2-3197-42e8-a372-f51dff7d551f","ios":"levelo://app?vid=2fb7b4e2-3197-42e8-a372-f51dff7d551f"},"vehicle_type_id":"4","last_reported":1734116844,"current_range_meters":400,"station_id":"ce4bhbp2rcd13ifvqesg","pricing_plan_id":"cebpf4jnsgd1na2vs0mg"},{"bike_id":"2bead35c-7957-47fc-ad42-279d34b99a03","system_id":"levelo_inurba_marseille","lat":43.29251,"lon":5.3843,"is_reserved":false,"is_disabled":false,"rental_uris":{"android":"levelo://app?vid=2bead35c-7957-47fc-ad42-279d34b99a03","ios":"levelo://app?vid=2bead35c-7957-47fc-ad42-279d34b99a03"},"vehicle_type_id":"4","last_reported":1734116844,"current_range_meters":34000,"station_id":"ce4bh692rcd13ifvqea0","pricing_plan_id":"cebpf4jnsgd1na2vs0mg"},{"bike_id":"b948092c-9ab4-45a3-af33-669f10a0ca1c","system_id":"levelo_inurba_marseille","lat":43.24815,"lon":5.3744,"is_reserved":false,"is_disabled":false,"rental_uris":{"android":"levelo://app?vid=b948092c-9ab4-45a3-af33-669f10a0ca1c","ios":"levelo://app?vid=b948092c-9ab4-45a3-af33-669f10a0ca1c"},"vehicle_type_id":"4","last_reported":1734116844,"current_range_meters":36000,"station_id":"ce4bhgh2rcd13ifvqfb0","pricing_plan_id":"cebpf4jnsgd1na2vs0mg"},{"bike_id":"bb6094dd-51eb-4016-a439-f2743865afe4","system_id":"levelo_inurba_marseille","lat":43.308973,"lon":5.378643,"is_reserved":false,"is_disabled":true,"rental_uris":{"android":"levelo://app?vid=bb6094dd-51eb-4016-a439-f2743865afe4","ios":"levelo://app?vid=bb6094dd-51eb-4016-a439-f2743865afe4"},"vehicle_type_id":"4","last_reported":1734116844,"current_range_meters":26000,"station_id":"","pricing_plan_id":"cebpf4jnsgd1na2vs0mg"},{"bike_id":"e0a31c9a-be2e-435b-b95c-7118ac48c310","system_id":"levelo_inurba_marseille","lat":43.32292,"lon":5.38278,"is_reserved":false,"is_disabled":false,"rental_uris":{"android":"levelo://app?vid=e0a31c9a-be2e-435b-b95c-7118ac48c310","ios":"levelo://app?vid=e0a31c9a-be2e-435b-b95c-7118ac48c310"},"vehicle_type_id":"4","last_reported":1734116844,"current_range_meters":8400,"station_id":"ce4bhr12rcd13ifvqhqg","pricing_plan_id":"cebpf4jnsgd1na2vs0mg"},{"bike_id":"aa96e309-5a5d-4571-a19c-0edc8b8a0ba5","system_id":"levelo_inurba_marseille","lat":43.29985,"lon":5.37111,"is_reserved":false,"is_disabled":false,"rental_uris":{"android":"levelo://app?vid=aa96e309-5a5d-4571-a19c-0edc8b8a0ba5","ios":"levelo://app?vid=aa96e309-5a5d-4571-a19c-0edc8b8a0ba5"},"vehicle_type_id":"4","last_reported":1734116844,"current_range_meters":36000,"station_id":"ce4bgr92rcd13ifvqc7g","pricing_plan_id":"cebpf4jnsgd1na2vs0mg"},{"bike_id":"818ef841-d8c0-4c92-9c0c-4a12654cda95","system_id":"levelo_inurba_marseille","lat":43.30581,"lon":5.3722,"is_reserved":false,"is_disabled":false,"rental_uris":{"android":"levelo://app?vid=818ef841-d8c0-4c92-9c0c-4a12654cda95","ios":"levelo://app?vid=818ef841-d8c0-4c92-9c0c-4a12654cda95"},"vehicle_type_id":"4","last_reported":1734116844,"current_range_meters":28400,"station_id":"ce4bgqh2rcd13ifvqc4g","pricing_plan_id":"cebpf4jnsgd1na2vs0mg"},{"bike_id":"de78bc13-10a3-4ec7-bfa0-2b3d5fb981eb","system_id":"levelo_inurba_marseille","lat":43.32071,"lon":5.37628,"is_reserved":false,"is_disabled":false,"rental_uris":{"android":"levelo://app?vid=de78bc13-10a3-4ec7-bfa0-2b3d5fb981eb","ios":"levelo://app?vid=de78bc13-10a3-4ec7-bfa0-2b3d5fb981eb"},"vehicle_type_id":"4","last_reported":1734116844,"current_range_meters":37600,"station_id":"","pricing_plan_id":"cebpf4jnsgd1na2vs0mg"},{"bike_id":"24047a4d-8925-410b-b746-8b424d09c92a","system_id":"levelo_inurba_marseille","lat":43.24805,"lon":5.37456,"is_reserved":false,"is_disabled":false,"rental_uris":{"android":"levelo://app?vid=24047a4d-8925-410b-b746-8b424d09c92a","ios":"levelo://app?vid=24047a4d-8925-410b-b746-8b424d09c92a"},"vehicle_type_id":"4","last_reported":1734116844,"current_range_meters":39200,"station_id":"ce4bhgh2rcd13ifvqfb0","pricing_plan_id":"cebpf4jnsgd1na2vs0mg"},{"bike_id":"7d6ea1a3-2c9f-4f87-bcd4-55e0f0102c9b","system_id":"levelo_inurba_marseille","lat":43.29782,"lon":5.37089,"is_reserved":false,"is_disabled":false,"rental_uris":{"android":"levelo://app?vid=7d6ea1a3-2c9f-4f87-bcd4-55e0f0102c9b","ios":"levelo://app?vid=7d6ea1a3-2c9f-4f87-bcd4-55e0f0102c9b"},"vehicle_type_id":"4","last_reported":1734116844,"current_range_meters":16800,"station_id":"ce4bgop2rcd13ifvqc1g","pricing_plan_id":"cebpf4jnsgd1na2vs0mg"},{"bike_id":"915b1324-cf09-4d52-a36f-58bb08e14eca","system_id":"levelo_inurba_marseille","lat":43.31073,"lon":5.38353,"is_reserved":false,"is_disabled":true,"rental_uris":{"android":"levelo://app?vid=915b1324-cf09-4d52-a36f-58bb08e14eca","ios":"levelo://app?vid=915b1324-cf09-4d52-a36f-58bb08e14eca"},"vehicle_type_id":"4","last_reported":1734116844,"current_range_meters":0,"station_id":"ce4bgv92rcd13ifvqcr0","pricing_plan_id":"cebpf4jnsgd1na2vs0mg"},{"bike_id":"ccc9e736-395b-4466-94dc-6a787309142a","system_id":"levelo_inurba_marseille","lat":43.31488,"lon":5.37587,"is_reserved":false,"is_disabled":false,"rental_uris":{"android":"levelo://app?vid=ccc9e736-395b-4466-94dc-6a787309142a","ios":"levelo://app?vid=ccc9e736-395b-4466-94dc-6a787309142a"},"vehicle_type_id":"4","last_reported":1734116844,"current_range_meters":38800,"station_id":"","pricing_plan_id":"cebpf4jnsgd1na2vs0mg"},{"bike_id":"1e267932-f6c6-4991-9c6b-8abf107c1a22","system_id":"levelo_inurba_marseille","lat":43.32288,"lon":5.38256,"is_reserved":false,"is_disabled":false,"rental_uris":{"android":"levelo://app?vid=1e267932-f6c6-4991-9c6b-8abf107c1a22","ios":"levelo://app?vid=1e267932-f6c6-4991-9c6b-8abf107c1a22"},"vehicle_type_id":"4","last_reported":1734116844,"current_range_meters":39200,"station_id":"ce4bhr12rcd13ifvqhqg","pricing_plan_id":"cebpf4jnsgd1na2vs0mg"},{"bike_id":"2e6efb07-e4e4-4e9b-9af7-17b57b90ab5b","system_id":"levelo_inurba_marseille","lat":43.27939,"lon":5.4104,"is_reserved":false,"is_disabled":false,"rental_uris":{"android":"levelo://app?vid=2e6efb07-e4e4-4e9b-9af7-17b57b90ab5b","ios":"levelo://app?vid=2e6efb07-e4e4-4e9b-9af7-17b57b90ab5b"},"vehicle_type_id":"4","last_reported":1734116844,"current_range_meters":38800,"station_id":"ce4bhnp2rcd13ifvqh0g","pricing_plan_id":"cebpf4jnsgd1na2vs0mg"},{"bike_id":"1484a08c-55ac-40d8-89a0-22f91086316b","system_id":"levelo_inurba_marseille","lat":43.29065,"lon":5.39987,"is_reserved":false,"is_disabled":true,"rental_uris":{"android":"levelo://app?vid=1484a08c-55ac-40d8-89a0-22f91086316b","ios":"levelo://app?vid=1484a08c-55ac-40d8-89a0-22f91086316b"},"vehicle_type_id":"4","last_reported":1734116844,"current_range_meters":37600,"station_id":"ce4bh392rcd13ifvqdm0","pricing_plan_id":"cebpf4jnsgd1na2vs0mg"},{"bike_id":"1f8df251-c5a6-4258-b15b-89cf161eb63a","system_id":"levelo_inurba_marseille","lat":43.26033,"lon":5.37543,"is_reserved":false,"is_disabled":false,"rental_uris":{"android":"levelo://app?vid=1f8df251-c5a6-4258-b15b-89cf161eb63a","ios":"levelo://app?vid=1f8df251-c5a6-4258-b15b-89cf161eb63a"},"vehicle_type_id":"4","last_reported":1734116844,"current_range_meters":24800,"station_id":"","pricing_plan_id":"cebpf4jnsgd1na2vs0mg"},{"bike_id":"6bc7401a-ad66-4e4d-bfd6-a954bc5b40c0","system_id":"levelo_inurba_marseille","lat":43.337527,"lon":5.37441,"is_reserved":false,"is_disabled":false,"rental_uris":{"android":"levelo://app?vid=6bc7401a-ad66-4e4d-bfd6-a954bc5b40c0","ios":"levelo://app?vid=6bc7401a-ad66-4e4d-bfd6-a954bc5b40c0"},"vehicle_type_id":"4","last_reported":1734116844,"current_range_meters":28800,"station_id":"","pricing_plan_id":"cebpf4jnsgd1na2vs0mg"},{"bike_id":"ace4b922-46fc-4280-876c-f499c5ab2105","system_id":"levelo_inurba_marseille","lat":43.28913,"lon":5.36421,"is_reserved":false,"is_disabled":false,"rental_uris":{"android":"levelo://app?vid=ace4b922-46fc-4280-876c-f499c5ab2105","ios":"levelo://app?vid=ace4b922-46fc-4280-876c-f499c5ab2105"},"vehicle_type_id":"4","last_reported":1734116844,"current_range_meters":33200,"station_id":"ce4bhc92rcd13ifvqetg","pricing_plan_id":"cebpf4jnsgd1na2vs0mg"},{"bike_id":"28fc90b9-3e7b-4c11-b6c2-40d95902dadd","system_id":"levelo_inurba_marseille","lat":43.22932,"lon":5.35379,"is_reserved":false,"is_disabled":false,"rental_uris":{"android":"levelo://app?vid=28fc90b9-3e7b-4c11-b6c2-40d95902dadd","ios":"levelo://app?vid=28fc90b9-3e7b-4c11-b6c2-40d95902dadd"},"vehicle_type_id":"4","last_reported":1734116844,"current_range_meters":38800,"station_id":"cpo3532slgdg3j2ikp40","pricing_plan_id":"cebpf4jnsgd1na2vs0mg"},{"bike_id":"6c356e86-c282-4fc0-abb6-c57b27bfa0f2","system_id":"levelo_inurba_marseille","lat":43.31358,"lon":5.38493,"is_reserved":false,"is_disabled":false,"rental_uris":{"android":"levelo://app?vid=6c356e86-c282-4fc0-abb6-c57b27bfa0f2","ios":"levelo://app?vid=6c356e86-c282-4fc0-abb6-c57b27bfa0f2"},"vehicle_type_id":"4","last_reported":1734116844,"current_range_meters":19200,"station_id":"ce4bgt92rcd13ifvqcf0","pricing_plan_id":"cebpf4jnsgd1na2vs0mg"},{"bike_id":"64b39af7-128b-4946-bbfc-c211e27c250d","system_id":"levelo_inurba_marseille","lat":43.29009,"lon":5.38639,"is_reserved":false,"is_disabled":false,"rental_uris":{"android":"levelo://app?vid=64b39af7-128b-4946-bbfc-c211e27c250d","ios":"levelo://app?vid=64b39af7-128b-4946-bbfc-c211e27c250d"},"vehicle_type_id":"4","last_reported":1734116844,"current_range_meters":38800,"station_id":"ce4bh4p2rcd13ifvqe0g","pricing_plan_id":"cebpf4jnsgd1na2vs0mg"},{"bike_id":"eb1496f4-67ed-47fd-8660-60023378367f","system_id":"levelo_inurba_marseille","lat":43.294212,"lon":5.374322,"is_reserved":false,"is_disabled":true,"rental_uris":{"android":"levelo://app?vid=eb1496f4-67ed-47fd-8660-60023378367f","ios":"levelo://app?vid=eb1496f4-67ed-47fd-8660-60023378367f"},"vehicle_type_id":"4","last_reported":1734116844,"current_range_meters":0,"station_id":"","pricing_plan_id":"cebpf4jnsgd1na2vs0mg"},{"bike_id":"edd07c02-9936-4457-bd98-063c892656f8","system_id":"levelo_inurba_marseille","lat":43.31046,"lon":5.37462,"is_reserved":false,"is_disabled":false,"rental_uris":{"android":"levelo://app?vid=edd07c02-9936-4457-bd98-063c892656f8","ios":"levelo://app?vid=edd07c02-9936-4457-bd98-063c892656f8"},"vehicle_type_id":"4","last_reported":1734116844,"current_range_meters":8400,"station_id":"","pricing_plan_id":"cebpf4jnsgd1na2vs0mg"},{"bike_id":"94ca721b-6f42-4a27-ab01-f33af979e5fb","system_id":"levelo_inurba_marseille","lat":43.29254,"lon":5.38443,"is_reserved":false,"is_disabled":false,"rental_uris":{"android":"levelo://app?vid=94ca721b-6f42-4a27-ab01-f33af979e5fb","ios":"levelo://app?vid=94ca721b-6f42-4a27-ab01-f33af979e5fb"},"vehicle_type_id":"4","last_reported":1734116844,"current_range_meters":24000,"station_id":"ce4bh692rcd13ifvqea0","pricing_plan_id":"cebpf4jnsgd1na2vs0mg"},{"bike_id":"a2e3bf37-f1e5-4b35-adeb-0da3e0fe69d3","system_id":"levelo_inurba_marseille","lat":43.28635,"lon":5.3861,"is_reserved":false,"is_disabled":true,"rental_uris":{"android":"levelo://app?vid=a2e3bf37-f1e5-4b35-adeb-0da3e0fe69d3","ios":"levelo://app?vid=a2e3bf37-f1e5-4b35-adeb-0da3e0fe69d3"},"vehicle_type_id":"4","last_reported":1734116844,"current_range_meters":0,"station_id":"","pricing_plan_id":"cebpf4jnsgd1na2vs0mg"},{"bike_id":"8ec5fdd0-428d-4ad5-a792-fb065e6471a6","system_id":"levelo_inurba_marseille","lat":43.29433,"lon":5.38609,"is_reserved":false,"is_disabled":false,"rental_uris":{"android":"levelo://app?vid=8ec5fdd0-428d-4ad5-a792-fb065e6471a6","ios":"levelo://app?vid=8ec5fdd0-428d-4ad5-a792-fb065e6471a6"},"vehicle_type_id":"4","last_reported":1734116844,"current_range_meters":38800,"station_id":"ce4bh2h2rcd13ifvqdh0","pricing_plan_id":"cebpf4jnsgd1na2vs0mg"},{"bike_id":"173df24d-b21a-4c61-b590-7cc698caeb0c","system_id":"levelo_inurba_marseille","lat":43.27997,"lon":5.40018,"is_reserved":false,"is_disabled":false,"rental_uris":{"android":"levelo://app?vid=173df24d-b21a-4c61-b590-7cc698caeb0c","ios":"levelo://app?vid=173df24d-b21a-4c61-b590-7cc698caeb0c"},"vehicle_type_id":"4","last_reported":1734116844,"current_range_meters":38000,"station_id":"ce4bho92rcd13ifvqh4g","pricing_plan_id":"cebpf4jnsgd1na2vs0mg"},{"bike_id":"ec927667-9164-479a-b446-395f55c955bb","system_id":"levelo_inurba_marseille","lat":43.22924,"lon":5.35383,"is_reserved":false,"is_disabled":false,"rental_uris":{"android":"levelo://app?vid=ec927667-9164-479a-b446-395f55c955bb","ios":"levelo://app?vid=ec927667-9164-479a-b446-395f55c955bb"},"vehicle_type_id":"4","last_reported":1734116844,"current_range_meters":38000,"station_id":"cpo3532slgdg3j2ikp40","pricing_plan_id":"cebpf4jnsgd1na2vs0mg"},{"bike_id":"ceecf1ad-8203-418d-8a74-0a39995399c6","system_id":"levelo_inurba_marseille","lat":43.29529,"lon":5.38541,"is_reserved":false,"is_disabled":false,"rental_uris":{"android":"levelo://app?vid=ceecf1ad-8203-418d-8a74-0a39995399c6","ios":"levelo://app?vid=ceecf1ad-8203-418d-8a74-0a39995399c6"},"vehicle_type_id":"4","last_reported":1734116844,"current_range_meters":38800,"station_id":"ce4bgih2rcd13ifvqba0","pricing_plan_id":"cebpf4jnsgd1na2vs0mg"},{"bike_id":"e74372ac-2a6c-47ae-afc7-e1b4e1c3d13f","system_id":"levelo_inurba_marseille","lat":43.23058,"lon":5.35485,"is_reserved":false,"is_disabled":false,"rental_uris":{"android":"levelo://app?vid=e74372ac-2a6c-47ae-afc7-e1b4e1c3d13f","ios":"levelo://app?vid=e74372ac-2a6c-47ae-afc7-e1b4e1c3d13f"},"vehicle_type_id":"4","last_reported":1734116844,"current_range_meters":38400,"station_id":"cpo3342slgdg3j2ifvpg","pricing_plan_id":"cebpf4jnsgd1na2vs0mg"},{"bike_id":"e193ef0e-e328-415a-a8ad-7b8f709bf396","system_id":"levelo_inurba_marseille","lat":43.28491,"lon":5.37904,"is_reserved":false,"is_disabled":true,"rental_uris":{"android":"levelo://app?vid=e193ef0e-e328-415a-a8ad-7b8f709bf396","ios":"levelo://app?vid=e193ef0e-e328-415a-a8ad-7b8f709bf396"},"vehicle_type_id":"4","last_reported":1734116844,"current_range_meters":23200,"station_id":"","pricing_plan_id":"cebpf4jnsgd1na2vs0mg"},{"bike_id":"9a6269d5-83ea-4140-ab37-1fa12f16bd71","system_id":"levelo_inurba_marseille","lat":43.317616,"lon":5.390118,"is_reserved":false,"is_disabled":false,"rental_uris":{"android":"levelo://app?vid=9a6269d5-83ea-4140-ab37-1fa12f16bd71","ios":"levelo://app?vid=9a6269d5-83ea-4140-ab37-1fa12f16bd71"},"vehicle_type_id":"4","last_reported":1734116844,"current_range_meters":35600,"station_id":"ce4bhqp2rcd13ifvqhng","pricing_plan_id":"cebpf4jnsgd1na2vs0mg"},{"bike_id":"016e1712-3ed0-4538-ac7a-0670ad343bff","system_id":"levelo_inurba_marseille","lat":43.31072,"lon":5.38352,"is_reserved":false,"is_disabled":false,"rental_uris":{"android":"levelo://app?vid=016e1712-3ed0-4538-ac7a-0670ad343bff","ios":"levelo://app?vid=016e1712-3ed0-4538-ac7a-0670ad343bff"},"vehicle_type_id":"4","last_reported":1734116844,"current_range_meters":38800,"station_id":"ce4bgv92rcd13ifvqcr0","pricing_plan_id":"cebpf4jnsgd1na2vs0mg"},{"bike_id":"f4cd03ef-49e6-4579-9c95-12ecbcaa32c0","system_id":"levelo_inurba_marseille","lat":43.31328,"lon":5.39695,"is_reserved":false,"is_disabled":false,"rental_uris":{"android":"levelo://app?vid=f4cd03ef-49e6-4579-9c95-12ecbcaa32c0","ios":"levelo://app?vid=f4cd03ef-49e6-4579-9c95-12ecbcaa32c0"},"vehicle_type_id":"4","last_reported":1734116844,"current_range_meters":10000,"station_id":"ce4bgvp2rcd13ifvqcu0","pricing_plan_id":"cebpf4jnsgd1na2vs0mg"},{"bike_id":"7f5f2b51-6dba-4bb6-90d5-a5cf04cc5c90","system_id":"levelo_inurba_marseille","lat":43.24652,"lon":5.38882,"is_reserved":false,"is_disabled":false,"rental_uris":{"android":"levelo://app?vid=7f5f2b51-6dba-4bb6-90d5-a5cf04cc5c90","ios":"levelo://app?vid=7f5f2b51-6dba-4bb6-90d5-a5cf04cc5c90"},"vehicle_type_id":"4","last_reported":1734116844,"current_range_meters":39200,"station_id":"ce4bhg12rcd13ifvqf60","pricing_plan_id":"cebpf4jnsgd1na2vs0mg"},{"bike_id":"5a1c9f6c-266c-4fec-baab-84474184d04a","system_id":"levelo_inurba_marseille","lat":43.31689,"lon":5.4046,"is_reserved":false,"is_disabled":false,"rental_uris":{"android":"levelo://app?vid=5a1c9f6c-266c-4fec-baab-84474184d04a","ios":"levelo://app?vid=5a1c9f6c-266c-4fec-baab-84474184d04a"},"vehicle_type_id":"4","last_reported":1734116844,"current_range_meters":30800,"station_id":"ce4bh012rcd13ifvqd00","pricing_plan_id":"cebpf4jnsgd1na2vs0mg"},{"bike_id":"845eb9c5-97d3-44f0-959c-e3b39b08280d","system_id":"levelo_inurba_marseille","lat":43.28714,"lon":5.3608,"is_reserved":false,"is_disabled":false,"rental_uris":{"android":"levelo://app?vid=845eb9c5-97d3-44f0-959c-e3b39b08280d","ios":"levelo://app?vid=845eb9c5-97d3-44f0-959c-e3b39b08280d"},"vehicle_type_id":"4","last_reported":1734116844,"current_range_meters":9600,"station_id":"cki0cbj6b192h4jlfktg","pricing_plan_id":"cebpf4jnsgd1na2vs0mg"},{"bike_id":"a20b2301-3d44-40e4-be48-5024eda1ce05","system_id":"levelo_inurba_marseille","lat":43.29416,"lon":5.38605,"is_reserved":false,"is_disabled":false,"rental_uris":{"android":"levelo://app?vid=a20b2301-3d44-40e4-be48-5024eda1ce05","ios":"levelo://app?vid=a20b2301-3d44-40e4-be48-5024eda1ce05"},"vehicle_type_id":"4","last_reported":1734116844,"current_range_meters":6400,"station_id":"ce4bh2h2rcd13ifvqdh0","pricing_plan_id":"cebpf4jnsgd1na2vs0mg"},{"bike_id":"15dc24ea-026a-41db-b8d2-332359179ffe","system_id":"levelo_inurba_marseille","lat":43.28343,"lon":5.38116,"is_reserved":false,"is_disabled":false,"rental_uris":{"android":"levelo://app?vid=15dc24ea-026a-41db-b8d2-332359179ffe","ios":"levelo://app?vid=15dc24ea-026a-41db-b8d2-332359179ffe"},"vehicle_type_id":"4","last_reported":1734116844,"current_range_meters":38800,"station_id":"ce4bh412rcd13ifvqdr0","pricing_plan_id":"cebpf4jnsgd1na2vs0mg"},{"bike_id":"f43b60c0-f88c-4e14-af84-90e9e26b07b0","system_id":"levelo_inurba_marseille","lat":43.31344,"lon":5.37261,"is_reserved":false,"is_disabled":false,"rental_uris":{"android":"levelo://app?vid=f43b60c0-f88c-4e14-af84-90e9e26b07b0","ios":"levelo://app?vid=f43b60c0-f88c-4e14-af84-90e9e26b07b0"},"vehicle_type_id":"4","last_reported":1734116844,"current_range_meters":9600,"station_id":"","pricing_plan_id":"cebpf4jnsgd1na2vs0mg"},{"bike_id":"bde168cb-e40d-4d30-9ebd-9cecf4a5254f","system_id":"levelo_inurba_marseille","lat":43.28869,"lon":5.35818,"is_reserved":false,"is_disabled":false,"rental_uris":{"android":"levelo://app?vid=bde168cb-e40d-4d30-9ebd-9cecf4a5254f","ios":"levelo://app?vid=bde168cb-e40d-4d30-9ebd-9cecf4a5254f"},"vehicle_type_id":"4","last_reported":1734116844,"current_range_meters":38800,"station_id":"ce4bhb12rcd13ifvqem0","pricing_plan_id":"cebpf4jnsgd1na2vs0mg"},{"bike_id":"88fde150-0952-410f-a018-ff6f6e670bb8","system_id":"levelo_inurba_marseille","lat":43.30521,"lon":5.38068,"is_reserved":false,"is_disabled":false,"rental_uris":{"android":"levelo://app?vid=88fde150-0952-410f-a018-ff6f6e670bb8","ios":"levelo://app?vid=88fde150-0952-410f-a018-ff6f6e670bb8"},"vehicle_type_id":"4","last_reported":1734116844,"current_range_meters":20400,"station_id":"","pricing_plan_id":"cebpf4jnsgd1na2vs0mg"},{"bike_id":"abe250a1-3d26-47a1-bae8-73bf3354b17a","system_id":"levelo_inurba_marseille","lat":43.27184,"lon":5.40964,"is_reserved":false,"is_disabled":false,"rental_uris":{"android":"levelo://app?vid=abe250a1-3d26-47a1-bae8-73bf3354b17a","ios":"levelo://app?vid=abe250a1-3d26-47a1-bae8-73bf3354b17a"},"vehicle_type_id":"4","last_reported":1734116844,"current_range_meters":14400,"station_id":"ce4bhl12rcd13ifvqgf0","pricing_plan_id":"cebpf4jnsgd1na2vs0mg"},{"bike_id":"5584f6c4-cd15-45bb-976a-51430232b179","system_id":"levelo_inurba_marseille","lat":43.31694,"lon":5.4048,"is_reserved":false,"is_disabled":false,"rental_uris":{"android":"levelo://app?vid=5584f6c4-cd15-45bb-976a-51430232b179","ios":"levelo://app?vid=5584f6c4-cd15-45bb-976a-51430232b179"},"vehicle_type_id":"4","last_reported":1734116844,"current_range_meters":38800,"station_id":"ce4bh012rcd13ifvqd00","pricing_plan_id":"cebpf4jnsgd1na2vs0mg"},{"bike_id":"fc968cf6-07d5-44d4-b0f3-9d9a2519f292","system_id":"levelo_inurba_marseille","lat":43.287,"lon":5.37389,"is_reserved":false,"is_disabled":false,"rental_uris":{"android":"levelo://app?vid=fc968cf6-07d5-44d4-b0f3-9d9a2519f292","ios":"levelo://app?vid=fc968cf6-07d5-44d4-b0f3-9d9a2519f292"},"vehicle_type_id":"4","last_reported":1734116844,"current_range_meters":38800,"station_id":"ce4bh3p2rcd13ifvqdq0","pricing_plan_id":"cebpf4jnsgd1na2vs0mg"},{"bike_id":"ff11cab6-bfdf-438d-b6c2-0fe6748a1489","system_id":"levelo_inurba_marseille","lat":43.29067,"lon":5.35896,"is_reserved":false,"is_disabled":false,"rental_uris":{"android":"levelo://app?vid=ff11cab6-bfdf-438d-b6c2-0fe6748a1489","ios":"levelo://app?vid=ff11cab6-bfdf-438d-b6c2-0fe6748a1489"},"vehicle_type_id":"4","last_reported":1734116844,"current_range_meters":9600,"station_id":"ce4bha92rcd13ifvqeg0","pricing_plan_id":"cebpf4jnsgd1na2vs0mg"},{"bike_id":"002069da-d74c-4e41-ae54-1da711c0eed6","system_id":"levelo_inurba_marseille","lat":43.28593,"lon":5.413,"is_reserved":false,"is_disabled":true,"rental_uris":{"android":"levelo://app?vid=002069da-d74c-4e41-ae54-1da711c0eed6","ios":"levelo://app?vid=002069da-d74c-4e41-ae54-1da711c0eed6"},"vehicle_type_id":"4","last_reported":1734116844,"current_range_meters":0,"station_id":"","pricing_plan_id":"cebpf4jnsgd1na2vs0mg"},{"bike_id":"75506391-a12b-4ce2-997a-eff08551addc","system_id":"levelo_inurba_marseille","lat":43.23061,"lon":5.35487,"is_reserved":false,"is_disabled":false,"rental_uris":{"android":"levelo://app?vid=75506391-a12b-4ce2-997a-eff08551addc","ios":"levelo://app?vid=75506391-a12b-4ce2-997a-eff08551addc"},"vehicle_type_id":"4","last_reported":1734116844,"current_range_meters":38800,"station_id":"cpo3342slgdg3j2ifvpg","pricing_plan_id":"cebpf4jnsgd1na2vs0mg"},{"bike_id":"7c858096-757d-4275-9af6-d1ffd08a731e","system_id":"levelo_inurba_marseille","lat":43.31882,"lon":5.40727,"is_reserved":false,"is_disabled":false,"rental_uris":{"android":"levelo://app?vid=7c858096-757d-4275-9af6-d1ffd08a731e","ios":"levelo://app?vid=7c858096-757d-4275-9af6-d1ffd08a731e"},"vehicle_type_id":"4","last_reported":1734116844,"current_range_meters":36400,"station_id":"ce4bhq12rcd13ifvqhig","pricing_plan_id":"cebpf4jnsgd1na2vs0mg"},{"bike_id":"0dc53ed0-703c-41c7-a7ba-e5fe121ea6cc","system_id":"levelo_inurba_marseille","lat":43.28943,"lon":5.37884,"is_reserved":false,"is_disabled":false,"rental_uris":{"android":"levelo://app?vid=0dc53ed0-703c-41c7-a7ba-e5fe121ea6cc","ios":"levelo://app?vid=0dc53ed0-703c-41c7-a7ba-e5fe121ea6cc"},"vehicle_type_id":"4","last_reported":1734116844,"current_range_meters":32800,"station_id":"","pricing_plan_id":"cebpf4jnsgd1na2vs0mg"},{"bike_id":"4da43979-c0d5-4cc3-a0a5-2bd611c504c9","system_id":"levelo_inurba_marseille","lat":43.31495,"lon":5.37308,"is_reserved":false,"is_disabled":false,"rental_uris":{"android":"levelo://app?vid=4da43979-c0d5-4cc3-a0a5-2bd611c504c9","ios":"levelo://app?vid=4da43979-c0d5-4cc3-a0a5-2bd611c504c9"},"vehicle_type_id":"4","last_reported":1734116844,"current_range_meters":30800,"station_id":"ce4bgt12rcd13ifvqcd0","pricing_plan_id":"cebpf4jnsgd1na2vs0mg"},{"bike_id":"1e09aea1-6592-4606-838e-01c5295332d1","system_id":"levelo_inurba_marseille","lat":43.32667,"lon":5.40981,"is_reserved":false,"is_disabled":true,"rental_uris":{"android":"levelo://app?vid=1e09aea1-6592-4606-838e-01c5295332d1","ios":"levelo://app?vid=1e09aea1-6592-4606-838e-01c5295332d1"},"vehicle_type_id":"4","last_reported":1734116844,"current_range_meters":32400,"station_id":"ce4bhpp2rcd13ifvqhgg","pricing_plan_id":"cebpf4jnsgd1na2vs0mg"},{"bike_id":"f0688521-339d-4b11-98b4-8b413dfcdc75","system_id":"levelo_inurba_marseille","lat":43.3024,"lon":5.40051,"is_reserved":false,"is_disabled":true,"rental_uris":{"android":"levelo://app?vid=f0688521-339d-4b11-98b4-8b413dfcdc75","ios":"levelo://app?vid=f0688521-339d-4b11-98b4-8b413dfcdc75"},"vehicle_type_id":"4","last_reported":1734116844,"current_range_meters":25200,"station_id":"ce4bgvh2rcd13ifvqcs0","pricing_plan_id":"cebpf4jnsgd1na2vs0mg"},{"bike_id":"a590330b-ba5e-4b05-9a5b-39bdae114fa0","system_id":"levelo_inurba_marseille","lat":43.3306,"lon":5.38976,"is_reserved":false,"is_disabled":false,"rental_uris":{"android":"levelo://app?vid=a590330b-ba5e-4b05-9a5b-39bdae114fa0","ios":"levelo://app?vid=a590330b-ba5e-4b05-9a5b-39bdae114fa0"},"vehicle_type_id":"4","last_reported":1734116844,"current_range_meters":10800,"station_id":"","pricing_plan_id":"cebpf4jnsgd1na2vs0mg"},{"bike_id":"be3d60a6-6fb6-4cc8-81d6-6fe96ff5ee23","system_id":"levelo_inurba_marseille","lat":43.23067,"lon":5.35496,"is_reserved":false,"is_disabled":false,"rental_uris":{"android":"levelo://app?vid=be3d60a6-6fb6-4cc8-81d6-6fe96ff5ee23","ios":"levelo://app?vid=be3d60a6-6fb6-4cc8-81d6-6fe96ff5ee23"},"vehicle_type_id":"4","last_reported":1734116844,"current_range_meters":38000,"station_id":"cpo3342slgdg3j2ifvpg","pricing_plan_id":"cebpf4jnsgd1na2vs0mg"},{"bike_id":"26f716e5-97aa-4ac8-b4e9-cfba05f017d8","system_id":"levelo_inurba_marseille","lat":43.23198,"lon":5.39978,"is_reserved":false,"is_disabled":false,"rental_uris":{"android":"levelo://app?vid=26f716e5-97aa-4ac8-b4e9-cfba05f017d8","ios":"levelo://app?vid=26f716e5-97aa-4ac8-b4e9-cfba05f017d8"},"vehicle_type_id":"4","last_reported":1734116844,"current_range_meters":11200,"station_id":"ce4bhn12rcd13ifvqgqg","pricing_plan_id":"cebpf4jnsgd1na2vs0mg"},{"bike_id":"a19bdc32-7d6d-4046-a238-b24edcb23725","system_id":"levelo_inurba_marseille","lat":43.29573,"lon":5.40001,"is_reserved":false,"is_disabled":false,"rental_uris":{"android":"levelo://app?vid=a19bdc32-7d6d-4046-a238-b24edcb23725","ios":"levelo://app?vid=a19bdc32-7d6d-4046-a238-b24edcb23725"},"vehicle_type_id":"4","last_reported":1734116844,"current_range_meters":36800,"station_id":"ce4bh312rcd13ifvqdj0","pricing_plan_id":"cebpf4jnsgd1na2vs0mg"},{"bike_id":"258b7d42-7ad8-44b3-9465-efa6d68e4867","system_id":"levelo_inurba_marseille","lat":43.23185,"lon":5.39986,"is_reserved":false,"is_disabled":false,"rental_uris":{"android":"levelo://app?vid=258b7d42-7ad8-44b3-9465-efa6d68e4867","ios":"levelo://app?vid=258b7d42-7ad8-44b3-9465-efa6d68e4867"},"vehicle_type_id":"4","last_reported":1734116844,"current_range_meters":38400,"station_id":"ce4bhn12rcd13ifvqgqg","pricing_plan_id":"cebpf4jnsgd1na2vs0mg"},{"bike_id":"da15a7af-b98b-4274-ab13-f3fc077f857c","system_id":"levelo_inurba_marseille","lat":43.29417,"lon":5.38626,"is_reserved":false,"is_disabled":true,"rental_uris":{"android":"levelo://app?vid=da15a7af-b98b-4274-ab13-f3fc077f857c","ios":"levelo://app?vid=da15a7af-b98b-4274-ab13-f3fc077f857c"},"vehicle_type_id":"4","last_reported":1734116844,"current_range_meters":0,"station_id":"ce4bh2h2rcd13ifvqdh0","pricing_plan_id":"cebpf4jnsgd1na2vs0mg"},{"bike_id":"5391bbb0-91aa-497f-bdd1-f767cb3f04be","system_id":"levelo_inurba_marseille","lat":43.31119,"lon":5.37772,"is_reserved":false,"is_disabled":false,"rental_uris":{"android":"levelo://app?vid=5391bbb0-91aa-497f-bdd1-f767cb3f04be","ios":"levelo://app?vid=5391bbb0-91aa-497f-bdd1-f767cb3f04be"},"vehicle_type_id":"4","last_reported":1734116844,"current_range_meters":38000,"station_id":"ce4bgt92rcd13ifvqcg0","pricing_plan_id":"cebpf4jnsgd1na2vs0mg"},{"bike_id":"41a0c0f3-0ec3-45cb-82a8-c7e09230d22e","system_id":"levelo_inurba_marseille","lat":43.29603,"lon":5.38099,"is_reserved":false,"is_disabled":false,"rental_uris":{"android":"levelo://app?vid=41a0c0f3-0ec3-45cb-82a8-c7e09230d22e","ios":"levelo://app?vid=41a0c0f3-0ec3-45cb-82a8-c7e09230d22e"},"vehicle_type_id":"4","last_reported":1734116844,"current_range_meters":27200,"station_id":"ce4bgl12rcd13ifvqbo0","pricing_plan_id":"cebpf4jnsgd1na2vs0mg"},{"bike_id":"9332f19c-96e3-47ac-8807-c5c2384614c0","system_id":"levelo_inurba_marseille","lat":43.23054,"lon":5.35498,"is_reserved":false,"is_disabled":false,"rental_uris":{"android":"levelo://app?vid=9332f19c-96e3-47ac-8807-c5c2384614c0","ios":"levelo://app?vid=9332f19c-96e3-47ac-8807-c5c2384614c0"},"vehicle_type_id":"4","last_reported":1734116844,"current_range_meters":38800,"station_id":"cpo3342slgdg3j2ifvpg","pricing_plan_id":"cebpf4jnsgd1na2vs0mg"},{"bike_id":"d903c7a0-8941-429b-9f97-31c04aeae91c","system_id":"levelo_inurba_marseille","lat":43.28841,"lon":5.35827,"is_reserved":false,"is_disabled":false,"rental_uris":{"android":"levelo://app?vid=d903c7a0-8941-429b-9f97-31c04aeae91c","ios":"levelo://app?vid=d903c7a0-8941-429b-9f97-31c04aeae91c"},"vehicle_type_id":"4","last_reported":1734116844,"current_range_meters":38400,"station_id":"ce4bhb12rcd13ifvqem0","pricing_plan_id":"cebpf4jnsgd1na2vs0mg"},{"bike_id":"c51875c3-4462-475c-9906-e5e3e8f579dd","system_id":"levelo_inurba_marseille","lat":43.30797,"lon":5.43517,"is_reserved":false,"is_disabled":false,"rental_uris":{"android":"levelo://app?vid=c51875c3-4462-475c-9906-e5e3e8f579dd","ios":"levelo://app?vid=c51875c3-4462-475c-9906-e5e3e8f579dd"},"vehicle_type_id":"4","last_reported":1734116844,"current_range_meters":35200,"station_id":"ce4bhph2rcd13ifvqheg","pricing_plan_id":"cebpf4jnsgd1na2vs0mg"},{"bike_id":"8212699a-87a5-4fd3-a098-6dffece6b63b","system_id":"levelo_inurba_marseille","lat":43.29162,"lon":5.37144,"is_reserved":false,"is_disabled":true,"rental_uris":{"android":"levelo://app?vid=8212699a-87a5-4fd3-a098-6dffece6b63b","ios":"levelo://app?vid=8212699a-87a5-4fd3-a098-6dffece6b63b"},"vehicle_type_id":"4","last_reported":1734116844,"current_range_meters":0,"station_id":"ce4bha92rcd13ifvqeh0","pricing_plan_id":"cebpf4jnsgd1na2vs0mg"},{"bike_id":"a8942e43-f3d6-46fd-8576-2cc6b2787f3e","system_id":"levelo_inurba_marseille","lat":43.33039,"lon":5.38999,"is_reserved":false,"is_disabled":false,"rental_uris":{"android":"levelo://app?vid=a8942e43-f3d6-46fd-8576-2cc6b2787f3e","ios":"levelo://app?vid=a8942e43-f3d6-46fd-8576-2cc6b2787f3e"},"vehicle_type_id":"4","last_reported":1734116844,"current_range_meters":20000,"station_id":"ce4bhr92rcd13ifvqhrg","pricing_plan_id":"cebpf4jnsgd1na2vs0mg"},{"bike_id":"ff053c70-8c96-447a-bad0-ff4bd156c100","system_id":"levelo_inurba_marseille","lat":43.27998,"lon":5.40003,"is_reserved":false,"is_disabled":false,"rental_uris":{"android":"levelo://app?vid=ff053c70-8c96-447a-bad0-ff4bd156c100","ios":"levelo://app?vid=ff053c70-8c96-447a-bad0-ff4bd156c100"},"vehicle_type_id":"4","last_reported":1734116844,"current_range_meters":18000,"station_id":"ce4bho92rcd13ifvqh4g","pricing_plan_id":"cebpf4jnsgd1na2vs0mg"},{"bike_id":"bd9ca622-608b-40f1-937b-4a1e1400a4ce","system_id":"levelo_inurba_marseille","lat":43.28613,"lon":5.35094,"is_reserved":false,"is_disabled":false,"rental_uris":{"android":"levelo://app?vid=bd9ca622-608b-40f1-937b-4a1e1400a4ce","ios":"levelo://app?vid=bd9ca622-608b-40f1-937b-4a1e1400a4ce"},"vehicle_type_id":"4","last_reported":1734116844,"current_range_meters":37600,"station_id":"ce4bhch2rcd13ifvqeug","pricing_plan_id":"cebpf4jnsgd1na2vs0mg"},{"bike_id":"ddd741ee-703d-465d-9a5e-04704e13a959","system_id":"levelo_inurba_marseille","lat":43.28422,"lon":5.3499,"is_reserved":false,"is_disabled":false,"rental_uris":{"android":"levelo://app?vid=ddd741ee-703d-465d-9a5e-04704e13a959","ios":"levelo://app?vid=ddd741ee-703d-465d-9a5e-04704e13a959"},"vehicle_type_id":"4","last_reported":1734116844,"current_range_meters":8800,"station_id":"ce4bhbh2rcd13ifvqepg","pricing_plan_id":"cebpf4jnsgd1na2vs0mg"},{"bike_id":"ea3b8ef6-a1b5-4ca7-8f66-df25a68a0a63","system_id":"levelo_inurba_marseille","lat":43.29781,"lon":5.37096,"is_reserved":false,"is_disabled":false,"rental_uris":{"android":"levelo://app?vid=ea3b8ef6-a1b5-4ca7-8f66-df25a68a0a63","ios":"levelo://app?vid=ea3b8ef6-a1b5-4ca7-8f66-df25a68a0a63"},"vehicle_type_id":"4","last_reported":1734116844,"current_range_meters":30800,"station_id":"ce4bgop2rcd13ifvqc1g","pricing_plan_id":"cebpf4jnsgd1na2vs0mg"},{"bike_id":"b77778c9-2a13-4232-a1d3-b52075d07595","system_id":"levelo_inurba_marseille","lat":43.33047,"lon":5.39007,"is_reserved":false,"is_disabled":false,"rental_uris":{"android":"levelo://app?vid=b77778c9-2a13-4232-a1d3-b52075d07595","ios":"levelo://app?vid=b77778c9-2a13-4232-a1d3-b52075d07595"},"vehicle_type_id":"4","last_reported":1734116844,"current_range_meters":24400,"station_id":"ce4bhr92rcd13ifvqhrg","pricing_plan_id":"cebpf4jnsgd1na2vs0mg"},{"bike_id":"d807c3ff-c19e-43a2-89b2-6fa8897c3c51","system_id":"levelo_inurba_marseille","lat":43.309448,"lon":5.390263,"is_reserved":false,"is_disabled":false,"rental_uris":{"android":"levelo://app?vid=d807c3ff-c19e-43a2-89b2-6fa8897c3c51","ios":"levelo://app?vid=d807c3ff-c19e-43a2-89b2-6fa8897c3c51"},"vehicle_type_id":"4","last_reported":1734116844,"current_range_meters":4400,"station_id":"ce4bgup2rcd13ifvqco0","pricing_plan_id":"cebpf4jnsgd1na2vs0mg"},{"bike_id":"837513f4-4af5-4927-b46e-d348c42ce2e1","system_id":"levelo_inurba_marseille","lat":43.29678,"lon":5.3729,"is_reserved":false,"is_disabled":false,"rental_uris":{"android":"levelo://app?vid=837513f4-4af5-4927-b46e-d348c42ce2e1","ios":"levelo://app?vid=837513f4-4af5-4927-b46e-d348c42ce2e1"},"vehicle_type_id":"4","last_reported":1734116844,"current_range_meters":38000,"station_id":"ce4bgk12rcd13ifvqbj0","pricing_plan_id":"cebpf4jnsgd1na2vs0mg"},{"bike_id":"b7513edd-7ce6-43d1-a5ee-9d96e537e09d","system_id":"levelo_inurba_marseille","lat":43.29872,"lon":5.38904,"is_reserved":false,"is_disabled":false,"rental_uris":{"android":"levelo://app?vid=b7513edd-7ce6-43d1-a5ee-9d96e537e09d","ios":"levelo://app?vid=b7513edd-7ce6-43d1-a5ee-9d96e537e09d"},"vehicle_type_id":"4","last_reported":1734116844,"current_range_meters":31200,"station_id":"ce4bh392rcd13ifvqdl0","pricing_plan_id":"cebpf4jnsgd1na2vs0mg"},{"bike_id":"c6234abb-f24f-4e51-8203-a434dd5a5cf7","system_id":"levelo_inurba_marseille","lat":43.27179,"lon":5.40996,"is_reserved":false,"is_disabled":false,"rental_uris":{"android":"levelo://app?vid=c6234abb-f24f-4e51-8203-a434dd5a5cf7","ios":"levelo://app?vid=c6234abb-f24f-4e51-8203-a434dd5a5cf7"},"vehicle_type_id":"4","last_reported":1734116844,"current_range_meters":12400,"station_id":"ce4bhl12rcd13ifvqgf0","pricing_plan_id":"cebpf4jnsgd1na2vs0mg"},{"bike_id":"6e6a004b-462d-4b03-aeaa-2611256f0d89","system_id":"levelo_inurba_marseille","lat":43.28115,"lon":5.38927,"is_reserved":false,"is_disabled":true,"rental_uris":{"android":"levelo://app?vid=6e6a004b-462d-4b03-aeaa-2611256f0d89","ios":"levelo://app?vid=6e6a004b-462d-4b03-aeaa-2611256f0d89"},"vehicle_type_id":"4","last_reported":1734116844,"current_range_meters":0,"station_id":"","pricing_plan_id":"cebpf4jnsgd1na2vs0mg"},{"bike_id":"232f5610-5a60-4333-80a7-6a6f5cb821e9","system_id":"levelo_inurba_marseille","lat":43.28616,"lon":5.35101,"is_reserved":false,"is_disabled":false,"rental_uris":{"android":"levelo://app?vid=232f5610-5a60-4333-80a7-6a6f5cb821e9","ios":"levelo://app?vid=232f5610-5a60-4333-80a7-6a6f5cb821e9"},"vehicle_type_id":"4","last_reported":1734116844,"current_range_meters":25200,"station_id":"ce4bhch2rcd13ifvqeug","pricing_plan_id":"cebpf4jnsgd1na2vs0mg"},{"bike_id":"7e6e4518-bd43-4f01-b609-a8c4c859869b","system_id":"levelo_inurba_marseille","lat":43.26801,"lon":5.40266,"is_reserved":false,"is_disabled":false,"rental_uris":{"android":"levelo://app?vid=7e6e4518-bd43-4f01-b609-a8c4c859869b","ios":"levelo://app?vid=7e6e4518-bd43-4f01-b609-a8c4c859869b"},"vehicle_type_id":"4","last_reported":1734116844,"current_range_meters":24400,"station_id":"ce501612rcd8frsf0b60","pricing_plan_id":"cebpf4jnsgd1na2vs0mg"},{"bike_id":"8b7d1d27-143c-469e-8a0c-371ccc84edb8","system_id":"levelo_inurba_marseille","lat":43.28001,"lon":5.39995,"is_reserved":false,"is_disabled":false,"rental_uris":{"android":"levelo://app?vid=8b7d1d27-143c-469e-8a0c-371ccc84edb8","ios":"levelo://app?vid=8b7d1d27-143c-469e-8a0c-371ccc84edb8"},"vehicle_type_id":"4","last_reported":1734116844,"current_range_meters":10000,"station_id":"ce4bho92rcd13ifvqh4g","pricing_plan_id":"cebpf4jnsgd1na2vs0mg"},{"bike_id":"fb001341-81b2-4c4a-b5cd-36160bd1ff3e","system_id":"levelo_inurba_marseille","lat":43.27841,"lon":5.39205,"is_reserved":false,"is_disabled":false,"rental_uris":{"android":"levelo://app?vid=fb001341-81b2-4c4a-b5cd-36160bd1ff3e","ios":"levelo://app?vid=fb001341-81b2-4c4a-b5cd-36160bd1ff3e"},"vehicle_type_id":"4","last_reported":1734116844,"current_range_meters":28000,"station_id":"ce4bhjp2rcd13ifvqga0","pricing_plan_id":"cebpf4jnsgd1na2vs0mg"},{"bike_id":"1536d859-8531-4d78-87ee-c9b02f5fc438","system_id":"levelo_inurba_marseille","lat":43.23065,"lon":5.35499,"is_reserved":false,"is_disabled":false,"rental_uris":{"android":"levelo://app?vid=1536d859-8531-4d78-87ee-c9b02f5fc438","ios":"levelo://app?vid=1536d859-8531-4d78-87ee-c9b02f5fc438"},"vehicle_type_id":"4","last_reported":1734116844,"current_range_meters":20400,"station_id":"cpo3342slgdg3j2ifvpg","pricing_plan_id":"cebpf4jnsgd1na2vs0mg"},{"bike_id":"978bce4a-4ce2-4d4c-9dc7-c42a0edfcb96","system_id":"levelo_inurba_marseille","lat":43.23154,"lon":5.43716,"is_reserved":false,"is_disabled":true,"rental_uris":{"android":"levelo://app?vid=978bce4a-4ce2-4d4c-9dc7-c42a0edfcb96","ios":"levelo://app?vid=978bce4a-4ce2-4d4c-9dc7-c42a0edfcb96"},"vehicle_type_id":"4","last_reported":1734116844,"current_range_meters":0,"station_id":"ce4bhmp2rcd13ifvqgog","pricing_plan_id":"cebpf4jnsgd1na2vs0mg"},{"bike_id":"551033a4-97cd-4e27-a00b-d1f0dcdb705d","system_id":"levelo_inurba_marseille","lat":43.29246,"lon":5.41263,"is_reserved":false,"is_disabled":false,"rental_uris":{"android":"levelo://app?vid=551033a4-97cd-4e27-a00b-d1f0dcdb705d","ios":"levelo://app?vid=551033a4-97cd-4e27-a00b-d1f0dcdb705d"},"vehicle_type_id":"4","last_reported":1734116844,"current_range_meters":36000,"station_id":"","pricing_plan_id":"cebpf4jnsgd1na2vs0mg"},{"bike_id":"7965bd8b-65b9-4460-9e65-36f253ebc53b","system_id":"levelo_inurba_marseille","lat":43.32054,"lon":5.41499,"is_reserved":false,"is_disabled":false,"rental_uris":{"android":"levelo://app?vid=7965bd8b-65b9-4460-9e65-36f253ebc53b","ios":"levelo://app?vid=7965bd8b-65b9-4460-9e65-36f253ebc53b"},"vehicle_type_id":"4","last_reported":1734116844,"current_range_meters":22400,"station_id":"ce4bhq92rcd13ifvqhkg","pricing_plan_id":"cebpf4jnsgd1na2vs0mg"},{"bike_id":"baf2a051-8c83-4545-8cb9-f2d0770a50f8","system_id":"levelo_inurba_marseille","lat":43.31005,"lon":5.38024,"is_reserved":false,"is_disabled":false,"rental_uris":{"android":"levelo://app?vid=baf2a051-8c83-4545-8cb9-f2d0770a50f8","ios":"levelo://app?vid=baf2a051-8c83-4545-8cb9-f2d0770a50f8"},"vehicle_type_id":"4","last_reported":1734116844,"current_range_meters":15200,"station_id":"","pricing_plan_id":"cebpf4jnsgd1na2vs0mg"},{"bike_id":"0ffc6b8d-2ddb-4335-86e7-92f0e64a897e","system_id":"levelo_inurba_marseille","lat":43.29856,"lon":5.36292,"is_reserved":false,"is_disabled":false,"rental_uris":{"android":"levelo://app?vid=0ffc6b8d-2ddb-4335-86e7-92f0e64a897e","ios":"levelo://app?vid=0ffc6b8d-2ddb-4335-86e7-92f0e64a897e"},"vehicle_type_id":"4","last_reported":1734116844,"current_range_meters":3200,"station_id":"ce4bgpp2rcd13ifvqc3g","pricing_plan_id":"cebpf4jnsgd1na2vs0mg"},{"bike_id":"e5192aff-1008-4e7e-b82a-23b5df79d920","system_id":"levelo_inurba_marseille","lat":43.29559,"lon":5.42267,"is_reserved":false,"is_disabled":true,"rental_uris":{"android":"levelo://app?vid=e5192aff-1008-4e7e-b82a-23b5df79d920","ios":"levelo://app?vid=e5192aff-1008-4e7e-b82a-23b5df79d920"},"vehicle_type_id":"4","last_reported":1734116844,"current_range_meters":0,"station_id":"ce4bhph2rcd13ifvqhdg","pricing_plan_id":"cebpf4jnsgd1na2vs0mg"},{"bike_id":"a38af6b8-e87a-497a-a962-b69d263ba4a0","system_id":"levelo_inurba_marseille","lat":43.3132,"lon":5.37021,"is_reserved":false,"is_disabled":false,"rental_uris":{"android":"levelo://app?vid=a38af6b8-e87a-497a-a962-b69d263ba4a0","ios":"levelo://app?vid=a38af6b8-e87a-497a-a962-b69d263ba4a0"},"vehicle_type_id":"4","last_reported":1734116844,"current_range_meters":31200,"station_id":"","pricing_plan_id":"cebpf4jnsgd1na2vs0mg"},{"bike_id":"34812574-9f57-4cca-a31e-841a9b691992","system_id":"levelo_inurba_marseille","lat":43.25821,"lon":5.39431,"is_reserved":false,"is_disabled":false,"rental_uris":{"android":"levelo://app?vid=34812574-9f57-4cca-a31e-841a9b691992","ios":"levelo://app?vid=34812574-9f57-4cca-a31e-841a9b691992"},"vehicle_type_id":"4","last_reported":1734116844,"current_range_meters":19200,"station_id":"ce4bhip2rcd13ifvqft0","pricing_plan_id":"cebpf4jnsgd1na2vs0mg"},{"bike_id":"a5589391-a7e4-412b-9a87-f917b2322580","system_id":"levelo_inurba_marseille","lat":43.230564,"lon":5.354961,"is_reserved":false,"is_disabled":false,"rental_uris":{"android":"levelo://app?vid=a5589391-a7e4-412b-9a87-f917b2322580","ios":"levelo://app?vid=a5589391-a7e4-412b-9a87-f917b2322580"},"vehicle_type_id":"4","last_reported":1734116844,"current_range_meters":38000,"station_id":"cpo3342slgdg3j2ifvpg","pricing_plan_id":"cebpf4jnsgd1na2vs0mg"},{"bike_id":"c6d2a73e-0027-480c-b5d2-f161208bce68","system_id":"levelo_inurba_marseille","lat":43.29418,"lon":5.38628,"is_reserved":false,"is_disabled":false,"rental_uris":{"android":"levelo://app?vid=c6d2a73e-0027-480c-b5d2-f161208bce68","ios":"levelo://app?vid=c6d2a73e-0027-480c-b5d2-f161208bce68"},"vehicle_type_id":"4","last_reported":1734116844,"current_range_meters":23200,"station_id":"ce4bh2h2rcd13ifvqdh0","pricing_plan_id":"cebpf4jnsgd1na2vs0mg"},{"bike_id":"103e9cb3-a529-4d55-b047-75adf6d60c18","system_id":"levelo_inurba_marseille","lat":43.27961,"lon":5.39941,"is_reserved":false,"is_disabled":true,"rental_uris":{"android":"levelo://app?vid=103e9cb3-a529-4d55-b047-75adf6d60c18","ios":"levelo://app?vid=103e9cb3-a529-4d55-b047-75adf6d60c18"},"vehicle_type_id":"4","last_reported":1734116844,"current_range_meters":0,"station_id":"","pricing_plan_id":"cebpf4jnsgd1na2vs0mg"},{"bike_id":"9f6edf01-748c-401f-9fc5-e91fa31a072c","system_id":"levelo_inurba_marseille","lat":43.33019,"lon":5.39039,"is_reserved":false,"is_disabled":false,"rental_uris":{"android":"levelo://app?vid=9f6edf01-748c-401f-9fc5-e91fa31a072c","ios":"levelo://app?vid=9f6edf01-748c-401f-9fc5-e91fa31a072c"},"vehicle_type_id":"4","last_reported":1734116844,"current_range_meters":39200,"station_id":"ce4bhr92rcd13ifvqhrg","pricing_plan_id":"cebpf4jnsgd1na2vs0mg"},{"bike_id":"14afac6a-63b2-47cb-9bc3-0bc87d22bcde","system_id":"levelo_inurba_marseille","lat":43.32374,"lon":5.38854,"is_reserved":false,"is_disabled":false,"rental_uris":{"android":"levelo://app?vid=14afac6a-63b2-47cb-9bc3-0bc87d22bcde","ios":"levelo://app?vid=14afac6a-63b2-47cb-9bc3-0bc87d22bcde"},"vehicle_type_id":"4","last_reported":1734116844,"current_range_meters":38800,"station_id":"ce4bhqp2rcd13ifvqhog","pricing_plan_id":"cebpf4jnsgd1na2vs0mg"},{"bike_id":"cf114bb8-ce3e-43ba-8e23-69bcac3003fd","system_id":"levelo_inurba_marseille","lat":43.33756,"lon":5.3742,"is_reserved":false,"is_disabled":false,"rental_uris":{"android":"levelo://app?vid=cf114bb8-ce3e-43ba-8e23-69bcac3003fd","ios":"levelo://app?vid=cf114bb8-ce3e-43ba-8e23-69bcac3003fd"},"vehicle_type_id":"4","last_reported":1734116844,"current_range_meters":24400,"station_id":"","pricing_plan_id":"cebpf4jnsgd1na2vs0mg"},{"bike_id":"f72a7348-a98e-463a-8d26-f64d3092b70b","system_id":"levelo_inurba_marseille","lat":43.30549,"lon":5.38435,"is_reserved":false,"is_disabled":true,"rental_uris":{"android":"levelo://app?vid=f72a7348-a98e-463a-8d26-f64d3092b70b","ios":"levelo://app?vid=f72a7348-a98e-463a-8d26-f64d3092b70b"},"vehicle_type_id":"4","last_reported":1734116844,"current_range_meters":36400,"station_id":"ce4bgg92rcd13ifvqb30","pricing_plan_id":"cebpf4jnsgd1na2vs0mg"},{"bike_id":"1edcb435-be97-41f8-aa8c-4a20808cef7c","system_id":"levelo_inurba_marseille","lat":43.26777,"lon":5.40276,"is_reserved":false,"is_disabled":false,"rental_uris":{"android":"levelo://app?vid=1edcb435-be97-41f8-aa8c-4a20808cef7c","ios":"levelo://app?vid=1edcb435-be97-41f8-aa8c-4a20808cef7c"},"vehicle_type_id":"4","last_reported":1734116844,"current_range_meters":4400,"station_id":"ce501612rcd8frsf0b60","pricing_plan_id":"cebpf4jnsgd1na2vs0mg"},{"bike_id":"b90befde-9cfb-41d9-9793-aaa0f3d8c2aa","system_id":"levelo_inurba_marseille","lat":43.24657,"lon":5.38163,"is_reserved":false,"is_disabled":false,"rental_uris":{"android":"levelo://app?vid=b90befde-9cfb-41d9-9793-aaa0f3d8c2aa","ios":"levelo://app?vid=b90befde-9cfb-41d9-9793-aaa0f3d8c2aa"},"vehicle_type_id":"4","last_reported":1734116844,"current_range_meters":36000,"station_id":"ce4bhih2rcd13ifvqfr0","pricing_plan_id":"cebpf4jnsgd1na2vs0mg"},{"bike_id":"600a3dff-b459-4dfc-a7ac-2b01e30fccee","system_id":"levelo_inurba_marseille","lat":43.23194,"lon":5.35554,"is_reserved":false,"is_disabled":false,"rental_uris":{"android":"levelo://app?vid=600a3dff-b459-4dfc-a7ac-2b01e30fccee","ios":"levelo://app?vid=600a3dff-b459-4dfc-a7ac-2b01e30fccee"},"vehicle_type_id":"4","last_reported":1734116844,"current_range_meters":17600,"station_id":"ce4bhu92rcd13ifvqi70","pricing_plan_id":"cebpf4jnsgd1na2vs0mg"},{"bike_id":"a46e3ccb-8bc2-4640-85fb-260de600c1f9","system_id":"levelo_inurba_marseille","lat":43.33766,"lon":5.37432,"is_reserved":false,"is_disabled":false,"rental_uris":{"android":"levelo://app?vid=a46e3ccb-8bc2-4640-85fb-260de600c1f9","ios":"levelo://app?vid=a46e3ccb-8bc2-4640-85fb-260de600c1f9"},"vehicle_type_id":"4","last_reported":1734116844,"current_range_meters":38400,"station_id":"","pricing_plan_id":"cebpf4jnsgd1na2vs0mg"},{"bike_id":"9687c2ed-0845-4a82-ad09-4ecab855dcd5","system_id":"levelo_inurba_marseille","lat":43.29197,"lon":5.39317,"is_reserved":false,"is_disabled":false,"rental_uris":{"android":"levelo://app?vid=9687c2ed-0845-4a82-ad09-4ecab855dcd5","ios":"levelo://app?vid=9687c2ed-0845-4a82-ad09-4ecab855dcd5"},"vehicle_type_id":"4","last_reported":1734116844,"current_range_meters":12400,"station_id":"ce4bh192rcd13ifvqdd0","pricing_plan_id":"cebpf4jnsgd1na2vs0mg"},{"bike_id":"ca3bf6a0-806c-4046-b219-bbea4c2ba646","system_id":"levelo_inurba_marseille","lat":43.23193,"lon":5.35545,"is_reserved":false,"is_disabled":false,"rental_uris":{"android":"levelo://app?vid=ca3bf6a0-806c-4046-b219-bbea4c2ba646","ios":"levelo://app?vid=ca3bf6a0-806c-4046-b219-bbea4c2ba646"},"vehicle_type_id":"4","last_reported":1734116844,"current_range_meters":39200,"station_id":"ce4bhu92rcd13ifvqi70","pricing_plan_id":"cebpf4jnsgd1na2vs0mg"},{"bike_id":"3afb0b80-9d76-45d7-af18-c3e96b503257","system_id":"levelo_inurba_marseille","lat":43.28704,"lon":5.37943,"is_reserved":false,"is_disabled":false,"rental_uris":{"android":"levelo://app?vid=3afb0b80-9d76-45d7-af18-c3e96b503257","ios":"levelo://app?vid=3afb0b80-9d76-45d7-af18-c3e96b503257"},"vehicle_type_id":"4","last_reported":1734116844,"current_range_meters":38800,"station_id":"ce4bh9p2rcd13ifvqec0","pricing_plan_id":"cebpf4jnsgd1na2vs0mg"},{"bike_id":"6a021073-9fee-4025-85e9-6c8f1f18021d","system_id":"levelo_inurba_marseille","lat":43.29396,"lon":5.3865,"is_reserved":false,"is_disabled":true,"rental_uris":{"android":"levelo://app?vid=6a021073-9fee-4025-85e9-6c8f1f18021d","ios":"levelo://app?vid=6a021073-9fee-4025-85e9-6c8f1f18021d"},"vehicle_type_id":"4","last_reported":1734116844,"current_range_meters":9200,"station_id":"ce4bh2h2rcd13ifvqdh0","pricing_plan_id":"cebpf4jnsgd1na2vs0mg"},{"bike_id":"46b2fdec-0870-4ae2-84dc-b1f57512351e","system_id":"levelo_inurba_marseille","lat":43.337444,"lon":5.374475,"is_reserved":false,"is_disabled":true,"rental_uris":{"android":"levelo://app?vid=46b2fdec-0870-4ae2-84dc-b1f57512351e","ios":"levelo://app?vid=46b2fdec-0870-4ae2-84dc-b1f57512351e"},"vehicle_type_id":"4","last_reported":1734116844,"current_range_meters":0,"station_id":"","pricing_plan_id":"cebpf4jnsgd1na2vs0mg"},{"bike_id":"9496cf29-e01d-4c2f-8506-8c5ada81fbb1","system_id":"levelo_inurba_marseille","lat":43.31994,"lon":5.38162,"is_reserved":false,"is_disabled":false,"rental_uris":{"android":"levelo://app?vid=9496cf29-e01d-4c2f-8506-8c5ada81fbb1","ios":"levelo://app?vid=9496cf29-e01d-4c2f-8506-8c5ada81fbb1"},"vehicle_type_id":"4","last_reported":1734116844,"current_range_meters":18000,"station_id":"ce4bhr12rcd13ifvqhpg","pricing_plan_id":"cebpf4jnsgd1na2vs0mg"},{"bike_id":"1ddbdb89-aa80-4926-9208-6821b906f89e","system_id":"levelo_inurba_marseille","lat":43.29024,"lon":5.38648,"is_reserved":false,"is_disabled":true,"rental_uris":{"android":"levelo://app?vid=1ddbdb89-aa80-4926-9208-6821b906f89e","ios":"levelo://app?vid=1ddbdb89-aa80-4926-9208-6821b906f89e"},"vehicle_type_id":"4","last_reported":1734116844,"current_range_meters":19200,"station_id":"ce4bh4p2rcd13ifvqe0g","pricing_plan_id":"cebpf4jnsgd1na2vs0mg"},{"bike_id":"cbe01e99-0ff7-479e-ac8d-a89f5a65b0d8","system_id":"levelo_inurba_marseille","lat":43.25579,"lon":5.38236,"is_reserved":false,"is_disabled":false,"rental_uris":{"android":"levelo://app?vid=cbe01e99-0ff7-479e-ac8d-a89f5a65b0d8","ios":"levelo://app?vid=cbe01e99-0ff7-479e-ac8d-a89f5a65b0d8"},"vehicle_type_id":"4","last_reported":1734116844,"current_range_meters":36400,"station_id":"ce4bhih2rcd13ifvqfs0","pricing_plan_id":"cebpf4jnsgd1na2vs0mg"},{"bike_id":"433d8f6d-5c01-4c20-ac12-92e75087762b","system_id":"levelo_inurba_marseille","lat":43.28422,"lon":5.3499,"is_reserved":false,"is_disabled":false,"rental_uris":{"android":"levelo://app?vid=433d8f6d-5c01-4c20-ac12-92e75087762b","ios":"levelo://app?vid=433d8f6d-5c01-4c20-ac12-92e75087762b"},"vehicle_type_id":"4","last_reported":1734116844,"current_range_meters":30800,"station_id":"ce4bhbh2rcd13ifvqepg","pricing_plan_id":"cebpf4jnsgd1na2vs0mg"},{"bike_id":"ce213db5-62a1-4ed8-ae9a-5b78dde9f1d4","system_id":"levelo_inurba_marseille","lat":43.24391,"lon":5.37062,"is_reserved":false,"is_disabled":false,"rental_uris":{"android":"levelo://app?vid=ce213db5-62a1-4ed8-ae9a-5b78dde9f1d4","ios":"levelo://app?vid=ce213db5-62a1-4ed8-ae9a-5b78dde9f1d4"},"vehicle_type_id":"4","last_reported":1734116844,"current_range_meters":28800,"station_id":"ce4bhhh2rcd13ifvqfk0","pricing_plan_id":"cebpf4jnsgd1na2vs0mg"},{"bike_id":"df3805ee-7c9f-4290-85f8-e8b06a76a796","system_id":"levelo_inurba_marseille","lat":43.27503,"lon":5.42442,"is_reserved":false,"is_disabled":false,"rental_uris":{"android":"levelo://app?vid=df3805ee-7c9f-4290-85f8-e8b06a76a796","ios":"levelo://app?vid=df3805ee-7c9f-4290-85f8-e8b06a76a796"},"vehicle_type_id":"4","last_reported":1734116844,"current_range_meters":38800,"station_id":"ce4bhn92rcd13ifvqgrg","pricing_plan_id":"cebpf4jnsgd1na2vs0mg"},{"bike_id":"a15976b3-960e-4323-88b5-a65b9f0e04a4","system_id":"levelo_inurba_marseille","lat":43.28569,"lon":5.37366,"is_reserved":false,"is_disabled":false,"rental_uris":{"android":"levelo://app?vid=a15976b3-960e-4323-88b5-a65b9f0e04a4","ios":"levelo://app?vid=a15976b3-960e-4323-88b5-a65b9f0e04a4"},"vehicle_type_id":"4","last_reported":1734116844,"current_range_meters":22800,"station_id":"ce4bh3p2rcd13ifvqdq0","pricing_plan_id":"cebpf4jnsgd1na2vs0mg"},{"bike_id":"2439b886-b053-4742-9e64-0c9d960d2098","system_id":"levelo_inurba_marseille","lat":43.3376,"lon":5.37436,"is_reserved":false,"is_disabled":false,"rental_uris":{"android":"levelo://app?vid=2439b886-b053-4742-9e64-0c9d960d2098","ios":"levelo://app?vid=2439b886-b053-4742-9e64-0c9d960d2098"},"vehicle_type_id":"4","last_reported":1734116844,"current_range_meters":38400,"station_id":"","pricing_plan_id":"cebpf4jnsgd1na2vs0mg"},{"bike_id":"2448f112-093b-44a4-8c49-c482af2ba024","system_id":"levelo_inurba_marseille","lat":43.23054,"lon":5.35507,"is_reserved":false,"is_disabled":false,"rental_uris":{"android":"levelo://app?vid=2448f112-093b-44a4-8c49-c482af2ba024","ios":"levelo://app?vid=2448f112-093b-44a4-8c49-c482af2ba024"},"vehicle_type_id":"4","last_reported":1734116844,"current_range_meters":25200,"station_id":"cpo3342slgdg3j2ifvpg","pricing_plan_id":"cebpf4jnsgd1na2vs0mg"},{"bike_id":"4d1e87e3-beaa-40d1-8738-30e787e34363","system_id":"levelo_inurba_marseille","lat":43.29963,"lon":5.38497,"is_reserved":false,"is_disabled":false,"rental_uris":{"android":"levelo://app?vid=4d1e87e3-beaa-40d1-8738-30e787e34363","ios":"levelo://app?vid=4d1e87e3-beaa-40d1-8738-30e787e34363"},"vehicle_type_id":"4","last_reported":1734116844,"current_range_meters":34000,"station_id":"ce4bgj92rcd13ifvqbd0","pricing_plan_id":"cebpf4jnsgd1na2vs0mg"},{"bike_id":"61614bdd-50ab-4f21-b377-594fb302c056","system_id":"levelo_inurba_marseille","lat":43.28001,"lon":5.4,"is_reserved":false,"is_disabled":false,"rental_uris":{"android":"levelo://app?vid=61614bdd-50ab-4f21-b377-594fb302c056","ios":"levelo://app?vid=61614bdd-50ab-4f21-b377-594fb302c056"},"vehicle_type_id":"4","last_reported":1734116844,"current_range_meters":38800,"station_id":"ce4bho92rcd13ifvqh4g","pricing_plan_id":"cebpf4jnsgd1na2vs0mg"},{"bike_id":"928b8184-138e-4b49-b074-6713fe7a53b4","system_id":"levelo_inurba_marseille","lat":43.31379,"lon":5.38462,"is_reserved":false,"is_disabled":false,"rental_uris":{"android":"levelo://app?vid=928b8184-138e-4b49-b074-6713fe7a53b4","ios":"levelo://app?vid=928b8184-138e-4b49-b074-6713fe7a53b4"},"vehicle_type_id":"4","last_reported":1734116844,"current_range_meters":28800,"station_id":"ce4bgt92rcd13ifvqcf0","pricing_plan_id":"cebpf4jnsgd1na2vs0mg"},{"bike_id":"47b83216-658f-475c-8a11-b87ded17aa98","system_id":"levelo_inurba_marseille","lat":43.28006,"lon":5.40007,"is_reserved":false,"is_disabled":false,"rental_uris":{"android":"levelo://app?vid=47b83216-658f-475c-8a11-b87ded17aa98","ios":"levelo://app?vid=47b83216-658f-475c-8a11-b87ded17aa98"},"vehicle_type_id":"4","last_reported":1734116844,"current_range_meters":36800,"station_id":"ce4bho92rcd13ifvqh4g","pricing_plan_id":"cebpf4jnsgd1na2vs0mg"},{"bike_id":"d214c25f-242c-440b-993d-cd644c655be6","system_id":"levelo_inurba_marseille","lat":43.230603,"lon":5.354967,"is_reserved":false,"is_disabled":false,"rental_uris":{"android":"levelo://app?vid=d214c25f-242c-440b-993d-cd644c655be6","ios":"levelo://app?vid=d214c25f-242c-440b-993d-cd644c655be6"},"vehicle_type_id":"4","last_reported":1734116844,"current_range_meters":34000,"station_id":"cpo3342slgdg3j2ifvpg","pricing_plan_id":"cebpf4jnsgd1na2vs0mg"},{"bike_id":"044f3fc5-90e5-41a5-a20c-6b0d067a90f0","system_id":"levelo_inurba_marseille","lat":43.29242,"lon":5.40129,"is_reserved":false,"is_disabled":false,"rental_uris":{"android":"levelo://app?vid=044f3fc5-90e5-41a5-a20c-6b0d067a90f0","ios":"levelo://app?vid=044f3fc5-90e5-41a5-a20c-6b0d067a90f0"},"vehicle_type_id":"4","last_reported":1734116844,"current_range_meters":36400,"station_id":"ce4bh0h2rcd13ifvqd50","pricing_plan_id":"cebpf4jnsgd1na2vs0mg"},{"bike_id":"36fe7f2d-6b60-46ad-a5d3-ec5715357c26","system_id":"levelo_inurba_marseille","lat":43.337695,"lon":5.374371,"is_reserved":false,"is_disabled":false,"rental_uris":{"android":"levelo://app?vid=36fe7f2d-6b60-46ad-a5d3-ec5715357c26","ios":"levelo://app?vid=36fe7f2d-6b60-46ad-a5d3-ec5715357c26"},"vehicle_type_id":"4","last_reported":1734116844,"current_range_meters":37600,"station_id":"","pricing_plan_id":"cebpf4jnsgd1na2vs0mg"},{"bike_id":"6d05f7ba-808a-4403-b1f3-f8483fec843c","system_id":"levelo_inurba_marseille","lat":43.231879,"lon":5.355537,"is_reserved":false,"is_disabled":false,"rental_uris":{"android":"levelo://app?vid=6d05f7ba-808a-4403-b1f3-f8483fec843c","ios":"levelo://app?vid=6d05f7ba-808a-4403-b1f3-f8483fec843c"},"vehicle_type_id":"4","last_reported":1734116844,"current_range_meters":25600,"station_id":"ce4bhu92rcd13ifvqi70","pricing_plan_id":"cebpf4jnsgd1na2vs0mg"},{"bike_id":"dbcec6a3-36c5-4074-9dc6-7f51eea43e71","system_id":"levelo_inurba_marseille","lat":43.28972,"lon":5.37828,"is_reserved":false,"is_disabled":false,"rental_uris":{"android":"levelo://app?vid=dbcec6a3-36c5-4074-9dc6-7f51eea43e71","ios":"levelo://app?vid=dbcec6a3-36c5-4074-9dc6-7f51eea43e71"},"vehicle_type_id":"4","last_reported":1734116844,"current_range_meters":18000,"station_id":"ce4bh9p2rcd13ifvqed0","pricing_plan_id":"cebpf4jnsgd1na2vs0mg"},{"bike_id":"bf212814-06e6-4348-820e-62f5d98b1f13","system_id":"levelo_inurba_marseille","lat":43.29541,"lon":5.39391,"is_reserved":false,"is_disabled":false,"rental_uris":{"android":"levelo://app?vid=bf212814-06e6-4348-820e-62f5d98b1f13","ios":"levelo://app?vid=bf212814-06e6-4348-820e-62f5d98b1f13"},"vehicle_type_id":"4","last_reported":1734116844,"current_range_meters":3600,"station_id":"ce4bh292rcd13ifvqdf0","pricing_plan_id":"cebpf4jnsgd1na2vs0mg"},{"bike_id":"d1f8f88b-5fbd-4dc9-802c-b233ef4f52ad","system_id":"levelo_inurba_marseille","lat":43.31078,"lon":5.38336,"is_reserved":false,"is_disabled":false,"rental_uris":{"android":"levelo://app?vid=d1f8f88b-5fbd-4dc9-802c-b233ef4f52ad","ios":"levelo://app?vid=d1f8f88b-5fbd-4dc9-802c-b233ef4f52ad"},"vehicle_type_id":"4","last_reported":1734116844,"current_range_meters":14400,"station_id":"ce4bgv92rcd13ifvqcr0","pricing_plan_id":"cebpf4jnsgd1na2vs0mg"},{"bike_id":"a5397efa-629d-4917-8594-0532aea74fe2","system_id":"levelo_inurba_marseille","lat":43.28455,"lon":5.3588,"is_reserved":false,"is_disabled":false,"rental_uris":{"android":"levelo://app?vid=a5397efa-629d-4917-8594-0532aea74fe2","ios":"levelo://app?vid=a5397efa-629d-4917-8594-0532aea74fe2"},"vehicle_type_id":"4","last_reported":1734116844,"current_range_meters":16800,"station_id":"ce4bhah2rcd13ifvqei0","pricing_plan_id":"cebpf4jnsgd1na2vs0mg"},{"bike_id":"2196cb5b-d2c7-42b1-aac5-84b41e668e69","system_id":"levelo_inurba_marseille","lat":43.27998,"lon":5.4,"is_reserved":false,"is_disabled":false,"rental_uris":{"android":"levelo://app?vid=2196cb5b-d2c7-42b1-aac5-84b41e668e69","ios":"levelo://app?vid=2196cb5b-d2c7-42b1-aac5-84b41e668e69"},"vehicle_type_id":"4","last_reported":1734116844,"current_range_meters":32000,"station_id":"ce4bho92rcd13ifvqh4g","pricing_plan_id":"cebpf4jnsgd1na2vs0mg"},{"bike_id":"57b2d907-90c0-482a-ba14-2bb55c326f66","system_id":"levelo_inurba_marseille","lat":43.29413,"lon":5.38621,"is_reserved":false,"is_disabled":true,"rental_uris":{"android":"levelo://app?vid=57b2d907-90c0-482a-ba14-2bb55c326f66","ios":"levelo://app?vid=57b2d907-90c0-482a-ba14-2bb55c326f66"},"vehicle_type_id":"4","last_reported":1734116844,"current_range_meters":20000,"station_id":"ce4bh2h2rcd13ifvqdh0","pricing_plan_id":"cebpf4jnsgd1na2vs0mg"},{"bike_id":"9c8c1480-9ffa-4086-913c-c2125a6eb848","system_id":"levelo_inurba_marseille","lat":43.22931,"lon":5.35378,"is_reserved":false,"is_disabled":false,"rental_uris":{"android":"levelo://app?vid=9c8c1480-9ffa-4086-913c-c2125a6eb848","ios":"levelo://app?vid=9c8c1480-9ffa-4086-913c-c2125a6eb848"},"vehicle_type_id":"4","last_reported":1734116844,"current_range_meters":30800,"station_id":"cpo3532slgdg3j2ikp40","pricing_plan_id":"cebpf4jnsgd1na2vs0mg"},{"bike_id":"783a59a0-9cfa-4c5a-b70c-00a7dd7961da","system_id":"levelo_inurba_marseille","lat":43.29195,"lon":5.39318,"is_reserved":false,"is_disabled":true,"rental_uris":{"android":"levelo://app?vid=783a59a0-9cfa-4c5a-b70c-00a7dd7961da","ios":"levelo://app?vid=783a59a0-9cfa-4c5a-b70c-00a7dd7961da"},"vehicle_type_id":"4","last_reported":1734116844,"current_range_meters":39200,"station_id":"ce4bh192rcd13ifvqdd0","pricing_plan_id":"cebpf4jnsgd1na2vs0mg"},{"bike_id":"c2faed8e-2e4b-4fe3-8ef8-b055afed1d15","system_id":"levelo_inurba_marseille","lat":43.29416,"lon":5.38623,"is_reserved":false,"is_disabled":true,"rental_uris":{"android":"levelo://app?vid=c2faed8e-2e4b-4fe3-8ef8-b055afed1d15","ios":"levelo://app?vid=c2faed8e-2e4b-4fe3-8ef8-b055afed1d15"},"vehicle_type_id":"4","last_reported":1734116844,"current_range_meters":1200,"station_id":"ce4bh2h2rcd13ifvqdh0","pricing_plan_id":"cebpf4jnsgd1na2vs0mg"},{"bike_id":"74b30b9c-33cd-4b01-bc11-46c3d1b01fc9","system_id":"levelo_inurba_marseille","lat":43.32358,"lon":5.38398,"is_reserved":false,"is_disabled":false,"rental_uris":{"android":"levelo://app?vid=74b30b9c-33cd-4b01-bc11-46c3d1b01fc9","ios":"levelo://app?vid=74b30b9c-33cd-4b01-bc11-46c3d1b01fc9"},"vehicle_type_id":"4","last_reported":1734116844,"current_range_meters":33600,"station_id":"","pricing_plan_id":"cebpf4jnsgd1na2vs0mg"},{"bike_id":"dd76e1a4-0943-4507-a76b-20b15c09ddac","system_id":"levelo_inurba_marseille","lat":43.29569,"lon":5.39969,"is_reserved":false,"is_disabled":true,"rental_uris":{"android":"levelo://app?vid=dd76e1a4-0943-4507-a76b-20b15c09ddac","ios":"levelo://app?vid=dd76e1a4-0943-4507-a76b-20b15c09ddac"},"vehicle_type_id":"4","last_reported":1734116844,"current_range_meters":35600,"station_id":"ce4bh312rcd13ifvqdj0","pricing_plan_id":"cebpf4jnsgd1na2vs0mg"},{"bike_id":"b9d48828-2e6d-42a0-8ec6-3f3dac75ebc9","system_id":"levelo_inurba_marseille","lat":43.29579,"lon":5.37516,"is_reserved":false,"is_disabled":false,"rental_uris":{"android":"levelo://app?vid=b9d48828-2e6d-42a0-8ec6-3f3dac75ebc9","ios":"levelo://app?vid=b9d48828-2e6d-42a0-8ec6-3f3dac75ebc9"},