{"last_updated":1693587948,"ttl":30,"version":"2.2","data":{"bikes":[{"bike_id":"3fa1960b-7e67-4467-b74a-e6d09fbf49ba","system_id":"levelo_inurba_marseille","lat":43.312239,"lon":5.368562,"is_reserved":false,"is_disabled":false,"rental_uris":{"android":"levelo://app?vid=3fa1960b-7e67-4467-b74a-e6d09fbf49ba","ios":"levelo://app?vid=3fa1960b-7e67-4467-b74a-e6d09fbf49ba"},"vehicle_type_id":"4","last_reported":1693587951,"current_range_meters":6000,"station_id":"ce4bgl92rcd13ifvqbq0","pricing_plan_id":"free"},{"bike_id":"d2be997d-44d2-40a5-bb20-02aeaaf65fa5","system_id":"levelo_inurba_marseille","lat":43.314811,"lon":5.373104,"is_reserved":false,"is_disabled":false,"rental_uris":{"android":"levelo://app?vid=d2be997d-44d2-40a5-bb20-02aeaaf65fa5","ios":"levelo://app?vid=d2be997d-44d2-40a5-bb20-02aeaaf65fa5"},"vehicle_type_id":"4","last_reported":1693587951,"current_range_meters":30400,"station_id":"ce4bgt12rcd13ifvqcd0","pricing_plan_id":"free"},{"bike_id":"d9db00ca-780b-48fe-a0b9-b417f8209a0f","system_id":"levelo_inurba_marseille","lat":43.314811,"lon":5.373103,"is_reserved":false,"is_disabled":false,"rental_uris":{"android":"levelo://app?vid=d9db00ca-780b-48fe-a0b9-b417f8209a0f","ios":"levelo://app?vid=d9db00ca-780b-48fe-a0b9-b417f8209a0f"},"vehicle_type_id":"4","last_reported":1693587951,"current_range_meters":25600,"station_id":"ce4bgt12rcd13ifvqcd0","pricing_plan_id":"free"},{"bike_id":"738aa591-1f44-497d-956e-2ff9a12876c6","system_id":"levelo_inurba_marseille","lat":43.305989,"lon":5.37225,"is_reserved":false,"is_disabled":false,"rental_uris":{"android":"levelo://app?vid=738aa591-1f44-497d-956e-2ff9a12876c6","ios":"levelo://app?vid=738aa591-1f44-497d-956e-2ff9a12876c6"},"vehicle_type_id":"4","last_reported":1693587951,"current_range_meters":15600,"station_id":"ce4bgqh2rcd13ifvqc4g","pricing_plan_id":"free"},{"bike_id":"0fe14439-f5fb-4611-be00-cccecea170c2","system_id":"levelo_inurba_marseille","lat":43.305989,"lon":5.37225,"is_reserved":false,"is_disabled":false,"rental_uris":{"android":"levelo://app?vid=0fe14439-f5fb-4611-be00-cccecea170c2","ios":"levelo://app?vid=0fe14439-f5fb-4611-be00-cccecea170c2"},"vehicle_type_id":"4","last_reported":1693587951,"current_range_meters":26800,"station_id":"ce4bgqh2rcd13ifvqc4g","pricing_plan_id":"free"},{"bike_id":"3ffe2b9a-e113-420c-9bc8-d58e634a5e7c","system_id":"levelo_inurba_marseille","lat":43.307945,"lon":5.376487,"is_reserved":false,"is_disabled":false,"rental_uris":{"android":"levelo://app?vid=3ffe2b9a-e113-420c-9bc8-d58e634a5e7c","ios":"levelo://app?vid=3ffe2b9a-e113-420c-9bc8-d58e634a5e7c"},"vehicle_type_id":"4","last_reported":1693587951,"current_range_meters":18800,"station_id":"ce4bgv92rcd13ifvqcq0","pricing_plan_id":"free"},{"bike_id":"26370d77-a901-4145-a7f5-7ae46f84115c","system_id":"levelo_inurba_marseille","lat":43.307874,"lon":5.376546,"is_reserved":false,"is_disabled":false,"rental_uris":{"android":"levelo://app?vid=26370d77-a901-4145-a7f5-7ae46f84115c","ios":"levelo://app?vid=26370d77-a901-4145-a7f5-7ae46f84115c"},"vehicle_type_id":"4","last_reported":1693587951,"current_range_meters":4800,"station_id":"ce4bgv92rcd13ifvqcq0","pricing_plan_id":"free"},{"bike_id":"478e5943-5bdf-46ce-b102-8c9dcf2b43b7","system_id":"levelo_inurba_marseille","lat":43.32069,"lon":5.37159,"is_reserved":false,"is_disabled":false,"rental_uris":{"android":"levelo://app?vid=478e5943-5bdf-46ce-b102-8c9dcf2b43b7","ios":"levelo://app?vid=478e5943-5bdf-46ce-b102-8c9dcf2b43b7"},"vehicle_type_id":"4","last_reported":1693587951,"current_range_meters":11600,"station_id":"","pricing_plan_id":"free"},{"bike_id":"ce04bffc-032e-4965-8488-822ed3741e29","system_id":"levelo_inurba_marseille","lat":43.317075,"lon":5.377367,"is_reserved":false,"is_disabled":false,"rental_uris":{"android":"levelo://app?vid=ce04bffc-032e-4965-8488-822ed3741e29","ios":"levelo://app?vid=ce04bffc-032e-4965-8488-822ed3741e29"},"vehicle_type_id":"4","last_reported":1693587951,"current_range_meters":15200,"station_id":"ce4bgth2rcd13ifvqch0","pricing_plan_id":"free"},{"bike_id":"f4a30db4-0127-45b0-ac1e-6ea47014c870","system_id":"levelo_inurba_marseille","lat":43.317075,"lon":5.377367,"is_reserved":false,"is_disabled":false,"rental_uris":{"android":"levelo://app?vid=f4a30db4-0127-45b0-ac1e-6ea47014c870","ios":"levelo://app?vid=f4a30db4-0127-45b0-ac1e-6ea47014c870"},"vehicle_type_id":"4","last_reported":1693587951,"current_range_meters":21600,"station_id":"ce4bgth2rcd13ifvqch0","pricing_plan_id":"free"},{"bike_id":"cd2430b5-d827-457f-a12a-f29afa394529","system_id":"levelo_inurba_marseille","lat":43.317075,"lon":5.377367,"is_reserved":false,"is_disabled":false,"rental_uris":{"android":"levelo://app?vid=cd2430b5-d827-457f-a12a-f29afa394529","ios":"levelo://app?vid=cd2430b5-d827-457f-a12a-f29afa394529"},"vehicle_type_id":"4","last_reported":1693587951,"current_range_meters":21600,"station_id":"ce4bgth2rcd13ifvqch0","pricing_plan_id":"free"},{"bike_id":"18631c9a-3749-48e0-9aa2-0539ad196b81","system_id":"levelo_inurba_marseille","lat":43.317075,"lon":5.377367,"is_reserved":false,"is_disabled":false,"rental_uris":{"android":"levelo://app?vid=18631c9a-3749-48e0-9aa2-0539ad196b81","ios":"levelo://app?vid=18631c9a-3749-48e0-9aa2-0539ad196b81"},"vehicle_type_id":"4","last_reported":1693587951,"current_range_meters":29200,"station_id":"ce4bgth2rcd13ifvqch0","pricing_plan_id":"free"},{"bike_id":"7d89b0e8-cc51-4d45-a4b7-975aebce4f6b","system_id":"levelo_inurba_marseille","lat":43.317075,"lon":5.377367,"is_reserved":false,"is_disabled":false,"rental_uris":{"android":"levelo://app?vid=7d89b0e8-cc51-4d45-a4b7-975aebce4f6b","ios":"levelo://app?vid=7d89b0e8-cc51-4d45-a4b7-975aebce4f6b"},"vehicle_type_id":"4","last_reported":1693587951,"current_range_meters":30400,"station_id":"ce4bgth2rcd13ifvqch0","pricing_plan_id":"free"},{"bike_id":"5dedc4fd-4e68-4da2-9665-b4020a79f7c1","system_id":"levelo_inurba_marseille","lat":43.287184,"lon":5.37937,"is_reserved":false,"is_disabled":false,"rental_uris":{"android":"levelo://app?vid=5dedc4fd-4e68-4da2-9665-b4020a79f7c1","ios":"levelo://app?vid=5dedc4fd-4e68-4da2-9665-b4020a79f7c1"},"vehicle_type_id":"4","last_reported":1693587951,"current_range_meters":20800,"station_id":"ce4bh9p2rcd13ifvqec0","pricing_plan_id":"free"},{"bike_id":"2bd134b1-96de-42aa-95f7-3807397c6722","system_id":"levelo_inurba_marseille","lat":43.315293,"lon":5.380349,"is_reserved":false,"is_disabled":false,"rental_uris":{"android":"levelo://app?vid=2bd134b1-96de-42aa-95f7-3807397c6722","ios":"levelo://app?vid=2bd134b1-96de-42aa-95f7-3807397c6722"},"vehicle_type_id":"4","last_reported":1693587951,"current_range_meters":11200,"station_id":"ce4bhsp2rcd13ifvqi50","pricing_plan_id":"free"},{"bike_id":"b0ea184c-5647-4ed0-9ba3-0f4b4ea01da3","system_id":"levelo_inurba_marseille","lat":43.267959,"lon":5.402685,"is_reserved":false,"is_disabled":false,"rental_uris":{"android":"levelo://app?vid=b0ea184c-5647-4ed0-9ba3-0f4b4ea01da3","ios":"levelo://app?vid=b0ea184c-5647-4ed0-9ba3-0f4b4ea01da3"},"vehicle_type_id":"4","last_reported":1693587951,"current_range_meters":7200,"station_id":"ce501612rcd8frsf0b60","pricing_plan_id":"free"},{"bike_id":"d13e2fc0-5196-41d3-8d49-bf9314309b08","system_id":"levelo_inurba_marseille","lat":43.31989,"lon":5.38138,"is_reserved":false,"is_disabled":false,"rental_uris":{"android":"levelo://app?vid=d13e2fc0-5196-41d3-8d49-bf9314309b08","ios":"levelo://app?vid=d13e2fc0-5196-41d3-8d49-bf9314309b08"},"vehicle_type_id":"4","last_reported":1693587951,"current_range_meters":31200,"station_id":"ce4bhr12rcd13ifvqhpg","pricing_plan_id":"free"},{"bike_id":"493bb695-060e-4a05-8d55-6cae332e5a3f","system_id":"levelo_inurba_marseille","lat":43.3142,"lon":5.3843,"is_reserved":false,"is_disabled":false,"rental_uris":{"android":"levelo://app?vid=493bb695-060e-4a05-8d55-6cae332e5a3f","ios":"levelo://app?vid=493bb695-060e-4a05-8d55-6cae332e5a3f"},"vehicle_type_id":"4","last_reported":1693587951,"current_range_meters":27200,"station_id":"","pricing_plan_id":"free"},{"bike_id":"cc28612f-b913-4e07-81a1-e8a4df49747b","system_id":"levelo_inurba_marseille","lat":43.31993,"lon":5.38143,"is_reserved":false,"is_disabled":false,"rental_uris":{"android":"levelo://app?vid=cc28612f-b913-4e07-81a1-e8a4df49747b","ios":"levelo://app?vid=cc28612f-b913-4e07-81a1-e8a4df49747b"},"vehicle_type_id":"4","last_reported":1693587951,"current_range_meters":17200,"station_id":"ce4bhr12rcd13ifvqhpg","pricing_plan_id":"free"},{"bike_id":"3ce12e8d-2187-433e-90ea-725012bee47a","system_id":"levelo_inurba_marseille","lat":43.319935,"lon":5.381699,"is_reserved":false,"is_disabled":false,"rental_uris":{"android":"levelo://app?vid=3ce12e8d-2187-433e-90ea-725012bee47a","ios":"levelo://app?vid=3ce12e8d-2187-433e-90ea-725012bee47a"},"vehicle_type_id":"4","last_reported":1693587951,"current_range_meters":27200,"station_id":"ce4bhr12rcd13ifvqhpg","pricing_plan_id":"free"},{"bike_id":"77cc4a87-903a-4ac8-836f-05d771ccc1e4","system_id":"levelo_inurba_marseille","lat":43.31995,"lon":5.38153,"is_reserved":false,"is_disabled":false,"rental_uris":{"android":"levelo://app?vid=77cc4a87-903a-4ac8-836f-05d771ccc1e4","ios":"levelo://app?vid=77cc4a87-903a-4ac8-836f-05d771ccc1e4"},"vehicle_type_id":"4","last_reported":1693587951,"current_range_meters":27600,"station_id":"ce4bhr12rcd13ifvqhpg","pricing_plan_id":"free"},{"bike_id":"1e0f211e-028a-46cb-9a0d-9899ac904750","system_id":"levelo_inurba_marseille","lat":43.31995,"lon":5.38156,"is_reserved":false,"is_disabled":false,"rental_uris":{"android":"levelo://app?vid=1e0f211e-028a-46cb-9a0d-9899ac904750","ios":"levelo://app?vid=1e0f211e-028a-46cb-9a0d-9899ac904750"},"vehicle_type_id":"4","last_reported":1693587951,"current_range_meters":29200,"station_id":"ce4bhr12rcd13ifvqhpg","pricing_plan_id":"free"},{"bike_id":"dd413ac5-3b4c-4e50-9e44-9ae3af6e8752","system_id":"levelo_inurba_marseille","lat":43.319935,"lon":5.381699,"is_reserved":false,"is_disabled":false,"rental_uris":{"android":"levelo://app?vid=dd413ac5-3b4c-4e50-9e44-9ae3af6e8752","ios":"levelo://app?vid=dd413ac5-3b4c-4e50-9e44-9ae3af6e8752"},"vehicle_type_id":"4","last_reported":1693587951,"current_range_meters":26800,"station_id":"ce4bhr12rcd13ifvqhpg","pricing_plan_id":"free"},{"bike_id":"c0aa06d4-ea1c-42f1-82e3-b4b98c641344","system_id":"levelo_inurba_marseille","lat":43.31996,"lon":5.38166,"is_reserved":false,"is_disabled":false,"rental_uris":{"android":"levelo://app?vid=c0aa06d4-ea1c-42f1-82e3-b4b98c641344","ios":"levelo://app?vid=c0aa06d4-ea1c-42f1-82e3-b4b98c641344"},"vehicle_type_id":"4","last_reported":1693587951,"current_range_meters":24000,"station_id":"ce4bhr12rcd13ifvqhpg","pricing_plan_id":"free"},{"bike_id":"b6abff1c-f097-4297-b7f5-e905b62cd8ab","system_id":"levelo_inurba_marseille","lat":43.319935,"lon":5.381699,"is_reserved":false,"is_disabled":false,"rental_uris":{"android":"levelo://app?vid=b6abff1c-f097-4297-b7f5-e905b62cd8ab","ios":"levelo://app?vid=b6abff1c-f097-4297-b7f5-e905b62cd8ab"},"vehicle_type_id":"4","last_reported":1693587951,"current_range_meters":19600,"station_id":"ce4bhr12rcd13ifvqhpg","pricing_plan_id":"free"},{"bike_id":"cc9414bd-562f-4df3-ad97-f07365046142","system_id":"levelo_inurba_marseille","lat":43.29938,"lon":5.36528,"is_reserved":false,"is_disabled":false,"rental_uris":{"android":"levelo://app?vid=cc9414bd-562f-4df3-ad97-f07365046142","ios":"levelo://app?vid=cc9414bd-562f-4df3-ad97-f07365046142"},"vehicle_type_id":"4","last_reported":1693587951,"current_range_meters":2800,"station_id":"ce4bgm92rcd13ifvqbr0","pricing_plan_id":"free"},{"bike_id":"50ef18c4-74a3-4caf-a33c-431af30beb83","system_id":"levelo_inurba_marseille","lat":43.29932,"lon":5.36542,"is_reserved":false,"is_disabled":false,"rental_uris":{"android":"levelo://app?vid=50ef18c4-74a3-4caf-a33c-431af30beb83","ios":"levelo://app?vid=50ef18c4-74a3-4caf-a33c-431af30beb83"},"vehicle_type_id":"4","last_reported":1693587951,"current_range_meters":4400,"station_id":"ce4bgm92rcd13ifvqbr0","pricing_plan_id":"free"},{"bike_id":"190d7fa7-dd8e-4f4b-8179-4cb468328483","system_id":"levelo_inurba_marseille","lat":43.31173,"lon":5.3871,"is_reserved":false,"is_disabled":false,"rental_uris":{"android":"levelo://app?vid=190d7fa7-dd8e-4f4b-8179-4cb468328483","ios":"levelo://app?vid=190d7fa7-dd8e-4f4b-8179-4cb468328483"},"vehicle_type_id":"4","last_reported":1693587951,"current_range_meters":26400,"station_id":"ce4bgv12rcd13ifvqcp0","pricing_plan_id":"free"},{"bike_id":"28854287-5005-49d6-9a98-581ba57208d5","system_id":"levelo_inurba_marseille","lat":43.31171,"lon":5.38713,"is_reserved":false,"is_disabled":false,"rental_uris":{"android":"levelo://app?vid=28854287-5005-49d6-9a98-581ba57208d5","ios":"levelo://app?vid=28854287-5005-49d6-9a98-581ba57208d5"},"vehicle_type_id":"4","last_reported":1693587951,"current_range_meters":8800,"station_id":"ce4bgv12rcd13ifvqcp0","pricing_plan_id":"free"},{"bike_id":"9f259795-7a8f-404d-b2c1-5e5a08bc7f9b","system_id":"levelo_inurba_marseille","lat":43.311722,"lon":5.387247,"is_reserved":false,"is_disabled":false,"rental_uris":{"android":"levelo://app?vid=9f259795-7a8f-404d-b2c1-5e5a08bc7f9b","ios":"levelo://app?vid=9f259795-7a8f-404d-b2c1-5e5a08bc7f9b"},"vehicle_type_id":"4","last_reported":1693587951,"current_range_meters":18000,"station_id":"ce4bgv12rcd13ifvqcp0","pricing_plan_id":"free"},{"bike_id":"8ea87a71-ce85-4719-b8a5-5ccea2afe2c2","system_id":"levelo_inurba_marseille","lat":43.311722,"lon":5.387247,"is_reserved":false,"is_disabled":false,"rental_uris":{"android":"levelo://app?vid=8ea87a71-ce85-4719-b8a5-5ccea2afe2c2","ios":"levelo://app?vid=8ea87a71-ce85-4719-b8a5-5ccea2afe2c2"},"vehicle_type_id":"4","last_reported":1693587951,"current_range_meters":21600,"station_id":"ce4bgv12rcd13ifvqcp0","pricing_plan_id":"free"},{"bike_id":"2f9e2def-2173-4eb4-a460-9a385f59debe","system_id":"levelo_inurba_marseille","lat":43.299243,"lon":5.37481,"is_reserved":false,"is_disabled":false,"rental_uris":{"android":"levelo://app?vid=2f9e2def-2173-4eb4-a460-9a385f59debe","ios":"levelo://app?vid=2f9e2def-2173-4eb4-a460-9a385f59debe"},"vehicle_type_id":"4","last_reported":1693587951,"current_range_meters":31200,"station_id":"ce4bgjh2rcd13ifvqbg0","pricing_plan_id":"free"},{"bike_id":"00ce91df-c953-4dc3-8d24-ed97168c3a61","system_id":"levelo_inurba_marseille","lat":43.311722,"lon":5.387247,"is_reserved":false,"is_disabled":false,"rental_uris":{"android":"levelo://app?vid=00ce91df-c953-4dc3-8d24-ed97168c3a61","ios":"levelo://app?vid=00ce91df-c953-4dc3-8d24-ed97168c3a61"},"vehicle_type_id":"4","last_reported":1693587951,"current_range_meters":30000,"station_id":"ce4bgv12rcd13ifvqcp0","pricing_plan_id":"free"},{"bike_id":"bb49cf72-6161-4003-ae7a-00f9d83ea78c","system_id":"levelo_inurba_marseille","lat":43.305364,"lon":5.384119,"is_reserved":false,"is_disabled":false,"rental_uris":{"android":"levelo://app?vid=bb49cf72-6161-4003-ae7a-00f9d83ea78c","ios":"levelo://app?vid=bb49cf72-6161-4003-ae7a-00f9d83ea78c"},"vehicle_type_id":"4","last_reported":1693587951,"current_range_meters":0,"station_id":"ce4bgg92rcd13ifvqb30","pricing_plan_id":"free"},{"bike_id":"8143ebd5-c5c5-467f-a353-1c0066f90341","system_id":"levelo_inurba_marseille","lat":43.29781,"lon":5.37102,"is_reserved":false,"is_disabled":false,"rental_uris":{"android":"levelo://app?vid=8143ebd5-c5c5-467f-a353-1c0066f90341","ios":"levelo://app?vid=8143ebd5-c5c5-467f-a353-1c0066f90341"},"vehicle_type_id":"4","last_reported":1693587951,"current_range_meters":31200,"station_id":"ce4bgop2rcd13ifvqc1g","pricing_plan_id":"free"},{"bike_id":"88c4a93e-f84a-4492-9ca8-7095f26ad20a","system_id":"levelo_inurba_marseille","lat":43.32283,"lon":5.38265,"is_reserved":false,"is_disabled":false,"rental_uris":{"android":"levelo://app?vid=88c4a93e-f84a-4492-9ca8-7095f26ad20a","ios":"levelo://app?vid=88c4a93e-f84a-4492-9ca8-7095f26ad20a"},"vehicle_type_id":"4","last_reported":1693587951,"current_range_meters":14400,"station_id":"ce4bhr12rcd13ifvqhqg","pricing_plan_id":"free"},{"bike_id":"924d6452-f7f7-4baa-af9a-49926af70474","system_id":"levelo_inurba_marseille","lat":43.29774,"lon":5.3708,"is_reserved":false,"is_disabled":false,"rental_uris":{"android":"levelo://app?vid=924d6452-f7f7-4baa-af9a-49926af70474","ios":"levelo://app?vid=924d6452-f7f7-4baa-af9a-49926af70474"},"vehicle_type_id":"4","last_reported":1693587951,"current_range_meters":28000,"station_id":"ce4bgop2rcd13ifvqc1g","pricing_plan_id":"free"},{"bike_id":"bc8f34a2-0447-439b-8108-9a4250aef71a","system_id":"levelo_inurba_marseille","lat":43.32284,"lon":5.38272,"is_reserved":false,"is_disabled":false,"rental_uris":{"android":"levelo://app?vid=bc8f34a2-0447-439b-8108-9a4250aef71a","ios":"levelo://app?vid=bc8f34a2-0447-439b-8108-9a4250aef71a"},"vehicle_type_id":"4","last_reported":1693587951,"current_range_meters":30000,"station_id":"ce4bhr12rcd13ifvqhqg","pricing_plan_id":"free"},{"bike_id":"05d41f66-0b8a-4dd9-8e9e-34536d67860b","system_id":"levelo_inurba_marseille","lat":43.322872,"lon":5.382756,"is_reserved":false,"is_disabled":false,"rental_uris":{"android":"levelo://app?vid=05d41f66-0b8a-4dd9-8e9e-34536d67860b","ios":"levelo://app?vid=05d41f66-0b8a-4dd9-8e9e-34536d67860b"},"vehicle_type_id":"4","last_reported":1693587951,"current_range_meters":30000,"station_id":"ce4bhr12rcd13ifvqhqg","pricing_plan_id":"free"},{"bike_id":"3d2a691c-74eb-4958-aebd-9ebc95f3d8a8","system_id":"levelo_inurba_marseille","lat":43.3229,"lon":5.38276,"is_reserved":false,"is_disabled":false,"rental_uris":{"android":"levelo://app?vid=3d2a691c-74eb-4958-aebd-9ebc95f3d8a8","ios":"levelo://app?vid=3d2a691c-74eb-4958-aebd-9ebc95f3d8a8"},"vehicle_type_id":"4","last_reported":1693587951,"current_range_meters":14000,"station_id":"ce4bhr12rcd13ifvqhqg","pricing_plan_id":"free"},{"bike_id":"c29114e8-dc25-4be3-832f-1611beb9061c","system_id":"levelo_inurba_marseille","lat":43.322872,"lon":5.382756,"is_reserved":false,"is_disabled":false,"rental_uris":{"android":"levelo://app?vid=c29114e8-dc25-4be3-832f-1611beb9061c","ios":"levelo://app?vid=c29114e8-dc25-4be3-832f-1611beb9061c"},"vehicle_type_id":"4","last_reported":1693587951,"current_range_meters":26400,"station_id":"ce4bhr12rcd13ifvqhqg","pricing_plan_id":"free"},{"bike_id":"dd789220-e7b5-42c1-b9dc-dc4243148021","system_id":"levelo_inurba_marseille","lat":43.297163,"lon":5.365866,"is_reserved":false,"is_disabled":false,"rental_uris":{"android":"levelo://app?vid=dd789220-e7b5-42c1-b9dc-dc4243148021","ios":"levelo://app?vid=dd789220-e7b5-42c1-b9dc-dc4243148021"},"vehicle_type_id":"4","last_reported":1693587951,"current_range_meters":31200,"station_id":"ce4bgn12rcd13ifvqbt0","pricing_plan_id":"free"},{"bike_id":"bd0bd295-6ecc-40c4-a4d0-89f645593756","system_id":"levelo_inurba_marseille","lat":43.297163,"lon":5.365866,"is_reserved":false,"is_disabled":false,"rental_uris":{"android":"levelo://app?vid=bd0bd295-6ecc-40c4-a4d0-89f645593756","ios":"levelo://app?vid=bd0bd295-6ecc-40c4-a4d0-89f645593756"},"vehicle_type_id":"4","last_reported":1693587951,"current_range_meters":21600,"station_id":"ce4bgn12rcd13ifvqbt0","pricing_plan_id":"free"},{"bike_id":"2d38d843-9501-4a8b-8d1e-e53e054245cc","system_id":"levelo_inurba_marseille","lat":43.32164,"lon":5.38573,"is_reserved":false,"is_disabled":false,"rental_uris":{"android":"levelo://app?vid=2d38d843-9501-4a8b-8d1e-e53e054245cc","ios":"levelo://app?vid=2d38d843-9501-4a8b-8d1e-e53e054245cc"},"vehicle_type_id":"4","last_reported":1693587951,"current_range_meters":25200,"station_id":"","pricing_plan_id":"free"},{"bike_id":"10d32cd1-8307-45ca-ad3e-2653e5514234","system_id":"levelo_inurba_marseille","lat":43.2964,"lon":5.37123,"is_reserved":false,"is_disabled":false,"rental_uris":{"android":"levelo://app?vid=10d32cd1-8307-45ca-ad3e-2653e5514234","ios":"levelo://app?vid=10d32cd1-8307-45ca-ad3e-2653e5514234"},"vehicle_type_id":"4","last_reported":1693587951,"current_range_meters":0,"station_id":"","pricing_plan_id":"free"},{"bike_id":"d3139180-8ba9-4c91-b6e4-8baae3c22113","system_id":"levelo_inurba_marseille","lat":43.29628,"lon":5.37167,"is_reserved":false,"is_disabled":false,"rental_uris":{"android":"levelo://app?vid=d3139180-8ba9-4c91-b6e4-8baae3c22113","ios":"levelo://app?vid=d3139180-8ba9-4c91-b6e4-8baae3c22113"},"vehicle_type_id":"4","last_reported":1693587951,"current_range_meters":31200,"station_id":"","pricing_plan_id":"free"},{"bike_id":"65d934c8-ea94-404c-b991-a012f59c0b64","system_id":"levelo_inurba_marseille","lat":43.296129,"lon":5.370777,"is_reserved":false,"is_disabled":false,"rental_uris":{"android":"levelo://app?vid=65d934c8-ea94-404c-b991-a012f59c0b64","ios":"levelo://app?vid=65d934c8-ea94-404c-b991-a012f59c0b64"},"vehicle_type_id":"4","last_reported":1693587951,"current_range_meters":26800,"station_id":"ce4bgnh2rcd13ifvqc0g","pricing_plan_id":"free"},{"bike_id":"5711a1cd-0b00-411c-8520-371dd276efa1","system_id":"levelo_inurba_marseille","lat":43.296131,"lon":5.370791,"is_reserved":false,"is_disabled":false,"rental_uris":{"android":"levelo://app?vid=5711a1cd-0b00-411c-8520-371dd276efa1","ios":"levelo://app?vid=5711a1cd-0b00-411c-8520-371dd276efa1"},"vehicle_type_id":"4","last_reported":1693587951,"current_range_meters":26000,"station_id":"ce4bgnh2rcd13ifvqc0g","pricing_plan_id":"free"},{"bike_id":"a37eff3f-2b69-48a9-8816-e13b1b1c2f87","system_id":"levelo_inurba_marseille","lat":43.29573,"lon":5.367355,"is_reserved":false,"is_disabled":false,"rental_uris":{"android":"levelo://app?vid=a37eff3f-2b69-48a9-8816-e13b1b1c2f87","ios":"levelo://app?vid=a37eff3f-2b69-48a9-8816-e13b1b1c2f87"},"vehicle_type_id":"4","last_reported":1693587951,"current_range_meters":20000,"station_id":"ce4bgph2rcd13ifvqc2g","pricing_plan_id":"free"},{"bike_id":"c24d1a02-a7ac-4915-9caa-ff9160c81d4e","system_id":"levelo_inurba_marseille","lat":43.2972,"lon":5.37695,"is_reserved":false,"is_disabled":false,"rental_uris":{"android":"levelo://app?vid=c24d1a02-a7ac-4915-9caa-ff9160c81d4e","ios":"levelo://app?vid=c24d1a02-a7ac-4915-9caa-ff9160c81d4e"},"vehicle_type_id":"4","last_reported":1693587951,"current_range_meters":13600,"station_id":"","pricing_plan_id":"free"},{"bike_id":"3f2655e6-2d90-4ebc-b4c0-16c453e05843","system_id":"levelo_inurba_marseille","lat":43.309589,"lon":5.390258,"is_reserved":false,"is_disabled":false,"rental_uris":{"android":"levelo://app?vid=3f2655e6-2d90-4ebc-b4c0-16c453e05843","ios":"levelo://app?vid=3f2655e6-2d90-4ebc-b4c0-16c453e05843"},"vehicle_type_id":"4","last_reported":1693587951,"current_range_meters":19200,"station_id":"ce4bgup2rcd13ifvqco0","pricing_plan_id":"free"},{"bike_id":"af51b089-c834-4333-a5ab-6860ea370ca5","system_id":"levelo_inurba_marseille","lat":43.309589,"lon":5.390258,"is_reserved":false,"is_disabled":false,"rental_uris":{"android":"levelo://app?vid=af51b089-c834-4333-a5ab-6860ea370ca5","ios":"levelo://app?vid=af51b089-c834-4333-a5ab-6860ea370ca5"},"vehicle_type_id":"4","last_reported":1693587951,"current_range_meters":7600,"station_id":"ce4bgup2rcd13ifvqco0","pricing_plan_id":"free"},{"bike_id":"74603b1d-5a06-445b-bae1-cbfb427aa90e","system_id":"levelo_inurba_marseille","lat":43.309589,"lon":5.390258,"is_reserved":false,"is_disabled":false,"rental_uris":{"android":"levelo://app?vid=74603b1d-5a06-445b-bae1-cbfb427aa90e","ios":"levelo://app?vid=74603b1d-5a06-445b-bae1-cbfb427aa90e"},"vehicle_type_id":"4","last_reported":1693587951,"current_range_meters":31200,"station_id":"ce4bgup2rcd13ifvqco0","pricing_plan_id":"free"},{"bike_id":"8a83a182-68b5-4fc8-b0bb-36401d1a0be5","system_id":"levelo_inurba_marseille","lat":43.309589,"lon":5.390258,"is_reserved":false,"is_disabled":false,"rental_uris":{"android":"levelo://app?vid=8a83a182-68b5-4fc8-b0bb-36401d1a0be5","ios":"levelo://app?vid=8a83a182-68b5-4fc8-b0bb-36401d1a0be5"},"vehicle_type_id":"4","last_reported":1693587951,"current_range_meters":24400,"station_id":"ce4bgup2rcd13ifvqco0","pricing_plan_id":"free"},{"bike_id":"2c93ce6f-c5e1-4ec9-9941-ebb7469bb8f2","system_id":"levelo_inurba_marseille","lat":43.31763,"lon":5.39005,"is_reserved":false,"is_disabled":false,"rental_uris":{"android":"levelo://app?vid=2c93ce6f-c5e1-4ec9-9941-ebb7469bb8f2","ios":"levelo://app?vid=2c93ce6f-c5e1-4ec9-9941-ebb7469bb8f2"},"vehicle_type_id":"4","last_reported":1693587951,"current_range_meters":19600,"station_id":"ce4bhqp2rcd13ifvqhng","pricing_plan_id":"free"},{"bike_id":"1b5b4211-83a3-483e-9cdf-2b196fba5adb","system_id":"levelo_inurba_marseille","lat":43.317557,"lon":5.390173,"is_reserved":false,"is_disabled":false,"rental_uris":{"android":"levelo://app?vid=1b5b4211-83a3-483e-9cdf-2b196fba5adb","ios":"levelo://app?vid=1b5b4211-83a3-483e-9cdf-2b196fba5adb"},"vehicle_type_id":"4","last_reported":1693587951,"current_range_meters":12400,"station_id":"ce4bhqp2rcd13ifvqhng","pricing_plan_id":"free"},{"bike_id":"60c26bea-b6ea-44c2-8838-59b00d1bf8b2","system_id":"levelo_inurba_marseille","lat":43.317557,"lon":5.390173,"is_reserved":false,"is_disabled":false,"rental_uris":{"android":"levelo://app?vid=60c26bea-b6ea-44c2-8838-59b00d1bf8b2","ios":"levelo://app?vid=60c26bea-b6ea-44c2-8838-59b00d1bf8b2"},"vehicle_type_id":"4","last_reported":1693587951,"current_range_meters":27200,"station_id":"ce4bhqp2rcd13ifvqhng","pricing_plan_id":"free"},{"bike_id":"88d9d596-f438-4684-ae9f-d2d3fa8d2d69","system_id":"levelo_inurba_marseille","lat":43.317557,"lon":5.390173,"is_reserved":false,"is_disabled":false,"rental_uris":{"android":"levelo://app?vid=88d9d596-f438-4684-ae9f-d2d3fa8d2d69","ios":"levelo://app?vid=88d9d596-f438-4684-ae9f-d2d3fa8d2d69"},"vehicle_type_id":"4","last_reported":1693587951,"current_range_meters":28400,"station_id":"ce4bhqp2rcd13ifvqhng","pricing_plan_id":"free"},{"bike_id":"86d37462-6f2c-4ee1-b5e1-16f3e9285866","system_id":"levelo_inurba_marseille","lat":43.31755,"lon":5.39023,"is_reserved":false,"is_disabled":false,"rental_uris":{"android":"levelo://app?vid=86d37462-6f2c-4ee1-b5e1-16f3e9285866","ios":"levelo://app?vid=86d37462-6f2c-4ee1-b5e1-16f3e9285866"},"vehicle_type_id":"4","last_reported":1693587951,"current_range_meters":19600,"station_id":"ce4bhqp2rcd13ifvqhng","pricing_plan_id":"free"},{"bike_id":"db671aa9-e11a-48df-be7f-ecadd23b45d4","system_id":"levelo_inurba_marseille","lat":43.304278,"lon":5.388868,"is_reserved":false,"is_disabled":false,"rental_uris":{"android":"levelo://app?vid=db671aa9-e11a-48df-be7f-ecadd23b45d4","ios":"levelo://app?vid=db671aa9-e11a-48df-be7f-ecadd23b45d4"},"vehicle_type_id":"4","last_reported":1693587951,"current_range_meters":18800,"station_id":"ce4bgk12rcd13ifvqbi0","pricing_plan_id":"free"},{"bike_id":"4fbc8b1e-b6f5-4455-a456-6db1756c202d","system_id":"levelo_inurba_marseille","lat":43.304274,"lon":5.388873,"is_reserved":false,"is_disabled":false,"rental_uris":{"android":"levelo://app?vid=4fbc8b1e-b6f5-4455-a456-6db1756c202d","ios":"levelo://app?vid=4fbc8b1e-b6f5-4455-a456-6db1756c202d"},"vehicle_type_id":"4","last_reported":1693587951,"current_range_meters":5600,"station_id":"ce4bgk12rcd13ifvqbi0","pricing_plan_id":"free"},{"bike_id":"cb22f326-0c91-4af2-945b-0560c3f9070c","system_id":"levelo_inurba_marseille","lat":43.29783,"lon":5.38106,"is_reserved":false,"is_disabled":false,"rental_uris":{"android":"levelo://app?vid=cb22f326-0c91-4af2-945b-0560c3f9070c","ios":"levelo://app?vid=cb22f326-0c91-4af2-945b-0560c3f9070c"},"vehicle_type_id":"4","last_reported":1693587951,"current_range_meters":21600,"station_id":"ce4bgip2rcd13ifvqbb0","pricing_plan_id":"free"},{"bike_id":"34532c3e-05cd-4fde-9c58-e74c7bd9ca4c","system_id":"levelo_inurba_marseille","lat":43.305364,"lon":5.384119,"is_reserved":false,"is_disabled":false,"rental_uris":{"android":"levelo://app?vid=34532c3e-05cd-4fde-9c58-e74c7bd9ca4c","ios":"levelo://app?vid=34532c3e-05cd-4fde-9c58-e74c7bd9ca4c"},"vehicle_type_id":"4","last_reported":1693587951,"current_range_meters":17200,"station_id":"ce4bgg92rcd13ifvqb30","pricing_plan_id":"free"},{"bike_id":"b3235cbe-8b0e-4ae4-a97f-ee6081c8f939","system_id":"levelo_inurba_marseille","lat":43.299724,"lon":5.384848,"is_reserved":false,"is_disabled":false,"rental_uris":{"android":"levelo://app?vid=b3235cbe-8b0e-4ae4-a97f-ee6081c8f939","ios":"levelo://app?vid=b3235cbe-8b0e-4ae4-a97f-ee6081c8f939"},"vehicle_type_id":"4","last_reported":1693587951,"current_range_meters":20000,"station_id":"ce4bgj92rcd13ifvqbd0","pricing_plan_id":"free"},{"bike_id":"a717c438-575b-479b-bdab-3b4aae7704c3","system_id":"levelo_inurba_marseille","lat":43.299724,"lon":5.384848,"is_reserved":false,"is_disabled":false,"rental_uris":{"android":"levelo://app?vid=a717c438-575b-479b-bdab-3b4aae7704c3","ios":"levelo://app?vid=a717c438-575b-479b-bdab-3b4aae7704c3"},"vehicle_type_id":"4","last_reported":1693587951,"current_range_meters":0,"station_id":"ce4bgj92rcd13ifvqbd0","pricing_plan_id":"free"},{"bike_id":"8181e861-4f28-43e6-b352-b668aa565979","system_id":"levelo_inurba_marseille","lat":43.32364,"lon":5.38874,"is_reserved":false,"is_disabled":false,"rental_uris":{"android":"levelo://app?vid=8181e861-4f28-43e6-b352-b668aa565979","ios":"levelo://app?vid=8181e861-4f28-43e6-b352-b668aa565979"},"vehicle_type_id":"4","last_reported":1693587951,"current_range_meters":30400,"station_id":"ce4bhqp2rcd13ifvqhog","pricing_plan_id":"free"},{"bike_id":"06edc62d-4336-4e5a-9dcf-00fb1209f18a","system_id":"levelo_inurba_marseille","lat":43.32363,"lon":5.38875,"is_reserved":false,"is_disabled":false,"rental_uris":{"android":"levelo://app?vid=06edc62d-4336-4e5a-9dcf-00fb1209f18a","ios":"levelo://app?vid=06edc62d-4336-4e5a-9dcf-00fb1209f18a"},"vehicle_type_id":"4","last_reported":1693587951,"current_range_meters":31200,"station_id":"ce4bhqp2rcd13ifvqhog","pricing_plan_id":"free"},{"bike_id":"75dd2d9b-e11c-4209-90bf-8c81a9698c47","system_id":"levelo_inurba_marseille","lat":43.32368,"lon":5.38876,"is_reserved":false,"is_disabled":false,"rental_uris":{"android":"levelo://app?vid=75dd2d9b-e11c-4209-90bf-8c81a9698c47","ios":"levelo://app?vid=75dd2d9b-e11c-4209-90bf-8c81a9698c47"},"vehicle_type_id":"4","last_reported":1693587951,"current_range_meters":30000,"station_id":"ce4bhqp2rcd13ifvqhog","pricing_plan_id":"free"},{"bike_id":"ff25b2c0-9288-4710-aefe-153e38ec535b","system_id":"levelo_inurba_marseille","lat":43.32367,"lon":5.38883,"is_reserved":false,"is_disabled":false,"rental_uris":{"android":"levelo://app?vid=ff25b2c0-9288-4710-aefe-153e38ec535b","ios":"levelo://app?vid=ff25b2c0-9288-4710-aefe-153e38ec535b"},"vehicle_type_id":"4","last_reported":1693587951,"current_range_meters":21600,"station_id":"ce4bhqp2rcd13ifvqhog","pricing_plan_id":"free"},{"bike_id":"899db4cf-53c9-490f-9588-c2dabe0e6d13","system_id":"levelo_inurba_marseille","lat":43.32367,"lon":5.388836,"is_reserved":false,"is_disabled":false,"rental_uris":{"android":"levelo://app?vid=899db4cf-53c9-490f-9588-c2dabe0e6d13","ios":"levelo://app?vid=899db4cf-53c9-490f-9588-c2dabe0e6d13"},"vehicle_type_id":"4","last_reported":1693587951,"current_range_meters":6000,"station_id":"ce4bhqp2rcd13ifvqhog","pricing_plan_id":"free"},{"bike_id":"04bd86b5-0561-4cf7-b54e-88dfd8a933b3","system_id":"levelo_inurba_marseille","lat":43.32369,"lon":5.38885,"is_reserved":false,"is_disabled":false,"rental_uris":{"android":"levelo://app?vid=04bd86b5-0561-4cf7-b54e-88dfd8a933b3","ios":"levelo://app?vid=04bd86b5-0561-4cf7-b54e-88dfd8a933b3"},"vehicle_type_id":"4","last_reported":1693587951,"current_range_meters":30000,"station_id":"ce4bhqp2rcd13ifvqhog","pricing_plan_id":"free"},{"bike_id":"9180c84f-0f25-4355-8dec-d34711128242","system_id":"levelo_inurba_marseille","lat":43.32365,"lon":5.3889,"is_reserved":false,"is_disabled":false,"rental_uris":{"android":"levelo://app?vid=9180c84f-0f25-4355-8dec-d34711128242","ios":"levelo://app?vid=9180c84f-0f25-4355-8dec-d34711128242"},"vehicle_type_id":"4","last_reported":1693587951,"current_range_meters":24400,"station_id":"ce4bhqp2rcd13ifvqhog","pricing_plan_id":"free"},{"bike_id":"105206fe-22e3-43b3-bbde-5dde783bcd1a","system_id":"levelo_inurba_marseille","lat":43.323737,"lon":5.388881,"is_reserved":false,"is_disabled":false,"rental_uris":{"android":"levelo://app?vid=105206fe-22e3-43b3-bbde-5dde783bcd1a","ios":"levelo://app?vid=105206fe-22e3-43b3-bbde-5dde783bcd1a"},"vehicle_type_id":"4","last_reported":1693587951,"current_range_meters":18800,"station_id":"","pricing_plan_id":"free"},{"bike_id":"51d91060-262c-4418-80a1-26a1458d7d43","system_id":"levelo_inurba_marseille","lat":43.29601,"lon":5.381084,"is_reserved":false,"is_disabled":false,"rental_uris":{"android":"levelo://app?vid=51d91060-262c-4418-80a1-26a1458d7d43","ios":"levelo://app?vid=51d91060-262c-4418-80a1-26a1458d7d43"},"vehicle_type_id":"4","last_reported":1693587951,"current_range_meters":6800,"station_id":"ce4bgl12rcd13ifvqbo0","pricing_plan_id":"free"},{"bike_id":"11bc524c-a082-48ac-86f5-9bd8ceea3835","system_id":"levelo_inurba_marseille","lat":43.3055,"lon":5.39211,"is_reserved":false,"is_disabled":false,"rental_uris":{"android":"levelo://app?vid=11bc524c-a082-48ac-86f5-9bd8ceea3835","ios":"levelo://app?vid=11bc524c-a082-48ac-86f5-9bd8ceea3835"},"vehicle_type_id":"4","last_reported":1693587951,"current_range_meters":25200,"station_id":"","pricing_plan_id":"free"},{"bike_id":"f0266b4c-1988-498e-9051-873e3c7f1436","system_id":"levelo_inurba_marseille","lat":43.292749,"lon":5.368402,"is_reserved":false,"is_disabled":false,"rental_uris":{"android":"levelo://app?vid=f0266b4c-1988-498e-9051-873e3c7f1436","ios":"levelo://app?vid=f0266b4c-1988-498e-9051-873e3c7f1436"},"vehicle_type_id":"4","last_reported":1693587951,"current_range_meters":8800,"station_id":"ce4bhbp2rcd13ifvqesg","pricing_plan_id":"free"},{"bike_id":"bf3bea38-c2f8-41ba-9605-8ee757525e8f","system_id":"levelo_inurba_marseille","lat":43.29307,"lon":5.37176,"is_reserved":false,"is_disabled":false,"rental_uris":{"android":"levelo://app?vid=bf3bea38-c2f8-41ba-9605-8ee757525e8f","ios":"levelo://app?vid=bf3bea38-c2f8-41ba-9605-8ee757525e8f"},"vehicle_type_id":"4","last_reported":1693587951,"current_range_meters":29200,"station_id":"ce4bgh92rcd13ifvqb40","pricing_plan_id":"free"},{"bike_id":"1d719f22-06c3-40a4-a789-a2a6b321afa6","system_id":"levelo_inurba_marseille","lat":43.29272,"lon":5.36839,"is_reserved":false,"is_disabled":false,"rental_uris":{"android":"levelo://app?vid=1d719f22-06c3-40a4-a789-a2a6b321afa6","ios":"levelo://app?vid=1d719f22-06c3-40a4-a789-a2a6b321afa6"},"vehicle_type_id":"4","last_reported":1693587951,"current_range_meters":19200,"station_id":"ce4bhbp2rcd13ifvqesg","pricing_plan_id":"free"},{"bike_id":"5c69ed01-f232-477f-9e33-f5d91f3c67e7","system_id":"levelo_inurba_marseille","lat":43.29272,"lon":5.36846,"is_reserved":false,"is_disabled":false,"rental_uris":{"android":"levelo://app?vid=5c69ed01-f232-477f-9e33-f5d91f3c67e7","ios":"levelo://app?vid=5c69ed01-f232-477f-9e33-f5d91f3c67e7"},"vehicle_type_id":"4","last_reported":1693587951,"current_range_meters":3200,"station_id":"ce4bhbp2rcd13ifvqesg","pricing_plan_id":"free"},{"bike_id":"af378848-4ab5-4a0c-a75c-c290cd6c3483","system_id":"levelo_inurba_marseille","lat":43.32459,"lon":5.38946,"is_reserved":false,"is_disabled":false,"rental_uris":{"android":"levelo://app?vid=af378848-4ab5-4a0c-a75c-c290cd6c3483","ios":"levelo://app?vid=af378848-4ab5-4a0c-a75c-c290cd6c3483"},"vehicle_type_id":"4","last_reported":1693587951,"current_range_meters":2800,"station_id":"","pricing_plan_id":"free"},{"bike_id":"1ed56003-03db-4a1b-b182-c4ca972b6037","system_id":"levelo_inurba_marseille","lat":43.3059,"lon":5.39351,"is_reserved":false,"is_disabled":false,"rental_uris":{"android":"levelo://app?vid=1ed56003-03db-4a1b-b182-c4ca972b6037","ios":"levelo://app?vid=1ed56003-03db-4a1b-b182-c4ca972b6037"},"vehicle_type_id":"4","last_reported":1693587951,"current_range_meters":22400,"station_id":"ce4bh0p2rcd13ifvqd80","pricing_plan_id":"free"},{"bike_id":"59d4a7cc-c4d8-47e1-a63f-2e26b5d209c3","system_id":"levelo_inurba_marseille","lat":43.2936,"lon":5.37835,"is_reserved":false,"is_disabled":false,"rental_uris":{"android":"levelo://app?vid=59d4a7cc-c4d8-47e1-a63f-2e26b5d209c3","ios":"levelo://app?vid=59d4a7cc-c4d8-47e1-a63f-2e26b5d209c3"},"vehicle_type_id":"4","last_reported":1693587951,"current_range_meters":30800,"station_id":"ce4bgjh2rcd13ifvqbf0","pricing_plan_id":"free"},{"bike_id":"0724f352-a262-45b7-9b71-9a09ff17d945","system_id":"levelo_inurba_marseille","lat":43.30293,"lon":5.39205,"is_reserved":false,"is_disabled":false,"rental_uris":{"android":"levelo://app?vid=0724f352-a262-45b7-9b71-9a09ff17d945","ios":"levelo://app?vid=0724f352-a262-45b7-9b71-9a09ff17d945"},"vehicle_type_id":"4","last_reported":1693587951,"current_range_meters":26400,"station_id":"ce4bgkh2rcd13ifvqbk0","pricing_plan_id":"free"},{"bike_id":"38fef587-7cc5-4800-b069-87b8f296a10a","system_id":"levelo_inurba_marseille","lat":43.30294,"lon":5.39208,"is_reserved":false,"is_disabled":false,"rental_uris":{"android":"levelo://app?vid=38fef587-7cc5-4800-b069-87b8f296a10a","ios":"levelo://app?vid=38fef587-7cc5-4800-b069-87b8f296a10a"},"vehicle_type_id":"4","last_reported":1693587951,"current_range_meters":23600,"station_id":"ce4bgkh2rcd13ifvqbk0","pricing_plan_id":"free"},{"bike_id":"0b1798f2-bf65-4444-83c8-49b3e6293e2b","system_id":"levelo_inurba_marseille","lat":43.300852,"lon":5.390859,"is_reserved":false,"is_disabled":false,"rental_uris":{"android":"levelo://app?vid=0b1798f2-bf65-4444-83c8-49b3e6293e2b","ios":"levelo://app?vid=0b1798f2-bf65-4444-83c8-49b3e6293e2b"},"vehicle_type_id":"4","last_reported":1693587951,"current_range_meters":24800,"station_id":"ce4bh192rcd13ifvqdb0","pricing_plan_id":"free"},{"bike_id":"42a6fe4f-3504-4c7d-8cd5-ca344ceebfe4","system_id":"levelo_inurba_marseille","lat":43.298764,"lon":5.388973,"is_reserved":false,"is_disabled":false,"rental_uris":{"android":"levelo://app?vid=42a6fe4f-3504-4c7d-8cd5-ca344ceebfe4","ios":"levelo://app?vid=42a6fe4f-3504-4c7d-8cd5-ca344ceebfe4"},"vehicle_type_id":"4","last_reported":1693587951,"current_range_meters":0,"station_id":"ce4bh392rcd13ifvqdl0","pricing_plan_id":"free"},{"bike_id":"fbf1c56c-4c4c-44bb-832b-8f11c3b2d5c2","system_id":"levelo_inurba_marseille","lat":43.292663,"lon":5.376389,"is_reserved":false,"is_disabled":false,"rental_uris":{"android":"levelo://app?vid=fbf1c56c-4c4c-44bb-832b-8f11c3b2d5c2","ios":"levelo://app?vid=fbf1c56c-4c4c-44bb-832b-8f11c3b2d5c2"},"vehicle_type_id":"4","last_reported":1693587951,"current_range_meters":17200,"station_id":"ce4bgi12rcd13ifvqb80","pricing_plan_id":"free"},{"bike_id":"b127cb02-a67f-4944-955b-2653cb69db42","system_id":"levelo_inurba_marseille","lat":43.29142,"lon":5.36689,"is_reserved":false,"is_disabled":false,"rental_uris":{"android":"levelo://app?vid=b127cb02-a67f-4944-955b-2653cb69db42","ios":"levelo://app?vid=b127cb02-a67f-4944-955b-2653cb69db42"},"vehicle_type_id":"4","last_reported":1693587951,"current_range_meters":25200,"station_id":"ce4bhc92rcd13ifvqetg","pricing_plan_id":"free"},{"bike_id":"670216d9-0c4f-4840-99d5-f2905745f3e3","system_id":"levelo_inurba_marseille","lat":43.29198,"lon":5.35812,"is_reserved":false,"is_disabled":false,"rental_uris":{"android":"levelo://app?vid=670216d9-0c4f-4840-99d5-f2905745f3e3","ios":"levelo://app?vid=670216d9-0c4f-4840-99d5-f2905745f3e3"},"vehicle_type_id":"4","last_reported":1693587951,"current_range_meters":0,"station_id":"ce4bhb12rcd13ifvqel0","pricing_plan_id":"free"},{"bike_id":"b338f2f2-cdd8-4fe6-98fe-d81223ed8e55","system_id":"levelo_inurba_marseille","lat":43.313291,"lon":5.396838,"is_reserved":false,"is_disabled":false,"rental_uris":{"android":"levelo://app?vid=b338f2f2-cdd8-4fe6-98fe-d81223ed8e55","ios":"levelo://app?vid=b338f2f2-cdd8-4fe6-98fe-d81223ed8e55"},"vehicle_type_id":"4","last_reported":1693587951,"current_range_meters":1200,"station_id":"ce4bgvp2rcd13ifvqcu0","pricing_plan_id":"free"},{"bike_id":"ee7b75ff-b1b7-4965-a139-7fd200d2a06e","system_id":"levelo_inurba_marseille","lat":43.313291,"lon":5.396838,"is_reserved":false,"is_disabled":false,"rental_uris":{"android":"levelo://app?vid=ee7b75ff-b1b7-4965-a139-7fd200d2a06e","ios":"levelo://app?vid=ee7b75ff-b1b7-4965-a139-7fd200d2a06e"},"vehicle_type_id":"4","last_reported":1693587951,"current_range_meters":7600,"station_id":"ce4bgvp2rcd13ifvqcu0","pricing_plan_id":"free"},{"bike_id":"80a6ef87-e895-47c0-9eb0-f62078f8b572","system_id":"levelo_inurba_marseille","lat":43.30878,"lon":5.39647,"is_reserved":false,"is_disabled":false,"rental_uris":{"android":"levelo://app?vid=80a6ef87-e895-47c0-9eb0-f62078f8b572","ios":"levelo://app?vid=80a6ef87-e895-47c0-9eb0-f62078f8b572"},"vehicle_type_id":"4","last_reported":1693587951,"current_range_meters":13600,"station_id":"ce4bh012rcd13ifvqcv0","pricing_plan_id":"free"},{"bike_id":"73c2e0c0-a939-4bc3-943a-e52094180bff","system_id":"levelo_inurba_marseille","lat":43.291994,"lon":5.357886,"is_reserved":false,"is_disabled":false,"rental_uris":{"android":"levelo://app?vid=73c2e0c0-a939-4bc3-943a-e52094180bff","ios":"levelo://app?vid=73c2e0c0-a939-4bc3-943a-e52094180bff"},"vehicle_type_id":"4","last_reported":1693587951,"current_range_meters":22400,"station_id":"ce4bhb12rcd13ifvqel0","pricing_plan_id":"free"},{"bike_id":"2d071a18-5574-4b5a-9ca3-038b5a7f8932","system_id":"levelo_inurba_marseille","lat":43.313291,"lon":5.396838,"is_reserved":false,"is_disabled":false,"rental_uris":{"android":"levelo://app?vid=2d071a18-5574-4b5a-9ca3-038b5a7f8932","ios":"levelo://app?vid=2d071a18-5574-4b5a-9ca3-038b5a7f8932"},"vehicle_type_id":"4","last_reported":1693587951,"current_range_meters":14400,"station_id":"ce4bgvp2rcd13ifvqcu0","pricing_plan_id":"free"},{"bike_id":"6cc0c157-280f-4044-875d-fe067402a88b","system_id":"levelo_inurba_marseille","lat":43.29529,"lon":5.385581,"is_reserved":false,"is_disabled":false,"rental_uris":{"android":"levelo://app?vid=6cc0c157-280f-4044-875d-fe067402a88b","ios":"levelo://app?vid=6cc0c157-280f-4044-875d-fe067402a88b"},"vehicle_type_id":"4","last_reported":1693587951,"current_range_meters":7600,"station_id":"ce4bgih2rcd13ifvqba0","pricing_plan_id":"free"},{"bike_id":"f43c2dc4-a2e3-4157-85f1-3d3bae6fc411","system_id":"levelo_inurba_marseille","lat":43.309038,"lon":5.396546,"is_reserved":false,"is_disabled":false,"rental_uris":{"android":"levelo://app?vid=f43c2dc4-a2e3-4157-85f1-3d3bae6fc411","ios":"levelo://app?vid=f43c2dc4-a2e3-4157-85f1-3d3bae6fc411"},"vehicle_type_id":"4","last_reported":1693587951,"current_range_meters":18000,"station_id":"ce4bh012rcd13ifvqcv0","pricing_plan_id":"free"},{"bike_id":"bae385af-ec2f-43dc-950f-8340e04c501a","system_id":"levelo_inurba_marseille","lat":43.29529,"lon":5.385581,"is_reserved":false,"is_disabled":false,"rental_uris":{"android":"levelo://app?vid=bae385af-ec2f-43dc-950f-8340e04c501a","ios":"levelo://app?vid=bae385af-ec2f-43dc-950f-8340e04c501a"},"vehicle_type_id":"4","last_reported":1693587951,"current_range_meters":2000,"station_id":"ce4bgih2rcd13ifvqba0","pricing_plan_id":"free"},{"bike_id":"75f4aa15-0ede-4062-ba97-9b7064292a77","system_id":"levelo_inurba_marseille","lat":43.29535,"lon":5.38538,"is_reserved":false,"is_disabled":false,"rental_uris":{"android":"levelo://app?vid=75f4aa15-0ede-4062-ba97-9b7064292a77","ios":"levelo://app?vid=75f4aa15-0ede-4062-ba97-9b7064292a77"},"vehicle_type_id":"4","last_reported":1693587951,"current_range_meters":2000,"station_id":"ce4bgih2rcd13ifvqba0","pricing_plan_id":"free"},{"bike_id":"6313d583-ccb4-4590-8c82-118d85837393","system_id":"levelo_inurba_marseille","lat":43.29529,"lon":5.385581,"is_reserved":false,"is_disabled":false,"rental_uris":{"android":"levelo://app?vid=6313d583-ccb4-4590-8c82-118d85837393","ios":"levelo://app?vid=6313d583-ccb4-4590-8c82-118d85837393"},"vehicle_type_id":"4","last_reported":1693587951,"current_range_meters":14000,"station_id":"ce4bgih2rcd13ifvqba0","pricing_plan_id":"free"},{"bike_id":"4126366a-b31b-47ca-aaf3-10f1a1c5d32d","system_id":"levelo_inurba_marseille","lat":43.29529,"lon":5.385581,"is_reserved":false,"is_disabled":false,"rental_uris":{"android":"levelo://app?vid=4126366a-b31b-47ca-aaf3-10f1a1c5d32d","ios":"levelo://app?vid=4126366a-b31b-47ca-aaf3-10f1a1c5d32d"},"vehicle_type_id":"4","last_reported":1693587951,"current_range_meters":13600,"station_id":"ce4bgih2rcd13ifvqba0","pricing_plan_id":"free"},{"bike_id":"0cf8e47b-f710-43bc-ac49-9ad52bd51144","system_id":"levelo_inurba_marseille","lat":43.29534,"lon":5.38542,"is_reserved":false,"is_disabled":false,"rental_uris":{"android":"levelo://app?vid=0cf8e47b-f710-43bc-ac49-9ad52bd51144","ios":"levelo://app?vid=0cf8e47b-f710-43bc-ac49-9ad52bd51144"},"vehicle_type_id":"4","last_reported":1693587951,"current_range_meters":24800,"station_id":"ce4bgih2rcd13ifvqba0","pricing_plan_id":"free"},{"bike_id":"59fef6d2-8b85-40e7-8ec5-20ed528ebf98","system_id":"levelo_inurba_marseille","lat":43.29529,"lon":5.385581,"is_reserved":false,"is_disabled":false,"rental_uris":{"android":"levelo://app?vid=59fef6d2-8b85-40e7-8ec5-20ed528ebf98","ios":"levelo://app?vid=59fef6d2-8b85-40e7-8ec5-20ed528ebf98"},"vehicle_type_id":"4","last_reported":1693587951,"current_range_meters":12000,"station_id":"ce4bgih2rcd13ifvqba0","pricing_plan_id":"free"},{"bike_id":"c177410a-00c8-4451-a4fc-9b6cc93693d1","system_id":"levelo_inurba_marseille","lat":43.29529,"lon":5.385581,"is_reserved":false,"is_disabled":false,"rental_uris":{"android":"levelo://app?vid=c177410a-00c8-4451-a4fc-9b6cc93693d1","ios":"levelo://app?vid=c177410a-00c8-4451-a4fc-9b6cc93693d1"},"vehicle_type_id":"4","last_reported":1693587951,"current_range_meters":17200,"station_id":"ce4bgih2rcd13ifvqba0","pricing_plan_id":"free"},{"bike_id":"07725faf-0dff-4778-bf95-b7c578bf4ef7","system_id":"levelo_inurba_marseille","lat":43.29529,"lon":5.385581,"is_reserved":false,"is_disabled":false,"rental_uris":{"android":"levelo://app?vid=07725faf-0dff-4778-bf95-b7c578bf4ef7","ios":"levelo://app?vid=07725faf-0dff-4778-bf95-b7c578bf4ef7"},"vehicle_type_id":"4","last_reported":1693587951,"current_range_meters":28400,"station_id":"ce4bgih2rcd13ifvqba0","pricing_plan_id":"free"},{"bike_id":"82019f93-614f-46f3-8c61-8df9f4929876","system_id":"levelo_inurba_marseille","lat":43.29529,"lon":5.385581,"is_reserved":false,"is_disabled":false,"rental_uris":{"android":"levelo://app?vid=82019f93-614f-46f3-8c61-8df9f4929876","ios":"levelo://app?vid=82019f93-614f-46f3-8c61-8df9f4929876"},"vehicle_type_id":"4","last_reported":1693587951,"current_range_meters":26400,"station_id":"ce4bgih2rcd13ifvqba0","pricing_plan_id":"free"},{"bike_id":"0d962e12-b732-4464-bc89-f40845207671","system_id":"levelo_inurba_marseille","lat":43.33221,"lon":5.38114,"is_reserved":false,"is_disabled":false,"rental_uris":{"android":"levelo://app?vid=0d962e12-b732-4464-bc89-f40845207671","ios":"levelo://app?vid=0d962e12-b732-4464-bc89-f40845207671"},"vehicle_type_id":"4","last_reported":1693587951,"current_range_meters":10400,"station_id":"","pricing_plan_id":"free"},{"bike_id":"4066d89c-9278-4745-a405-d35401079aba","system_id":"levelo_inurba_marseille","lat":43.29529,"lon":5.385581,"is_reserved":false,"is_disabled":false,"rental_uris":{"android":"levelo://app?vid=4066d89c-9278-4745-a405-d35401079aba","ios":"levelo://app?vid=4066d89c-9278-4745-a405-d35401079aba"},"vehicle_type_id":"4","last_reported":1693587951,"current_range_meters":27600,"station_id":"ce4bgih2rcd13ifvqba0","pricing_plan_id":"free"},{"bike_id":"cd04dc72-bdef-496f-8579-9b266c03f04b","system_id":"levelo_inurba_marseille","lat":43.290779,"lon":5.371482,"is_reserved":false,"is_disabled":false,"rental_uris":{"android":"levelo://app?vid=cd04dc72-bdef-496f-8579-9b266c03f04b","ios":"levelo://app?vid=cd04dc72-bdef-496f-8579-9b266c03f04b"},"vehicle_type_id":"4","last_reported":1693587951,"current_range_meters":18800,"station_id":"ce4bh5p2rcd13ifvqe4g","pricing_plan_id":"free"},{"bike_id":"63c73b22-afd0-4b10-8df0-9f9ddbb4bbf2","system_id":"levelo_inurba_marseille","lat":43.302008,"lon":5.394694,"is_reserved":false,"is_disabled":false,"rental_uris":{"android":"levelo://app?vid=63c73b22-afd0-4b10-8df0-9f9ddbb4bbf2","ios":"levelo://app?vid=63c73b22-afd0-4b10-8df0-9f9ddbb4bbf2"},"vehicle_type_id":"4","last_reported":1693587951,"current_range_meters":10000,"station_id":"ce4bh0p2rcd13ifvqd70","pricing_plan_id":"free"},{"bike_id":"35ac4166-c19f-45c6-a22c-bb865d0d2dd9","system_id":"levelo_inurba_marseille","lat":43.302008,"lon":5.394694,"is_reserved":false,"is_disabled":false,"rental_uris":{"android":"levelo://app?vid=35ac4166-c19f-45c6-a22c-bb865d0d2dd9","ios":"levelo://app?vid=35ac4166-c19f-45c6-a22c-bb865d0d2dd9"},"vehicle_type_id":"4","last_reported":1693587951,"current_range_meters":14400,"station_id":"ce4bh0p2rcd13ifvqd70","pricing_plan_id":"free"},{"bike_id":"273463cc-6efd-49f2-966a-cc00c93b319d","system_id":"levelo_inurba_marseille","lat":43.29428,"lon":5.38615,"is_reserved":false,"is_disabled":false,"rental_uris":{"android":"levelo://app?vid=273463cc-6efd-49f2-966a-cc00c93b319d","ios":"levelo://app?vid=273463cc-6efd-49f2-966a-cc00c93b319d"},"vehicle_type_id":"4","last_reported":1693587951,"current_range_meters":28800,"station_id":"ce4bh2h2rcd13ifvqdh0","pricing_plan_id":"free"},{"bike_id":"a01aa977-139e-4653-93ad-d980c243b664","system_id":"levelo_inurba_marseille","lat":43.294153,"lon":5.386305,"is_reserved":false,"is_disabled":false,"rental_uris":{"android":"levelo://app?vid=a01aa977-139e-4653-93ad-d980c243b664","ios":"levelo://app?vid=a01aa977-139e-4653-93ad-d980c243b664"},"vehicle_type_id":"4","last_reported":1693587951,"current_range_meters":0,"station_id":"ce4bh2h2rcd13ifvqdh0","pricing_plan_id":"free"},{"bike_id":"d3702b4d-afe5-48ed-97a8-712719ad9160","system_id":"levelo_inurba_marseille","lat":43.294153,"lon":5.386305,"is_reserved":false,"is_disabled":false,"rental_uris":{"android":"levelo://app?vid=d3702b4d-afe5-48ed-97a8-712719ad9160","ios":"levelo://app?vid=d3702b4d-afe5-48ed-97a8-712719ad9160"},"vehicle_type_id":"4","last_reported":1693587951,"current_range_meters":18800,"station_id":"ce4bh2h2rcd13ifvqdh0","pricing_plan_id":"free"},{"bike_id":"93e58241-d33a-49f5-8640-0514b7677b50","system_id":"levelo_inurba_marseille","lat":43.294153,"lon":5.386305,"is_reserved":false,"is_disabled":false,"rental_uris":{"android":"levelo://app?vid=93e58241-d33a-49f5-8640-0514b7677b50","ios":"levelo://app?vid=93e58241-d33a-49f5-8640-0514b7677b50"},"vehicle_type_id":"4","last_reported":1693587951,"current_range_meters":18800,"station_id":"ce4bh2h2rcd13ifvqdh0","pricing_plan_id":"free"},{"bike_id":"3245b5b1-71af-47c1-b356-65b7d8acf8a8","system_id":"levelo_inurba_marseille","lat":43.294153,"lon":5.386305,"is_reserved":false,"is_disabled":false,"rental_uris":{"android":"levelo://app?vid=3245b5b1-71af-47c1-b356-65b7d8acf8a8","ios":"levelo://app?vid=3245b5b1-71af-47c1-b356-65b7d8acf8a8"},"vehicle_type_id":"4","last_reported":1693587951,"current_range_meters":27600,"station_id":"ce4bh2h2rcd13ifvqdh0","pricing_plan_id":"free"},{"bike_id":"cf0646a9-eeb4-4de5-b197-ee3a34295cbe","system_id":"levelo_inurba_marseille","lat":43.294153,"lon":5.386305,"is_reserved":false,"is_disabled":false,"rental_uris":{"android":"levelo://app?vid=cf0646a9-eeb4-4de5-b197-ee3a34295cbe","ios":"levelo://app?vid=cf0646a9-eeb4-4de5-b197-ee3a34295cbe"},"vehicle_type_id":"4","last_reported":1693587951,"current_range_meters":29600,"station_id":"ce4bh2h2rcd13ifvqdh0","pricing_plan_id":"free"},{"bike_id":"fac807ac-1690-4a77-9eac-aea62760b8a8","system_id":"levelo_inurba_marseille","lat":43.294153,"lon":5.386305,"is_reserved":false,"is_disabled":false,"rental_uris":{"android":"levelo://app?vid=fac807ac-1690-4a77-9eac-aea62760b8a8","ios":"levelo://app?vid=fac807ac-1690-4a77-9eac-aea62760b8a8"},"vehicle_type_id":"4","last_reported":1693587951,"current_range_meters":18400,"station_id":"ce4bh2h2rcd13ifvqdh0","pricing_plan_id":"free"},{"bike_id":"3c915b04-0d04-43d5-a1ce-926c2e3542bc","system_id":"levelo_inurba_marseille","lat":43.294153,"lon":5.386305,"is_reserved":false,"is_disabled":false,"rental_uris":{"android":"levelo://app?vid=3c915b04-0d04-43d5-a1ce-926c2e3542bc","ios":"levelo://app?vid=3c915b04-0d04-43d5-a1ce-926c2e3542bc"},"vehicle_type_id":"4","last_reported":1693587951,"current_range_meters":12800,"station_id":"ce4bh2h2rcd13ifvqdh0","pricing_plan_id":"free"},{"bike_id":"04826641-034a-464b-9d7e-8a349713b667","system_id":"levelo_inurba_marseille","lat":43.29421,"lon":5.38636,"is_reserved":false,"is_disabled":false,"rental_uris":{"android":"levelo://app?vid=04826641-034a-464b-9d7e-8a349713b667","ios":"levelo://app?vid=04826641-034a-464b-9d7e-8a349713b667"},"vehicle_type_id":"4","last_reported":1693587951,"current_range_meters":12000,"station_id":"ce4bh2h2rcd13ifvqdh0","pricing_plan_id":"free"},{"bike_id":"4125d0f3-0ab1-4bae-9628-b735bbf61b20","system_id":"levelo_inurba_marseille","lat":43.29415,"lon":5.38627,"is_reserved":false,"is_disabled":false,"rental_uris":{"android":"levelo://app?vid=4125d0f3-0ab1-4bae-9628-b735bbf61b20","ios":"levelo://app?vid=4125d0f3-0ab1-4bae-9628-b735bbf61b20"},"vehicle_type_id":"4","last_reported":1693587951,"current_range_meters":11200,"station_id":"ce4bh2h2rcd13ifvqdh0","pricing_plan_id":"free"},{"bike_id":"1f8f3004-cd75-4e2a-b1cd-d0210032cedd","system_id":"levelo_inurba_marseille","lat":43.294162,"lon":5.386292,"is_reserved":false,"is_disabled":false,"rental_uris":{"android":"levelo://app?vid=1f8f3004-cd75-4e2a-b1cd-d0210032cedd","ios":"levelo://app?vid=1f8f3004-cd75-4e2a-b1cd-d0210032cedd"},"vehicle_type_id":"4","last_reported":1693587951,"current_range_meters":7600,"station_id":"ce4bh2h2rcd13ifvqdh0","pricing_plan_id":"free"},{"bike_id":"64df9985-f838-43a3-85dc-6bdda452098d","system_id":"levelo_inurba_marseille","lat":43.289184,"lon":5.366408,"is_reserved":false,"is_disabled":false,"rental_uris":{"android":"levelo://app?vid=64df9985-f838-43a3-85dc-6bdda452098d","ios":"levelo://app?vid=64df9985-f838-43a3-85dc-6bdda452098d"},"vehicle_type_id":"4","last_reported":1693587951,"current_range_meters":11600,"station_id":"ce4bhap2rcd13ifvqek0","pricing_plan_id":"free"},{"bike_id":"dd14e394-e0ed-4630-8647-d61942c2e3fa","system_id":"levelo_inurba_marseille","lat":43.289184,"lon":5.366408,"is_reserved":false,"is_disabled":false,"rental_uris":{"android":"levelo://app?vid=dd14e394-e0ed-4630-8647-d61942c2e3fa","ios":"levelo://app?vid=dd14e394-e0ed-4630-8647-d61942c2e3fa"},"vehicle_type_id":"4","last_reported":1693587951,"current_range_meters":0,"station_id":"ce4bhap2rcd13ifvqek0","pricing_plan_id":"free"},{"bike_id":"39f098fc-0fae-408d-9820-21a4502c7945","system_id":"levelo_inurba_marseille","lat":43.289184,"lon":5.366408,"is_reserved":false,"is_disabled":false,"rental_uris":{"android":"levelo://app?vid=39f098fc-0fae-408d-9820-21a4502c7945","ios":"levelo://app?vid=39f098fc-0fae-408d-9820-21a4502c7945"},"vehicle_type_id":"4","last_reported":1693587951,"current_range_meters":5600,"station_id":"ce4bhap2rcd13ifvqek0","pricing_plan_id":"free"},{"bike_id":"3a79be7b-1e12-4ba9-82a6-8137c67c4e45","system_id":"levelo_inurba_marseille","lat":43.289184,"lon":5.366408,"is_reserved":false,"is_disabled":false,"rental_uris":{"android":"levelo://app?vid=3a79be7b-1e12-4ba9-82a6-8137c67c4e45","ios":"levelo://app?vid=3a79be7b-1e12-4ba9-82a6-8137c67c4e45"},"vehicle_type_id":"4","last_reported":1693587951,"current_range_meters":26400,"station_id":"ce4bhap2rcd13ifvqek0","pricing_plan_id":"free"},{"bike_id":"2f93318d-a393-4e93-88c9-60d3ec241b0e","system_id":"levelo_inurba_marseille","lat":43.289184,"lon":5.366408,"is_reserved":false,"is_disabled":false,"rental_uris":{"android":"levelo://app?vid=2f93318d-a393-4e93-88c9-60d3ec241b0e","ios":"levelo://app?vid=2f93318d-a393-4e93-88c9-60d3ec241b0e"},"vehicle_type_id":"4","last_reported":1693587951,"current_range_meters":31600,"station_id":"ce4bhap2rcd13ifvqek0","pricing_plan_id":"free"},{"bike_id":"6108a708-28ad-4a2e-b506-4a01b5448f8d","system_id":"levelo_inurba_marseille","lat":43.289184,"lon":5.366408,"is_reserved":false,"is_disabled":false,"rental_uris":{"android":"levelo://app?vid=6108a708-28ad-4a2e-b506-4a01b5448f8d","ios":"levelo://app?vid=6108a708-28ad-4a2e-b506-4a01b5448f8d"},"vehicle_type_id":"4","last_reported":1693587951,"current_range_meters":17600,"station_id":"ce4bhap2rcd13ifvqek0","pricing_plan_id":"free"},{"bike_id":"c1b0850d-0a53-4da0-9f6b-a9a94f67666e","system_id":"levelo_inurba_marseille","lat":43.33045,"lon":5.38909,"is_reserved":false,"is_disabled":false,"rental_uris":{"android":"levelo://app?vid=c1b0850d-0a53-4da0-9f6b-a9a94f67666e","ios":"levelo://app?vid=c1b0850d-0a53-4da0-9f6b-a9a94f67666e"},"vehicle_type_id":"4","last_reported":1693587951,"current_range_meters":25200,"station_id":"ce4bhr92rcd13ifvqhrg","pricing_plan_id":"free"},{"bike_id":"276df892-9a2a-40a9-929d-29c6fe2dac65","system_id":"levelo_inurba_marseille","lat":43.33045,"lon":5.3891,"is_reserved":false,"is_disabled":false,"rental_uris":{"android":"levelo://app?vid=276df892-9a2a-40a9-929d-29c6fe2dac65","ios":"levelo://app?vid=276df892-9a2a-40a9-929d-29c6fe2dac65"},"vehicle_type_id":"4","last_reported":1693587951,"current_range_meters":26400,"station_id":"ce4bhr92rcd13ifvqhrg","pricing_plan_id":"free"},{"bike_id":"978b0ff4-c9df-43ed-a4e7-ec9b1854c595","system_id":"levelo_inurba_marseille","lat":43.33047,"lon":5.38909,"is_reserved":false,"is_disabled":false,"rental_uris":{"android":"levelo://app?vid=978b0ff4-c9df-43ed-a4e7-ec9b1854c595","ios":"levelo://app?vid=978b0ff4-c9df-43ed-a4e7-ec9b1854c595"},"vehicle_type_id":"4","last_reported":1693587951,"current_range_meters":20400,"station_id":"ce4bhr92rcd13ifvqhrg","pricing_plan_id":"free"},{"bike_id":"d346ead7-ea15-4af0-898b-f25c067a214a","system_id":"levelo_inurba_marseille","lat":43.33042,"lon":5.38917,"is_reserved":false,"is_disabled":false,"rental_uris":{"android":"levelo://app?vid=d346ead7-ea15-4af0-898b-f25c067a214a","ios":"levelo://app?vid=d346ead7-ea15-4af0-898b-f25c067a214a"},"vehicle_type_id":"4","last_reported":1693587951,"current_range_meters":19200,"station_id":"ce4bhr92rcd13ifvqhrg","pricing_plan_id":"free"},{"bike_id":"10a8b87c-9464-45fb-affc-beff0fff9410","system_id":"levelo_inurba_marseille","lat":43.33047,"lon":5.38914,"is_reserved":false,"is_disabled":false,"rental_uris":{"android":"levelo://app?vid=10a8b87c-9464-45fb-affc-beff0fff9410","ios":"levelo://app?vid=10a8b87c-9464-45fb-affc-beff0fff9410"},"vehicle_type_id":"4","last_reported":1693587951,"current_range_meters":4000,"station_id":"ce4bhr92rcd13ifvqhrg","pricing_plan_id":"free"},{"bike_id":"2cdba739-ebc5-413a-8a24-35edd08d69ea","system_id":"levelo_inurba_marseille","lat":43.33048,"lon":5.38913,"is_reserved":false,"is_disabled":false,"rental_uris":{"android":"levelo://app?vid=2cdba739-ebc5-413a-8a24-35edd08d69ea","ios":"levelo://app?vid=2cdba739-ebc5-413a-8a24-35edd08d69ea"},"vehicle_type_id":"4","last_reported":1693587951,"current_range_meters":20800,"station_id":"ce4bhr92rcd13ifvqhrg","pricing_plan_id":"free"},{"bike_id":"1895038e-acdb-4d35-aa35-e1291f23a30a","system_id":"levelo_inurba_marseille","lat":43.290104,"lon":5.356111,"is_reserved":false,"is_disabled":false,"rental_uris":{"android":"levelo://app?vid=1895038e-acdb-4d35-aa35-e1291f23a30a","ios":"levelo://app?vid=1895038e-acdb-4d35-aa35-e1291f23a30a"},"vehicle_type_id":"4","last_reported":1693587951,"current_range_meters":31200,"station_id":"ce4bhb92rcd13ifvqen0","pricing_plan_id":"free"},{"bike_id":"dca68b63-a668-4564-94b5-8a5347658a2a","system_id":"levelo_inurba_marseille","lat":43.290104,"lon":5.356111,"is_reserved":false,"is_disabled":false,"rental_uris":{"android":"levelo://app?vid=dca68b63-a668-4564-94b5-8a5347658a2a","ios":"levelo://app?vid=dca68b63-a668-4564-94b5-8a5347658a2a"},"vehicle_type_id":"4","last_reported":1693587951,"current_range_meters":4000,"station_id":"ce4bhb92rcd13ifvqen0","pricing_plan_id":"free"},{"bike_id":"028b16b4-c861-455c-93e2-214442c48086","system_id":"levelo_inurba_marseille","lat":43.29004,"lon":5.35607,"is_reserved":false,"is_disabled":false,"rental_uris":{"android":"levelo://app?vid=028b16b4-c861-455c-93e2-214442c48086","ios":"levelo://app?vid=028b16b4-c861-455c-93e2-214442c48086"},"vehicle_type_id":"4","last_reported":1693587951,"current_range_meters":30800,"station_id":"ce4bhb92rcd13ifvqen0","pricing_plan_id":"free"},{"bike_id":"4729cf13-6bb1-497f-b85b-1d64b8251118","system_id":"levelo_inurba_marseille","lat":43.290995,"lon":5.381361,"is_reserved":false,"is_disabled":false,"rental_uris":{"android":"levelo://app?vid=4729cf13-6bb1-497f-b85b-1d64b8251118","ios":"levelo://app?vid=4729cf13-6bb1-497f-b85b-1d64b8251118"},"vehicle_type_id":"4","last_reported":1693587951,"current_range_meters":0,"station_id":"ce4bh512rcd13ifvqe2g","pricing_plan_id":"free"},{"bike_id":"eefd8117-e90d-4d37-b76e-4bd256b6a885","system_id":"levelo_inurba_marseille","lat":43.290995,"lon":5.381361,"is_reserved":false,"is_disabled":false,"rental_uris":{"android":"levelo://app?vid=eefd8117-e90d-4d37-b76e-4bd256b6a885","ios":"levelo://app?vid=eefd8117-e90d-4d37-b76e-4bd256b6a885"},"vehicle_type_id":"4","last_reported":1693587951,"current_range_meters":17600,"station_id":"ce4bh512rcd13ifvqe2g","pricing_plan_id":"free"},{"bike_id":"e49599e6-daa6-4374-afb7-a862c7fb8000","system_id":"levelo_inurba_marseille","lat":43.290995,"lon":5.381361,"is_reserved":false,"is_disabled":false,"rental_uris":{"android":"levelo://app?vid=e49599e6-daa6-4374-afb7-a862c7fb8000","ios":"levelo://app?vid=e49599e6-daa6-4374-afb7-a862c7fb8000"},"vehicle_type_id":"4","last_reported":1693587951,"current_range_meters":0,"station_id":"ce4bh512rcd13ifvqe2g","pricing_plan_id":"free"},{"bike_id":"93fb6159-d8a4-49b4-9122-5226a09ef971","system_id":"levelo_inurba_marseille","lat":43.29784,"lon":5.39328,"is_reserved":false,"is_disabled":false,"rental_uris":{"android":"levelo://app?vid=93fb6159-d8a4-49b4-9122-5226a09ef971","ios":"levelo://app?vid=93fb6159-d8a4-49b4-9122-5226a09ef971"},"vehicle_type_id":"4","last_reported":1693587951,"current_range_meters":800,"station_id":"chh1huq6cuj3fo74tm60","pricing_plan_id":"free"},{"bike_id":"2991902c-a444-49b6-a2de-e260ef6c6f50","system_id":"levelo_inurba_marseille","lat":43.2952,"lon":5.3903,"is_reserved":false,"is_disabled":false,"rental_uris":{"android":"levelo://app?vid=2991902c-a444-49b6-a2de-e260ef6c6f50","ios":"levelo://app?vid=2991902c-a444-49b6-a2de-e260ef6c6f50"},"vehicle_type_id":"4","last_reported":1693587951,"current_range_meters":24000,"station_id":"ce4bh3p2rcd13ifvqdp0","pricing_plan_id":"free"},{"bike_id":"c752cea5-bec2-432b-916c-a2f672c6a215","system_id":"levelo_inurba_marseille","lat":43.29779,"lon":5.39352,"is_reserved":false,"is_disabled":false,"rental_uris":{"android":"levelo://app?vid=c752cea5-bec2-432b-916c-a2f672c6a215","ios":"levelo://app?vid=c752cea5-bec2-432b-916c-a2f672c6a215"},"vehicle_type_id":"4","last_reported":1693587951,"current_range_meters":800,"station_id":"chh1huq6cuj3fo74tm60","pricing_plan_id":"free"},{"bike_id":"15f0bb86-7762-4588-b025-8024ad1b59df","system_id":"levelo_inurba_marseille","lat":43.30935,"lon":5.40134,"is_reserved":false,"is_disabled":false,"rental_uris":{"android":"levelo://app?vid=15f0bb86-7762-4588-b025-8024ad1b59df","ios":"levelo://app?vid=15f0bb86-7762-4588-b025-8024ad1b59df"},"vehicle_type_id":"4","last_reported":1693587951,"current_range_meters":0,"station_id":"ce4bgvp2rcd13ifvqct0","pricing_plan_id":"free"},{"bike_id":"2c5861c7-cf03-4872-b74d-58cd65d6c326","system_id":"levelo_inurba_marseille","lat":43.31274,"lon":5.40167,"is_reserved":false,"is_disabled":false,"rental_uris":{"android":"levelo://app?vid=2c5861c7-cf03-4872-b74d-58cd65d6c326","ios":"levelo://app?vid=2c5861c7-cf03-4872-b74d-58cd65d6c326"},"vehicle_type_id":"4","last_reported":1693587951,"current_range_meters":28400,"station_id":"ce4bh092rcd13ifvqd30","pricing_plan_id":"free"},{"bike_id":"312c84a7-7ace-4b6c-9bac-64a1313be538","system_id":"levelo_inurba_marseille","lat":43.33745,"lon":5.37454,"is_reserved":false,"is_disabled":false,"rental_uris":{"android":"levelo://app?vid=312c84a7-7ace-4b6c-9bac-64a1313be538","ios":"levelo://app?vid=312c84a7-7ace-4b6c-9bac-64a1313be538"},"vehicle_type_id":"4","last_reported":1693587951,"current_range_meters":28400,"station_id":"","pricing_plan_id":"free"},{"bike_id":"e0acd133-41f5-4d6a-beb8-13c254c76316","system_id":"levelo_inurba_marseille","lat":43.30932,"lon":5.40145,"is_reserved":false,"is_disabled":false,"rental_uris":{"android":"levelo://app?vid=e0acd133-41f5-4d6a-beb8-13c254c76316","ios":"levelo://app?vid=e0acd133-41f5-4d6a-beb8-13c254c76316"},"vehicle_type_id":"4","last_reported":1693587951,"current_range_meters":0,"station_id":"ce4bgvp2rcd13ifvqct0","pricing_plan_id":"free"},{"bike_id":"5e0b65a3-4830-4efe-8df2-f90e6871cc74","system_id":"levelo_inurba_marseille","lat":43.30636,"lon":5.40072,"is_reserved":false,"is_disabled":false,"rental_uris":{"android":"levelo://app?vid=5e0b65a3-4830-4efe-8df2-f90e6871cc74","ios":"levelo://app?vid=5e0b65a3-4830-4efe-8df2-f90e6871cc74"},"vehicle_type_id":"4","last_reported":1693587951,"current_range_meters":29200,"station_id":"ce4bh112rcd13ifvqda0","pricing_plan_id":"free"},{"bike_id":"4cf2f562-b273-49fb-b301-b4ebe9759199","system_id":"levelo_inurba_marseille","lat":43.30642,"lon":5.401031,"is_reserved":false,"is_disabled":false,"rental_uris":{"android":"levelo://app?vid=4cf2f562-b273-49fb-b301-b4ebe9759199","ios":"levelo://app?vid=4cf2f562-b273-49fb-b301-b4ebe9759199"},"vehicle_type_id":"4","last_reported":1693587951,"current_range_meters":0,"station_id":"ce4bh112rcd13ifvqda0","pricing_plan_id":"free"},{"bike_id":"4361965f-fd53-4745-8e71-5e043c60d044","system_id":"levelo_inurba_marseille","lat":43.301117,"lon":5.398795,"is_reserved":false,"is_disabled":false,"rental_uris":{"android":"levelo://app?vid=4361965f-fd53-4745-8e71-5e043c60d044","ios":"levelo://app?vid=4361965f-fd53-4745-8e71-5e043c60d044"},"vehicle_type_id":"4","last_reported":1693587951,"current_range_meters":0,"station_id":"ce4bh0h2rcd13ifvqd40","pricing_plan_id":"free"},{"bike_id":"659f6de9-49fe-45fe-9ddc-555ae2ea337c","system_id":"levelo_inurba_marseille","lat":43.298681,"lon":5.397225,"is_reserved":false,"is_disabled":false,"rental_uris":{"android":"levelo://app?vid=659f6de9-49fe-45fe-9ddc-555ae2ea337c","ios":"levelo://app?vid=659f6de9-49fe-45fe-9ddc-555ae2ea337c"},"vehicle_type_id":"4","last_reported":1693587951,"current_range_meters":1200,"station_id":"ce4bh0h2rcd13ifvqd50","pricing_plan_id":"free"},{"bike_id":"ff821519-436e-49dc-9bce-be597bee5b3c","system_id":"levelo_inurba_marseille","lat":43.28709,"lon":5.37382,"is_reserved":false,"is_disabled":false,"rental_uris":{"android":"levelo://app?vid=ff821519-436e-49dc-9bce-be597bee5b3c","ios":"levelo://app?vid=ff821519-436e-49dc-9bce-be597bee5b3c"},"vehicle_type_id":"4","last_reported":1693587951,"current_range_meters":0,"station_id":"ce4bh3p2rcd13ifvqdq0","pricing_plan_id":"free"},{"bike_id":"368ce23d-737c-4070-8e89-fa5b698152e2","system_id":"levelo_inurba_marseille","lat":43.298681,"lon":5.397225,"is_reserved":false,"is_disabled":false,"rental_uris":{"android":"levelo://app?vid=368ce23d-737c-4070-8e89-fa5b698152e2","ios":"levelo://app?vid=368ce23d-737c-4070-8e89-fa5b698152e2"},"vehicle_type_id":"4","last_reported":1693587951,"current_range_meters":18400,"station_id":"ce4bh0h2rcd13ifvqd50","pricing_plan_id":"free"},{"bike_id":"2365150f-73ab-4507-aea4-76016e6109c8","system_id":"levelo_inurba_marseille","lat":43.28667,"lon":5.36341,"is_reserved":false,"is_disabled":false,"rental_uris":{"android":"levelo://app?vid=2365150f-73ab-4507-aea4-76016e6109c8","ios":"levelo://app?vid=2365150f-73ab-4507-aea4-76016e6109c8"},"vehicle_type_id":"4","last_reported":1693587951,"current_range_meters":30000,"station_id":"ce4bhah2rcd13ifvqej0","pricing_plan_id":"free"},{"bike_id":"75199276-b705-4ad7-b6a9-49aeaa84628a","system_id":"levelo_inurba_marseille","lat":43.286591,"lon":5.363346,"is_reserved":false,"is_disabled":false,"rental_uris":{"android":"levelo://app?vid=75199276-b705-4ad7-b6a9-49aeaa84628a","ios":"levelo://app?vid=75199276-b705-4ad7-b6a9-49aeaa84628a"},"vehicle_type_id":"4","last_reported":1693587951,"current_range_meters":29200,"station_id":"ce4bhah2rcd13ifvqej0","pricing_plan_id":"free"},{"bike_id":"f947db61-4dab-4c9a-a8e6-fe63817e2e35","system_id":"levelo_inurba_marseille","lat":43.286961,"lon":5.373785,"is_reserved":false,"is_disabled":false,"rental_uris":{"android":"levelo://app?vid=f947db61-4dab-4c9a-a8e6-fe63817e2e35","ios":"levelo://app?vid=f947db61-4dab-4c9a-a8e6-fe63817e2e35"},"vehicle_type_id":"4","last_reported":1693587951,"current_range_meters":28400,"station_id":"ce4bh3p2rcd13ifvqdq0","pricing_plan_id":"free"},{"bike_id":"ae523d26-3303-4428-a849-e14ce4372ba2","system_id":"levelo_inurba_marseille","lat":43.302759,"lon":5.400793,"is_reserved":false,"is_disabled":false,"rental_uris":{"android":"levelo://app?vid=ae523d26-3303-4428-a849-e14ce4372ba2","ios":"levelo://app?vid=ae523d26-3303-4428-a849-e14ce4372ba2"},"vehicle_type_id":"4","last_reported":1693587951,"current_range_meters":1600,"station_id":"ce4bgvh2rcd13ifvqcs0","pricing_plan_id":"free"},{"bike_id":"d8470849-ea0a-4146-b58a-cc7adb0ed16b","system_id":"levelo_inurba_marseille","lat":43.302759,"lon":5.400793,"is_reserved":false,"is_disabled":false,"rental_uris":{"android":"levelo://app?vid=d8470849-ea0a-4146-b58a-cc7adb0ed16b","ios":"levelo://app?vid=d8470849-ea0a-4146-b58a-cc7adb0ed16b"},"vehicle_type_id":"4","last_reported":1693587951,"current_range_meters":22400,"station_id":"ce4bgvh2rcd13ifvqcs0","pricing_plan_id":"free"},{"bike_id":"c5817d32-297e-45ee-bf93-9386dd952ae3","system_id":"levelo_inurba_marseille","lat":43.302759,"lon":5.400793,"is_reserved":false,"is_disabled":false,"rental_uris":{"android":"levelo://app?vid=c5817d32-297e-45ee-bf93-9386dd952ae3","ios":"levelo://app?vid=c5817d32-297e-45ee-bf93-9386dd952ae3"},"vehicle_type_id":"4","last_reported":1693587951,"current_range_meters":17600,"station_id":"ce4bgvh2rcd13ifvqcs0","pricing_plan_id":"free"},{"bike_id":"d9b267c9-ed13-41d5-a123-f25eaabf6063","system_id":"levelo_inurba_marseille","lat":43.29031,"lon":5.38635,"is_reserved":false,"is_disabled":false,"rental_uris":{"android":"levelo://app?vid=d9b267c9-ed13-41d5-a123-f25eaabf6063","ios":"levelo://app?vid=d9b267c9-ed13-41d5-a123-f25eaabf6063"},"vehicle_type_id":"4","last_reported":1693587951,"current_range_meters":0,"station_id":"ce4bh4p2rcd13ifvqe0g","pricing_plan_id":"free"},{"bike_id":"9d973d01-0f14-4096-a76e-f9813f470266","system_id":"levelo_inurba_marseille","lat":43.302759,"lon":5.400793,"is_reserved":false,"is_disabled":false,"rental_uris":{"android":"levelo://app?vid=9d973d01-0f14-4096-a76e-f9813f470266","ios":"levelo://app?vid=9d973d01-0f14-4096-a76e-f9813f470266"},"vehicle_type_id":"4","last_reported":1693587951,"current_range_meters":28800,"station_id":"ce4bgvh2rcd13ifvqcs0","pricing_plan_id":"free"},{"bike_id":"70cbbdbf-d50b-4f9b-bf50-879b606703b5","system_id":"levelo_inurba_marseille","lat":43.290345,"lon":5.38646,"is_reserved":false,"is_disabled":false,"rental_uris":{"android":"levelo://app?vid=70cbbdbf-d50b-4f9b-bf50-879b606703b5","ios":"levelo://app?vid=70cbbdbf-d50b-4f9b-bf50-879b606703b5"},"vehicle_type_id":"4","last_reported":1693587951,"current_range_meters":21200,"station_id":"ce4bh4p2rcd13ifvqe0g","pricing_plan_id":"free"},{"bike_id":"d3fc4ac0-7a53-41cd-8568-9d152e1e7bcb","system_id":"levelo_inurba_marseille","lat":43.29029,"lon":5.38643,"is_reserved":false,"is_disabled":false,"rental_uris":{"android":"levelo://app?vid=d3fc4ac0-7a53-41cd-8568-9d152e1e7bcb","ios":"levelo://app?vid=d3fc4ac0-7a53-41cd-8568-9d152e1e7bcb"},"vehicle_type_id":"4","last_reported":1693587951,"current_range_meters":12000,"station_id":"ce4bh4p2rcd13ifvqe0g","pricing_plan_id":"free"},{"bike_id":"7d185ab4-6e48-4a78-9b87-221506b14dcc","system_id":"levelo_inurba_marseille","lat":43.302759,"lon":5.400793,"is_reserved":false,"is_disabled":false,"rental_uris":{"android":"levelo://app?vid=7d185ab4-6e48-4a78-9b87-221506b14dcc","ios":"levelo://app?vid=7d185ab4-6e48-4a78-9b87-221506b14dcc"},"vehicle_type_id":"4","last_reported":1693587951,"current_range_meters":3200,"station_id":"ce4bgvh2rcd13ifvqcs0","pricing_plan_id":"free"},{"bike_id":"fd90cde2-9bb7-4ddf-ad5c-a4208613f8d0","system_id":"levelo_inurba_marseille","lat":43.302759,"lon":5.400793,"is_reserved":false,"is_disabled":false,"rental_uris":{"android":"levelo://app?vid=fd90cde2-9bb7-4ddf-ad5c-a4208613f8d0","ios":"levelo://app?vid=fd90cde2-9bb7-4ddf-ad5c-a4208613f8d0"},"vehicle_type_id":"4","last_reported":1693587951,"current_range_meters":17600,"station_id":"ce4bgvh2rcd13ifvqcs0","pricing_plan_id":"free"},{"bike_id":"eb298076-e181-495e-97b3-a15f38b55791","system_id":"levelo_inurba_marseille","lat":43.302759,"lon":5.400793,"is_reserved":false,"is_disabled":false,"rental_uris":{"android":"levelo://app?vid=eb298076-e181-495e-97b3-a15f38b55791","ios":"levelo://app?vid=eb298076-e181-495e-97b3-a15f38b55791"},"vehicle_type_id":"4","last_reported":1693587951,"current_range_meters":18000,"station_id":"ce4bgvh2rcd13ifvqcs0","pricing_plan_id":"free"},{"bike_id":"a9c61e3b-0b47-4a73-9744-20a7d0ee067e","system_id":"levelo_inurba_marseille","lat":43.29024,"lon":5.38646,"is_reserved":false,"is_disabled":false,"rental_uris":{"android":"levelo://app?vid=a9c61e3b-0b47-4a73-9744-20a7d0ee067e","ios":"levelo://app?vid=a9c61e3b-0b47-4a73-9744-20a7d0ee067e"},"vehicle_type_id":"4","last_reported":1693587951,"current_range_meters":14400,"station_id":"ce4bh4p2rcd13ifvqe0g","pricing_plan_id":"free"},{"bike_id":"463f2979-7314-4a1e-b520-0fb4e6f795ac","system_id":"levelo_inurba_marseille","lat":43.302759,"lon":5.400793,"is_reserved":false,"is_disabled":false,"rental_uris":{"android":"levelo://app?vid=463f2979-7314-4a1e-b520-0fb4e6f795ac","ios":"levelo://app?vid=463f2979-7314-4a1e-b520-0fb4e6f795ac"},"vehicle_type_id":"4","last_reported":1693587951,"current_range_meters":14800,"station_id":"ce4bgvh2rcd13ifvqcs0","pricing_plan_id":"free"},{"bike_id":"a94ad991-719f-4edf-bed4-498804cb8731","system_id":"levelo_inurba_marseille","lat":43.302759,"lon":5.400793,"is_reserved":false,"is_disabled":false,"rental_uris":{"android":"levelo://app?vid=a94ad991-719f-4edf-bed4-498804cb8731","ios":"levelo://app?vid=a94ad991-719f-4edf-bed4-498804cb8731"},"vehicle_type_id":"4","last_reported":1693587951,"current_range_meters":29600,"station_id":"ce4bgvh2rcd13ifvqcs0","pricing_plan_id":"free"},{"bike_id":"997a9d09-ba22-402c-afec-6f98968cd461","system_id":"levelo_inurba_marseille","lat":43.286039,"lon":5.370679,"is_reserved":false,"is_disabled":false,"rental_uris":{"android":"levelo://app?vid=997a9d09-ba22-402c-afec-6f98968cd461","ios":"levelo://app?vid=997a9d09-ba22-402c-afec-6f98968cd461"},"vehicle_type_id":"4","last_reported":1693587951,"current_range_meters":11200,"station_id":"ce4bht12rcd13ifvqi60","pricing_plan_id":"free"},{"bike_id":"866ad62f-2aa6-4a98-b3c8-e64fe9ee4309","system_id":"levelo_inurba_marseille","lat":43.28605,"lon":5.37065,"is_reserved":false,"is_disabled":false,"rental_uris":{"android":"levelo://app?vid=866ad62f-2aa6-4a98-b3c8-e64fe9ee4309","ios":"levelo://app?vid=866ad62f-2aa6-4a98-b3c8-e64fe9ee4309"},"vehicle_type_id":"4","last_reported":1693587951,"current_range_meters":12400,"station_id":"ce4bht12rcd13ifvqi60","pricing_plan_id":"free"},{"bike_id":"a38ae48c-75b4-47a4-8354-f6584f8540d9","system_id":"levelo_inurba_marseille","lat":43.28718,"lon":5.3795,"is_reserved":false,"is_disabled":false,"rental_uris":{"android":"levelo://app?vid=a38ae48c-75b4-47a4-8354-f6584f8540d9","ios":"levelo://app?vid=a38ae48c-75b4-47a4-8354-f6584f8540d9"},"vehicle_type_id":"4","last_reported":1693587951,"current_range_meters":7600,"station_id":"ce4bh9p2rcd13ifvqec0","pricing_plan_id":"free"},{"bike_id":"cef2c05e-2b98-4864-8480-8a712419d6b1","system_id":"levelo_inurba_marseille","lat":43.316433,"lon":5.40433,"is_reserved":false,"is_disabled":false,"rental_uris":{"android":"levelo://app?vid=cef2c05e-2b98-4864-8480-8a712419d6b1","ios":"levelo://app?vid=cef2c05e-2b98-4864-8480-8a712419d6b1"},"vehicle_type_id":"4","last_reported":1693587951,"current_range_meters":27600,"station_id":"ce4bh012rcd13ifvqd00","pricing_plan_id":"free"},{"bike_id":"f04ea742-2d16-48ae-a96f-b8e8082f5199","system_id":"levelo_inurba_marseille","lat":43.316534,"lon":5.404369,"is_reserved":false,"is_disabled":false,"rental_uris":{"android":"levelo://app?vid=f04ea742-2d16-48ae-a96f-b8e8082f5199","ios":"levelo://app?vid=f04ea742-2d16-48ae-a96f-b8e8082f5199"},"vehicle_type_id":"4","last_reported":1693587951,"current_range_meters":27600,"station_id":"ce4bh012rcd13ifvqd00","pricing_plan_id":"free"},{"bike_id":"f071f3f9-603a-4e9f-b681-f07044ea3601","system_id":"levelo_inurba_marseille","lat":43.29192,"lon":5.39302,"is_reserved":false,"is_disabled":false,"rental_uris":{"android":"levelo://app?vid=f071f3f9-603a-4e9f-b681-f07044ea3601","ios":"levelo://app?vid=f071f3f9-603a-4e9f-b681-f07044ea3601"},"vehicle_type_id":"4","last_reported":1693587951,"current_range_meters":21200,"station_id":"ce4bh192rcd13ifvqdd0","pricing_plan_id":"free"},{"bike_id":"3df94fde-ebce-4275-8d39-8c7c6793772a","system_id":"levelo_inurba_marseille","lat":43.291994,"lon":5.392907,"is_reserved":false,"is_disabled":false,"rental_uris":{"android":"levelo://app?vid=3df94fde-ebce-4275-8d39-8c7c6793772a","ios":"levelo://app?vid=3df94fde-ebce-4275-8d39-8c7c6793772a"},"vehicle_type_id":"4","last_reported":1693587951,"current_range_meters":21600,"station_id":"ce4bh192rcd13ifvqdd0","pricing_plan_id":"free"},{"bike_id":"d3382426-d8e9-4644-b2c6-83983237e4bd","system_id":"levelo_inurba_marseille","lat":43.291994,"lon":5.392907,"is_reserved":false,"is_disabled":false,"rental_uris":{"android":"levelo://app?vid=d3382426-d8e9-4644-b2c6-83983237e4bd","ios":"levelo://app?vid=d3382426-d8e9-4644-b2c6-83983237e4bd"},"vehicle_type_id":"4","last_reported":1693587951,"current_range_meters":23600,"station_id":"ce4bh192rcd13ifvqdd0","pricing_plan_id":"free"},{"bike_id":"ca79e9f5-e68d-4a4a-8000-f0dc7ac4394b","system_id":"levelo_inurba_marseille","lat":43.28473,"lon":5.35873,"is_reserved":false,"is_disabled":false,"rental_uris":{"android":"levelo://app?vid=ca79e9f5-e68d-4a4a-8000-f0dc7ac4394b","ios":"levelo://app?vid=ca79e9f5-e68d-4a4a-8000-f0dc7ac4394b"},"vehicle_type_id":"4","last_reported":1693587951,"current_range_meters":18800,"station_id":"ce4bhah2rcd13ifvqei0","pricing_plan_id":"free"},{"bike_id":"cdbd9e8e-a613-4ad6-b45b-b5cd249b224c","system_id":"levelo_inurba_marseille","lat":43.28465,"lon":5.35896,"is_reserved":false,"is_disabled":false,"rental_uris":{"android":"levelo://app?vid=cdbd9e8e-a613-4ad6-b45b-b5cd249b224c","ios":"levelo://app?vid=cdbd9e8e-a613-4ad6-b45b-b5cd249b224c"},"vehicle_type_id":"4","last_reported":1693587951,"current_range_meters":17600,"station_id":"ce4bhah2rcd13ifvqei0","pricing_plan_id":"free"},{"bike_id":"c0baea0c-91e9-458c-b694-fc9d4aab23aa","system_id":"levelo_inurba_marseille","lat":43.28463,"lon":5.35885,"is_reserved":false,"is_disabled":false,"rental_uris":{"android":"levelo://app?vid=c0baea0c-91e9-458c-b694-fc9d4aab23aa","ios":"levelo://app?vid=c0baea0c-91e9-458c-b694-fc9d4aab23aa"},"vehicle_type_id":"4","last_reported":1693587951,"current_range_meters":5200,"station_id":"ce4bhah2rcd13ifvqei0","pricing_plan_id":"free"},{"bike_id":"8af7c9ec-521e-4b83-bfd6-68ba431a98e2","system_id":"levelo_inurba_marseille","lat":43.28462,"lon":5.35873,"is_reserved":false,"is_disabled":false,"rental_uris":{"android":"levelo://app?vid=8af7c9ec-521e-4b83-bfd6-68ba431a98e2","ios":"levelo://app?vid=8af7c9ec-521e-4b83-bfd6-68ba431a98e2"},"vehicle_type_id":"4","last_reported":1693587951,"current_range_meters":8400,"station_id":"ce4bhah2rcd13ifvqei0","pricing_plan_id":"free"},{"bike_id":"03582fd3-c94e-484f-b5a4-fdf6a62e5740","system_id":"levelo_inurba_marseille","lat":43.28457,"lon":5.3589,"is_reserved":false,"is_disabled":false,"rental_uris":{"android":"levelo://app?vid=03582fd3-c94e-484f-b5a4-fdf6a62e5740","ios":"levelo://app?vid=03582fd3-c94e-484f-b5a4-fdf6a62e5740"},"vehicle_type_id":"4","last_reported":1693587951,"current_range_meters":0,"station_id":"ce4bhah2rcd13ifvqei0","pricing_plan_id":"free"},{"bike_id":"fed1adf8-b1e8-4be8-8b8d-6cd50397c968","system_id":"levelo_inurba_marseille","lat":43.28615,"lon":5.35097,"is_reserved":false,"is_disabled":false,"rental_uris":{"android":"levelo://app?vid=fed1adf8-b1e8-4be8-8b8d-6cd50397c968","ios":"levelo://app?vid=fed1adf8-b1e8-4be8-8b8d-6cd50397c968"},"vehicle_type_id":"4","last_reported":1693587951,"current_range_meters":30800,"station_id":"ce4bhch2rcd13ifvqeug","pricing_plan_id":"free"},{"bike_id":"334fc484-71b2-4879-ad30-678d4b1beb7a","system_id":"levelo_inurba_marseille","lat":43.28613,"lon":5.35099,"is_reserved":false,"is_disabled":false,"rental_uris":{"android":"levelo://app?vid=334fc484-71b2-4879-ad30-678d4b1beb7a","ios":"levelo://app?vid=334fc484-71b2-4879-ad30-678d4b1beb7a"},"vehicle_type_id":"4","last_reported":1693587951,"current_range_meters":14800,"station_id":"ce4bhch2rcd13ifvqeug","pricing_plan_id":"free"},{"bike_id":"bbf1f954-6f02-4a6b-85f1-93e06dbbf4a2","system_id":"levelo_inurba_marseille","lat":43.28413,"lon":5.374963,"is_reserved":false,"is_disabled":false,"rental_uris":{"android":"levelo://app?vid=bbf1f954-6f02-4a6b-85f1-93e06dbbf4a2","ios":"levelo://app?vid=bbf1f954-6f02-4a6b-85f1-93e06dbbf4a2"},"vehicle_type_id":"4","last_reported":1693587951,"current_range_meters":6800,"station_id":"","pricing_plan_id":"free"},{"bike_id":"b36b24cf-fc80-46a9-8883-249d0339ed49","system_id":"levelo_inurba_marseille","lat":43.295713,"lon":5.399639,"is_reserved":false,"is_disabled":false,"rental_uris":{"android":"levelo://app?vid=b36b24cf-fc80-46a9-8883-249d0339ed49","ios":"levelo://app?vid=b36b24cf-fc80-46a9-8883-249d0339ed49"},"vehicle_type_id":"4","last_reported":1693587951,"current_range_meters":25200,"station_id":"ce4bh312rcd13ifvqdj0","pricing_plan_id":"free"},{"bike_id":"d634c829-5859-409c-8866-6139fad7153b","system_id":"levelo_inurba_marseille","lat":43.28403,"lon":5.37516,"is_reserved":false,"is_disabled":false,"rental_uris":{"android":"levelo://app?vid=d634c829-5859-409c-8866-6139fad7153b","ios":"levelo://app?vid=d634c829-5859-409c-8866-6139fad7153b"},"vehicle_type_id":"4","last_reported":1693587951,"current_range_meters":0,"station_id":"ce4bh412rcd13ifvqds0","pricing_plan_id":"free"},{"bike_id":"d017b185-8f7d-4b59-aa01-d2717e3ea693","system_id":"levelo_inurba_marseille","lat":43.286595,"lon":5.386795,"is_reserved":false,"is_disabled":false,"rental_uris":{"android":"levelo://app?vid=d017b185-8f7d-4b59-aa01-d2717e3ea693","ios":"levelo://app?vid=d017b185-8f7d-4b59-aa01-d2717e3ea693"},"vehicle_type_id":"4","last_reported":1693587951,"current_range_meters":3600,"station_id":"ce4bh492rcd13ifvqdug","pricing_plan_id":"free"},{"bike_id":"02b6bcc4-65e3-4150-aa47-d50e437c6cd1","system_id":"levelo_inurba_marseille","lat":43.286595,"lon":5.386795,"is_reserved":false,"is_disabled":false,"rental_uris":{"android":"levelo://app?vid=02b6bcc4-65e3-4150-aa47-d50e437c6cd1","ios":"levelo://app?vid=02b6bcc4-65e3-4150-aa47-d50e437c6cd1"},"vehicle_type_id":"4","last_reported":1693587951,"current_range_meters":27200,"station_id":"ce4bh492rcd13ifvqdug","pricing_plan_id":"free"},{"bike_id":"c23f019f-e892-4744-8dfc-951f491d96ad","system_id":"levelo_inurba_marseille","lat":43.286595,"lon":5.386795,"is_reserved":false,"is_disabled":false,"rental_uris":{"android":"levelo://app?vid=c23f019f-e892-4744-8dfc-951f491d96ad","ios":"levelo://app?vid=c23f019f-e892-4744-8dfc-951f491d96ad"},"vehicle_type_id":"4","last_reported":1693587951,"current_range_meters":18000,"station_id":"ce4bh492rcd13ifvqdug","pricing_plan_id":"free"},{"bike_id":"caacfaa9-4831-4c00-84de-29f0c636e888","system_id":"levelo_inurba_marseille","lat":43.319179,"lon":5.407725,"is_reserved":false,"is_disabled":false,"rental_uris":{"android":"levelo://app?vid=caacfaa9-4831-4c00-84de-29f0c636e888","ios":"levelo://app?vid=caacfaa9-4831-4c00-84de-29f0c636e888"},"vehicle_type_id":"4","last_reported":1693587951,"current_range_meters":24800,"station_id":"ce4bhq12rcd13ifvqhig","pricing_plan_id":"free"},{"bike_id":"70b1f7a7-174c-452a-a790-8fd65c1f8169","system_id":"levelo_inurba_marseille","lat":43.318825,"lon":5.407463,"is_reserved":false,"is_disabled":false,"rental_uris":{"android":"levelo://app?vid=70b1f7a7-174c-452a-a790-8fd65c1f8169","ios":"levelo://app?vid=70b1f7a7-174c-452a-a790-8fd65c1f8169"},"vehicle_type_id":"4","last_reported":1693587951,"current_range_meters":14000,"station_id":"ce4bhq12rcd13ifvqhig","pricing_plan_id":"free"},{"bike_id":"4a6d3f6a-a33c-4949-9443-87b7457497a4","system_id":"levelo_inurba_marseille","lat":43.33719,"lon":5.3918,"is_reserved":false,"is_disabled":false,"rental_uris":{"android":"levelo://app?vid=4a6d3f6a-a33c-4949-9443-87b7457497a4","ios":"levelo://app?vid=4a6d3f6a-a33c-4949-9443-87b7457497a4"},"vehicle_type_id":"4","last_reported":1693587951,"current_range_meters":3200,"station_id":"ce4bhr92rcd13ifvqhsg","pricing_plan_id":"free"},{"bike_id":"010b3f9c-a162-42a6-a413-67bbf919089d","system_id":"levelo_inurba_marseille","lat":43.33717,"lon":5.391857,"is_reserved":false,"is_disabled":false,"rental_uris":{"android":"levelo://app?vid=010b3f9c-a162-42a6-a413-67bbf919089d","ios":"levelo://app?vid=010b3f9c-a162-42a6-a413-67bbf919089d"},"vehicle_type_id":"4","last_reported":1693587951,"current_range_meters":14800,"station_id":"ce4bhr92rcd13ifvqhsg","pricing_plan_id":"free"},{"bike_id":"e36ffbaa-f234-4535-8376-6f08f9ac8261","system_id":"levelo_inurba_marseille","lat":43.33717,"lon":5.391857,"is_reserved":false,"is_disabled":false,"rental_uris":{"android":"levelo://app?vid=e36ffbaa-f234-4535-8376-6f08f9ac8261","ios":"levelo://app?vid=e36ffbaa-f234-4535-8376-6f08f9ac8261"},"vehicle_type_id":"4","last_reported":1693587951,"current_range_meters":0,"station_id":"ce4bhr92rcd13ifvqhsg","pricing_plan_id":"free"},{"bike_id":"91abe406-03f1-4ec0-8530-3722f138c57e","system_id":"levelo_inurba_marseille","lat":43.323464,"lon":5.406297,"is_reserved":false,"is_disabled":false,"rental_uris":{"android":"levelo://app?vid=91abe406-03f1-4ec0-8530-3722f138c57e","ios":"levelo://app?vid=91abe406-03f1-4ec0-8530-3722f138c57e"},"vehicle_type_id":"4","last_reported":1693587951,"current_range_meters":16800,"station_id":"ce4bhq92rcd13ifvqhjg","pricing_plan_id":"free"},{"bike_id":"471bacb3-c3f4-4ace-8151-ee5a2b6d79ba","system_id":"levelo_inurba_marseille","lat":43.33729,"lon":5.39185,"is_reserved":false,"is_disabled":false,"rental_uris":{"android":"levelo://app?vid=471bacb3-c3f4-4ace-8151-ee5a2b6d79ba","ios":"levelo://app?vid=471bacb3-c3f4-4ace-8151-ee5a2b6d79ba"},"vehicle_type_id":"4","last_reported":1693587951,"current_range_meters":2400,"station_id":"ce4bhr92rcd13ifvqhsg","pricing_plan_id":"free"},{"bike_id":"717a3acc-d943-4b09-aabd-bf7e761277db","system_id":"levelo_inurba_marseille","lat":43.284219,"lon":5.3497,"is_reserved":false,"is_disabled":false,"rental_uris":{"android":"levelo://app?vid=717a3acc-d943-4b09-aabd-bf7e761277db","ios":"levelo://app?vid=717a3acc-d943-4b09-aabd-bf7e761277db"},"vehicle_type_id":"4","last_reported":1693587951,"current_range_meters":0,"station_id":"ce4bhbh2rcd13ifvqepg","pricing_plan_id":"free"},{"bike_id":"7927cada-29a4-44b5-9e39-20803a202b81","system_id":"levelo_inurba_marseille","lat":43.284787,"lon":5.384116,"is_reserved":false,"is_disabled":false,"rental_uris":{"android":"levelo://app?vid=7927cada-29a4-44b5-9e39-20803a202b81","ios":"levelo://app?vid=7927cada-29a4-44b5-9e39-20803a202b81"},"vehicle_type_id":"4","last_reported":1693587951,"current_range_meters":20800,"station_id":"ce4bh512rcd13ifvqe3g","pricing_plan_id":"free"},{"bike_id":"414290bd-353b-41b2-bd9a-1d3c2c5739df","system_id":"levelo_inurba_marseille","lat":43.284793,"lon":5.384113,"is_reserved":false,"is_disabled":false,"rental_uris":{"android":"levelo://app?vid=414290bd-353b-41b2-bd9a-1d3c2c5739df","ios":"levelo://app?vid=414290bd-353b-41b2-bd9a-1d3c2c5739df"},"vehicle_type_id":"4","last_reported":1693587951,"current_range_meters":28400,"station_id":"ce4bh512rcd13ifvqe3g","pricing_plan_id":"free"},{"bike_id":"81207e02-e329-4cea-9b6c-33ba9c0267d2","system_id":"levelo_inurba_marseille","lat":43.284793,"lon":5.384119,"is_reserved":false,"is_disabled":false,"rental_uris":{"android":"levelo://app?vid=81207e02-e329-4cea-9b6c-33ba9c0267d2","ios":"levelo://app?vid=81207e02-e329-4cea-9b6c-33ba9c0267d2"},"vehicle_type_id":"4","last_reported":1693587951,"current_range_meters":30400,"station_id":"ce4bh512rcd13ifvqe3g","pricing_plan_id":"free"},{"bike_id":"47579859-33fc-4c8f-a1fc-b539f28ebec9","system_id":"levelo_inurba_marseille","lat":43.288497,"lon":5.393089,"is_reserved":false,"is_disabled":false,"rental_uris":{"android":"levelo://app?vid=47579859-33fc-4c8f-a1fc-b539f28ebec9","ios":"levelo://app?vid=47579859-33fc-4c8f-a1fc-b539f28ebec9"},"vehicle_type_id":"4","last_reported":1693587951,"current_range_meters":22400,"station_id":"ce4bh2p2rcd13ifvqdi0","pricing_plan_id":"free"},{"bike_id":"a543103d-111e-4141-9e10-423cd6805943","system_id":"levelo_inurba_marseille","lat":43.28427,"lon":5.34985,"is_reserved":false,"is_disabled":false,"rental_uris":{"android":"levelo://app?vid=a543103d-111e-4141-9e10-423cd6805943","ios":"levelo://app?vid=a543103d-111e-4141-9e10-423cd6805943"},"vehicle_type_id":"4","last_reported":1693587951,"current_range_meters":31200,"station_id":"ce4bhbh2rcd13ifvqepg","pricing_plan_id":"free"},{"bike_id":"c8f7db40-cd81-4409-b0c2-92f98651332f","system_id":"levelo_inurba_marseille","lat":43.284219,"lon":5.3497,"is_reserved":false,"is_disabled":false,"rental_uris":{"android":"levelo://app?vid=c8f7db40-cd81-4409-b0c2-92f98651332f","ios":"levelo://app?vid=c8f7db40-cd81-4409-b0c2-92f98651332f"},"vehicle_type_id":"4","last_reported":1693587951,"current_range_meters":31200,"station_id":"ce4bhbh2rcd13ifvqepg","pricing_plan_id":"free"},{"bike_id":"03a78931-abab-4c8c-945e-3015a560a90a","system_id":"levelo_inurba_marseille","lat":43.284219,"lon":5.3497,"is_reserved":false,"is_disabled":false,"rental_uris":{"android":"levelo://app?vid=03a78931-abab-4c8c-945e-3015a560a90a","ios":"levelo://app?vid=03a78931-abab-4c8c-945e-3015a560a90a"},"vehicle_type_id":"4","last_reported":1693587951,"current_range_meters":22800,"station_id":"ce4bhbh2rcd13ifvqepg","pricing_plan_id":"free"},{"bike_id":"e2fd882d-6ede-4e23-83a7-51e27b7e63df","system_id":"levelo_inurba_marseille","lat":43.284219,"lon":5.3497,"is_reserved":false,"is_disabled":false,"rental_uris":{"android":"levelo://app?vid=e2fd882d-6ede-4e23-83a7-51e27b7e63df","ios":"levelo://app?vid=e2fd882d-6ede-4e23-83a7-51e27b7e63df"},"vehicle_type_id":"4","last_reported":1693587951,"current_range_meters":27600,"station_id":"ce4bhbh2rcd13ifvqepg","pricing_plan_id":"free"},{"bike_id":"1f42ad8c-0397-4f80-b5cc-0c8658c99c1f","system_id":"levelo_inurba_marseille","lat":43.284219,"lon":5.3497,"is_reserved":false,"is_disabled":false,"rental_uris":{"android":"levelo://app?vid=1f42ad8c-0397-4f80-b5cc-0c8658c99c1f","ios":"levelo://app?vid=1f42ad8c-0397-4f80-b5cc-0c8658c99c1f"},"vehicle_type_id":"4","last_reported":1693587951,"current_range_meters":30400,"station_id":"ce4bhbh2rcd13ifvqepg","pricing_plan_id":"free"},{"bike_id":"013002ff-ce17-4764-b86c-8957a9602517","system_id":"levelo_inurba_marseille","lat":43.284219,"lon":5.3497,"is_reserved":false,"is_disabled":false,"rental_uris":{"android":"levelo://app?vid=013002ff-ce17-4764-b86c-8957a9602517","ios":"levelo://app?vid=013002ff-ce17-4764-b86c-8957a9602517"},"vehicle_type_id":"4","last_reported":1693587951,"current_range_meters":31200,"station_id":"ce4bhbh2rcd13ifvqepg","pricing_plan_id":"free"},{"bike_id":"3025377b-932b-4e2f-a9c8-74b906347582","system_id":"levelo_inurba_marseille","lat":43.2841,"lon":5.34985,"is_reserved":false,"is_disabled":false,"rental_uris":{"android":"levelo://app?vid=3025377b-932b-4e2f-a9c8-74b906347582","ios":"levelo://app?vid=3025377b-932b-4e2f-a9c8-74b906347582"},"vehicle_type_id":"4","last_reported":1693587951,"current_range_meters":16400,"station_id":"ce4bhbh2rcd13ifvqepg","pricing_plan_id":"free"},{"bike_id":"f50aca5f-cf5b-4020-925f-826a2e34874f","system_id":"levelo_inurba_marseille","lat":43.289363,"lon":5.396322,"is_reserved":false,"is_disabled":false,"rental_uris":{"android":"levelo://app?vid=f50aca5f-cf5b-4020-925f-826a2e34874f","ios":"levelo://app?vid=f50aca5f-cf5b-4020-925f-826a2e34874f"},"vehicle_type_id":"4","last_reported":1693587951,"current_range_meters":30000,"station_id":"ce4bh3h2rcd13ifvqdn0","pricing_plan_id":"free"},{"bike_id":"788cde1a-fff7-478a-b895-a8113a8f7637","system_id":"levelo_inurba_marseille","lat":43.283502,"lon":5.386471,"is_reserved":false,"is_disabled":false,"rental_uris":{"android":"levelo://app?vid=788cde1a-fff7-478a-b895-a8113a8f7637","ios":"levelo://app?vid=788cde1a-fff7-478a-b895-a8113a8f7637"},"vehicle_type_id":"4","last_reported":1693587951,"current_range_meters":28000,"station_id":"ce4bh492rcd13ifvqdvg","pricing_plan_id":"free"},{"bike_id":"c9029122-2150-41ab-be98-ffb3b34cbb6b","system_id":"levelo_inurba_marseille","lat":43.28278,"lon":5.35066,"is_reserved":false,"is_disabled":false,"rental_uris":{"android":"levelo://app?vid=c9029122-2150-41ab-be98-ffb3b34cbb6b","ios":"levelo://app?vid=c9029122-2150-41ab-be98-ffb3b34cbb6b"},"vehicle_type_id":"4","last_reported":1693587951,"current_range_meters":31200,"station_id":"ce4bhbp2rcd13ifvqerg","pricing_plan_id":"free"},{"bike_id":"354793b4-5a55-46de-95bd-8311c0fc47a5","system_id":"levelo_inurba_marseille","lat":43.28269,"lon":5.35064,"is_reserved":false,"is_disabled":false,"rental_uris":{"android":"levelo://app?vid=354793b4-5a55-46de-95bd-8311c0fc47a5","ios":"levelo://app?vid=354793b4-5a55-46de-95bd-8311c0fc47a5"},"vehicle_type_id":"4","last_reported":1693587951,"current_range_meters":28000,"station_id":"ce4bhbp2rcd13ifvqerg","pricing_plan_id":"free"},{"bike_id":"de43cc83-4041-450d-bb41-22d24392c7b0","system_id":"levelo_inurba_marseille","lat":43.282744,"lon":5.350533,"is_reserved":false,"is_disabled":false,"rental_uris":{"android":"levelo://app?vid=de43cc83-4041-450d-bb41-22d24392c7b0","ios":"levelo://app?vid=de43cc83-4041-450d-bb41-22d24392c7b0"},"vehicle_type_id":"4","last_reported":1693587951,"current_range_meters":27600,"station_id":"ce4bhbp2rcd13ifvqerg","pricing_plan_id":"free"},{"bike_id":"a5990c19-acd6-4f78-9f23-218f0a5e1977","system_id":"levelo_inurba_marseille","lat":43.284219,"lon":5.3497,"is_reserved":false,"is_disabled":false,"rental_uris":{"android":"levelo://app?vid=a5990c19-acd6-4f78-9f23-218f0a5e1977","ios":"levelo://app?vid=a5990c19-acd6-4f78-9f23-218f0a5e1977"},"vehicle_type_id":"4","last_reported":1693587951,"current_range_meters":0,"station_id":"ce4bhbh2rcd13ifvqepg","pricing_plan_id":"free"},{"bike_id":"9ae2d3c1-bfe2-452a-a291-f0a74d74d086","system_id":"levelo_inurba_marseille","lat":43.280382,"lon":5.369291,"is_reserved":false,"is_disabled":false,"rental_uris":{"android":"levelo://app?vid=9ae2d3c1-bfe2-452a-a291-f0a74d74d086","ios":"levelo://app?vid=9ae2d3c1-bfe2-452a-a291-f0a74d74d086"},"vehicle_type_id":"4","last_reported":1693587951,"current_range_meters":12400,"station_id":"ce4bha12rcd13ifvqef0","pricing_plan_id":"free"},{"bike_id":"34603ea7-2a7d-4365-9048-e02efde55ac8","system_id":"levelo_inurba_marseille","lat":43.28253,"lon":5.35061,"is_reserved":false,"is_disabled":false,"rental_uris":{"android":"levelo://app?vid=34603ea7-2a7d-4365-9048-e02efde55ac8","ios":"levelo://app?vid=34603ea7-2a7d-4365-9048-e02efde55ac8"},"vehicle_type_id":"4","last_reported":1693587951,"current_range_meters":4400,"station_id":"ce4bhbp2rcd13ifvqerg","pricing_plan_id":"free"},{"bike_id":"7f4c6029-86e2-4f9f-bf88-ae69117bdb05","system_id":"levelo_inurba_marseille","lat":43.280382,"lon":5.369291,"is_reserved":false,"is_disabled":false,"rental_uris":{"android":"levelo://app?vid=7f4c6029-86e2-4f9f-bf88-ae69117bdb05","ios":"levelo://app?vid=7f4c6029-86e2-4f9f-bf88-ae69117bdb05"},"vehicle_type_id":"4","last_reported":1693587951,"current_range_meters":18000,"station_id":"ce4bha12rcd13ifvqef0","pricing_plan_id":"free"},{"bike_id":"9f46cfde-4f76-4076-bade-5765c2d3d473","system_id":"levelo_inurba_marseille","lat":43.280382,"lon":5.369291,"is_reserved":false,"is_disabled":false,"rental_uris":{"android":"levelo://app?vid=9f46cfde-4f76-4076-bade-5765c2d3d473","ios":"levelo://app?vid=9f46cfde-4f76-4076-bade-5765c2d3d473"},"vehicle_type_id":"4","last_reported":1693587951,"current_range_meters":31200,"station_id":"ce4bha12rcd13ifvqef0","pricing_plan_id":"free"},{"bike_id":"e114c826-1c30-4156-932f-0358d8a9e5a1","system_id":"levelo_inurba_marseille","lat":43.296263,"lon":5.40601,"is_reserved":false,"is_disabled":false,"rental_uris":{"android":"levelo://app?vid=e114c826-1c30-4156-932f-0358d8a9e5a1","ios":"levelo://app?vid=e114c826-1c30-4156-932f-0358d8a9e5a1"},"vehicle_type_id":"4","last_reported":1693587951,"current_range_meters":24000,"station_id":"ce4bh0h2rcd13ifvqd60","pricing_plan_id":"free"},{"bike_id":"09ceb6f0-3f54-433a-8a51-77f644d61479","system_id":"levelo_inurba_marseille","lat":43.296263,"lon":5.40601,"is_reserved":false,"is_disabled":false,"rental_uris":{"android":"levelo://app?vid=09ceb6f0-3f54-433a-8a51-77f644d61479","ios":"levelo://app?vid=09ceb6f0-3f54-433a-8a51-77f644d61479"},"vehicle_type_id":"4","last_reported":1693587951,"current_range_meters":6400,"station_id":"ce4bh0h2rcd13ifvqd60","pricing_plan_id":"free"},{"bike_id":"67f1c067-5df0-4e80-8fa0-43cfa094627b","system_id":"levelo_inurba_marseille","lat":43.296263,"lon":5.40601,"is_reserved":false,"is_disabled":false,"rental_uris":{"android":"levelo://app?vid=67f1c067-5df0-4e80-8fa0-43cfa094627b","ios":"levelo://app?vid=67f1c067-5df0-4e80-8fa0-43cfa094627b"},"vehicle_type_id":"4","last_reported":1693587951,"current_range_meters":10800,"station_id":"ce4bh0h2rcd13ifvqd60","pricing_plan_id":"free"},{"bike_id":"d7fd4b6f-3439-4e4e-b2f9-f4b715479b42","system_id":"levelo_inurba_marseille","lat":43.326982,"lon":5.408758,"is_reserved":false,"is_disabled":false,"rental_uris":{"android":"levelo://app?vid=d7fd4b6f-3439-4e4e-b2f9-f4b715479b42","ios":"levelo://app?vid=d7fd4b6f-3439-4e4e-b2f9-f4b715479b42"},"vehicle_type_id":"4","last_reported":1693587951,"current_range_meters":6000,"station_id":"ce4bhpp2rcd13ifvqhgg","pricing_plan_id":"free"},{"bike_id":"a0c35592-af0b-4c11-9975-a6923276df1e","system_id":"levelo_inurba_marseille","lat":43.284462,"lon":5.392121,"is_reserved":false,"is_disabled":false,"rental_uris":{"android":"levelo://app?vid=a0c35592-af0b-4c11-9975-a6923276df1e","ios":"levelo://app?vid=a0c35592-af0b-4c11-9975-a6923276df1e"},"vehicle_type_id":"4","last_reported":1693587951,"current_range_meters":30400,"station_id":"ce4bhoh2rcd13ifvqh5g","pricing_plan_id":"free"},{"bike_id":"0879cd73-c3be-4a72-81ab-69e0f1687250","system_id":"levelo_inurba_marseille","lat":43.32656,"lon":5.4098,"is_reserved":false,"is_disabled":false,"rental_uris":{"android":"levelo://app?vid=0879cd73-c3be-4a72-81ab-69e0f1687250","ios":"levelo://app?vid=0879cd73-c3be-4a72-81ab-69e0f1687250"},"vehicle_type_id":"4","last_reported":1693587951,"current_range_meters":30400,"station_id":"ce4bhpp2rcd13ifvqhgg","pricing_plan_id":"free"},{"bike_id":"381ca827-0edf-46ff-ba7d-5a3d5e04b949","system_id":"levelo_inurba_marseille","lat":43.326605,"lon":5.409903,"is_reserved":false,"is_disabled":false,"rental_uris":{"android":"levelo://app?vid=381ca827-0edf-46ff-ba7d-5a3d5e04b949","ios":"levelo://app?vid=381ca827-0edf-46ff-ba7d-5a3d5e04b949"},"vehicle_type_id":"4","last_reported":1693587951,"current_range_meters":27600,"station_id":"ce4bhpp2rcd13ifvqhgg","pricing_plan_id":"free"},{"bike_id":"2f5d9f69-1c1e-4e7f-a55d-360380971029","system_id":"levelo_inurba_marseille","lat":43.326605,"lon":5.409903,"is_reserved":false,"is_disabled":false,"rental_uris":{"android":"levelo://app?vid=2f5d9f69-1c1e-4e7f-a55d-360380971029","ios":"levelo://app?vid=2f5d9f69-1c1e-4e7f-a55d-360380971029"},"vehicle_type_id":"4","last_reported":1693587951,"current_range_meters":30000,"station_id":"ce4bhpp2rcd13ifvqhgg","pricing_plan_id":"free"},{"bike_id":"97fe7d5a-955c-45be-82ef-7fa0f39ea3f4","system_id":"levelo_inurba_marseille","lat":43.32661,"lon":5.40986,"is_reserved":false,"is_disabled":false,"rental_uris":{"android":"levelo://app?vid=97fe7d5a-955c-45be-82ef-7fa0f39ea3f4","ios":"levelo://app?vid=97fe7d5a-955c-45be-82ef-7fa0f39ea3f4"},