{"last_updated":1726556904,"ttl":30,"version":"2.2","data":{"bikes":[{"bike_id":"4dae9236-ecc4-4097-86b5-07cbb0554035","system_id":"levelo_inurba_marseille","lat":43.31363,"lon":5.36703,"is_reserved":false,"is_disabled":false,"rental_uris":{"android":"levelo://app?vid=4dae9236-ecc4-4097-86b5-07cbb0554035","ios":"levelo://app?vid=4dae9236-ecc4-4097-86b5-07cbb0554035"},"vehicle_type_id":"4","last_reported":1726556905,"current_range_meters":38000,"station_id":"ce4bgr92rcd13ifvqc6g","pricing_plan_id":"cebpf4jnsgd1na2vs0mg"},{"bike_id":"18d6962d-b5d0-4cf1-8d82-4aef16436bc2","system_id":"levelo_inurba_marseille","lat":43.28623,"lon":5.35113,"is_reserved":false,"is_disabled":false,"rental_uris":{"android":"levelo://app?vid=18d6962d-b5d0-4cf1-8d82-4aef16436bc2","ios":"levelo://app?vid=18d6962d-b5d0-4cf1-8d82-4aef16436bc2"},"vehicle_type_id":"4","last_reported":1726556905,"current_range_meters":38800,"station_id":"ce4bhch2rcd13ifvqeug","pricing_plan_id":"cebpf4jnsgd1na2vs0mg"},{"bike_id":"00680850-50d0-4792-883e-8a72362dcd4a","system_id":"levelo_inurba_marseille","lat":43.27492,"lon":5.42456,"is_reserved":false,"is_disabled":false,"rental_uris":{"android":"levelo://app?vid=00680850-50d0-4792-883e-8a72362dcd4a","ios":"levelo://app?vid=00680850-50d0-4792-883e-8a72362dcd4a"},"vehicle_type_id":"4","last_reported":1726556905,"current_range_meters":36400,"station_id":"ce4bhn92rcd13ifvqgrg","pricing_plan_id":"cebpf4jnsgd1na2vs0mg"},{"bike_id":"cf5b0f72-4e3e-4b93-9c28-7947369b5199","system_id":"levelo_inurba_marseille","lat":43.33736,"lon":5.39198,"is_reserved":false,"is_disabled":false,"rental_uris":{"android":"levelo://app?vid=cf5b0f72-4e3e-4b93-9c28-7947369b5199","ios":"levelo://app?vid=cf5b0f72-4e3e-4b93-9c28-7947369b5199"},"vehicle_type_id":"4","last_reported":1726556905,"current_range_meters":25600,"station_id":"ce4bhr92rcd13ifvqhsg","pricing_plan_id":"cebpf4jnsgd1na2vs0mg"},{"bike_id":"e58e4e10-994d-474f-afcc-7b41ddc63dfe","system_id":"levelo_inurba_marseille","lat":43.28153,"lon":5.42646,"is_reserved":false,"is_disabled":false,"rental_uris":{"android":"levelo://app?vid=e58e4e10-994d-474f-afcc-7b41ddc63dfe","ios":"levelo://app?vid=e58e4e10-994d-474f-afcc-7b41ddc63dfe"},"vehicle_type_id":"4","last_reported":1726556905,"current_range_meters":38800,"station_id":"ce4bhnh2rcd13ifvqgug","pricing_plan_id":"cebpf4jnsgd1na2vs0mg"},{"bike_id":"43176770-eaee-4996-86c7-d408161e4ce6","system_id":"levelo_inurba_marseille","lat":43.29899,"lon":5.4366,"is_reserved":false,"is_disabled":false,"rental_uris":{"android":"levelo://app?vid=43176770-eaee-4996-86c7-d408161e4ce6","ios":"levelo://app?vid=43176770-eaee-4996-86c7-d408161e4ce6"},"vehicle_type_id":"4","last_reported":1726556905,"current_range_meters":8000,"station_id":"ce4bhpp2rcd13ifvqhfg","pricing_plan_id":"cebpf4jnsgd1na2vs0mg"},{"bike_id":"9ae74781-e291-4f41-9df0-8d2a770621ca","system_id":"levelo_inurba_marseille","lat":43.33026,"lon":5.39032,"is_reserved":false,"is_disabled":false,"rental_uris":{"android":"levelo://app?vid=9ae74781-e291-4f41-9df0-8d2a770621ca","ios":"levelo://app?vid=9ae74781-e291-4f41-9df0-8d2a770621ca"},"vehicle_type_id":"4","last_reported":1726556905,"current_range_meters":40000,"station_id":"ce4bhr92rcd13ifvqhrg","pricing_plan_id":"cebpf4jnsgd1na2vs0mg"},{"bike_id":"687ffc61-ed4c-4ca8-9b44-7950dd971550","system_id":"levelo_inurba_marseille","lat":43.24082,"lon":5.37754,"is_reserved":false,"is_disabled":false,"rental_uris":{"android":"levelo://app?vid=687ffc61-ed4c-4ca8-9b44-7950dd971550","ios":"levelo://app?vid=687ffc61-ed4c-4ca8-9b44-7950dd971550"},"vehicle_type_id":"4","last_reported":1726556905,"current_range_meters":31200,"station_id":"ce4bhnp2rcd13ifvqgvg","pricing_plan_id":"cebpf4jnsgd1na2vs0mg"},{"bike_id":"9ff51e33-edb9-4350-bfee-8e4cf4b11572","system_id":"levelo_inurba_marseille","lat":43.28156,"lon":5.42647,"is_reserved":false,"is_disabled":false,"rental_uris":{"android":"levelo://app?vid=9ff51e33-edb9-4350-bfee-8e4cf4b11572","ios":"levelo://app?vid=9ff51e33-edb9-4350-bfee-8e4cf4b11572"},"vehicle_type_id":"4","last_reported":1726556905,"current_range_meters":38400,"station_id":"ce4bhnh2rcd13ifvqgug","pricing_plan_id":"cebpf4jnsgd1na2vs0mg"},{"bike_id":"73e35758-9d49-4744-bb20-f16d5c1ccca8","system_id":"levelo_inurba_marseille","lat":43.30352,"lon":5.4188,"is_reserved":false,"is_disabled":false,"rental_uris":{"android":"levelo://app?vid=73e35758-9d49-4744-bb20-f16d5c1ccca8","ios":"levelo://app?vid=73e35758-9d49-4744-bb20-f16d5c1ccca8"},"vehicle_type_id":"4","last_reported":1726556905,"current_range_meters":37600,"station_id":"ce4bhop2rcd13ifvqh7g","pricing_plan_id":"cebpf4jnsgd1na2vs0mg"},{"bike_id":"f427386d-624a-4eee-9094-f44de1bda292","system_id":"levelo_inurba_marseille","lat":43.24079,"lon":5.37755,"is_reserved":false,"is_disabled":false,"rental_uris":{"android":"levelo://app?vid=f427386d-624a-4eee-9094-f44de1bda292","ios":"levelo://app?vid=f427386d-624a-4eee-9094-f44de1bda292"},"vehicle_type_id":"4","last_reported":1726556905,"current_range_meters":33600,"station_id":"ce4bhnp2rcd13ifvqgvg","pricing_plan_id":"cebpf4jnsgd1na2vs0mg"},{"bike_id":"78bb8105-1204-46e3-8061-05ce7a881826","system_id":"levelo_inurba_marseille","lat":43.31361,"lon":5.36716,"is_reserved":false,"is_disabled":false,"rental_uris":{"android":"levelo://app?vid=78bb8105-1204-46e3-8061-05ce7a881826","ios":"levelo://app?vid=78bb8105-1204-46e3-8061-05ce7a881826"},"vehicle_type_id":"4","last_reported":1726556905,"current_range_meters":10800,"station_id":"ce4bgr92rcd13ifvqc6g","pricing_plan_id":"cebpf4jnsgd1na2vs0mg"},{"bike_id":"90921f89-3070-4e8e-a818-d1f3eb66395c","system_id":"levelo_inurba_marseille","lat":43.26497,"lon":5.39543,"is_reserved":false,"is_disabled":false,"rental_uris":{"android":"levelo://app?vid=90921f89-3070-4e8e-a818-d1f3eb66395c","ios":"levelo://app?vid=90921f89-3070-4e8e-a818-d1f3eb66395c"},"vehicle_type_id":"4","last_reported":1726556905,"current_range_meters":30000,"station_id":"ce4bhi12rcd13ifvqfq0","pricing_plan_id":"cebpf4jnsgd1na2vs0mg"},{"bike_id":"13ec4916-f0ea-4897-8afc-596425b42c42","system_id":"levelo_inurba_marseille","lat":43.23187,"lon":5.35556,"is_reserved":false,"is_disabled":false,"rental_uris":{"android":"levelo://app?vid=13ec4916-f0ea-4897-8afc-596425b42c42","ios":"levelo://app?vid=13ec4916-f0ea-4897-8afc-596425b42c42"},"vehicle_type_id":"4","last_reported":1726556905,"current_range_meters":10800,"station_id":"ce4bhu92rcd13ifvqi70","pricing_plan_id":"cebpf4jnsgd1na2vs0mg"},{"bike_id":"e92289e0-b00e-420d-bbc9-625c76009d60","system_id":"levelo_inurba_marseille","lat":43.28154,"lon":5.42644,"is_reserved":false,"is_disabled":false,"rental_uris":{"android":"levelo://app?vid=e92289e0-b00e-420d-bbc9-625c76009d60","ios":"levelo://app?vid=e92289e0-b00e-420d-bbc9-625c76009d60"},"vehicle_type_id":"4","last_reported":1726556905,"current_range_meters":38400,"station_id":"ce4bhnh2rcd13ifvqgug","pricing_plan_id":"cebpf4jnsgd1na2vs0mg"},{"bike_id":"9d243943-f186-4f8f-b775-710d28fca1e0","system_id":"levelo_inurba_marseille","lat":43.32544,"lon":5.41438,"is_reserved":false,"is_disabled":false,"rental_uris":{"android":"levelo://app?vid=9d243943-f186-4f8f-b775-710d28fca1e0","ios":"levelo://app?vid=9d243943-f186-4f8f-b775-710d28fca1e0"},"vehicle_type_id":"4","last_reported":1726556905,"current_range_meters":34000,"station_id":"ce4bhq12rcd13ifvqhhg","pricing_plan_id":"cebpf4jnsgd1na2vs0mg"},{"bike_id":"e9775e14-f56e-4d3d-841e-e82a160f742a","system_id":"levelo_inurba_marseille","lat":43.3055,"lon":5.36542,"is_reserved":false,"is_disabled":false,"rental_uris":{"android":"levelo://app?vid=e9775e14-f56e-4d3d-841e-e82a160f742a","ios":"levelo://app?vid=e9775e14-f56e-4d3d-841e-e82a160f742a"},"vehicle_type_id":"4","last_reported":1726556905,"current_range_meters":33600,"station_id":"ce4bgs12rcd13ifvqcag","pricing_plan_id":"cebpf4jnsgd1na2vs0mg"},{"bike_id":"a8e38984-818e-4f7b-bbc1-846bcb240532","system_id":"levelo_inurba_marseille","lat":43.289403,"lon":5.396321,"is_reserved":false,"is_disabled":false,"rental_uris":{"android":"levelo://app?vid=a8e38984-818e-4f7b-bbc1-846bcb240532","ios":"levelo://app?vid=a8e38984-818e-4f7b-bbc1-846bcb240532"},"vehicle_type_id":"4","last_reported":1726556905,"current_range_meters":28800,"station_id":"ce4bh3h2rcd13ifvqdn0","pricing_plan_id":"cebpf4jnsgd1na2vs0mg"},{"bike_id":"e3dafc50-451f-4304-9c40-494fb578d4d8","system_id":"levelo_inurba_marseille","lat":43.271938,"lon":5.421938,"is_reserved":false,"is_disabled":false,"rental_uris":{"android":"levelo://app?vid=e3dafc50-451f-4304-9c40-494fb578d4d8","ios":"levelo://app?vid=e3dafc50-451f-4304-9c40-494fb578d4d8"},"vehicle_type_id":"4","last_reported":1726556905,"current_range_meters":5600,"station_id":"ce4bhk92rcd13ifvqgb0","pricing_plan_id":"cebpf4jnsgd1na2vs0mg"},{"bike_id":"fda129a1-a327-4cd9-a01c-ca64ce0c4ac4","system_id":"levelo_inurba_marseille","lat":43.29621,"lon":5.37721,"is_reserved":false,"is_disabled":false,"rental_uris":{"android":"levelo://app?vid=fda129a1-a327-4cd9-a01c-ca64ce0c4ac4","ios":"levelo://app?vid=fda129a1-a327-4cd9-a01c-ca64ce0c4ac4"},"vehicle_type_id":"4","last_reported":1726556905,"current_range_meters":24400,"station_id":"ce4bgi92rcd13ifvqb90","pricing_plan_id":"cebpf4jnsgd1na2vs0mg"},{"bike_id":"bd94582e-e61e-4e25-81f6-e34f64c6fc9f","system_id":"levelo_inurba_marseille","lat":43.29549,"lon":5.42284,"is_reserved":false,"is_disabled":false,"rental_uris":{"android":"levelo://app?vid=bd94582e-e61e-4e25-81f6-e34f64c6fc9f","ios":"levelo://app?vid=bd94582e-e61e-4e25-81f6-e34f64c6fc9f"},"vehicle_type_id":"4","last_reported":1726556905,"current_range_meters":31200,"station_id":"ce4bhph2rcd13ifvqhdg","pricing_plan_id":"cebpf4jnsgd1na2vs0mg"},{"bike_id":"f7ba75b6-9e74-43ff-abae-9f7d376ca3c4","system_id":"levelo_inurba_marseille","lat":43.32553,"lon":5.41443,"is_reserved":false,"is_disabled":false,"rental_uris":{"android":"levelo://app?vid=f7ba75b6-9e74-43ff-abae-9f7d376ca3c4","ios":"levelo://app?vid=f7ba75b6-9e74-43ff-abae-9f7d376ca3c4"},"vehicle_type_id":"4","last_reported":1726556905,"current_range_meters":38000,"station_id":"ce4bhq12rcd13ifvqhhg","pricing_plan_id":"cebpf4jnsgd1na2vs0mg"},{"bike_id":"d2d186e6-a364-4f4a-8275-6e166876e5d7","system_id":"levelo_inurba_marseille","lat":43.32546,"lon":5.41442,"is_reserved":false,"is_disabled":false,"rental_uris":{"android":"levelo://app?vid=d2d186e6-a364-4f4a-8275-6e166876e5d7","ios":"levelo://app?vid=d2d186e6-a364-4f4a-8275-6e166876e5d7"},"vehicle_type_id":"4","last_reported":1726556905,"current_range_meters":22000,"station_id":"ce4bhq12rcd13ifvqhhg","pricing_plan_id":"cebpf4jnsgd1na2vs0mg"},{"bike_id":"dbd298e0-a382-4414-92ca-00d7d938bcff","system_id":"levelo_inurba_marseille","lat":43.23199,"lon":5.35552,"is_reserved":false,"is_disabled":false,"rental_uris":{"android":"levelo://app?vid=dbd298e0-a382-4414-92ca-00d7d938bcff","ios":"levelo://app?vid=dbd298e0-a382-4414-92ca-00d7d938bcff"},"vehicle_type_id":"4","last_reported":1726556905,"current_range_meters":37600,"station_id":"ce4bhu92rcd13ifvqi70","pricing_plan_id":"cebpf4jnsgd1na2vs0mg"},{"bike_id":"c86c1aec-4ad5-40c5-a7f9-4f6555405ddf","system_id":"levelo_inurba_marseille","lat":43.30468,"lon":5.37907,"is_reserved":false,"is_disabled":false,"rental_uris":{"android":"levelo://app?vid=c86c1aec-4ad5-40c5-a7f9-4f6555405ddf","ios":"levelo://app?vid=c86c1aec-4ad5-40c5-a7f9-4f6555405ddf"},"vehicle_type_id":"4","last_reported":1726556905,"current_range_meters":32400,"station_id":"ce4bgup2rcd13ifvqcn0","pricing_plan_id":"cebpf4jnsgd1na2vs0mg"},{"bike_id":"8899c638-bf10-4559-a2a8-f8928b2305a1","system_id":"levelo_inurba_marseille","lat":43.305261,"lon":5.367216,"is_reserved":false,"is_disabled":false,"rental_uris":{"android":"levelo://app?vid=8899c638-bf10-4559-a2a8-f8928b2305a1","ios":"levelo://app?vid=8899c638-bf10-4559-a2a8-f8928b2305a1"},"vehicle_type_id":"4","last_reported":1726556905,"current_range_meters":26000,"station_id":"ce4bgrp2rcd13ifvqc9g","pricing_plan_id":"cebpf4jnsgd1na2vs0mg"},{"bike_id":"8911eb2d-7b08-435f-8143-91d9c6dfff38","system_id":"levelo_inurba_marseille","lat":43.25941,"lon":5.40902,"is_reserved":false,"is_disabled":false,"rental_uris":{"android":"levelo://app?vid=8911eb2d-7b08-435f-8143-91d9c6dfff38","ios":"levelo://app?vid=8911eb2d-7b08-435f-8143-91d9c6dfff38"},"vehicle_type_id":"4","last_reported":1726556905,"current_range_meters":17200,"station_id":"ce4bhm92rcd13ifvqglg","pricing_plan_id":"cebpf4jnsgd1na2vs0mg"},{"bike_id":"dc0e8642-f4f3-411c-ac96-84bd636032e0","system_id":"levelo_inurba_marseille","lat":43.26783,"lon":5.39383,"is_reserved":false,"is_disabled":false,"rental_uris":{"android":"levelo://app?vid=dc0e8642-f4f3-411c-ac96-84bd636032e0","ios":"levelo://app?vid=dc0e8642-f4f3-411c-ac96-84bd636032e0"},"vehicle_type_id":"4","last_reported":1726556905,"current_range_meters":38800,"station_id":"","pricing_plan_id":"cebpf4jnsgd1na2vs0mg"},{"bike_id":"e726675f-e139-44f0-ab22-3fde50d819be","system_id":"levelo_inurba_marseille","lat":43.33772,"lon":5.37448,"is_reserved":false,"is_disabled":false,"rental_uris":{"android":"levelo://app?vid=e726675f-e139-44f0-ab22-3fde50d819be","ios":"levelo://app?vid=e726675f-e139-44f0-ab22-3fde50d819be"},"vehicle_type_id":"4","last_reported":1726556905,"current_range_meters":38400,"station_id":"","pricing_plan_id":"cebpf4jnsgd1na2vs0mg"},{"bike_id":"3febe532-00c7-45c4-b0f8-5eeb2efa294c","system_id":"levelo_inurba_marseille","lat":43.29691,"lon":5.37269,"is_reserved":false,"is_disabled":false,"rental_uris":{"android":"levelo://app?vid=3febe532-00c7-45c4-b0f8-5eeb2efa294c","ios":"levelo://app?vid=3febe532-00c7-45c4-b0f8-5eeb2efa294c"},"vehicle_type_id":"4","last_reported":1726556905,"current_range_meters":8400,"station_id":"ce4bgk12rcd13ifvqbj0","pricing_plan_id":"cebpf4jnsgd1na2vs0mg"},{"bike_id":"c6d5723c-38df-48e7-8c64-55a9bbfb3561","system_id":"levelo_inurba_marseille","lat":43.30147,"lon":5.38086,"is_reserved":false,"is_disabled":false,"rental_uris":{"android":"levelo://app?vid=c6d5723c-38df-48e7-8c64-55a9bbfb3561","ios":"levelo://app?vid=c6d5723c-38df-48e7-8c64-55a9bbfb3561"},"vehicle_type_id":"4","last_reported":1726556905,"current_range_meters":20000,"station_id":"ce4bgjp2rcd13ifvqbh0","pricing_plan_id":"cebpf4jnsgd1na2vs0mg"},{"bike_id":"2a5808e5-1612-4dc1-a62b-b9c71459256c","system_id":"levelo_inurba_marseille","lat":43.34094,"lon":5.39103,"is_reserved":false,"is_disabled":false,"rental_uris":{"android":"levelo://app?vid=2a5808e5-1612-4dc1-a62b-b9c71459256c","ios":"levelo://app?vid=2a5808e5-1612-4dc1-a62b-b9c71459256c"},"vehicle_type_id":"4","last_reported":1726556905,"current_range_meters":12400,"station_id":"","pricing_plan_id":"cebpf4jnsgd1na2vs0mg"},{"bike_id":"03f057ab-78ba-4602-952f-cd279147a6ac","system_id":"levelo_inurba_marseille","lat":43.28026,"lon":5.39413,"is_reserved":false,"is_disabled":false,"rental_uris":{"android":"levelo://app?vid=03f057ab-78ba-4602-952f-cd279147a6ac","ios":"levelo://app?vid=03f057ab-78ba-4602-952f-cd279147a6ac"},"vehicle_type_id":"4","last_reported":1726556905,"current_range_meters":36400,"station_id":"","pricing_plan_id":"cebpf4jnsgd1na2vs0mg"},{"bike_id":"e75bdf37-6017-4dd9-8183-f2edc970ca06","system_id":"levelo_inurba_marseille","lat":43.23195,"lon":5.35548,"is_reserved":false,"is_disabled":false,"rental_uris":{"android":"levelo://app?vid=e75bdf37-6017-4dd9-8183-f2edc970ca06","ios":"levelo://app?vid=e75bdf37-6017-4dd9-8183-f2edc970ca06"},"vehicle_type_id":"4","last_reported":1726556905,"current_range_meters":31200,"station_id":"ce4bhu92rcd13ifvqi70","pricing_plan_id":"cebpf4jnsgd1na2vs0mg"},{"bike_id":"ce8ced7e-9c71-4c55-bcf2-a8ee0d1a6cd0","system_id":"levelo_inurba_marseille","lat":43.27076,"lon":5.42276,"is_reserved":false,"is_disabled":false,"rental_uris":{"android":"levelo://app?vid=ce8ced7e-9c71-4c55-bcf2-a8ee0d1a6cd0","ios":"levelo://app?vid=ce8ced7e-9c71-4c55-bcf2-a8ee0d1a6cd0"},"vehicle_type_id":"4","last_reported":1726556905,"current_range_meters":36800,"station_id":"ce4bhk92rcd13ifvqgb0","pricing_plan_id":"cebpf4jnsgd1na2vs0mg"},{"bike_id":"854ef71a-b0ce-4b7e-853e-bc9e44a683bb","system_id":"levelo_inurba_marseille","lat":43.25938,"lon":5.40901,"is_reserved":false,"is_disabled":false,"rental_uris":{"android":"levelo://app?vid=854ef71a-b0ce-4b7e-853e-bc9e44a683bb","ios":"levelo://app?vid=854ef71a-b0ce-4b7e-853e-bc9e44a683bb"},"vehicle_type_id":"4","last_reported":1726556905,"current_range_meters":11200,"station_id":"ce4bhm92rcd13ifvqglg","pricing_plan_id":"cebpf4jnsgd1na2vs0mg"},{"bike_id":"c52e4848-dd66-46b8-a132-9836b7620028","system_id":"levelo_inurba_marseille","lat":43.25933,"lon":5.40911,"is_reserved":false,"is_disabled":false,"rental_uris":{"android":"levelo://app?vid=c52e4848-dd66-46b8-a132-9836b7620028","ios":"levelo://app?vid=c52e4848-dd66-46b8-a132-9836b7620028"},"vehicle_type_id":"4","last_reported":1726556905,"current_range_meters":19600,"station_id":"ce4bhm92rcd13ifvqglg","pricing_plan_id":"cebpf4jnsgd1na2vs0mg"},{"bike_id":"26ba68ce-9abf-45c1-9160-ad0d48c72a28","system_id":"levelo_inurba_marseille","lat":43.30548,"lon":5.36559,"is_reserved":false,"is_disabled":false,"rental_uris":{"android":"levelo://app?vid=26ba68ce-9abf-45c1-9160-ad0d48c72a28","ios":"levelo://app?vid=26ba68ce-9abf-45c1-9160-ad0d48c72a28"},"vehicle_type_id":"4","last_reported":1726556905,"current_range_meters":36000,"station_id":"ce4bgs12rcd13ifvqcag","pricing_plan_id":"cebpf4jnsgd1na2vs0mg"},{"bike_id":"ddfda9aa-1f70-42c5-a24f-34ad77022ba2","system_id":"levelo_inurba_marseille","lat":43.29367,"lon":5.3783,"is_reserved":false,"is_disabled":false,"rental_uris":{"android":"levelo://app?vid=ddfda9aa-1f70-42c5-a24f-34ad77022ba2","ios":"levelo://app?vid=ddfda9aa-1f70-42c5-a24f-34ad77022ba2"},"vehicle_type_id":"4","last_reported":1726556905,"current_range_meters":24400,"station_id":"ce4bgjh2rcd13ifvqbf0","pricing_plan_id":"cebpf4jnsgd1na2vs0mg"},{"bike_id":"67b7d6fd-68e0-4974-9720-e2f4b2c8e265","system_id":"levelo_inurba_marseille","lat":43.249908,"lon":5.389341,"is_reserved":false,"is_disabled":false,"rental_uris":{"android":"levelo://app?vid=67b7d6fd-68e0-4974-9720-e2f4b2c8e265","ios":"levelo://app?vid=67b7d6fd-68e0-4974-9720-e2f4b2c8e265"},"vehicle_type_id":"4","last_reported":1726556905,"current_range_meters":24000,"station_id":"ce4bhgp2rcd13ifvqfd0","pricing_plan_id":"cebpf4jnsgd1na2vs0mg"},{"bike_id":"3fe87b82-dda3-4c17-9a46-a862dce92604","system_id":"levelo_inurba_marseille","lat":43.25002,"lon":5.38927,"is_reserved":false,"is_disabled":false,"rental_uris":{"android":"levelo://app?vid=3fe87b82-dda3-4c17-9a46-a862dce92604","ios":"levelo://app?vid=3fe87b82-dda3-4c17-9a46-a862dce92604"},"vehicle_type_id":"4","last_reported":1726556905,"current_range_meters":32400,"station_id":"ce4bhgp2rcd13ifvqfd0","pricing_plan_id":"cebpf4jnsgd1na2vs0mg"},{"bike_id":"6fcb671c-f04a-47fc-8948-e59988d81a5e","system_id":"levelo_inurba_marseille","lat":43.24078,"lon":5.37756,"is_reserved":false,"is_disabled":false,"rental_uris":{"android":"levelo://app?vid=6fcb671c-f04a-47fc-8948-e59988d81a5e","ios":"levelo://app?vid=6fcb671c-f04a-47fc-8948-e59988d81a5e"},"vehicle_type_id":"4","last_reported":1726556905,"current_range_meters":37600,"station_id":"ce4bhnp2rcd13ifvqgvg","pricing_plan_id":"cebpf4jnsgd1na2vs0mg"},{"bike_id":"90b9b63b-7cb1-4ff9-bb6e-508f03886439","system_id":"levelo_inurba_marseille","lat":43.30283,"lon":5.37709,"is_reserved":false,"is_disabled":false,"rental_uris":{"android":"levelo://app?vid=90b9b63b-7cb1-4ff9-bb6e-508f03886439","ios":"levelo://app?vid=90b9b63b-7cb1-4ff9-bb6e-508f03886439"},"vehicle_type_id":"4","last_reported":1726556905,"current_range_meters":33200,"station_id":"ce4bguh2rcd13ifvqcj0","pricing_plan_id":"cebpf4jnsgd1na2vs0mg"},{"bike_id":"667ee104-c696-4da4-9ddf-ec285b1eb9c6","system_id":"levelo_inurba_marseille","lat":43.2998,"lon":5.37172,"is_reserved":false,"is_disabled":false,"rental_uris":{"android":"levelo://app?vid=667ee104-c696-4da4-9ddf-ec285b1eb9c6","ios":"levelo://app?vid=667ee104-c696-4da4-9ddf-ec285b1eb9c6"},"vehicle_type_id":"4","last_reported":1726556905,"current_range_meters":31200,"station_id":"ce4bgr92rcd13ifvqc7g","pricing_plan_id":"cebpf4jnsgd1na2vs0mg"},{"bike_id":"882e327a-d92c-4bd6-b42d-19c69c8b050c","system_id":"levelo_inurba_marseille","lat":43.30548,"lon":5.36704,"is_reserved":false,"is_disabled":false,"rental_uris":{"android":"levelo://app?vid=882e327a-d92c-4bd6-b42d-19c69c8b050c","ios":"levelo://app?vid=882e327a-d92c-4bd6-b42d-19c69c8b050c"},"vehicle_type_id":"4","last_reported":1726556905,"current_range_meters":8400,"station_id":"ce4bgrp2rcd13ifvqc9g","pricing_plan_id":"cebpf4jnsgd1na2vs0mg"},{"bike_id":"f409a27c-3291-4d9b-ac57-9e74e75d80d1","system_id":"levelo_inurba_marseille","lat":43.32366,"lon":5.38877,"is_reserved":false,"is_disabled":false,"rental_uris":{"android":"levelo://app?vid=f409a27c-3291-4d9b-ac57-9e74e75d80d1","ios":"levelo://app?vid=f409a27c-3291-4d9b-ac57-9e74e75d80d1"},"vehicle_type_id":"4","last_reported":1726556905,"current_range_meters":16000,"station_id":"ce4bhqp2rcd13ifvqhog","pricing_plan_id":"cebpf4jnsgd1na2vs0mg"},{"bike_id":"e2411f7b-eeb7-4469-921e-195ed607de33","system_id":"levelo_inurba_marseille","lat":43.3055,"lon":5.36561,"is_reserved":false,"is_disabled":false,"rental_uris":{"android":"levelo://app?vid=e2411f7b-eeb7-4469-921e-195ed607de33","ios":"levelo://app?vid=e2411f7b-eeb7-4469-921e-195ed607de33"},"vehicle_type_id":"4","last_reported":1726556905,"current_range_meters":34000,"station_id":"ce4bgs12rcd13ifvqcag","pricing_plan_id":"cebpf4jnsgd1na2vs0mg"},{"bike_id":"4232e9d2-5cc7-4941-99f6-12282f5a71a2","system_id":"levelo_inurba_marseille","lat":43.27495,"lon":5.4245,"is_reserved":false,"is_disabled":false,"rental_uris":{"android":"levelo://app?vid=4232e9d2-5cc7-4941-99f6-12282f5a71a2","ios":"levelo://app?vid=4232e9d2-5cc7-4941-99f6-12282f5a71a2"},"vehicle_type_id":"4","last_reported":1726556905,"current_range_meters":27600,"station_id":"ce4bhn92rcd13ifvqgrg","pricing_plan_id":"cebpf4jnsgd1na2vs0mg"},{"bike_id":"30ce5f9d-e14d-4ee7-b9f8-22f7215e3c5f","system_id":"levelo_inurba_marseille","lat":43.23152,"lon":5.43723,"is_reserved":false,"is_disabled":false,"rental_uris":{"android":"levelo://app?vid=30ce5f9d-e14d-4ee7-b9f8-22f7215e3c5f","ios":"levelo://app?vid=30ce5f9d-e14d-4ee7-b9f8-22f7215e3c5f"},"vehicle_type_id":"4","last_reported":1726556905,"current_range_meters":22800,"station_id":"ce4bhmp2rcd13ifvqgog","pricing_plan_id":"cebpf4jnsgd1na2vs0mg"},{"bike_id":"726d8743-f666-4e78-9b13-cf3f12ad1407","system_id":"levelo_inurba_marseille","lat":43.30899,"lon":5.37202,"is_reserved":false,"is_disabled":false,"rental_uris":{"android":"levelo://app?vid=726d8743-f666-4e78-9b13-cf3f12ad1407","ios":"levelo://app?vid=726d8743-f666-4e78-9b13-cf3f12ad1407"},"vehicle_type_id":"4","last_reported":1726556905,"current_range_meters":27600,"station_id":"ce4bguh2rcd13ifvqckg","pricing_plan_id":"cebpf4jnsgd1na2vs0mg"},{"bike_id":"cd1d4c55-2cbb-4b85-a1be-a7235ca53de6","system_id":"levelo_inurba_marseille","lat":43.32489,"lon":5.36562,"is_reserved":false,"is_disabled":false,"rental_uris":{"android":"levelo://app?vid=cd1d4c55-2cbb-4b85-a1be-a7235ca53de6","ios":"levelo://app?vid=cd1d4c55-2cbb-4b85-a1be-a7235ca53de6"},"vehicle_type_id":"4","last_reported":1726556905,"current_range_meters":24800,"station_id":"ce4bhs12rcd13ifvqhvg","pricing_plan_id":"cebpf4jnsgd1na2vs0mg"},{"bike_id":"4373386c-b856-4e09-983c-e1c22efce697","system_id":"levelo_inurba_marseille","lat":43.3047,"lon":5.37916,"is_reserved":false,"is_disabled":false,"rental_uris":{"android":"levelo://app?vid=4373386c-b856-4e09-983c-e1c22efce697","ios":"levelo://app?vid=4373386c-b856-4e09-983c-e1c22efce697"},"vehicle_type_id":"4","last_reported":1726556905,"current_range_meters":34800,"station_id":"ce4bgup2rcd13ifvqcn0","pricing_plan_id":"cebpf4jnsgd1na2vs0mg"},{"bike_id":"c7f93bf2-2b30-4c5c-aa72-447b3f4a28ea","system_id":"levelo_inurba_marseille","lat":43.29897,"lon":5.43668,"is_reserved":false,"is_disabled":false,"rental_uris":{"android":"levelo://app?vid=c7f93bf2-2b30-4c5c-aa72-447b3f4a28ea","ios":"levelo://app?vid=c7f93bf2-2b30-4c5c-aa72-447b3f4a28ea"},"vehicle_type_id":"4","last_reported":1726556905,"current_range_meters":10000,"station_id":"ce4bhpp2rcd13ifvqhfg","pricing_plan_id":"cebpf4jnsgd1na2vs0mg"},{"bike_id":"b8e41107-ee2e-425b-9ce6-c4df440ebaec","system_id":"levelo_inurba_marseille","lat":43.30149,"lon":5.37407,"is_reserved":false,"is_disabled":false,"rental_uris":{"android":"levelo://app?vid=b8e41107-ee2e-425b-9ce6-c4df440ebaec","ios":"levelo://app?vid=b8e41107-ee2e-425b-9ce6-c4df440ebaec"},"vehicle_type_id":"4","last_reported":1726556905,"current_range_meters":36400,"station_id":"ce4bgs92rcd13ifvqcc0","pricing_plan_id":"cebpf4jnsgd1na2vs0mg"},{"bike_id":"22a588b1-cfec-4a63-9499-3cf933091fed","system_id":"levelo_inurba_marseille","lat":43.30552,"lon":5.36708,"is_reserved":false,"is_disabled":false,"rental_uris":{"android":"levelo://app?vid=22a588b1-cfec-4a63-9499-3cf933091fed","ios":"levelo://app?vid=22a588b1-cfec-4a63-9499-3cf933091fed"},"vehicle_type_id":"4","last_reported":1726556905,"current_range_meters":36400,"station_id":"ce4bgrp2rcd13ifvqc9g","pricing_plan_id":"cebpf4jnsgd1na2vs0mg"},{"bike_id":"08e48bfe-ad2a-458d-9a49-e530633bb170","system_id":"levelo_inurba_marseille","lat":43.29074,"lon":5.37157,"is_reserved":false,"is_disabled":false,"rental_uris":{"android":"levelo://app?vid=08e48bfe-ad2a-458d-9a49-e530633bb170","ios":"levelo://app?vid=08e48bfe-ad2a-458d-9a49-e530633bb170"},"vehicle_type_id":"4","last_reported":1726556905,"current_range_meters":30400,"station_id":"ce4bh5p2rcd13ifvqe4g","pricing_plan_id":"cebpf4jnsgd1na2vs0mg"},{"bike_id":"128ec406-53f9-4071-b496-4e5020ff87f3","system_id":"levelo_inurba_marseille","lat":43.25942,"lon":5.40902,"is_reserved":false,"is_disabled":false,"rental_uris":{"android":"levelo://app?vid=128ec406-53f9-4071-b496-4e5020ff87f3","ios":"levelo://app?vid=128ec406-53f9-4071-b496-4e5020ff87f3"},"vehicle_type_id":"4","last_reported":1726556905,"current_range_meters":9600,"station_id":"ce4bhm92rcd13ifvqglg","pricing_plan_id":"cebpf4jnsgd1na2vs0mg"},{"bike_id":"9aa1a99f-a63b-480e-955f-bb461fb4380e","system_id":"levelo_inurba_marseille","lat":43.25943,"lon":5.40903,"is_reserved":false,"is_disabled":false,"rental_uris":{"android":"levelo://app?vid=9aa1a99f-a63b-480e-955f-bb461fb4380e","ios":"levelo://app?vid=9aa1a99f-a63b-480e-955f-bb461fb4380e"},"vehicle_type_id":"4","last_reported":1726556905,"current_range_meters":12800,"station_id":"ce4bhm92rcd13ifvqglg","pricing_plan_id":"cebpf4jnsgd1na2vs0mg"},{"bike_id":"53313a0f-0ff9-4a1a-bc65-ab4aa9b534f5","system_id":"levelo_inurba_marseille","lat":43.25938,"lon":5.40908,"is_reserved":false,"is_disabled":false,"rental_uris":{"android":"levelo://app?vid=53313a0f-0ff9-4a1a-bc65-ab4aa9b534f5","ios":"levelo://app?vid=53313a0f-0ff9-4a1a-bc65-ab4aa9b534f5"},"vehicle_type_id":"4","last_reported":1726556905,"current_range_meters":25600,"station_id":"ce4bhm92rcd13ifvqglg","pricing_plan_id":"cebpf4jnsgd1na2vs0mg"},{"bike_id":"0b5743fb-c432-4a8b-af61-02f37e691302","system_id":"levelo_inurba_marseille","lat":43.26565,"lon":5.39012,"is_reserved":false,"is_disabled":false,"rental_uris":{"android":"levelo://app?vid=0b5743fb-c432-4a8b-af61-02f37e691302","ios":"levelo://app?vid=0b5743fb-c432-4a8b-af61-02f37e691302"},"vehicle_type_id":"4","last_reported":1726556905,"current_range_meters":37600,"station_id":"ce4bhe12rcd13ifvqf30","pricing_plan_id":"cebpf4jnsgd1na2vs0mg"},{"bike_id":"4153cc51-d4e8-4e56-a8fd-c1a04ecf3fa7","system_id":"levelo_inurba_marseille","lat":43.29955,"lon":5.41339,"is_reserved":false,"is_disabled":false,"rental_uris":{"android":"levelo://app?vid=4153cc51-d4e8-4e56-a8fd-c1a04ecf3fa7","ios":"levelo://app?vid=4153cc51-d4e8-4e56-a8fd-c1a04ecf3fa7"},"vehicle_type_id":"4","last_reported":1726556905,"current_range_meters":30400,"station_id":"ce4bhp12rcd13ifvqh9g","pricing_plan_id":"cebpf4jnsgd1na2vs0mg"},{"bike_id":"fdb2b13a-11cd-42ca-8a52-92bcabd171a0","system_id":"levelo_inurba_marseille","lat":43.30468,"lon":5.379,"is_reserved":false,"is_disabled":false,"rental_uris":{"android":"levelo://app?vid=fdb2b13a-11cd-42ca-8a52-92bcabd171a0","ios":"levelo://app?vid=fdb2b13a-11cd-42ca-8a52-92bcabd171a0"},"vehicle_type_id":"4","last_reported":1726556905,"current_range_meters":40000,"station_id":"ce4bgup2rcd13ifvqcn0","pricing_plan_id":"cebpf4jnsgd1na2vs0mg"},{"bike_id":"db23b646-790f-4abf-92e3-bf391cc1cb8e","system_id":"levelo_inurba_marseille","lat":43.295593,"lon":5.422943,"is_reserved":false,"is_disabled":false,"rental_uris":{"android":"levelo://app?vid=db23b646-790f-4abf-92e3-bf391cc1cb8e","ios":"levelo://app?vid=db23b646-790f-4abf-92e3-bf391cc1cb8e"},"vehicle_type_id":"4","last_reported":1726556905,"current_range_meters":24400,"station_id":"ce4bhph2rcd13ifvqhdg","pricing_plan_id":"cebpf4jnsgd1na2vs0mg"},{"bike_id":"95aac5b0-2d56-4258-9356-10ef45de00af","system_id":"levelo_inurba_marseille","lat":43.292687,"lon":5.384237,"is_reserved":false,"is_disabled":false,"rental_uris":{"android":"levelo://app?vid=95aac5b0-2d56-4258-9356-10ef45de00af","ios":"levelo://app?vid=95aac5b0-2d56-4258-9356-10ef45de00af"},"vehicle_type_id":"4","last_reported":1726556905,"current_range_meters":30800,"station_id":"ce4bh692rcd13ifvqea0","pricing_plan_id":"cebpf4jnsgd1na2vs0mg"},{"bike_id":"8cb592d9-f82f-4171-894f-8d7ffa6525e5","system_id":"levelo_inurba_marseille","lat":43.23193,"lon":5.35545,"is_reserved":false,"is_disabled":false,"rental_uris":{"android":"levelo://app?vid=8cb592d9-f82f-4171-894f-8d7ffa6525e5","ios":"levelo://app?vid=8cb592d9-f82f-4171-894f-8d7ffa6525e5"},"vehicle_type_id":"4","last_reported":1726556905,"current_range_meters":20400,"station_id":"ce4bhu92rcd13ifvqi70","pricing_plan_id":"cebpf4jnsgd1na2vs0mg"},{"bike_id":"285e7841-204a-4b8e-8658-4da9bd95684e","system_id":"levelo_inurba_marseille","lat":43.32489,"lon":5.365747,"is_reserved":false,"is_disabled":false,"rental_uris":{"android":"levelo://app?vid=285e7841-204a-4b8e-8658-4da9bd95684e","ios":"levelo://app?vid=285e7841-204a-4b8e-8658-4da9bd95684e"},"vehicle_type_id":"4","last_reported":1726556905,"current_range_meters":27200,"station_id":"ce4bhs12rcd13ifvqhvg","pricing_plan_id":"cebpf4jnsgd1na2vs0mg"},{"bike_id":"e8577ff1-e7d5-4bd8-af09-a820a63b8b50","system_id":"levelo_inurba_marseille","lat":43.33027,"lon":5.39052,"is_reserved":false,"is_disabled":false,"rental_uris":{"android":"levelo://app?vid=e8577ff1-e7d5-4bd8-af09-a820a63b8b50","ios":"levelo://app?vid=e8577ff1-e7d5-4bd8-af09-a820a63b8b50"},"vehicle_type_id":"4","last_reported":1726556905,"current_range_meters":14400,"station_id":"ce4bhr92rcd13ifvqhrg","pricing_plan_id":"cebpf4jnsgd1na2vs0mg"},{"bike_id":"20a4a91d-8541-4958-9b2e-4e75165c8a2a","system_id":"levelo_inurba_marseille","lat":43.30805,"lon":5.43527,"is_reserved":false,"is_disabled":false,"rental_uris":{"android":"levelo://app?vid=20a4a91d-8541-4958-9b2e-4e75165c8a2a","ios":"levelo://app?vid=20a4a91d-8541-4958-9b2e-4e75165c8a2a"},"vehicle_type_id":"4","last_reported":1726556905,"current_range_meters":16000,"station_id":"ce4bhph2rcd13ifvqheg","pricing_plan_id":"cebpf4jnsgd1na2vs0mg"},{"bike_id":"989d236a-3441-46d5-8f50-d9eca8f835df","system_id":"levelo_inurba_marseille","lat":43.29178,"lon":5.37157,"is_reserved":false,"is_disabled":false,"rental_uris":{"android":"levelo://app?vid=989d236a-3441-46d5-8f50-d9eca8f835df","ios":"levelo://app?vid=989d236a-3441-46d5-8f50-d9eca8f835df"},"vehicle_type_id":"4","last_reported":1726556905,"current_range_meters":34000,"station_id":"ce4bha92rcd13ifvqeh0","pricing_plan_id":"cebpf4jnsgd1na2vs0mg"},{"bike_id":"c3bcca86-6294-4639-9d07-9722d40f464e","system_id":"levelo_inurba_marseille","lat":43.29901,"lon":5.43669,"is_reserved":false,"is_disabled":false,"rental_uris":{"android":"levelo://app?vid=c3bcca86-6294-4639-9d07-9722d40f464e","ios":"levelo://app?vid=c3bcca86-6294-4639-9d07-9722d40f464e"},"vehicle_type_id":"4","last_reported":1726556905,"current_range_meters":36800,"station_id":"ce4bhpp2rcd13ifvqhfg","pricing_plan_id":"cebpf4jnsgd1na2vs0mg"},{"bike_id":"b8575011-8302-48a4-8af4-a59ce79d4a2f","system_id":"levelo_inurba_marseille","lat":43.31088,"lon":5.42429,"is_reserved":false,"is_disabled":false,"rental_uris":{"android":"levelo://app?vid=b8575011-8302-48a4-8af4-a59ce79d4a2f","ios":"levelo://app?vid=b8575011-8302-48a4-8af4-a59ce79d4a2f"},"vehicle_type_id":"4","last_reported":1726556905,"current_range_meters":32800,"station_id":"ce4bhp92rcd13ifvqhag","pricing_plan_id":"cebpf4jnsgd1na2vs0mg"},{"bike_id":"cd01429b-75bd-4cd2-b070-bbc3cec7343d","system_id":"levelo_inurba_marseille","lat":43.2408,"lon":5.37754,"is_reserved":false,"is_disabled":false,"rental_uris":{"android":"levelo://app?vid=cd01429b-75bd-4cd2-b070-bbc3cec7343d","ios":"levelo://app?vid=cd01429b-75bd-4cd2-b070-bbc3cec7343d"},"vehicle_type_id":"4","last_reported":1726556905,"current_range_meters":27200,"station_id":"ce4bhnp2rcd13ifvqgvg","pricing_plan_id":"cebpf4jnsgd1na2vs0mg"},{"bike_id":"8a14e327-f1ba-4fa7-932f-68c0a0975b98","system_id":"levelo_inurba_marseille","lat":43.33615,"lon":5.41021,"is_reserved":false,"is_disabled":false,"rental_uris":{"android":"levelo://app?vid=8a14e327-f1ba-4fa7-932f-68c0a0975b98","ios":"levelo://app?vid=8a14e327-f1ba-4fa7-932f-68c0a0975b98"},"vehicle_type_id":"4","last_reported":1726556905,"current_range_meters":40000,"station_id":"ce4bhqh2rcd13ifvqhmg","pricing_plan_id":"cebpf4jnsgd1na2vs0mg"},{"bike_id":"49de5753-4f9a-407f-8910-e3312496fc05","system_id":"levelo_inurba_marseille","lat":43.28698,"lon":5.39987,"is_reserved":false,"is_disabled":false,"rental_uris":{"android":"levelo://app?vid=49de5753-4f9a-407f-8910-e3312496fc05","ios":"levelo://app?vid=49de5753-4f9a-407f-8910-e3312496fc05"},"vehicle_type_id":"4","last_reported":1726556905,"current_range_meters":16400,"station_id":"ce4bho92rcd13ifvqh3g","pricing_plan_id":"cebpf4jnsgd1na2vs0mg"},{"bike_id":"c38cc822-8a7c-4c1b-af0a-acaa151e2dad","system_id":"levelo_inurba_marseille","lat":43.33733,"lon":5.39186,"is_reserved":false,"is_disabled":false,"rental_uris":{"android":"levelo://app?vid=c38cc822-8a7c-4c1b-af0a-acaa151e2dad","ios":"levelo://app?vid=c38cc822-8a7c-4c1b-af0a-acaa151e2dad"},"vehicle_type_id":"4","last_reported":1726556905,"current_range_meters":29600,"station_id":"ce4bhr92rcd13ifvqhsg","pricing_plan_id":"cebpf4jnsgd1na2vs0mg"},{"bike_id":"b1db6496-7d7b-4acc-a88c-e5406d38e100","system_id":"levelo_inurba_marseille","lat":43.23195,"lon":5.35556,"is_reserved":false,"is_disabled":false,"rental_uris":{"android":"levelo://app?vid=b1db6496-7d7b-4acc-a88c-e5406d38e100","ios":"levelo://app?vid=b1db6496-7d7b-4acc-a88c-e5406d38e100"},"vehicle_type_id":"4","last_reported":1726556905,"current_range_meters":28000,"station_id":"ce4bhu92rcd13ifvqi70","pricing_plan_id":"cebpf4jnsgd1na2vs0mg"},{"bike_id":"a1006a58-28fc-4eb7-b2fa-ec4943a265c1","system_id":"levelo_inurba_marseille","lat":43.27492,"lon":5.42459,"is_reserved":false,"is_disabled":false,"rental_uris":{"android":"levelo://app?vid=a1006a58-28fc-4eb7-b2fa-ec4943a265c1","ios":"levelo://app?vid=a1006a58-28fc-4eb7-b2fa-ec4943a265c1"},"vehicle_type_id":"4","last_reported":1726556905,"current_range_meters":28400,"station_id":"ce4bhn92rcd13ifvqgrg","pricing_plan_id":"cebpf4jnsgd1na2vs0mg"},{"bike_id":"3a7e7c8e-287d-4a2b-ba01-e006f35ac0fa","system_id":"levelo_inurba_marseille","lat":43.292,"lon":5.3579,"is_reserved":false,"is_disabled":false,"rental_uris":{"android":"levelo://app?vid=3a7e7c8e-287d-4a2b-ba01-e006f35ac0fa","ios":"levelo://app?vid=3a7e7c8e-287d-4a2b-ba01-e006f35ac0fa"},"vehicle_type_id":"4","last_reported":1726556905,"current_range_meters":7200,"station_id":"ce4bhb12rcd13ifvqel0","pricing_plan_id":"cebpf4jnsgd1na2vs0mg"},{"bike_id":"55f5c8f3-5999-4159-8c1d-c27b4dfccd6c","system_id":"levelo_inurba_marseille","lat":43.25864,"lon":5.39899,"is_reserved":false,"is_disabled":false,"rental_uris":{"android":"levelo://app?vid=55f5c8f3-5999-4159-8c1d-c27b4dfccd6c","ios":"levelo://app?vid=55f5c8f3-5999-4159-8c1d-c27b4dfccd6c"},"vehicle_type_id":"4","last_reported":1726556905,"current_range_meters":34800,"station_id":"ce4bhl92rcd13ifvqghg","pricing_plan_id":"cebpf4jnsgd1na2vs0mg"},{"bike_id":"c69cdd71-b25b-4600-bcd7-4a8738c494ae","system_id":"levelo_inurba_marseille","lat":43.30194,"lon":5.36615,"is_reserved":false,"is_disabled":false,"rental_uris":{"android":"levelo://app?vid=c69cdd71-b25b-4600-bcd7-4a8738c494ae","ios":"levelo://app?vid=c69cdd71-b25b-4600-bcd7-4a8738c494ae"},"vehicle_type_id":"4","last_reported":1726556905,"current_range_meters":33600,"station_id":"ce4bgrh2rcd13ifvqc8g","pricing_plan_id":"cebpf4jnsgd1na2vs0mg"},{"bike_id":"733e4865-3357-4a1f-819b-4a724885d4e3","system_id":"levelo_inurba_marseille","lat":43.26924,"lon":5.38638,"is_reserved":false,"is_disabled":false,"rental_uris":{"android":"levelo://app?vid=733e4865-3357-4a1f-819b-4a724885d4e3","ios":"levelo://app?vid=733e4865-3357-4a1f-819b-4a724885d4e3"},"vehicle_type_id":"4","last_reported":1726556905,"current_range_meters":33600,"station_id":"ce4bhh92rcd13ifvqfh0","pricing_plan_id":"cebpf4jnsgd1na2vs0mg"},{"bike_id":"5cf4c2f1-f092-4550-b8cf-369099ebc3bc","system_id":"levelo_inurba_marseille","lat":43.24564,"lon":5.41556,"is_reserved":false,"is_disabled":false,"rental_uris":{"android":"levelo://app?vid=5cf4c2f1-f092-4550-b8cf-369099ebc3bc","ios":"levelo://app?vid=5cf4c2f1-f092-4550-b8cf-369099ebc3bc"},"vehicle_type_id":"4","last_reported":1726556905,"current_range_meters":3600,"station_id":"ce4bhlh2rcd13ifvqgig","pricing_plan_id":"cebpf4jnsgd1na2vs0mg"},{"bike_id":"46617874-6777-4620-8f96-2d9ffa2549bc","system_id":"levelo_inurba_marseille","lat":43.27497,"lon":5.42449,"is_reserved":false,"is_disabled":false,"rental_uris":{"android":"levelo://app?vid=46617874-6777-4620-8f96-2d9ffa2549bc","ios":"levelo://app?vid=46617874-6777-4620-8f96-2d9ffa2549bc"},"vehicle_type_id":"4","last_reported":1726556905,"current_range_meters":4400,"station_id":"ce4bhn92rcd13ifvqgrg","pricing_plan_id":"cebpf4jnsgd1na2vs0mg"},{"bike_id":"acfa855b-c47d-42e8-8790-c6fbf14ff7ee","system_id":"levelo_inurba_marseille","lat":43.30525,"lon":5.36716,"is_reserved":false,"is_disabled":false,"rental_uris":{"android":"levelo://app?vid=acfa855b-c47d-42e8-8790-c6fbf14ff7ee","ios":"levelo://app?vid=acfa855b-c47d-42e8-8790-c6fbf14ff7ee"},"vehicle_type_id":"4","last_reported":1726556905,"current_range_meters":29600,"station_id":"ce4bgrp2rcd13ifvqc9g","pricing_plan_id":"cebpf4jnsgd1na2vs0mg"},{"bike_id":"cc3b8af5-922b-47a4-9520-14c9cfb481c6","system_id":"levelo_inurba_marseille","lat":43.27495,"lon":5.4245,"is_reserved":false,"is_disabled":false,"rental_uris":{"android":"levelo://app?vid=cc3b8af5-922b-47a4-9520-14c9cfb481c6","ios":"levelo://app?vid=cc3b8af5-922b-47a4-9520-14c9cfb481c6"},"vehicle_type_id":"4","last_reported":1726556905,"current_range_meters":9200,"station_id":"ce4bhn92rcd13ifvqgrg","pricing_plan_id":"cebpf4jnsgd1na2vs0mg"},{"bike_id":"4ed2d323-c506-4a77-b713-0e4adf07278b","system_id":"levelo_inurba_marseille","lat":43.302349,"lon":5.377433,"is_reserved":false,"is_disabled":false,"rental_uris":{"android":"levelo://app?vid=4ed2d323-c506-4a77-b713-0e4adf07278b","ios":"levelo://app?vid=4ed2d323-c506-4a77-b713-0e4adf07278b"},"vehicle_type_id":"4","last_reported":1726556905,"current_range_meters":33200,"station_id":"ce4bgs92rcd13ifvqcc0","pricing_plan_id":"cebpf4jnsgd1na2vs0mg"},{"bike_id":"04884778-5690-4178-8e72-aab46e40046b","system_id":"levelo_inurba_marseille","lat":43.287354,"lon":5.352185,"is_reserved":false,"is_disabled":false,"rental_uris":{"android":"levelo://app?vid=04884778-5690-4178-8e72-aab46e40046b","ios":"levelo://app?vid=04884778-5690-4178-8e72-aab46e40046b"},"vehicle_type_id":"4","last_reported":1726556905,"current_range_meters":6000,"station_id":"ce4bgi12rcd13ifvqb70","pricing_plan_id":"cebpf4jnsgd1na2vs0mg"},{"bike_id":"462bda51-f0b7-47ef-b5fd-221aa33ff229","system_id":"levelo_inurba_marseille","lat":43.3114,"lon":5.45705,"is_reserved":false,"is_disabled":false,"rental_uris":{"android":"levelo://app?vid=462bda51-f0b7-47ef-b5fd-221aa33ff229","ios":"levelo://app?vid=462bda51-f0b7-47ef-b5fd-221aa33ff229"},"vehicle_type_id":"4","last_reported":1726556905,"current_range_meters":16000,"station_id":"","pricing_plan_id":"cebpf4jnsgd1na2vs0mg"},{"bike_id":"b645ac77-0d58-4fa9-8ad3-947af8bdb1d9","system_id":"levelo_inurba_marseille","lat":43.29906,"lon":5.43663,"is_reserved":false,"is_disabled":false,"rental_uris":{"android":"levelo://app?vid=b645ac77-0d58-4fa9-8ad3-947af8bdb1d9","ios":"levelo://app?vid=b645ac77-0d58-4fa9-8ad3-947af8bdb1d9"},"vehicle_type_id":"4","last_reported":1726556905,"current_range_meters":25600,"station_id":"ce4bhpp2rcd13ifvqhfg","pricing_plan_id":"cebpf4jnsgd1na2vs0mg"},{"bike_id":"85024fec-5f71-410c-9c6c-b9cab7fd07b8","system_id":"levelo_inurba_marseille","lat":43.27837,"lon":5.39204,"is_reserved":false,"is_disabled":false,"rental_uris":{"android":"levelo://app?vid=85024fec-5f71-410c-9c6c-b9cab7fd07b8","ios":"levelo://app?vid=85024fec-5f71-410c-9c6c-b9cab7fd07b8"},"vehicle_type_id":"4","last_reported":1726556905,"current_range_meters":27200,"station_id":"ce4bhjp2rcd13ifvqga0","pricing_plan_id":"cebpf4jnsgd1na2vs0mg"},{"bike_id":"8c84341b-86f6-465c-bdbd-4e867045aec3","system_id":"levelo_inurba_marseille","lat":43.27433,"lon":5.39408,"is_reserved":false,"is_disabled":false,"rental_uris":{"android":"levelo://app?vid=8c84341b-86f6-465c-bdbd-4e867045aec3","ios":"levelo://app?vid=8c84341b-86f6-465c-bdbd-4e867045aec3"},"vehicle_type_id":"4","last_reported":1726556905,"current_range_meters":36400,"station_id":"ce4bhdp2rcd13ifvqf20","pricing_plan_id":"cebpf4jnsgd1na2vs0mg"},{"bike_id":"1d53a508-0946-4ef0-9d31-e3d5f444a352","system_id":"levelo_inurba_marseille","lat":43.2408,"lon":5.37734,"is_reserved":false,"is_disabled":false,"rental_uris":{"android":"levelo://app?vid=1d53a508-0946-4ef0-9d31-e3d5f444a352","ios":"levelo://app?vid=1d53a508-0946-4ef0-9d31-e3d5f444a352"},"vehicle_type_id":"4","last_reported":1726556905,"current_range_meters":38400,"station_id":"ce4bhnp2rcd13ifvqgvg","pricing_plan_id":"cebpf4jnsgd1na2vs0mg"},{"bike_id":"d07510fb-c4f4-4c85-81e3-a462d20e3255","system_id":"levelo_inurba_marseille","lat":43.23147,"lon":5.43712,"is_reserved":false,"is_disabled":false,"rental_uris":{"android":"levelo://app?vid=d07510fb-c4f4-4c85-81e3-a462d20e3255","ios":"levelo://app?vid=d07510fb-c4f4-4c85-81e3-a462d20e3255"},"vehicle_type_id":"4","last_reported":1726556905,"current_range_meters":30000,"station_id":"ce4bhmp2rcd13ifvqgog","pricing_plan_id":"cebpf4jnsgd1na2vs0mg"},{"bike_id":"7abc2a25-404a-4f70-a7c0-c89315b5c4bc","system_id":"levelo_inurba_marseille","lat":43.31026,"lon":5.4034,"is_reserved":false,"is_disabled":false,"rental_uris":{"android":"levelo://app?vid=7abc2a25-404a-4f70-a7c0-c89315b5c4bc","ios":"levelo://app?vid=7abc2a25-404a-4f70-a7c0-c89315b5c4bc"},"vehicle_type_id":"4","last_reported":1726556905,"current_range_meters":23200,"station_id":"","pricing_plan_id":"cebpf4jnsgd1na2vs0mg"},{"bike_id":"408c5749-702c-43ea-9058-5bebe1ea2111","system_id":"levelo_inurba_marseille","lat":43.27493,"lon":5.42452,"is_reserved":false,"is_disabled":false,"rental_uris":{"android":"levelo://app?vid=408c5749-702c-43ea-9058-5bebe1ea2111","ios":"levelo://app?vid=408c5749-702c-43ea-9058-5bebe1ea2111"},"vehicle_type_id":"4","last_reported":1726556905,"current_range_meters":16400,"station_id":"ce4bhn92rcd13ifvqgrg","pricing_plan_id":"cebpf4jnsgd1na2vs0mg"},{"bike_id":"677498c9-746b-4650-9a8e-2c7479635944","system_id":"levelo_inurba_marseille","lat":43.33026,"lon":5.39046,"is_reserved":false,"is_disabled":false,"rental_uris":{"android":"levelo://app?vid=677498c9-746b-4650-9a8e-2c7479635944","ios":"levelo://app?vid=677498c9-746b-4650-9a8e-2c7479635944"},"vehicle_type_id":"4","last_reported":1726556905,"current_range_meters":23200,"station_id":"ce4bhr92rcd13ifvqhrg","pricing_plan_id":"cebpf4jnsgd1na2vs0mg"},{"bike_id":"1969f0e8-db18-44a6-880d-02a2718bca19","system_id":"levelo_inurba_marseille","lat":43.29906,"lon":5.38143,"is_reserved":false,"is_disabled":false,"rental_uris":{"android":"levelo://app?vid=1969f0e8-db18-44a6-880d-02a2718bca19","ios":"levelo://app?vid=1969f0e8-db18-44a6-880d-02a2718bca19"},"vehicle_type_id":"4","last_reported":1726556905,"current_range_meters":22000,"station_id":"ce4bgj12rcd13ifvqbc0","pricing_plan_id":"cebpf4jnsgd1na2vs0mg"},{"bike_id":"8ad1dd61-51a6-4b68-afa7-87ebac0fe573","system_id":"levelo_inurba_marseille","lat":43.30466,"lon":5.37904,"is_reserved":false,"is_disabled":false,"rental_uris":{"android":"levelo://app?vid=8ad1dd61-51a6-4b68-afa7-87ebac0fe573","ios":"levelo://app?vid=8ad1dd61-51a6-4b68-afa7-87ebac0fe573"},"vehicle_type_id":"4","last_reported":1726556905,"current_range_meters":26000,"station_id":"ce4bgup2rcd13ifvqcn0","pricing_plan_id":"cebpf4jnsgd1na2vs0mg"},{"bike_id":"60c70200-4385-4541-87e7-1ce9306b7c31","system_id":"levelo_inurba_marseille","lat":43.29807,"lon":5.38095,"is_reserved":false,"is_disabled":false,"rental_uris":{"android":"levelo://app?vid=60c70200-4385-4541-87e7-1ce9306b7c31","ios":"levelo://app?vid=60c70200-4385-4541-87e7-1ce9306b7c31"},"vehicle_type_id":"4","last_reported":1726556905,"current_range_meters":18800,"station_id":"ce4bgip2rcd13ifvqbb0","pricing_plan_id":"cebpf4jnsgd1na2vs0mg"},{"bike_id":"a8b06f03-e77e-43b9-af99-245bbe75fa5e","system_id":"levelo_inurba_marseille","lat":43.313481,"lon":5.367057,"is_reserved":false,"is_disabled":false,"rental_uris":{"android":"levelo://app?vid=a8b06f03-e77e-43b9-af99-245bbe75fa5e","ios":"levelo://app?vid=a8b06f03-e77e-43b9-af99-245bbe75fa5e"},"vehicle_type_id":"4","last_reported":1726556905,"current_range_meters":8800,"station_id":"ce4bgr92rcd13ifvqc6g","pricing_plan_id":"cebpf4jnsgd1na2vs0mg"},{"bike_id":"bdb8a970-1d8a-44d9-a25c-635308972fa6","system_id":"levelo_inurba_marseille","lat":43.290235,"lon":5.38129,"is_reserved":false,"is_disabled":false,"rental_uris":{"android":"levelo://app?vid=bdb8a970-1d8a-44d9-a25c-635308972fa6","ios":"levelo://app?vid=bdb8a970-1d8a-44d9-a25c-635308972fa6"},"vehicle_type_id":"4","last_reported":1726556905,"current_range_meters":32800,"station_id":"ce4bh4p2rcd13ifvqe1g","pricing_plan_id":"cebpf4jnsgd1na2vs0mg"},{"bike_id":"7ba5a0d3-87f5-4dbc-8dc8-0d67d795da41","system_id":"levelo_inurba_marseille","lat":43.30915,"lon":5.36851,"is_reserved":false,"is_disabled":false,"rental_uris":{"android":"levelo://app?vid=7ba5a0d3-87f5-4dbc-8dc8-0d67d795da41","ios":"levelo://app?vid=7ba5a0d3-87f5-4dbc-8dc8-0d67d795da41"},"vehicle_type_id":"4","last_reported":1726556905,"current_range_meters":40000,"station_id":"ce4bgn92rcd13ifvqbvg","pricing_plan_id":"cebpf4jnsgd1na2vs0mg"},{"bike_id":"200e7846-b01d-4206-90bc-8ffd01cc9e59","system_id":"levelo_inurba_marseille","lat":43.29894,"lon":5.38883,"is_reserved":false,"is_disabled":false,"rental_uris":{"android":"levelo://app?vid=200e7846-b01d-4206-90bc-8ffd01cc9e59","ios":"levelo://app?vid=200e7846-b01d-4206-90bc-8ffd01cc9e59"},"vehicle_type_id":"4","last_reported":1726556905,"current_range_meters":32000,"station_id":"ce4bh392rcd13ifvqdl0","pricing_plan_id":"cebpf4jnsgd1na2vs0mg"},{"bike_id":"4d8a5314-bcdb-4449-9c44-8c09cb6540df","system_id":"levelo_inurba_marseille","lat":43.24169,"lon":5.36398,"is_reserved":false,"is_disabled":false,"rental_uris":{"android":"levelo://app?vid=4d8a5314-bcdb-4449-9c44-8c09cb6540df","ios":"levelo://app?vid=4d8a5314-bcdb-4449-9c44-8c09cb6540df"},"vehicle_type_id":"4","last_reported":1726556905,"current_range_meters":25600,"station_id":"cpo36qri1sfpv3e86is0","pricing_plan_id":"cebpf4jnsgd1na2vs0mg"},{"bike_id":"15392aa0-90a1-41d4-a66d-995d88d0aa75","system_id":"levelo_inurba_marseille","lat":43.24667,"lon":5.38167,"is_reserved":false,"is_disabled":false,"rental_uris":{"android":"levelo://app?vid=15392aa0-90a1-41d4-a66d-995d88d0aa75","ios":"levelo://app?vid=15392aa0-90a1-41d4-a66d-995d88d0aa75"},"vehicle_type_id":"4","last_reported":1726556905,"current_range_meters":36000,"station_id":"ce4bhih2rcd13ifvqfr0","pricing_plan_id":"cebpf4jnsgd1na2vs0mg"},{"bike_id":"b4148530-ebdb-4fd3-a840-6ebd85f44bf4","system_id":"levelo_inurba_marseille","lat":43.31693,"lon":5.40475,"is_reserved":false,"is_disabled":false,"rental_uris":{"android":"levelo://app?vid=b4148530-ebdb-4fd3-a840-6ebd85f44bf4","ios":"levelo://app?vid=b4148530-ebdb-4fd3-a840-6ebd85f44bf4"},"vehicle_type_id":"4","last_reported":1726556905,"current_range_meters":12000,"station_id":"ce4bh012rcd13ifvqd00","pricing_plan_id":"cebpf4jnsgd1na2vs0mg"},{"bike_id":"1b4b0920-5098-492d-8f45-9d74a5f1adcd","system_id":"levelo_inurba_marseille","lat":43.25442,"lon":5.40143,"is_reserved":false,"is_disabled":false,"rental_uris":{"android":"levelo://app?vid=1b4b0920-5098-492d-8f45-9d74a5f1adcd","ios":"levelo://app?vid=1b4b0920-5098-492d-8f45-9d74a5f1adcd"},"vehicle_type_id":"4","last_reported":1726556905,"current_range_meters":38800,"station_id":"","pricing_plan_id":"cebpf4jnsgd1na2vs0mg"},{"bike_id":"53e67ea1-56b1-4116-a2a9-85fdab695574","system_id":"levelo_inurba_marseille","lat":43.33613,"lon":5.41034,"is_reserved":false,"is_disabled":false,"rental_uris":{"android":"levelo://app?vid=53e67ea1-56b1-4116-a2a9-85fdab695574","ios":"levelo://app?vid=53e67ea1-56b1-4116-a2a9-85fdab695574"},"vehicle_type_id":"4","last_reported":1726556905,"current_range_meters":38800,"station_id":"ce4bhqh2rcd13ifvqhmg","pricing_plan_id":"cebpf4jnsgd1na2vs0mg"},{"bike_id":"adb22759-1154-4b51-b403-078c975471e9","system_id":"levelo_inurba_marseille","lat":43.265625,"lon":5.390101,"is_reserved":false,"is_disabled":false,"rental_uris":{"android":"levelo://app?vid=adb22759-1154-4b51-b403-078c975471e9","ios":"levelo://app?vid=adb22759-1154-4b51-b403-078c975471e9"},"vehicle_type_id":"4","last_reported":1726556905,"current_range_meters":36000,"station_id":"ce4bhe12rcd13ifvqf30","pricing_plan_id":"cebpf4jnsgd1na2vs0mg"},{"bike_id":"4d579e43-d134-468d-832a-405c8e9aa74b","system_id":"levelo_inurba_marseille","lat":43.27559,"lon":5.38419,"is_reserved":false,"is_disabled":false,"rental_uris":{"android":"levelo://app?vid=4d579e43-d134-468d-832a-405c8e9aa74b","ios":"levelo://app?vid=4d579e43-d134-468d-832a-405c8e9aa74b"},"vehicle_type_id":"4","last_reported":1726556905,"current_range_meters":38800,"station_id":"ce4bhh92rcd13ifvqfi0","pricing_plan_id":"cebpf4jnsgd1na2vs0mg"},{"bike_id":"99684f50-b398-427b-a4e9-7ca0a0382c79","system_id":"levelo_inurba_marseille","lat":43.23193,"lon":5.35553,"is_reserved":false,"is_disabled":false,"rental_uris":{"android":"levelo://app?vid=99684f50-b398-427b-a4e9-7ca0a0382c79","ios":"levelo://app?vid=99684f50-b398-427b-a4e9-7ca0a0382c79"},"vehicle_type_id":"4","last_reported":1726556905,"current_range_meters":40000,"station_id":"ce4bhu92rcd13ifvqi70","pricing_plan_id":"cebpf4jnsgd1na2vs0mg"},{"bike_id":"be773dc5-9b42-4b38-a0ee-89fb967121ad","system_id":"levelo_inurba_marseille","lat":43.292755,"lon":5.401129,"is_reserved":false,"is_disabled":false,"rental_uris":{"android":"levelo://app?vid=be773dc5-9b42-4b38-a0ee-89fb967121ad","ios":"levelo://app?vid=be773dc5-9b42-4b38-a0ee-89fb967121ad"},"vehicle_type_id":"4","last_reported":1726556905,"current_range_meters":30800,"station_id":"ce4bgup2rcd13ifvqco0","pricing_plan_id":"cebpf4jnsgd1na2vs0mg"},{"bike_id":"7631bd94-1520-4f34-8e01-b1483f315aab","system_id":"levelo_inurba_marseille","lat":43.26937,"lon":5.38919,"is_reserved":false,"is_disabled":false,"rental_uris":{"android":"levelo://app?vid=7631bd94-1520-4f34-8e01-b1483f315aab","ios":"levelo://app?vid=7631bd94-1520-4f34-8e01-b1483f315aab"},"vehicle_type_id":"4","last_reported":1726556905,"current_range_meters":19600,"station_id":"ce4bhhh2rcd13ifvqfl0","pricing_plan_id":"cebpf4jnsgd1na2vs0mg"},{"bike_id":"72fc7030-6f94-4d4e-a2c9-229c4d4a90f7","system_id":"levelo_inurba_marseille","lat":43.28471,"lon":5.35884,"is_reserved":false,"is_disabled":false,"rental_uris":{"android":"levelo://app?vid=72fc7030-6f94-4d4e-a2c9-229c4d4a90f7","ios":"levelo://app?vid=72fc7030-6f94-4d4e-a2c9-229c4d4a90f7"},"vehicle_type_id":"4","last_reported":1726556905,"current_range_meters":8800,"station_id":"ce4bhah2rcd13ifvqei0","pricing_plan_id":"cebpf4jnsgd1na2vs0mg"},{"bike_id":"ba07389c-7656-4771-bfca-ecf989f73900","system_id":"levelo_inurba_marseille","lat":43.24261,"lon":5.36798,"is_reserved":false,"is_disabled":false,"rental_uris":{"android":"levelo://app?vid=ba07389c-7656-4771-bfca-ecf989f73900","ios":"levelo://app?vid=ba07389c-7656-4771-bfca-ecf989f73900"},"vehicle_type_id":"4","last_reported":1726556905,"current_range_meters":28400,"station_id":"","pricing_plan_id":"cebpf4jnsgd1na2vs0mg"},{"bike_id":"fcf97093-637c-4342-854a-02e456b30eed","system_id":"levelo_inurba_marseille","lat":43.31498,"lon":5.37304,"is_reserved":false,"is_disabled":false,"rental_uris":{"android":"levelo://app?vid=fcf97093-637c-4342-854a-02e456b30eed","ios":"levelo://app?vid=fcf97093-637c-4342-854a-02e456b30eed"},"vehicle_type_id":"4","last_reported":1726556905,"current_range_meters":36800,"station_id":"","pricing_plan_id":"cebpf4jnsgd1na2vs0mg"},{"bike_id":"02024611-646a-4180-b53c-eee37ec4a066","system_id":"levelo_inurba_marseille","lat":43.2696,"lon":5.38643,"is_reserved":false,"is_disabled":false,"rental_uris":{"android":"levelo://app?vid=02024611-646a-4180-b53c-eee37ec4a066","ios":"levelo://app?vid=02024611-646a-4180-b53c-eee37ec4a066"},"vehicle_type_id":"4","last_reported":1726556905,"current_range_meters":28000,"station_id":"ce4bhh92rcd13ifvqfh0","pricing_plan_id":"cebpf4jnsgd1na2vs0mg"},{"bike_id":"0ee7a5e1-a53d-474a-9625-99477ecad597","system_id":"levelo_inurba_marseille","lat":43.22928,"lon":5.35381,"is_reserved":false,"is_disabled":false,"rental_uris":{"android":"levelo://app?vid=0ee7a5e1-a53d-474a-9625-99477ecad597","ios":"levelo://app?vid=0ee7a5e1-a53d-474a-9625-99477ecad597"},"vehicle_type_id":"4","last_reported":1726556905,"current_range_meters":5600,"station_id":"cpo3532slgdg3j2ikp40","pricing_plan_id":"cebpf4jnsgd1na2vs0mg"},{"bike_id":"668684d9-1d40-404b-8351-c850b3ec1e77","system_id":"levelo_inurba_marseille","lat":43.28943,"lon":5.36632,"is_reserved":false,"is_disabled":false,"rental_uris":{"android":"levelo://app?vid=668684d9-1d40-404b-8351-c850b3ec1e77","ios":"levelo://app?vid=668684d9-1d40-404b-8351-c850b3ec1e77"},"vehicle_type_id":"4","last_reported":1726556905,"current_range_meters":35600,"station_id":"ce4bhap2rcd13ifvqek0","pricing_plan_id":"cebpf4jnsgd1na2vs0mg"},{"bike_id":"80ab1714-972b-4792-9a14-68cba7a87ba7","system_id":"levelo_inurba_marseille","lat":43.27499,"lon":5.42452,"is_reserved":false,"is_disabled":false,"rental_uris":{"android":"levelo://app?vid=80ab1714-972b-4792-9a14-68cba7a87ba7","ios":"levelo://app?vid=80ab1714-972b-4792-9a14-68cba7a87ba7"},"vehicle_type_id":"4","last_reported":1726556905,"current_range_meters":30800,"station_id":"ce4bhn92rcd13ifvqgrg","pricing_plan_id":"cebpf4jnsgd1na2vs0mg"},{"bike_id":"d2c54274-6e2d-402a-82da-79b56d9c38e9","system_id":"levelo_inurba_marseille","lat":43.24071,"lon":5.37757,"is_reserved":false,"is_disabled":false,"rental_uris":{"android":"levelo://app?vid=d2c54274-6e2d-402a-82da-79b56d9c38e9","ios":"levelo://app?vid=d2c54274-6e2d-402a-82da-79b56d9c38e9"},"vehicle_type_id":"4","last_reported":1726556905,"current_range_meters":25200,"station_id":"ce4bhnp2rcd13ifvqgvg","pricing_plan_id":"cebpf4jnsgd1na2vs0mg"},{"bike_id":"ad722464-32b1-4125-bf35-54f1e4aed3dd","system_id":"levelo_inurba_marseille","lat":43.24076,"lon":5.37759,"is_reserved":false,"is_disabled":false,"rental_uris":{"android":"levelo://app?vid=ad722464-32b1-4125-bf35-54f1e4aed3dd","ios":"levelo://app?vid=ad722464-32b1-4125-bf35-54f1e4aed3dd"},"vehicle_type_id":"4","last_reported":1726556905,"current_range_meters":6800,"station_id":"ce4bhnp2rcd13ifvqgvg","pricing_plan_id":"cebpf4jnsgd1na2vs0mg"},{"bike_id":"bb45ef2e-9e99-472e-92c5-2c9843867edb","system_id":"levelo_inurba_marseille","lat":43.30213,"lon":5.394731,"is_reserved":false,"is_disabled":false,"rental_uris":{"android":"levelo://app?vid=bb45ef2e-9e99-472e-92c5-2c9843867edb","ios":"levelo://app?vid=bb45ef2e-9e99-472e-92c5-2c9843867edb"},"vehicle_type_id":"4","last_reported":1726556905,"current_range_meters":17200,"station_id":"ce4bh0p2rcd13ifvqd70","pricing_plan_id":"cebpf4jnsgd1na2vs0mg"},{"bike_id":"fd4b7ced-c493-4cf3-92ec-d655c073f52e","system_id":"levelo_inurba_marseille","lat":43.25939,"lon":5.40903,"is_reserved":false,"is_disabled":false,"rental_uris":{"android":"levelo://app?vid=fd4b7ced-c493-4cf3-92ec-d655c073f52e","ios":"levelo://app?vid=fd4b7ced-c493-4cf3-92ec-d655c073f52e"},"vehicle_type_id":"4","last_reported":1726556905,"current_range_meters":37600,"station_id":"ce4bhm92rcd13ifvqglg","pricing_plan_id":"cebpf4jnsgd1na2vs0mg"},{"bike_id":"fed25c85-b3e7-4093-a992-a9eacb54e345","system_id":"levelo_inurba_marseille","lat":43.23195,"lon":5.35549,"is_reserved":false,"is_disabled":false,"rental_uris":{"android":"levelo://app?vid=fed25c85-b3e7-4093-a992-a9eacb54e345","ios":"levelo://app?vid=fed25c85-b3e7-4093-a992-a9eacb54e345"},"vehicle_type_id":"4","last_reported":1726556905,"current_range_meters":38400,"station_id":"ce4bhu92rcd13ifvqi70","pricing_plan_id":"cebpf4jnsgd1na2vs0mg"},{"bike_id":"e0e3ce47-6512-45e6-b84e-afd8802c8af3","system_id":"levelo_inurba_marseille","lat":43.30479,"lon":5.37907,"is_reserved":false,"is_disabled":false,"rental_uris":{"android":"levelo://app?vid=e0e3ce47-6512-45e6-b84e-afd8802c8af3","ios":"levelo://app?vid=e0e3ce47-6512-45e6-b84e-afd8802c8af3"},"vehicle_type_id":"4","last_reported":1726556905,"current_range_meters":38800,"station_id":"ce4bgup2rcd13ifvqcn0","pricing_plan_id":"cebpf4jnsgd1na2vs0mg"},{"bike_id":"57481d6e-7a93-4a46-89e0-ed7c2221bd90","system_id":"levelo_inurba_marseille","lat":43.30468,"lon":5.37906,"is_reserved":false,"is_disabled":false,"rental_uris":{"android":"levelo://app?vid=57481d6e-7a93-4a46-89e0-ed7c2221bd90","ios":"levelo://app?vid=57481d6e-7a93-4a46-89e0-ed7c2221bd90"},"vehicle_type_id":"4","last_reported":1726556905,"current_range_meters":25600,"station_id":"ce4bgup2rcd13ifvqcn0","pricing_plan_id":"cebpf4jnsgd1na2vs0mg"},{"bike_id":"0ae883a0-9800-41cb-b92c-319fb31ae4ee","system_id":"levelo_inurba_marseille","lat":43.28343,"lon":5.38101,"is_reserved":false,"is_disabled":false,"rental_uris":{"android":"levelo://app?vid=0ae883a0-9800-41cb-b92c-319fb31ae4ee","ios":"levelo://app?vid=0ae883a0-9800-41cb-b92c-319fb31ae4ee"},"vehicle_type_id":"4","last_reported":1726556905,"current_range_meters":20000,"station_id":"ce4bh412rcd13ifvqdr0","pricing_plan_id":"cebpf4jnsgd1na2vs0mg"},{"bike_id":"85783084-3a1e-403e-ab0a-bf6398a9a0da","system_id":"levelo_inurba_marseille","lat":43.24075,"lon":5.37759,"is_reserved":false,"is_disabled":false,"rental_uris":{"android":"levelo://app?vid=85783084-3a1e-403e-ab0a-bf6398a9a0da","ios":"levelo://app?vid=85783084-3a1e-403e-ab0a-bf6398a9a0da"},"vehicle_type_id":"4","last_reported":1726556905,"current_range_meters":30800,"station_id":"ce4bhnp2rcd13ifvqgvg","pricing_plan_id":"cebpf4jnsgd1na2vs0mg"},{"bike_id":"ff429acc-ec75-4994-a841-cfe907851975","system_id":"levelo_inurba_marseille","lat":43.30474,"lon":5.37907,"is_reserved":false,"is_disabled":false,"rental_uris":{"android":"levelo://app?vid=ff429acc-ec75-4994-a841-cfe907851975","ios":"levelo://app?vid=ff429acc-ec75-4994-a841-cfe907851975"},"vehicle_type_id":"4","last_reported":1726556905,"current_range_meters":34000,"station_id":"ce4bgup2rcd13ifvqcn0","pricing_plan_id":"cebpf4jnsgd1na2vs0mg"},{"bike_id":"6ad2fe94-195b-4d58-9ac6-d3a9675a4c80","system_id":"levelo_inurba_marseille","lat":43.23067,"lon":5.35491,"is_reserved":false,"is_disabled":false,"rental_uris":{"android":"levelo://app?vid=6ad2fe94-195b-4d58-9ac6-d3a9675a4c80","ios":"levelo://app?vid=6ad2fe94-195b-4d58-9ac6-d3a9675a4c80"},"vehicle_type_id":"4","last_reported":1726556905,"current_range_meters":11200,"station_id":"cpo3342slgdg3j2ifvpg","pricing_plan_id":"cebpf4jnsgd1na2vs0mg"},{"bike_id":"6dd17a2f-59bb-4453-859d-2c09ab795824","system_id":"levelo_inurba_marseille","lat":43.3302,"lon":5.39049,"is_reserved":false,"is_disabled":false,"rental_uris":{"android":"levelo://app?vid=6dd17a2f-59bb-4453-859d-2c09ab795824","ios":"levelo://app?vid=6dd17a2f-59bb-4453-859d-2c09ab795824"},"vehicle_type_id":"4","last_reported":1726556905,"current_range_meters":32400,"station_id":"ce4bhr92rcd13ifvqhrg","pricing_plan_id":"cebpf4jnsgd1na2vs0mg"},{"bike_id":"d131c331-6952-49d2-a84c-c308b6cf3938","system_id":"levelo_inurba_marseille","lat":43.26504,"lon":5.39544,"is_reserved":false,"is_disabled":false,"rental_uris":{"android":"levelo://app?vid=d131c331-6952-49d2-a84c-c308b6cf3938","ios":"levelo://app?vid=d131c331-6952-49d2-a84c-c308b6cf3938"},"vehicle_type_id":"4","last_reported":1726556905,"current_range_meters":22800,"station_id":"ce4bhi12rcd13ifvqfq0","pricing_plan_id":"cebpf4jnsgd1na2vs0mg"},{"bike_id":"c2ecb147-8ee1-4803-aa1c-5a9b13d8ea1c","system_id":"levelo_inurba_marseille","lat":43.23153,"lon":5.43711,"is_reserved":false,"is_disabled":false,"rental_uris":{"android":"levelo://app?vid=c2ecb147-8ee1-4803-aa1c-5a9b13d8ea1c","ios":"levelo://app?vid=c2ecb147-8ee1-4803-aa1c-5a9b13d8ea1c"},"vehicle_type_id":"4","last_reported":1726556905,"current_range_meters":38800,"station_id":"ce4bhmp2rcd13ifvqgog","pricing_plan_id":"cebpf4jnsgd1na2vs0mg"},{"bike_id":"8ac17af3-1087-4030-8684-fc752197666e","system_id":"levelo_inurba_marseille","lat":43.32368,"lon":5.3888,"is_reserved":false,"is_disabled":false,"rental_uris":{"android":"levelo://app?vid=8ac17af3-1087-4030-8684-fc752197666e","ios":"levelo://app?vid=8ac17af3-1087-4030-8684-fc752197666e"},"vehicle_type_id":"4","last_reported":1726556905,"current_range_meters":18800,"station_id":"ce4bhqp2rcd13ifvqhog","pricing_plan_id":"cebpf4jnsgd1na2vs0mg"},{"bike_id":"0d297bcf-29bf-425c-940a-522de6957406","system_id":"levelo_inurba_marseille","lat":43.31229,"lon":5.36849,"is_reserved":false,"is_disabled":false,"rental_uris":{"android":"levelo://app?vid=0d297bcf-29bf-425c-940a-522de6957406","ios":"levelo://app?vid=0d297bcf-29bf-425c-940a-522de6957406"},"vehicle_type_id":"4","last_reported":1726556905,"current_range_meters":36400,"station_id":"ce4bgl92rcd13ifvqbq0","pricing_plan_id":"cebpf4jnsgd1na2vs0mg"},{"bike_id":"0b6f52e3-a463-4a36-9433-623ab8b86d82","system_id":"levelo_inurba_marseille","lat":43.246494,"lon":5.3889,"is_reserved":false,"is_disabled":false,"rental_uris":{"android":"levelo://app?vid=0b6f52e3-a463-4a36-9433-623ab8b86d82","ios":"levelo://app?vid=0b6f52e3-a463-4a36-9433-623ab8b86d82"},"vehicle_type_id":"4","last_reported":1726556905,"current_range_meters":38800,"station_id":"ce4bhg12rcd13ifvqf60","pricing_plan_id":"cebpf4jnsgd1na2vs0mg"},{"bike_id":"a0da9788-6ad0-4bd2-9978-72c1654ca4ea","system_id":"levelo_inurba_marseille","lat":43.32368,"lon":5.38884,"is_reserved":false,"is_disabled":false,"rental_uris":{"android":"levelo://app?vid=a0da9788-6ad0-4bd2-9978-72c1654ca4ea","ios":"levelo://app?vid=a0da9788-6ad0-4bd2-9978-72c1654ca4ea"},"vehicle_type_id":"4","last_reported":1726556905,"current_range_meters":16400,"station_id":"ce4bhqp2rcd13ifvqhog","pricing_plan_id":"cebpf4jnsgd1na2vs0mg"},{"bike_id":"f11293b9-5944-418c-9cea-2087ec8521d3","system_id":"levelo_inurba_marseille","lat":43.3123,"lon":5.36849,"is_reserved":false,"is_disabled":false,"rental_uris":{"android":"levelo://app?vid=f11293b9-5944-418c-9cea-2087ec8521d3","ios":"levelo://app?vid=f11293b9-5944-418c-9cea-2087ec8521d3"},"vehicle_type_id":"4","last_reported":1726556905,"current_range_meters":16400,"station_id":"ce4bgl92rcd13ifvqbq0","pricing_plan_id":"cebpf4jnsgd1na2vs0mg"},{"bike_id":"0db88feb-1f89-40f0-8f77-ba7ba60b5ea5","system_id":"levelo_inurba_marseille","lat":43.30467,"lon":5.37902,"is_reserved":false,"is_disabled":false,"rental_uris":{"android":"levelo://app?vid=0db88feb-1f89-40f0-8f77-ba7ba60b5ea5","ios":"levelo://app?vid=0db88feb-1f89-40f0-8f77-ba7ba60b5ea5"},"vehicle_type_id":"4","last_reported":1726556905,"current_range_meters":22800,"station_id":"ce4bgup2rcd13ifvqcn0","pricing_plan_id":"cebpf4jnsgd1na2vs0mg"},{"bike_id":"ee2a6f6f-8fd5-4be5-b404-f76250f2e4dc","system_id":"levelo_inurba_marseille","lat":43.27504,"lon":5.42452,"is_reserved":false,"is_disabled":false,"rental_uris":{"android":"levelo://app?vid=ee2a6f6f-8fd5-4be5-b404-f76250f2e4dc","ios":"levelo://app?vid=ee2a6f6f-8fd5-4be5-b404-f76250f2e4dc"},"vehicle_type_id":"4","last_reported":1726556905,"current_range_meters":38800,"station_id":"ce4bhn92rcd13ifvqgrg","pricing_plan_id":"cebpf4jnsgd1na2vs0mg"},{"bike_id":"22f26e89-4ccd-47af-bb30-5f037502847c","system_id":"levelo_inurba_marseille","lat":43.23182,"lon":5.39997,"is_reserved":false,"is_disabled":false,"rental_uris":{"android":"levelo://app?vid=22f26e89-4ccd-47af-bb30-5f037502847c","ios":"levelo://app?vid=22f26e89-4ccd-47af-bb30-5f037502847c"},"vehicle_type_id":"4","last_reported":1726556905,"current_range_meters":28800,"station_id":"ce4bhn12rcd13ifvqgqg","pricing_plan_id":"cebpf4jnsgd1na2vs0mg"},{"bike_id":"9c579096-e080-44bf-aaa7-01ac5e4c6a2c","system_id":"levelo_inurba_marseille","lat":43.30951,"lon":5.39028,"is_reserved":false,"is_disabled":false,"rental_uris":{"android":"levelo://app?vid=9c579096-e080-44bf-aaa7-01ac5e4c6a2c","ios":"levelo://app?vid=9c579096-e080-44bf-aaa7-01ac5e4c6a2c"},"vehicle_type_id":"4","last_reported":1726556905,"current_range_meters":39200,"station_id":"ce4bgup2rcd13ifvqco0","pricing_plan_id":"cebpf4jnsgd1na2vs0mg"},{"bike_id":"554d81b8-560a-44bc-a55a-ab89e7e7b741","system_id":"levelo_inurba_marseille","lat":43.28618,"lon":5.35103,"is_reserved":false,"is_disabled":false,"rental_uris":{"android":"levelo://app?vid=554d81b8-560a-44bc-a55a-ab89e7e7b741","ios":"levelo://app?vid=554d81b8-560a-44bc-a55a-ab89e7e7b741"},"vehicle_type_id":"4","last_reported":1726556905,"current_range_meters":38800,"station_id":"ce4bhch2rcd13ifvqeug","pricing_plan_id":"cebpf4jnsgd1na2vs0mg"},{"bike_id":"bdef3c6a-6514-448a-9912-f0f02be8b256","system_id":"levelo_inurba_marseille","lat":43.231476,"lon":5.437128,"is_reserved":false,"is_disabled":false,"rental_uris":{"android":"levelo://app?vid=bdef3c6a-6514-448a-9912-f0f02be8b256","ios":"levelo://app?vid=bdef3c6a-6514-448a-9912-f0f02be8b256"},"vehicle_type_id":"4","last_reported":1726556905,"current_range_meters":32400,"station_id":"ce4bhmp2rcd13ifvqgog","pricing_plan_id":"cebpf4jnsgd1na2vs0mg"},{"bike_id":"4116b19f-3bd6-44e6-a4e0-283059e35145","system_id":"levelo_inurba_marseille","lat":43.24072,"lon":5.37758,"is_reserved":false,"is_disabled":false,"rental_uris":{"android":"levelo://app?vid=4116b19f-3bd6-44e6-a4e0-283059e35145","ios":"levelo://app?vid=4116b19f-3bd6-44e6-a4e0-283059e35145"},"vehicle_type_id":"4","last_reported":1726556905,"current_range_meters":27600,"station_id":"ce4bhnp2rcd13ifvqgvg","pricing_plan_id":"cebpf4jnsgd1na2vs0mg"},{"bike_id":"0d830da1-088f-410f-befa-e68ac04cbdf5","system_id":"levelo_inurba_marseille","lat":43.24081,"lon":5.3775,"is_reserved":false,"is_disabled":false,"rental_uris":{"android":"levelo://app?vid=0d830da1-088f-410f-befa-e68ac04cbdf5","ios":"levelo://app?vid=0d830da1-088f-410f-befa-e68ac04cbdf5"},"vehicle_type_id":"4","last_reported":1726556905,"current_range_meters":31200,"station_id":"ce4bhnp2rcd13ifvqgvg","pricing_plan_id":"cebpf4jnsgd1na2vs0mg"},{"bike_id":"65eecb51-7024-4f30-af20-d65f809bce2b","system_id":"levelo_inurba_marseille","lat":43.31481,"lon":5.38334,"is_reserved":false,"is_disabled":false,"rental_uris":{"android":"levelo://app?vid=65eecb51-7024-4f30-af20-d65f809bce2b","ios":"levelo://app?vid=65eecb51-7024-4f30-af20-d65f809bce2b"},"vehicle_type_id":"4","last_reported":1726556905,"current_range_meters":8800,"station_id":"ce4bgvp2rcd13ifvqcu0","pricing_plan_id":"cebpf4jnsgd1na2vs0mg"},{"bike_id":"c034b2d4-b5bc-412f-bc1e-4b54e7a2ef44","system_id":"levelo_inurba_marseille","lat":43.27494,"lon":5.42455,"is_reserved":false,"is_disabled":false,"rental_uris":{"android":"levelo://app?vid=c034b2d4-b5bc-412f-bc1e-4b54e7a2ef44","ios":"levelo://app?vid=c034b2d4-b5bc-412f-bc1e-4b54e7a2ef44"},"vehicle_type_id":"4","last_reported":1726556905,"current_range_meters":38000,"station_id":"ce4bhn92rcd13ifvqgrg","pricing_plan_id":"cebpf4jnsgd1na2vs0mg"},{"bike_id":"714bd286-0914-421a-ac78-a8aec3d8de06","system_id":"levelo_inurba_marseille","lat":43.31715,"lon":5.43706,"is_reserved":false,"is_disabled":false,"rental_uris":{"android":"levelo://app?vid=714bd286-0914-421a-ac78-a8aec3d8de06","ios":"levelo://app?vid=714bd286-0914-421a-ac78-a8aec3d8de06"},"vehicle_type_id":"4","last_reported":1726556905,"current_range_meters":6000,"station_id":"ce4bhp92rcd13ifvqhcg","pricing_plan_id":"cebpf4jnsgd1na2vs0mg"},{"bike_id":"90ac149a-3a95-4b27-be6a-2683b4b59c04","system_id":"levelo_inurba_marseille","lat":43.32364,"lon":5.38888,"is_reserved":false,"is_disabled":false,"rental_uris":{"android":"levelo://app?vid=90ac149a-3a95-4b27-be6a-2683b4b59c04","ios":"levelo://app?vid=90ac149a-3a95-4b27-be6a-2683b4b59c04"},"vehicle_type_id":"4","last_reported":1726556905,"current_range_meters":26800,"station_id":"ce4bhqp2rcd13ifvqhog","pricing_plan_id":"cebpf4jnsgd1na2vs0mg"},{"bike_id":"9e6acc5e-94a7-4e9f-94a9-f4362cac3b04","system_id":"levelo_inurba_marseille","lat":43.30907,"lon":5.36852,"is_reserved":false,"is_disabled":false,"rental_uris":{"android":"levelo://app?vid=9e6acc5e-94a7-4e9f-94a9-f4362cac3b04","ios":"levelo://app?vid=9e6acc5e-94a7-4e9f-94a9-f4362cac3b04"},"vehicle_type_id":"4","last_reported":1726556905,"current_range_meters":40000,"station_id":"ce4bgn92rcd13ifvqbvg","pricing_plan_id":"cebpf4jnsgd1na2vs0mg"},{"bike_id":"f5c0e1e2-2d50-430f-b096-cc74d6ddc37d","system_id":"levelo_inurba_marseille","lat":43.27496,"lon":5.42451,"is_reserved":false,"is_disabled":false,"rental_uris":{"android":"levelo://app?vid=f5c0e1e2-2d50-430f-b096-cc74d6ddc37d","ios":"levelo://app?vid=f5c0e1e2-2d50-430f-b096-cc74d6ddc37d"},"vehicle_type_id":"4","last_reported":1726556905,"current_range_meters":38800,"station_id":"ce4bhn92rcd13ifvqgrg","pricing_plan_id":"cebpf4jnsgd1na2vs0mg"},{"bike_id":"23dd0c20-fce0-40ea-aaa2-cab4c3dedbd9","system_id":"levelo_inurba_marseille","lat":43.23152,"lon":5.43723,"is_reserved":false,"is_disabled":false,"rental_uris":{"android":"levelo://app?vid=23dd0c20-fce0-40ea-aaa2-cab4c3dedbd9","ios":"levelo://app?vid=23dd0c20-fce0-40ea-aaa2-cab4c3dedbd9"},"vehicle_type_id":"4","last_reported":1726556905,"current_range_meters":10800,"station_id":"ce4bhmp2rcd13ifvqgog","pricing_plan_id":"cebpf4jnsgd1na2vs0mg"},{"bike_id":"4d47fd35-f1ea-40e7-ad44-3da2fd66b9c0","system_id":"levelo_inurba_marseille","lat":43.27495,"lon":5.42451,"is_reserved":false,"is_disabled":false,"rental_uris":{"android":"levelo://app?vid=4d47fd35-f1ea-40e7-ad44-3da2fd66b9c0","ios":"levelo://app?vid=4d47fd35-f1ea-40e7-ad44-3da2fd66b9c0"},"vehicle_type_id":"4","last_reported":1726556905,"current_range_meters":20000,"station_id":"ce4bhn92rcd13ifvqgrg","pricing_plan_id":"cebpf4jnsgd1na2vs0mg"},{"bike_id":"1a72562e-4a87-4b67-a557-27799b4d5715","system_id":"levelo_inurba_marseille","lat":43.309509,"lon":5.369355,"is_reserved":false,"is_disabled":false,"rental_uris":{"android":"levelo://app?vid=1a72562e-4a87-4b67-a557-27799b4d5715","ios":"levelo://app?vid=1a72562e-4a87-4b67-a557-27799b4d5715"},"vehicle_type_id":"4","last_reported":1726556905,"current_range_meters":25600,"station_id":"ce4bgn92rcd13ifvqbvg","pricing_plan_id":"cebpf4jnsgd1na2vs0mg"},{"bike_id":"fb389055-f66c-4e32-b271-86411d587f5d","system_id":"levelo_inurba_marseille","lat":43.30324,"lon":5.36903,"is_reserved":false,"is_disabled":false,"rental_uris":{"android":"levelo://app?vid=fb389055-f66c-4e32-b271-86411d587f5d","ios":"levelo://app?vid=fb389055-f66c-4e32-b271-86411d587f5d"},"vehicle_type_id":"4","last_reported":1726556905,"current_range_meters":40000,"station_id":"ce4bgqh2rcd13ifvqc5g","pricing_plan_id":"cebpf4jnsgd1na2vs0mg"},{"bike_id":"7d3ad1fc-93c4-42a1-ae95-09f5f0839ad5","system_id":"levelo_inurba_marseille","lat":43.24548,"lon":5.39524,"is_reserved":false,"is_disabled":false,"rental_uris":{"android":"levelo://app?vid=7d3ad1fc-93c4-42a1-ae95-09f5f0839ad5","ios":"levelo://app?vid=7d3ad1fc-93c4-42a1-ae95-09f5f0839ad5"},"vehicle_type_id":"4","last_reported":1726556905,"current_range_meters":39200,"station_id":"ce4bhlp2rcd13ifvqgjg","pricing_plan_id":"cebpf4jnsgd1na2vs0mg"},{"bike_id":"9aff3f9f-e176-43ae-9e12-492612b7ce95","system_id":"levelo_inurba_marseille","lat":43.27491,"lon":5.42458,"is_reserved":false,"is_disabled":false,"rental_uris":{"android":"levelo://app?vid=9aff3f9f-e176-43ae-9e12-492612b7ce95","ios":"levelo://app?vid=9aff3f9f-e176-43ae-9e12-492612b7ce95"},"vehicle_type_id":"4","last_reported":1726556905,"current_range_meters":8000,"station_id":"ce4bhn92rcd13ifvqgrg","pricing_plan_id":"cebpf4jnsgd1na2vs0mg"},{"bike_id":"7dd25116-4b08-418f-b59a-2cd52163c135","system_id":"levelo_inurba_marseille","lat":43.24082,"lon":5.37753,"is_reserved":false,"is_disabled":false,"rental_uris":{"android":"levelo://app?vid=7dd25116-4b08-418f-b59a-2cd52163c135","ios":"levelo://app?vid=7dd25116-4b08-418f-b59a-2cd52163c135"},"vehicle_type_id":"4","last_reported":1726556905,"current_range_meters":29600,"station_id":"ce4bhnp2rcd13ifvqgvg","pricing_plan_id":"cebpf4jnsgd1na2vs0mg"},{"bike_id":"8ea79706-33c2-4140-a630-4d917dade742","system_id":"levelo_inurba_marseille","lat":43.2315,"lon":5.43725,"is_reserved":false,"is_disabled":false,"rental_uris":{"android":"levelo://app?vid=8ea79706-33c2-4140-a630-4d917dade742","ios":"levelo://app?vid=8ea79706-33c2-4140-a630-4d917dade742"},"vehicle_type_id":"4","last_reported":1726556905,"current_range_meters":18800,"station_id":"ce4bhmp2rcd13ifvqgog","pricing_plan_id":"cebpf4jnsgd1na2vs0mg"},{"bike_id":"1f38c15a-9705-4563-aafc-3c0e4b2a60f8","system_id":"levelo_inurba_marseille","lat":43.29846,"lon":5.36268,"is_reserved":false,"is_disabled":false,"rental_uris":{"android":"levelo://app?vid=1f38c15a-9705-4563-aafc-3c0e4b2a60f8","ios":"levelo://app?vid=1f38c15a-9705-4563-aafc-3c0e4b2a60f8"},"vehicle_type_id":"4","last_reported":1726556905,"current_range_meters":38000,"station_id":"ce4bgpp2rcd13ifvqc3g","pricing_plan_id":"cebpf4jnsgd1na2vs0mg"},{"bike_id":"2a74aa2d-f8fa-4b59-af3e-57ccb051a669","system_id":"levelo_inurba_marseille","lat":43.31724,"lon":5.42403,"is_reserved":false,"is_disabled":false,"rental_uris":{"android":"levelo://app?vid=2a74aa2d-f8fa-4b59-af3e-57ccb051a669","ios":"levelo://app?vid=2a74aa2d-f8fa-4b59-af3e-57ccb051a669"},"vehicle_type_id":"4","last_reported":1726556905,"current_range_meters":12800,"station_id":"ce4bhp92rcd13ifvqhbg","pricing_plan_id":"cebpf4jnsgd1na2vs0mg"},{"bike_id":"bcbeea8d-f6dc-4851-a50c-da2835b7354b","system_id":"levelo_inurba_marseille","lat":43.286591,"lon":5.386676,"is_reserved":false,"is_disabled":false,"rental_uris":{"android":"levelo://app?vid=bcbeea8d-f6dc-4851-a50c-da2835b7354b","ios":"levelo://app?vid=bcbeea8d-f6dc-4851-a50c-da2835b7354b"},"vehicle_type_id":"4","last_reported":1726556905,"current_range_meters":4000,"station_id":"ce4bhgp2rcd13ifvqfe0","pricing_plan_id":"cebpf4jnsgd1na2vs0mg"},{"bike_id":"a0227d82-64c2-4d0c-8d37-bf8ad5aa88a0","system_id":"levelo_inurba_marseille","lat":43.2409,"lon":5.37757,"is_reserved":false,"is_disabled":false,"rental_uris":{"android":"levelo://app?vid=a0227d82-64c2-4d0c-8d37-bf8ad5aa88a0","ios":"levelo://app?vid=a0227d82-64c2-4d0c-8d37-bf8ad5aa88a0"},"vehicle_type_id":"4","last_reported":1726556905,"current_range_meters":8400,"station_id":"ce4bhnp2rcd13ifvqgvg","pricing_plan_id":"cebpf4jnsgd1na2vs0mg"},{"bike_id":"33b6c908-b316-43f1-9bed-2df4987833c0","system_id":"levelo_inurba_marseille","lat":43.30919,"lon":5.36849,"is_reserved":false,"is_disabled":false,"rental_uris":{"android":"levelo://app?vid=33b6c908-b316-43f1-9bed-2df4987833c0","ios":"levelo://app?vid=33b6c908-b316-43f1-9bed-2df4987833c0"},"vehicle_type_id":"4","last_reported":1726556905,"current_range_meters":28400,"station_id":"ce4bgn92rcd13ifvqbvg","pricing_plan_id":"cebpf4jnsgd1na2vs0mg"},{"bike_id":"5e44dce9-cd70-42b5-97d2-16690f3be528","system_id":"levelo_inurba_marseille","lat":43.30159,"lon":5.38079,"is_reserved":false,"is_disabled":false,"rental_uris":{"android":"levelo://app?vid=5e44dce9-cd70-42b5-97d2-16690f3be528","ios":"levelo://app?vid=5e44dce9-cd70-42b5-97d2-16690f3be528"},"vehicle_type_id":"4","last_reported":1726556905,"current_range_meters":35600,"station_id":"ce4bgjp2rcd13ifvqbh0","pricing_plan_id":"cebpf4jnsgd1na2vs0mg"},{"bike_id":"04aef8ce-eff2-415b-bf72-b9490ba7170c","system_id":"levelo_inurba_marseille","lat":43.29808,"lon":5.38099,"is_reserved":false,"is_disabled":false,"rental_uris":{"android":"levelo://app?vid=04aef8ce-eff2-415b-bf72-b9490ba7170c","ios":"levelo://app?vid=04aef8ce-eff2-415b-bf72-b9490ba7170c"},"vehicle_type_id":"4","last_reported":1726556905,"current_range_meters":7200,"station_id":"ce4bgip2rcd13ifvqbb0","pricing_plan_id":"cebpf4jnsgd1na2vs0mg"},{"bike_id":"fee3d5bb-6253-48da-96ac-cce5fd5baf46","system_id":"levelo_inurba_marseille","lat":43.30557,"lon":5.36563,"is_reserved":false,"is_disabled":false,"rental_uris":{"android":"levelo://app?vid=fee3d5bb-6253-48da-96ac-cce5fd5baf46","ios":"levelo://app?vid=fee3d5bb-6253-48da-96ac-cce5fd5baf46"},"vehicle_type_id":"4","last_reported":1726556905,"current_range_meters":38800,"station_id":"ce4bgs12rcd13ifvqcag","pricing_plan_id":"cebpf4jnsgd1na2vs0mg"},{"bike_id":"54a39329-f575-4727-ac1f-a5a4ccac54db","system_id":"levelo_inurba_marseille","lat":43.33617,"lon":5.41037,"is_reserved":false,"is_disabled":false,"rental_uris":{"android":"levelo://app?vid=54a39329-f575-4727-ac1f-a5a4ccac54db","ios":"levelo://app?vid=54a39329-f575-4727-ac1f-a5a4ccac54db"},"vehicle_type_id":"4","last_reported":1726556905,"current_range_meters":39200,"station_id":"ce4bhqh2rcd13ifvqhmg","pricing_plan_id":"cebpf4jnsgd1na2vs0mg"},{"bike_id":"cbaf03bf-0340-4293-a424-18d0ef0b595f","system_id":"levelo_inurba_marseille","lat":43.299,"lon":5.43666,"is_reserved":false,"is_disabled":false,"rental_uris":{"android":"levelo://app?vid=cbaf03bf-0340-4293-a424-18d0ef0b595f","ios":"levelo://app?vid=cbaf03bf-0340-4293-a424-18d0ef0b595f"},"vehicle_type_id":"4","last_reported":1726556905,"current_range_meters":24000,"station_id":"ce4bhpp2rcd13ifvqhfg","pricing_plan_id":"cebpf4jnsgd1na2vs0mg"},{"bike_id":"49e200ca-be2e-44c1-88e1-5c0a88694170","system_id":"levelo_inurba_marseille","lat":43.30476,"lon":5.36537,"is_reserved":false,"is_disabled":false,"rental_uris":{"android":"levelo://app?vid=49e200ca-be2e-44c1-88e1-5c0a88694170","ios":"levelo://app?vid=49e200ca-be2e-44c1-88e1-5c0a88694170"},"vehicle_type_id":"4","last_reported":1726556905,"current_range_meters":35600,"station_id":"","pricing_plan_id":"cebpf4jnsgd1na2vs0mg"},{"bike_id":"7e7b62f4-546f-4960-893e-4d736b485402","system_id":"levelo_inurba_marseille","lat":43.24076,"lon":5.37762,"is_reserved":false,"is_disabled":false,"rental_uris":{"android":"levelo://app?vid=7e7b62f4-546f-4960-893e-4d736b485402","ios":"levelo://app?vid=7e7b62f4-546f-4960-893e-4d736b485402"},"vehicle_type_id":"4","last_reported":1726556905,"current_range_meters":16800,"station_id":"ce4bhnp2rcd13ifvqgvg","pricing_plan_id":"cebpf4jnsgd1na2vs0mg"},{"bike_id":"8144e681-99b6-4bff-944f-607cf60b3d39","system_id":"levelo_inurba_marseille","lat":43.287079,"lon":5.379369,"is_reserved":false,"is_disabled":false,"rental_uris":{"android":"levelo://app?vid=8144e681-99b6-4bff-944f-607cf60b3d39","ios":"levelo://app?vid=8144e681-99b6-4bff-944f-607cf60b3d39"},"vehicle_type_id":"4","last_reported":1726556905,"current_range_meters":6800,"station_id":"ce4bh9p2rcd13ifvqec0","pricing_plan_id":"cebpf4jnsgd1na2vs0mg"},{"bike_id":"f3c2635b-194e-4fed-8af4-f50c9d56b5c5","system_id":"levelo_inurba_marseille","lat":43.30154,"lon":5.38075,"is_reserved":false,"is_disabled":false,"rental_uris":{"android":"levelo://app?vid=f3c2635b-194e-4fed-8af4-f50c9d56b5c5","ios":"levelo://app?vid=f3c2635b-194e-4fed-8af4-f50c9d56b5c5"},"vehicle_type_id":"4","last_reported":1726556905,"current_range_meters":24000,"station_id":"ce4bgjp2rcd13ifvqbh0","pricing_plan_id":"cebpf4jnsgd1na2vs0mg"},{"bike_id":"f78ec244-0aef-4b6c-a1be-b01f3523a44d","system_id":"levelo_inurba_marseille","lat":43.27492,"lon":5.42452,"is_reserved":false,"is_disabled":false,"rental_uris":{"android":"levelo://app?vid=f78ec244-0aef-4b6c-a1be-b01f3523a44d","ios":"levelo://app?vid=f78ec244-0aef-4b6c-a1be-b01f3523a44d"},"vehicle_type_id":"4","last_reported":1726556905,"current_range_meters":33600,"station_id":"ce4bhn92rcd13ifvqgrg","pricing_plan_id":"cebpf4jnsgd1na2vs0mg"},{"bike_id":"b71de538-a719-49bb-8773-2331356ccc3c","system_id":"levelo_inurba_marseille","lat":43.3229,"lon":5.38264,"is_reserved":false,"is_disabled":false,"rental_uris":{"android":"levelo://app?vid=b71de538-a719-49bb-8773-2331356ccc3c","ios":"levelo://app?vid=b71de538-a719-49bb-8773-2331356ccc3c"},"vehicle_type_id":"4","last_reported":1726556905,"current_range_meters":38400,"station_id":"ce4bhr12rcd13ifvqhqg","pricing_plan_id":"cebpf4jnsgd1na2vs0mg"},{"bike_id":"31d7628c-a98b-4127-881d-92022a3abc84","system_id":"levelo_inurba_marseille","lat":43.25931,"lon":5.40903,"is_reserved":false,"is_disabled":false,"rental_uris":{"android":"levelo://app?vid=31d7628c-a98b-4127-881d-92022a3abc84","ios":"levelo://app?vid=31d7628c-a98b-4127-881d-92022a3abc84"},"vehicle_type_id":"4","last_reported":1726556905,"current_range_meters":29600,"station_id":"ce4bhm92rcd13ifvqglg","pricing_plan_id":"cebpf4jnsgd1na2vs0mg"},{"bike_id":"a3dc66ac-ec81-47a5-8dc4-56011c5e10db","system_id":"levelo_inurba_marseille","lat":43.31231,"lon":5.36849,"is_reserved":false,"is_disabled":false,"rental_uris":{"android":"levelo://app?vid=a3dc66ac-ec81-47a5-8dc4-56011c5e10db","ios":"levelo://app?vid=a3dc66ac-ec81-47a5-8dc4-56011c5e10db"},"vehicle_type_id":"4","last_reported":1726556905,"current_range_meters":33200,"station_id":"ce4bgl92rcd13ifvqbq0","pricing_plan_id":"cebpf4jnsgd1na2vs0mg"},{"bike_id":"fb6b2e20-1181-4228-aab7-94d05e809797","system_id":"levelo_inurba_marseille","lat":43.309025,"lon":5.36819,"is_reserved":false,"is_disabled":false,"rental_uris":{"android":"levelo://app?vid=fb6b2e20-1181-4228-aab7-94d05e809797","ios":"levelo://app?vid=fb6b2e20-1181-4228-aab7-94d05e809797"},"vehicle_type_id":"4","last_reported":1726556905,"current_range_meters":9600,"station_id":"ce4bgn92rcd13ifvqbvg","pricing_plan_id":"cebpf4jnsgd1na2vs0mg"},{"bike_id":"071eac86-d03e-442a-8d06-6a3ef33a2470","system_id":"levelo_inurba_marseille","lat":43.3372,"lon":5.3919,"is_reserved":false,"is_disabled":false,"rental_uris":{"android":"levelo://app?vid=071eac86-d03e-442a-8d06-6a3ef33a2470","ios":"levelo://app?vid=071eac86-d03e-442a-8d06-6a3ef33a2470"},"vehicle_type_id":"4","last_reported":1726556905,"current_range_meters":22000,"station_id":"ce4bhr92rcd13ifvqhsg","pricing_plan_id":"cebpf4jnsgd1na2vs0mg"},{"bike_id":"6d5971ef-7d64-4a7a-ad62-70f881be5e52","system_id":"levelo_inurba_marseille","lat":43.30283,"lon":5.37694,"is_reserved":false,"is_disabled":false,"rental_uris":{"android":"levelo://app?vid=6d5971ef-7d64-4a7a-ad62-70f881be5e52","ios":"levelo://app?vid=6d5971ef-7d64-4a7a-ad62-70f881be5e52"},"vehicle_type_id":"4","last_reported":1726556905,"current_range_meters":31200,"station_id":"ce4bguh2rcd13ifvqcj0","pricing_plan_id":"cebpf4jnsgd1na2vs0mg"},{"bike_id":"26a8f5b8-e71e-4e9b-a269-e9196e6d56d7","system_id":"levelo_inurba_marseille","lat":43.30955,"lon":5.39034,"is_reserved":false,"is_disabled":false,"rental_uris":{"android":"levelo://app?vid=26a8f5b8-e71e-4e9b-a269-e9196e6d56d7","ios":"levelo://app?vid=26a8f5b8-e71e-4e9b-a269-e9196e6d56d7"},"vehicle_type_id":"4","last_reported":1726556905,"current_range_meters":24400,"station_id":"ce4bgup2rcd13ifvqco0","pricing_plan_id":"cebpf4jnsgd1na2vs0mg"},{"bike_id":"bf911827-ec75-4eb3-858b-d5154cf79e14","system_id":"levelo_inurba_marseille","lat":43.30536,"lon":5.36727,"is_reserved":false,"is_disabled":false,"rental_uris":{"android":"levelo://app?vid=bf911827-ec75-4eb3-858b-d5154cf79e14","ios":"levelo://app?vid=bf911827-ec75-4eb3-858b-d5154cf79e14"},"vehicle_type_id":"4","last_reported":1726556905,"current_range_meters":26800,"station_id":"ce4bgrp2rcd13ifvqc9g","pricing_plan_id":"cebpf4jnsgd1na2vs0mg"},{"bike_id":"764492cd-7476-4794-9106-061c8cb03c80","system_id":"levelo_inurba_marseille","lat":43.27494,"lon":5.424245,"is_reserved":false,"is_disabled":false,"rental_uris":{"android":"levelo://app?vid=764492cd-7476-4794-9106-061c8cb03c80","ios":"levelo://app?vid=764492cd-7476-4794-9106-061c8cb03c80"},"vehicle_type_id":"4","last_reported":1726556905,"current_range_meters":30400,"station_id":"ce4bhn92rcd13ifvqgrg","pricing_plan_id":"cebpf4jnsgd1na2vs0mg"},{"bike_id":"d050d7b7-e817-42dd-99e2-bc8a4864acf7","system_id":"levelo_inurba_marseille","lat":43.33614,"lon":5.41023,"is_reserved":false,"is_disabled":false,"rental_uris":{"android":"levelo://app?vid=d050d7b7-e817-42dd-99e2-bc8a4864acf7","ios":"levelo://app?vid=d050d7b7-e817-42dd-99e2-bc8a4864acf7"},"vehicle_type_id":"4","last_reported":1726556905,"current_range_meters":38800,"station_id":"ce4bhqh2rcd13ifvqhmg","pricing_plan_id":"cebpf4jnsgd1na2vs0mg"},{"bike_id":"328d45f9-980e-4811-97c0-47d761861509","system_id":"levelo_inurba_marseille","lat":43.29847,"lon":5.37836,"is_reserved":false,"is_disabled":false,"rental_uris":{"android":"levelo://app?vid=328d45f9-980e-4811-97c0-47d761861509","ios":"levelo://app?vid=328d45f9-980e-4811-97c0-47d761861509"},"vehicle_type_id":"4","last_reported":1726556905,"current_range_meters":18800,"station_id":"ce4bgkh2rcd13ifvqbl0","pricing_plan_id":"cebpf4jnsgd1na2vs0mg"},{"bike_id":"e1247036-949c-49d5-8c34-39a2938842b7","system_id":"levelo_inurba_marseille","lat":43.26566,"lon":5.3901,"is_reserved":false,"is_disabled":false,"rental_uris":{"android":"levelo://app?vid=e1247036-949c-49d5-8c34-39a2938842b7","ios":"levelo://app?vid=e1247036-949c-49d5-8c34-39a2938842b7"},"vehicle_type_id":"4","last_reported":1726556905,"current_range_meters":37600,"station_id":"ce4bhe12rcd13ifvqf30","pricing_plan_id":"cebpf4jnsgd1na2vs0mg"},{"bike_id":"622a949d-06ff-43c9-90d3-3e271f570795","system_id":"levelo_inurba_marseille","lat":43.246522,"lon":5.381684,"is_reserved":false,"is_disabled":false,"rental_uris":{"android":"levelo://app?vid=622a949d-06ff-43c9-90d3-3e271f570795","ios":"levelo://app?vid=622a949d-06ff-43c9-90d3-3e271f570795"},"vehicle_type_id":"4","last_reported":1726556905,"current_range_meters":38800,"station_id":"ce4bhih2rcd13ifvqfr0","pricing_plan_id":"cebpf4jnsgd1na2vs0mg"},{"bike_id":"f5b9ac8b-af68-4514-8983-63d49995dcf8","system_id":"levelo_inurba_marseille","lat":43.25584,"lon":5.3823,"is_reserved":false,"is_disabled":false,"rental_uris":{"android":"levelo://app?vid=f5b9ac8b-af68-4514-8983-63d49995dcf8","ios":"levelo://app?vid=f5b9ac8b-af68-4514-8983-63d49995dcf8"},"vehicle_type_id":"4","last_reported":1726556905,"current_range_meters":38800,"station_id":"ce4bhih2rcd13ifvqfs0","pricing_plan_id":"cebpf4jnsgd1na2vs0mg"},{"bike_id":"c17c5619-a1be-4ff2-8f4d-974676685d6a","system_id":"levelo_inurba_marseille","lat":43.29306,"lon":5.37461,"is_reserved":false,"is_disabled":false,"rental_uris":{"android":"levelo://app?vid=c17c5619-a1be-4ff2-8f4d-974676685d6a","ios":"levelo://app?vid=c17c5619-a1be-4ff2-8f4d-974676685d6a"},"vehicle_type_id":"4","last_reported":1726556905,"current_range_meters":37600,"station_id":"ce4bgi12rcd13ifvqb70","pricing_plan_id":"cebpf4jnsgd1na2vs0mg"},{"bike_id":"fe43840c-a2c0-45d0-a19d-4ad10017aa65","system_id":"levelo_inurba_marseille","lat":43.28037,"lon":5.36944,"is_reserved":false,"is_disabled":false,"rental_uris":{"android":"levelo://app?vid=fe43840c-a2c0-45d0-a19d-4ad10017aa65","ios":"levelo://app?vid=fe43840c-a2c0-45d0-a19d-4ad10017aa65"},"vehicle_type_id":"4","last_reported":1726556905,"current_range_meters":39200,"station_id":"ce4bha12rcd13ifvqef0","pricing_plan_id":"cebpf4jnsgd1na2vs0mg"},{"bike_id":"81000695-6220-4427-ba7d-f519752c1525","system_id":"levelo_inurba_marseille","lat":43.297112,"lon":5.368257,"is_reserved":false,"is_disabled":false,"rental_uris":{"android":"levelo://app?vid=81000695-6220-4427-ba7d-f519752c1525","ios":"levelo://app?vid=81000695-6220-4427-ba7d-f519752c1525"},"vehicle_type_id":"4","last_reported":1726556905,"current_range_meters":38000,"station_id":"ce4bgn12rcd13ifvqbt0","pricing_plan_id":"cebpf4jnsgd1na2vs0mg"},{"bike_id":"fa690805-233a-4a70-a9f3-33f1b67cdb1f","system_id":"levelo_inurba_marseille","lat":43.32285,"lon":5.38274,"is_reserved":false,"is_disabled":false,"rental_uris":{"android":"levelo://app?vid=fa690805-233a-4a70-a9f3-33f1b67cdb1f","ios":"levelo://app?vid=fa690805-233a-4a70-a9f3-33f1b67cdb1f"},"vehicle_type_id":"4","last_reported":1726556905,"current_range_meters":33600,"station_id":"ce4bhr12rcd13ifvqhqg","pricing_plan_id":"cebpf4jnsgd1na2vs0mg"},{"bike_id":"f73e69f5-f9c9-416d-a4d0-b660d5243a17","system_id":"levelo_inurba_marseille","lat":43.24078,"lon":5.37761,"is_reserved":false,"is_disabled":false,"rental_uris":{"android":"levelo://app?vid=f73e69f5-f9c9-416d-a4d0-b660d5243a17","ios":"levelo://app?vid=f73e69f5-f9c9-416d-a4d0-b660d5243a17"},"vehicle_type_id":"4","last_reported":1726556905,"current_range_meters":22400,"station_id":"ce4bhnp2rcd13ifvqgvg","pricing_plan_id":"cebpf4jnsgd1na2vs0mg"},{"bike_id":"8b608b96-fedf-4511-8d4b-09bad2606e1a","system_id":"levelo_inurba_marseille","lat":43.27724,"lon":5.41131,"is_reserved":false,"is_disabled":false,"rental_uris":{"android":"levelo://app?vid=8b608b96-fedf-4511-8d4b-09bad2606e1a","ios":"levelo://app?vid=8b608b96-fedf-4511-8d4b-09bad2606e1a"},"vehicle_type_id":"4","last_reported":1726556905,"current_range_meters":10800,"station_id":"","pricing_plan_id":"cebpf4jnsgd1na2vs0mg"},{"bike_id":"2fd20e8c-8e33-413e-9486-26b4cea28154","system_id":"levelo_inurba_marseille","lat":43.32369,"lon":5.38883,"is_reserved":false,"is_disabled":false,"rental_uris":{"android":"levelo://app?vid=2fd20e8c-8e33-413e-9486-26b4cea28154","ios":"levelo://app?vid=2fd20e8c-8e33-413e-9486-26b4cea28154"},"vehicle_type_id":"4","last_reported":1726556905,"current_range_meters":8400,"station_id":"ce4bhqp2rcd13ifvqhog","pricing_plan_id":"cebpf4jnsgd1na2vs0mg"},{"bike_id":"57be3ded-1ee9-42c1-b39d-7196fdda9743","system_id":"levelo_inurba_marseille","lat":43.32291,"lon":5.38268,"is_reserved":false,"is_disabled":false,"rental_uris":{"android":"levelo://app?vid=57be3ded-1ee9-42c1-b39d-7196fdda9743","ios":"levelo://app?vid=57be3ded-1ee9-42c1-b39d-7196fdda9743"},"vehicle_type_id":"4","last_reported":1726556905,"current_range_meters":38000,"station_id":"ce4bhr12rcd13ifvqhqg","pricing_plan_id":"cebpf4jnsgd1na2vs0mg"},{"bike_id":"ab9c38aa-220b-4b11-abfc-fd77a88a6860","system_id":"levelo_inurba_marseille","lat":43.23972,"lon":5.3663,"is_reserved":false,"is_disabled":false,"rental_uris":{"android":"levelo://app?vid=ab9c38aa-220b-4b11-abfc-fd77a88a6860","ios":"levelo://app?vid=ab9c38aa-220b-4b11-abfc-fd77a88a6860"},"vehicle_type_id":"4","last_reported":1726556905,"current_range_meters":38800,"station_id":"ce4bhi12rcd13ifvqfp0","pricing_plan_id":"cebpf4jnsgd1na2vs0mg"},{"bike_id":"4a7b7eba-c29e-46ec-9bb3-576e6def18b4","system_id":"levelo_inurba_marseille","lat":43.2587,"lon":5.39893,"is_reserved":false,"is_disabled":false,"rental_uris":{"android":"levelo://app?vid=4a7b7eba-c29e-46ec-9bb3-576e6def18b4","ios":"levelo://app?vid=4a7b7eba-c29e-46ec-9bb3-576e6def18b4"},"vehicle_type_id":"4","last_reported":1726556905,"current_range_meters":38800,"station_id":"ce4bhl92rcd13ifvqghg","pricing_plan_id":"cebpf4jnsgd1na2vs0mg"},{"bike_id":"66534022-709e-4d8f-be6a-6e0a355805f7","system_id":"levelo_inurba_marseille","lat":43.273212,"lon":5.390786,"is_reserved":false,"is_disabled":false,"rental_uris":{"android":"levelo://app?vid=66534022-709e-4d8f-be6a-6e0a355805f7","ios":"levelo://app?vid=66534022-709e-4d8f-be6a-6e0a355805f7"},"vehicle_type_id":"4","last_reported":1726556905,"current_range_meters":18000,"station_id":"ce4bhgp2rcd13ifvqfe0","pricing_plan_id":"cebpf4jnsgd1na2vs0mg"},{"bike_id":"8c9bdf96-35c6-49be-9c44-e19edfe902c1","system_id":"levelo_inurba_marseille","lat":43.32484,"lon":5.36556,"is_reserved":false,"is_disabled":false,"rental_uris":{"android":"levelo://app?vid=8c9bdf96-35c6-49be-9c44-e19edfe902c1","ios":"levelo://app?vid=8c9bdf96-35c6-49be-9c44-e19edfe902c1"},"vehicle_type_id":"4","last_reported":1726556905,"current_range_meters":40000,"station_id":"ce4bhs12rcd13ifvqhvg","pricing_plan_id":"cebpf4jnsgd1na2vs0mg"},{"bike_id":"ea98547b-572b-414f-bfc9-ac0d5e635b52","system_id":"levelo_inurba_marseille","lat":43.25947,"lon":5.40899,"is_reserved":false,"is_disabled":false,"rental_uris":{"android":"levelo://app?vid=ea98547b-572b-414f-bfc9-ac0d5e635b52","ios":"levelo://app?vid=ea98547b-572b-414f-bfc9-ac0d5e635b52"},"vehicle_type_id":"4","last_reported":1726556905,"current_range_meters":7200,"station_id":"ce4bhm92rcd13ifvqglg","pricing_plan_id":"cebpf4jnsgd1na2vs0mg"},{"bike_id":"f4538dd0-eb00-41b3-b578-281dfa164128","system_id":"levelo_inurba_marseille","lat":43.30559,"lon":5.36718,"is_reserved":false,"is_disabled":false,"rental_uris":{"android":"levelo://app?vid=f4538dd0-eb00-41b3-b578-281dfa164128","ios":"levelo://app?vid=f4538dd0-eb00-41b3-b578-281dfa164128"},"vehicle_type_id":"4","last_reported":1726556905,"current_range_meters":30000,"station_id":"ce4bgrp2rcd13ifvqc9g","pricing_plan_id":"cebpf4jnsgd1na2vs0mg"},{"bike_id":"febea1e3-afcf-495d-b70a-964514fe6077","system_id":"levelo_inurba_marseille","lat":43.29282,"lon":5.3685,"is_reserved":false,"is_disabled":false,"rental_uris":{"android":"levelo://app?vid=febea1e3-afcf-495d-b70a-964514fe6077","ios":"levelo://app?vid=febea1e3-afcf-495d-b70a-964514fe6077"},"vehicle_type_id":"4","last_reported":1726556905,"current_range_meters":29600,"station_id":"ce4bhbp2rcd13ifvqesg","pricing_plan_id":"cebpf4jnsgd1na2vs0mg"},{"bike_id":"d376edd7-98d3-43c8-bd92-f5ee5b46dfc5","system_id":"levelo_inurba_marseille","lat":43.29279,"lon":5.36845,"is_reserved":false,"is_disabled":false,"rental_uris":{"android":"levelo://app?vid=d376edd7-98d3-43c8-bd92-f5ee5b46dfc5","ios":"levelo://app?vid=d376edd7-98d3-43c8-bd92-f5ee5b46dfc5"},"vehicle_type_id":"4","last_reported":1726556905,"current_range_meters":29600,"station_id":"ce4bhbp2rcd13ifvqesg","pricing_plan_id":"cebpf4jnsgd1na2vs0mg"},{"bike_id":"4794a437-9232-4ded-ada9-c1413dd4f781","system_id":"levelo_inurba_marseille","lat":43.25939,"lon":5.40907,"is_reserved":false,"is_disabled":false,"rental_uris":{"android":"levelo://app?vid=4794a437-9232-4ded-ada9-c1413dd4f781","ios":"levelo://app?vid=4794a437-9232-4ded-ada9-c1413dd4f781"},"vehicle_type_id":"4","last_reported":1726556905,"current_range_meters":38000,"station_id":"ce4bhm92rcd13ifvqglg","pricing_plan_id":"cebpf4jnsgd1na2vs0mg"},{"bike_id":"6a17dbc5-669f-49b8-907a-20140dfc9536","system_id":"levelo_inurba_marseille","lat":43.31355,"lon":5.36702,"is_reserved":false,"is_disabled":false,"rental_uris":{"android":"levelo://app?vid=6a17dbc5-669f-49b8-907a-20140dfc9536","ios":"levelo://app?vid=6a17dbc5-669f-49b8-907a-20140dfc9536"},"vehicle_type_id":"4","last_reported":1726556905,"current_range_meters":39200,"station_id":"ce4bgr92rcd13ifvqc6g","pricing_plan_id":"cebpf4jnsgd1na2vs0mg"},{"bike_id":"2bcf337d-d8d5-4eb2-89bd-5a7fafc06b91","system_id":"levelo_inurba_marseille","lat":43.29013,"lon":5.38141,"is_reserved":false,"is_disabled":false,"rental_uris":{"android":"levelo://app?vid=2bcf337d-d8d5-4eb2-89bd-5a7fafc06b91","ios":"levelo://app?vid=2bcf337d-d8d5-4eb2-89bd-5a7fafc06b91"},"vehicle_type_id":"4","last_reported":1726556905,"current_range_meters":28400,"station_id":"ce4bh4p2rcd13ifvqe1g","pricing_plan_id":"cebpf4jnsgd1na2vs0mg"},{"bike_id":"e4ff2716-efaa-4292-b77b-693be63bb373","system_id":"levelo_inurba_marseille","lat":43.23199,"lon":5.35552,"is_reserved":false,"is_disabled":false,"rental_uris":{"android":"levelo://app?vid=e4ff2716-efaa-4292-b77b-693be63bb373","ios":"levelo://app?vid=e4ff2716-efaa-4292-b77b-693be63bb373"},"vehicle_type_id":"4","last_reported":1726556905,"current_range_meters":36800,"station_id":"ce4bhu92rcd13ifvqi70","pricing_plan_id":"cebpf4jnsgd1na2vs0mg"},{"bike_id":"a04aca93-33e8-4df4-8747-851e094f432d","system_id":"levelo_inurba_marseille","lat":43.34148,"lon":5.40912,"is_reserved":false,"is_disabled":false,"rental_uris":{"android":"levelo://app?vid=a04aca93-33e8-4df4-8747-851e094f432d","ios":"levelo://app?vid=a04aca93-33e8-4df4-8747-851e094f432d"},"vehicle_type_id":"4","last_reported":1726556905,"current_range_meters":39200,"station_id":"ce4bhqh2rcd13ifvqhlg","pricing_plan_id":"cebpf4jnsgd1na2vs0mg"},{"bike_id":"1d779386-8736-4203-8042-e8a090dbfdc4","system_id":"levelo_inurba_marseille","lat":43.305328,"lon":5.365586,"is_reserved":false,"is_disabled":false,"rental_uris":{"android":"levelo://app?vid=1d779386-8736-4203-8042-e8a090dbfdc4","ios":"levelo://app?vid=1d779386-8736-4203-8042-e8a090dbfdc4"},"vehicle_type_id":"4","last_reported":1726556905,"current_range_meters":34000,"station_id":"ce4bgs12rcd13ifvqcag","pricing_plan_id":"cebpf4jnsgd1na2vs0mg"},{"bike_id":"23fd5e11-8be1-4d59-8ee4-debd62954b7b","system_id":"levelo_inurba_marseille","lat":43.30902,"lon":5.37198,"is_reserved":false,"is_disabled":false,"rental_uris":{"android":"levelo://app?vid=23fd5e11-8be1-4d59-8ee4-debd62954b7b","ios":"levelo://app?vid=23fd5e11-8be1-4d59-8ee4-debd62954b7b"},"vehicle_type_id":"4","last_reported":1726556905,"current_range_meters":8000,"station_id":"ce4bguh2rcd13ifvqckg","pricing_plan_id":"cebpf4jnsgd1na2vs0mg"},{"bike_id":"e1a51395-7ad7-4724-8a2f-34b9ae6c009c","system_id":"levelo_inurba_marseille","lat":43.25003,"lon":5.38919,"is_reserved":false,"is_disabled":false,"rental_uris":{"android":"levelo://app?vid=e1a51395-7ad7-4724-8a2f-34b9ae6c009c","ios":"levelo://app?vid=e1a51395-7ad7-4724-8a2f-34b9ae6c009c"},"vehicle_type_id":"4","last_reported":1726556905,"current_range_meters":32000,"station_id":"ce4bhgp2rcd13ifvqfd0","pricing_plan_id":"cebpf4jnsgd1na2vs0mg"},{"bike_id":"2d1c444a-7ab3-4793-9e47-62f41d0a3114","system_id":"levelo_inurba_marseille","lat":43.2754,"lon":5.38432,"is_reserved":false,"is_disabled":false,"rental_uris":{"android":"levelo://app?vid=2d1c444a-7ab3-4793-9e47-62f41d0a3114","ios":"levelo://app?vid=2d1c444a-7ab3-4793-9e47-62f41d0a3114"},"vehicle_type_id":"4","last_reported":1726556905,"current_range_meters":38000,"station_id":"ce4bhh92rcd13ifvqfi0","pricing_plan_id":"cebpf4jnsgd1na2vs0mg"},{"bike_id":"0543a4cf-e876-4830-b957-8591f133e005","system_id":"levelo_inurba_marseille","lat":43.27569,"lon":5.38413,"is_reserved":false,"is_disabled":false,"rental_uris":{"android":"levelo://app?vid=0543a4cf-e876-4830-b957-8591f133e005","ios":"levelo://app?vid=0543a4cf-e876-4830-b957-8591f133e005"},"vehicle_type_id":"4","last_reported":1726556905,"current_range_meters":35600,"station_id":"ce4bhh92rcd13ifvqfi0","pricing_plan_id":"cebpf4jnsgd1na2vs0mg"},{"bike_id":"6f6fafbd-c2d9-4a32-b771-217544f063fd","system_id":"levelo_inurba_marseille","lat":43.297002,"lon":5.367818,"is_reserved":false,"is_disabled":false,"rental_uris":{"android":"levelo://app?vid=6f6fafbd-c2d9-4a32-b771-217544f063fd","ios":"levelo://app?vid=6f6fafbd-c2d9-4a32-b771-217544f063fd"},"vehicle_type_id":"4","last_reported":1726556905,"current_range_meters":38000,"station_id":"ce4bgn12rcd13ifvqbt0","pricing_plan_id":"cebpf4jnsgd1na2vs0mg"},{"bike_id":"596c38af-26e0-4264-80e8-a8dcafd438d2","system_id":"levelo_inurba_marseille","lat":43.266785,"lon":5.382782,"is_reserved":false,"is_disabled":false,"rental_uris":{"android":"levelo://app?vid=596c38af-26e0-4264-80e8-a8dcafd438d2","ios":"levelo://app?vid=596c38af-26e0-4264-80e8-a8dcafd438d2"},"vehicle_type_id":"4","last_reported":1726556905,"current_range_meters":2800,"station_id":"ce4bhg92rcd13ifvqf90","pricing_plan_id":"cebpf4jnsgd1na2vs0mg"},{"bike_id":"1898816e-2dc3-4a36-8ca5-97686681c9ce","system_id":"levelo_inurba_marseille","lat":43.27308,"lon":5.39079,"is_reserved":false,"is_disabled":false,"rental_uris":{"android":"levelo://app?vid=1898816e-2dc3-4a36-8ca5-97686681c9ce","ios":"levelo://app?vid=1898816e-2dc3-4a36-8ca5-97686681c9ce"},"vehicle_type_id":"4","last_reported":1726556905,"current_range_meters":16800,"station_id":"ce4bhgp2rcd13ifvqfe0","pricing_plan_id":"cebpf4jnsgd1na2vs0mg"},