{"last_updated":1749723129,"ttl":60,"version":"2.2","data":{"bikes":[{"bike_id":"b31f0139-170f-4194-984f-4386218a1e9d","system_id":"levelo_inurba_marseille","lat":43.33771,"lon":5.37424,"is_reserved":false,"is_disabled":true,"rental_uris":{"android":"levelo://app?vid=b31f0139-170f-4194-984f-4386218a1e9d","ios":"levelo://app?vid=b31f0139-170f-4194-984f-4386218a1e9d"},"vehicle_type_id":"4","last_reported":1749723129,"current_range_meters":0,"station_id":"","pricing_plan_id":"cebpf4jnsgd1na2vs0mg"},{"bike_id":"1acfb620-cad7-48c0-8901-d7a5b74a5b65","system_id":"levelo_inurba_marseille","lat":43.33751,"lon":5.37456,"is_reserved":false,"is_disabled":false,"rental_uris":{"android":"levelo://app?vid=1acfb620-cad7-48c0-8901-d7a5b74a5b65","ios":"levelo://app?vid=1acfb620-cad7-48c0-8901-d7a5b74a5b65"},"vehicle_type_id":"4","last_reported":1749723129,"current_range_meters":8800,"station_id":"","pricing_plan_id":"cebpf4jnsgd1na2vs0mg"},{"bike_id":"15642284-38bf-46a3-8429-b976f7e075a1","system_id":"levelo_inurba_marseille","lat":43.279248,"lon":5.382799,"is_reserved":false,"is_disabled":true,"rental_uris":{"android":"levelo://app?vid=15642284-38bf-46a3-8429-b976f7e075a1","ios":"levelo://app?vid=15642284-38bf-46a3-8429-b976f7e075a1"},"vehicle_type_id":"4","last_reported":1749723129,"current_range_meters":0,"station_id":"","pricing_plan_id":"cebpf4jnsgd1na2vs0mg"},{"bike_id":"bf89d78c-eb96-40d5-beb0-f402ef102cc1","system_id":"levelo_inurba_marseille","lat":43.337444,"lon":5.374475,"is_reserved":false,"is_disabled":true,"rental_uris":{"android":"levelo://app?vid=bf89d78c-eb96-40d5-beb0-f402ef102cc1","ios":"levelo://app?vid=bf89d78c-eb96-40d5-beb0-f402ef102cc1"},"vehicle_type_id":"4","last_reported":1749723129,"current_range_meters":0,"station_id":"","pricing_plan_id":"cebpf4jnsgd1na2vs0mg"},{"bike_id":"6908bae8-72a3-4af1-871a-a204f93e7563","system_id":"levelo_inurba_marseille","lat":43.323897,"lon":5.393293,"is_reserved":false,"is_disabled":true,"rental_uris":{"android":"levelo://app?vid=6908bae8-72a3-4af1-871a-a204f93e7563","ios":"levelo://app?vid=6908bae8-72a3-4af1-871a-a204f93e7563"},"vehicle_type_id":"4","last_reported":1749723129,"current_range_meters":0,"station_id":"","pricing_plan_id":"cebpf4jnsgd1na2vs0mg"},{"bike_id":"7c6a9c32-3bbe-4d4c-8294-1969d0688a87","system_id":"levelo_inurba_marseille","lat":43.28489,"lon":5.42286,"is_reserved":false,"is_disabled":true,"rental_uris":{"android":"levelo://app?vid=7c6a9c32-3bbe-4d4c-8294-1969d0688a87","ios":"levelo://app?vid=7c6a9c32-3bbe-4d4c-8294-1969d0688a87"},"vehicle_type_id":"4","last_reported":1749723129,"current_range_meters":0,"station_id":"","pricing_plan_id":"cebpf4jnsgd1na2vs0mg"},{"bike_id":"18ab1fe6-a7e6-448a-9631-a8542cf8c56c","system_id":"levelo_inurba_marseille","lat":43.33242,"lon":5.37903,"is_reserved":false,"is_disabled":true,"rental_uris":{"android":"levelo://app?vid=18ab1fe6-a7e6-448a-9631-a8542cf8c56c","ios":"levelo://app?vid=18ab1fe6-a7e6-448a-9631-a8542cf8c56c"},"vehicle_type_id":"4","last_reported":1749723129,"current_range_meters":0,"station_id":"","pricing_plan_id":"cebpf4jnsgd1na2vs0mg"},{"bike_id":"9e55e93e-42c5-4c2c-9154-2d3c316cb5d9","system_id":"levelo_inurba_marseille","lat":43.31868,"lon":5.39375,"is_reserved":false,"is_disabled":true,"rental_uris":{"android":"levelo://app?vid=9e55e93e-42c5-4c2c-9154-2d3c316cb5d9","ios":"levelo://app?vid=9e55e93e-42c5-4c2c-9154-2d3c316cb5d9"},"vehicle_type_id":"4","last_reported":1749723129,"current_range_meters":0,"station_id":"","pricing_plan_id":"cebpf4jnsgd1na2vs0mg"},{"bike_id":"78778bea-ee8d-4617-9940-e8d532761b1d","system_id":"levelo_inurba_marseille","lat":43.3257,"lon":5.42547,"is_reserved":false,"is_disabled":true,"rental_uris":{"android":"levelo://app?vid=78778bea-ee8d-4617-9940-e8d532761b1d","ios":"levelo://app?vid=78778bea-ee8d-4617-9940-e8d532761b1d"},"vehicle_type_id":"4","last_reported":1749723129,"current_range_meters":0,"station_id":"","pricing_plan_id":"cebpf4jnsgd1na2vs0mg"},{"bike_id":"492f4bbd-1190-4ef2-b66a-479ffe91b09b","system_id":"levelo_inurba_marseille","lat":43.337444,"lon":5.374475,"is_reserved":false,"is_disabled":true,"rental_uris":{"android":"levelo://app?vid=492f4bbd-1190-4ef2-b66a-479ffe91b09b","ios":"levelo://app?vid=492f4bbd-1190-4ef2-b66a-479ffe91b09b"},"vehicle_type_id":"4","last_reported":1749723129,"current_range_meters":0,"station_id":"","pricing_plan_id":"cebpf4jnsgd1na2vs0mg"},{"bike_id":"ce526313-e4c7-47eb-856f-183916936663","system_id":"levelo_inurba_marseille","lat":43.26225,"lon":5.3955,"is_reserved":false,"is_disabled":true,"rental_uris":{"android":"levelo://app?vid=ce526313-e4c7-47eb-856f-183916936663","ios":"levelo://app?vid=ce526313-e4c7-47eb-856f-183916936663"},"vehicle_type_id":"4","last_reported":1749723129,"current_range_meters":0,"station_id":"","pricing_plan_id":"cebpf4jnsgd1na2vs0mg"},{"bike_id":"15988eb6-4ac2-4228-b4b4-8767be95739e","system_id":"levelo_inurba_marseille","lat":43.31334,"lon":5.36734,"is_reserved":false,"is_disabled":true,"rental_uris":{"android":"levelo://app?vid=15988eb6-4ac2-4228-b4b4-8767be95739e","ios":"levelo://app?vid=15988eb6-4ac2-4228-b4b4-8767be95739e"},"vehicle_type_id":"4","last_reported":1749723129,"current_range_meters":0,"station_id":"ce4bgr92rcd13ifvqc6g","pricing_plan_id":"cebpf4jnsgd1na2vs0mg"},{"bike_id":"4dcd176a-acfc-494d-9b1d-008dbf913888","system_id":"levelo_inurba_marseille","lat":43.31068,"lon":5.38327,"is_reserved":false,"is_disabled":true,"rental_uris":{"android":"levelo://app?vid=4dcd176a-acfc-494d-9b1d-008dbf913888","ios":"levelo://app?vid=4dcd176a-acfc-494d-9b1d-008dbf913888"},"vehicle_type_id":"4","last_reported":1749723129,"current_range_meters":0,"station_id":"ce4bgv92rcd13ifvqcr0","pricing_plan_id":"cebpf4jnsgd1na2vs0mg"},{"bike_id":"cd96cd79-aa07-429f-b6e9-37ba28885bbb","system_id":"levelo_inurba_marseille","lat":43.27963,"lon":5.38742,"is_reserved":false,"is_disabled":true,"rental_uris":{"android":"levelo://app?vid=cd96cd79-aa07-429f-b6e9-37ba28885bbb","ios":"levelo://app?vid=cd96cd79-aa07-429f-b6e9-37ba28885bbb"},"vehicle_type_id":"4","last_reported":1749723129,"current_range_meters":0,"station_id":"ce4bhg12rcd13ifvqf80","pricing_plan_id":"cebpf4jnsgd1na2vs0mg"},{"bike_id":"0957761d-fa71-4312-9901-7b1b9a8b8955","system_id":"levelo_inurba_marseille","lat":43.23151,"lon":5.43718,"is_reserved":false,"is_disabled":true,"rental_uris":{"android":"levelo://app?vid=0957761d-fa71-4312-9901-7b1b9a8b8955","ios":"levelo://app?vid=0957761d-fa71-4312-9901-7b1b9a8b8955"},"vehicle_type_id":"4","last_reported":1749723129,"current_range_meters":0,"station_id":"ce4bhmp2rcd13ifvqgog","pricing_plan_id":"cebpf4jnsgd1na2vs0mg"},{"bike_id":"f4a529c2-e076-4853-9434-aa931ab59680","system_id":"levelo_inurba_marseille","lat":43.31713,"lon":5.4371,"is_reserved":false,"is_disabled":true,"rental_uris":{"android":"levelo://app?vid=f4a529c2-e076-4853-9434-aa931ab59680","ios":"levelo://app?vid=f4a529c2-e076-4853-9434-aa931ab59680"},"vehicle_type_id":"4","last_reported":1749723129,"current_range_meters":0,"station_id":"ce4bhp92rcd13ifvqhcg","pricing_plan_id":"cebpf4jnsgd1na2vs0mg"},{"bike_id":"6733a139-e631-4f12-887c-6cac9847c371","system_id":"levelo_inurba_marseille","lat":43.29557,"lon":5.42281,"is_reserved":false,"is_disabled":true,"rental_uris":{"android":"levelo://app?vid=6733a139-e631-4f12-887c-6cac9847c371","ios":"levelo://app?vid=6733a139-e631-4f12-887c-6cac9847c371"},"vehicle_type_id":"4","last_reported":1749723129,"current_range_meters":0,"station_id":"ce4bhph2rcd13ifvqhdg","pricing_plan_id":"cebpf4jnsgd1na2vs0mg"},{"bike_id":"34079f42-b9d3-4f05-b94e-8f5fac3bf6ca","system_id":"levelo_inurba_marseille","lat":43.32475,"lon":5.36574,"is_reserved":false,"is_disabled":true,"rental_uris":{"android":"levelo://app?vid=34079f42-b9d3-4f05-b94e-8f5fac3bf6ca","ios":"levelo://app?vid=34079f42-b9d3-4f05-b94e-8f5fac3bf6ca"},"vehicle_type_id":"4","last_reported":1749723129,"current_range_meters":0,"station_id":"ce4bhs12rcd13ifvqhvg","pricing_plan_id":"cebpf4jnsgd1na2vs0mg"},{"bike_id":"baa09194-63b5-4d5f-952b-05e25b553dc4","system_id":"levelo_inurba_marseille","lat":43.24166,"lon":5.3639,"is_reserved":false,"is_disabled":true,"rental_uris":{"android":"levelo://app?vid=baa09194-63b5-4d5f-952b-05e25b553dc4","ios":"levelo://app?vid=baa09194-63b5-4d5f-952b-05e25b553dc4"},"vehicle_type_id":"4","last_reported":1749723129,"current_range_meters":0,"station_id":"cpo36qri1sfpv3e86is0","pricing_plan_id":"cebpf4jnsgd1na2vs0mg"},{"bike_id":"ca6df3d9-d4af-470a-82cd-b5e969e09c9b","system_id":"levelo_inurba_marseille","lat":43.21753,"lon":5.34584,"is_reserved":false,"is_disabled":true,"rental_uris":{"android":"levelo://app?vid=ca6df3d9-d4af-470a-82cd-b5e969e09c9b","ios":"levelo://app?vid=ca6df3d9-d4af-470a-82cd-b5e969e09c9b"},"vehicle_type_id":"4","last_reported":1749723129,"current_range_meters":0,"station_id":"st_cvj6r9ubvosntc0bgbag","pricing_plan_id":"cebpf4jnsgd1na2vs0mg"},{"bike_id":"d7c691dd-9b3f-4381-a765-382eb100545c","system_id":"levelo_inurba_marseille","lat":43.30406,"lon":5.39771,"is_reserved":false,"is_disabled":true,"rental_uris":{"android":"levelo://app?vid=d7c691dd-9b3f-4381-a765-382eb100545c","ios":"levelo://app?vid=d7c691dd-9b3f-4381-a765-382eb100545c"},"vehicle_type_id":"4","last_reported":1749723129,"current_range_meters":400,"station_id":"ce4bh092rcd13ifvqd20","pricing_plan_id":"cebpf4jnsgd1na2vs0mg"},{"bike_id":"a13bfa59-00c2-40db-8b7d-f94fc426e28c","system_id":"levelo_inurba_marseille","lat":43.29265,"lon":5.38445,"is_reserved":false,"is_disabled":true,"rental_uris":{"android":"levelo://app?vid=a13bfa59-00c2-40db-8b7d-f94fc426e28c","ios":"levelo://app?vid=a13bfa59-00c2-40db-8b7d-f94fc426e28c"},"vehicle_type_id":"4","last_reported":1749723129,"current_range_meters":400,"station_id":"ce4bh692rcd13ifvqea0","pricing_plan_id":"cebpf4jnsgd1na2vs0mg"},{"bike_id":"37fe0c8d-87af-4346-9990-a25dd5a4d462","system_id":"levelo_inurba_marseille","lat":43.31563,"lon":5.38925,"is_reserved":false,"is_disabled":true,"rental_uris":{"android":"levelo://app?vid=37fe0c8d-87af-4346-9990-a25dd5a4d462","ios":"levelo://app?vid=37fe0c8d-87af-4346-9990-a25dd5a4d462"},"vehicle_type_id":"4","last_reported":1749723129,"current_range_meters":800,"station_id":"","pricing_plan_id":"cebpf4jnsgd1na2vs0mg"},{"bike_id":"99e5e52f-9298-4c25-a4b6-91261e5d4309","system_id":"levelo_inurba_marseille","lat":43.27494,"lon":5.42446,"is_reserved":false,"is_disabled":true,"rental_uris":{"android":"levelo://app?vid=99e5e52f-9298-4c25-a4b6-91261e5d4309","ios":"levelo://app?vid=99e5e52f-9298-4c25-a4b6-91261e5d4309"},"vehicle_type_id":"4","last_reported":1749723129,"current_range_meters":800,"station_id":"ce4bhn92rcd13ifvqgrg","pricing_plan_id":"cebpf4jnsgd1na2vs0mg"},{"bike_id":"07137dd8-91f5-4f98-89fa-298b5d13b225","system_id":"levelo_inurba_marseille","lat":43.309,"lon":5.36841,"is_reserved":false,"is_disabled":true,"rental_uris":{"android":"levelo://app?vid=07137dd8-91f5-4f98-89fa-298b5d13b225","ios":"levelo://app?vid=07137dd8-91f5-4f98-89fa-298b5d13b225"},"vehicle_type_id":"4","last_reported":1749723129,"current_range_meters":1200,"station_id":"ce4bgn92rcd13ifvqbvg","pricing_plan_id":"cebpf4jnsgd1na2vs0mg"},{"bike_id":"33df6fb8-3851-4c2a-8c56-c2029c643770","system_id":"levelo_inurba_marseille","lat":43.30911,"lon":5.36839,"is_reserved":false,"is_disabled":true,"rental_uris":{"android":"levelo://app?vid=33df6fb8-3851-4c2a-8c56-c2029c643770","ios":"levelo://app?vid=33df6fb8-3851-4c2a-8c56-c2029c643770"},"vehicle_type_id":"4","last_reported":1749723129,"current_range_meters":1600,"station_id":"ce4bgn92rcd13ifvqbvg","pricing_plan_id":"cebpf4jnsgd1na2vs0mg"},{"bike_id":"61cdbe9e-76e5-4b86-8c9e-c8ce7b693fed","system_id":"levelo_inurba_marseille","lat":43.30781,"lon":5.396301,"is_reserved":false,"is_disabled":true,"rental_uris":{"android":"levelo://app?vid=61cdbe9e-76e5-4b86-8c9e-c8ce7b693fed","ios":"levelo://app?vid=61cdbe9e-76e5-4b86-8c9e-c8ce7b693fed"},"vehicle_type_id":"4","last_reported":1749723129,"current_range_meters":1600,"station_id":"ce4bh012rcd13ifvqcv0","pricing_plan_id":"cebpf4jnsgd1na2vs0mg"},{"bike_id":"ce156318-d433-48fd-978c-cf11bd69ef13","system_id":"levelo_inurba_marseille","lat":43.26941,"lon":5.40246,"is_reserved":false,"is_disabled":true,"rental_uris":{"android":"levelo://app?vid=ce156318-d433-48fd-978c-cf11bd69ef13","ios":"levelo://app?vid=ce156318-d433-48fd-978c-cf11bd69ef13"},"vehicle_type_id":"4","last_reported":1749723129,"current_range_meters":1600,"station_id":"cjm6bp8fraef2m0cb0m0","pricing_plan_id":"cebpf4jnsgd1na2vs0mg"},{"bike_id":"87ad60d3-a8be-4537-b606-cf205dd555df","system_id":"levelo_inurba_marseille","lat":43.30986,"lon":5.40537,"is_reserved":false,"is_disabled":true,"rental_uris":{"android":"levelo://app?vid=87ad60d3-a8be-4537-b606-cf205dd555df","ios":"levelo://app?vid=87ad60d3-a8be-4537-b606-cf205dd555df"},"vehicle_type_id":"4","last_reported":1749723129,"current_range_meters":2000,"station_id":"","pricing_plan_id":"cebpf4jnsgd1na2vs0mg"},{"bike_id":"03844b65-13a3-47df-8c2f-6498ca52f8fe","system_id":"levelo_inurba_marseille","lat":43.30607,"lon":5.37212,"is_reserved":false,"is_disabled":true,"rental_uris":{"android":"levelo://app?vid=03844b65-13a3-47df-8c2f-6498ca52f8fe","ios":"levelo://app?vid=03844b65-13a3-47df-8c2f-6498ca52f8fe"},"vehicle_type_id":"4","last_reported":1749723129,"current_range_meters":2000,"station_id":"ce4bgqh2rcd13ifvqc4g","pricing_plan_id":"cebpf4jnsgd1na2vs0mg"},{"bike_id":"a9b6bf99-4070-4437-bb20-72962ae30b90","system_id":"levelo_inurba_marseille","lat":43.27466,"lon":5.36382,"is_reserved":false,"is_disabled":false,"rental_uris":{"android":"levelo://app?vid=a9b6bf99-4070-4437-bb20-72962ae30b90","ios":"levelo://app?vid=a9b6bf99-4070-4437-bb20-72962ae30b90"},"vehicle_type_id":"4","last_reported":1749723129,"current_range_meters":2800,"station_id":"","pricing_plan_id":"cebpf4jnsgd1na2vs0mg"},{"bike_id":"fc35eedf-7f3f-4534-96d9-96f3a05a4c59","system_id":"levelo_inurba_marseille","lat":43.26204,"lon":5.37447,"is_reserved":false,"is_disabled":false,"rental_uris":{"android":"levelo://app?vid=fc35eedf-7f3f-4534-96d9-96f3a05a4c59","ios":"levelo://app?vid=fc35eedf-7f3f-4534-96d9-96f3a05a4c59"},"vehicle_type_id":"4","last_reported":1749723129,"current_range_meters":3200,"station_id":"ce4bhgp2rcd13ifvqfc0","pricing_plan_id":"cebpf4jnsgd1na2vs0mg"},{"bike_id":"adc26b75-c481-484c-b5c7-74c0b92e76bf","system_id":"levelo_inurba_marseille","lat":43.27908,"lon":5.38002,"is_reserved":false,"is_disabled":false,"rental_uris":{"android":"levelo://app?vid=adc26b75-c481-484c-b5c7-74c0b92e76bf","ios":"levelo://app?vid=adc26b75-c481-484c-b5c7-74c0b92e76bf"},"vehicle_type_id":"4","last_reported":1749723129,"current_range_meters":3600,"station_id":"","pricing_plan_id":"cebpf4jnsgd1na2vs0mg"},{"bike_id":"4a1218af-1c39-47f1-908a-fd28e0115a0b","system_id":"levelo_inurba_marseille","lat":43.3015,"lon":5.381,"is_reserved":false,"is_disabled":false,"rental_uris":{"android":"levelo://app?vid=4a1218af-1c39-47f1-908a-fd28e0115a0b","ios":"levelo://app?vid=4a1218af-1c39-47f1-908a-fd28e0115a0b"},"vehicle_type_id":"4","last_reported":1749723129,"current_range_meters":3600,"station_id":"ce4bgjp2rcd13ifvqbh0","pricing_plan_id":"cebpf4jnsgd1na2vs0mg"},{"bike_id":"2bdde525-596b-4b0d-abcb-27a64b9bc81e","system_id":"levelo_inurba_marseille","lat":43.30534,"lon":5.36724,"is_reserved":false,"is_disabled":false,"rental_uris":{"android":"levelo://app?vid=2bdde525-596b-4b0d-abcb-27a64b9bc81e","ios":"levelo://app?vid=2bdde525-596b-4b0d-abcb-27a64b9bc81e"},"vehicle_type_id":"4","last_reported":1749723129,"current_range_meters":3600,"station_id":"ce4bgrp2rcd13ifvqc9g","pricing_plan_id":"cebpf4jnsgd1na2vs0mg"},{"bike_id":"5077581b-cebb-46fc-ba69-4fa8272d4810","system_id":"levelo_inurba_marseille","lat":43.21369,"lon":5.35535,"is_reserved":false,"is_disabled":false,"rental_uris":{"android":"levelo://app?vid=5077581b-cebb-46fc-ba69-4fa8272d4810","ios":"levelo://app?vid=5077581b-cebb-46fc-ba69-4fa8272d4810"},"vehicle_type_id":"4","last_reported":1749723129,"current_range_meters":4400,"station_id":"","pricing_plan_id":"cebpf4jnsgd1na2vs0mg"},{"bike_id":"66b1cbfb-c132-4ef4-922c-0beab9b5a350","system_id":"levelo_inurba_marseille","lat":43.29766,"lon":5.45997,"is_reserved":false,"is_disabled":false,"rental_uris":{"android":"levelo://app?vid=66b1cbfb-c132-4ef4-922c-0beab9b5a350","ios":"levelo://app?vid=66b1cbfb-c132-4ef4-922c-0beab9b5a350"},"vehicle_type_id":"4","last_reported":1749723129,"current_range_meters":4400,"station_id":"","pricing_plan_id":"cebpf4jnsgd1na2vs0mg"},{"bike_id":"853e9d90-8fb4-4c17-a762-9923b9fb02f0","system_id":"levelo_inurba_marseille","lat":43.25443,"lon":5.381,"is_reserved":false,"is_disabled":false,"rental_uris":{"android":"levelo://app?vid=853e9d90-8fb4-4c17-a762-9923b9fb02f0","ios":"levelo://app?vid=853e9d90-8fb4-4c17-a762-9923b9fb02f0"},"vehicle_type_id":"4","last_reported":1749723129,"current_range_meters":4400,"station_id":"","pricing_plan_id":"cebpf4jnsgd1na2vs0mg"},{"bike_id":"57904490-33be-4b90-8f9e-f9a47b737431","system_id":"levelo_inurba_marseille","lat":43.30916,"lon":5.36836,"is_reserved":false,"is_disabled":false,"rental_uris":{"android":"levelo://app?vid=57904490-33be-4b90-8f9e-f9a47b737431","ios":"levelo://app?vid=57904490-33be-4b90-8f9e-f9a47b737431"},"vehicle_type_id":"4","last_reported":1749723129,"current_range_meters":4400,"station_id":"ce4bgn92rcd13ifvqbvg","pricing_plan_id":"cebpf4jnsgd1na2vs0mg"},{"bike_id":"b502accc-7489-4fa6-beee-222efe478965","system_id":"levelo_inurba_marseille","lat":43.29273,"lon":5.36843,"is_reserved":false,"is_disabled":false,"rental_uris":{"android":"levelo://app?vid=b502accc-7489-4fa6-beee-222efe478965","ios":"levelo://app?vid=b502accc-7489-4fa6-beee-222efe478965"},"vehicle_type_id":"4","last_reported":1749723129,"current_range_meters":4400,"station_id":"ce4bhbp2rcd13ifvqesg","pricing_plan_id":"cebpf4jnsgd1na2vs0mg"},{"bike_id":"4cf7810e-f984-48d9-a74e-1cceeb046e3a","system_id":"levelo_inurba_marseille","lat":43.2175,"lon":5.346,"is_reserved":false,"is_disabled":false,"rental_uris":{"android":"levelo://app?vid=4cf7810e-f984-48d9-a74e-1cceeb046e3a","ios":"levelo://app?vid=4cf7810e-f984-48d9-a74e-1cceeb046e3a"},"vehicle_type_id":"4","last_reported":1749723129,"current_range_meters":4800,"station_id":"st_cvj6r9ubvosntc0bgbag","pricing_plan_id":"cebpf4jnsgd1na2vs0mg"},{"bike_id":"1e20f032-0f6a-40b2-ad29-e4d2225496fa","system_id":"levelo_inurba_marseille","lat":43.30269,"lon":5.37076,"is_reserved":false,"is_disabled":false,"rental_uris":{"android":"levelo://app?vid=1e20f032-0f6a-40b2-ad29-e4d2225496fa","ios":"levelo://app?vid=1e20f032-0f6a-40b2-ad29-e4d2225496fa"},"vehicle_type_id":"4","last_reported":1749723129,"current_range_meters":6000,"station_id":"","pricing_plan_id":"cebpf4jnsgd1na2vs0mg"},{"bike_id":"165a6ce2-f806-45b2-bf82-39d7bdd011fc","system_id":"levelo_inurba_marseille","lat":43.29381,"lon":5.38542,"is_reserved":false,"is_disabled":false,"rental_uris":{"android":"levelo://app?vid=165a6ce2-f806-45b2-bf82-39d7bdd011fc","ios":"levelo://app?vid=165a6ce2-f806-45b2-bf82-39d7bdd011fc"},"vehicle_type_id":"4","last_reported":1749723129,"current_range_meters":6000,"station_id":"","pricing_plan_id":"cebpf4jnsgd1na2vs0mg"},{"bike_id":"78e4de2c-a3fa-4ed3-9b3d-e6d713804b0e","system_id":"levelo_inurba_marseille","lat":43.26215,"lon":5.37437,"is_reserved":false,"is_disabled":false,"rental_uris":{"android":"levelo://app?vid=78e4de2c-a3fa-4ed3-9b3d-e6d713804b0e","ios":"levelo://app?vid=78e4de2c-a3fa-4ed3-9b3d-e6d713804b0e"},"vehicle_type_id":"4","last_reported":1749723129,"current_range_meters":6000,"station_id":"ce4bhgp2rcd13ifvqfc0","pricing_plan_id":"cebpf4jnsgd1na2vs0mg"},{"bike_id":"3c6fa5e1-a1db-4004-8241-026b15d1a2c7","system_id":"levelo_inurba_marseille","lat":43.32539,"lon":5.41424,"is_reserved":false,"is_disabled":false,"rental_uris":{"android":"levelo://app?vid=3c6fa5e1-a1db-4004-8241-026b15d1a2c7","ios":"levelo://app?vid=3c6fa5e1-a1db-4004-8241-026b15d1a2c7"},"vehicle_type_id":"4","last_reported":1749723129,"current_range_meters":6000,"station_id":"ce4bhq12rcd13ifvqhhg","pricing_plan_id":"cebpf4jnsgd1na2vs0mg"},{"bike_id":"7b60eb59-ed6f-444f-a287-be7aad9bf532","system_id":"levelo_inurba_marseille","lat":43.3053,"lon":5.3672,"is_reserved":false,"is_disabled":false,"rental_uris":{"android":"levelo://app?vid=7b60eb59-ed6f-444f-a287-be7aad9bf532","ios":"levelo://app?vid=7b60eb59-ed6f-444f-a287-be7aad9bf532"},"vehicle_type_id":"4","last_reported":1749723129,"current_range_meters":6400,"station_id":"ce4bgrp2rcd13ifvqc9g","pricing_plan_id":"cebpf4jnsgd1na2vs0mg"},{"bike_id":"675d2bb0-9de6-4696-91e8-62ec4b0c95ac","system_id":"levelo_inurba_marseille","lat":43.29006,"lon":5.35603,"is_reserved":false,"is_disabled":false,"rental_uris":{"android":"levelo://app?vid=675d2bb0-9de6-4696-91e8-62ec4b0c95ac","ios":"levelo://app?vid=675d2bb0-9de6-4696-91e8-62ec4b0c95ac"},"vehicle_type_id":"4","last_reported":1749723129,"current_range_meters":6400,"station_id":"ce4bhb92rcd13ifvqen0","pricing_plan_id":"cebpf4jnsgd1na2vs0mg"},{"bike_id":"66314ca9-30a7-4c0a-8507-6f89f4c9b4e1","system_id":"levelo_inurba_marseille","lat":43.2625,"lon":5.37095,"is_reserved":false,"is_disabled":false,"rental_uris":{"android":"levelo://app?vid=66314ca9-30a7-4c0a-8507-6f89f4c9b4e1","ios":"levelo://app?vid=66314ca9-30a7-4c0a-8507-6f89f4c9b4e1"},"vehicle_type_id":"4","last_reported":1749723129,"current_range_meters":6800,"station_id":"","pricing_plan_id":"cebpf4jnsgd1na2vs0mg"},{"bike_id":"3d53630b-68fe-48dd-a7d8-847b95d123be","system_id":"levelo_inurba_marseille","lat":43.29781,"lon":5.381,"is_reserved":false,"is_disabled":false,"rental_uris":{"android":"levelo://app?vid=3d53630b-68fe-48dd-a7d8-847b95d123be","ios":"levelo://app?vid=3d53630b-68fe-48dd-a7d8-847b95d123be"},"vehicle_type_id":"4","last_reported":1749723129,"current_range_meters":6800,"station_id":"ce4bgip2rcd13ifvqbb0","pricing_plan_id":"cebpf4jnsgd1na2vs0mg"},{"bike_id":"d4448acd-a2e3-40ed-b9cb-f2b22a6aa031","system_id":"levelo_inurba_marseille","lat":43.21753,"lon":5.346,"is_reserved":false,"is_disabled":false,"rental_uris":{"android":"levelo://app?vid=d4448acd-a2e3-40ed-b9cb-f2b22a6aa031","ios":"levelo://app?vid=d4448acd-a2e3-40ed-b9cb-f2b22a6aa031"},"vehicle_type_id":"4","last_reported":1749723129,"current_range_meters":6800,"station_id":"st_cvj6r9ubvosntc0bgbag","pricing_plan_id":"cebpf4jnsgd1na2vs0mg"},{"bike_id":"01dd6945-6b81-4c3b-a60d-445f6ac93780","system_id":"levelo_inurba_marseille","lat":43.27947,"lon":5.41038,"is_reserved":false,"is_disabled":false,"rental_uris":{"android":"levelo://app?vid=01dd6945-6b81-4c3b-a60d-445f6ac93780","ios":"levelo://app?vid=01dd6945-6b81-4c3b-a60d-445f6ac93780"},"vehicle_type_id":"4","last_reported":1749723129,"current_range_meters":7200,"station_id":"ce4bhnp2rcd13ifvqh0g","pricing_plan_id":"cebpf4jnsgd1na2vs0mg"},{"bike_id":"b58882ec-c1db-4d37-9331-714f932b767b","system_id":"levelo_inurba_marseille","lat":43.28441,"lon":5.39209,"is_reserved":false,"is_disabled":false,"rental_uris":{"android":"levelo://app?vid=b58882ec-c1db-4d37-9331-714f932b767b","ios":"levelo://app?vid=b58882ec-c1db-4d37-9331-714f932b767b"},"vehicle_type_id":"4","last_reported":1749723129,"current_range_meters":7200,"station_id":"ce4bhoh2rcd13ifvqh5g","pricing_plan_id":"cebpf4jnsgd1na2vs0mg"},{"bike_id":"0ebd10ca-1136-4a04-aac8-bab7ee3d3df8","system_id":"levelo_inurba_marseille","lat":43.313654,"lon":5.366863,"is_reserved":false,"is_disabled":false,"rental_uris":{"android":"levelo://app?vid=0ebd10ca-1136-4a04-aac8-bab7ee3d3df8","ios":"levelo://app?vid=0ebd10ca-1136-4a04-aac8-bab7ee3d3df8"},"vehicle_type_id":"4","last_reported":1749723129,"current_range_meters":8000,"station_id":"ce4bgr92rcd13ifvqc6g","pricing_plan_id":"cebpf4jnsgd1na2vs0mg"},{"bike_id":"a640ce2d-e43d-4518-8269-b31bc9c025f5","system_id":"levelo_inurba_marseille","lat":43.28566,"lon":5.39493,"is_reserved":false,"is_disabled":false,"rental_uris":{"android":"levelo://app?vid=a640ce2d-e43d-4518-8269-b31bc9c025f5","ios":"levelo://app?vid=a640ce2d-e43d-4518-8269-b31bc9c025f5"},"vehicle_type_id":"4","last_reported":1749723129,"current_range_meters":8000,"station_id":"ce4bh292rcd13ifvqdg0","pricing_plan_id":"cebpf4jnsgd1na2vs0mg"},{"bike_id":"7d696e83-8fff-42b9-89f1-f20c5a831390","system_id":"levelo_inurba_marseille","lat":43.29017,"lon":5.3813,"is_reserved":false,"is_disabled":false,"rental_uris":{"android":"levelo://app?vid=7d696e83-8fff-42b9-89f1-f20c5a831390","ios":"levelo://app?vid=7d696e83-8fff-42b9-89f1-f20c5a831390"},"vehicle_type_id":"4","last_reported":1749723129,"current_range_meters":8000,"station_id":"ce4bh4p2rcd13ifvqe1g","pricing_plan_id":"cebpf4jnsgd1na2vs0mg"},{"bike_id":"00aaa43e-c3fd-4395-90f8-9c1f6508531b","system_id":"levelo_inurba_marseille","lat":43.31328,"lon":5.39685,"is_reserved":false,"is_disabled":false,"rental_uris":{"android":"levelo://app?vid=00aaa43e-c3fd-4395-90f8-9c1f6508531b","ios":"levelo://app?vid=00aaa43e-c3fd-4395-90f8-9c1f6508531b"},"vehicle_type_id":"4","last_reported":1749723129,"current_range_meters":8400,"station_id":"ce4bgvp2rcd13ifvqcu0","pricing_plan_id":"cebpf4jnsgd1na2vs0mg"},{"bike_id":"fdf1e88a-7c80-4805-b5e7-5e32a5da1b90","system_id":"levelo_inurba_marseille","lat":43.23152,"lon":5.43709,"is_reserved":false,"is_disabled":false,"rental_uris":{"android":"levelo://app?vid=fdf1e88a-7c80-4805-b5e7-5e32a5da1b90","ios":"levelo://app?vid=fdf1e88a-7c80-4805-b5e7-5e32a5da1b90"},"vehicle_type_id":"4","last_reported":1749723129,"current_range_meters":8400,"station_id":"ce4bhmp2rcd13ifvqgog","pricing_plan_id":"cebpf4jnsgd1na2vs0mg"},{"bike_id":"84f5a926-1dd6-4535-b647-2764ce0ca103","system_id":"levelo_inurba_marseille","lat":43.32095,"lon":5.36772,"is_reserved":false,"is_disabled":false,"rental_uris":{"android":"levelo://app?vid=84f5a926-1dd6-4535-b647-2764ce0ca103","ios":"levelo://app?vid=84f5a926-1dd6-4535-b647-2764ce0ca103"},"vehicle_type_id":"4","last_reported":1749723129,"current_range_meters":8400,"station_id":"ce4bhrh2rcd13ifvqhug","pricing_plan_id":"cebpf4jnsgd1na2vs0mg"},{"bike_id":"754f7a96-0c05-4934-90ce-cb086e974b20","system_id":"levelo_inurba_marseille","lat":43.2706,"lon":5.40248,"is_reserved":false,"is_disabled":false,"rental_uris":{"android":"levelo://app?vid=754f7a96-0c05-4934-90ce-cb086e974b20","ios":"levelo://app?vid=754f7a96-0c05-4934-90ce-cb086e974b20"},"vehicle_type_id":"4","last_reported":1749723129,"current_range_meters":8800,"station_id":"ce4bhk92rcd13ifvqgc0","pricing_plan_id":"cebpf4jnsgd1na2vs0mg"},{"bike_id":"96121a41-a8be-4a0e-a973-85a52de51c7e","system_id":"levelo_inurba_marseille","lat":43.23191,"lon":5.39978,"is_reserved":false,"is_disabled":false,"rental_uris":{"android":"levelo://app?vid=96121a41-a8be-4a0e-a973-85a52de51c7e","ios":"levelo://app?vid=96121a41-a8be-4a0e-a973-85a52de51c7e"},"vehicle_type_id":"4","last_reported":1749723129,"current_range_meters":8800,"station_id":"ce4bhn12rcd13ifvqgqg","pricing_plan_id":"cebpf4jnsgd1na2vs0mg"},{"bike_id":"8105426e-eb6c-4b79-bfaa-254c1b037d55","system_id":"levelo_inurba_marseille","lat":43.32361,"lon":5.36763,"is_reserved":false,"is_disabled":false,"rental_uris":{"android":"levelo://app?vid=8105426e-eb6c-4b79-bfaa-254c1b037d55","ios":"levelo://app?vid=8105426e-eb6c-4b79-bfaa-254c1b037d55"},"vehicle_type_id":"4","last_reported":1749723129,"current_range_meters":8800,"station_id":"ce4bhsh2rcd13ifvqi2g","pricing_plan_id":"cebpf4jnsgd1na2vs0mg"},{"bike_id":"985cff31-6c7f-411e-b5a9-8d8a23b42ed6","system_id":"levelo_inurba_marseille","lat":43.26854,"lon":5.40206,"is_reserved":false,"is_disabled":false,"rental_uris":{"android":"levelo://app?vid=985cff31-6c7f-411e-b5a9-8d8a23b42ed6","ios":"levelo://app?vid=985cff31-6c7f-411e-b5a9-8d8a23b42ed6"},"vehicle_type_id":"4","last_reported":1749723129,"current_range_meters":9200,"station_id":"","pricing_plan_id":"cebpf4jnsgd1na2vs0mg"},{"bike_id":"af8801d7-a9e9-4e95-80e5-bd78e967defd","system_id":"levelo_inurba_marseille","lat":43.30433,"lon":5.39742,"is_reserved":false,"is_disabled":false,"rental_uris":{"android":"levelo://app?vid=af8801d7-a9e9-4e95-80e5-bd78e967defd","ios":"levelo://app?vid=af8801d7-a9e9-4e95-80e5-bd78e967defd"},"vehicle_type_id":"4","last_reported":1749723129,"current_range_meters":9200,"station_id":"ce4bh092rcd13ifvqd20","pricing_plan_id":"cebpf4jnsgd1na2vs0mg"},{"bike_id":"438f2c20-932d-4325-a2bd-db5d45abf5e6","system_id":"levelo_inurba_marseille","lat":43.30427,"lon":5.39744,"is_reserved":false,"is_disabled":false,"rental_uris":{"android":"levelo://app?vid=438f2c20-932d-4325-a2bd-db5d45abf5e6","ios":"levelo://app?vid=438f2c20-932d-4325-a2bd-db5d45abf5e6"},"vehicle_type_id":"4","last_reported":1749723129,"current_range_meters":9200,"station_id":"ce4bh092rcd13ifvqd20","pricing_plan_id":"cebpf4jnsgd1na2vs0mg"},{"bike_id":"97f9a1ce-c251-4e55-af2e-0cbca4a800a7","system_id":"levelo_inurba_marseille","lat":43.23157,"lon":5.43698,"is_reserved":false,"is_disabled":false,"rental_uris":{"android":"levelo://app?vid=97f9a1ce-c251-4e55-af2e-0cbca4a800a7","ios":"levelo://app?vid=97f9a1ce-c251-4e55-af2e-0cbca4a800a7"},"vehicle_type_id":"4","last_reported":1749723129,"current_range_meters":9200,"station_id":"ce4bhmp2rcd13ifvqgog","pricing_plan_id":"cebpf4jnsgd1na2vs0mg"},{"bike_id":"ea037931-a903-4cb8-bea0-380a80d25f5f","system_id":"levelo_inurba_marseille","lat":43.28701,"lon":5.39978,"is_reserved":false,"is_disabled":false,"rental_uris":{"android":"levelo://app?vid=ea037931-a903-4cb8-bea0-380a80d25f5f","ios":"levelo://app?vid=ea037931-a903-4cb8-bea0-380a80d25f5f"},"vehicle_type_id":"4","last_reported":1749723129,"current_range_meters":9200,"station_id":"ce4bho92rcd13ifvqh3g","pricing_plan_id":"cebpf4jnsgd1na2vs0mg"},{"bike_id":"ca40aa0a-1965-4be2-a6b7-1fd193ec5e53","system_id":"levelo_inurba_marseille","lat":43.30146,"lon":5.38099,"is_reserved":false,"is_disabled":false,"rental_uris":{"android":"levelo://app?vid=ca40aa0a-1965-4be2-a6b7-1fd193ec5e53","ios":"levelo://app?vid=ca40aa0a-1965-4be2-a6b7-1fd193ec5e53"},"vehicle_type_id":"4","last_reported":1749723129,"current_range_meters":9600,"station_id":"ce4bgjp2rcd13ifvqbh0","pricing_plan_id":"cebpf4jnsgd1na2vs0mg"},{"bike_id":"d36aa8a2-e4b6-4f56-a6ff-6193579e33d3","system_id":"levelo_inurba_marseille","lat":43.262023,"lon":5.379305,"is_reserved":false,"is_disabled":false,"rental_uris":{"android":"levelo://app?vid=d36aa8a2-e4b6-4f56-a6ff-6193579e33d3","ios":"levelo://app?vid=d36aa8a2-e4b6-4f56-a6ff-6193579e33d3"},"vehicle_type_id":"4","last_reported":1749723129,"current_range_meters":9600,"station_id":"ce4bhjp2rcd13ifvqg90","pricing_plan_id":"cebpf4jnsgd1na2vs0mg"},{"bike_id":"840f8b33-0723-4225-b7ba-0fc46b3ae739","system_id":"levelo_inurba_marseille","lat":43.240587,"lon":5.377493,"is_reserved":false,"is_disabled":false,"rental_uris":{"android":"levelo://app?vid=840f8b33-0723-4225-b7ba-0fc46b3ae739","ios":"levelo://app?vid=840f8b33-0723-4225-b7ba-0fc46b3ae739"},"vehicle_type_id":"4","last_reported":1749723129,"current_range_meters":9600,"station_id":"ce4bhnp2rcd13ifvqgvg","pricing_plan_id":"cebpf4jnsgd1na2vs0mg"},{"bike_id":"06894864-ef44-45c7-b38a-9e654b60f033","system_id":"levelo_inurba_marseille","lat":43.3057,"lon":5.38932,"is_reserved":false,"is_disabled":false,"rental_uris":{"android":"levelo://app?vid=06894864-ef44-45c7-b38a-9e654b60f033","ios":"levelo://app?vid=06894864-ef44-45c7-b38a-9e654b60f033"},"vehicle_type_id":"4","last_reported":1749723129,"current_range_meters":10000,"station_id":"","pricing_plan_id":"cebpf4jnsgd1na2vs0mg"},{"bike_id":"308cbf69-b866-4a48-b377-e4f7d5e7c70b","system_id":"levelo_inurba_marseille","lat":43.32917,"lon":5.3902,"is_reserved":false,"is_disabled":false,"rental_uris":{"android":"levelo://app?vid=308cbf69-b866-4a48-b377-e4f7d5e7c70b","ios":"levelo://app?vid=308cbf69-b866-4a48-b377-e4f7d5e7c70b"},"vehicle_type_id":"4","last_reported":1749723129,"current_range_meters":10000,"station_id":"","pricing_plan_id":"cebpf4jnsgd1na2vs0mg"},{"bike_id":"354a1076-00d7-46ec-830b-28e28e2cb143","system_id":"levelo_inurba_marseille","lat":43.29279,"lon":5.36833,"is_reserved":false,"is_disabled":false,"rental_uris":{"android":"levelo://app?vid=354a1076-00d7-46ec-830b-28e28e2cb143","ios":"levelo://app?vid=354a1076-00d7-46ec-830b-28e28e2cb143"},"vehicle_type_id":"4","last_reported":1749723129,"current_range_meters":10000,"station_id":"ce4bhbp2rcd13ifvqesg","pricing_plan_id":"cebpf4jnsgd1na2vs0mg"},{"bike_id":"e2a0487a-4e75-4357-a453-ff6c02c15d02","system_id":"levelo_inurba_marseille","lat":43.26209,"lon":5.374485,"is_reserved":false,"is_disabled":false,"rental_uris":{"android":"levelo://app?vid=e2a0487a-4e75-4357-a453-ff6c02c15d02","ios":"levelo://app?vid=e2a0487a-4e75-4357-a453-ff6c02c15d02"},"vehicle_type_id":"4","last_reported":1749723129,"current_range_meters":10000,"station_id":"ce4bhgp2rcd13ifvqfc0","pricing_plan_id":"cebpf4jnsgd1na2vs0mg"},{"bike_id":"96cff9dc-6a2b-481d-b721-7bdc571475bc","system_id":"levelo_inurba_marseille","lat":43.24384,"lon":5.37055,"is_reserved":false,"is_disabled":false,"rental_uris":{"android":"levelo://app?vid=96cff9dc-6a2b-481d-b721-7bdc571475bc","ios":"levelo://app?vid=96cff9dc-6a2b-481d-b721-7bdc571475bc"},"vehicle_type_id":"4","last_reported":1749723129,"current_range_meters":10000,"station_id":"ce4bhhh2rcd13ifvqfk0","pricing_plan_id":"cebpf4jnsgd1na2vs0mg"},{"bike_id":"8a07f5f3-18dc-489d-8d47-c430cba84b48","system_id":"levelo_inurba_marseille","lat":43.27064,"lon":5.42281,"is_reserved":false,"is_disabled":false,"rental_uris":{"android":"levelo://app?vid=8a07f5f3-18dc-489d-8d47-c430cba84b48","ios":"levelo://app?vid=8a07f5f3-18dc-489d-8d47-c430cba84b48"},"vehicle_type_id":"4","last_reported":1749723129,"current_range_meters":10000,"station_id":"ce4bhk92rcd13ifvqgb0","pricing_plan_id":"cebpf4jnsgd1na2vs0mg"},{"bike_id":"0923e79e-3960-4eec-9027-38089346fe3a","system_id":"levelo_inurba_marseille","lat":43.231924,"lon":5.355509,"is_reserved":false,"is_disabled":false,"rental_uris":{"android":"levelo://app?vid=0923e79e-3960-4eec-9027-38089346fe3a","ios":"levelo://app?vid=0923e79e-3960-4eec-9027-38089346fe3a"},"vehicle_type_id":"4","last_reported":1749723129,"current_range_meters":10000,"station_id":"ce4bhu92rcd13ifvqi70","pricing_plan_id":"cebpf4jnsgd1na2vs0mg"},{"bike_id":"e5ff82fd-cc37-4e1f-aade-050998fb0f61","system_id":"levelo_inurba_marseille","lat":43.26269,"lon":5.37083,"is_reserved":false,"is_disabled":false,"rental_uris":{"android":"levelo://app?vid=e5ff82fd-cc37-4e1f-aade-050998fb0f61","ios":"levelo://app?vid=e5ff82fd-cc37-4e1f-aade-050998fb0f61"},"vehicle_type_id":"4","last_reported":1749723129,"current_range_meters":10800,"station_id":"","pricing_plan_id":"cebpf4jnsgd1na2vs0mg"},{"bike_id":"1c514f86-6260-4a89-a4af-55088bef0337","system_id":"levelo_inurba_marseille","lat":43.281,"lon":5.37831,"is_reserved":false,"is_disabled":false,"rental_uris":{"android":"levelo://app?vid=1c514f86-6260-4a89-a4af-55088bef0337","ios":"levelo://app?vid=1c514f86-6260-4a89-a4af-55088bef0337"},"vehicle_type_id":"4","last_reported":1749723129,"current_range_meters":10800,"station_id":"ce4bha12rcd13ifvqee0","pricing_plan_id":"cebpf4jnsgd1na2vs0mg"},{"bike_id":"6470c4aa-1fc5-465e-b3c0-c755644551e3","system_id":"levelo_inurba_marseille","lat":43.3414,"lon":5.40893,"is_reserved":false,"is_disabled":false,"rental_uris":{"android":"levelo://app?vid=6470c4aa-1fc5-465e-b3c0-c755644551e3","ios":"levelo://app?vid=6470c4aa-1fc5-465e-b3c0-c755644551e3"},"vehicle_type_id":"4","last_reported":1749723129,"current_range_meters":10800,"station_id":"ce4bhqh2rcd13ifvqhlg","pricing_plan_id":"cebpf4jnsgd1na2vs0mg"},{"bike_id":"a2421370-e442-436f-a98a-844d44299694","system_id":"levelo_inurba_marseille","lat":43.32348,"lon":5.36747,"is_reserved":false,"is_disabled":false,"rental_uris":{"android":"levelo://app?vid=a2421370-e442-436f-a98a-844d44299694","ios":"levelo://app?vid=a2421370-e442-436f-a98a-844d44299694"},"vehicle_type_id":"4","last_reported":1749723129,"current_range_meters":10800,"station_id":"ce4bhsh2rcd13ifvqi2g","pricing_plan_id":"cebpf4jnsgd1na2vs0mg"},{"bike_id":"e766a921-acda-4899-99c6-9788cf4b2563","system_id":"levelo_inurba_marseille","lat":43.28847,"lon":5.39302,"is_reserved":false,"is_disabled":false,"rental_uris":{"android":"levelo://app?vid=e766a921-acda-4899-99c6-9788cf4b2563","ios":"levelo://app?vid=e766a921-acda-4899-99c6-9788cf4b2563"},"vehicle_type_id":"4","last_reported":1749723129,"current_range_meters":11200,"station_id":"ce4bh2p2rcd13ifvqdi0","pricing_plan_id":"cebpf4jnsgd1na2vs0mg"},{"bike_id":"6dfd5595-654e-42ee-8e58-2a5c3df13ff8","system_id":"levelo_inurba_marseille","lat":43.30941,"lon":5.37293,"is_reserved":false,"is_disabled":false,"rental_uris":{"android":"levelo://app?vid=6dfd5595-654e-42ee-8e58-2a5c3df13ff8","ios":"levelo://app?vid=6dfd5595-654e-42ee-8e58-2a5c3df13ff8"},"vehicle_type_id":"4","last_reported":1749723129,"current_range_meters":11600,"station_id":"","pricing_plan_id":"cebpf4jnsgd1na2vs0mg"},{"bike_id":"608dbf53-4bd7-4842-92d3-6444e235738b","system_id":"levelo_inurba_marseille","lat":43.2669,"lon":5.38265,"is_reserved":false,"is_disabled":false,"rental_uris":{"android":"levelo://app?vid=608dbf53-4bd7-4842-92d3-6444e235738b","ios":"levelo://app?vid=608dbf53-4bd7-4842-92d3-6444e235738b"},"vehicle_type_id":"4","last_reported":1749723129,"current_range_meters":11600,"station_id":"ce4bhg92rcd13ifvqf90","pricing_plan_id":"cebpf4jnsgd1na2vs0mg"},{"bike_id":"4b12694e-f024-4e6d-90ef-c7669d259925","system_id":"levelo_inurba_marseille","lat":43.2849,"lon":5.38411,"is_reserved":false,"is_disabled":false,"rental_uris":{"android":"levelo://app?vid=4b12694e-f024-4e6d-90ef-c7669d259925","ios":"levelo://app?vid=4b12694e-f024-4e6d-90ef-c7669d259925"},"vehicle_type_id":"4","last_reported":1749723129,"current_range_meters":12000,"station_id":"ce4bh512rcd13ifvqe3g","pricing_plan_id":"cebpf4jnsgd1na2vs0mg"},{"bike_id":"d47ffd9d-1cb4-439b-ae04-b9bdc2fe1971","system_id":"levelo_inurba_marseille","lat":43.241707,"lon":5.363987,"is_reserved":false,"is_disabled":false,"rental_uris":{"android":"levelo://app?vid=d47ffd9d-1cb4-439b-ae04-b9bdc2fe1971","ios":"levelo://app?vid=d47ffd9d-1cb4-439b-ae04-b9bdc2fe1971"},"vehicle_type_id":"4","last_reported":1749723129,"current_range_meters":12000,"station_id":"cpo36qri1sfpv3e86is0","pricing_plan_id":"cebpf4jnsgd1na2vs0mg"},{"bike_id":"e8d1c5bb-de92-4e6e-81e7-65c09aadd7ca","system_id":"levelo_inurba_marseille","lat":43.21178,"lon":5.35103,"is_reserved":false,"is_disabled":false,"rental_uris":{"android":"levelo://app?vid=e8d1c5bb-de92-4e6e-81e7-65c09aadd7ca","ios":"levelo://app?vid=e8d1c5bb-de92-4e6e-81e7-65c09aadd7ca"},"vehicle_type_id":"4","last_reported":1749723129,"current_range_meters":12000,"station_id":"st_cvj6sg6p6f1abm77japg","pricing_plan_id":"cebpf4jnsgd1na2vs0mg"},{"bike_id":"51c9c3d1-050f-47d1-8726-c1814cd19d79","system_id":"levelo_inurba_marseille","lat":43.3127,"lon":5.38954,"is_reserved":false,"is_disabled":false,"rental_uris":{"android":"levelo://app?vid=51c9c3d1-050f-47d1-8726-c1814cd19d79","ios":"levelo://app?vid=51c9c3d1-050f-47d1-8726-c1814cd19d79"},"vehicle_type_id":"4","last_reported":1749723129,"current_range_meters":12400,"station_id":"","pricing_plan_id":"cebpf4jnsgd1na2vs0mg"},{"bike_id":"91252cb4-db98-4cff-ba49-0337a6eacf8f","system_id":"levelo_inurba_marseille","lat":43.3199,"lon":5.3877,"is_reserved":false,"is_disabled":false,"rental_uris":{"android":"levelo://app?vid=91252cb4-db98-4cff-ba49-0337a6eacf8f","ios":"levelo://app?vid=91252cb4-db98-4cff-ba49-0337a6eacf8f"},"vehicle_type_id":"4","last_reported":1749723129,"current_range_meters":12400,"station_id":"","pricing_plan_id":"cebpf4jnsgd1na2vs0mg"},{"bike_id":"5d04c0c8-ca63-472b-b867-00b65bf24925","system_id":"levelo_inurba_marseille","lat":43.29265,"lon":5.38432,"is_reserved":false,"is_disabled":false,"rental_uris":{"android":"levelo://app?vid=5d04c0c8-ca63-472b-b867-00b65bf24925","ios":"levelo://app?vid=5d04c0c8-ca63-472b-b867-00b65bf24925"},"vehicle_type_id":"4","last_reported":1749723129,"current_range_meters":12400,"station_id":"ce4bh692rcd13ifvqea0","pricing_plan_id":"cebpf4jnsgd1na2vs0mg"},{"bike_id":"6d85f650-790f-4086-b07d-fbf4f91866b0","system_id":"levelo_inurba_marseille","lat":43.29268,"lon":5.36843,"is_reserved":false,"is_disabled":false,"rental_uris":{"android":"levelo://app?vid=6d85f650-790f-4086-b07d-fbf4f91866b0","ios":"levelo://app?vid=6d85f650-790f-4086-b07d-fbf4f91866b0"},"vehicle_type_id":"4","last_reported":1749723129,"current_range_meters":12400,"station_id":"ce4bhbp2rcd13ifvqesg","pricing_plan_id":"cebpf4jnsgd1na2vs0mg"},{"bike_id":"a41b2ba3-a518-40e8-aa74-96af13920b2d","system_id":"levelo_inurba_marseille","lat":43.265783,"lon":5.390118,"is_reserved":false,"is_disabled":false,"rental_uris":{"android":"levelo://app?vid=a41b2ba3-a518-40e8-aa74-96af13920b2d","ios":"levelo://app?vid=a41b2ba3-a518-40e8-aa74-96af13920b2d"},"vehicle_type_id":"4","last_reported":1749723129,"current_range_meters":12400,"station_id":"ce4bhe12rcd13ifvqf30","pricing_plan_id":"cebpf4jnsgd1na2vs0mg"},{"bike_id":"6d6a7ee5-eb4e-486a-a199-1c67f7b7ed5f","system_id":"levelo_inurba_marseille","lat":43.26026,"lon":5.37546,"is_reserved":false,"is_disabled":false,"rental_uris":{"android":"levelo://app?vid=6d6a7ee5-eb4e-486a-a199-1c67f7b7ed5f","ios":"levelo://app?vid=6d6a7ee5-eb4e-486a-a199-1c67f7b7ed5f"},"vehicle_type_id":"4","last_reported":1749723129,"current_range_meters":12400,"station_id":"ce4bhgh2rcd13ifvqfa0","pricing_plan_id":"cebpf4jnsgd1na2vs0mg"},{"bike_id":"743245d4-5457-49b9-9efc-d95c90d69b8e","system_id":"levelo_inurba_marseille","lat":43.314873,"lon":5.373081,"is_reserved":false,"is_disabled":false,"rental_uris":{"android":"levelo://app?vid=743245d4-5457-49b9-9efc-d95c90d69b8e","ios":"levelo://app?vid=743245d4-5457-49b9-9efc-d95c90d69b8e"},"vehicle_type_id":"4","last_reported":1749723129,"current_range_meters":12400,"station_id":"ce4bhip2rcd13ifvqft0","pricing_plan_id":"cebpf4jnsgd1na2vs0mg"},{"bike_id":"f57da1de-1821-4d0c-a34e-6999c5262ffc","system_id":"levelo_inurba_marseille","lat":43.32203,"lon":5.36854,"is_reserved":false,"is_disabled":false,"rental_uris":{"android":"levelo://app?vid=f57da1de-1821-4d0c-a34e-6999c5262ffc","ios":"levelo://app?vid=f57da1de-1821-4d0c-a34e-6999c5262ffc"},"vehicle_type_id":"4","last_reported":1749723129,"current_range_meters":12400,"station_id":"ce4bhrh2rcd13ifvqhug","pricing_plan_id":"cebpf4jnsgd1na2vs0mg"},{"bike_id":"500320f2-e4bb-4906-a414-ca67470055ab","system_id":"levelo_inurba_marseille","lat":43.25642,"lon":5.38583,"is_reserved":false,"is_disabled":false,"rental_uris":{"android":"levelo://app?vid=500320f2-e4bb-4906-a414-ca67470055ab","ios":"levelo://app?vid=500320f2-e4bb-4906-a414-ca67470055ab"},"vehicle_type_id":"4","last_reported":1749723129,"current_range_meters":12800,"station_id":"","pricing_plan_id":"cebpf4jnsgd1na2vs0mg"},{"bike_id":"501fe5cc-ec9f-4031-8e12-9c9a87dfd25d","system_id":"levelo_inurba_marseille","lat":43.31785,"lon":5.406098,"is_reserved":false,"is_disabled":false,"rental_uris":{"android":"levelo://app?vid=501fe5cc-ec9f-4031-8e12-9c9a87dfd25d","ios":"levelo://app?vid=501fe5cc-ec9f-4031-8e12-9c9a87dfd25d"},"vehicle_type_id":"4","last_reported":1749723129,"current_range_meters":13600,"station_id":"","pricing_plan_id":"cebpf4jnsgd1na2vs0mg"},{"bike_id":"0ccee48e-0072-4e2d-92cc-7694194fba11","system_id":"levelo_inurba_marseille","lat":43.28669,"lon":5.38661,"is_reserved":false,"is_disabled":false,"rental_uris":{"android":"levelo://app?vid=0ccee48e-0072-4e2d-92cc-7694194fba11","ios":"levelo://app?vid=0ccee48e-0072-4e2d-92cc-7694194fba11"},"vehicle_type_id":"4","last_reported":1749723129,"current_range_meters":13600,"station_id":"ce4bh492rcd13ifvqdug","pricing_plan_id":"cebpf4jnsgd1na2vs0mg"},{"bike_id":"cb85ea83-5ea9-4da8-9ead-01e61950d4e9","system_id":"levelo_inurba_marseille","lat":43.28714,"lon":5.37938,"is_reserved":false,"is_disabled":false,"rental_uris":{"android":"levelo://app?vid=cb85ea83-5ea9-4da8-9ead-01e61950d4e9","ios":"levelo://app?vid=cb85ea83-5ea9-4da8-9ead-01e61950d4e9"},"vehicle_type_id":"4","last_reported":1749723129,"current_range_meters":13600,"station_id":"ce4bh9p2rcd13ifvqec0","pricing_plan_id":"cebpf4jnsgd1na2vs0mg"},{"bike_id":"f5ac915e-cb20-4e27-b154-51f87e387251","system_id":"levelo_inurba_marseille","lat":43.30463,"lon":5.37908,"is_reserved":false,"is_disabled":false,"rental_uris":{"android":"levelo://app?vid=f5ac915e-cb20-4e27-b154-51f87e387251","ios":"levelo://app?vid=f5ac915e-cb20-4e27-b154-51f87e387251"},"vehicle_type_id":"4","last_reported":1749723129,"current_range_meters":14000,"station_id":"ce4bgup2rcd13ifvqcn0","pricing_plan_id":"cebpf4jnsgd1na2vs0mg"},{"bike_id":"ce81f804-a274-484f-a641-28706f036e77","system_id":"levelo_inurba_marseille","lat":43.31909,"lon":5.40764,"is_reserved":false,"is_disabled":false,"rental_uris":{"android":"levelo://app?vid=ce81f804-a274-484f-a641-28706f036e77","ios":"levelo://app?vid=ce81f804-a274-484f-a641-28706f036e77"},"vehicle_type_id":"4","last_reported":1749723129,"current_range_meters":14000,"station_id":"ce4bhq12rcd13ifvqhig","pricing_plan_id":"cebpf4jnsgd1na2vs0mg"},{"bike_id":"45cb9171-bb7e-418e-bf45-5916b7d21e5e","system_id":"levelo_inurba_marseille","lat":43.32111,"lon":5.36777,"is_reserved":false,"is_disabled":false,"rental_uris":{"android":"levelo://app?vid=45cb9171-bb7e-418e-bf45-5916b7d21e5e","ios":"levelo://app?vid=45cb9171-bb7e-418e-bf45-5916b7d21e5e"},"vehicle_type_id":"4","last_reported":1749723129,"current_range_meters":14000,"station_id":"ce4bhrh2rcd13ifvqhug","pricing_plan_id":"cebpf4jnsgd1na2vs0mg"},{"bike_id":"0f1a965a-6e9d-4653-98f3-12fe99f77f57","system_id":"levelo_inurba_marseille","lat":43.28275,"lon":5.35057,"is_reserved":false,"is_disabled":false,"rental_uris":{"android":"levelo://app?vid=0f1a965a-6e9d-4653-98f3-12fe99f77f57","ios":"levelo://app?vid=0f1a965a-6e9d-4653-98f3-12fe99f77f57"},"vehicle_type_id":"4","last_reported":1749723129,"current_range_meters":14400,"station_id":"","pricing_plan_id":"cebpf4jnsgd1na2vs0mg"},{"bike_id":"e1259bdc-2fca-4f0a-8c39-8cf9d1a28f2e","system_id":"levelo_inurba_marseille","lat":43.26664,"lon":5.38294,"is_reserved":false,"is_disabled":false,"rental_uris":{"android":"levelo://app?vid=e1259bdc-2fca-4f0a-8c39-8cf9d1a28f2e","ios":"levelo://app?vid=e1259bdc-2fca-4f0a-8c39-8cf9d1a28f2e"},"vehicle_type_id":"4","last_reported":1749723129,"current_range_meters":14400,"station_id":"ce4bhg92rcd13ifvqf90","pricing_plan_id":"cebpf4jnsgd1na2vs0mg"},{"bike_id":"b125c7ae-5715-4ac5-8120-130332be2353","system_id":"levelo_inurba_marseille","lat":43.243879,"lon":5.370596,"is_reserved":false,"is_disabled":false,"rental_uris":{"android":"levelo://app?vid=b125c7ae-5715-4ac5-8120-130332be2353","ios":"levelo://app?vid=b125c7ae-5715-4ac5-8120-130332be2353"},"vehicle_type_id":"4","last_reported":1749723129,"current_range_meters":14400,"station_id":"ce4bhhh2rcd13ifvqfk0","pricing_plan_id":"cebpf4jnsgd1na2vs0mg"},{"bike_id":"a63a44e1-3691-4845-8be6-9085725b266d","system_id":"levelo_inurba_marseille","lat":43.3132,"lon":5.37534,"is_reserved":false,"is_disabled":false,"rental_uris":{"android":"levelo://app?vid=a63a44e1-3691-4845-8be6-9085725b266d","ios":"levelo://app?vid=a63a44e1-3691-4845-8be6-9085725b266d"},"vehicle_type_id":"4","last_reported":1749723129,"current_range_meters":14800,"station_id":"","pricing_plan_id":"cebpf4jnsgd1na2vs0mg"},{"bike_id":"46186c23-1d81-4d78-83f7-1cfbc90e845c","system_id":"levelo_inurba_marseille","lat":43.31252,"lon":5.36873,"is_reserved":false,"is_disabled":false,"rental_uris":{"android":"levelo://app?vid=46186c23-1d81-4d78-83f7-1cfbc90e845c","ios":"levelo://app?vid=46186c23-1d81-4d78-83f7-1cfbc90e845c"},"vehicle_type_id":"4","last_reported":1749723129,"current_range_meters":14800,"station_id":"ce4bgl92rcd13ifvqbq0","pricing_plan_id":"cebpf4jnsgd1na2vs0mg"},{"bike_id":"b391ef6d-d9d7-4895-9229-6f250d1cbeb5","system_id":"levelo_inurba_marseille","lat":43.29787,"lon":5.39337,"is_reserved":false,"is_disabled":false,"rental_uris":{"android":"levelo://app?vid=b391ef6d-d9d7-4895-9229-6f250d1cbeb5","ios":"levelo://app?vid=b391ef6d-d9d7-4895-9229-6f250d1cbeb5"},"vehicle_type_id":"4","last_reported":1749723129,"current_range_meters":14800,"station_id":"chh1huq6cuj3fo74tm60","pricing_plan_id":"cebpf4jnsgd1na2vs0mg"},{"bike_id":"a1cb9f3a-baac-4a2e-8a7d-8fa2b49afb45","system_id":"levelo_inurba_marseille","lat":43.2754,"lon":5.35988,"is_reserved":false,"is_disabled":false,"rental_uris":{"android":"levelo://app?vid=a1cb9f3a-baac-4a2e-8a7d-8fa2b49afb45","ios":"levelo://app?vid=a1cb9f3a-baac-4a2e-8a7d-8fa2b49afb45"},"vehicle_type_id":"4","last_reported":1749723129,"current_range_meters":15200,"station_id":"","pricing_plan_id":"cebpf4jnsgd1na2vs0mg"},{"bike_id":"7868f4e5-4e66-4d75-b6bd-59f57cd21795","system_id":"levelo_inurba_marseille","lat":43.27537,"lon":5.35986,"is_reserved":false,"is_disabled":false,"rental_uris":{"android":"levelo://app?vid=7868f4e5-4e66-4d75-b6bd-59f57cd21795","ios":"levelo://app?vid=7868f4e5-4e66-4d75-b6bd-59f57cd21795"},"vehicle_type_id":"4","last_reported":1749723129,"current_range_meters":15200,"station_id":"ce4bgj92rcd13ifvqbe0","pricing_plan_id":"cebpf4jnsgd1na2vs0mg"},{"bike_id":"1ccbee63-a471-470d-8d64-93fc2b338593","system_id":"levelo_inurba_marseille","lat":43.30224,"lon":5.39439,"is_reserved":false,"is_disabled":false,"rental_uris":{"android":"levelo://app?vid=1ccbee63-a471-470d-8d64-93fc2b338593","ios":"levelo://app?vid=1ccbee63-a471-470d-8d64-93fc2b338593"},"vehicle_type_id":"4","last_reported":1749723129,"current_range_meters":15200,"station_id":"ce4bh0p2rcd13ifvqd70","pricing_plan_id":"cebpf4jnsgd1na2vs0mg"},{"bike_id":"8c31f4a5-033f-4dc1-acaa-6b626b1b7f90","system_id":"levelo_inurba_marseille","lat":43.231487,"lon":5.437147,"is_reserved":false,"is_disabled":false,"rental_uris":{"android":"levelo://app?vid=8c31f4a5-033f-4dc1-acaa-6b626b1b7f90","ios":"levelo://app?vid=8c31f4a5-033f-4dc1-acaa-6b626b1b7f90"},"vehicle_type_id":"4","last_reported":1749723129,"current_range_meters":15200,"station_id":"ce4bhmp2rcd13ifvqgog","pricing_plan_id":"cebpf4jnsgd1na2vs0mg"},{"bike_id":"9cfb5991-2280-4230-b550-97760b380a10","system_id":"levelo_inurba_marseille","lat":43.24164,"lon":5.36391,"is_reserved":false,"is_disabled":false,"rental_uris":{"android":"levelo://app?vid=9cfb5991-2280-4230-b550-97760b380a10","ios":"levelo://app?vid=9cfb5991-2280-4230-b550-97760b380a10"},"vehicle_type_id":"4","last_reported":1749723129,"current_range_meters":15200,"station_id":"cpo36qri1sfpv3e86is0","pricing_plan_id":"cebpf4jnsgd1na2vs0mg"},{"bike_id":"7d7170dd-d55e-43db-a9c2-1ed74c433fd7","system_id":"levelo_inurba_marseille","lat":43.3099,"lon":5.41998,"is_reserved":false,"is_disabled":false,"rental_uris":{"android":"levelo://app?vid=7d7170dd-d55e-43db-a9c2-1ed74c433fd7","ios":"levelo://app?vid=7d7170dd-d55e-43db-a9c2-1ed74c433fd7"},"vehicle_type_id":"4","last_reported":1749723129,"current_range_meters":16000,"station_id":"","pricing_plan_id":"cebpf4jnsgd1na2vs0mg"},{"bike_id":"e5ef7447-82af-477b-846f-d44631249354","system_id":"levelo_inurba_marseille","lat":43.32507,"lon":5.388306,"is_reserved":false,"is_disabled":false,"rental_uris":{"android":"levelo://app?vid=e5ef7447-82af-477b-846f-d44631249354","ios":"levelo://app?vid=e5ef7447-82af-477b-846f-d44631249354"},"vehicle_type_id":"4","last_reported":1749723129,"current_range_meters":16000,"station_id":"","pricing_plan_id":"cebpf4jnsgd1na2vs0mg"},{"bike_id":"ae1483c4-a431-4fa7-8050-12121f3af6e4","system_id":"levelo_inurba_marseille","lat":43.28698,"lon":5.37378,"is_reserved":false,"is_disabled":false,"rental_uris":{"android":"levelo://app?vid=ae1483c4-a431-4fa7-8050-12121f3af6e4","ios":"levelo://app?vid=ae1483c4-a431-4fa7-8050-12121f3af6e4"},"vehicle_type_id":"4","last_reported":1749723129,"current_range_meters":16000,"station_id":"ce4bh3p2rcd13ifvqdq0","pricing_plan_id":"cebpf4jnsgd1na2vs0mg"},{"bike_id":"90977c89-c9ae-41b6-b83e-785a991e8809","system_id":"levelo_inurba_marseille","lat":43.28613,"lon":5.35107,"is_reserved":false,"is_disabled":false,"rental_uris":{"android":"levelo://app?vid=90977c89-c9ae-41b6-b83e-785a991e8809","ios":"levelo://app?vid=90977c89-c9ae-41b6-b83e-785a991e8809"},"vehicle_type_id":"4","last_reported":1749723129,"current_range_meters":16000,"station_id":"ce4bhch2rcd13ifvqeug","pricing_plan_id":"cebpf4jnsgd1na2vs0mg"},{"bike_id":"28bd68f4-cc8c-42c7-a7b6-31e32bdcb1d3","system_id":"levelo_inurba_marseille","lat":43.25922,"lon":5.40907,"is_reserved":false,"is_disabled":false,"rental_uris":{"android":"levelo://app?vid=28bd68f4-cc8c-42c7-a7b6-31e32bdcb1d3","ios":"levelo://app?vid=28bd68f4-cc8c-42c7-a7b6-31e32bdcb1d3"},"vehicle_type_id":"4","last_reported":1749723129,"current_range_meters":16000,"station_id":"ce4bhm92rcd13ifvqglg","pricing_plan_id":"cebpf4jnsgd1na2vs0mg"},{"bike_id":"7003b93c-725d-412e-9127-fbade718cbc3","system_id":"levelo_inurba_marseille","lat":43.21194,"lon":5.35074,"is_reserved":false,"is_disabled":false,"rental_uris":{"android":"levelo://app?vid=7003b93c-725d-412e-9127-fbade718cbc3","ios":"levelo://app?vid=7003b93c-725d-412e-9127-fbade718cbc3"},"vehicle_type_id":"4","last_reported":1749723129,"current_range_meters":16000,"station_id":"st_cvj6sg6p6f1abm77japg","pricing_plan_id":"cebpf4jnsgd1na2vs0mg"},{"bike_id":"1268e070-f02d-4537-93df-0bfd5c4daa05","system_id":"levelo_inurba_marseille","lat":43.32689,"lon":5.37673,"is_reserved":false,"is_disabled":false,"rental_uris":{"android":"levelo://app?vid=1268e070-f02d-4537-93df-0bfd5c4daa05","ios":"levelo://app?vid=1268e070-f02d-4537-93df-0bfd5c4daa05"},"vehicle_type_id":"4","last_reported":1749723129,"current_range_meters":16400,"station_id":"","pricing_plan_id":"cebpf4jnsgd1na2vs0mg"},{"bike_id":"1989215c-378c-442b-a262-e4741c2e9de7","system_id":"levelo_inurba_marseille","lat":43.30223,"lon":5.40365,"is_reserved":false,"is_disabled":false,"rental_uris":{"android":"levelo://app?vid=1989215c-378c-442b-a262-e4741c2e9de7","ios":"levelo://app?vid=1989215c-378c-442b-a262-e4741c2e9de7"},"vehicle_type_id":"4","last_reported":1749723129,"current_range_meters":16400,"station_id":"","pricing_plan_id":"cebpf4jnsgd1na2vs0mg"},{"bike_id":"c0bd4251-d527-48a7-9378-e4e80c1c274f","system_id":"levelo_inurba_marseille","lat":43.318138,"lon":5.37369,"is_reserved":false,"is_disabled":false,"rental_uris":{"android":"levelo://app?vid=c0bd4251-d527-48a7-9378-e4e80c1c274f","ios":"levelo://app?vid=c0bd4251-d527-48a7-9378-e4e80c1c274f"},"vehicle_type_id":"4","last_reported":1749723129,"current_range_meters":16400,"station_id":"","pricing_plan_id":"cebpf4jnsgd1na2vs0mg"},{"bike_id":"7624f930-8a29-453f-876b-d242de2c99f9","system_id":"levelo_inurba_marseille","lat":43.31288,"lon":5.36836,"is_reserved":false,"is_disabled":false,"rental_uris":{"android":"levelo://app?vid=7624f930-8a29-453f-876b-d242de2c99f9","ios":"levelo://app?vid=7624f930-8a29-453f-876b-d242de2c99f9"},"vehicle_type_id":"4","last_reported":1749723129,"current_range_meters":16400,"station_id":"","pricing_plan_id":"cebpf4jnsgd1na2vs0mg"},{"bike_id":"6e464720-93b0-4699-80fe-881649eb71cd","system_id":"levelo_inurba_marseille","lat":43.2325,"lon":5.3558,"is_reserved":false,"is_disabled":false,"rental_uris":{"android":"levelo://app?vid=6e464720-93b0-4699-80fe-881649eb71cd","ios":"levelo://app?vid=6e464720-93b0-4699-80fe-881649eb71cd"},"vehicle_type_id":"4","last_reported":1749723129,"current_range_meters":16400,"station_id":"","pricing_plan_id":"cebpf4jnsgd1na2vs0mg"},{"bike_id":"d24133ff-b3b7-4bc8-975b-6c012903b7dd","system_id":"levelo_inurba_marseille","lat":43.312301,"lon":5.368593,"is_reserved":false,"is_disabled":false,"rental_uris":{"android":"levelo://app?vid=d24133ff-b3b7-4bc8-975b-6c012903b7dd","ios":"levelo://app?vid=d24133ff-b3b7-4bc8-975b-6c012903b7dd"},"vehicle_type_id":"4","last_reported":1749723129,"current_range_meters":16400,"station_id":"ce4bgl92rcd13ifvqbq0","pricing_plan_id":"cebpf4jnsgd1na2vs0mg"},{"bike_id":"ee6218aa-9e38-43a9-adfa-194464ee1685","system_id":"levelo_inurba_marseille","lat":43.30466,"lon":5.37901,"is_reserved":false,"is_disabled":false,"rental_uris":{"android":"levelo://app?vid=ee6218aa-9e38-43a9-adfa-194464ee1685","ios":"levelo://app?vid=ee6218aa-9e38-43a9-adfa-194464ee1685"},"vehicle_type_id":"4","last_reported":1749723129,"current_range_meters":16400,"station_id":"ce4bgup2rcd13ifvqcn0","pricing_plan_id":"cebpf4jnsgd1na2vs0mg"},{"bike_id":"a7ec1b1e-4ff0-4896-8ffd-a0ec29fdc678","system_id":"levelo_inurba_marseille","lat":43.27374,"lon":5.36252,"is_reserved":false,"is_disabled":false,"rental_uris":{"android":"levelo://app?vid=a7ec1b1e-4ff0-4896-8ffd-a0ec29fdc678","ios":"levelo://app?vid=a7ec1b1e-4ff0-4896-8ffd-a0ec29fdc678"},"vehicle_type_id":"4","last_reported":1749723129,"current_range_meters":16400,"station_id":"ce4bhbh2rcd13ifvqeo0","pricing_plan_id":"cebpf4jnsgd1na2vs0mg"},{"bike_id":"479825b6-82da-4332-8dde-5a9d10f4aead","system_id":"levelo_inurba_marseille","lat":43.2794,"lon":5.41055,"is_reserved":false,"is_disabled":false,"rental_uris":{"android":"levelo://app?vid=479825b6-82da-4332-8dde-5a9d10f4aead","ios":"levelo://app?vid=479825b6-82da-4332-8dde-5a9d10f4aead"},"vehicle_type_id":"4","last_reported":1749723129,"current_range_meters":16400,"station_id":"ce4bhnp2rcd13ifvqh0g","pricing_plan_id":"cebpf4jnsgd1na2vs0mg"},{"bike_id":"b8786c95-3f62-4aae-a677-c450c7d4faeb","system_id":"levelo_inurba_marseille","lat":43.22943,"lon":5.35371,"is_reserved":false,"is_disabled":false,"rental_uris":{"android":"levelo://app?vid=b8786c95-3f62-4aae-a677-c450c7d4faeb","ios":"levelo://app?vid=b8786c95-3f62-4aae-a677-c450c7d4faeb"},"vehicle_type_id":"4","last_reported":1749723129,"current_range_meters":16400,"station_id":"cpo3532slgdg3j2ikp40","pricing_plan_id":"cebpf4jnsgd1na2vs0mg"},{"bike_id":"d29b68da-c5e6-447f-8dcb-1ab2cc9e6f96","system_id":"levelo_inurba_marseille","lat":43.2638,"lon":5.39634,"is_reserved":false,"is_disabled":false,"rental_uris":{"android":"levelo://app?vid=d29b68da-c5e6-447f-8dcb-1ab2cc9e6f96","ios":"levelo://app?vid=d29b68da-c5e6-447f-8dcb-1ab2cc9e6f96"},"vehicle_type_id":"4","last_reported":1749723129,"current_range_meters":16800,"station_id":"","pricing_plan_id":"cebpf4jnsgd1na2vs0mg"},{"bike_id":"fb8efe6b-a3ee-4969-be10-6eabeac34652","system_id":"levelo_inurba_marseille","lat":43.3054,"lon":5.36696,"is_reserved":false,"is_disabled":false,"rental_uris":{"android":"levelo://app?vid=fb8efe6b-a3ee-4969-be10-6eabeac34652","ios":"levelo://app?vid=fb8efe6b-a3ee-4969-be10-6eabeac34652"},"vehicle_type_id":"4","last_reported":1749723129,"current_range_meters":16800,"station_id":"ce4bgrp2rcd13ifvqc9g","pricing_plan_id":"cebpf4jnsgd1na2vs0mg"},{"bike_id":"e9d0aa72-5335-40fd-9fcb-4da8559fb35c","system_id":"levelo_inurba_marseille","lat":43.27973,"lon":5.38735,"is_reserved":false,"is_disabled":false,"rental_uris":{"android":"levelo://app?vid=e9d0aa72-5335-40fd-9fcb-4da8559fb35c","ios":"levelo://app?vid=e9d0aa72-5335-40fd-9fcb-4da8559fb35c"},"vehicle_type_id":"4","last_reported":1749723129,"current_range_meters":16800,"station_id":"ce4bhg12rcd13ifvqf80","pricing_plan_id":"cebpf4jnsgd1na2vs0mg"},{"bike_id":"6b946a7d-9737-4a9e-9d63-fb0a608f6a7f","system_id":"levelo_inurba_marseille","lat":43.25935,"lon":5.40894,"is_reserved":false,"is_disabled":false,"rental_uris":{"android":"levelo://app?vid=6b946a7d-9737-4a9e-9d63-fb0a608f6a7f","ios":"levelo://app?vid=6b946a7d-9737-4a9e-9d63-fb0a608f6a7f"},"vehicle_type_id":"4","last_reported":1749723129,"current_range_meters":16800,"station_id":"ce4bhm92rcd13ifvqglg","pricing_plan_id":"cebpf4jnsgd1na2vs0mg"},{"bike_id":"78e4331f-c67f-4812-a1cf-4af0acc5e2d6","system_id":"levelo_inurba_marseille","lat":43.323477,"lon":5.367338,"is_reserved":false,"is_disabled":false,"rental_uris":{"android":"levelo://app?vid=78e4331f-c67f-4812-a1cf-4af0acc5e2d6","ios":"levelo://app?vid=78e4331f-c67f-4812-a1cf-4af0acc5e2d6"},"vehicle_type_id":"4","last_reported":1749723129,"current_range_meters":16800,"station_id":"ce4bhsh2rcd13ifvqi2g","pricing_plan_id":"cebpf4jnsgd1na2vs0mg"},{"bike_id":"f607c3f7-e60a-448a-b714-3ba9763aa5d4","system_id":"levelo_inurba_marseille","lat":43.29037,"lon":5.37563,"is_reserved":false,"is_disabled":false,"rental_uris":{"android":"levelo://app?vid=f607c3f7-e60a-448a-b714-3ba9763aa5d4","ios":"levelo://app?vid=f607c3f7-e60a-448a-b714-3ba9763aa5d4"},"vehicle_type_id":"4","last_reported":1749723129,"current_range_meters":17200,"station_id":"ce4bh692rcd13ifvqe90","pricing_plan_id":"cebpf4jnsgd1na2vs0mg"},{"bike_id":"99bee632-82c5-4636-830c-793912764340","system_id":"levelo_inurba_marseille","lat":43.29016,"lon":5.37555,"is_reserved":false,"is_disabled":false,"rental_uris":{"android":"levelo://app?vid=99bee632-82c5-4636-830c-793912764340","ios":"levelo://app?vid=99bee632-82c5-4636-830c-793912764340"},"vehicle_type_id":"4","last_reported":1749723129,"current_range_meters":17200,"station_id":"ce4bh692rcd13ifvqe90","pricing_plan_id":"cebpf4jnsgd1na2vs0mg"},{"bike_id":"c06c93cf-8fc5-4540-ab06-c59707d5bda6","system_id":"levelo_inurba_marseille","lat":43.28847,"lon":5.35873,"is_reserved":false,"is_disabled":false,"rental_uris":{"android":"levelo://app?vid=c06c93cf-8fc5-4540-ab06-c59707d5bda6","ios":"levelo://app?vid=c06c93cf-8fc5-4540-ab06-c59707d5bda6"},"vehicle_type_id":"4","last_reported":1749723129,"current_range_meters":17200,"station_id":"ce4bhb12rcd13ifvqem0","pricing_plan_id":"cebpf4jnsgd1na2vs0mg"},{"bike_id":"1b24334d-de94-44c6-9dc4-6645db575494","system_id":"levelo_inurba_marseille","lat":43.27206,"lon":5.39184,"is_reserved":false,"is_disabled":false,"rental_uris":{"android":"levelo://app?vid=1b24334d-de94-44c6-9dc4-6645db575494","ios":"levelo://app?vid=1b24334d-de94-44c6-9dc4-6645db575494"},"vehicle_type_id":"4","last_reported":1749723129,"current_range_meters":17200,"station_id":"ce4bhhp2rcd13ifvqfm0","pricing_plan_id":"cebpf4jnsgd1na2vs0mg"},{"bike_id":"b2798195-4fce-46b6-9218-5d7d2f4fa6a6","system_id":"levelo_inurba_marseille","lat":43.29548,"lon":5.42291,"is_reserved":false,"is_disabled":false,"rental_uris":{"android":"levelo://app?vid=b2798195-4fce-46b6-9218-5d7d2f4fa6a6","ios":"levelo://app?vid=b2798195-4fce-46b6-9218-5d7d2f4fa6a6"},"vehicle_type_id":"4","last_reported":1749723129,"current_range_meters":17200,"station_id":"ce4bhph2rcd13ifvqhdg","pricing_plan_id":"cebpf4jnsgd1na2vs0mg"},{"bike_id":"35733ac5-1a87-435f-bdd3-fb5ec7a34be5","system_id":"levelo_inurba_marseille","lat":43.29547,"lon":5.42286,"is_reserved":false,"is_disabled":false,"rental_uris":{"android":"levelo://app?vid=35733ac5-1a87-435f-bdd3-fb5ec7a34be5","ios":"levelo://app?vid=35733ac5-1a87-435f-bdd3-fb5ec7a34be5"},"vehicle_type_id":"4","last_reported":1749723129,"current_range_meters":17200,"station_id":"ce4bhph2rcd13ifvqhdg","pricing_plan_id":"cebpf4jnsgd1na2vs0mg"},{"bike_id":"41902e46-3363-402b-89a9-77321257c96b","system_id":"levelo_inurba_marseille","lat":43.323555,"lon":5.367393,"is_reserved":false,"is_disabled":false,"rental_uris":{"android":"levelo://app?vid=41902e46-3363-402b-89a9-77321257c96b","ios":"levelo://app?vid=41902e46-3363-402b-89a9-77321257c96b"},"vehicle_type_id":"4","last_reported":1749723129,"current_range_meters":17200,"station_id":"ce4bhsh2rcd13ifvqi2g","pricing_plan_id":"cebpf4jnsgd1na2vs0mg"},{"bike_id":"346f3f80-6b15-4406-b905-bb78596f5bac","system_id":"levelo_inurba_marseille","lat":43.32366,"lon":5.36774,"is_reserved":false,"is_disabled":false,"rental_uris":{"android":"levelo://app?vid=346f3f80-6b15-4406-b905-bb78596f5bac","ios":"levelo://app?vid=346f3f80-6b15-4406-b905-bb78596f5bac"},"vehicle_type_id":"4","last_reported":1749723129,"current_range_meters":17200,"station_id":"ce4bhsh2rcd13ifvqi2g","pricing_plan_id":"cebpf4jnsgd1na2vs0mg"},{"bike_id":"e010eb38-2de8-4bcf-a73f-26ac24c6c61c","system_id":"levelo_inurba_marseille","lat":43.29969,"lon":5.38489,"is_reserved":false,"is_disabled":false,"rental_uris":{"android":"levelo://app?vid=e010eb38-2de8-4bcf-a73f-26ac24c6c61c","ios":"levelo://app?vid=e010eb38-2de8-4bcf-a73f-26ac24c6c61c"},"vehicle_type_id":"4","last_reported":1749723129,"current_range_meters":17600,"station_id":"ce4bgj92rcd13ifvqbd0","pricing_plan_id":"cebpf4jnsgd1na2vs0mg"},{"bike_id":"87c0074f-c44a-4ed4-a3a4-2609537d9292","system_id":"levelo_inurba_marseille","lat":43.29513,"lon":5.39401,"is_reserved":false,"is_disabled":false,"rental_uris":{"android":"levelo://app?vid=87c0074f-c44a-4ed4-a3a4-2609537d9292","ios":"levelo://app?vid=87c0074f-c44a-4ed4-a3a4-2609537d9292"},"vehicle_type_id":"4","last_reported":1749723129,"current_range_meters":17600,"station_id":"ce4bh292rcd13ifvqdf0","pricing_plan_id":"cebpf4jnsgd1na2vs0mg"},{"bike_id":"bf8a4aa0-e64b-4fd7-aa13-377686619ea3","system_id":"levelo_inurba_marseille","lat":43.28434,"lon":5.39195,"is_reserved":false,"is_disabled":false,"rental_uris":{"android":"levelo://app?vid=bf8a4aa0-e64b-4fd7-aa13-377686619ea3","ios":"levelo://app?vid=bf8a4aa0-e64b-4fd7-aa13-377686619ea3"},"vehicle_type_id":"4","last_reported":1749723129,"current_range_meters":17600,"station_id":"ce4bhoh2rcd13ifvqh5g","pricing_plan_id":"cebpf4jnsgd1na2vs0mg"},{"bike_id":"11a7710f-084d-413d-abc1-c587a947a05e","system_id":"levelo_inurba_marseille","lat":43.26822,"lon":5.39047,"is_reserved":false,"is_disabled":false,"rental_uris":{"android":"levelo://app?vid=11a7710f-084d-413d-abc1-c587a947a05e","ios":"levelo://app?vid=11a7710f-084d-413d-abc1-c587a947a05e"},"vehicle_type_id":"4","last_reported":1749723129,"current_range_meters":18000,"station_id":"","pricing_plan_id":"cebpf4jnsgd1na2vs0mg"},{"bike_id":"8bde8361-9307-4cd6-b8c7-d6f328e08863","system_id":"levelo_inurba_marseille","lat":43.27887,"lon":5.38001,"is_reserved":false,"is_disabled":false,"rental_uris":{"android":"levelo://app?vid=8bde8361-9307-4cd6-b8c7-d6f328e08863","ios":"levelo://app?vid=8bde8361-9307-4cd6-b8c7-d6f328e08863"},"vehicle_type_id":"4","last_reported":1749723129,"current_range_meters":18000,"station_id":"","pricing_plan_id":"cebpf4jnsgd1na2vs0mg"},{"bike_id":"e34dbce0-f4c5-4d47-91f4-7ebd11b25511","system_id":"levelo_inurba_marseille","lat":43.296366,"lon":5.377179,"is_reserved":false,"is_disabled":false,"rental_uris":{"android":"levelo://app?vid=e34dbce0-f4c5-4d47-91f4-7ebd11b25511","ios":"levelo://app?vid=e34dbce0-f4c5-4d47-91f4-7ebd11b25511"},"vehicle_type_id":"4","last_reported":1749723129,"current_range_meters":18000,"station_id":"ce4bgi92rcd13ifvqb90","pricing_plan_id":"cebpf4jnsgd1na2vs0mg"},{"bike_id":"72dea20e-10ac-4a59-bc30-23b3f4550495","system_id":"levelo_inurba_marseille","lat":43.3043,"lon":5.39743,"is_reserved":false,"is_disabled":false,"rental_uris":{"android":"levelo://app?vid=72dea20e-10ac-4a59-bc30-23b3f4550495","ios":"levelo://app?vid=72dea20e-10ac-4a59-bc30-23b3f4550495"},"vehicle_type_id":"4","last_reported":1749723129,"current_range_meters":18000,"station_id":"ce4bh092rcd13ifvqd20","pricing_plan_id":"cebpf4jnsgd1na2vs0mg"},{"bike_id":"731b80d5-ec73-44aa-b0e9-c0bafa4f7c3c","system_id":"levelo_inurba_marseille","lat":43.28417,"lon":5.34988,"is_reserved":false,"is_disabled":false,"rental_uris":{"android":"levelo://app?vid=731b80d5-ec73-44aa-b0e9-c0bafa4f7c3c","ios":"levelo://app?vid=731b80d5-ec73-44aa-b0e9-c0bafa4f7c3c"},"vehicle_type_id":"4","last_reported":1749723129,"current_range_meters":18000,"station_id":"ce4bhbh2rcd13ifvqepg","pricing_plan_id":"cebpf4jnsgd1na2vs0mg"},{"bike_id":"2150c879-5a90-46ab-86ee-e819ae2292d5","system_id":"levelo_inurba_marseille","lat":43.307329,"lon":5.424526,"is_reserved":false,"is_disabled":false,"rental_uris":{"android":"levelo://app?vid=2150c879-5a90-46ab-86ee-e819ae2292d5","ios":"levelo://app?vid=2150c879-5a90-46ab-86ee-e819ae2292d5"},"vehicle_type_id":"4","last_reported":1749723129,"current_range_meters":18000,"station_id":"ce4bhph2rcd13ifvqhdg","pricing_plan_id":"cebpf4jnsgd1na2vs0mg"},{"bike_id":"6eac2101-bb0c-4a5f-9265-48a883b25661","system_id":"levelo_inurba_marseille","lat":43.2681,"lon":5.40264,"is_reserved":false,"is_disabled":false,"rental_uris":{"android":"levelo://app?vid=6eac2101-bb0c-4a5f-9265-48a883b25661","ios":"levelo://app?vid=6eac2101-bb0c-4a5f-9265-48a883b25661"},"vehicle_type_id":"4","last_reported":1749723129,"current_range_meters":18000,"station_id":"ce501612rcd8frsf0b60","pricing_plan_id":"cebpf4jnsgd1na2vs0mg"},{"bike_id":"600da287-0374-4ee0-bea4-ba6902340b5e","system_id":"levelo_inurba_marseille","lat":43.27459,"lon":5.36018,"is_reserved":false,"is_disabled":false,"rental_uris":{"android":"levelo://app?vid=600da287-0374-4ee0-bea4-ba6902340b5e","ios":"levelo://app?vid=600da287-0374-4ee0-bea4-ba6902340b5e"},"vehicle_type_id":"4","last_reported":1749723129,"current_range_meters":18800,"station_id":"","pricing_plan_id":"cebpf4jnsgd1na2vs0mg"},{"bike_id":"713f94e3-c67e-4836-bdd5-cfe7bb1b1281","system_id":"levelo_inurba_marseille","lat":43.22508,"lon":5.34777,"is_reserved":false,"is_disabled":false,"rental_uris":{"android":"levelo://app?vid=713f94e3-c67e-4836-bdd5-cfe7bb1b1281","ios":"levelo://app?vid=713f94e3-c67e-4836-bdd5-cfe7bb1b1281"},"vehicle_type_id":"4","last_reported":1749723129,"current_range_meters":18800,"station_id":"","pricing_plan_id":"cebpf4jnsgd1na2vs0mg"},{"bike_id":"cfe428c8-061c-4e55-86c1-a8a3b7468cbb","system_id":"levelo_inurba_marseille","lat":43.29621,"lon":5.37152,"is_reserved":false,"is_disabled":false,"rental_uris":{"android":"levelo://app?vid=cfe428c8-061c-4e55-86c1-a8a3b7468cbb","ios":"levelo://app?vid=cfe428c8-061c-4e55-86c1-a8a3b7468cbb"},"vehicle_type_id":"4","last_reported":1749723129,"current_range_meters":18800,"station_id":"ce4bgnh2rcd13ifvqc0g","pricing_plan_id":"cebpf4jnsgd1na2vs0mg"},{"bike_id":"effb25a3-09aa-40f7-8ba1-f6435c3bb303","system_id":"levelo_inurba_marseille","lat":43.29038,"lon":5.37561,"is_reserved":false,"is_disabled":false,"rental_uris":{"android":"levelo://app?vid=effb25a3-09aa-40f7-8ba1-f6435c3bb303","ios":"levelo://app?vid=effb25a3-09aa-40f7-8ba1-f6435c3bb303"},"vehicle_type_id":"4","last_reported":1749723129,"current_range_meters":18800,"station_id":"ce4bh692rcd13ifvqe90","pricing_plan_id":"cebpf4jnsgd1na2vs0mg"},{"bike_id":"3057921d-9351-4ef7-ac43-aaec417c0c7c","system_id":"levelo_inurba_marseille","lat":43.26214,"lon":5.37438,"is_reserved":false,"is_disabled":false,"rental_uris":{"android":"levelo://app?vid=3057921d-9351-4ef7-ac43-aaec417c0c7c","ios":"levelo://app?vid=3057921d-9351-4ef7-ac43-aaec417c0c7c"},"vehicle_type_id":"4","last_reported":1749723129,"current_range_meters":18800,"station_id":"ce4bhgp2rcd13ifvqfc0","pricing_plan_id":"cebpf4jnsgd1na2vs0mg"},{"bike_id":"48a591c7-da68-4a88-8adc-1631f60a4b36","system_id":"levelo_inurba_marseille","lat":43.295542,"lon":5.422742,"is_reserved":false,"is_disabled":false,"rental_uris":{"android":"levelo://app?vid=48a591c7-da68-4a88-8adc-1631f60a4b36","ios":"levelo://app?vid=48a591c7-da68-4a88-8adc-1631f60a4b36"},"vehicle_type_id":"4","last_reported":1749723129,"current_range_meters":18800,"station_id":"ce4bhph2rcd13ifvqhdg","pricing_plan_id":"cebpf4jnsgd1na2vs0mg"},{"bike_id":"62c0da7f-aff9-4ffa-86b8-6966d8f0e555","system_id":"levelo_inurba_marseille","lat":43.21194,"lon":5.35048,"is_reserved":false,"is_disabled":false,"rental_uris":{"android":"levelo://app?vid=62c0da7f-aff9-4ffa-86b8-6966d8f0e555","ios":"levelo://app?vid=62c0da7f-aff9-4ffa-86b8-6966d8f0e555"},"vehicle_type_id":"4","last_reported":1749723129,"current_range_meters":18800,"station_id":"st_cvj6sg6p6f1abm77japg","pricing_plan_id":"cebpf4jnsgd1na2vs0mg"},{"bike_id":"eb033ce6-a585-4e6e-b61e-8ddb3c04724d","system_id":"levelo_inurba_marseille","lat":43.286128,"lon":5.351059,"is_reserved":false,"is_disabled":false,"rental_uris":{"android":"levelo://app?vid=eb033ce6-a585-4e6e-b61e-8ddb3c04724d","ios":"levelo://app?vid=eb033ce6-a585-4e6e-b61e-8ddb3c04724d"},"vehicle_type_id":"4","last_reported":1749723129,"current_range_meters":19200,"station_id":"","pricing_plan_id":"cebpf4jnsgd1na2vs0mg"},{"bike_id":"2bae304d-06f7-450f-9c20-63d800e700e2","system_id":"levelo_inurba_marseille","lat":43.31668,"lon":5.38255,"is_reserved":false,"is_disabled":false,"rental_uris":{"android":"levelo://app?vid=2bae304d-06f7-450f-9c20-63d800e700e2","ios":"levelo://app?vid=2bae304d-06f7-450f-9c20-63d800e700e2"},"vehicle_type_id":"4","last_reported":1749723129,"current_range_meters":19200,"station_id":"","pricing_plan_id":"cebpf4jnsgd1na2vs0mg"},{"bike_id":"dfae5ec4-bd03-4799-bd0f-a3a758dc1157","system_id":"levelo_inurba_marseille","lat":43.27902,"lon":5.38026,"is_reserved":false,"is_disabled":false,"rental_uris":{"android":"levelo://app?vid=dfae5ec4-bd03-4799-bd0f-a3a758dc1157","ios":"levelo://app?vid=dfae5ec4-bd03-4799-bd0f-a3a758dc1157"},"vehicle_type_id":"4","last_reported":1749723129,"current_range_meters":19200,"station_id":"","pricing_plan_id":"cebpf4jnsgd1na2vs0mg"},{"bike_id":"6facbc0d-f1b5-4dc3-86d4-5c1204834925","system_id":"levelo_inurba_marseille","lat":43.28038,"lon":5.34798,"is_reserved":false,"is_disabled":false,"rental_uris":{"android":"levelo://app?vid=6facbc0d-f1b5-4dc3-86d4-5c1204834925","ios":"levelo://app?vid=6facbc0d-f1b5-4dc3-86d4-5c1204834925"},"vehicle_type_id":"4","last_reported":1749723129,"current_range_meters":19200,"station_id":"","pricing_plan_id":"cebpf4jnsgd1na2vs0mg"},{"bike_id":"023a8cc9-b767-4aad-93d9-5952c6caeef8","system_id":"levelo_inurba_marseille","lat":43.29303,"lon":5.37456,"is_reserved":false,"is_disabled":false,"rental_uris":{"android":"levelo://app?vid=023a8cc9-b767-4aad-93d9-5952c6caeef8","ios":"levelo://app?vid=023a8cc9-b767-4aad-93d9-5952c6caeef8"},"vehicle_type_id":"4","last_reported":1749723129,"current_range_meters":19200,"station_id":"ce4bgi12rcd13ifvqb70","pricing_plan_id":"cebpf4jnsgd1na2vs0mg"},{"bike_id":"cf2c9e61-4698-4859-8b55-a3ce10dc928a","system_id":"levelo_inurba_marseille","lat":43.29254,"lon":5.37623,"is_reserved":false,"is_disabled":false,"rental_uris":{"android":"levelo://app?vid=cf2c9e61-4698-4859-8b55-a3ce10dc928a","ios":"levelo://app?vid=cf2c9e61-4698-4859-8b55-a3ce10dc928a"},"vehicle_type_id":"4","last_reported":1749723129,"current_range_meters":19200,"station_id":"ce4bgi12rcd13ifvqb80","pricing_plan_id":"cebpf4jnsgd1na2vs0mg"},{"bike_id":"a2e9d20d-a78e-42e0-b2bf-7985db8e262e","system_id":"levelo_inurba_marseille","lat":43.2984,"lon":5.36265,"is_reserved":false,"is_disabled":false,"rental_uris":{"android":"levelo://app?vid=a2e9d20d-a78e-42e0-b2bf-7985db8e262e","ios":"levelo://app?vid=a2e9d20d-a78e-42e0-b2bf-7985db8e262e"},"vehicle_type_id":"4","last_reported":1749723129,"current_range_meters":19200,"station_id":"ce4bgpp2rcd13ifvqc3g","pricing_plan_id":"cebpf4jnsgd1na2vs0mg"},{"bike_id":"c25107e5-aee0-40c6-adcc-87cdfab1a20d","system_id":"levelo_inurba_marseille","lat":43.26564,"lon":5.38996,"is_reserved":false,"is_disabled":false,"rental_uris":{"android":"levelo://app?vid=c25107e5-aee0-40c6-adcc-87cdfab1a20d","ios":"levelo://app?vid=c25107e5-aee0-40c6-adcc-87cdfab1a20d"},"vehicle_type_id":"4","last_reported":1749723129,"current_range_meters":19200,"station_id":"ce4bhe12rcd13ifvqf30","pricing_plan_id":"cebpf4jnsgd1na2vs0mg"},{"bike_id":"09f63c8a-a282-4cbe-8836-96dd728b16fa","system_id":"levelo_inurba_marseille","lat":43.2419,"lon":5.3971,"is_reserved":false,"is_disabled":false,"rental_uris":{"android":"levelo://app?vid=09f63c8a-a282-4cbe-8836-96dd728b16fa","ios":"levelo://app?vid=09f63c8a-a282-4cbe-8836-96dd728b16fa"},"vehicle_type_id":"4","last_reported":1749723129,"current_range_meters":19200,"station_id":"ce4bhn12rcd13ifvqgpg","pricing_plan_id":"cebpf4jnsgd1na2vs0mg"},{"bike_id":"326cc913-bdbc-48c2-9a88-414846f09512","system_id":"levelo_inurba_marseille","lat":43.32368,"lon":5.36765,"is_reserved":false,"is_disabled":false,"rental_uris":{"android":"levelo://app?vid=326cc913-bdbc-48c2-9a88-414846f09512","ios":"levelo://app?vid=326cc913-bdbc-48c2-9a88-414846f09512"},"vehicle_type_id":"4","last_reported":1749723129,"current_range_meters":19200,"station_id":"ce4bhsh2rcd13ifvqi2g","pricing_plan_id":"cebpf4jnsgd1na2vs0mg"},{"bike_id":"ef8f2924-50e0-41af-91d5-338d180db502","system_id":"levelo_inurba_marseille","lat":43.225015,"lon":5.348029,"is_reserved":false,"is_disabled":false,"rental_uris":{"android":"levelo://app?vid=ef8f2924-50e0-41af-91d5-338d180db502","ios":"levelo://app?vid=ef8f2924-50e0-41af-91d5-338d180db502"},"vehicle_type_id":"4","last_reported":1749723129,"current_range_meters":19200,"station_id":"st_cvj6r9ubvosntc0bgbag","pricing_plan_id":"cebpf4jnsgd1na2vs0mg"},{"bike_id":"075c05ec-b3c9-44c3-b57f-1083abf2ca61","system_id":"levelo_inurba_marseille","lat":43.27112,"lon":5.4262,"is_reserved":false,"is_disabled":false,"rental_uris":{"android":"levelo://app?vid=075c05ec-b3c9-44c3-b57f-1083abf2ca61","ios":"levelo://app?vid=075c05ec-b3c9-44c3-b57f-1083abf2ca61"},"vehicle_type_id":"4","last_reported":1749723129,"current_range_meters":19600,"station_id":"","pricing_plan_id":"cebpf4jnsgd1na2vs0mg"},{"bike_id":"3d243e1c-a883-4bc3-9c15-b8da6e60785b","system_id":"levelo_inurba_marseille","lat":43.26872,"lon":5.42827,"is_reserved":false,"is_disabled":false,"rental_uris":{"android":"levelo://app?vid=3d243e1c-a883-4bc3-9c15-b8da6e60785b","ios":"levelo://app?vid=3d243e1c-a883-4bc3-9c15-b8da6e60785b"},"vehicle_type_id":"4","last_reported":1749723129,"current_range_meters":19600,"station_id":"","pricing_plan_id":"cebpf4jnsgd1na2vs0mg"},{"bike_id":"7af6884b-0625-4e3f-ab68-628302bc6b92","system_id":"levelo_inurba_marseille","lat":43.27872,"lon":5.37736,"is_reserved":false,"is_disabled":false,"rental_uris":{"android":"levelo://app?vid=7af6884b-0625-4e3f-ab68-628302bc6b92","ios":"levelo://app?vid=7af6884b-0625-4e3f-ab68-628302bc6b92"},"vehicle_type_id":"4","last_reported":1749723129,"current_range_meters":20000,"station_id":"","pricing_plan_id":"cebpf4jnsgd1na2vs0mg"},{"bike_id":"4a1ebb57-de4c-466d-8a5a-f3907adc6246","system_id":"levelo_inurba_marseille","lat":43.279416,"lon":5.410458,"is_reserved":false,"is_disabled":false,"rental_uris":{"android":"levelo://app?vid=4a1ebb57-de4c-466d-8a5a-f3907adc6246","ios":"levelo://app?vid=4a1ebb57-de4c-466d-8a5a-f3907adc6246"},"vehicle_type_id":"4","last_reported":1749723129,"current_range_meters":20000,"station_id":"","pricing_plan_id":"cebpf4jnsgd1na2vs0mg"},{"bike_id":"17ef899a-2885-4ff0-9086-f0498fa46c16","system_id":"levelo_inurba_marseille","lat":43.245458,"lon":5.395233,"is_reserved":false,"is_disabled":false,"rental_uris":{"android":"levelo://app?vid=17ef899a-2885-4ff0-9086-f0498fa46c16","ios":"levelo://app?vid=17ef899a-2885-4ff0-9086-f0498fa46c16"},"vehicle_type_id":"4","last_reported":1749723129,"current_range_meters":20000,"station_id":"","pricing_plan_id":"cebpf4jnsgd1na2vs0mg"},{"bike_id":"e2048b0d-f581-4f10-82a2-45b7cafa38dd","system_id":"levelo_inurba_marseille","lat":43.2761,"lon":5.36114,"is_reserved":false,"is_disabled":false,"rental_uris":{"android":"levelo://app?vid=e2048b0d-f581-4f10-82a2-45b7cafa38dd","ios":"levelo://app?vid=e2048b0d-f581-4f10-82a2-45b7cafa38dd"},"vehicle_type_id":"4","last_reported":1749723129,"current_range_meters":20000,"station_id":"ce4bgj92rcd13ifvqbe0","pricing_plan_id":"cebpf4jnsgd1na2vs0mg"},{"bike_id":"4a5e5322-1ec3-4365-83b9-cece4c20f53c","system_id":"levelo_inurba_marseille","lat":43.29575,"lon":5.36746,"is_reserved":false,"is_disabled":false,"rental_uris":{"android":"levelo://app?vid=4a5e5322-1ec3-4365-83b9-cece4c20f53c","ios":"levelo://app?vid=4a5e5322-1ec3-4365-83b9-cece4c20f53c"},"vehicle_type_id":"4","last_reported":1749723129,"current_range_meters":20000,"station_id":"ce4bgph2rcd13ifvqc2g","pricing_plan_id":"cebpf4jnsgd1na2vs0mg"},{"bike_id":"113d2198-6af0-4bf2-9b8b-31e698083d53","system_id":"levelo_inurba_marseille","lat":43.3053,"lon":5.36544,"is_reserved":false,"is_disabled":false,"rental_uris":{"android":"levelo://app?vid=113d2198-6af0-4bf2-9b8b-31e698083d53","ios":"levelo://app?vid=113d2198-6af0-4bf2-9b8b-31e698083d53"},"vehicle_type_id":"4","last_reported":1749723129,"current_range_meters":20000,"station_id":"ce4bgs12rcd13ifvqcag","pricing_plan_id":"cebpf4jnsgd1na2vs0mg"},{"bike_id":"3add3fb7-aa69-44d3-a08c-e58f16b68af5","system_id":"levelo_inurba_marseille","lat":43.2951,"lon":5.394,"is_reserved":false,"is_disabled":false,"rental_uris":{"android":"levelo://app?vid=3add3fb7-aa69-44d3-a08c-e58f16b68af5","ios":"levelo://app?vid=3add3fb7-aa69-44d3-a08c-e58f16b68af5"},"vehicle_type_id":"4","last_reported":1749723129,"current_range_meters":20000,"station_id":"ce4bh292rcd13ifvqdf0","pricing_plan_id":"cebpf4jnsgd1na2vs0mg"},{"bike_id":"3b2851dc-cdc3-4c74-bb7a-6b50ea5674bc","system_id":"levelo_inurba_marseille","lat":43.31607,"lon":5.38413,"is_reserved":false,"is_disabled":false,"rental_uris":{"android":"levelo://app?vid=3b2851dc-cdc3-4c74-bb7a-6b50ea5674bc","ios":"levelo://app?vid=3b2851dc-cdc3-4c74-bb7a-6b50ea5674bc"},"vehicle_type_id":"4","last_reported":1749723129,"current_range_meters":20400,"station_id":"","pricing_plan_id":"cebpf4jnsgd1na2vs0mg"},{"bike_id":"1ee8b671-cbc8-4022-8169-3027725e7162","system_id":"levelo_inurba_marseille","lat":43.2766,"lon":5.37209,"is_reserved":false,"is_disabled":false,"rental_uris":{"android":"levelo://app?vid=1ee8b671-cbc8-4022-8169-3027725e7162","ios":"levelo://app?vid=1ee8b671-cbc8-4022-8169-3027725e7162"},"vehicle_type_id":"4","last_reported":1749723129,"current_range_meters":20400,"station_id":"","pricing_plan_id":"cebpf4jnsgd1na2vs0mg"},{"bike_id":"ddaf256e-7dcb-477d-be70-8568ed43587e","system_id":"levelo_inurba_marseille","lat":43.27372,"lon":5.36256,"is_reserved":false,"is_disabled":false,"rental_uris":{"android":"levelo://app?vid=ddaf256e-7dcb-477d-be70-8568ed43587e","ios":"levelo://app?vid=ddaf256e-7dcb-477d-be70-8568ed43587e"},"vehicle_type_id":"4","last_reported":1749723129,"current_range_meters":20400,"station_id":"ce4bhbh2rcd13ifvqeo0","pricing_plan_id":"cebpf4jnsgd1na2vs0mg"},{"bike_id":"c30ce520-600f-4b4c-a441-4f9bd11ea5ad","system_id":"levelo_inurba_marseille","lat":43.27377,"lon":5.36256,"is_reserved":false,"is_disabled":false,"rental_uris":{"android":"levelo://app?vid=c30ce520-600f-4b4c-a441-4f9bd11ea5ad","ios":"levelo://app?vid=c30ce520-600f-4b4c-a441-4f9bd11ea5ad"},"vehicle_type_id":"4","last_reported":1749723129,"current_range_meters":20400,"station_id":"ce4bhbh2rcd13ifvqeo0","pricing_plan_id":"cebpf4jnsgd1na2vs0mg"},{"bike_id":"364658e6-d3a6-45a5-ba96-963bfb95f6e7","system_id":"levelo_inurba_marseille","lat":43.27061,"lon":5.40247,"is_reserved":false,"is_disabled":false,"rental_uris":{"android":"levelo://app?vid=364658e6-d3a6-45a5-ba96-963bfb95f6e7","ios":"levelo://app?vid=364658e6-d3a6-45a5-ba96-963bfb95f6e7"},"vehicle_type_id":"4","last_reported":1749723129,"current_range_meters":20400,"station_id":"ce4bhk92rcd13ifvqgc0","pricing_plan_id":"cebpf4jnsgd1na2vs0mg"},{"bike_id":"ebde0757-a94a-4915-8c86-60ad7ee049c4","system_id":"levelo_inurba_marseille","lat":43.23195,"lon":5.3555,"is_reserved":false,"is_disabled":false,"rental_uris":{"android":"levelo://app?vid=ebde0757-a94a-4915-8c86-60ad7ee049c4","ios":"levelo://app?vid=ebde0757-a94a-4915-8c86-60ad7ee049c4"},"vehicle_type_id":"4","last_reported":1749723129,"current_range_meters":20400,"station_id":"ce4bhu92rcd13ifvqi70","pricing_plan_id":"cebpf4jnsgd1na2vs0mg"},{"bike_id":"2d9eb491-ef60-4c87-8fa5-c0a977f848da","system_id":"levelo_inurba_marseille","lat":43.21189,"lon":5.35064,"is_reserved":false,"is_disabled":false,"rental_uris":{"android":"levelo://app?vid=2d9eb491-ef60-4c87-8fa5-c0a977f848da","ios":"levelo://app?vid=2d9eb491-ef60-4c87-8fa5-c0a977f848da"},"vehicle_type_id":"4","last_reported":1749723129,"current_range_meters":20400,"station_id":"st_cvj6sg6p6f1abm77japg","pricing_plan_id":"cebpf4jnsgd1na2vs0mg"},{"bike_id":"75d057da-7cde-413f-b40a-ee7fee45594d","system_id":"levelo_inurba_marseille","lat":43.21746,"lon":5.34617,"is_reserved":false,"is_disabled":false,"rental_uris":{"android":"levelo://app?vid=75d057da-7cde-413f-b40a-ee7fee45594d","ios":"levelo://app?vid=75d057da-7cde-413f-b40a-ee7fee45594d"},"vehicle_type_id":"4","last_reported":1749723129,"current_range_meters":20800,"station_id":"","pricing_plan_id":"cebpf4jnsgd1na2vs0mg"},{"bike_id":"dca55b9e-f744-452f-823b-32c93945cd23","system_id":"levelo_inurba_marseille","lat":43.30187,"lon":5.36613,"is_reserved":false,"is_disabled":false,"rental_uris":{"android":"levelo://app?vid=dca55b9e-f744-452f-823b-32c93945cd23","ios":"levelo://app?vid=dca55b9e-f744-452f-823b-32c93945cd23"},"vehicle_type_id":"4","last_reported":1749723129,"current_range_meters":20800,"station_id":"ce4bgrh2rcd13ifvqc8g","pricing_plan_id":"cebpf4jnsgd1na2vs0mg"},{"bike_id":"6d196fbf-b8cd-42e8-ac43-2d09d71894b7","system_id":"levelo_inurba_marseille","lat":43.24808,"lon":5.37451,"is_reserved":false,"is_disabled":false,"rental_uris":{"android":"levelo://app?vid=6d196fbf-b8cd-42e8-ac43-2d09d71894b7","ios":"levelo://app?vid=6d196fbf-b8cd-42e8-ac43-2d09d71894b7"},"vehicle_type_id":"4","last_reported":1749723129,"current_range_meters":20800,"station_id":"ce4bhgh2rcd13ifvqfb0","pricing_plan_id":"cebpf4jnsgd1na2vs0mg"},{"bike_id":"d3bee0a5-0928-4672-86fb-2efc39437bd3","system_id":"levelo_inurba_marseille","lat":43.27306,"lon":5.39102,"is_reserved":false,"is_disabled":false,"rental_uris":{"android":"levelo://app?vid=d3bee0a5-0928-4672-86fb-2efc39437bd3","ios":"levelo://app?vid=d3bee0a5-0928-4672-86fb-2efc39437bd3"},"vehicle_type_id":"4","last_reported":1749723129,"current_range_meters":20800,"station_id":"ce4bhgp2rcd13ifvqfe0","pricing_plan_id":"cebpf4jnsgd1na2vs0mg"},{"bike_id":"4aec55bd-f907-4fd9-aa0e-cc182e40c8d4","system_id":"levelo_inurba_marseille","lat":43.25924,"lon":5.40908,"is_reserved":false,"is_disabled":false,"rental_uris":{"android":"levelo://app?vid=4aec55bd-f907-4fd9-aa0e-cc182e40c8d4","ios":"levelo://app?vid=4aec55bd-f907-4fd9-aa0e-cc182e40c8d4"},"vehicle_type_id":"4","last_reported":1749723129,"current_range_meters":20800,"station_id":"ce4bhm92rcd13ifvqglg","pricing_plan_id":"cebpf4jnsgd1na2vs0mg"},{"bike_id":"f7e1737e-b202-4e77-903d-18676f594dc0","system_id":"levelo_inurba_marseille","lat":43.32287,"lon":5.38276,"is_reserved":false,"is_disabled":false,"rental_uris":{"android":"levelo://app?vid=f7e1737e-b202-4e77-903d-18676f594dc0","ios":"levelo://app?vid=f7e1737e-b202-4e77-903d-18676f594dc0"},"vehicle_type_id":"4","last_reported":1749723129,"current_range_meters":20800,"station_id":"ce4bhr12rcd13ifvqhqg","pricing_plan_id":"cebpf4jnsgd1na2vs0mg"},{"bike_id":"45368344-ad00-4069-84e7-0da5c35919e5","system_id":"levelo_inurba_marseille","lat":43.305289,"lon":5.384269,"is_reserved":false,"is_disabled":false,"rental_uris":{"android":"levelo://app?vid=45368344-ad00-4069-84e7-0da5c35919e5","ios":"levelo://app?vid=45368344-ad00-4069-84e7-0da5c35919e5"},"vehicle_type_id":"4","last_reported":1749723129,"current_range_meters":21600,"station_id":"ce4bgg92rcd13ifvqb30","pricing_plan_id":"cebpf4jnsgd1na2vs0mg"},{"bike_id":"0212830b-02ba-440e-9e34-2702c55999a1","system_id":"levelo_inurba_marseille","lat":43.284667,"lon":5.384254,"is_reserved":false,"is_disabled":false,"rental_uris":{"android":"levelo://app?vid=0212830b-02ba-440e-9e34-2702c55999a1","ios":"levelo://app?vid=0212830b-02ba-440e-9e34-2702c55999a1"},"vehicle_type_id":"4","last_reported":1749723129,"current_range_meters":21600,"station_id":"ce4bh512rcd13ifvqe3g","pricing_plan_id":"cebpf4jnsgd1na2vs0mg"},{"bike_id":"d4868a12-f1b8-4ae4-bfd4-4c9e7bc253e7","system_id":"levelo_inurba_marseille","lat":43.2508,"lon":5.39508,"is_reserved":false,"is_disabled":false,"rental_uris":{"android":"levelo://app?vid=d4868a12-f1b8-4ae4-bfd4-4c9e7bc253e7","ios":"levelo://app?vid=d4868a12-f1b8-4ae4-bfd4-4c9e7bc253e7"},"vehicle_type_id":"4","last_reported":1749723129,"current_range_meters":21600,"station_id":"ce4bhm12rcd13ifvqgkg","pricing_plan_id":"cebpf4jnsgd1na2vs0mg"},{"bike_id":"247c68d2-bc60-4ebe-a172-a91bfc5e4e36","system_id":"levelo_inurba_marseille","lat":43.319936,"lon":5.381549,"is_reserved":false,"is_disabled":false,"rental_uris":{"android":"levelo://app?vid=247c68d2-bc60-4ebe-a172-a91bfc5e4e36","ios":"levelo://app?vid=247c68d2-bc60-4ebe-a172-a91bfc5e4e36"},"vehicle_type_id":"4","last_reported":1749723129,"current_range_meters":21600,"station_id":"ce4bhr12rcd13ifvqhpg","pricing_plan_id":"cebpf4jnsgd1na2vs0mg"},{"bike_id":"2a06de3a-2166-4539-8839-f3dced65528a","system_id":"levelo_inurba_marseille","lat":43.26808,"lon":5.40265,"is_reserved":false,"is_disabled":false,"rental_uris":{"android":"levelo://app?vid=2a06de3a-2166-4539-8839-f3dced65528a","ios":"levelo://app?vid=2a06de3a-2166-4539-8839-f3dced65528a"},"vehicle_type_id":"4","last_reported":1749723129,"current_range_meters":21600,"station_id":"ce501612rcd8frsf0b60","pricing_plan_id":"cebpf4jnsgd1na2vs0mg"},{"bike_id":"3506219c-4bfa-4d90-9c52-cf0d83649c2c","system_id":"levelo_inurba_marseille","lat":43.3129,"lon":5.37302,"is_reserved":false,"is_disabled":false,"rental_uris":{"android":"levelo://app?vid=3506219c-4bfa-4d90-9c52-cf0d83649c2c","ios":"levelo://app?vid=3506219c-4bfa-4d90-9c52-cf0d83649c2c"},"vehicle_type_id":"4","last_reported":1749723129,"current_range_meters":22000,"station_id":"","pricing_plan_id":"cebpf4jnsgd1na2vs0mg"},{"bike_id":"55c5a283-ad25-46ea-b10b-d421f0d96635","system_id":"levelo_inurba_marseille","lat":43.29606,"lon":5.38105,"is_reserved":false,"is_disabled":false,"rental_uris":{"android":"levelo://app?vid=55c5a283-ad25-46ea-b10b-d421f0d96635","ios":"levelo://app?vid=55c5a283-ad25-46ea-b10b-d421f0d96635"},"vehicle_type_id":"4","last_reported":1749723129,"current_range_meters":22000,"station_id":"ce4bgl12rcd13ifvqbo0","pricing_plan_id":"cebpf4jnsgd1na2vs0mg"},{"bike_id":"33d6811e-69a9-45f4-835c-092592df4eb2","system_id":"levelo_inurba_marseille","lat":43.3014,"lon":5.37412,"is_reserved":false,"is_disabled":false,"rental_uris":{"android":"levelo://app?vid=33d6811e-69a9-45f4-835c-092592df4eb2","ios":"levelo://app?vid=33d6811e-69a9-45f4-835c-092592df4eb2"},"vehicle_type_id":"4","last_reported":1749723129,"current_range_meters":22000,"station_id":"ce4bgs92rcd13ifvqcc0","pricing_plan_id":"cebpf4jnsgd1na2vs0mg"},{"bike_id":"7bdaf71b-c48a-467d-ba87-33812ae4f1af","system_id":"levelo_inurba_marseille","lat":43.24999,"lon":5.38934,"is_reserved":false,"is_disabled":false,"rental_uris":{"android":"levelo://app?vid=7bdaf71b-c48a-467d-ba87-33812ae4f1af","ios":"levelo://app?vid=7bdaf71b-c48a-467d-ba87-33812ae4f1af"},"vehicle_type_id":"4","last_reported":1749723129,"current_range_meters":22000,"station_id":"ce4bhgp2rcd13ifvqfd0","pricing_plan_id":"cebpf4jnsgd1na2vs0mg"},{"bike_id":"1d630d68-97b9-49ca-a8b4-aedb42ade82c","system_id":"levelo_inurba_marseille","lat":43.28151,"lon":5.42635,"is_reserved":false,"is_disabled":false,"rental_uris":{"android":"levelo://app?vid=1d630d68-97b9-49ca-a8b4-aedb42ade82c","ios":"levelo://app?vid=1d630d68-97b9-49ca-a8b4-aedb42ade82c"},"vehicle_type_id":"4","last_reported":1749723129,"current_range_meters":22000,"station_id":"ce4bhnh2rcd13ifvqgug","pricing_plan_id":"cebpf4jnsgd1na2vs0mg"},{"bike_id":"a172b0cf-62c4-4c52-a818-ce564350df02","system_id":"levelo_inurba_marseille","lat":43.21191,"lon":5.35075,"is_reserved":false,"is_disabled":false,"rental_uris":{"android":"levelo://app?vid=a172b0cf-62c4-4c52-a818-ce564350df02","ios":"levelo://app?vid=a172b0cf-62c4-4c52-a818-ce564350df02"},"vehicle_type_id":"4","last_reported":1749723129,"current_range_meters":22000,"station_id":"st_cvj6sg6p6f1abm77japg","pricing_plan_id":"cebpf4jnsgd1na2vs0mg"},{"bike_id":"abd0d78f-a5d4-4339-93f7-6b3fc51d77c5","system_id":"levelo_inurba_marseille","lat":43.36379,"lon":5.35097,"is_reserved":false,"is_disabled":false,"rental_uris":{"android":"levelo://app?vid=abd0d78f-a5d4-4339-93f7-6b3fc51d77c5","ios":"levelo://app?vid=abd0d78f-a5d4-4339-93f7-6b3fc51d77c5"},"vehicle_type_id":"4","last_reported":1749723129,"current_range_meters":22400,"station_id":"","pricing_plan_id":"cebpf4jnsgd1na2vs0mg"},{"bike_id":"afe5024d-c348-4a43-99d6-7a019a1ad8ba","system_id":"levelo_inurba_marseille","lat":43.27621,"lon":5.36108,"is_reserved":false,"is_disabled":false,"rental_uris":{"android":"levelo://app?vid=afe5024d-c348-4a43-99d6-7a019a1ad8ba","ios":"levelo://app?vid=afe5024d-c348-4a43-99d6-7a019a1ad8ba"},"vehicle_type_id":"4","last_reported":1749723129,"current_range_meters":22400,"station_id":"ce4bgj92rcd13ifvqbe0","pricing_plan_id":"cebpf4jnsgd1na2vs0mg"},{"bike_id":"c56417c4-d9c7-45f1-9cb1-68b5928ff3cb","system_id":"levelo_inurba_marseille","lat":43.29602,"lon":5.3811,"is_reserved":false,"is_disabled":false,"rental_uris":{"android":"levelo://app?vid=c56417c4-d9c7-45f1-9cb1-68b5928ff3cb","ios":"levelo://app?vid=c56417c4-d9c7-45f1-9cb1-68b5928ff3cb"},"vehicle_type_id":"4","last_reported":1749723129,"current_range_meters":22400,"station_id":"ce4bgl12rcd13ifvqbo0","pricing_plan_id":"cebpf4jnsgd1na2vs0mg"},{"bike_id":"2fb1f445-0c17-42a7-8ba5-eed28cb31ea0","system_id":"levelo_inurba_marseille","lat":43.29839,"lon":5.36268,"is_reserved":false,"is_disabled":false,"rental_uris":{"android":"levelo://app?vid=2fb1f445-0c17-42a7-8ba5-eed28cb31ea0","ios":"levelo://app?vid=2fb1f445-0c17-42a7-8ba5-eed28cb31ea0"},"vehicle_type_id":"4","last_reported":1749723129,"current_range_meters":22400,"station_id":"ce4bgpp2rcd13ifvqc3g","pricing_plan_id":"cebpf4jnsgd1na2vs0mg"},{"bike_id":"f1a80073-25bb-4c65-9663-f46c30f9c145","system_id":"levelo_inurba_marseille","lat":43.29951,"lon":5.38497,"is_reserved":false,"is_disabled":false,"rental_uris":{"android":"levelo://app?vid=f1a80073-25bb-4c65-9663-f46c30f9c145","ios":"levelo://app?vid=f1a80073-25bb-4c65-9663-f46c30f9c145"},"vehicle_type_id":"4","last_reported":1749723129,"current_range_meters":22400,"station_id":"ce4bh0p2rcd13ifvqd70","pricing_plan_id":"cebpf4jnsgd1na2vs0mg"},{"bike_id":"29c0e139-bc33-4add-bc96-e02e349c9a77","system_id":"levelo_inurba_marseille","lat":43.25583,"lon":5.38236,"is_reserved":false,"is_disabled":false,"rental_uris":{"android":"levelo://app?vid=29c0e139-bc33-4add-bc96-e02e349c9a77","ios":"levelo://app?vid=29c0e139-bc33-4add-bc96-e02e349c9a77"},"vehicle_type_id":"4","last_reported":1749723129,"current_range_meters":22400,"station_id":"ce4bhih2rcd13ifvqfs0","pricing_plan_id":"cebpf4jnsgd1na2vs0mg"},{"bike_id":"9f1c1345-35a8-4c29-86d0-ad844bd30aa7","system_id":"levelo_inurba_marseille","lat":43.25579,"lon":5.38234,"is_reserved":false,"is_disabled":false,"rental_uris":{"android":"levelo://app?vid=9f1c1345-35a8-4c29-86d0-ad844bd30aa7","ios":"levelo://app?vid=9f1c1345-35a8-4c29-86d0-ad844bd30aa7"},"vehicle_type_id":"4","last_reported":1749723129,"current_range_meters":22400,"station_id":"ce4bhih2rcd13ifvqfs0","pricing_plan_id":"cebpf4jnsgd1na2vs0mg"},{"bike_id":"5915c624-f941-4648-a47d-f68c158b921a","system_id":"levelo_inurba_marseille","lat":43.28159,"lon":5.42619,"is_reserved":false,"is_disabled":false,"rental_uris":{"android":"levelo://app?vid=5915c624-f941-4648-a47d-f68c158b921a","ios":"levelo://app?vid=5915c624-f941-4648-a47d-f68c158b921a"},"vehicle_type_id":"4","last_reported":1749723129,"current_range_meters":22400,"station_id":"ce4bhnh2rcd13ifvqgug","pricing_plan_id":"cebpf4jnsgd1na2vs0mg"},{"bike_id":"3454fba1-c581-4a73-838c-ba39b96a9041","system_id":"levelo_inurba_marseille","lat":43.28445,"lon":5.39204,"is_reserved":false,"is_disabled":false,"rental_uris":{"android":"levelo://app?vid=3454fba1-c581-4a73-838c-ba39b96a9041","ios":"levelo://app?vid=3454fba1-c581-4a73-838c-ba39b96a9041"},"vehicle_type_id":"4","last_reported":1749723129,"current_range_meters":22400,"station_id":"ce4bhoh2rcd13ifvqh5g","pricing_plan_id":"cebpf4jnsgd1na2vs0mg"},{"bike_id":"f3ec16b2-8afd-4ecb-8d58-15a6a90ff603","system_id":"levelo_inurba_marseille","lat":43.323624,"lon":5.367629,"is_reserved":false,"is_disabled":false,"rental_uris":{"android":"levelo://app?vid=f3ec16b2-8afd-4ecb-8d58-15a6a90ff603","ios":"levelo://app?vid=f3ec16b2-8afd-4ecb-8d58-15a6a90ff603"},"vehicle_type_id":"4","last_reported":1749723129,"current_range_meters":22400,"station_id":"ce4bhsh2rcd13ifvqi2g","pricing_plan_id":"cebpf4jnsgd1na2vs0mg"},{"bike_id":"2af74e16-5aaf-46b9-921f-fc3605010358","system_id":"levelo_inurba_marseille","lat":43.21244,"lon":5.35017,"is_reserved":false,"is_disabled":false,"rental_uris":{"android":"levelo://app?vid=2af74e16-5aaf-46b9-921f-fc3605010358","ios":"levelo://app?vid=2af74e16-5aaf-46b9-921f-fc3605010358"},"vehicle_type_id":"4","last_reported":1749723129,"current_range_meters":22800,"station_id":"","pricing_plan_id":"cebpf4jnsgd1na2vs0mg"},{"bike_id":"714f508b-99b9-4294-8015-7d314c25103f","system_id":"levelo_inurba_marseille","lat":43.29844,"lon":5.36278,"is_reserved":false,"is_disabled":false,"rental_uris":{"android":"levelo://app?vid=714f508b-99b9-4294-8015-7d314c25103f","ios":"levelo://app?vid=714f508b-99b9-4294-8015-7d314c25103f"},"vehicle_type_id":"4","last_reported":1749723129,"current_range_meters":22800,"station_id":"ce4bgpp2rcd13ifvqc3g","pricing_plan_id":"cebpf4jnsgd1na2vs0mg"},{"bike_id":"26b806a3-b84e-4c14-981d-0bbc7d2397d9","system_id":"levelo_inurba_marseille","lat":43.29879,"lon":5.38912,"is_reserved":false,"is_disabled":false,"rental_uris":{"android":"levelo://app?vid=26b806a3-b84e-4c14-981d-0bbc7d2397d9","ios":"levelo://app?vid=26b806a3-b84e-4c14-981d-0bbc7d2397d9"},"vehicle_type_id":"4","last_reported":1749723129,"current_range_meters":22800,"station_id":"ce4bh392rcd13ifvqdl0","pricing_plan_id":"cebpf4jnsgd1na2vs0mg"},{"bike_id":"9df20bb5-0742-4bbc-80c6-2a36437d9663","system_id":"levelo_inurba_marseille","lat":43.24802,"lon":5.3745,"is_reserved":false,"is_disabled":false,"rental_uris":{"android":"levelo://app?vid=9df20bb5-0742-4bbc-80c6-2a36437d9663","ios":"levelo://app?vid=9df20bb5-0742-4bbc-80c6-2a36437d9663"},"vehicle_type_id":"4","last_reported":1749723129,"current_range_meters":22800,"station_id":"ce4bhgh2rcd13ifvqfb0","pricing_plan_id":"cebpf4jnsgd1na2vs0mg"},{"bike_id":"1bf08d9d-4a12-4c73-9033-c362a49b3160","system_id":"levelo_inurba_marseille","lat":43.26214,"lon":5.37444,"is_reserved":false,"is_disabled":false,"rental_uris":{"android":"levelo://app?vid=1bf08d9d-4a12-4c73-9033-c362a49b3160","ios":"levelo://app?vid=1bf08d9d-4a12-4c73-9033-c362a49b3160"},"vehicle_type_id":"4","last_reported":1749723129,"current_range_meters":22800,"station_id":"ce4bhgp2rcd13ifvqfc0","pricing_plan_id":"cebpf4jnsgd1na2vs0mg"},{"bike_id":"4517ab84-26c2-4a94-b7c7-5f31f93ed064","system_id":"levelo_inurba_marseille","lat":43.24068,"lon":5.37763,"is_reserved":false,"is_disabled":false,"rental_uris":{"android":"levelo://app?vid=4517ab84-26c2-4a94-b7c7-5f31f93ed064","ios":"levelo://app?vid=4517ab84-26c2-4a94-b7c7-5f31f93ed064"},"vehicle_type_id":"4","last_reported":1749723129,"current_range_meters":22800,"station_id":"ce4bhnp2rcd13ifvqgvg","pricing_plan_id":"cebpf4jnsgd1na2vs0mg"},{"bike_id":"d8584cee-d550-4f07-a390-328598b424eb","system_id":"levelo_inurba_marseille","lat":43.29555,"lon":5.4229,"is_reserved":false,"is_disabled":false,"rental_uris":{"android":"levelo://app?vid=d8584cee-d550-4f07-a390-328598b424eb","ios":"levelo://app?vid=d8584cee-d550-4f07-a390-328598b424eb"},"vehicle_type_id":"4","last_reported":1749723129,"current_range_meters":22800,"station_id":"ce4bhph2rcd13ifvqhdg","pricing_plan_id":"cebpf4jnsgd1na2vs0mg"},{"bike_id":"d2c9cebc-a49b-4280-a040-8b6bd89be3ca","system_id":"levelo_inurba_marseille","lat":43.337646,"lon":5.374468,"is_reserved":false,"is_disabled":false,"rental_uris":{"android":"levelo://app?vid=d2c9cebc-a49b-4280-a040-8b6bd89be3ca","ios":"levelo://app?vid=d2c9cebc-a49b-4280-a040-8b6bd89be3ca"},"vehicle_type_id":"4","last_reported":1749723129,"current_range_meters":23200,"station_id":"","pricing_plan_id":"cebpf4jnsgd1na2vs0mg"},{"bike_id":"d187837d-f054-4014-94e2-104284cd8538","system_id":"levelo_inurba_marseille","lat":43.27613,"lon":5.36116,"is_reserved":false,"is_disabled":false,"rental_uris":{"android":"levelo://app?vid=d187837d-f054-4014-94e2-104284cd8538","ios":"levelo://app?vid=d187837d-f054-4014-94e2-104284cd8538"},"vehicle_type_id":"4","last_reported":1749723129,"current_range_meters":23200,"station_id":"ce4bgj92rcd13ifvqbe0","pricing_plan_id":"cebpf4jnsgd1na2vs0mg"},