{"last_updated":1762935355,"ttl":60,"version":"2.2","data":{"bikes":[{"bike_id":"d7db12ce-11cc-4c98-8751-ac59baa5d7aa","system_id":"levelo_inurba_marseille","lat":43.337444,"lon":5.374475,"is_reserved":false,"is_disabled":false,"rental_uris":{"android":"levelo://app?vid=d7db12ce-11cc-4c98-8751-ac59baa5d7aa","ios":"levelo://app?vid=d7db12ce-11cc-4c98-8751-ac59baa5d7aa"},"vehicle_type_id":"4","last_reported":1762935355,"current_range_meters":0,"station_id":"","pricing_plan_id":"cebpf4jnsgd1na2vs0mg"},{"bike_id":"ae8df7c2-dced-4c87-8be6-83ffc212bba9","system_id":"levelo_inurba_marseille","lat":43.28276,"lon":5.35071,"is_reserved":false,"is_disabled":true,"rental_uris":{"android":"levelo://app?vid=ae8df7c2-dced-4c87-8be6-83ffc212bba9","ios":"levelo://app?vid=ae8df7c2-dced-4c87-8be6-83ffc212bba9"},"vehicle_type_id":"4","last_reported":1762935355,"current_range_meters":2800,"station_id":"ce4bhbp2rcd13ifvqerg","pricing_plan_id":"cebpf4jnsgd1na2vs0mg"},{"bike_id":"09cb0606-ce4f-48d2-b6de-2ca0fcd482e4","system_id":"levelo_inurba_marseille","lat":43.30643,"lon":5.40093,"is_reserved":false,"is_disabled":false,"rental_uris":{"android":"levelo://app?vid=09cb0606-ce4f-48d2-b6de-2ca0fcd482e4","ios":"levelo://app?vid=09cb0606-ce4f-48d2-b6de-2ca0fcd482e4"},"vehicle_type_id":"4","last_reported":1762935355,"current_range_meters":2800,"station_id":"ce4bh112rcd13ifvqda0","pricing_plan_id":"cebpf4jnsgd1na2vs0mg"},{"bike_id":"355d0a72-63a4-43ac-addc-15604eb0aa69","system_id":"levelo_inurba_marseille","lat":43.29916,"lon":5.36412,"is_reserved":false,"is_disabled":false,"rental_uris":{"android":"levelo://app?vid=355d0a72-63a4-43ac-addc-15604eb0aa69","ios":"levelo://app?vid=355d0a72-63a4-43ac-addc-15604eb0aa69"},"vehicle_type_id":"4","last_reported":1762935355,"current_range_meters":2800,"station_id":"","pricing_plan_id":"cebpf4jnsgd1na2vs0mg"},{"bike_id":"9f91d355-c667-40be-a162-70475e1526df","system_id":"levelo_inurba_marseille","lat":43.29692,"lon":5.37683,"is_reserved":false,"is_disabled":false,"rental_uris":{"android":"levelo://app?vid=9f91d355-c667-40be-a162-70475e1526df","ios":"levelo://app?vid=9f91d355-c667-40be-a162-70475e1526df"},"vehicle_type_id":"4","last_reported":1762935355,"current_range_meters":3200,"station_id":"ce4bgkh2rcd13ifvqbl0","pricing_plan_id":"cebpf4jnsgd1na2vs0mg"},{"bike_id":"e9692226-88f7-4a1f-a6ff-d352584b755d","system_id":"levelo_inurba_marseille","lat":43.33602,"lon":5.41033,"is_reserved":false,"is_disabled":false,"rental_uris":{"android":"levelo://app?vid=e9692226-88f7-4a1f-a6ff-d352584b755d","ios":"levelo://app?vid=e9692226-88f7-4a1f-a6ff-d352584b755d"},"vehicle_type_id":"4","last_reported":1762935355,"current_range_meters":3200,"station_id":"ce4bhqh2rcd13ifvqhmg","pricing_plan_id":"cebpf4jnsgd1na2vs0mg"},{"bike_id":"73177cfa-5136-451e-b441-b50ac15f6f39","system_id":"levelo_inurba_marseille","lat":43.28376,"lon":5.3878,"is_reserved":false,"is_disabled":false,"rental_uris":{"android":"levelo://app?vid=73177cfa-5136-451e-b441-b50ac15f6f39","ios":"levelo://app?vid=73177cfa-5136-451e-b441-b50ac15f6f39"},"vehicle_type_id":"4","last_reported":1762935355,"current_range_meters":3600,"station_id":"","pricing_plan_id":"cebpf4jnsgd1na2vs0mg"},{"bike_id":"b2211397-40b9-477e-9d45-7a369489e8c7","system_id":"levelo_inurba_marseille","lat":43.29258,"lon":5.38439,"is_reserved":false,"is_disabled":true,"rental_uris":{"android":"levelo://app?vid=b2211397-40b9-477e-9d45-7a369489e8c7","ios":"levelo://app?vid=b2211397-40b9-477e-9d45-7a369489e8c7"},"vehicle_type_id":"4","last_reported":1762935355,"current_range_meters":4000,"station_id":"ce4bh692rcd13ifvqea0","pricing_plan_id":"cebpf4jnsgd1na2vs0mg"},{"bike_id":"b7d1a403-7055-4abd-a728-ea36e987051a","system_id":"levelo_inurba_marseille","lat":43.24999,"lon":5.38931,"is_reserved":false,"is_disabled":false,"rental_uris":{"android":"levelo://app?vid=b7d1a403-7055-4abd-a728-ea36e987051a","ios":"levelo://app?vid=b7d1a403-7055-4abd-a728-ea36e987051a"},"vehicle_type_id":"4","last_reported":1762935355,"current_range_meters":4000,"station_id":"ce4bhgp2rcd13ifvqfd0","pricing_plan_id":"cebpf4jnsgd1na2vs0mg"},{"bike_id":"9ade1fe7-d83f-4045-9bd3-74892e77626e","system_id":"levelo_inurba_marseille","lat":43.24068,"lon":5.37737,"is_reserved":false,"is_disabled":false,"rental_uris":{"android":"levelo://app?vid=9ade1fe7-d83f-4045-9bd3-74892e77626e","ios":"levelo://app?vid=9ade1fe7-d83f-4045-9bd3-74892e77626e"},"vehicle_type_id":"4","last_reported":1762935355,"current_range_meters":4000,"station_id":"ce4bhnp2rcd13ifvqgvg","pricing_plan_id":"cebpf4jnsgd1na2vs0mg"},{"bike_id":"9092fc00-eef7-423d-a59c-74cb83e8fcb4","system_id":"levelo_inurba_marseille","lat":43.30138,"lon":5.39861,"is_reserved":false,"is_disabled":true,"rental_uris":{"android":"levelo://app?vid=9092fc00-eef7-423d-a59c-74cb83e8fcb4","ios":"levelo://app?vid=9092fc00-eef7-423d-a59c-74cb83e8fcb4"},"vehicle_type_id":"4","last_reported":1762935355,"current_range_meters":4000,"station_id":"ce4bh0h2rcd13ifvqd40","pricing_plan_id":"cebpf4jnsgd1na2vs0mg"},{"bike_id":"2cd52a61-fe44-4e30-ae58-30cf2fab9b44","system_id":"levelo_inurba_marseille","lat":43.30464,"lon":5.37902,"is_reserved":false,"is_disabled":false,"rental_uris":{"android":"levelo://app?vid=2cd52a61-fe44-4e30-ae58-30cf2fab9b44","ios":"levelo://app?vid=2cd52a61-fe44-4e30-ae58-30cf2fab9b44"},"vehicle_type_id":"4","last_reported":1762935355,"current_range_meters":4400,"station_id":"ce4bgup2rcd13ifvqcn0","pricing_plan_id":"cebpf4jnsgd1na2vs0mg"},{"bike_id":"b09e8da2-d540-49a3-b9ac-0aa0fa0ea66d","system_id":"levelo_inurba_marseille","lat":43.25943,"lon":5.40899,"is_reserved":false,"is_disabled":false,"rental_uris":{"android":"levelo://app?vid=b09e8da2-d540-49a3-b9ac-0aa0fa0ea66d","ios":"levelo://app?vid=b09e8da2-d540-49a3-b9ac-0aa0fa0ea66d"},"vehicle_type_id":"4","last_reported":1762935355,"current_range_meters":4400,"station_id":"ce4bhm92rcd13ifvqglg","pricing_plan_id":"cebpf4jnsgd1na2vs0mg"},{"bike_id":"b2be4fa2-44ee-40dc-acc7-1755c74f1c5d","system_id":"levelo_inurba_marseille","lat":43.297436,"lon":5.4111,"is_reserved":false,"is_disabled":false,"rental_uris":{"android":"levelo://app?vid=b2be4fa2-44ee-40dc-acc7-1755c74f1c5d","ios":"levelo://app?vid=b2be4fa2-44ee-40dc-acc7-1755c74f1c5d"},"vehicle_type_id":"4","last_reported":1762935355,"current_range_meters":4400,"station_id":"","pricing_plan_id":"cebpf4jnsgd1na2vs0mg"},{"bike_id":"f8946012-59bc-4e35-9a72-01b7907d574a","system_id":"levelo_inurba_marseille","lat":43.26776,"lon":5.39415,"is_reserved":false,"is_disabled":false,"rental_uris":{"android":"levelo://app?vid=f8946012-59bc-4e35-9a72-01b7907d574a","ios":"levelo://app?vid=f8946012-59bc-4e35-9a72-01b7907d574a"},"vehicle_type_id":"4","last_reported":1762935355,"current_range_meters":4400,"station_id":"ce4bhh12rcd13ifvqfg0","pricing_plan_id":"cebpf4jnsgd1na2vs0mg"},{"bike_id":"2f1f724f-7019-409c-b19d-54464935d9d7","system_id":"levelo_inurba_marseille","lat":43.29847,"lon":5.36273,"is_reserved":false,"is_disabled":false,"rental_uris":{"android":"levelo://app?vid=2f1f724f-7019-409c-b19d-54464935d9d7","ios":"levelo://app?vid=2f1f724f-7019-409c-b19d-54464935d9d7"},"vehicle_type_id":"4","last_reported":1762935355,"current_range_meters":4400,"station_id":"ce4bgpp2rcd13ifvqc3g","pricing_plan_id":"cebpf4jnsgd1na2vs0mg"},{"bike_id":"56d99dcb-92f2-4395-89d7-12495cfca8c6","system_id":"levelo_inurba_marseille","lat":43.25918,"lon":5.40903,"is_reserved":false,"is_disabled":false,"rental_uris":{"android":"levelo://app?vid=56d99dcb-92f2-4395-89d7-12495cfca8c6","ios":"levelo://app?vid=56d99dcb-92f2-4395-89d7-12495cfca8c6"},"vehicle_type_id":"4","last_reported":1762935355,"current_range_meters":4800,"station_id":"ce4bhm92rcd13ifvqglg","pricing_plan_id":"cebpf4jnsgd1na2vs0mg"},{"bike_id":"981f004a-e45e-4d55-9386-4d40a7c6ace1","system_id":"levelo_inurba_marseille","lat":43.23783,"lon":5.36628,"is_reserved":false,"is_disabled":false,"rental_uris":{"android":"levelo://app?vid=981f004a-e45e-4d55-9386-4d40a7c6ace1","ios":"levelo://app?vid=981f004a-e45e-4d55-9386-4d40a7c6ace1"},"vehicle_type_id":"4","last_reported":1762935355,"current_range_meters":5600,"station_id":"st_d3nk18o9ro0c73en2l3g","pricing_plan_id":"cebpf4jnsgd1na2vs0mg"},{"bike_id":"349b2ad9-adea-4dd9-9ac9-fffb121b5424","system_id":"levelo_inurba_marseille","lat":43.29892,"lon":5.37537,"is_reserved":false,"is_disabled":false,"rental_uris":{"android":"levelo://app?vid=349b2ad9-adea-4dd9-9ac9-fffb121b5424","ios":"levelo://app?vid=349b2ad9-adea-4dd9-9ac9-fffb121b5424"},"vehicle_type_id":"4","last_reported":1762935355,"current_range_meters":5600,"station_id":"","pricing_plan_id":"cebpf4jnsgd1na2vs0mg"},{"bike_id":"0cc19fa9-da73-4612-9495-c40145beeef4","system_id":"levelo_inurba_marseille","lat":43.32498,"lon":5.36552,"is_reserved":false,"is_disabled":false,"rental_uris":{"android":"levelo://app?vid=0cc19fa9-da73-4612-9495-c40145beeef4","ios":"levelo://app?vid=0cc19fa9-da73-4612-9495-c40145beeef4"},"vehicle_type_id":"4","last_reported":1762935355,"current_range_meters":5600,"station_id":"ce4bhs12rcd13ifvqhvg","pricing_plan_id":"cebpf4jnsgd1na2vs0mg"},{"bike_id":"1939dd5d-27fc-4526-8ada-4533e02c0628","system_id":"levelo_inurba_marseille","lat":43.31337,"lon":5.36709,"is_reserved":false,"is_disabled":false,"rental_uris":{"android":"levelo://app?vid=1939dd5d-27fc-4526-8ada-4533e02c0628","ios":"levelo://app?vid=1939dd5d-27fc-4526-8ada-4533e02c0628"},"vehicle_type_id":"4","last_reported":1762935355,"current_range_meters":5600,"station_id":"ce4bgr92rcd13ifvqc6g","pricing_plan_id":"cebpf4jnsgd1na2vs0mg"},{"bike_id":"a714915f-aff3-456a-ac83-82a945eab060","system_id":"levelo_inurba_marseille","lat":43.297548,"lon":5.427875,"is_reserved":false,"is_disabled":false,"rental_uris":{"android":"levelo://app?vid=a714915f-aff3-456a-ac83-82a945eab060","ios":"levelo://app?vid=a714915f-aff3-456a-ac83-82a945eab060"},"vehicle_type_id":"4","last_reported":1762935355,"current_range_meters":5600,"station_id":"st_d3md5207bmas73dh9klg","pricing_plan_id":"cebpf4jnsgd1na2vs0mg"},{"bike_id":"9bad405d-d793-42eb-9e0f-6b4e7551aae3","system_id":"levelo_inurba_marseille","lat":43.29017,"lon":5.38139,"is_reserved":false,"is_disabled":false,"rental_uris":{"android":"levelo://app?vid=9bad405d-d793-42eb-9e0f-6b4e7551aae3","ios":"levelo://app?vid=9bad405d-d793-42eb-9e0f-6b4e7551aae3"},"vehicle_type_id":"4","last_reported":1762935355,"current_range_meters":5600,"station_id":"ce4bh4p2rcd13ifvqe1g","pricing_plan_id":"cebpf4jnsgd1na2vs0mg"},{"bike_id":"85b2fb0e-9806-4351-9001-b4ca9561dc38","system_id":"levelo_inurba_marseille","lat":43.30145,"lon":5.37417,"is_reserved":false,"is_disabled":false,"rental_uris":{"android":"levelo://app?vid=85b2fb0e-9806-4351-9001-b4ca9561dc38","ios":"levelo://app?vid=85b2fb0e-9806-4351-9001-b4ca9561dc38"},"vehicle_type_id":"4","last_reported":1762935355,"current_range_meters":5600,"station_id":"ce4bgs92rcd13ifvqcc0","pricing_plan_id":"cebpf4jnsgd1na2vs0mg"},{"bike_id":"c3c6247d-36ce-4e28-8ebf-88d42a50df0e","system_id":"levelo_inurba_marseille","lat":43.2721,"lon":5.39181,"is_reserved":false,"is_disabled":false,"rental_uris":{"android":"levelo://app?vid=c3c6247d-36ce-4e28-8ebf-88d42a50df0e","ios":"levelo://app?vid=c3c6247d-36ce-4e28-8ebf-88d42a50df0e"},"vehicle_type_id":"4","last_reported":1762935355,"current_range_meters":6000,"station_id":"ce4bhhp2rcd13ifvqfm0","pricing_plan_id":"cebpf4jnsgd1na2vs0mg"},{"bike_id":"0d80f816-4f1f-49ba-8abe-aaf1d351a31e","system_id":"levelo_inurba_marseille","lat":43.34142,"lon":5.40909,"is_reserved":false,"is_disabled":false,"rental_uris":{"android":"levelo://app?vid=0d80f816-4f1f-49ba-8abe-aaf1d351a31e","ios":"levelo://app?vid=0d80f816-4f1f-49ba-8abe-aaf1d351a31e"},"vehicle_type_id":"4","last_reported":1762935355,"current_range_meters":6000,"station_id":"ce4bhqh2rcd13ifvqhlg","pricing_plan_id":"cebpf4jnsgd1na2vs0mg"},{"bike_id":"e94d6363-f9b6-433d-9be1-bdfbcd26cea1","system_id":"levelo_inurba_marseille","lat":43.30938,"lon":5.39039,"is_reserved":false,"is_disabled":false,"rental_uris":{"android":"levelo://app?vid=e94d6363-f9b6-433d-9be1-bdfbcd26cea1","ios":"levelo://app?vid=e94d6363-f9b6-433d-9be1-bdfbcd26cea1"},"vehicle_type_id":"4","last_reported":1762935355,"current_range_meters":6400,"station_id":"ce4bgup2rcd13ifvqco0","pricing_plan_id":"cebpf4jnsgd1na2vs0mg"},{"bike_id":"732c07ff-518b-45bc-8bdd-6de8f8ade45f","system_id":"levelo_inurba_marseille","lat":43.29248,"lon":5.38252,"is_reserved":false,"is_disabled":true,"rental_uris":{"android":"levelo://app?vid=732c07ff-518b-45bc-8bdd-6de8f8ade45f","ios":"levelo://app?vid=732c07ff-518b-45bc-8bdd-6de8f8ade45f"},"vehicle_type_id":"4","last_reported":1762935355,"current_range_meters":6400,"station_id":"","pricing_plan_id":"cebpf4jnsgd1na2vs0mg"},{"bike_id":"2219ff87-0d93-483d-b2eb-d5793dfe33f7","system_id":"levelo_inurba_marseille","lat":43.30284,"lon":5.37705,"is_reserved":false,"is_disabled":false,"rental_uris":{"android":"levelo://app?vid=2219ff87-0d93-483d-b2eb-d5793dfe33f7","ios":"levelo://app?vid=2219ff87-0d93-483d-b2eb-d5793dfe33f7"},"vehicle_type_id":"4","last_reported":1762935355,"current_range_meters":6400,"station_id":"ce4bguh2rcd13ifvqcj0","pricing_plan_id":"cebpf4jnsgd1na2vs0mg"},{"bike_id":"c84fa101-2642-47fd-87ec-aecc028da145","system_id":"levelo_inurba_marseille","lat":43.31335,"lon":5.36709,"is_reserved":false,"is_disabled":false,"rental_uris":{"android":"levelo://app?vid=c84fa101-2642-47fd-87ec-aecc028da145","ios":"levelo://app?vid=c84fa101-2642-47fd-87ec-aecc028da145"},"vehicle_type_id":"4","last_reported":1762935355,"current_range_meters":6400,"station_id":"ce4bgr92rcd13ifvqc6g","pricing_plan_id":"cebpf4jnsgd1na2vs0mg"},{"bike_id":"381d4b1f-0a2d-4bcd-b40a-3a6ab243735c","system_id":"levelo_inurba_marseille","lat":43.27974,"lon":5.38747,"is_reserved":false,"is_disabled":false,"rental_uris":{"android":"levelo://app?vid=381d4b1f-0a2d-4bcd-b40a-3a6ab243735c","ios":"levelo://app?vid=381d4b1f-0a2d-4bcd-b40a-3a6ab243735c"},"vehicle_type_id":"4","last_reported":1762935355,"current_range_meters":6400,"station_id":"ce4bhg12rcd13ifvqf80","pricing_plan_id":"cebpf4jnsgd1na2vs0mg"},{"bike_id":"c620c9fc-398f-4dca-8fdd-2b652311235d","system_id":"levelo_inurba_marseille","lat":43.211892,"lon":5.350756,"is_reserved":false,"is_disabled":true,"rental_uris":{"android":"levelo://app?vid=c620c9fc-398f-4dca-8fdd-2b652311235d","ios":"levelo://app?vid=c620c9fc-398f-4dca-8fdd-2b652311235d"},"vehicle_type_id":"4","last_reported":1762935355,"current_range_meters":6400,"station_id":"st_cvj6sg6p6f1abm77japg","pricing_plan_id":"cebpf4jnsgd1na2vs0mg"},{"bike_id":"95e32340-1dfd-4000-941b-e5f36491f95b","system_id":"levelo_inurba_marseille","lat":43.314771,"lon":5.372863,"is_reserved":false,"is_disabled":false,"rental_uris":{"android":"levelo://app?vid=95e32340-1dfd-4000-941b-e5f36491f95b","ios":"levelo://app?vid=95e32340-1dfd-4000-941b-e5f36491f95b"},"vehicle_type_id":"4","last_reported":1762935355,"current_range_meters":6400,"station_id":"ce4bgt12rcd13ifvqcd0","pricing_plan_id":"cebpf4jnsgd1na2vs0mg"},{"bike_id":"d427f179-3610-4cb0-ae28-6e49355a0be5","system_id":"levelo_inurba_marseille","lat":43.29283,"lon":5.40118,"is_reserved":false,"is_disabled":false,"rental_uris":{"android":"levelo://app?vid=d427f179-3610-4cb0-ae28-6e49355a0be5","ios":"levelo://app?vid=d427f179-3610-4cb0-ae28-6e49355a0be5"},"vehicle_type_id":"4","last_reported":1762935355,"current_range_meters":6400,"station_id":"ce4bh312rcd13ifvqdk0","pricing_plan_id":"cebpf4jnsgd1na2vs0mg"},{"bike_id":"e4e0853f-1ac7-4f10-832e-7da25280ebbc","system_id":"levelo_inurba_marseille","lat":43.26227,"lon":5.40458,"is_reserved":false,"is_disabled":false,"rental_uris":{"android":"levelo://app?vid=e4e0853f-1ac7-4f10-832e-7da25280ebbc","ios":"levelo://app?vid=e4e0853f-1ac7-4f10-832e-7da25280ebbc"},"vehicle_type_id":"4","last_reported":1762935355,"current_range_meters":6400,"station_id":"ce4bhmh2rcd13ifvqgmg","pricing_plan_id":"cebpf4jnsgd1na2vs0mg"},{"bike_id":"eca36ba7-598c-450a-9e60-63bdec210981","system_id":"levelo_inurba_marseille","lat":43.28696,"lon":5.39985,"is_reserved":false,"is_disabled":false,"rental_uris":{"android":"levelo://app?vid=eca36ba7-598c-450a-9e60-63bdec210981","ios":"levelo://app?vid=eca36ba7-598c-450a-9e60-63bdec210981"},"vehicle_type_id":"4","last_reported":1762935355,"current_range_meters":6400,"station_id":"ce4bho92rcd13ifvqh3g","pricing_plan_id":"cebpf4jnsgd1na2vs0mg"},{"bike_id":"03d53a50-5526-4a4c-bd86-5f347196cab3","system_id":"levelo_inurba_marseille","lat":43.28851,"lon":5.39332,"is_reserved":false,"is_disabled":false,"rental_uris":{"android":"levelo://app?vid=03d53a50-5526-4a4c-bd86-5f347196cab3","ios":"levelo://app?vid=03d53a50-5526-4a4c-bd86-5f347196cab3"},"vehicle_type_id":"4","last_reported":1762935355,"current_range_meters":6400,"station_id":"ce4bh2p2rcd13ifvqdi0","pricing_plan_id":"cebpf4jnsgd1na2vs0mg"},{"bike_id":"15906347-522c-4d5e-95dd-06634e39d40b","system_id":"levelo_inurba_marseille","lat":43.30318,"lon":5.36901,"is_reserved":false,"is_disabled":false,"rental_uris":{"android":"levelo://app?vid=15906347-522c-4d5e-95dd-06634e39d40b","ios":"levelo://app?vid=15906347-522c-4d5e-95dd-06634e39d40b"},"vehicle_type_id":"4","last_reported":1762935355,"current_range_meters":6800,"station_id":"ce4bgqh2rcd13ifvqc5g","pricing_plan_id":"cebpf4jnsgd1na2vs0mg"},{"bike_id":"b1aac026-9d31-437c-8a3e-4bc75b432aa5","system_id":"levelo_inurba_marseille","lat":43.26946,"lon":5.38642,"is_reserved":false,"is_disabled":true,"rental_uris":{"android":"levelo://app?vid=b1aac026-9d31-437c-8a3e-4bc75b432aa5","ios":"levelo://app?vid=b1aac026-9d31-437c-8a3e-4bc75b432aa5"},"vehicle_type_id":"4","last_reported":1762935355,"current_range_meters":6800,"station_id":"ce4bhh92rcd13ifvqfh0","pricing_plan_id":"cebpf4jnsgd1na2vs0mg"},{"bike_id":"e0467342-2ee8-4c36-aeb9-27d25d94ead5","system_id":"levelo_inurba_marseille","lat":43.281528,"lon":5.426464,"is_reserved":false,"is_disabled":true,"rental_uris":{"android":"levelo://app?vid=e0467342-2ee8-4c36-aeb9-27d25d94ead5","ios":"levelo://app?vid=e0467342-2ee8-4c36-aeb9-27d25d94ead5"},"vehicle_type_id":"4","last_reported":1762935355,"current_range_meters":6800,"station_id":"ce4bhnh2rcd13ifvqgug","pricing_plan_id":"cebpf4jnsgd1na2vs0mg"},{"bike_id":"d14a3070-960e-421d-b5dc-419b8cc88005","system_id":"levelo_inurba_marseille","lat":43.31599,"lon":5.37603,"is_reserved":false,"is_disabled":false,"rental_uris":{"android":"levelo://app?vid=d14a3070-960e-421d-b5dc-419b8cc88005","ios":"levelo://app?vid=d14a3070-960e-421d-b5dc-419b8cc88005"},"vehicle_type_id":"4","last_reported":1762935355,"current_range_meters":6800,"station_id":"","pricing_plan_id":"cebpf4jnsgd1na2vs0mg"},{"bike_id":"6179d122-98b0-4fc9-8c4d-d1930715900c","system_id":"levelo_inurba_marseille","lat":43.25938,"lon":5.40888,"is_reserved":false,"is_disabled":false,"rental_uris":{"android":"levelo://app?vid=6179d122-98b0-4fc9-8c4d-d1930715900c","ios":"levelo://app?vid=6179d122-98b0-4fc9-8c4d-d1930715900c"},"vehicle_type_id":"4","last_reported":1762935355,"current_range_meters":7200,"station_id":"ce4bhm92rcd13ifvqglg","pricing_plan_id":"cebpf4jnsgd1na2vs0mg"},{"bike_id":"0ea66b8e-ee71-4dee-9a44-0fe9f1baf397","system_id":"levelo_inurba_marseille","lat":43.30511,"lon":5.40088,"is_reserved":false,"is_disabled":true,"rental_uris":{"android":"levelo://app?vid=0ea66b8e-ee71-4dee-9a44-0fe9f1baf397","ios":"levelo://app?vid=0ea66b8e-ee71-4dee-9a44-0fe9f1baf397"},"vehicle_type_id":"4","last_reported":1762935355,"current_range_meters":7200,"station_id":"","pricing_plan_id":"cebpf4jnsgd1na2vs0mg"},{"bike_id":"1bef32cb-7d1e-4303-a020-1532c28fd3d9","system_id":"levelo_inurba_marseille","lat":43.29549,"lon":5.42277,"is_reserved":false,"is_disabled":false,"rental_uris":{"android":"levelo://app?vid=1bef32cb-7d1e-4303-a020-1532c28fd3d9","ios":"levelo://app?vid=1bef32cb-7d1e-4303-a020-1532c28fd3d9"},"vehicle_type_id":"4","last_reported":1762935355,"current_range_meters":7200,"station_id":"ce4bhph2rcd13ifvqhdg","pricing_plan_id":"cebpf4jnsgd1na2vs0mg"},{"bike_id":"8673fcf8-df1e-43f0-b24f-4785c3fa24ee","system_id":"levelo_inurba_marseille","lat":43.321122,"lon":5.367657,"is_reserved":false,"is_disabled":false,"rental_uris":{"android":"levelo://app?vid=8673fcf8-df1e-43f0-b24f-4785c3fa24ee","ios":"levelo://app?vid=8673fcf8-df1e-43f0-b24f-4785c3fa24ee"},"vehicle_type_id":"4","last_reported":1762935355,"current_range_meters":7200,"station_id":"ce4bhrh2rcd13ifvqhug","pricing_plan_id":"cebpf4jnsgd1na2vs0mg"},{"bike_id":"d0769871-862e-4f0c-8c37-d30e45116cbd","system_id":"levelo_inurba_marseille","lat":43.29098,"lon":5.38122,"is_reserved":false,"is_disabled":false,"rental_uris":{"android":"levelo://app?vid=d0769871-862e-4f0c-8c37-d30e45116cbd","ios":"levelo://app?vid=d0769871-862e-4f0c-8c37-d30e45116cbd"},"vehicle_type_id":"4","last_reported":1762935355,"current_range_meters":7200,"station_id":"ce4bh512rcd13ifvqe2g","pricing_plan_id":"cebpf4jnsgd1na2vs0mg"},{"bike_id":"f210c5d9-e6c9-4a47-a92c-7d32d99c058f","system_id":"levelo_inurba_marseille","lat":43.303512,"lon":5.39697,"is_reserved":false,"is_disabled":false,"rental_uris":{"android":"levelo://app?vid=f210c5d9-e6c9-4a47-a92c-7d32d99c058f","ios":"levelo://app?vid=f210c5d9-e6c9-4a47-a92c-7d32d99c058f"},"vehicle_type_id":"4","last_reported":1762935355,"current_range_meters":8000,"station_id":"","pricing_plan_id":"cebpf4jnsgd1na2vs0mg"},{"bike_id":"593da21b-a930-4477-a25e-2affb74fe869","system_id":"levelo_inurba_marseille","lat":43.31197,"lon":5.36833,"is_reserved":false,"is_disabled":false,"rental_uris":{"android":"levelo://app?vid=593da21b-a930-4477-a25e-2affb74fe869","ios":"levelo://app?vid=593da21b-a930-4477-a25e-2affb74fe869"},"vehicle_type_id":"4","last_reported":1762935355,"current_range_meters":8000,"station_id":"ce4bgl92rcd13ifvqbq0","pricing_plan_id":"cebpf4jnsgd1na2vs0mg"},{"bike_id":"755d6f62-8205-4fba-b892-254b1fb21c7c","system_id":"levelo_inurba_marseille","lat":43.28859,"lon":5.35842,"is_reserved":false,"is_disabled":false,"rental_uris":{"android":"levelo://app?vid=755d6f62-8205-4fba-b892-254b1fb21c7c","ios":"levelo://app?vid=755d6f62-8205-4fba-b892-254b1fb21c7c"},"vehicle_type_id":"4","last_reported":1762935355,"current_range_meters":8000,"station_id":"ce4bhb12rcd13ifvqem0","pricing_plan_id":"cebpf4jnsgd1na2vs0mg"},{"bike_id":"f1b0ed91-08ec-41f1-988b-7c9277bf00df","system_id":"levelo_inurba_marseille","lat":43.25937,"lon":5.40862,"is_reserved":false,"is_disabled":false,"rental_uris":{"android":"levelo://app?vid=f1b0ed91-08ec-41f1-988b-7c9277bf00df","ios":"levelo://app?vid=f1b0ed91-08ec-41f1-988b-7c9277bf00df"},"vehicle_type_id":"4","last_reported":1762935355,"current_range_meters":8000,"station_id":"ce4bhm92rcd13ifvqglg","pricing_plan_id":"cebpf4jnsgd1na2vs0mg"},{"bike_id":"2a2ec83a-2b84-4bf4-b19a-cd864bece9fd","system_id":"levelo_inurba_marseille","lat":43.24633,"lon":5.43144,"is_reserved":false,"is_disabled":false,"rental_uris":{"android":"levelo://app?vid=2a2ec83a-2b84-4bf4-b19a-cd864bece9fd","ios":"levelo://app?vid=2a2ec83a-2b84-4bf4-b19a-cd864bece9fd"},"vehicle_type_id":"4","last_reported":1762935355,"current_range_meters":8000,"station_id":"st_d2m6c4gdas8pm72e190g","pricing_plan_id":"cebpf4jnsgd1na2vs0mg"},{"bike_id":"3e36861b-a26f-44e3-909e-cc78b8d8a057","system_id":"levelo_inurba_marseille","lat":43.2893,"lon":5.39621,"is_reserved":false,"is_disabled":false,"rental_uris":{"android":"levelo://app?vid=3e36861b-a26f-44e3-909e-cc78b8d8a057","ios":"levelo://app?vid=3e36861b-a26f-44e3-909e-cc78b8d8a057"},"vehicle_type_id":"4","last_reported":1762935355,"current_range_meters":8000,"station_id":"ce4bh3h2rcd13ifvqdn0","pricing_plan_id":"cebpf4jnsgd1na2vs0mg"},{"bike_id":"42ef4f95-133d-416a-b8ba-a9bc99c03480","system_id":"levelo_inurba_marseille","lat":43.25929,"lon":5.40887,"is_reserved":false,"is_disabled":false,"rental_uris":{"android":"levelo://app?vid=42ef4f95-133d-416a-b8ba-a9bc99c03480","ios":"levelo://app?vid=42ef4f95-133d-416a-b8ba-a9bc99c03480"},"vehicle_type_id":"4","last_reported":1762935355,"current_range_meters":8400,"station_id":"ce4bhm92rcd13ifvqglg","pricing_plan_id":"cebpf4jnsgd1na2vs0mg"},{"bike_id":"62a14efb-5f7a-4e0d-bbfa-d4a60d07f475","system_id":"levelo_inurba_marseille","lat":43.297603,"lon":5.373297,"is_reserved":false,"is_disabled":false,"rental_uris":{"android":"levelo://app?vid=62a14efb-5f7a-4e0d-bbfa-d4a60d07f475","ios":"levelo://app?vid=62a14efb-5f7a-4e0d-bbfa-d4a60d07f475"},"vehicle_type_id":"4","last_reported":1762935355,"current_range_meters":8400,"station_id":"","pricing_plan_id":"cebpf4jnsgd1na2vs0mg"},{"bike_id":"59a18af2-241b-48ee-bb39-c2bff91aa292","system_id":"levelo_inurba_marseille","lat":43.29684,"lon":5.37298,"is_reserved":false,"is_disabled":false,"rental_uris":{"android":"levelo://app?vid=59a18af2-241b-48ee-bb39-c2bff91aa292","ios":"levelo://app?vid=59a18af2-241b-48ee-bb39-c2bff91aa292"},"vehicle_type_id":"4","last_reported":1762935355,"current_range_meters":8400,"station_id":"ce4bgk12rcd13ifvqbj0","pricing_plan_id":"cebpf4jnsgd1na2vs0mg"},{"bike_id":"bd4505ca-3885-45e3-92a4-a5d486fcef0a","system_id":"levelo_inurba_marseille","lat":43.29025,"lon":5.39966,"is_reserved":false,"is_disabled":false,"rental_uris":{"android":"levelo://app?vid=bd4505ca-3885-45e3-92a4-a5d486fcef0a","ios":"levelo://app?vid=bd4505ca-3885-45e3-92a4-a5d486fcef0a"},"vehicle_type_id":"4","last_reported":1762935355,"current_range_meters":8400,"station_id":"ce4bh392rcd13ifvqdm0","pricing_plan_id":"cebpf4jnsgd1na2vs0mg"},{"bike_id":"1b5be03e-768e-46f0-b152-16af9f81cff1","system_id":"levelo_inurba_marseille","lat":43.309322,"lon":5.401366,"is_reserved":false,"is_disabled":true,"rental_uris":{"android":"levelo://app?vid=1b5be03e-768e-46f0-b152-16af9f81cff1","ios":"levelo://app?vid=1b5be03e-768e-46f0-b152-16af9f81cff1"},"vehicle_type_id":"4","last_reported":1762935355,"current_range_meters":8800,"station_id":"","pricing_plan_id":"cebpf4jnsgd1na2vs0mg"},{"bike_id":"38c922e6-37cd-47dc-af88-f07475112c2a","system_id":"levelo_inurba_marseille","lat":43.321268,"lon":5.388519,"is_reserved":false,"is_disabled":false,"rental_uris":{"android":"levelo://app?vid=38c922e6-37cd-47dc-af88-f07475112c2a","ios":"levelo://app?vid=38c922e6-37cd-47dc-af88-f07475112c2a"},"vehicle_type_id":"4","last_reported":1762935355,"current_range_meters":8800,"station_id":"","pricing_plan_id":"cebpf4jnsgd1na2vs0mg"},{"bike_id":"df6d2f12-cb34-4998-8556-4a4312194177","system_id":"levelo_inurba_marseille","lat":43.2957,"lon":5.37527,"is_reserved":false,"is_disabled":false,"rental_uris":{"android":"levelo://app?vid=df6d2f12-cb34-4998-8556-4a4312194177","ios":"levelo://app?vid=df6d2f12-cb34-4998-8556-4a4312194177"},"vehicle_type_id":"4","last_reported":1762935355,"current_range_meters":8800,"station_id":"ce4bgh92rcd13ifvqb50","pricing_plan_id":"cebpf4jnsgd1na2vs0mg"},{"bike_id":"667279e9-9ae5-4c83-b4d9-542021f79f1e","system_id":"levelo_inurba_marseille","lat":43.292602,"lon":5.384412,"is_reserved":false,"is_disabled":false,"rental_uris":{"android":"levelo://app?vid=667279e9-9ae5-4c83-b4d9-542021f79f1e","ios":"levelo://app?vid=667279e9-9ae5-4c83-b4d9-542021f79f1e"},"vehicle_type_id":"4","last_reported":1762935355,"current_range_meters":8800,"station_id":"ce4bh692rcd13ifvqea0","pricing_plan_id":"cebpf4jnsgd1na2vs0mg"},{"bike_id":"5a04390a-ad60-4fd6-bcf6-e75b8899a404","system_id":"levelo_inurba_marseille","lat":43.29019,"lon":5.40015,"is_reserved":false,"is_disabled":true,"rental_uris":{"android":"levelo://app?vid=5a04390a-ad60-4fd6-bcf6-e75b8899a404","ios":"levelo://app?vid=5a04390a-ad60-4fd6-bcf6-e75b8899a404"},"vehicle_type_id":"4","last_reported":1762935355,"current_range_meters":9200,"station_id":"ce4bh392rcd13ifvqdm0","pricing_plan_id":"cebpf4jnsgd1na2vs0mg"},{"bike_id":"172a1479-a5a8-4a14-96d6-945fbc77b377","system_id":"levelo_inurba_marseille","lat":43.319967,"lon":5.381411,"is_reserved":false,"is_disabled":false,"rental_uris":{"android":"levelo://app?vid=172a1479-a5a8-4a14-96d6-945fbc77b377","ios":"levelo://app?vid=172a1479-a5a8-4a14-96d6-945fbc77b377"},"vehicle_type_id":"4","last_reported":1762935355,"current_range_meters":9200,"station_id":"ce4bhr12rcd13ifvqhpg","pricing_plan_id":"cebpf4jnsgd1na2vs0mg"},{"bike_id":"722f7e0f-46d9-4be9-997c-6a53c83a7527","system_id":"levelo_inurba_marseille","lat":43.28039,"lon":5.36934,"is_reserved":false,"is_disabled":false,"rental_uris":{"android":"levelo://app?vid=722f7e0f-46d9-4be9-997c-6a53c83a7527","ios":"levelo://app?vid=722f7e0f-46d9-4be9-997c-6a53c83a7527"},"vehicle_type_id":"4","last_reported":1762935355,"current_range_meters":9200,"station_id":"ce4bha12rcd13ifvqef0","pricing_plan_id":"cebpf4jnsgd1na2vs0mg"},{"bike_id":"b41e24d8-65c5-426b-bb45-4cabc1a8ec44","system_id":"levelo_inurba_marseille","lat":43.29613,"lon":5.37698,"is_reserved":false,"is_disabled":true,"rental_uris":{"android":"levelo://app?vid=b41e24d8-65c5-426b-bb45-4cabc1a8ec44","ios":"levelo://app?vid=b41e24d8-65c5-426b-bb45-4cabc1a8ec44"},"vehicle_type_id":"4","last_reported":1762935355,"current_range_meters":9200,"station_id":"ce4bgi92rcd13ifvqb90","pricing_plan_id":"cebpf4jnsgd1na2vs0mg"},{"bike_id":"08967b72-f855-4247-9f13-45406a98208a","system_id":"levelo_inurba_marseille","lat":43.26224,"lon":5.40452,"is_reserved":false,"is_disabled":false,"rental_uris":{"android":"levelo://app?vid=08967b72-f855-4247-9f13-45406a98208a","ios":"levelo://app?vid=08967b72-f855-4247-9f13-45406a98208a"},"vehicle_type_id":"4","last_reported":1762935355,"current_range_meters":9200,"station_id":"ce4bhmh2rcd13ifvqgmg","pricing_plan_id":"cebpf4jnsgd1na2vs0mg"},{"bike_id":"96a27a39-50b0-476e-9466-555b75b88cc8","system_id":"levelo_inurba_marseille","lat":43.23163,"lon":5.43706,"is_reserved":false,"is_disabled":false,"rental_uris":{"android":"levelo://app?vid=96a27a39-50b0-476e-9466-555b75b88cc8","ios":"levelo://app?vid=96a27a39-50b0-476e-9466-555b75b88cc8"},"vehicle_type_id":"4","last_reported":1762935355,"current_range_meters":9200,"station_id":"ce4bhmp2rcd13ifvqgog","pricing_plan_id":"cebpf4jnsgd1na2vs0mg"},{"bike_id":"6fc7e75e-559f-4eba-94b2-48eb0fbea62c","system_id":"levelo_inurba_marseille","lat":43.290963,"lon":5.38128,"is_reserved":false,"is_disabled":false,"rental_uris":{"android":"levelo://app?vid=6fc7e75e-559f-4eba-94b2-48eb0fbea62c","ios":"levelo://app?vid=6fc7e75e-559f-4eba-94b2-48eb0fbea62c"},"vehicle_type_id":"4","last_reported":1762935355,"current_range_meters":9200,"station_id":"ce4bh512rcd13ifvqe2g","pricing_plan_id":"cebpf4jnsgd1na2vs0mg"},{"bike_id":"b232b871-8e20-4a9f-9256-a957362266c9","system_id":"levelo_inurba_marseille","lat":43.24174,"lon":5.39725,"is_reserved":false,"is_disabled":false,"rental_uris":{"android":"levelo://app?vid=b232b871-8e20-4a9f-9256-a957362266c9","ios":"levelo://app?vid=b232b871-8e20-4a9f-9256-a957362266c9"},"vehicle_type_id":"4","last_reported":1762935355,"current_range_meters":9200,"station_id":"ce4bhn12rcd13ifvqgpg","pricing_plan_id":"cebpf4jnsgd1na2vs0mg"},{"bike_id":"acdd48f6-1b67-47c4-9eaa-f68d444e1fe6","system_id":"levelo_inurba_marseille","lat":43.24075,"lon":5.37742,"is_reserved":false,"is_disabled":false,"rental_uris":{"android":"levelo://app?vid=acdd48f6-1b67-47c4-9eaa-f68d444e1fe6","ios":"levelo://app?vid=acdd48f6-1b67-47c4-9eaa-f68d444e1fe6"},"vehicle_type_id":"4","last_reported":1762935355,"current_range_meters":9600,"station_id":"ce4bhnp2rcd13ifvqgvg","pricing_plan_id":"cebpf4jnsgd1na2vs0mg"},{"bike_id":"69bcc9c9-16ef-4b05-a281-a3669c844e4b","system_id":"levelo_inurba_marseille","lat":43.22531,"lon":5.34843,"is_reserved":false,"is_disabled":false,"rental_uris":{"android":"levelo://app?vid=69bcc9c9-16ef-4b05-a281-a3669c844e4b","ios":"levelo://app?vid=69bcc9c9-16ef-4b05-a281-a3669c844e4b"},"vehicle_type_id":"4","last_reported":1762935355,"current_range_meters":9600,"station_id":"","pricing_plan_id":"cebpf4jnsgd1na2vs0mg"},{"bike_id":"a1fde1f4-1860-4e49-88db-aacdf02b72c8","system_id":"levelo_inurba_marseille","lat":43.251,"lon":5.40336,"is_reserved":false,"is_disabled":true,"rental_uris":{"android":"levelo://app?vid=a1fde1f4-1860-4e49-88db-aacdf02b72c8","ios":"levelo://app?vid=a1fde1f4-1860-4e49-88db-aacdf02b72c8"},"vehicle_type_id":"4","last_reported":1762935355,"current_range_meters":9600,"station_id":"ce4bhlh2rcd13ifvqgig","pricing_plan_id":"cebpf4jnsgd1na2vs0mg"},{"bike_id":"dc9399a6-68ac-4bce-a28c-89dbbb7d0681","system_id":"levelo_inurba_marseille","lat":43.287769,"lon":5.408302,"is_reserved":false,"is_disabled":true,"rental_uris":{"android":"levelo://app?vid=dc9399a6-68ac-4bce-a28c-89dbbb7d0681","ios":"levelo://app?vid=dc9399a6-68ac-4bce-a28c-89dbbb7d0681"},"vehicle_type_id":"4","last_reported":1762935355,"current_range_meters":9600,"station_id":"","pricing_plan_id":"cebpf4jnsgd1na2vs0mg"},{"bike_id":"7d06fe8f-bc60-40e6-9937-c46d70461f34","system_id":"levelo_inurba_marseille","lat":43.28477,"lon":5.38422,"is_reserved":false,"is_disabled":false,"rental_uris":{"android":"levelo://app?vid=7d06fe8f-bc60-40e6-9937-c46d70461f34","ios":"levelo://app?vid=7d06fe8f-bc60-40e6-9937-c46d70461f34"},"vehicle_type_id":"4","last_reported":1762935355,"current_range_meters":10000,"station_id":"ce4bh512rcd13ifvqe3g","pricing_plan_id":"cebpf4jnsgd1na2vs0mg"},{"bike_id":"84aade2c-4b39-4bce-814f-cfa3d6ed46f7","system_id":"levelo_inurba_marseille","lat":43.284823,"lon":5.483844,"is_reserved":false,"is_disabled":false,"rental_uris":{"android":"levelo://app?vid=84aade2c-4b39-4bce-814f-cfa3d6ed46f7","ios":"levelo://app?vid=84aade2c-4b39-4bce-814f-cfa3d6ed46f7"},"vehicle_type_id":"4","last_reported":1762935355,"current_range_meters":10000,"station_id":"st_d3svhcjqgbts73a3dn0g","pricing_plan_id":"cebpf4jnsgd1na2vs0mg"},{"bike_id":"28e36cd3-4665-4002-a55e-04a45eaa3992","system_id":"levelo_inurba_marseille","lat":43.331602,"lon":5.377039,"is_reserved":false,"is_disabled":false,"rental_uris":{"android":"levelo://app?vid=28e36cd3-4665-4002-a55e-04a45eaa3992","ios":"levelo://app?vid=28e36cd3-4665-4002-a55e-04a45eaa3992"},"vehicle_type_id":"4","last_reported":1762935355,"current_range_meters":10000,"station_id":"st_d46cu089ee8s73dldbu0","pricing_plan_id":"cebpf4jnsgd1na2vs0mg"},{"bike_id":"12562643-0db3-4efc-8403-2f0ce7bc39bc","system_id":"levelo_inurba_marseille","lat":43.31366,"lon":5.3671,"is_reserved":false,"is_disabled":false,"rental_uris":{"android":"levelo://app?vid=12562643-0db3-4efc-8403-2f0ce7bc39bc","ios":"levelo://app?vid=12562643-0db3-4efc-8403-2f0ce7bc39bc"},"vehicle_type_id":"4","last_reported":1762935355,"current_range_meters":10000,"station_id":"ce4bgr92rcd13ifvqc6g","pricing_plan_id":"cebpf4jnsgd1na2vs0mg"},{"bike_id":"988845de-e4bc-4a5e-8fe7-ba654b0dbde5","system_id":"levelo_inurba_marseille","lat":43.29042,"lon":5.39957,"is_reserved":false,"is_disabled":false,"rental_uris":{"android":"levelo://app?vid=988845de-e4bc-4a5e-8fe7-ba654b0dbde5","ios":"levelo://app?vid=988845de-e4bc-4a5e-8fe7-ba654b0dbde5"},"vehicle_type_id":"4","last_reported":1762935355,"current_range_meters":10000,"station_id":"ce4bh392rcd13ifvqdm0","pricing_plan_id":"cebpf4jnsgd1na2vs0mg"},{"bike_id":"f5747704-98ca-4fac-aff2-641ee3946740","system_id":"levelo_inurba_marseille","lat":43.31728,"lon":5.42394,"is_reserved":false,"is_disabled":false,"rental_uris":{"android":"levelo://app?vid=f5747704-98ca-4fac-aff2-641ee3946740","ios":"levelo://app?vid=f5747704-98ca-4fac-aff2-641ee3946740"},"vehicle_type_id":"4","last_reported":1762935355,"current_range_meters":10000,"station_id":"ce4bhp92rcd13ifvqhbg","pricing_plan_id":"cebpf4jnsgd1na2vs0mg"},{"bike_id":"b259621f-2fe6-4b30-92e0-2292fee32f1f","system_id":"levelo_inurba_marseille","lat":43.28046,"lon":5.36943,"is_reserved":false,"is_disabled":false,"rental_uris":{"android":"levelo://app?vid=b259621f-2fe6-4b30-92e0-2292fee32f1f","ios":"levelo://app?vid=b259621f-2fe6-4b30-92e0-2292fee32f1f"},"vehicle_type_id":"4","last_reported":1762935355,"current_range_meters":10000,"station_id":"ce4bha12rcd13ifvqef0","pricing_plan_id":"cebpf4jnsgd1na2vs0mg"},{"bike_id":"864213f2-cf7d-4117-907a-323b0394e214","system_id":"levelo_inurba_marseille","lat":43.29271,"lon":5.38433,"is_reserved":false,"is_disabled":false,"rental_uris":{"android":"levelo://app?vid=864213f2-cf7d-4117-907a-323b0394e214","ios":"levelo://app?vid=864213f2-cf7d-4117-907a-323b0394e214"},"vehicle_type_id":"4","last_reported":1762935355,"current_range_meters":10000,"station_id":"ce4bh692rcd13ifvqea0","pricing_plan_id":"cebpf4jnsgd1na2vs0mg"},{"bike_id":"d55bfc1f-b61a-4fb3-88a7-5e61ce98e0d4","system_id":"levelo_inurba_marseille","lat":43.30947,"lon":5.39048,"is_reserved":false,"is_disabled":false,"rental_uris":{"android":"levelo://app?vid=d55bfc1f-b61a-4fb3-88a7-5e61ce98e0d4","ios":"levelo://app?vid=d55bfc1f-b61a-4fb3-88a7-5e61ce98e0d4"},"vehicle_type_id":"4","last_reported":1762935355,"current_range_meters":10000,"station_id":"ce4bgup2rcd13ifvqco0","pricing_plan_id":"cebpf4jnsgd1na2vs0mg"},{"bike_id":"c47023ab-2905-4a00-af93-ffd0b768cdc9","system_id":"levelo_inurba_marseille","lat":43.2887,"lon":5.42515,"is_reserved":false,"is_disabled":false,"rental_uris":{"android":"levelo://app?vid=c47023ab-2905-4a00-af93-ffd0b768cdc9","ios":"levelo://app?vid=c47023ab-2905-4a00-af93-ffd0b768cdc9"},"vehicle_type_id":"4","last_reported":1762935355,"current_range_meters":10800,"station_id":"st_d3b462108ojc7389ooeg","pricing_plan_id":"cebpf4jnsgd1na2vs0mg"},{"bike_id":"393ebba5-f26f-4f5b-ba37-0d7b5bd9041d","system_id":"levelo_inurba_marseille","lat":43.217443,"lon":5.34609,"is_reserved":false,"is_disabled":false,"rental_uris":{"android":"levelo://app?vid=393ebba5-f26f-4f5b-ba37-0d7b5bd9041d","ios":"levelo://app?vid=393ebba5-f26f-4f5b-ba37-0d7b5bd9041d"},"vehicle_type_id":"4","last_reported":1762935355,"current_range_meters":10800,"station_id":"","pricing_plan_id":"cebpf4jnsgd1na2vs0mg"},{"bike_id":"232846d0-e450-4bef-bc28-b56a548139cb","system_id":"levelo_inurba_marseille","lat":43.26791,"lon":5.39412,"is_reserved":false,"is_disabled":false,"rental_uris":{"android":"levelo://app?vid=232846d0-e450-4bef-bc28-b56a548139cb","ios":"levelo://app?vid=232846d0-e450-4bef-bc28-b56a548139cb"},"vehicle_type_id":"4","last_reported":1762935355,"current_range_meters":10800,"station_id":"ce4bhh12rcd13ifvqfg0","pricing_plan_id":"cebpf4jnsgd1na2vs0mg"},{"bike_id":"d8918f2f-db37-4c01-a9dc-3c99dd33ccec","system_id":"levelo_inurba_marseille","lat":43.26555,"lon":5.37284,"is_reserved":false,"is_disabled":false,"rental_uris":{"android":"levelo://app?vid=d8918f2f-db37-4c01-a9dc-3c99dd33ccec","ios":"levelo://app?vid=d8918f2f-db37-4c01-a9dc-3c99dd33ccec"},"vehicle_type_id":"4","last_reported":1762935355,"current_range_meters":10800,"station_id":"ce4bhg12rcd13ifvqf70","pricing_plan_id":"cebpf4jnsgd1na2vs0mg"},{"bike_id":"69ec7ace-1e29-4a66-a75f-1aac65485193","system_id":"levelo_inurba_marseille","lat":43.27815,"lon":5.4071,"is_reserved":false,"is_disabled":false,"rental_uris":{"android":"levelo://app?vid=69ec7ace-1e29-4a66-a75f-1aac65485193","ios":"levelo://app?vid=69ec7ace-1e29-4a66-a75f-1aac65485193"},"vehicle_type_id":"4","last_reported":1762935355,"current_range_meters":10800,"station_id":"ce4bhnh2rcd13ifvqgtg","pricing_plan_id":"cebpf4jnsgd1na2vs0mg"},{"bike_id":"ebca150e-e90c-4c0a-88c0-c966355bf9e0","system_id":"levelo_inurba_marseille","lat":43.27325,"lon":5.3906,"is_reserved":false,"is_disabled":false,"rental_uris":{"android":"levelo://app?vid=ebca150e-e90c-4c0a-88c0-c966355bf9e0","ios":"levelo://app?vid=ebca150e-e90c-4c0a-88c0-c966355bf9e0"},"vehicle_type_id":"4","last_reported":1762935355,"current_range_meters":11200,"station_id":"ce4bhgp2rcd13ifvqfe0","pricing_plan_id":"cebpf4jnsgd1na2vs0mg"},{"bike_id":"334d19fa-3822-419d-8e51-1d6a0d90e4ed","system_id":"levelo_inurba_marseille","lat":43.28416,"lon":5.34986,"is_reserved":false,"is_disabled":false,"rental_uris":{"android":"levelo://app?vid=334d19fa-3822-419d-8e51-1d6a0d90e4ed","ios":"levelo://app?vid=334d19fa-3822-419d-8e51-1d6a0d90e4ed"},"vehicle_type_id":"4","last_reported":1762935355,"current_range_meters":11200,"station_id":"ce4bhbh2rcd13ifvqepg","pricing_plan_id":"cebpf4jnsgd1na2vs0mg"},{"bike_id":"2a3b9dbf-ea9c-4b07-a967-9d634fe521af","system_id":"levelo_inurba_marseille","lat":43.30543,"lon":5.36709,"is_reserved":false,"is_disabled":false,"rental_uris":{"android":"levelo://app?vid=2a3b9dbf-ea9c-4b07-a967-9d634fe521af","ios":"levelo://app?vid=2a3b9dbf-ea9c-4b07-a967-9d634fe521af"},"vehicle_type_id":"4","last_reported":1762935355,"current_range_meters":11200,"station_id":"ce4bgrp2rcd13ifvqc9g","pricing_plan_id":"cebpf4jnsgd1na2vs0mg"},{"bike_id":"70b02c04-5504-4f28-897f-c21fa6100558","system_id":"levelo_inurba_marseille","lat":43.26067,"lon":5.39393,"is_reserved":false,"is_disabled":true,"rental_uris":{"android":"levelo://app?vid=70b02c04-5504-4f28-897f-c21fa6100558","ios":"levelo://app?vid=70b02c04-5504-4f28-897f-c21fa6100558"},"vehicle_type_id":"4","last_reported":1762935355,"current_range_meters":11200,"station_id":"ce4bhh92rcd13ifvqfj0","pricing_plan_id":"cebpf4jnsgd1na2vs0mg"},{"bike_id":"916d0e5a-8221-49fe-aaaf-ce1207d8161d","system_id":"levelo_inurba_marseille","lat":43.284983,"lon":5.385529,"is_reserved":false,"is_disabled":false,"rental_uris":{"android":"levelo://app?vid=916d0e5a-8221-49fe-aaaf-ce1207d8161d","ios":"levelo://app?vid=916d0e5a-8221-49fe-aaaf-ce1207d8161d"},"vehicle_type_id":"4","last_reported":1762935355,"current_range_meters":11200,"station_id":"ce4bh8p2rcd13ifvqeb0","pricing_plan_id":"cebpf4jnsgd1na2vs0mg"},{"bike_id":"20fdf367-75ce-4989-9d09-c0ee72c05eae","system_id":"levelo_inurba_marseille","lat":43.30541,"lon":5.36721,"is_reserved":false,"is_disabled":false,"rental_uris":{"android":"levelo://app?vid=20fdf367-75ce-4989-9d09-c0ee72c05eae","ios":"levelo://app?vid=20fdf367-75ce-4989-9d09-c0ee72c05eae"},"vehicle_type_id":"4","last_reported":1762935355,"current_range_meters":11600,"station_id":"ce4bgrp2rcd13ifvqc9g","pricing_plan_id":"cebpf4jnsgd1na2vs0mg"},{"bike_id":"e5e5f72a-d826-479b-88c3-f2e250b164fb","system_id":"levelo_inurba_marseille","lat":43.31686,"lon":5.40472,"is_reserved":false,"is_disabled":false,"rental_uris":{"android":"levelo://app?vid=e5e5f72a-d826-479b-88c3-f2e250b164fb","ios":"levelo://app?vid=e5e5f72a-d826-479b-88c3-f2e250b164fb"},"vehicle_type_id":"4","last_reported":1762935355,"current_range_meters":11600,"station_id":"ce4bh012rcd13ifvqd00","pricing_plan_id":"cebpf4jnsgd1na2vs0mg"},{"bike_id":"bf4243bc-6c3c-4718-83fd-92f0672c67c7","system_id":"levelo_inurba_marseille","lat":43.32545,"lon":5.41408,"is_reserved":false,"is_disabled":false,"rental_uris":{"android":"levelo://app?vid=bf4243bc-6c3c-4718-83fd-92f0672c67c7","ios":"levelo://app?vid=bf4243bc-6c3c-4718-83fd-92f0672c67c7"},"vehicle_type_id":"4","last_reported":1762935355,"current_range_meters":11600,"station_id":"ce4bhq12rcd13ifvqhhg","pricing_plan_id":"cebpf4jnsgd1na2vs0mg"},{"bike_id":"ad8615fe-05e6-4b29-9feb-fdb7095a1ffc","system_id":"levelo_inurba_marseille","lat":43.25934,"lon":5.40908,"is_reserved":false,"is_disabled":false,"rental_uris":{"android":"levelo://app?vid=ad8615fe-05e6-4b29-9feb-fdb7095a1ffc","ios":"levelo://app?vid=ad8615fe-05e6-4b29-9feb-fdb7095a1ffc"},"vehicle_type_id":"4","last_reported":1762935355,"current_range_meters":11600,"station_id":"ce4bhm92rcd13ifvqglg","pricing_plan_id":"cebpf4jnsgd1na2vs0mg"},{"bike_id":"1559091b-b743-48a5-a144-6fda71f8096f","system_id":"levelo_inurba_marseille","lat":43.31699,"lon":5.4047,"is_reserved":false,"is_disabled":false,"rental_uris":{"android":"levelo://app?vid=1559091b-b743-48a5-a144-6fda71f8096f","ios":"levelo://app?vid=1559091b-b743-48a5-a144-6fda71f8096f"},"vehicle_type_id":"4","last_reported":1762935355,"current_range_meters":11600,"station_id":"ce4bh012rcd13ifvqd00","pricing_plan_id":"cebpf4jnsgd1na2vs0mg"},{"bike_id":"50b661f0-112f-4780-95bd-167a8c61a238","system_id":"levelo_inurba_marseille","lat":43.211894,"lon":5.350777,"is_reserved":false,"is_disabled":true,"rental_uris":{"android":"levelo://app?vid=50b661f0-112f-4780-95bd-167a8c61a238","ios":"levelo://app?vid=50b661f0-112f-4780-95bd-167a8c61a238"},"vehicle_type_id":"4","last_reported":1762935355,"current_range_meters":11600,"station_id":"st_cvj6sg6p6f1abm77japg","pricing_plan_id":"cebpf4jnsgd1na2vs0mg"},{"bike_id":"e33161f9-5105-4e9e-b281-f1275073f0ce","system_id":"levelo_inurba_marseille","lat":43.33604,"lon":5.41016,"is_reserved":false,"is_disabled":false,"rental_uris":{"android":"levelo://app?vid=e33161f9-5105-4e9e-b281-f1275073f0ce","ios":"levelo://app?vid=e33161f9-5105-4e9e-b281-f1275073f0ce"},"vehicle_type_id":"4","last_reported":1762935355,"current_range_meters":12000,"station_id":"ce4bhqh2rcd13ifvqhmg","pricing_plan_id":"cebpf4jnsgd1na2vs0mg"},{"bike_id":"5a93d366-f2e7-4197-9501-f0abb7eb199e","system_id":"levelo_inurba_marseille","lat":43.289738,"lon":5.386662,"is_reserved":false,"is_disabled":false,"rental_uris":{"android":"levelo://app?vid=5a93d366-f2e7-4197-9501-f0abb7eb199e","ios":"levelo://app?vid=5a93d366-f2e7-4197-9501-f0abb7eb199e"},"vehicle_type_id":"4","last_reported":1762935355,"current_range_meters":12000,"station_id":"ce4bh4p2rcd13ifvqe0g","pricing_plan_id":"cebpf4jnsgd1na2vs0mg"},{"bike_id":"6911db79-d566-428b-8cb1-1532d67c2ceb","system_id":"levelo_inurba_marseille","lat":43.25934,"lon":5.40904,"is_reserved":false,"is_disabled":false,"rental_uris":{"android":"levelo://app?vid=6911db79-d566-428b-8cb1-1532d67c2ceb","ios":"levelo://app?vid=6911db79-d566-428b-8cb1-1532d67c2ceb"},"vehicle_type_id":"4","last_reported":1762935355,"current_range_meters":12000,"station_id":"ce4bhm92rcd13ifvqglg","pricing_plan_id":"cebpf4jnsgd1na2vs0mg"},{"bike_id":"cb7a5799-c024-4519-bb5c-6f2896731a81","system_id":"levelo_inurba_marseille","lat":43.33146,"lon":5.3771,"is_reserved":false,"is_disabled":false,"rental_uris":{"android":"levelo://app?vid=cb7a5799-c024-4519-bb5c-6f2896731a81","ios":"levelo://app?vid=cb7a5799-c024-4519-bb5c-6f2896731a81"},"vehicle_type_id":"4","last_reported":1762935355,"current_range_meters":12000,"station_id":"st_d46cu089ee8s73dldbu0","pricing_plan_id":"cebpf4jnsgd1na2vs0mg"},{"bike_id":"67f3b9d4-fa4b-46bb-9884-0f5acb58dcaa","system_id":"levelo_inurba_marseille","lat":43.3254,"lon":5.41447,"is_reserved":false,"is_disabled":false,"rental_uris":{"android":"levelo://app?vid=67f3b9d4-fa4b-46bb-9884-0f5acb58dcaa","ios":"levelo://app?vid=67f3b9d4-fa4b-46bb-9884-0f5acb58dcaa"},"vehicle_type_id":"4","last_reported":1762935355,"current_range_meters":12000,"station_id":"ce4bhq12rcd13ifvqhhg","pricing_plan_id":"cebpf4jnsgd1na2vs0mg"},{"bike_id":"7853a813-0949-48bc-9da8-6f66b0f8768a","system_id":"levelo_inurba_marseille","lat":43.24415,"lon":5.37057,"is_reserved":false,"is_disabled":true,"rental_uris":{"android":"levelo://app?vid=7853a813-0949-48bc-9da8-6f66b0f8768a","ios":"levelo://app?vid=7853a813-0949-48bc-9da8-6f66b0f8768a"},"vehicle_type_id":"4","last_reported":1762935355,"current_range_meters":12000,"station_id":"ce4bhhh2rcd13ifvqfk0","pricing_plan_id":"cebpf4jnsgd1na2vs0mg"},{"bike_id":"6494fb53-4b49-4fd6-a26d-ae632bd9104c","system_id":"levelo_inurba_marseille","lat":43.31321,"lon":5.37649,"is_reserved":false,"is_disabled":false,"rental_uris":{"android":"levelo://app?vid=6494fb53-4b49-4fd6-a26d-ae632bd9104c","ios":"levelo://app?vid=6494fb53-4b49-4fd6-a26d-ae632bd9104c"},"vehicle_type_id":"4","last_reported":1762935355,"current_range_meters":12400,"station_id":"","pricing_plan_id":"cebpf4jnsgd1na2vs0mg"},{"bike_id":"b904a932-408f-40fe-9201-b4b37da5bb51","system_id":"levelo_inurba_marseille","lat":43.26566,"lon":5.40323,"is_reserved":false,"is_disabled":false,"rental_uris":{"android":"levelo://app?vid=b904a932-408f-40fe-9201-b4b37da5bb51","ios":"levelo://app?vid=b904a932-408f-40fe-9201-b4b37da5bb51"},"vehicle_type_id":"4","last_reported":1762935355,"current_range_meters":12400,"station_id":"ce4bhmp2rcd13ifvqgng","pricing_plan_id":"cebpf4jnsgd1na2vs0mg"},{"bike_id":"def9730b-dc04-435b-8225-4a9556956dd9","system_id":"levelo_inurba_marseille","lat":43.321032,"lon":5.367876,"is_reserved":false,"is_disabled":false,"rental_uris":{"android":"levelo://app?vid=def9730b-dc04-435b-8225-4a9556956dd9","ios":"levelo://app?vid=def9730b-dc04-435b-8225-4a9556956dd9"},"vehicle_type_id":"4","last_reported":1762935355,"current_range_meters":12400,"station_id":"ce4bhrh2rcd13ifvqhug","pricing_plan_id":"cebpf4jnsgd1na2vs0mg"},{"bike_id":"6dc8b84f-81c9-44ce-ba2d-d57b9ad31bcd","system_id":"levelo_inurba_marseille","lat":43.29934,"lon":5.36545,"is_reserved":false,"is_disabled":false,"rental_uris":{"android":"levelo://app?vid=6dc8b84f-81c9-44ce-ba2d-d57b9ad31bcd","ios":"levelo://app?vid=6dc8b84f-81c9-44ce-ba2d-d57b9ad31bcd"},"vehicle_type_id":"4","last_reported":1762935355,"current_range_meters":12800,"station_id":"ce4bgm92rcd13ifvqbr0","pricing_plan_id":"cebpf4jnsgd1na2vs0mg"},{"bike_id":"01e8cce2-ff84-43ff-914a-c0c695f60ca4","system_id":"levelo_inurba_marseille","lat":43.2943,"lon":5.38039,"is_reserved":false,"is_disabled":false,"rental_uris":{"android":"levelo://app?vid=01e8cce2-ff84-43ff-914a-c0c695f60ca4","ios":"levelo://app?vid=01e8cce2-ff84-43ff-914a-c0c695f60ca4"},"vehicle_type_id":"4","last_reported":1762935355,"current_range_meters":12800,"station_id":"","pricing_plan_id":"cebpf4jnsgd1na2vs0mg"},{"bike_id":"890486bd-e38f-4f6c-93e8-7f41c8d1911f","system_id":"levelo_inurba_marseille","lat":43.30909,"lon":5.36845,"is_reserved":false,"is_disabled":false,"rental_uris":{"android":"levelo://app?vid=890486bd-e38f-4f6c-93e8-7f41c8d1911f","ios":"levelo://app?vid=890486bd-e38f-4f6c-93e8-7f41c8d1911f"},"vehicle_type_id":"4","last_reported":1762935355,"current_range_meters":12800,"station_id":"ce4bgn92rcd13ifvqbvg","pricing_plan_id":"cebpf4jnsgd1na2vs0mg"},{"bike_id":"f09b69fd-4220-4b51-8365-9a85828617f1","system_id":"levelo_inurba_marseille","lat":43.330268,"lon":5.390397,"is_reserved":false,"is_disabled":false,"rental_uris":{"android":"levelo://app?vid=f09b69fd-4220-4b51-8365-9a85828617f1","ios":"levelo://app?vid=f09b69fd-4220-4b51-8365-9a85828617f1"},"vehicle_type_id":"4","last_reported":1762935355,"current_range_meters":12800,"station_id":"ce4bhr92rcd13ifvqhrg","pricing_plan_id":"cebpf4jnsgd1na2vs0mg"},{"bike_id":"0b61a29d-7d36-48df-8e63-7d06fcc47b5f","system_id":"levelo_inurba_marseille","lat":43.28581,"lon":5.39503,"is_reserved":false,"is_disabled":false,"rental_uris":{"android":"levelo://app?vid=0b61a29d-7d36-48df-8e63-7d06fcc47b5f","ios":"levelo://app?vid=0b61a29d-7d36-48df-8e63-7d06fcc47b5f"},"vehicle_type_id":"4","last_reported":1762935355,"current_range_meters":12800,"station_id":"ce4bh292rcd13ifvqdg0","pricing_plan_id":"cebpf4jnsgd1na2vs0mg"},{"bike_id":"fa09136a-c1a7-4105-bc41-417dac90bf68","system_id":"levelo_inurba_marseille","lat":43.2997,"lon":5.37168,"is_reserved":false,"is_disabled":false,"rental_uris":{"android":"levelo://app?vid=fa09136a-c1a7-4105-bc41-417dac90bf68","ios":"levelo://app?vid=fa09136a-c1a7-4105-bc41-417dac90bf68"},"vehicle_type_id":"4","last_reported":1762935355,"current_range_meters":12800,"station_id":"ce4bgr92rcd13ifvqc7g","pricing_plan_id":"cebpf4jnsgd1na2vs0mg"},{"bike_id":"b1460ca1-7289-4f1f-b10e-10e520aecc27","system_id":"levelo_inurba_marseille","lat":43.27357,"lon":5.42401,"is_reserved":false,"is_disabled":false,"rental_uris":{"android":"levelo://app?vid=b1460ca1-7289-4f1f-b10e-10e520aecc27","ios":"levelo://app?vid=b1460ca1-7289-4f1f-b10e-10e520aecc27"},"vehicle_type_id":"4","last_reported":1762935355,"current_range_meters":12800,"station_id":"","pricing_plan_id":"cebpf4jnsgd1na2vs0mg"},{"bike_id":"acbbb325-e4fa-4876-8f71-3cd51e1e1fb9","system_id":"levelo_inurba_marseille","lat":43.29812,"lon":5.38104,"is_reserved":false,"is_disabled":false,"rental_uris":{"android":"levelo://app?vid=acbbb325-e4fa-4876-8f71-3cd51e1e1fb9","ios":"levelo://app?vid=acbbb325-e4fa-4876-8f71-3cd51e1e1fb9"},"vehicle_type_id":"4","last_reported":1762935355,"current_range_meters":12800,"station_id":"ce4bgip2rcd13ifvqbb0","pricing_plan_id":"cebpf4jnsgd1na2vs0mg"},{"bike_id":"d52df36b-4d0c-45fc-8986-bcf7e5f8d4b1","system_id":"levelo_inurba_marseille","lat":43.23156,"lon":5.43708,"is_reserved":false,"is_disabled":false,"rental_uris":{"android":"levelo://app?vid=d52df36b-4d0c-45fc-8986-bcf7e5f8d4b1","ios":"levelo://app?vid=d52df36b-4d0c-45fc-8986-bcf7e5f8d4b1"},"vehicle_type_id":"4","last_reported":1762935355,"current_range_meters":12800,"station_id":"ce4bhmp2rcd13ifvqgog","pricing_plan_id":"cebpf4jnsgd1na2vs0mg"},{"bike_id":"138acbc8-a44a-45ec-9d4e-f41258a8778e","system_id":"levelo_inurba_marseille","lat":43.29822,"lon":5.44063,"is_reserved":false,"is_disabled":false,"rental_uris":{"android":"levelo://app?vid=138acbc8-a44a-45ec-9d4e-f41258a8778e","ios":"levelo://app?vid=138acbc8-a44a-45ec-9d4e-f41258a8778e"},"vehicle_type_id":"4","last_reported":1762935355,"current_range_meters":12800,"station_id":"st_d3jp68qikq2c7381ktn0","pricing_plan_id":"cebpf4jnsgd1na2vs0mg"},{"bike_id":"e95c7a5e-2ca6-4704-beef-c914118730ac","system_id":"levelo_inurba_marseille","lat":43.233803,"lon":5.412362,"is_reserved":false,"is_disabled":false,"rental_uris":{"android":"levelo://app?vid=e95c7a5e-2ca6-4704-beef-c914118730ac","ios":"levelo://app?vid=e95c7a5e-2ca6-4704-beef-c914118730ac"},"vehicle_type_id":"4","last_reported":1762935355,"current_range_meters":12800,"station_id":"","pricing_plan_id":"cebpf4jnsgd1na2vs0mg"},{"bike_id":"b1fec7f7-0f20-4eb2-892f-de55e8c6ad93","system_id":"levelo_inurba_marseille","lat":43.2962,"lon":5.37163,"is_reserved":false,"is_disabled":false,"rental_uris":{"android":"levelo://app?vid=b1fec7f7-0f20-4eb2-892f-de55e8c6ad93","ios":"levelo://app?vid=b1fec7f7-0f20-4eb2-892f-de55e8c6ad93"},"vehicle_type_id":"4","last_reported":1762935355,"current_range_meters":13600,"station_id":"ce4bgnh2rcd13ifvqc0g","pricing_plan_id":"cebpf4jnsgd1na2vs0mg"},{"bike_id":"fdf53cec-eed0-4741-b178-1c7ee23fe4d3","system_id":"levelo_inurba_marseille","lat":43.33603,"lon":5.4103,"is_reserved":false,"is_disabled":false,"rental_uris":{"android":"levelo://app?vid=fdf53cec-eed0-4741-b178-1c7ee23fe4d3","ios":"levelo://app?vid=fdf53cec-eed0-4741-b178-1c7ee23fe4d3"},"vehicle_type_id":"4","last_reported":1762935355,"current_range_meters":13600,"station_id":"ce4bhqh2rcd13ifvqhmg","pricing_plan_id":"cebpf4jnsgd1na2vs0mg"},{"bike_id":"d9fd84e3-4d8f-4649-a076-925e2d6e53fe","system_id":"levelo_inurba_marseille","lat":43.3056,"lon":5.36544,"is_reserved":false,"is_disabled":false,"rental_uris":{"android":"levelo://app?vid=d9fd84e3-4d8f-4649-a076-925e2d6e53fe","ios":"levelo://app?vid=d9fd84e3-4d8f-4649-a076-925e2d6e53fe"},"vehicle_type_id":"4","last_reported":1762935355,"current_range_meters":13600,"station_id":"ce4bgs12rcd13ifvqcag","pricing_plan_id":"cebpf4jnsgd1na2vs0mg"},{"bike_id":"5804ac99-3bd4-4091-bff1-7487e9285e0c","system_id":"levelo_inurba_marseille","lat":43.29199,"lon":5.3757,"is_reserved":false,"is_disabled":false,"rental_uris":{"android":"levelo://app?vid=5804ac99-3bd4-4091-bff1-7487e9285e0c","ios":"levelo://app?vid=5804ac99-3bd4-4091-bff1-7487e9285e0c"},"vehicle_type_id":"4","last_reported":1762935355,"current_range_meters":13600,"station_id":"","pricing_plan_id":"cebpf4jnsgd1na2vs0mg"},{"bike_id":"97150dc4-71e5-4187-8a3a-2188c13f6fe1","system_id":"levelo_inurba_marseille","lat":43.23782,"lon":5.36624,"is_reserved":false,"is_disabled":false,"rental_uris":{"android":"levelo://app?vid=97150dc4-71e5-4187-8a3a-2188c13f6fe1","ios":"levelo://app?vid=97150dc4-71e5-4187-8a3a-2188c13f6fe1"},"vehicle_type_id":"4","last_reported":1762935355,"current_range_meters":13600,"station_id":"st_d3nk18o9ro0c73en2l3g","pricing_plan_id":"cebpf4jnsgd1na2vs0mg"},{"bike_id":"9134377f-3b28-461b-842a-809dd677ab6e","system_id":"levelo_inurba_marseille","lat":43.30954,"lon":5.39026,"is_reserved":false,"is_disabled":false,"rental_uris":{"android":"levelo://app?vid=9134377f-3b28-461b-842a-809dd677ab6e","ios":"levelo://app?vid=9134377f-3b28-461b-842a-809dd677ab6e"},"vehicle_type_id":"4","last_reported":1762935355,"current_range_meters":14000,"station_id":"ce4bgup2rcd13ifvqco0","pricing_plan_id":"cebpf4jnsgd1na2vs0mg"},{"bike_id":"03fd38f7-c82d-434f-8e88-373232cae053","system_id":"levelo_inurba_marseille","lat":43.3054,"lon":5.36541,"is_reserved":false,"is_disabled":false,"rental_uris":{"android":"levelo://app?vid=03fd38f7-c82d-434f-8e88-373232cae053","ios":"levelo://app?vid=03fd38f7-c82d-434f-8e88-373232cae053"},"vehicle_type_id":"4","last_reported":1762935355,"current_range_meters":14000,"station_id":"ce4bgs12rcd13ifvqcag","pricing_plan_id":"cebpf4jnsgd1na2vs0mg"},{"bike_id":"8b027115-1a9e-4312-923f-dbf5aec10ee4","system_id":"levelo_inurba_marseille","lat":43.30228,"lon":5.36509,"is_reserved":false,"is_disabled":false,"rental_uris":{"android":"levelo://app?vid=8b027115-1a9e-4312-923f-dbf5aec10ee4","ios":"levelo://app?vid=8b027115-1a9e-4312-923f-dbf5aec10ee4"},"vehicle_type_id":"4","last_reported":1762935355,"current_range_meters":14000,"station_id":"","pricing_plan_id":"cebpf4jnsgd1na2vs0mg"},{"bike_id":"343b265d-91de-47c8-bdcd-f66499bd1a80","system_id":"levelo_inurba_marseille","lat":43.29287,"lon":5.37175,"is_reserved":false,"is_disabled":false,"rental_uris":{"android":"levelo://app?vid=343b265d-91de-47c8-bdcd-f66499bd1a80","ios":"levelo://app?vid=343b265d-91de-47c8-bdcd-f66499bd1a80"},"vehicle_type_id":"4","last_reported":1762935355,"current_range_meters":14000,"station_id":"ce4bgh92rcd13ifvqb40","pricing_plan_id":"cebpf4jnsgd1na2vs0mg"},{"bike_id":"65b1edbb-69d9-4a3f-98b4-42adca6515c2","system_id":"levelo_inurba_marseille","lat":43.30275,"lon":5.37705,"is_reserved":false,"is_disabled":false,"rental_uris":{"android":"levelo://app?vid=65b1edbb-69d9-4a3f-98b4-42adca6515c2","ios":"levelo://app?vid=65b1edbb-69d9-4a3f-98b4-42adca6515c2"},"vehicle_type_id":"4","last_reported":1762935355,"current_range_meters":14400,"station_id":"ce4bguh2rcd13ifvqcj0","pricing_plan_id":"cebpf4jnsgd1na2vs0mg"},{"bike_id":"093b618f-3e7f-4191-b111-0af9af7988c2","system_id":"levelo_inurba_marseille","lat":43.27573,"lon":5.38416,"is_reserved":false,"is_disabled":false,"rental_uris":{"android":"levelo://app?vid=093b618f-3e7f-4191-b111-0af9af7988c2","ios":"levelo://app?vid=093b618f-3e7f-4191-b111-0af9af7988c2"},"vehicle_type_id":"4","last_reported":1762935355,"current_range_meters":14400,"station_id":"ce4bhh92rcd13ifvqfi0","pricing_plan_id":"cebpf4jnsgd1na2vs0mg"},{"bike_id":"f0413c71-e0c3-427b-98cb-cdf950c219e3","system_id":"levelo_inurba_marseille","lat":43.3102,"lon":5.40061,"is_reserved":false,"is_disabled":false,"rental_uris":{"android":"levelo://app?vid=f0413c71-e0c3-427b-98cb-cdf950c219e3","ios":"levelo://app?vid=f0413c71-e0c3-427b-98cb-cdf950c219e3"},"vehicle_type_id":"4","last_reported":1762935355,"current_range_meters":14800,"station_id":"","pricing_plan_id":"cebpf4jnsgd1na2vs0mg"},{"bike_id":"e13b78db-2231-48a0-b9e0-a153f32a43f4","system_id":"levelo_inurba_marseille","lat":43.2305,"lon":5.35493,"is_reserved":false,"is_disabled":false,"rental_uris":{"android":"levelo://app?vid=e13b78db-2231-48a0-b9e0-a153f32a43f4","ios":"levelo://app?vid=e13b78db-2231-48a0-b9e0-a153f32a43f4"},"vehicle_type_id":"4","last_reported":1762935355,"current_range_meters":14800,"station_id":"cpo3342slgdg3j2ifvpg","pricing_plan_id":"cebpf4jnsgd1na2vs0mg"},{"bike_id":"1b0b7981-696f-4ec5-932c-764cd2899c70","system_id":"levelo_inurba_marseille","lat":43.284745,"lon":5.484015,"is_reserved":false,"is_disabled":false,"rental_uris":{"android":"levelo://app?vid=1b0b7981-696f-4ec5-932c-764cd2899c70","ios":"levelo://app?vid=1b0b7981-696f-4ec5-932c-764cd2899c70"},"vehicle_type_id":"4","last_reported":1762935355,"current_range_meters":14800,"station_id":"","pricing_plan_id":"cebpf4jnsgd1na2vs0mg"},{"bike_id":"0f758f97-8287-4a6a-a5cb-8120a089feb9","system_id":"levelo_inurba_marseille","lat":43.31229,"lon":5.36854,"is_reserved":false,"is_disabled":false,"rental_uris":{"android":"levelo://app?vid=0f758f97-8287-4a6a-a5cb-8120a089feb9","ios":"levelo://app?vid=0f758f97-8287-4a6a-a5cb-8120a089feb9"},"vehicle_type_id":"4","last_reported":1762935355,"current_range_meters":14800,"station_id":"ce4bgl92rcd13ifvqbq0","pricing_plan_id":"cebpf4jnsgd1na2vs0mg"},{"bike_id":"d97d1671-36ff-4f0e-b146-69c560265632","system_id":"levelo_inurba_marseille","lat":43.27974,"lon":5.40756,"is_reserved":false,"is_disabled":false,"rental_uris":{"android":"levelo://app?vid=d97d1671-36ff-4f0e-b146-69c560265632","ios":"levelo://app?vid=d97d1671-36ff-4f0e-b146-69c560265632"},"vehicle_type_id":"4","last_reported":1762935355,"current_range_meters":14800,"station_id":"","pricing_plan_id":"cebpf4jnsgd1na2vs0mg"},{"bike_id":"7e798260-e862-43ca-a153-ef26f9953226","system_id":"levelo_inurba_marseille","lat":43.24069,"lon":5.37722,"is_reserved":false,"is_disabled":false,"rental_uris":{"android":"levelo://app?vid=7e798260-e862-43ca-a153-ef26f9953226","ios":"levelo://app?vid=7e798260-e862-43ca-a153-ef26f9953226"},"vehicle_type_id":"4","last_reported":1762935355,"current_range_meters":14800,"station_id":"ce4bhnp2rcd13ifvqgvg","pricing_plan_id":"cebpf4jnsgd1na2vs0mg"},{"bike_id":"7debdec4-db33-4dad-83bf-2f83639d0f53","system_id":"levelo_inurba_marseille","lat":43.24989,"lon":5.38935,"is_reserved":false,"is_disabled":false,"rental_uris":{"android":"levelo://app?vid=7debdec4-db33-4dad-83bf-2f83639d0f53","ios":"levelo://app?vid=7debdec4-db33-4dad-83bf-2f83639d0f53"},"vehicle_type_id":"4","last_reported":1762935355,"current_range_meters":14800,"station_id":"ce4bhgp2rcd13ifvqfd0","pricing_plan_id":"cebpf4jnsgd1na2vs0mg"},{"bike_id":"b1d4460d-6682-4f34-800f-0cf419e11a73","system_id":"levelo_inurba_marseille","lat":43.32656,"lon":5.40994,"is_reserved":false,"is_disabled":true,"rental_uris":{"android":"levelo://app?vid=b1d4460d-6682-4f34-800f-0cf419e11a73","ios":"levelo://app?vid=b1d4460d-6682-4f34-800f-0cf419e11a73"},"vehicle_type_id":"4","last_reported":1762935355,"current_range_meters":14800,"station_id":"ce4bhpp2rcd13ifvqhgg","pricing_plan_id":"cebpf4jnsgd1na2vs0mg"},{"bike_id":"23cf5617-2a8e-4b86-b9b4-9b049dde7593","system_id":"levelo_inurba_marseille","lat":43.3238,"lon":5.36781,"is_reserved":false,"is_disabled":false,"rental_uris":{"android":"levelo://app?vid=23cf5617-2a8e-4b86-b9b4-9b049dde7593","ios":"levelo://app?vid=23cf5617-2a8e-4b86-b9b4-9b049dde7593"},"vehicle_type_id":"4","last_reported":1762935355,"current_range_meters":15200,"station_id":"ce4bhsh2rcd13ifvqi2g","pricing_plan_id":"cebpf4jnsgd1na2vs0mg"},{"bike_id":"d6d9a3e0-e0aa-4aa2-bf84-1c4e64c5c8a2","system_id":"levelo_inurba_marseille","lat":43.25538,"lon":5.39076,"is_reserved":false,"is_disabled":false,"rental_uris":{"android":"levelo://app?vid=d6d9a3e0-e0aa-4aa2-bf84-1c4e64c5c8a2","ios":"levelo://app?vid=d6d9a3e0-e0aa-4aa2-bf84-1c4e64c5c8a2"},"vehicle_type_id":"4","last_reported":1762935355,"current_range_meters":15200,"station_id":"","pricing_plan_id":"cebpf4jnsgd1na2vs0mg"},{"bike_id":"5e6e0c2c-5aff-425c-b9f5-69ee0b364303","system_id":"levelo_inurba_marseille","lat":43.231977,"lon":5.355477,"is_reserved":false,"is_disabled":false,"rental_uris":{"android":"levelo://app?vid=5e6e0c2c-5aff-425c-b9f5-69ee0b364303","ios":"levelo://app?vid=5e6e0c2c-5aff-425c-b9f5-69ee0b364303"},"vehicle_type_id":"4","last_reported":1762935355,"current_range_meters":15200,"station_id":"ce4bhu92rcd13ifvqi70","pricing_plan_id":"cebpf4jnsgd1na2vs0mg"},{"bike_id":"6eefa229-6053-490f-b4d2-4833cf952925","system_id":"levelo_inurba_marseille","lat":43.25933,"lon":5.40909,"is_reserved":false,"is_disabled":false,"rental_uris":{"android":"levelo://app?vid=6eefa229-6053-490f-b4d2-4833cf952925","ios":"levelo://app?vid=6eefa229-6053-490f-b4d2-4833cf952925"},"vehicle_type_id":"4","last_reported":1762935355,"current_range_meters":15200,"station_id":"ce4bhm92rcd13ifvqglg","pricing_plan_id":"cebpf4jnsgd1na2vs0mg"},{"bike_id":"20e714fa-1537-422b-a666-7b04f0376892","system_id":"levelo_inurba_marseille","lat":43.34145,"lon":5.40907,"is_reserved":false,"is_disabled":false,"rental_uris":{"android":"levelo://app?vid=20e714fa-1537-422b-a666-7b04f0376892","ios":"levelo://app?vid=20e714fa-1537-422b-a666-7b04f0376892"},"vehicle_type_id":"4","last_reported":1762935355,"current_range_meters":15200,"station_id":"ce4bhqh2rcd13ifvqhlg","pricing_plan_id":"cebpf4jnsgd1na2vs0mg"},{"bike_id":"5289fa0f-50c3-444d-bbd6-4121ad6160d5","system_id":"levelo_inurba_marseille","lat":43.29534,"lon":5.39396,"is_reserved":false,"is_disabled":false,"rental_uris":{"android":"levelo://app?vid=5289fa0f-50c3-444d-bbd6-4121ad6160d5","ios":"levelo://app?vid=5289fa0f-50c3-444d-bbd6-4121ad6160d5"},"vehicle_type_id":"4","last_reported":1762935355,"current_range_meters":15200,"station_id":"ce4bh292rcd13ifvqdf0","pricing_plan_id":"cebpf4jnsgd1na2vs0mg"},{"bike_id":"b372c843-f06b-4e0b-bf4c-eff5aaf92040","system_id":"levelo_inurba_marseille","lat":43.30277,"lon":5.377,"is_reserved":false,"is_disabled":false,"rental_uris":{"android":"levelo://app?vid=b372c843-f06b-4e0b-bf4c-eff5aaf92040","ios":"levelo://app?vid=b372c843-f06b-4e0b-bf4c-eff5aaf92040"},"vehicle_type_id":"4","last_reported":1762935355,"current_range_meters":15200,"station_id":"ce4bguh2rcd13ifvqcj0","pricing_plan_id":"cebpf4jnsgd1na2vs0mg"},{"bike_id":"288fbbb5-7a5f-4575-b4d6-40bfda0b6d52","system_id":"levelo_inurba_marseille","lat":43.24073,"lon":5.37765,"is_reserved":false,"is_disabled":false,"rental_uris":{"android":"levelo://app?vid=288fbbb5-7a5f-4575-b4d6-40bfda0b6d52","ios":"levelo://app?vid=288fbbb5-7a5f-4575-b4d6-40bfda0b6d52"},"vehicle_type_id":"4","last_reported":1762935355,"current_range_meters":16000,"station_id":"ce4bhnp2rcd13ifvqgvg","pricing_plan_id":"cebpf4jnsgd1na2vs0mg"},{"bike_id":"e3df63a1-f3d2-4d82-8bf6-df212c4e8b69","system_id":"levelo_inurba_marseille","lat":43.284772,"lon":5.483964,"is_reserved":false,"is_disabled":false,"rental_uris":{"android":"levelo://app?vid=e3df63a1-f3d2-4d82-8bf6-df212c4e8b69","ios":"levelo://app?vid=e3df63a1-f3d2-4d82-8bf6-df212c4e8b69"},"vehicle_type_id":"4","last_reported":1762935355,"current_range_meters":16000,"station_id":"st_d3svhcjqgbts73a3dn0g","pricing_plan_id":"cebpf4jnsgd1na2vs0mg"},{"bike_id":"7405fff1-54cb-4441-8d3b-98a0b2f0eb43","system_id":"levelo_inurba_marseille","lat":43.273281,"lon":5.390523,"is_reserved":false,"is_disabled":false,"rental_uris":{"android":"levelo://app?vid=7405fff1-54cb-4441-8d3b-98a0b2f0eb43","ios":"levelo://app?vid=7405fff1-54cb-4441-8d3b-98a0b2f0eb43"},"vehicle_type_id":"4","last_reported":1762935355,"current_range_meters":16000,"station_id":"","pricing_plan_id":"cebpf4jnsgd1na2vs0mg"},{"bike_id":"0cc1e040-1e90-4272-8e44-61d95cf9ebfc","system_id":"levelo_inurba_marseille","lat":43.320025,"lon":5.381602,"is_reserved":false,"is_disabled":false,"rental_uris":{"android":"levelo://app?vid=0cc1e040-1e90-4272-8e44-61d95cf9ebfc","ios":"levelo://app?vid=0cc1e040-1e90-4272-8e44-61d95cf9ebfc"},"vehicle_type_id":"4","last_reported":1762935355,"current_range_meters":16000,"station_id":"ce4bhr12rcd13ifvqhpg","pricing_plan_id":"cebpf4jnsgd1na2vs0mg"},{"bike_id":"0528378f-1b50-41df-b328-6686306ee922","system_id":"levelo_inurba_marseille","lat":43.21632,"lon":5.34441,"is_reserved":false,"is_disabled":false,"rental_uris":{"android":"levelo://app?vid=0528378f-1b50-41df-b328-6686306ee922","ios":"levelo://app?vid=0528378f-1b50-41df-b328-6686306ee922"},"vehicle_type_id":"4","last_reported":1762935355,"current_range_meters":16000,"station_id":"","pricing_plan_id":"cebpf4jnsgd1na2vs0mg"},{"bike_id":"955d9a5d-a221-4f04-a24b-63cc6dec5c74","system_id":"levelo_inurba_marseille","lat":43.33606,"lon":5.41012,"is_reserved":false,"is_disabled":false,"rental_uris":{"android":"levelo://app?vid=955d9a5d-a221-4f04-a24b-63cc6dec5c74","ios":"levelo://app?vid=955d9a5d-a221-4f04-a24b-63cc6dec5c74"},"vehicle_type_id":"4","last_reported":1762935355,"current_range_meters":16000,"station_id":"ce4bhqh2rcd13ifvqhmg","pricing_plan_id":"cebpf4jnsgd1na2vs0mg"},{"bike_id":"a81a2cf5-a609-451e-806f-e58304bfd4f8","system_id":"levelo_inurba_marseille","lat":43.274985,"lon":5.42463,"is_reserved":false,"is_disabled":false,"rental_uris":{"android":"levelo://app?vid=a81a2cf5-a609-451e-806f-e58304bfd4f8","ios":"levelo://app?vid=a81a2cf5-a609-451e-806f-e58304bfd4f8"},"vehicle_type_id":"4","last_reported":1762935355,"current_range_meters":16000,"station_id":"ce4bhn92rcd13ifvqgrg","pricing_plan_id":"cebpf4jnsgd1na2vs0mg"},{"bike_id":"10bd89c5-13c2-46e3-8c1c-aab3ecf39dbc","system_id":"levelo_inurba_marseille","lat":43.3095,"lon":5.39031,"is_reserved":false,"is_disabled":false,"rental_uris":{"android":"levelo://app?vid=10bd89c5-13c2-46e3-8c1c-aab3ecf39dbc","ios":"levelo://app?vid=10bd89c5-13c2-46e3-8c1c-aab3ecf39dbc"},"vehicle_type_id":"4","last_reported":1762935355,"current_range_meters":16000,"station_id":"ce4bgup2rcd13ifvqco0","pricing_plan_id":"cebpf4jnsgd1na2vs0mg"},{"bike_id":"3210e757-4d1e-4efd-83c1-043a34b9a756","system_id":"levelo_inurba_marseille","lat":43.24175,"lon":5.39723,"is_reserved":false,"is_disabled":false,"rental_uris":{"android":"levelo://app?vid=3210e757-4d1e-4efd-83c1-043a34b9a756","ios":"levelo://app?vid=3210e757-4d1e-4efd-83c1-043a34b9a756"},"vehicle_type_id":"4","last_reported":1762935355,"current_range_meters":16000,"station_id":"ce4bhn12rcd13ifvqgpg","pricing_plan_id":"cebpf4jnsgd1na2vs0mg"},{"bike_id":"053b6e51-551a-4b74-9144-79d4c372cdbb","system_id":"levelo_inurba_marseille","lat":43.25464,"lon":5.381755,"is_reserved":false,"is_disabled":false,"rental_uris":{"android":"levelo://app?vid=053b6e51-551a-4b74-9144-79d4c372cdbb","ios":"levelo://app?vid=053b6e51-551a-4b74-9144-79d4c372cdbb"},"vehicle_type_id":"4","last_reported":1762935355,"current_range_meters":16000,"station_id":"ce4bhih2rcd13ifvqfs0","pricing_plan_id":"cebpf4jnsgd1na2vs0mg"},{"bike_id":"7cd3fc91-8b4e-4cc9-a97a-8aec9cd4160c","system_id":"levelo_inurba_marseille","lat":43.298726,"lon":5.372087,"is_reserved":false,"is_disabled":true,"rental_uris":{"android":"levelo://app?vid=7cd3fc91-8b4e-4cc9-a97a-8aec9cd4160c","ios":"levelo://app?vid=7cd3fc91-8b4e-4cc9-a97a-8aec9cd4160c"},"vehicle_type_id":"4","last_reported":1762935355,"current_range_meters":16400,"station_id":"","pricing_plan_id":"cebpf4jnsgd1na2vs0mg"},{"bike_id":"c1c27710-5048-4a70-8415-3a0e5f054ed4","system_id":"levelo_inurba_marseille","lat":43.31698,"lon":5.40469,"is_reserved":false,"is_disabled":false,"rental_uris":{"android":"levelo://app?vid=c1c27710-5048-4a70-8415-3a0e5f054ed4","ios":"levelo://app?vid=c1c27710-5048-4a70-8415-3a0e5f054ed4"},"vehicle_type_id":"4","last_reported":1762935355,"current_range_meters":16400,"station_id":"ce4bh012rcd13ifvqd00","pricing_plan_id":"cebpf4jnsgd1na2vs0mg"},{"bike_id":"c0cfc4ab-b5d5-45ea-af34-9f878cdbb6b2","system_id":"levelo_inurba_marseille","lat":43.31353,"lon":5.36691,"is_reserved":false,"is_disabled":false,"rental_uris":{"android":"levelo://app?vid=c0cfc4ab-b5d5-45ea-af34-9f878cdbb6b2","ios":"levelo://app?vid=c0cfc4ab-b5d5-45ea-af34-9f878cdbb6b2"},"vehicle_type_id":"4","last_reported":1762935355,"current_range_meters":16400,"station_id":"ce4bgr92rcd13ifvqc6g","pricing_plan_id":"cebpf4jnsgd1na2vs0mg"},{"bike_id":"462e2573-83b5-4336-85a9-4b7b06e6df7a","system_id":"levelo_inurba_marseille","lat":43.28423,"lon":5.39185,"is_reserved":false,"is_disabled":true,"rental_uris":{"android":"levelo://app?vid=462e2573-83b5-4336-85a9-4b7b06e6df7a","ios":"levelo://app?vid=462e2573-83b5-4336-85a9-4b7b06e6df7a"},"vehicle_type_id":"4","last_reported":1762935355,"current_range_meters":16400,"station_id":"ce4bhoh2rcd13ifvqh5g","pricing_plan_id":"cebpf4jnsgd1na2vs0mg"},{"bike_id":"5e31c7d8-3f5b-43e0-9a64-04fd6cacf51c","system_id":"levelo_inurba_marseille","lat":43.30913,"lon":5.36847,"is_reserved":false,"is_disabled":false,"rental_uris":{"android":"levelo://app?vid=5e31c7d8-3f5b-43e0-9a64-04fd6cacf51c","ios":"levelo://app?vid=5e31c7d8-3f5b-43e0-9a64-04fd6cacf51c"},"vehicle_type_id":"4","last_reported":1762935355,"current_range_meters":16400,"station_id":"ce4bgn92rcd13ifvqbvg","pricing_plan_id":"cebpf4jnsgd1na2vs0mg"},{"bike_id":"c01ee74c-0907-4ca7-82d0-a92efd488ad9","system_id":"levelo_inurba_marseille","lat":43.22567,"lon":5.41622,"is_reserved":false,"is_disabled":false,"rental_uris":{"android":"levelo://app?vid=c01ee74c-0907-4ca7-82d0-a92efd488ad9","ios":"levelo://app?vid=c01ee74c-0907-4ca7-82d0-a92efd488ad9"},"vehicle_type_id":"4","last_reported":1762935355,"current_range_meters":16400,"station_id":"st_d2o4gvlbi1j2169b742g","pricing_plan_id":"cebpf4jnsgd1na2vs0mg"},{"bike_id":"bbe9be2c-02d0-45bd-97ad-f7a7d6042511","system_id":"levelo_inurba_marseille","lat":43.28945,"lon":5.39631,"is_reserved":false,"is_disabled":false,"rental_uris":{"android":"levelo://app?vid=bbe9be2c-02d0-45bd-97ad-f7a7d6042511","ios":"levelo://app?vid=bbe9be2c-02d0-45bd-97ad-f7a7d6042511"},"vehicle_type_id":"4","last_reported":1762935355,"current_range_meters":16400,"station_id":"ce4bh3h2rcd13ifvqdn0","pricing_plan_id":"cebpf4jnsgd1na2vs0mg"},{"bike_id":"c83b5c1b-edab-4bfb-a2f2-d3468c55c2ba","system_id":"levelo_inurba_marseille","lat":43.294826,"lon":5.444489,"is_reserved":false,"is_disabled":true,"rental_uris":{"android":"levelo://app?vid=c83b5c1b-edab-4bfb-a2f2-d3468c55c2ba","ios":"levelo://app?vid=c83b5c1b-edab-4bfb-a2f2-d3468c55c2ba"},"vehicle_type_id":"4","last_reported":1762935355,"current_range_meters":16800,"station_id":"","pricing_plan_id":"cebpf4jnsgd1na2vs0mg"},{"bike_id":"01571923-980e-446a-ba2d-4d18a11dfcdd","system_id":"levelo_inurba_marseille","lat":43.247998,"lon":5.374525,"is_reserved":false,"is_disabled":false,"rental_uris":{"android":"levelo://app?vid=01571923-980e-446a-ba2d-4d18a11dfcdd","ios":"levelo://app?vid=01571923-980e-446a-ba2d-4d18a11dfcdd"},"vehicle_type_id":"4","last_reported":1762935355,"current_range_meters":16800,"station_id":"ce4bhgh2rcd13ifvqfb0","pricing_plan_id":"cebpf4jnsgd1na2vs0mg"},{"bike_id":"b61617af-5e6e-4eae-bb4b-c657289cb01b","system_id":"levelo_inurba_marseille","lat":43.33152,"lon":5.37695,"is_reserved":false,"is_disabled":false,"rental_uris":{"android":"levelo://app?vid=b61617af-5e6e-4eae-bb4b-c657289cb01b","ios":"levelo://app?vid=b61617af-5e6e-4eae-bb4b-c657289cb01b"},"vehicle_type_id":"4","last_reported":1762935355,"current_range_meters":16800,"station_id":"st_d46cu089ee8s73dldbu0","pricing_plan_id":"cebpf4jnsgd1na2vs0mg"},{"bike_id":"5fe98765-5c55-4b23-b1d1-c34e33299eb7","system_id":"levelo_inurba_marseille","lat":43.27218,"lon":5.3918,"is_reserved":false,"is_disabled":false,"rental_uris":{"android":"levelo://app?vid=5fe98765-5c55-4b23-b1d1-c34e33299eb7","ios":"levelo://app?vid=5fe98765-5c55-4b23-b1d1-c34e33299eb7"},"vehicle_type_id":"4","last_reported":1762935355,"current_range_meters":16800,"station_id":"ce4bhhp2rcd13ifvqfm0","pricing_plan_id":"cebpf4jnsgd1na2vs0mg"},{"bike_id":"c4d99a60-56bc-4f6e-96c8-b59c44660d79","system_id":"levelo_inurba_marseille","lat":43.24651,"lon":5.38893,"is_reserved":false,"is_disabled":false,"rental_uris":{"android":"levelo://app?vid=c4d99a60-56bc-4f6e-96c8-b59c44660d79","ios":"levelo://app?vid=c4d99a60-56bc-4f6e-96c8-b59c44660d79"},"vehicle_type_id":"4","last_reported":1762935355,"current_range_meters":16800,"station_id":"ce4bhg12rcd13ifvqf60","pricing_plan_id":"cebpf4jnsgd1na2vs0mg"},{"bike_id":"52d4b8ef-bd3b-4594-9933-6de587b7e338","system_id":"levelo_inurba_marseille","lat":43.229212,"lon":5.353828,"is_reserved":false,"is_disabled":false,"rental_uris":{"android":"levelo://app?vid=52d4b8ef-bd3b-4594-9933-6de587b7e338","ios":"levelo://app?vid=52d4b8ef-bd3b-4594-9933-6de587b7e338"},"vehicle_type_id":"4","last_reported":1762935355,"current_range_meters":16800,"station_id":"cpo3532slgdg3j2ikp40","pricing_plan_id":"cebpf4jnsgd1na2vs0mg"},{"bike_id":"a1db40e4-205b-460c-8b43-54f8174fca72","system_id":"levelo_inurba_marseille","lat":43.2749,"lon":5.42455,"is_reserved":false,"is_disabled":false,"rental_uris":{"android":"levelo://app?vid=a1db40e4-205b-460c-8b43-54f8174fca72","ios":"levelo://app?vid=a1db40e4-205b-460c-8b43-54f8174fca72"},"vehicle_type_id":"4","last_reported":1762935355,"current_range_meters":16800,"station_id":"ce4bhn92rcd13ifvqgrg","pricing_plan_id":"cebpf4jnsgd1na2vs0mg"},{"bike_id":"148f6e9f-6211-428f-8ddc-f0b34bf3979d","system_id":"levelo_inurba_marseille","lat":43.275,"lon":5.42462,"is_reserved":false,"is_disabled":false,"rental_uris":{"android":"levelo://app?vid=148f6e9f-6211-428f-8ddc-f0b34bf3979d","ios":"levelo://app?vid=148f6e9f-6211-428f-8ddc-f0b34bf3979d"},"vehicle_type_id":"4","last_reported":1762935355,"current_range_meters":16800,"station_id":"ce4bhn92rcd13ifvqgrg","pricing_plan_id":"cebpf4jnsgd1na2vs0mg"},{"bike_id":"1271c064-2a84-41e1-89fc-16b37b786535","system_id":"levelo_inurba_marseille","lat":43.26779,"lon":5.39421,"is_reserved":false,"is_disabled":false,"rental_uris":{"android":"levelo://app?vid=1271c064-2a84-41e1-89fc-16b37b786535","ios":"levelo://app?vid=1271c064-2a84-41e1-89fc-16b37b786535"},"vehicle_type_id":"4","last_reported":1762935355,"current_range_meters":16800,"station_id":"ce4bhh12rcd13ifvqfg0","pricing_plan_id":"cebpf4jnsgd1na2vs0mg"},{"bike_id":"9f77fce6-b576-455d-a43d-b1e175676c28","system_id":"levelo_inurba_marseille","lat":43.33773,"lon":5.37473,"is_reserved":false,"is_disabled":false,"rental_uris":{"android":"levelo://app?vid=9f77fce6-b576-455d-a43d-b1e175676c28","ios":"levelo://app?vid=9f77fce6-b576-455d-a43d-b1e175676c28"},"vehicle_type_id":"4","last_reported":1762935355,"current_range_meters":16800,"station_id":"","pricing_plan_id":"cebpf4jnsgd1na2vs0mg"},{"bike_id":"1c9a1677-df5f-418e-8775-017825fe9c38","system_id":"levelo_inurba_marseille","lat":43.25338,"lon":5.4217,"is_reserved":false,"is_disabled":false,"rental_uris":{"android":"levelo://app?vid=1c9a1677-df5f-418e-8775-017825fe9c38","ios":"levelo://app?vid=1c9a1677-df5f-418e-8775-017825fe9c38"},"vehicle_type_id":"4","last_reported":1762935355,"current_range_meters":16800,"station_id":"st_d2m65c5bi1j21697t3ng","pricing_plan_id":"cebpf4jnsgd1na2vs0mg"},{"bike_id":"dcb7dacb-f408-441c-8be8-3f1e89ba2972","system_id":"levelo_inurba_marseille","lat":43.29024,"lon":5.35604,"is_reserved":false,"is_disabled":false,"rental_uris":{"android":"levelo://app?vid=dcb7dacb-f408-441c-8be8-3f1e89ba2972","ios":"levelo://app?vid=dcb7dacb-f408-441c-8be8-3f1e89ba2972"},"vehicle_type_id":"4","last_reported":1762935355,"current_range_meters":17200,"station_id":"ce4bhb92rcd13ifvqen0","pricing_plan_id":"cebpf4jnsgd1na2vs0mg"},{"bike_id":"a26712ac-c4dc-4d7c-9767-877ec57b4780","system_id":"levelo_inurba_marseille","lat":43.284661,"lon":5.484164,"is_reserved":false,"is_disabled":false,"rental_uris":{"android":"levelo://app?vid=a26712ac-c4dc-4d7c-9767-877ec57b4780","ios":"levelo://app?vid=a26712ac-c4dc-4d7c-9767-877ec57b4780"},"vehicle_type_id":"4","last_reported":1762935355,"current_range_meters":17200,"station_id":"st_d3svhcjqgbts73a3dn0g","pricing_plan_id":"cebpf4jnsgd1na2vs0mg"},{"bike_id":"4dc7c24c-6caa-460c-91de-be4428e66718","system_id":"levelo_inurba_marseille","lat":43.25707,"lon":5.41117,"is_reserved":false,"is_disabled":false,"rental_uris":{"android":"levelo://app?vid=4dc7c24c-6caa-460c-91de-be4428e66718","ios":"levelo://app?vid=4dc7c24c-6caa-460c-91de-be4428e66718"},"vehicle_type_id":"4","last_reported":1762935355,"current_range_meters":17200,"station_id":"ce4bhkp2rcd13ifvqgd0","pricing_plan_id":"cebpf4jnsgd1na2vs0mg"},{"bike_id":"ae52b010-423e-4d94-a1b7-d5a4d10ff584","system_id":"levelo_inurba_marseille","lat":43.31759,"lon":5.39018,"is_reserved":false,"is_disabled":false,"rental_uris":{"android":"levelo://app?vid=ae52b010-423e-4d94-a1b7-d5a4d10ff584","ios":"levelo://app?vid=ae52b010-423e-4d94-a1b7-d5a4d10ff584"},"vehicle_type_id":"4","last_reported":1762935355,"current_range_meters":17200,"station_id":"ce4bhqp2rcd13ifvqhng","pricing_plan_id":"cebpf4jnsgd1na2vs0mg"},{"bike_id":"bf143ae2-1657-4c4e-afe8-d638f5009051","system_id":"levelo_inurba_marseille","lat":43.305601,"lon":5.365624,"is_reserved":false,"is_disabled":false,"rental_uris":{"android":"levelo://app?vid=bf143ae2-1657-4c4e-afe8-d638f5009051","ios":"levelo://app?vid=bf143ae2-1657-4c4e-afe8-d638f5009051"},"vehicle_type_id":"4","last_reported":1762935355,"current_range_meters":17200,"station_id":"ce4bgs12rcd13ifvqcag","pricing_plan_id":"cebpf4jnsgd1na2vs0mg"},{"bike_id":"f60bb35d-aa61-4cbf-b0d3-559fc028edaa","system_id":"levelo_inurba_marseille","lat":43.28271,"lon":5.35061,"is_reserved":false,"is_disabled":false,"rental_uris":{"android":"levelo://app?vid=f60bb35d-aa61-4cbf-b0d3-559fc028edaa","ios":"levelo://app?vid=f60bb35d-aa61-4cbf-b0d3-559fc028edaa"},"vehicle_type_id":"4","last_reported":1762935355,"current_range_meters":17200,"station_id":"ce4bhbp2rcd13ifvqerg","pricing_plan_id":"cebpf4jnsgd1na2vs0mg"},{"bike_id":"b808520a-0adb-4cd8-af7d-bd7536fc13c3","system_id":"levelo_inurba_marseille","lat":43.33603,"lon":5.41012,"is_reserved":false,"is_disabled":false,"rental_uris":{"android":"levelo://app?vid=b808520a-0adb-4cd8-af7d-bd7536fc13c3","ios":"levelo://app?vid=b808520a-0adb-4cd8-af7d-bd7536fc13c3"},"vehicle_type_id":"4","last_reported":1762935355,"current_range_meters":17200,"station_id":"ce4bhqh2rcd13ifvqhmg","pricing_plan_id":"cebpf4jnsgd1na2vs0mg"},{"bike_id":"ff94efe1-d3fc-43a1-834c-21c8f7d75129","system_id":"levelo_inurba_marseille","lat":43.31714,"lon":5.43703,"is_reserved":false,"is_disabled":false,"rental_uris":{"android":"levelo://app?vid=ff94efe1-d3fc-43a1-834c-21c8f7d75129","ios":"levelo://app?vid=ff94efe1-d3fc-43a1-834c-21c8f7d75129"},"vehicle_type_id":"4","last_reported":1762935355,"current_range_meters":17200,"station_id":"ce4bhp92rcd13ifvqhcg","pricing_plan_id":"cebpf4jnsgd1na2vs0mg"},{"bike_id":"19178d81-6226-4c24-8c0b-6b98f655f988","system_id":"levelo_inurba_marseille","lat":43.30893,"lon":5.389639,"is_reserved":false,"is_disabled":false,"rental_uris":{"android":"levelo://app?vid=19178d81-6226-4c24-8c0b-6b98f655f988","ios":"levelo://app?vid=19178d81-6226-4c24-8c0b-6b98f655f988"},"vehicle_type_id":"4","last_reported":1762935355,"current_range_meters":17200,"station_id":"ce4bgup2rcd13ifvqco0","pricing_plan_id":"cebpf4jnsgd1na2vs0mg"},{"bike_id":"f25a3179-442c-4611-8a4f-93fe52d5cd6f","system_id":"levelo_inurba_marseille","lat":43.29299,"lon":5.37171,"is_reserved":false,"is_disabled":false,"rental_uris":{"android":"levelo://app?vid=f25a3179-442c-4611-8a4f-93fe52d5cd6f","ios":"levelo://app?vid=f25a3179-442c-4611-8a4f-93fe52d5cd6f"},"vehicle_type_id":"4","last_reported":1762935355,"current_range_meters":17600,"station_id":"ce4bgh92rcd13ifvqb40","pricing_plan_id":"cebpf4jnsgd1na2vs0mg"},{"bike_id":"2606a4d9-1405-406b-994c-fb88093893a9","system_id":"levelo_inurba_marseille","lat":43.2315,"lon":5.43715,"is_reserved":false,"is_disabled":false,"rental_uris":{"android":"levelo://app?vid=2606a4d9-1405-406b-994c-fb88093893a9","ios":"levelo://app?vid=2606a4d9-1405-406b-994c-fb88093893a9"},"vehicle_type_id":"4","last_reported":1762935355,"current_range_meters":17600,"station_id":"ce4bhmp2rcd13ifvqgog","pricing_plan_id":"cebpf4jnsgd1na2vs0mg"},{"bike_id":"1e8b9447-6102-430d-9de0-baa25221656c","system_id":"levelo_inurba_marseille","lat":43.276184,"lon":5.361144,"is_reserved":false,"is_disabled":true,"rental_uris":{"android":"levelo://app?vid=1e8b9447-6102-430d-9de0-baa25221656c","ios":"levelo://app?vid=1e8b9447-6102-430d-9de0-baa25221656c"},"vehicle_type_id":"4","last_reported":1762935355,"current_range_meters":17600,"station_id":"ce4bgj92rcd13ifvqbe0","pricing_plan_id":"cebpf4jnsgd1na2vs0mg"},{"bike_id":"65a4abe7-288e-4d53-9a3a-9c7ef2e7d4a6","system_id":"levelo_inurba_marseille","lat":43.281501,"lon":5.426436,"is_reserved":false,"is_disabled":false,"rental_uris":{"android":"levelo://app?vid=65a4abe7-288e-4d53-9a3a-9c7ef2e7d4a6","ios":"levelo://app?vid=65a4abe7-288e-4d53-9a3a-9c7ef2e7d4a6"},"vehicle_type_id":"4","last_reported":1762935355,"current_range_meters":17600,"station_id":"ce4bhnh2rcd13ifvqgug","pricing_plan_id":"cebpf4jnsgd1na2vs0mg"},{"bike_id":"4a79c061-71f0-40cf-aa2e-6eb4300c64d6","system_id":"levelo_inurba_marseille","lat":43.30274,"lon":5.37708,"is_reserved":false,"is_disabled":false,"rental_uris":{"android":"levelo://app?vid=4a79c061-71f0-40cf-aa2e-6eb4300c64d6","ios":"levelo://app?vid=4a79c061-71f0-40cf-aa2e-6eb4300c64d6"},"vehicle_type_id":"4","last_reported":1762935355,"current_range_meters":17600,"station_id":"ce4bguh2rcd13ifvqcj0","pricing_plan_id":"cebpf4jnsgd1na2vs0mg"},{"bike_id":"0e22e1e2-c2a6-4a5f-bf2f-1a2683152b33","system_id":"levelo_inurba_marseille","lat":43.265743,"lon":5.390081,"is_reserved":false,"is_disabled":false,"rental_uris":{"android":"levelo://app?vid=0e22e1e2-c2a6-4a5f-bf2f-1a2683152b33","ios":"levelo://app?vid=0e22e1e2-c2a6-4a5f-bf2f-1a2683152b33"},"vehicle_type_id":"4","last_reported":1762935355,"current_range_meters":17600,"station_id":"ce4bhe12rcd13ifvqf30","pricing_plan_id":"cebpf4jnsgd1na2vs0mg"},{"bike_id":"a76ed384-8adb-4855-8ea9-608b64e9d92b","system_id":"levelo_inurba_marseille","lat":43.322712,"lon":5.369548,"is_reserved":false,"is_disabled":false,"rental_uris":{"android":"levelo://app?vid=a76ed384-8adb-4855-8ea9-608b64e9d92b","ios":"levelo://app?vid=a76ed384-8adb-4855-8ea9-608b64e9d92b"},"vehicle_type_id":"4","last_reported":1762935355,"current_range_meters":17600,"station_id":"","pricing_plan_id":"cebpf4jnsgd1na2vs0mg"},{"bike_id":"702263c4-0d5d-4c49-8fa5-9f2770a6e131","system_id":"levelo_inurba_marseille","lat":43.28921,"lon":5.38396,"is_reserved":false,"is_disabled":false,"rental_uris":{"android":"levelo://app?vid=702263c4-0d5d-4c49-8fa5-9f2770a6e131","ios":"levelo://app?vid=702263c4-0d5d-4c49-8fa5-9f2770a6e131"},"vehicle_type_id":"4","last_reported":1762935355,"current_range_meters":17600,"station_id":"ce4bh612rcd13ifvqe6g","pricing_plan_id":"cebpf4jnsgd1na2vs0mg"},{"bike_id":"6faca5e0-f5f3-4419-a7e2-34fda1621326","system_id":"levelo_inurba_marseille","lat":43.21196,"lon":5.35076,"is_reserved":false,"is_disabled":false,"rental_uris":{"android":"levelo://app?vid=6faca5e0-f5f3-4419-a7e2-34fda1621326","ios":"levelo://app?vid=6faca5e0-f5f3-4419-a7e2-34fda1621326"},"vehicle_type_id":"4","last_reported":1762935355,"current_range_meters":17600,"station_id":"st_cvj6sg6p6f1abm77japg","pricing_plan_id":"cebpf4jnsgd1na2vs0mg"},{"bike_id":"1f10aa07-17b5-420e-b6f2-b695d3cbb769","system_id":"levelo_inurba_marseille","lat":43.306027,"lon":5.3936,"is_reserved":false,"is_disabled":true,"rental_uris":{"android":"levelo://app?vid=1f10aa07-17b5-420e-b6f2-b695d3cbb769","ios":"levelo://app?vid=1f10aa07-17b5-420e-b6f2-b695d3cbb769"},"vehicle_type_id":"4","last_reported":1762935355,"current_range_meters":18000,"station_id":"ce4bh0p2rcd13ifvqd80","pricing_plan_id":"cebpf4jnsgd1na2vs0mg"},{"bike_id":"a5f92871-e901-40e2-af90-705a6de748e5","system_id":"levelo_inurba_marseille","lat":43.24068,"lon":5.37762,"is_reserved":false,"is_disabled":false,"rental_uris":{"android":"levelo://app?vid=a5f92871-e901-40e2-af90-705a6de748e5","ios":"levelo://app?vid=a5f92871-e901-40e2-af90-705a6de748e5"},"vehicle_type_id":"4","last_reported":1762935355,"current_range_meters":18000,"station_id":"ce4bhnp2rcd13ifvqgvg","pricing_plan_id":"cebpf4jnsgd1na2vs0mg"},{"bike_id":"8e48f4a0-5585-47cf-910b-6e9b78b38aaf","system_id":"levelo_inurba_marseille","lat":43.299121,"lon":5.374719,"is_reserved":false,"is_disabled":false,"rental_uris":{"android":"levelo://app?vid=8e48f4a0-5585-47cf-910b-6e9b78b38aaf","ios":"levelo://app?vid=8e48f4a0-5585-47cf-910b-6e9b78b38aaf"},"vehicle_type_id":"4","last_reported":1762935355,"current_range_meters":18000,"station_id":"ce4bgjh2rcd13ifvqbg0","pricing_plan_id":"cebpf4jnsgd1na2vs0mg"},{"bike_id":"6e2caa74-d1f5-4152-855d-e673413d500d","system_id":"levelo_inurba_marseille","lat":43.24405,"lon":5.37058,"is_reserved":false,"is_disabled":false,"rental_uris":{"android":"levelo://app?vid=6e2caa74-d1f5-4152-855d-e673413d500d","ios":"levelo://app?vid=6e2caa74-d1f5-4152-855d-e673413d500d"},"vehicle_type_id":"4","last_reported":1762935355,"current_range_meters":18000,"station_id":"ce4bhhh2rcd13ifvqfk0","pricing_plan_id":"cebpf4jnsgd1na2vs0mg"},{"bike_id":"23f9c78c-ca0a-48be-8a9d-156c748920c2","system_id":"levelo_inurba_marseille","lat":43.2792,"lon":5.41029,"is_reserved":false,"is_disabled":false,"rental_uris":{"android":"levelo://app?vid=23f9c78c-ca0a-48be-8a9d-156c748920c2","ios":"levelo://app?vid=23f9c78c-ca0a-48be-8a9d-156c748920c2"},"vehicle_type_id":"4","last_reported":1762935355,"current_range_meters":18000,"station_id":"ce4bhnp2rcd13ifvqh0g","pricing_plan_id":"cebpf4jnsgd1na2vs0mg"},{"bike_id":"98d9ed27-1c51-4232-bb05-142a9e7f98db","system_id":"levelo_inurba_marseille","lat":43.310645,"lon":5.383536,"is_reserved":false,"is_disabled":true,"rental_uris":{"android":"levelo://app?vid=98d9ed27-1c51-4232-bb05-142a9e7f98db","ios":"levelo://app?vid=98d9ed27-1c51-4232-bb05-142a9e7f98db"},"vehicle_type_id":"4","last_reported":1762935355,"current_range_meters":18000,"station_id":"ce4bgv92rcd13ifvqcr0","pricing_plan_id":"cebpf4jnsgd1na2vs0mg"},{"bike_id":"0f99abd3-ec1b-4bcf-b0f7-a308683f76ef","system_id":"levelo_inurba_marseille","lat":43.31351,"lon":5.36703,"is_reserved":false,"is_disabled":false,"rental_uris":{"android":"levelo://app?vid=0f99abd3-ec1b-4bcf-b0f7-a308683f76ef","ios":"levelo://app?vid=0f99abd3-ec1b-4bcf-b0f7-a308683f76ef"},"vehicle_type_id":"4","last_reported":1762935355,"current_range_meters":18000,"station_id":"ce4bgr92rcd13ifvqc6g","pricing_plan_id":"cebpf4jnsgd1na2vs0mg"},{"bike_id":"d9c42db4-978c-4888-857f-0dd68cbf7fbf","system_id":"levelo_inurba_marseille","lat":43.28724,"lon":5.37935,"is_reserved":false,"is_disabled":false,"rental_uris":{"android":"levelo://app?vid=d9c42db4-978c-4888-857f-0dd68cbf7fbf","ios":"levelo://app?vid=d9c42db4-978c-4888-857f-0dd68cbf7fbf"},"vehicle_type_id":"4","last_reported":1762935355,"current_range_meters":18000,"station_id":"ce4bh9p2rcd13ifvqec0","pricing_plan_id":"cebpf4jnsgd1na2vs0mg"},{"bike_id":"45ea5fc8-2bce-4742-9f07-e17e1db66a01","system_id":"levelo_inurba_marseille","lat":43.28271,"lon":5.35066,"is_reserved":false,"is_disabled":false,"rental_uris":{"android":"levelo://app?vid=45ea5fc8-2bce-4742-9f07-e17e1db66a01","ios":"levelo://app?vid=45ea5fc8-2bce-4742-9f07-e17e1db66a01"},"vehicle_type_id":"4","last_reported":1762935355,"current_range_meters":18000,"station_id":"ce4bhbp2rcd13ifvqerg","pricing_plan_id":"cebpf4jnsgd1na2vs0mg"},{"bike_id":"bde68cd8-1b25-4aa4-afd9-6cc910e106d2","system_id":"levelo_inurba_marseille","lat":43.337891,"lon":5.374511,"is_reserved":false,"is_disabled":false,"rental_uris":{"android":"levelo://app?vid=bde68cd8-1b25-4aa4-afd9-6cc910e106d2","ios":"levelo://app?vid=bde68cd8-1b25-4aa4-afd9-6cc910e106d2"},"vehicle_type_id":"4","last_reported":1762935355,"current_range_meters":18800,"station_id":"","pricing_plan_id":"cebpf4jnsgd1na2vs0mg"},{"bike_id":"feba1818-bd8b-4490-b819-a63599738f3b","system_id":"levelo_inurba_marseille","lat":43.30317,"lon":5.36912,"is_reserved":false,"is_disabled":true,"rental_uris":{"android":"levelo://app?vid=feba1818-bd8b-4490-b819-a63599738f3b","ios":"levelo://app?vid=feba1818-bd8b-4490-b819-a63599738f3b"},"vehicle_type_id":"4","last_reported":1762935355,"current_range_meters":18800,"station_id":"ce4bgqh2rcd13ifvqc5g","pricing_plan_id":"cebpf4jnsgd1na2vs0mg"},{"bike_id":"58be8180-967b-40b9-b299-90937a7eea47","system_id":"levelo_inurba_marseille","lat":43.28545,"lon":5.44103,"is_reserved":false,"is_disabled":false,"rental_uris":{"android":"levelo://app?vid=58be8180-967b-40b9-b299-90937a7eea47","ios":"levelo://app?vid=58be8180-967b-40b9-b299-90937a7eea47"},"vehicle_type_id":"4","last_reported":1762935355,"current_range_meters":18800,"station_id":"st_d3j3df2ikq2c7380ej80","pricing_plan_id":"cebpf4jnsgd1na2vs0mg"},{"bike_id":"2c2644cb-8e02-42ea-84ce-72d875c92994","system_id":"levelo_inurba_marseille","lat":43.30535,"lon":5.36714,"is_reserved":false,"is_disabled":false,"rental_uris":{"android":"levelo://app?vid=2c2644cb-8e02-42ea-84ce-72d875c92994","ios":"levelo://app?vid=2c2644cb-8e02-42ea-84ce-72d875c92994"},"vehicle_type_id":"4","last_reported":1762935355,"current_range_meters":18800,"station_id":"ce4bgrp2rcd13ifvqc9g","pricing_plan_id":"cebpf4jnsgd1na2vs0mg"},{"bike_id":"ac7f558e-4423-4d13-ae02-00afc55d464e","system_id":"levelo_inurba_marseille","lat":43.30461,"lon":5.37893,"is_reserved":false,"is_disabled":false,"rental_uris":{"android":"levelo://app?vid=ac7f558e-4423-4d13-ae02-00afc55d464e","ios":"levelo://app?vid=ac7f558e-4423-4d13-ae02-00afc55d464e"},"vehicle_type_id":"4","last_reported":1762935355,"current_range_meters":18800,"station_id":"ce4bgup2rcd13ifvqcn0","pricing_plan_id":"cebpf4jnsgd1na2vs0mg"},{"bike_id":"9f257429-210e-4187-b310-fa3b4c5c3978","system_id":"levelo_inurba_marseille","lat":43.273333,"lon":5.401311,"is_reserved":false,"is_disabled":false,"rental_uris":{"android":"levelo://app?vid=9f257429-210e-4187-b310-fa3b4c5c3978","ios":"levelo://app?vid=9f257429-210e-4187-b310-fa3b4c5c3978"},"vehicle_type_id":"4","last_reported":1762935355,"current_range_meters":18800,"station_id":"","pricing_plan_id":"cebpf4jnsgd1na2vs0mg"},{"bike_id":"acec7c48-49c8-4655-b681-5147c99c7155","system_id":"levelo_inurba_marseille","lat":43.32483,"lon":5.36556,"is_reserved":false,"is_disabled":false,"rental_uris":{"android":"levelo://app?vid=acec7c48-49c8-4655-b681-5147c99c7155","ios":"levelo://app?vid=acec7c48-49c8-4655-b681-5147c99c7155"},"vehicle_type_id":"4","last_reported":1762935355,"current_range_meters":18800,"station_id":"ce4bhs12rcd13ifvqhvg","pricing_plan_id":"cebpf4jnsgd1na2vs0mg"},{"bike_id":"4c28d888-be1b-4b74-8c2c-bc192ccceb62","system_id":"levelo_inurba_marseille","lat":43.3054,"lon":5.36729,"is_reserved":false,"is_disabled":false,"rental_uris":{"android":"levelo://app?vid=4c28d888-be1b-4b74-8c2c-bc192ccceb62","ios":"levelo://app?vid=4c28d888-be1b-4b74-8c2c-bc192ccceb62"},"vehicle_type_id":"4","last_reported":1762935355,"current_range_meters":18800,"station_id":"ce4bgrp2rcd13ifvqc9g","pricing_plan_id":"cebpf4jnsgd1na2vs0mg"},{"bike_id":"c0da5835-648a-4948-bad3-19f7d8a7ebf4","system_id":"levelo_inurba_marseille","lat":43.25573,"lon":5.38244,"is_reserved":false,"is_disabled":false,"rental_uris":{"android":"levelo://app?vid=c0da5835-648a-4948-bad3-19f7d8a7ebf4","ios":"levelo://app?vid=c0da5835-648a-4948-bad3-19f7d8a7ebf4"},"vehicle_type_id":"4","last_reported":1762935355,"current_range_meters":18800,"station_id":"ce4bhih2rcd13ifvqfs0","pricing_plan_id":"cebpf4jnsgd1na2vs0mg"},{"bike_id":"baab0da5-392a-4f40-83dd-a8d997b612fe","system_id":"levelo_inurba_marseille","lat":43.29037,"lon":5.39971,"is_reserved":false,"is_disabled":false,"rental_uris":{"android":"levelo://app?vid=baab0da5-392a-4f40-83dd-a8d997b612fe","ios":"levelo://app?vid=baab0da5-392a-4f40-83dd-a8d997b612fe"},"vehicle_type_id":"4","last_reported":1762935355,"current_range_meters":19200,"station_id":"ce4bh392rcd13ifvqdm0","pricing_plan_id":"cebpf4jnsgd1na2vs0mg"},{"bike_id":"08b50176-26d3-4983-88d6-06af7d6a3f91","system_id":"levelo_inurba_marseille","lat":43.30906,"lon":5.36841,"is_reserved":false,"is_disabled":false,"rental_uris":{"android":"levelo://app?vid=08b50176-26d3-4983-88d6-06af7d6a3f91","ios":"levelo://app?vid=08b50176-26d3-4983-88d6-06af7d6a3f91"},"vehicle_type_id":"4","last_reported":1762935355,"current_range_meters":19200,"station_id":"ce4bgn92rcd13ifvqbvg","pricing_plan_id":"cebpf4jnsgd1na2vs0mg"},{"bike_id":"69ca0916-03df-4b96-9ade-22943673cf25","system_id":"levelo_inurba_marseille","lat":43.27944,"lon":5.41041,"is_reserved":false,"is_disabled":false,"rental_uris":{"android":"levelo://app?vid=69ca0916-03df-4b96-9ade-22943673cf25","ios":"levelo://app?vid=69ca0916-03df-4b96-9ade-22943673cf25"},"vehicle_type_id":"4","last_reported":1762935355,"current_range_meters":19200,"station_id":"ce4bhnp2rcd13ifvqh0g","pricing_plan_id":"cebpf4jnsgd1na2vs0mg"},{"bike_id":"54e79b48-7523-415b-9bd7-293c690c29f1","system_id":"levelo_inurba_marseille","lat":43.29802,"lon":5.39145,"is_reserved":false,"is_disabled":false,"rental_uris":{"android":"levelo://app?vid=54e79b48-7523-415b-9bd7-293c690c29f1","ios":"levelo://app?vid=54e79b48-7523-415b-9bd7-293c690c29f1"},"vehicle_type_id":"4","last_reported":1762935355,"current_range_meters":19200,"station_id":"","pricing_plan_id":"cebpf4jnsgd1na2vs0mg"},{"bike_id":"4f27c235-11df-4df2-bfdf-8938c3d9c6ba","system_id":"levelo_inurba_marseille","lat":43.337808,"lon":5.374263,"is_reserved":false,"is_disabled":false,"rental_uris":{"android":"levelo://app?vid=4f27c235-11df-4df2-bfdf-8938c3d9c6ba","ios":"levelo://app?vid=4f27c235-11df-4df2-bfdf-8938c3d9c6ba"},"vehicle_type_id":"4","last_reported":1762935355,"current_range_meters":19200,"station_id":"","pricing_plan_id":"cebpf4jnsgd1na2vs0mg"},{"bike_id":"91a4e788-6f46-4c46-8784-a0ccc8ad4bb6","system_id":"levelo_inurba_marseille","lat":43.30464,"lon":5.37917,"is_reserved":false,"is_disabled":false,"rental_uris":{"android":"levelo://app?vid=91a4e788-6f46-4c46-8784-a0ccc8ad4bb6","ios":"levelo://app?vid=91a4e788-6f46-4c46-8784-a0ccc8ad4bb6"},"vehicle_type_id":"4","last_reported":1762935355,"current_range_meters":19200,"station_id":"ce4bgup2rcd13ifvqcn0","pricing_plan_id":"cebpf4jnsgd1na2vs0mg"},{"bike_id":"48812cf1-d406-4ddc-ac37-09889e751308","system_id":"levelo_inurba_marseille","lat":43.321,"lon":5.36778,"is_reserved":false,"is_disabled":true,"rental_uris":{"android":"levelo://app?vid=48812cf1-d406-4ddc-ac37-09889e751308","ios":"levelo://app?vid=48812cf1-d406-4ddc-ac37-09889e751308"},"vehicle_type_id":"4","last_reported":1762935355,"current_range_meters":19200,"station_id":"ce4bhrh2rcd13ifvqhug","pricing_plan_id":"cebpf4jnsgd1na2vs0mg"},{"bike_id":"81f825d4-dd02-4d8e-aba6-b0c27c9db922","system_id":"levelo_inurba_marseille","lat":43.3123,"lon":5.36852,"is_reserved":false,"is_disabled":false,"rental_uris":{"android":"levelo://app?vid=81f825d4-dd02-4d8e-aba6-b0c27c9db922","ios":"levelo://app?vid=81f825d4-dd02-4d8e-aba6-b0c27c9db922"},"vehicle_type_id":"4","last_reported":1762935355,"current_range_meters":19200,"station_id":"ce4bgl92rcd13ifvqbq0","pricing_plan_id":"cebpf4jnsgd1na2vs0mg"},{"bike_id":"7c51971f-3db1-4d19-ada2-e932934b743c","system_id":"levelo_inurba_marseille","lat":43.29028,"lon":5.38646,"is_reserved":false,"is_disabled":false,"rental_uris":{"android":"levelo://app?vid=7c51971f-3db1-4d19-ada2-e932934b743c","ios":"levelo://app?vid=7c51971f-3db1-4d19-ada2-e932934b743c"},"vehicle_type_id":"4","last_reported":1762935355,"current_range_meters":19200,"station_id":"ce4bh4p2rcd13ifvqe0g","pricing_plan_id":"cebpf4jnsgd1na2vs0mg"},{"bike_id":"f805ef2c-bb49-430b-a190-c2c10f8613c3","system_id":"levelo_inurba_marseille","lat":43.279983,"lon":5.416657,"is_reserved":false,"is_disabled":false,"rental_uris":{"android":"levelo://app?vid=f805ef2c-bb49-430b-a190-c2c10f8613c3","ios":"levelo://app?vid=f805ef2c-bb49-430b-a190-c2c10f8613c3"},"vehicle_type_id":"4","last_reported":1762935355,"current_range_meters":19200,"station_id":"ce4bho12rcd13ifvqh1g","pricing_plan_id":"cebpf4jnsgd1na2vs0mg"},{"bike_id":"6c60d84c-b39a-406f-aa1a-3b92796abe80","system_id":"levelo_inurba_marseille","lat":43.289794,"lon":5.375354,"is_reserved":false,"is_disabled":false,"rental_uris":{"android":"levelo://app?vid=6c60d84c-b39a-406f-aa1a-3b92796abe80","ios":"levelo://app?vid=6c60d84c-b39a-406f-aa1a-3b92796abe80"},"vehicle_type_id":"4","last_reported":1762935355,"current_range_meters":19600,"station_id":"ce4bh9p2rcd13ifvqec0","pricing_plan_id":"cebpf4jnsgd1na2vs0mg"},{"bike_id":"a354f388-79c0-417e-af2c-3b7d659cb3a0","system_id":"levelo_inurba_marseille","lat":43.273224,"lon":5.390699,"is_reserved":false,"is_disabled":false,"rental_uris":{"android":"levelo://app?vid=a354f388-79c0-417e-af2c-3b7d659cb3a0","ios":"levelo://app?vid=a354f388-79c0-417e-af2c-3b7d659cb3a0"},"vehicle_type_id":"4","last_reported":1762935355,"current_range_meters":19600,"station_id":"ce4bhgp2rcd13ifvqfe0","pricing_plan_id":"cebpf4jnsgd1na2vs0mg"},{"bike_id":"21305870-e2f8-4c1e-9524-0c8018904895","system_id":"levelo_inurba_marseille","lat":43.29924,"lon":5.37473,"is_reserved":false,"is_disabled":false,"rental_uris":{"android":"levelo://app?vid=21305870-e2f8-4c1e-9524-0c8018904895","ios":"levelo://app?vid=21305870-e2f8-4c1e-9524-0c8018904895"},"vehicle_type_id":"4","last_reported":1762935355,"current_range_meters":19600,"station_id":"ce4bgjh2rcd13ifvqbg0","pricing_plan_id":"cebpf4jnsgd1na2vs0mg"},