{"last_updated":1728195144,"ttl":60,"version":"2.2","data":{"bikes":[{"bike_id":"b3fb91ee-2552-4bb1-b638-e1c008f0fbc7","system_id":"levelo_inurba_marseille","lat":43.26068,"lon":5.39391,"is_reserved":false,"is_disabled":false,"rental_uris":{"android":"levelo://app?vid=b3fb91ee-2552-4bb1-b638-e1c008f0fbc7","ios":"levelo://app?vid=b3fb91ee-2552-4bb1-b638-e1c008f0fbc7"},"vehicle_type_id":"4","last_reported":1728195145,"current_range_meters":38000,"station_id":"ce4bhh92rcd13ifvqfj0","pricing_plan_id":"cebpf4jnsgd1na2vs0mg"},{"bike_id":"e626ce58-ed24-403d-b16f-1544c4a5d89a","system_id":"levelo_inurba_marseille","lat":43.2319,"lon":5.35547,"is_reserved":false,"is_disabled":false,"rental_uris":{"android":"levelo://app?vid=e626ce58-ed24-403d-b16f-1544c4a5d89a","ios":"levelo://app?vid=e626ce58-ed24-403d-b16f-1544c4a5d89a"},"vehicle_type_id":"4","last_reported":1728195145,"current_range_meters":37600,"station_id":"ce4bhu92rcd13ifvqi70","pricing_plan_id":"cebpf4jnsgd1na2vs0mg"},{"bike_id":"8141a509-e797-4ec3-9b27-a12ebc8090b6","system_id":"levelo_inurba_marseille","lat":43.25111,"lon":5.40319,"is_reserved":false,"is_disabled":false,"rental_uris":{"android":"levelo://app?vid=8141a509-e797-4ec3-9b27-a12ebc8090b6","ios":"levelo://app?vid=8141a509-e797-4ec3-9b27-a12ebc8090b6"},"vehicle_type_id":"4","last_reported":1728195145,"current_range_meters":38000,"station_id":"ce4bhlh2rcd13ifvqgig","pricing_plan_id":"cebpf4jnsgd1na2vs0mg"},{"bike_id":"9671f252-4906-4ded-9eb9-fd7886dcac1f","system_id":"levelo_inurba_marseille","lat":43.31762,"lon":5.39011,"is_reserved":false,"is_disabled":false,"rental_uris":{"android":"levelo://app?vid=9671f252-4906-4ded-9eb9-fd7886dcac1f","ios":"levelo://app?vid=9671f252-4906-4ded-9eb9-fd7886dcac1f"},"vehicle_type_id":"4","last_reported":1728195145,"current_range_meters":38400,"station_id":"ce4bhqp2rcd13ifvqhng","pricing_plan_id":"cebpf4jnsgd1na2vs0mg"},{"bike_id":"442824c6-8b63-4a71-93f0-6531329b40f0","system_id":"levelo_inurba_marseille","lat":43.2918,"lon":5.35803,"is_reserved":false,"is_disabled":false,"rental_uris":{"android":"levelo://app?vid=442824c6-8b63-4a71-93f0-6531329b40f0","ios":"levelo://app?vid=442824c6-8b63-4a71-93f0-6531329b40f0"},"vehicle_type_id":"4","last_reported":1728195145,"current_range_meters":29600,"station_id":"ce4bhb12rcd13ifvqel0","pricing_plan_id":"cebpf4jnsgd1na2vs0mg"},{"bike_id":"3edccbad-c604-40df-acb2-6e9d91b67298","system_id":"levelo_inurba_marseille","lat":43.21338,"lon":5.34958,"is_reserved":false,"is_disabled":false,"rental_uris":{"android":"levelo://app?vid=3edccbad-c604-40df-acb2-6e9d91b67298","ios":"levelo://app?vid=3edccbad-c604-40df-acb2-6e9d91b67298"},"vehicle_type_id":"4","last_reported":1728195145,"current_range_meters":30000,"station_id":"crv51consjfaj9uu89c0","pricing_plan_id":"cebpf4jnsgd1na2vs0mg"},{"bike_id":"229f07e8-b5a1-4c80-803f-a5ffaa937d8a","system_id":"levelo_inurba_marseille","lat":43.29438,"lon":5.39744,"is_reserved":false,"is_disabled":false,"rental_uris":{"android":"levelo://app?vid=229f07e8-b5a1-4c80-803f-a5ffaa937d8a","ios":"levelo://app?vid=229f07e8-b5a1-4c80-803f-a5ffaa937d8a"},"vehicle_type_id":"4","last_reported":1728195145,"current_range_meters":40000,"station_id":"ce4bh3h2rcd13ifvqdo0","pricing_plan_id":"cebpf4jnsgd1na2vs0mg"},{"bike_id":"f42ba909-c6af-4d4c-bcad-ee9c6f8944ff","system_id":"levelo_inurba_marseille","lat":43.31748,"lon":5.39037,"is_reserved":false,"is_disabled":false,"rental_uris":{"android":"levelo://app?vid=f42ba909-c6af-4d4c-bcad-ee9c6f8944ff","ios":"levelo://app?vid=f42ba909-c6af-4d4c-bcad-ee9c6f8944ff"},"vehicle_type_id":"4","last_reported":1728195145,"current_range_meters":39200,"station_id":"ce4bhqp2rcd13ifvqhng","pricing_plan_id":"cebpf4jnsgd1na2vs0mg"},{"bike_id":"3909790d-3de1-474b-a13a-3b4e83c3bcea","system_id":"levelo_inurba_marseille","lat":43.28696,"lon":5.39988,"is_reserved":false,"is_disabled":false,"rental_uris":{"android":"levelo://app?vid=3909790d-3de1-474b-a13a-3b4e83c3bcea","ios":"levelo://app?vid=3909790d-3de1-474b-a13a-3b4e83c3bcea"},"vehicle_type_id":"4","last_reported":1728195145,"current_range_meters":38800,"station_id":"ce4bho92rcd13ifvqh3g","pricing_plan_id":"cebpf4jnsgd1na2vs0mg"},{"bike_id":"b8dec4cf-aa31-4f5e-aa1a-10311b6d7c46","system_id":"levelo_inurba_marseille","lat":43.29036,"lon":5.35917,"is_reserved":false,"is_disabled":false,"rental_uris":{"android":"levelo://app?vid=b8dec4cf-aa31-4f5e-aa1a-10311b6d7c46","ios":"levelo://app?vid=b8dec4cf-aa31-4f5e-aa1a-10311b6d7c46"},"vehicle_type_id":"4","last_reported":1728195145,"current_range_meters":38800,"station_id":"ce4bha92rcd13ifvqeg0","pricing_plan_id":"cebpf4jnsgd1na2vs0mg"},{"bike_id":"0690d114-c8c7-4e46-a5a2-7f449cdff008","system_id":"levelo_inurba_marseille","lat":43.30801,"lon":5.43522,"is_reserved":false,"is_disabled":false,"rental_uris":{"android":"levelo://app?vid=0690d114-c8c7-4e46-a5a2-7f449cdff008","ios":"levelo://app?vid=0690d114-c8c7-4e46-a5a2-7f449cdff008"},"vehicle_type_id":"4","last_reported":1728195145,"current_range_meters":22800,"station_id":"ce4bhph2rcd13ifvqheg","pricing_plan_id":"cebpf4jnsgd1na2vs0mg"},{"bike_id":"d706f5d0-1753-4318-93ba-336cd92236ca","system_id":"levelo_inurba_marseille","lat":43.32487,"lon":5.36561,"is_reserved":false,"is_disabled":false,"rental_uris":{"android":"levelo://app?vid=d706f5d0-1753-4318-93ba-336cd92236ca","ios":"levelo://app?vid=d706f5d0-1753-4318-93ba-336cd92236ca"},"vehicle_type_id":"4","last_reported":1728195145,"current_range_meters":35200,"station_id":"ce4bhs12rcd13ifvqhvg","pricing_plan_id":"cebpf4jnsgd1na2vs0mg"},{"bike_id":"bd67e0d1-ba93-4d0f-9c0b-e04c5c8d114c","system_id":"levelo_inurba_marseille","lat":43.24386,"lon":5.37059,"is_reserved":false,"is_disabled":false,"rental_uris":{"android":"levelo://app?vid=bd67e0d1-ba93-4d0f-9c0b-e04c5c8d114c","ios":"levelo://app?vid=bd67e0d1-ba93-4d0f-9c0b-e04c5c8d114c"},"vehicle_type_id":"4","last_reported":1728195145,"current_range_meters":9200,"station_id":"ce4bhhh2rcd13ifvqfk0","pricing_plan_id":"cebpf4jnsgd1na2vs0mg"},{"bike_id":"5247e496-daed-4465-8046-4c6092253b0e","system_id":"levelo_inurba_marseille","lat":43.23144,"lon":5.43725,"is_reserved":false,"is_disabled":false,"rental_uris":{"android":"levelo://app?vid=5247e496-daed-4465-8046-4c6092253b0e","ios":"levelo://app?vid=5247e496-daed-4465-8046-4c6092253b0e"},"vehicle_type_id":"4","last_reported":1728195145,"current_range_meters":38000,"station_id":"ce4bhmp2rcd13ifvqgog","pricing_plan_id":"cebpf4jnsgd1na2vs0mg"},{"bike_id":"c8246711-41ee-4f39-9b04-1e0c20ab270d","system_id":"levelo_inurba_marseille","lat":43.29859,"lon":5.39745,"is_reserved":false,"is_disabled":false,"rental_uris":{"android":"levelo://app?vid=c8246711-41ee-4f39-9b04-1e0c20ab270d","ios":"levelo://app?vid=c8246711-41ee-4f39-9b04-1e0c20ab270d"},"vehicle_type_id":"4","last_reported":1728195145,"current_range_meters":24000,"station_id":"ce4bh0h2rcd13ifvqd50","pricing_plan_id":"cebpf4jnsgd1na2vs0mg"},{"bike_id":"45724e92-532e-484e-b4a7-5ca3c85c5df6","system_id":"levelo_inurba_marseille","lat":43.23968,"lon":5.36628,"is_reserved":false,"is_disabled":false,"rental_uris":{"android":"levelo://app?vid=45724e92-532e-484e-b4a7-5ca3c85c5df6","ios":"levelo://app?vid=45724e92-532e-484e-b4a7-5ca3c85c5df6"},"vehicle_type_id":"4","last_reported":1728195145,"current_range_meters":20000,"station_id":"ce4bhi12rcd13ifvqfp0","pricing_plan_id":"cebpf4jnsgd1na2vs0mg"},{"bike_id":"b287de09-225f-4862-8d67-b67d53011f62","system_id":"levelo_inurba_marseille","lat":43.2815,"lon":5.42648,"is_reserved":false,"is_disabled":false,"rental_uris":{"android":"levelo://app?vid=b287de09-225f-4862-8d67-b67d53011f62","ios":"levelo://app?vid=b287de09-225f-4862-8d67-b67d53011f62"},"vehicle_type_id":"4","last_reported":1728195145,"current_range_meters":14400,"station_id":"ce4bhnh2rcd13ifvqgug","pricing_plan_id":"cebpf4jnsgd1na2vs0mg"},{"bike_id":"31ea6b97-9b1b-4830-91db-ea5d9e36526f","system_id":"levelo_inurba_marseille","lat":43.28049,"lon":5.36951,"is_reserved":false,"is_disabled":false,"rental_uris":{"android":"levelo://app?vid=31ea6b97-9b1b-4830-91db-ea5d9e36526f","ios":"levelo://app?vid=31ea6b97-9b1b-4830-91db-ea5d9e36526f"},"vehicle_type_id":"4","last_reported":1728195145,"current_range_meters":38800,"station_id":"ce4bha12rcd13ifvqef0","pricing_plan_id":"cebpf4jnsgd1na2vs0mg"},{"bike_id":"6266ab0d-036e-4351-aec4-c2f2013119e5","system_id":"levelo_inurba_marseille","lat":43.3248,"lon":5.36569,"is_reserved":false,"is_disabled":false,"rental_uris":{"android":"levelo://app?vid=6266ab0d-036e-4351-aec4-c2f2013119e5","ios":"levelo://app?vid=6266ab0d-036e-4351-aec4-c2f2013119e5"},"vehicle_type_id":"4","last_reported":1728195145,"current_range_meters":38800,"station_id":"ce4bhs12rcd13ifvqhvg","pricing_plan_id":"cebpf4jnsgd1na2vs0mg"},{"bike_id":"a2153ac2-6bee-4af8-9fcf-4a9bf85c4fae","system_id":"levelo_inurba_marseille","lat":43.31691,"lon":5.40463,"is_reserved":false,"is_disabled":false,"rental_uris":{"android":"levelo://app?vid=a2153ac2-6bee-4af8-9fcf-4a9bf85c4fae","ios":"levelo://app?vid=a2153ac2-6bee-4af8-9fcf-4a9bf85c4fae"},"vehicle_type_id":"4","last_reported":1728195145,"current_range_meters":38000,"station_id":"ce4bh012rcd13ifvqd00","pricing_plan_id":"cebpf4jnsgd1na2vs0mg"},{"bike_id":"2c1ccc48-7b9a-4b96-82c1-feb476287a75","system_id":"levelo_inurba_marseille","lat":43.25087,"lon":5.39523,"is_reserved":false,"is_disabled":false,"rental_uris":{"android":"levelo://app?vid=2c1ccc48-7b9a-4b96-82c1-feb476287a75","ios":"levelo://app?vid=2c1ccc48-7b9a-4b96-82c1-feb476287a75"},"vehicle_type_id":"4","last_reported":1728195145,"current_range_meters":36800,"station_id":"ce4bhm12rcd13ifvqgkg","pricing_plan_id":"cebpf4jnsgd1na2vs0mg"},{"bike_id":"03d28434-6844-4b01-97d4-254d1b3cc6ab","system_id":"levelo_inurba_marseille","lat":43.27208,"lon":5.39188,"is_reserved":false,"is_disabled":false,"rental_uris":{"android":"levelo://app?vid=03d28434-6844-4b01-97d4-254d1b3cc6ab","ios":"levelo://app?vid=03d28434-6844-4b01-97d4-254d1b3cc6ab"},"vehicle_type_id":"4","last_reported":1728195145,"current_range_meters":10800,"station_id":"ce4bhhp2rcd13ifvqfm0","pricing_plan_id":"cebpf4jnsgd1na2vs0mg"},{"bike_id":"f11dd066-6b94-4d0b-8a87-cb59e5dabda0","system_id":"levelo_inurba_marseille","lat":43.31277,"lon":5.40168,"is_reserved":false,"is_disabled":false,"rental_uris":{"android":"levelo://app?vid=f11dd066-6b94-4d0b-8a87-cb59e5dabda0","ios":"levelo://app?vid=f11dd066-6b94-4d0b-8a87-cb59e5dabda0"},"vehicle_type_id":"4","last_reported":1728195145,"current_range_meters":39200,"station_id":"ce4bh092rcd13ifvqd30","pricing_plan_id":"cebpf4jnsgd1na2vs0mg"},{"bike_id":"2d7a2cb1-2897-4c0f-8a7d-31c222bf8d7d","system_id":"levelo_inurba_marseille","lat":43.30955,"lon":5.3904,"is_reserved":false,"is_disabled":false,"rental_uris":{"android":"levelo://app?vid=2d7a2cb1-2897-4c0f-8a7d-31c222bf8d7d","ios":"levelo://app?vid=2d7a2cb1-2897-4c0f-8a7d-31c222bf8d7d"},"vehicle_type_id":"4","last_reported":1728195145,"current_range_meters":38800,"station_id":"ce4bgup2rcd13ifvqco0","pricing_plan_id":"cebpf4jnsgd1na2vs0mg"},{"bike_id":"6eb49694-06bb-41cb-98b9-71b7074bd821","system_id":"levelo_inurba_marseille","lat":43.31889,"lon":5.40738,"is_reserved":false,"is_disabled":false,"rental_uris":{"android":"levelo://app?vid=6eb49694-06bb-41cb-98b9-71b7074bd821","ios":"levelo://app?vid=6eb49694-06bb-41cb-98b9-71b7074bd821"},"vehicle_type_id":"4","last_reported":1728195145,"current_range_meters":33200,"station_id":"ce4bhq12rcd13ifvqhig","pricing_plan_id":"cebpf4jnsgd1na2vs0mg"},{"bike_id":"75dbce07-c755-4145-9e54-8edf0905547b","system_id":"levelo_inurba_marseille","lat":43.27831,"lon":5.39208,"is_reserved":false,"is_disabled":false,"rental_uris":{"android":"levelo://app?vid=75dbce07-c755-4145-9e54-8edf0905547b","ios":"levelo://app?vid=75dbce07-c755-4145-9e54-8edf0905547b"},"vehicle_type_id":"4","last_reported":1728195145,"current_range_meters":37600,"station_id":"ce4bhjp2rcd13ifvqga0","pricing_plan_id":"cebpf4jnsgd1na2vs0mg"},{"bike_id":"68ecf37e-031f-4b6a-a3d6-30fc7a23d9ad","system_id":"levelo_inurba_marseille","lat":43.28074,"lon":5.39649,"is_reserved":false,"is_disabled":false,"rental_uris":{"android":"levelo://app?vid=68ecf37e-031f-4b6a-a3d6-30fc7a23d9ad","ios":"levelo://app?vid=68ecf37e-031f-4b6a-a3d6-30fc7a23d9ad"},"vehicle_type_id":"4","last_reported":1728195145,"current_range_meters":38800,"station_id":"ce4bho12rcd13ifvqh2g","pricing_plan_id":"cebpf4jnsgd1na2vs0mg"},{"bike_id":"a013fc0e-79f4-4493-bf94-abf4fcb0118b","system_id":"levelo_inurba_marseille","lat":43.28106,"lon":5.3784,"is_reserved":false,"is_disabled":false,"rental_uris":{"android":"levelo://app?vid=a013fc0e-79f4-4493-bf94-abf4fcb0118b","ios":"levelo://app?vid=a013fc0e-79f4-4493-bf94-abf4fcb0118b"},"vehicle_type_id":"4","last_reported":1728195145,"current_range_meters":39200,"station_id":"ce4bha12rcd13ifvqee0","pricing_plan_id":"cebpf4jnsgd1na2vs0mg"},{"bike_id":"254d7b0c-7ec0-4954-a318-3111c9bc2263","system_id":"levelo_inurba_marseille","lat":43.27911,"lon":5.38003,"is_reserved":false,"is_disabled":false,"rental_uris":{"android":"levelo://app?vid=254d7b0c-7ec0-4954-a318-3111c9bc2263","ios":"levelo://app?vid=254d7b0c-7ec0-4954-a318-3111c9bc2263"},"vehicle_type_id":"4","last_reported":1728195145,"current_range_meters":37600,"station_id":"ce4bhf92rcd13ifvqf50","pricing_plan_id":"cebpf4jnsgd1na2vs0mg"},{"bike_id":"8f568ac0-6709-4e1b-976a-2ebd965361a0","system_id":"levelo_inurba_marseille","lat":43.31529,"lon":5.38026,"is_reserved":false,"is_disabled":false,"rental_uris":{"android":"levelo://app?vid=8f568ac0-6709-4e1b-976a-2ebd965361a0","ios":"levelo://app?vid=8f568ac0-6709-4e1b-976a-2ebd965361a0"},"vehicle_type_id":"4","last_reported":1728195145,"current_range_meters":30400,"station_id":"ce4bhsp2rcd13ifvqi50","pricing_plan_id":"cebpf4jnsgd1na2vs0mg"},{"bike_id":"03ebdfef-60b9-4383-b780-f6e10ef5dff9","system_id":"levelo_inurba_marseille","lat":43.33758,"lon":5.37438,"is_reserved":false,"is_disabled":false,"rental_uris":{"android":"levelo://app?vid=03ebdfef-60b9-4383-b780-f6e10ef5dff9","ios":"levelo://app?vid=03ebdfef-60b9-4383-b780-f6e10ef5dff9"},"vehicle_type_id":"4","last_reported":1728195145,"current_range_meters":28800,"station_id":"","pricing_plan_id":"cebpf4jnsgd1na2vs0mg"},{"bike_id":"2af3a296-acf1-4a1b-ac20-a269b1358416","system_id":"levelo_inurba_marseille","lat":43.258301,"lon":5.394259,"is_reserved":false,"is_disabled":false,"rental_uris":{"android":"levelo://app?vid=2af3a296-acf1-4a1b-ac20-a269b1358416","ios":"levelo://app?vid=2af3a296-acf1-4a1b-ac20-a269b1358416"},"vehicle_type_id":"4","last_reported":1728195145,"current_range_meters":38000,"station_id":"ce4bhip2rcd13ifvqft0","pricing_plan_id":"cebpf4jnsgd1na2vs0mg"},{"bike_id":"1c3bbd8d-8d5e-44b9-b34d-bf485a3c73f8","system_id":"levelo_inurba_marseille","lat":43.30145,"lon":5.39875,"is_reserved":false,"is_disabled":false,"rental_uris":{"android":"levelo://app?vid=1c3bbd8d-8d5e-44b9-b34d-bf485a3c73f8","ios":"levelo://app?vid=1c3bbd8d-8d5e-44b9-b34d-bf485a3c73f8"},"vehicle_type_id":"4","last_reported":1728195145,"current_range_meters":35200,"station_id":"ce4bh0h2rcd13ifvqd40","pricing_plan_id":"cebpf4jnsgd1na2vs0mg"},{"bike_id":"8776769b-9d44-4cbf-8bfe-df4892fb90c2","system_id":"levelo_inurba_marseille","lat":43.32365,"lon":5.38881,"is_reserved":false,"is_disabled":false,"rental_uris":{"android":"levelo://app?vid=8776769b-9d44-4cbf-8bfe-df4892fb90c2","ios":"levelo://app?vid=8776769b-9d44-4cbf-8bfe-df4892fb90c2"},"vehicle_type_id":"4","last_reported":1728195145,"current_range_meters":25600,"station_id":"ce4bhqp2rcd13ifvqhog","pricing_plan_id":"cebpf4jnsgd1na2vs0mg"},{"bike_id":"0952ea56-7f44-4708-ab22-7a7a98985b63","system_id":"levelo_inurba_marseille","lat":43.33023,"lon":5.39037,"is_reserved":false,"is_disabled":false,"rental_uris":{"android":"levelo://app?vid=0952ea56-7f44-4708-ab22-7a7a98985b63","ios":"levelo://app?vid=0952ea56-7f44-4708-ab22-7a7a98985b63"},"vehicle_type_id":"4","last_reported":1728195145,"current_range_meters":32400,"station_id":"ce4bhr92rcd13ifvqhrg","pricing_plan_id":"cebpf4jnsgd1na2vs0mg"},{"bike_id":"8c4ede2a-8479-4951-912b-e9104b176599","system_id":"levelo_inurba_marseille","lat":43.337232,"lon":5.391965,"is_reserved":false,"is_disabled":false,"rental_uris":{"android":"levelo://app?vid=8c4ede2a-8479-4951-912b-e9104b176599","ios":"levelo://app?vid=8c4ede2a-8479-4951-912b-e9104b176599"},"vehicle_type_id":"4","last_reported":1728195145,"current_range_meters":8800,"station_id":"ce4bhr92rcd13ifvqhsg","pricing_plan_id":"cebpf4jnsgd1na2vs0mg"},{"bike_id":"0070bd1d-0841-43bf-9fe9-9007ec3667b5","system_id":"levelo_inurba_marseille","lat":43.28911,"lon":5.39517,"is_reserved":false,"is_disabled":false,"rental_uris":{"android":"levelo://app?vid=0070bd1d-0841-43bf-9fe9-9007ec3667b5","ios":"levelo://app?vid=0070bd1d-0841-43bf-9fe9-9007ec3667b5"},"vehicle_type_id":"4","last_reported":1728195145,"current_range_meters":16800,"station_id":"","pricing_plan_id":"cebpf4jnsgd1na2vs0mg"},{"bike_id":"a209a971-131e-491a-94c0-3302688dd8c9","system_id":"levelo_inurba_marseille","lat":43.30798,"lon":5.43526,"is_reserved":false,"is_disabled":false,"rental_uris":{"android":"levelo://app?vid=a209a971-131e-491a-94c0-3302688dd8c9","ios":"levelo://app?vid=a209a971-131e-491a-94c0-3302688dd8c9"},"vehicle_type_id":"4","last_reported":1728195145,"current_range_meters":14000,"station_id":"ce4bhph2rcd13ifvqheg","pricing_plan_id":"cebpf4jnsgd1na2vs0mg"},{"bike_id":"72ed71dd-947e-4571-86e6-3cc64d54f64b","system_id":"levelo_inurba_marseille","lat":43.29921,"lon":5.38133,"is_reserved":false,"is_disabled":false,"rental_uris":{"android":"levelo://app?vid=72ed71dd-947e-4571-86e6-3cc64d54f64b","ios":"levelo://app?vid=72ed71dd-947e-4571-86e6-3cc64d54f64b"},"vehicle_type_id":"4","last_reported":1728195145,"current_range_meters":16400,"station_id":"ce4bgj12rcd13ifvqbc0","pricing_plan_id":"cebpf4jnsgd1na2vs0mg"},{"bike_id":"4018fa26-9a2a-4214-af21-76b3667a940b","system_id":"levelo_inurba_marseille","lat":43.337678,"lon":5.37437,"is_reserved":false,"is_disabled":false,"rental_uris":{"android":"levelo://app?vid=4018fa26-9a2a-4214-af21-76b3667a940b","ios":"levelo://app?vid=4018fa26-9a2a-4214-af21-76b3667a940b"},"vehicle_type_id":"4","last_reported":1728195145,"current_range_meters":28800,"station_id":"","pricing_plan_id":"cebpf4jnsgd1na2vs0mg"},{"bike_id":"87b3bd72-8927-4c18-9784-4bc764e73796","system_id":"levelo_inurba_marseille","lat":43.30644,"lon":5.40076,"is_reserved":false,"is_disabled":false,"rental_uris":{"android":"levelo://app?vid=87b3bd72-8927-4c18-9784-4bc764e73796","ios":"levelo://app?vid=87b3bd72-8927-4c18-9784-4bc764e73796"},"vehicle_type_id":"4","last_reported":1728195145,"current_range_meters":6800,"station_id":"ce4bh112rcd13ifvqda0","pricing_plan_id":"cebpf4jnsgd1na2vs0mg"},{"bike_id":"9d329cdf-7959-4fb8-b905-08ba63c769b2","system_id":"levelo_inurba_marseille","lat":43.279945,"lon":5.416555,"is_reserved":false,"is_disabled":false,"rental_uris":{"android":"levelo://app?vid=9d329cdf-7959-4fb8-b905-08ba63c769b2","ios":"levelo://app?vid=9d329cdf-7959-4fb8-b905-08ba63c769b2"},"vehicle_type_id":"4","last_reported":1728195145,"current_range_meters":32000,"station_id":"ce4bho12rcd13ifvqh1g","pricing_plan_id":"cebpf4jnsgd1na2vs0mg"},{"bike_id":"fac6f7d5-25da-4d75-bd37-6eb9ec641f1f","system_id":"levelo_inurba_marseille","lat":43.23191,"lon":5.35551,"is_reserved":false,"is_disabled":false,"rental_uris":{"android":"levelo://app?vid=fac6f7d5-25da-4d75-bd37-6eb9ec641f1f","ios":"levelo://app?vid=fac6f7d5-25da-4d75-bd37-6eb9ec641f1f"},"vehicle_type_id":"4","last_reported":1728195145,"current_range_meters":38000,"station_id":"ce4bhu92rcd13ifvqi70","pricing_plan_id":"cebpf4jnsgd1na2vs0mg"},{"bike_id":"ac7477e2-647f-4698-b2f1-05ac6bd7ca79","system_id":"levelo_inurba_marseille","lat":43.27373,"lon":5.36257,"is_reserved":false,"is_disabled":false,"rental_uris":{"android":"levelo://app?vid=ac7477e2-647f-4698-b2f1-05ac6bd7ca79","ios":"levelo://app?vid=ac7477e2-647f-4698-b2f1-05ac6bd7ca79"},"vehicle_type_id":"4","last_reported":1728195145,"current_range_meters":35200,"station_id":"ce4bhbh2rcd13ifvqeo0","pricing_plan_id":"cebpf4jnsgd1na2vs0mg"},{"bike_id":"ea1558d2-8ab1-46c9-b214-6b68c55ad7cc","system_id":"levelo_inurba_marseille","lat":43.30956,"lon":5.39033,"is_reserved":false,"is_disabled":false,"rental_uris":{"android":"levelo://app?vid=ea1558d2-8ab1-46c9-b214-6b68c55ad7cc","ios":"levelo://app?vid=ea1558d2-8ab1-46c9-b214-6b68c55ad7cc"},"vehicle_type_id":"4","last_reported":1728195145,"current_range_meters":38400,"station_id":"ce4bgup2rcd13ifvqco0","pricing_plan_id":"cebpf4jnsgd1na2vs0mg"},{"bike_id":"c2631e27-f561-45cd-964c-4f2a217a8c4e","system_id":"levelo_inurba_marseille","lat":43.3064,"lon":5.40085,"is_reserved":false,"is_disabled":false,"rental_uris":{"android":"levelo://app?vid=c2631e27-f561-45cd-964c-4f2a217a8c4e","ios":"levelo://app?vid=c2631e27-f561-45cd-964c-4f2a217a8c4e"},"vehicle_type_id":"4","last_reported":1728195145,"current_range_meters":6000,"station_id":"ce4bh112rcd13ifvqda0","pricing_plan_id":"cebpf4jnsgd1na2vs0mg"},{"bike_id":"fd0c19cf-8948-48b7-bf3b-835081b27ec8","system_id":"levelo_inurba_marseille","lat":43.31497,"lon":5.37301,"is_reserved":false,"is_disabled":false,"rental_uris":{"android":"levelo://app?vid=fd0c19cf-8948-48b7-bf3b-835081b27ec8","ios":"levelo://app?vid=fd0c19cf-8948-48b7-bf3b-835081b27ec8"},"vehicle_type_id":"4","last_reported":1728195145,"current_range_meters":38400,"station_id":"ce4bgt12rcd13ifvqcd0","pricing_plan_id":"cebpf4jnsgd1na2vs0mg"},{"bike_id":"0a6abf91-5934-4bff-86d6-d42b6ef92f8f","system_id":"levelo_inurba_marseille","lat":43.281,"lon":5.37847,"is_reserved":false,"is_disabled":false,"rental_uris":{"android":"levelo://app?vid=0a6abf91-5934-4bff-86d6-d42b6ef92f8f","ios":"levelo://app?vid=0a6abf91-5934-4bff-86d6-d42b6ef92f8f"},"vehicle_type_id":"4","last_reported":1728195145,"current_range_meters":19200,"station_id":"ce4bha12rcd13ifvqee0","pricing_plan_id":"cebpf4jnsgd1na2vs0mg"},{"bike_id":"aeb150c0-d784-4966-882d-39b5e68454ea","system_id":"levelo_inurba_marseille","lat":43.30645,"lon":5.40082,"is_reserved":false,"is_disabled":false,"rental_uris":{"android":"levelo://app?vid=aeb150c0-d784-4966-882d-39b5e68454ea","ios":"levelo://app?vid=aeb150c0-d784-4966-882d-39b5e68454ea"},"vehicle_type_id":"4","last_reported":1728195145,"current_range_meters":33200,"station_id":"ce4bh112rcd13ifvqda0","pricing_plan_id":"cebpf4jnsgd1na2vs0mg"},{"bike_id":"270d446c-c917-4cb4-bb1b-6308ef4780b2","system_id":"levelo_inurba_marseille","lat":43.31375,"lon":5.38493,"is_reserved":false,"is_disabled":false,"rental_uris":{"android":"levelo://app?vid=270d446c-c917-4cb4-bb1b-6308ef4780b2","ios":"levelo://app?vid=270d446c-c917-4cb4-bb1b-6308ef4780b2"},"vehicle_type_id":"4","last_reported":1728195145,"current_range_meters":9600,"station_id":"ce4bgt92rcd13ifvqcf0","pricing_plan_id":"cebpf4jnsgd1na2vs0mg"},{"bike_id":"be80d8a2-d07f-4e97-a19e-421069027a70","system_id":"levelo_inurba_marseille","lat":43.2454,"lon":5.39521,"is_reserved":false,"is_disabled":false,"rental_uris":{"android":"levelo://app?vid=be80d8a2-d07f-4e97-a19e-421069027a70","ios":"levelo://app?vid=be80d8a2-d07f-4e97-a19e-421069027a70"},"vehicle_type_id":"4","last_reported":1728195145,"current_range_meters":38000,"station_id":"ce4bhlp2rcd13ifvqgjg","pricing_plan_id":"cebpf4jnsgd1na2vs0mg"},{"bike_id":"491813ec-5bcd-4eda-acb2-c01ccb4e9894","system_id":"levelo_inurba_marseille","lat":43.33757,"lon":5.37418,"is_reserved":false,"is_disabled":false,"rental_uris":{"android":"levelo://app?vid=491813ec-5bcd-4eda-acb2-c01ccb4e9894","ios":"levelo://app?vid=491813ec-5bcd-4eda-acb2-c01ccb4e9894"},"vehicle_type_id":"4","last_reported":1728195145,"current_range_meters":29600,"station_id":"","pricing_plan_id":"cebpf4jnsgd1na2vs0mg"},{"bike_id":"8314afce-5c76-45ae-958c-61928c717fd9","system_id":"levelo_inurba_marseille","lat":43.27997,"lon":5.41652,"is_reserved":false,"is_disabled":false,"rental_uris":{"android":"levelo://app?vid=8314afce-5c76-45ae-958c-61928c717fd9","ios":"levelo://app?vid=8314afce-5c76-45ae-958c-61928c717fd9"},"vehicle_type_id":"4","last_reported":1728195145,"current_range_meters":32400,"station_id":"ce4bho12rcd13ifvqh1g","pricing_plan_id":"cebpf4jnsgd1na2vs0mg"},{"bike_id":"6f68e6b3-773a-4e33-bc5e-dd6ba03cb12d","system_id":"levelo_inurba_marseille","lat":43.29033,"lon":5.39981,"is_reserved":false,"is_disabled":false,"rental_uris":{"android":"levelo://app?vid=6f68e6b3-773a-4e33-bc5e-dd6ba03cb12d","ios":"levelo://app?vid=6f68e6b3-773a-4e33-bc5e-dd6ba03cb12d"},"vehicle_type_id":"4","last_reported":1728195145,"current_range_meters":32800,"station_id":"ce4bh392rcd13ifvqdm0","pricing_plan_id":"cebpf4jnsgd1na2vs0mg"},{"bike_id":"8066cbd9-6f5f-4c8b-82e0-670217342883","system_id":"levelo_inurba_marseille","lat":43.21345,"lon":5.34938,"is_reserved":false,"is_disabled":false,"rental_uris":{"android":"levelo://app?vid=8066cbd9-6f5f-4c8b-82e0-670217342883","ios":"levelo://app?vid=8066cbd9-6f5f-4c8b-82e0-670217342883"},"vehicle_type_id":"4","last_reported":1728195145,"current_range_meters":36000,"station_id":"crv51consjfaj9uu89c0","pricing_plan_id":"cebpf4jnsgd1na2vs0mg"},{"bike_id":"87be7a17-4302-4965-8336-821c2174ed32","system_id":"levelo_inurba_marseille","lat":43.25119,"lon":5.40322,"is_reserved":false,"is_disabled":false,"rental_uris":{"android":"levelo://app?vid=87be7a17-4302-4965-8336-821c2174ed32","ios":"levelo://app?vid=87be7a17-4302-4965-8336-821c2174ed32"},"vehicle_type_id":"4","last_reported":1728195145,"current_range_meters":38000,"station_id":"ce4bhlh2rcd13ifvqgig","pricing_plan_id":"cebpf4jnsgd1na2vs0mg"},{"bike_id":"c56a7f6d-1c51-4af0-848a-53ce2371dbf4","system_id":"levelo_inurba_marseille","lat":43.31718,"lon":5.42397,"is_reserved":false,"is_disabled":false,"rental_uris":{"android":"levelo://app?vid=c56a7f6d-1c51-4af0-848a-53ce2371dbf4","ios":"levelo://app?vid=c56a7f6d-1c51-4af0-848a-53ce2371dbf4"},"vehicle_type_id":"4","last_reported":1728195145,"current_range_meters":17200,"station_id":"ce4bhp92rcd13ifvqhbg","pricing_plan_id":"cebpf4jnsgd1na2vs0mg"},{"bike_id":"baba7691-81ff-4c7d-90d9-c89eba9696cb","system_id":"levelo_inurba_marseille","lat":43.25928,"lon":5.40908,"is_reserved":false,"is_disabled":false,"rental_uris":{"android":"levelo://app?vid=baba7691-81ff-4c7d-90d9-c89eba9696cb","ios":"levelo://app?vid=baba7691-81ff-4c7d-90d9-c89eba9696cb"},"vehicle_type_id":"4","last_reported":1728195145,"current_range_meters":33200,"station_id":"ce4bhm92rcd13ifvqglg","pricing_plan_id":"cebpf4jnsgd1na2vs0mg"},{"bike_id":"598e7482-d528-4354-8ef8-35deedd58485","system_id":"levelo_inurba_marseille","lat":43.29702,"lon":5.36611,"is_reserved":false,"is_disabled":false,"rental_uris":{"android":"levelo://app?vid=598e7482-d528-4354-8ef8-35deedd58485","ios":"levelo://app?vid=598e7482-d528-4354-8ef8-35deedd58485"},"vehicle_type_id":"4","last_reported":1728195145,"current_range_meters":24800,"station_id":"ce4bgn12rcd13ifvqbt0","pricing_plan_id":"cebpf4jnsgd1na2vs0mg"},{"bike_id":"50b3012e-ec86-40b5-9328-579a7f881b99","system_id":"levelo_inurba_marseille","lat":43.29052,"lon":5.35927,"is_reserved":false,"is_disabled":false,"rental_uris":{"android":"levelo://app?vid=50b3012e-ec86-40b5-9328-579a7f881b99","ios":"levelo://app?vid=50b3012e-ec86-40b5-9328-579a7f881b99"},"vehicle_type_id":"4","last_reported":1728195145,"current_range_meters":24000,"station_id":"ce4bha92rcd13ifvqeg0","pricing_plan_id":"cebpf4jnsgd1na2vs0mg"},{"bike_id":"2b08579d-333c-4fe2-94e8-5ba5b8475885","system_id":"levelo_inurba_marseille","lat":43.27071,"lon":5.42277,"is_reserved":false,"is_disabled":false,"rental_uris":{"android":"levelo://app?vid=2b08579d-333c-4fe2-94e8-5ba5b8475885","ios":"levelo://app?vid=2b08579d-333c-4fe2-94e8-5ba5b8475885"},"vehicle_type_id":"4","last_reported":1728195145,"current_range_meters":39200,"station_id":"ce4bhk92rcd13ifvqgb0","pricing_plan_id":"cebpf4jnsgd1na2vs0mg"},{"bike_id":"614eb7d8-c1d5-4613-837a-0e1e2cba3e2c","system_id":"levelo_inurba_marseille","lat":43.27547,"lon":5.38434,"is_reserved":false,"is_disabled":false,"rental_uris":{"android":"levelo://app?vid=614eb7d8-c1d5-4613-837a-0e1e2cba3e2c","ios":"levelo://app?vid=614eb7d8-c1d5-4613-837a-0e1e2cba3e2c"},"vehicle_type_id":"4","last_reported":1728195145,"current_range_meters":15200,"station_id":"ce4bhh92rcd13ifvqfi0","pricing_plan_id":"cebpf4jnsgd1na2vs0mg"},{"bike_id":"1a4b9bee-9297-474e-8c5a-addba9e72262","system_id":"levelo_inurba_marseille","lat":43.27488,"lon":5.42464,"is_reserved":false,"is_disabled":false,"rental_uris":{"android":"levelo://app?vid=1a4b9bee-9297-474e-8c5a-addba9e72262","ios":"levelo://app?vid=1a4b9bee-9297-474e-8c5a-addba9e72262"},"vehicle_type_id":"4","last_reported":1728195145,"current_range_meters":33200,"station_id":"ce4bhn92rcd13ifvqgrg","pricing_plan_id":"cebpf4jnsgd1na2vs0mg"},{"bike_id":"d23ddbe4-840b-4d6d-8e13-a20922334a77","system_id":"levelo_inurba_marseille","lat":43.32485,"lon":5.3655,"is_reserved":false,"is_disabled":false,"rental_uris":{"android":"levelo://app?vid=d23ddbe4-840b-4d6d-8e13-a20922334a77","ios":"levelo://app?vid=d23ddbe4-840b-4d6d-8e13-a20922334a77"},"vehicle_type_id":"4","last_reported":1728195145,"current_range_meters":39200,"station_id":"ce4bhs12rcd13ifvqhvg","pricing_plan_id":"cebpf4jnsgd1na2vs0mg"},{"bike_id":"1f4cb4f2-7c85-4ee8-a1cd-0fd81fda37bd","system_id":"levelo_inurba_marseille","lat":43.25868,"lon":5.398976,"is_reserved":false,"is_disabled":false,"rental_uris":{"android":"levelo://app?vid=1f4cb4f2-7c85-4ee8-a1cd-0fd81fda37bd","ios":"levelo://app?vid=1f4cb4f2-7c85-4ee8-a1cd-0fd81fda37bd"},"vehicle_type_id":"4","last_reported":1728195145,"current_range_meters":26800,"station_id":"ce4bhl92rcd13ifvqghg","pricing_plan_id":"cebpf4jnsgd1na2vs0mg"},{"bike_id":"4af55307-045f-4c66-a045-a91d88bb4c16","system_id":"levelo_inurba_marseille","lat":43.22931,"lon":5.35376,"is_reserved":false,"is_disabled":false,"rental_uris":{"android":"levelo://app?vid=4af55307-045f-4c66-a045-a91d88bb4c16","ios":"levelo://app?vid=4af55307-045f-4c66-a045-a91d88bb4c16"},"vehicle_type_id":"4","last_reported":1728195145,"current_range_meters":32400,"station_id":"cpo3532slgdg3j2ikp40","pricing_plan_id":"cebpf4jnsgd1na2vs0mg"},{"bike_id":"41523f19-68f1-4c55-8c6a-46199b7f6643","system_id":"levelo_inurba_marseille","lat":43.28075,"lon":5.39649,"is_reserved":false,"is_disabled":false,"rental_uris":{"android":"levelo://app?vid=41523f19-68f1-4c55-8c6a-46199b7f6643","ios":"levelo://app?vid=41523f19-68f1-4c55-8c6a-46199b7f6643"},"vehicle_type_id":"4","last_reported":1728195145,"current_range_meters":38800,"station_id":"ce4bho12rcd13ifvqh2g","pricing_plan_id":"cebpf4jnsgd1na2vs0mg"},{"bike_id":"5edcea2d-7f6d-4562-855c-bbcc004f28f7","system_id":"levelo_inurba_marseille","lat":43.284656,"lon":5.35886,"is_reserved":false,"is_disabled":false,"rental_uris":{"android":"levelo://app?vid=5edcea2d-7f6d-4562-855c-bbcc004f28f7","ios":"levelo://app?vid=5edcea2d-7f6d-4562-855c-bbcc004f28f7"},"vehicle_type_id":"4","last_reported":1728195145,"current_range_meters":38800,"station_id":"ce4bhah2rcd13ifvqei0","pricing_plan_id":"cebpf4jnsgd1na2vs0mg"},{"bike_id":"f1a5d0a5-6c6c-4e53-a5a3-e81641cb0aa0","system_id":"levelo_inurba_marseille","lat":43.28853,"lon":5.3584,"is_reserved":false,"is_disabled":false,"rental_uris":{"android":"levelo://app?vid=f1a5d0a5-6c6c-4e53-a5a3-e81641cb0aa0","ios":"levelo://app?vid=f1a5d0a5-6c6c-4e53-a5a3-e81641cb0aa0"},"vehicle_type_id":"4","last_reported":1728195145,"current_range_meters":30800,"station_id":"ce4bhb12rcd13ifvqem0","pricing_plan_id":"cebpf4jnsgd1na2vs0mg"},{"bike_id":"13a35d1a-1c21-4cdd-9282-17040c700716","system_id":"levelo_inurba_marseille","lat":43.32546,"lon":5.41437,"is_reserved":false,"is_disabled":false,"rental_uris":{"android":"levelo://app?vid=13a35d1a-1c21-4cdd-9282-17040c700716","ios":"levelo://app?vid=13a35d1a-1c21-4cdd-9282-17040c700716"},"vehicle_type_id":"4","last_reported":1728195145,"current_range_meters":36400,"station_id":"ce4bhq12rcd13ifvqhhg","pricing_plan_id":"cebpf4jnsgd1na2vs0mg"},{"bike_id":"5fe9af2d-0282-40cf-ae73-3a1b842e2f4b","system_id":"levelo_inurba_marseille","lat":43.2306,"lon":5.35494,"is_reserved":false,"is_disabled":false,"rental_uris":{"android":"levelo://app?vid=5fe9af2d-0282-40cf-ae73-3a1b842e2f4b","ios":"levelo://app?vid=5fe9af2d-0282-40cf-ae73-3a1b842e2f4b"},"vehicle_type_id":"4","last_reported":1728195145,"current_range_meters":37600,"station_id":"cpo3342slgdg3j2ifvpg","pricing_plan_id":"cebpf4jnsgd1na2vs0mg"},{"bike_id":"235344ae-d40d-4c9e-a986-52bb5c104ce0","system_id":"levelo_inurba_marseille","lat":43.31692,"lon":5.40468,"is_reserved":false,"is_disabled":false,"rental_uris":{"android":"levelo://app?vid=235344ae-d40d-4c9e-a986-52bb5c104ce0","ios":"levelo://app?vid=235344ae-d40d-4c9e-a986-52bb5c104ce0"},"vehicle_type_id":"4","last_reported":1728195145,"current_range_meters":38400,"station_id":"ce4bh012rcd13ifvqd00","pricing_plan_id":"cebpf4jnsgd1na2vs0mg"},{"bike_id":"265b6257-cac5-4700-be81-5022c39ebf02","system_id":"levelo_inurba_marseille","lat":43.21346,"lon":5.3494,"is_reserved":false,"is_disabled":false,"rental_uris":{"android":"levelo://app?vid=265b6257-cac5-4700-be81-5022c39ebf02","ios":"levelo://app?vid=265b6257-cac5-4700-be81-5022c39ebf02"},"vehicle_type_id":"4","last_reported":1728195145,"current_range_meters":33600,"station_id":"crv51consjfaj9uu89c0","pricing_plan_id":"cebpf4jnsgd1na2vs0mg"},{"bike_id":"bcc86089-648b-4021-93be-0a8177bd771e","system_id":"levelo_inurba_marseille","lat":43.27815,"lon":5.40715,"is_reserved":false,"is_disabled":false,"rental_uris":{"android":"levelo://app?vid=bcc86089-648b-4021-93be-0a8177bd771e","ios":"levelo://app?vid=bcc86089-648b-4021-93be-0a8177bd771e"},"vehicle_type_id":"4","last_reported":1728195145,"current_range_meters":18800,"station_id":"ce4bhnh2rcd13ifvqgtg","pricing_plan_id":"cebpf4jnsgd1na2vs0mg"},{"bike_id":"545fe2fc-8e70-4b4a-a83b-91c9c5713a74","system_id":"levelo_inurba_marseille","lat":43.25574,"lon":5.38229,"is_reserved":false,"is_disabled":false,"rental_uris":{"android":"levelo://app?vid=545fe2fc-8e70-4b4a-a83b-91c9c5713a74","ios":"levelo://app?vid=545fe2fc-8e70-4b4a-a83b-91c9c5713a74"},"vehicle_type_id":"4","last_reported":1728195145,"current_range_meters":27200,"station_id":"ce4bhih2rcd13ifvqfs0","pricing_plan_id":"cebpf4jnsgd1na2vs0mg"},{"bike_id":"ec6e251e-99d1-4ac4-a075-545dbd029bdc","system_id":"levelo_inurba_marseille","lat":43.28907,"lon":5.36209,"is_reserved":false,"is_disabled":false,"rental_uris":{"android":"levelo://app?vid=ec6e251e-99d1-4ac4-a075-545dbd029bdc","ios":"levelo://app?vid=ec6e251e-99d1-4ac4-a075-545dbd029bdc"},"vehicle_type_id":"4","last_reported":1728195145,"current_range_meters":30400,"station_id":"","pricing_plan_id":"cebpf4jnsgd1na2vs0mg"},{"bike_id":"32de8690-8902-45d9-9261-1a5a54055b39","system_id":"levelo_inurba_marseille","lat":43.33025,"lon":5.39035,"is_reserved":false,"is_disabled":false,"rental_uris":{"android":"levelo://app?vid=32de8690-8902-45d9-9261-1a5a54055b39","ios":"levelo://app?vid=32de8690-8902-45d9-9261-1a5a54055b39"},"vehicle_type_id":"4","last_reported":1728195145,"current_range_meters":38400,"station_id":"ce4bhr92rcd13ifvqhrg","pricing_plan_id":"cebpf4jnsgd1na2vs0mg"},{"bike_id":"97ef281f-c717-429c-a078-d6a368902950","system_id":"levelo_inurba_marseille","lat":43.21355,"lon":5.34935,"is_reserved":false,"is_disabled":false,"rental_uris":{"android":"levelo://app?vid=97ef281f-c717-429c-a078-d6a368902950","ios":"levelo://app?vid=97ef281f-c717-429c-a078-d6a368902950"},"vehicle_type_id":"4","last_reported":1728195145,"current_range_meters":26000,"station_id":"crv51consjfaj9uu89c0","pricing_plan_id":"cebpf4jnsgd1na2vs0mg"},{"bike_id":"6a4acb12-a5ac-4a0e-a8f4-746f667028fc","system_id":"levelo_inurba_marseille","lat":43.29256,"lon":5.40913,"is_reserved":false,"is_disabled":false,"rental_uris":{"android":"levelo://app?vid=6a4acb12-a5ac-4a0e-a8f4-746f667028fc","ios":"levelo://app?vid=6a4acb12-a5ac-4a0e-a8f4-746f667028fc"},"vehicle_type_id":"4","last_reported":1728195145,"current_range_meters":36800,"station_id":"ce4bh192rcd13ifvqdc0","pricing_plan_id":"cebpf4jnsgd1na2vs0mg"},{"bike_id":"f41af709-4741-45bf-a75a-e5e2fdef89e3","system_id":"levelo_inurba_marseille","lat":43.28731,"lon":5.36082,"is_reserved":false,"is_disabled":false,"rental_uris":{"android":"levelo://app?vid=f41af709-4741-45bf-a75a-e5e2fdef89e3","ios":"levelo://app?vid=f41af709-4741-45bf-a75a-e5e2fdef89e3"},"vehicle_type_id":"4","last_reported":1728195145,"current_range_meters":37600,"station_id":"cki0cbj6b192h4jlfktg","pricing_plan_id":"cebpf4jnsgd1na2vs0mg"},{"bike_id":"bf73699b-52ad-4472-b285-2ca85af7951b","system_id":"levelo_inurba_marseille","lat":43.28718,"lon":5.37944,"is_reserved":false,"is_disabled":false,"rental_uris":{"android":"levelo://app?vid=bf73699b-52ad-4472-b285-2ca85af7951b","ios":"levelo://app?vid=bf73699b-52ad-4472-b285-2ca85af7951b"},"vehicle_type_id":"4","last_reported":1728195145,"current_range_meters":12000,"station_id":"ce4bh9p2rcd13ifvqec0","pricing_plan_id":"cebpf4jnsgd1na2vs0mg"},{"bike_id":"aea1dc06-88a2-43cb-85cc-4db4d5c60f09","system_id":"levelo_inurba_marseille","lat":43.31334,"lon":5.39686,"is_reserved":false,"is_disabled":false,"rental_uris":{"android":"levelo://app?vid=aea1dc06-88a2-43cb-85cc-4db4d5c60f09","ios":"levelo://app?vid=aea1dc06-88a2-43cb-85cc-4db4d5c60f09"},"vehicle_type_id":"4","last_reported":1728195145,"current_range_meters":37600,"station_id":"ce4bgvp2rcd13ifvqcu0","pricing_plan_id":"cebpf4jnsgd1na2vs0mg"},{"bike_id":"2f50a232-513a-4b2b-8cf5-d516500efb84","system_id":"levelo_inurba_marseille","lat":43.229387,"lon":5.353527,"is_reserved":false,"is_disabled":false,"rental_uris":{"android":"levelo://app?vid=2f50a232-513a-4b2b-8cf5-d516500efb84","ios":"levelo://app?vid=2f50a232-513a-4b2b-8cf5-d516500efb84"},"vehicle_type_id":"4","last_reported":1728195145,"current_range_meters":4800,"station_id":"cpo3532slgdg3j2ikp40","pricing_plan_id":"cebpf4jnsgd1na2vs0mg"},{"bike_id":"4dd07eeb-bcd6-4372-b474-9207e1e1771d","system_id":"levelo_inurba_marseille","lat":43.30795,"lon":5.4352,"is_reserved":false,"is_disabled":false,"rental_uris":{"android":"levelo://app?vid=4dd07eeb-bcd6-4372-b474-9207e1e1771d","ios":"levelo://app?vid=4dd07eeb-bcd6-4372-b474-9207e1e1771d"},"vehicle_type_id":"4","last_reported":1728195145,"current_range_meters":10800,"station_id":"ce4bhph2rcd13ifvqheg","pricing_plan_id":"cebpf4jnsgd1na2vs0mg"},{"bike_id":"c437175d-0e29-478f-bc71-93de3b699267","system_id":"levelo_inurba_marseille","lat":43.279416,"lon":5.410393,"is_reserved":false,"is_disabled":false,"rental_uris":{"android":"levelo://app?vid=c437175d-0e29-478f-bc71-93de3b699267","ios":"levelo://app?vid=c437175d-0e29-478f-bc71-93de3b699267"},"vehicle_type_id":"4","last_reported":1728195145,"current_range_meters":13600,"station_id":"ce4bhnp2rcd13ifvqh0g","pricing_plan_id":"cebpf4jnsgd1na2vs0mg"},{"bike_id":"a79cc37e-cb1a-479a-99cf-70bd4e6e70b7","system_id":"levelo_inurba_marseille","lat":43.28617,"lon":5.35102,"is_reserved":false,"is_disabled":false,"rental_uris":{"android":"levelo://app?vid=a79cc37e-cb1a-479a-99cf-70bd4e6e70b7","ios":"levelo://app?vid=a79cc37e-cb1a-479a-99cf-70bd4e6e70b7"},"vehicle_type_id":"4","last_reported":1728195145,"current_range_meters":19200,"station_id":"ce4bhch2rcd13ifvqeug","pricing_plan_id":"cebpf4jnsgd1na2vs0mg"},{"bike_id":"be56f1a4-275f-4091-81c4-2d7d1e9dc326","system_id":"levelo_inurba_marseille","lat":43.2815,"lon":5.42635,"is_reserved":false,"is_disabled":false,"rental_uris":{"android":"levelo://app?vid=be56f1a4-275f-4091-81c4-2d7d1e9dc326","ios":"levelo://app?vid=be56f1a4-275f-4091-81c4-2d7d1e9dc326"},"vehicle_type_id":"4","last_reported":1728195145,"current_range_meters":6400,"station_id":"ce4bhnh2rcd13ifvqgug","pricing_plan_id":"cebpf4jnsgd1na2vs0mg"},{"bike_id":"001a42b9-c901-452e-9c8a-fb18f31f236d","system_id":"levelo_inurba_marseille","lat":43.33609,"lon":5.4103,"is_reserved":false,"is_disabled":false,"rental_uris":{"android":"levelo://app?vid=001a42b9-c901-452e-9c8a-fb18f31f236d","ios":"levelo://app?vid=001a42b9-c901-452e-9c8a-fb18f31f236d"},"vehicle_type_id":"4","last_reported":1728195145,"current_range_meters":6000,"station_id":"ce4bhqh2rcd13ifvqhmg","pricing_plan_id":"cebpf4jnsgd1na2vs0mg"},{"bike_id":"83385b7d-eb42-46d6-a462-2afba266480d","system_id":"levelo_inurba_marseille","lat":43.22932,"lon":5.35377,"is_reserved":false,"is_disabled":false,"rental_uris":{"android":"levelo://app?vid=83385b7d-eb42-46d6-a462-2afba266480d","ios":"levelo://app?vid=83385b7d-eb42-46d6-a462-2afba266480d"},"vehicle_type_id":"4","last_reported":1728195145,"current_range_meters":36000,"station_id":"cpo3532slgdg3j2ikp40","pricing_plan_id":"cebpf4jnsgd1na2vs0mg"},{"bike_id":"05ddab4b-2219-453e-b9f6-9211ae63c830","system_id":"levelo_inurba_marseille","lat":43.21343,"lon":5.34935,"is_reserved":false,"is_disabled":false,"rental_uris":{"android":"levelo://app?vid=05ddab4b-2219-453e-b9f6-9211ae63c830","ios":"levelo://app?vid=05ddab4b-2219-453e-b9f6-9211ae63c830"},"vehicle_type_id":"4","last_reported":1728195145,"current_range_meters":35200,"station_id":"crv51consjfaj9uu89c0","pricing_plan_id":"cebpf4jnsgd1na2vs0mg"},{"bike_id":"efcd7dc6-cf1b-49b9-868e-e23f6839d189","system_id":"levelo_inurba_marseille","lat":43.27835,"lon":5.39199,"is_reserved":false,"is_disabled":false,"rental_uris":{"android":"levelo://app?vid=efcd7dc6-cf1b-49b9-868e-e23f6839d189","ios":"levelo://app?vid=efcd7dc6-cf1b-49b9-868e-e23f6839d189"},"vehicle_type_id":"4","last_reported":1728195145,"current_range_meters":6400,"station_id":"ce4bhjp2rcd13ifvqga0","pricing_plan_id":"cebpf4jnsgd1na2vs0mg"},{"bike_id":"1a978a89-dbeb-45cc-8c83-bb4f90d46fcc","system_id":"levelo_inurba_marseille","lat":43.31699,"lon":5.40461,"is_reserved":false,"is_disabled":false,"rental_uris":{"android":"levelo://app?vid=1a978a89-dbeb-45cc-8c83-bb4f90d46fcc","ios":"levelo://app?vid=1a978a89-dbeb-45cc-8c83-bb4f90d46fcc"},"vehicle_type_id":"4","last_reported":1728195145,"current_range_meters":38800,"station_id":"ce4bh012rcd13ifvqd00","pricing_plan_id":"cebpf4jnsgd1na2vs0mg"},{"bike_id":"2223b6cf-60c6-41bf-b1cd-7d09873a1aa5","system_id":"levelo_inurba_marseille","lat":43.26065,"lon":5.39394,"is_reserved":false,"is_disabled":false,"rental_uris":{"android":"levelo://app?vid=2223b6cf-60c6-41bf-b1cd-7d09873a1aa5","ios":"levelo://app?vid=2223b6cf-60c6-41bf-b1cd-7d09873a1aa5"},"vehicle_type_id":"4","last_reported":1728195145,"current_range_meters":38000,"station_id":"ce4bhh92rcd13ifvqfj0","pricing_plan_id":"cebpf4jnsgd1na2vs0mg"},{"bike_id":"d0ca1193-12e8-4ac2-9a60-4ae6e0040151","system_id":"levelo_inurba_marseille","lat":43.22933,"lon":5.35387,"is_reserved":false,"is_disabled":false,"rental_uris":{"android":"levelo://app?vid=d0ca1193-12e8-4ac2-9a60-4ae6e0040151","ios":"levelo://app?vid=d0ca1193-12e8-4ac2-9a60-4ae6e0040151"},"vehicle_type_id":"4","last_reported":1728195145,"current_range_meters":29600,"station_id":"cpo3532slgdg3j2ikp40","pricing_plan_id":"cebpf4jnsgd1na2vs0mg"},{"bike_id":"d705d5b1-757b-4816-977e-42560dc6957c","system_id":"levelo_inurba_marseille","lat":43.30894,"lon":5.39636,"is_reserved":false,"is_disabled":false,"rental_uris":{"android":"levelo://app?vid=d705d5b1-757b-4816-977e-42560dc6957c","ios":"levelo://app?vid=d705d5b1-757b-4816-977e-42560dc6957c"},"vehicle_type_id":"4","last_reported":1728195145,"current_range_meters":32800,"station_id":"ce4bh012rcd13ifvqcv0","pricing_plan_id":"cebpf4jnsgd1na2vs0mg"},{"bike_id":"7e4b9590-3379-4154-a614-86d758234e67","system_id":"levelo_inurba_marseille","lat":43.25716,"lon":5.4111,"is_reserved":false,"is_disabled":false,"rental_uris":{"android":"levelo://app?vid=7e4b9590-3379-4154-a614-86d758234e67","ios":"levelo://app?vid=7e4b9590-3379-4154-a614-86d758234e67"},"vehicle_type_id":"4","last_reported":1728195145,"current_range_meters":38000,"station_id":"ce4bhkp2rcd13ifvqgd0","pricing_plan_id":"cebpf4jnsgd1na2vs0mg"},{"bike_id":"6b4b48f5-aae9-4d89-aeb6-ea751b5d55a9","system_id":"levelo_inurba_marseille","lat":43.29172,"lon":5.37135,"is_reserved":false,"is_disabled":false,"rental_uris":{"android":"levelo://app?vid=6b4b48f5-aae9-4d89-aeb6-ea751b5d55a9","ios":"levelo://app?vid=6b4b48f5-aae9-4d89-aeb6-ea751b5d55a9"},"vehicle_type_id":"4","last_reported":1728195145,"current_range_meters":38800,"station_id":"ce4bha92rcd13ifvqeh0","pricing_plan_id":"cebpf4jnsgd1na2vs0mg"},{"bike_id":"d3cc8bea-7cb6-43ec-8b92-9614b49f4dba","system_id":"levelo_inurba_marseille","lat":43.30962,"lon":5.39062,"is_reserved":false,"is_disabled":false,"rental_uris":{"android":"levelo://app?vid=d3cc8bea-7cb6-43ec-8b92-9614b49f4dba","ios":"levelo://app?vid=d3cc8bea-7cb6-43ec-8b92-9614b49f4dba"},"vehicle_type_id":"4","last_reported":1728195145,"current_range_meters":14000,"station_id":"ce4bgup2rcd13ifvqco0","pricing_plan_id":"cebpf4jnsgd1na2vs0mg"},{"bike_id":"480adf17-48da-4a88-9fcd-dcec4e853ca2","system_id":"levelo_inurba_marseille","lat":43.26791,"lon":5.39412,"is_reserved":false,"is_disabled":false,"rental_uris":{"android":"levelo://app?vid=480adf17-48da-4a88-9fcd-dcec4e853ca2","ios":"levelo://app?vid=480adf17-48da-4a88-9fcd-dcec4e853ca2"},"vehicle_type_id":"4","last_reported":1728195145,"current_range_meters":38800,"station_id":"ce4bhh12rcd13ifvqfg0","pricing_plan_id":"cebpf4jnsgd1na2vs0mg"},{"bike_id":"8681938f-9e36-4a3b-991e-8daa28e998ad","system_id":"levelo_inurba_marseille","lat":43.28086,"lon":5.3965,"is_reserved":false,"is_disabled":false,"rental_uris":{"android":"levelo://app?vid=8681938f-9e36-4a3b-991e-8daa28e998ad","ios":"levelo://app?vid=8681938f-9e36-4a3b-991e-8daa28e998ad"},"vehicle_type_id":"4","last_reported":1728195145,"current_range_meters":38000,"station_id":"ce4bho12rcd13ifvqh2g","pricing_plan_id":"cebpf4jnsgd1na2vs0mg"},{"bike_id":"4197ef8d-f35f-44aa-b27d-dc6b343bfa7a","system_id":"levelo_inurba_marseille","lat":43.2781,"lon":5.40707,"is_reserved":false,"is_disabled":false,"rental_uris":{"android":"levelo://app?vid=4197ef8d-f35f-44aa-b27d-dc6b343bfa7a","ios":"levelo://app?vid=4197ef8d-f35f-44aa-b27d-dc6b343bfa7a"},"vehicle_type_id":"4","last_reported":1728195145,"current_range_meters":38000,"station_id":"ce4bhnh2rcd13ifvqgtg","pricing_plan_id":"cebpf4jnsgd1na2vs0mg"},{"bike_id":"1bd2f7ec-d06e-4723-b3c8-18546fc91d7d","system_id":"levelo_inurba_marseille","lat":43.3127,"lon":5.40169,"is_reserved":false,"is_disabled":false,"rental_uris":{"android":"levelo://app?vid=1bd2f7ec-d06e-4723-b3c8-18546fc91d7d","ios":"levelo://app?vid=1bd2f7ec-d06e-4723-b3c8-18546fc91d7d"},"vehicle_type_id":"4","last_reported":1728195145,"current_range_meters":8400,"station_id":"ce4bh092rcd13ifvqd30","pricing_plan_id":"cebpf4jnsgd1na2vs0mg"},{"bike_id":"888ae7f1-0276-451b-9dc6-f664274205f2","system_id":"levelo_inurba_marseille","lat":43.27808,"lon":5.40707,"is_reserved":false,"is_disabled":false,"rental_uris":{"android":"levelo://app?vid=888ae7f1-0276-451b-9dc6-f664274205f2","ios":"levelo://app?vid=888ae7f1-0276-451b-9dc6-f664274205f2"},"vehicle_type_id":"4","last_reported":1728195145,"current_range_meters":30800,"station_id":"ce4bhnh2rcd13ifvqgtg","pricing_plan_id":"cebpf4jnsgd1na2vs0mg"},{"bike_id":"061f43e8-1fd3-4d05-baa1-0049033c61e2","system_id":"levelo_inurba_marseille","lat":43.30152,"lon":5.39853,"is_reserved":false,"is_disabled":false,"rental_uris":{"android":"levelo://app?vid=061f43e8-1fd3-4d05-baa1-0049033c61e2","ios":"levelo://app?vid=061f43e8-1fd3-4d05-baa1-0049033c61e2"},"vehicle_type_id":"4","last_reported":1728195145,"current_range_meters":29600,"station_id":"ce4bh0h2rcd13ifvqd40","pricing_plan_id":"cebpf4jnsgd1na2vs0mg"},{"bike_id":"9ca4ad83-eaa6-4426-baca-3a3e8322b7ea","system_id":"levelo_inurba_marseille","lat":43.279052,"lon":5.380016,"is_reserved":false,"is_disabled":false,"rental_uris":{"android":"levelo://app?vid=9ca4ad83-eaa6-4426-baca-3a3e8322b7ea","ios":"levelo://app?vid=9ca4ad83-eaa6-4426-baca-3a3e8322b7ea"},"vehicle_type_id":"4","last_reported":1728195145,"current_range_meters":36400,"station_id":"ce4bhf92rcd13ifvqf50","pricing_plan_id":"cebpf4jnsgd1na2vs0mg"},{"bike_id":"edd3d55d-61c7-4fec-aa60-0383480c2666","system_id":"levelo_inurba_marseille","lat":43.27831,"lon":5.39212,"is_reserved":false,"is_disabled":false,"rental_uris":{"android":"levelo://app?vid=edd3d55d-61c7-4fec-aa60-0383480c2666","ios":"levelo://app?vid=edd3d55d-61c7-4fec-aa60-0383480c2666"},"vehicle_type_id":"4","last_reported":1728195145,"current_range_meters":36800,"station_id":"ce4bhjp2rcd13ifvqga0","pricing_plan_id":"cebpf4jnsgd1na2vs0mg"},{"bike_id":"6ff38fbb-3e1f-4d59-a7a6-ab257495a9ff","system_id":"levelo_inurba_marseille","lat":43.25084,"lon":5.39516,"is_reserved":false,"is_disabled":false,"rental_uris":{"android":"levelo://app?vid=6ff38fbb-3e1f-4d59-a7a6-ab257495a9ff","ios":"levelo://app?vid=6ff38fbb-3e1f-4d59-a7a6-ab257495a9ff"},"vehicle_type_id":"4","last_reported":1728195145,"current_range_meters":11200,"station_id":"ce4bhm12rcd13ifvqgkg","pricing_plan_id":"cebpf4jnsgd1na2vs0mg"},{"bike_id":"65c59103-0b30-4b4d-8ddd-ed1931c22228","system_id":"levelo_inurba_marseille","lat":43.30345,"lon":5.41879,"is_reserved":false,"is_disabled":false,"rental_uris":{"android":"levelo://app?vid=65c59103-0b30-4b4d-8ddd-ed1931c22228","ios":"levelo://app?vid=65c59103-0b30-4b4d-8ddd-ed1931c22228"},"vehicle_type_id":"4","last_reported":1728195145,"current_range_meters":36000,"station_id":"ce4bhop2rcd13ifvqh7g","pricing_plan_id":"cebpf4jnsgd1na2vs0mg"},{"bike_id":"2e823ca9-acad-4e59-b240-5790d27f1ff5","system_id":"levelo_inurba_marseille","lat":43.27938,"lon":5.41041,"is_reserved":false,"is_disabled":false,"rental_uris":{"android":"levelo://app?vid=2e823ca9-acad-4e59-b240-5790d27f1ff5","ios":"levelo://app?vid=2e823ca9-acad-4e59-b240-5790d27f1ff5"},"vehicle_type_id":"4","last_reported":1728195145,"current_range_meters":24400,"station_id":"ce4bhnp2rcd13ifvqh0g","pricing_plan_id":"cebpf4jnsgd1na2vs0mg"},{"bike_id":"3e992ab3-37c4-4f38-be5c-aeaea204ff4c","system_id":"levelo_inurba_marseille","lat":43.30141,"lon":5.39877,"is_reserved":false,"is_disabled":false,"rental_uris":{"android":"levelo://app?vid=3e992ab3-37c4-4f38-be5c-aeaea204ff4c","ios":"levelo://app?vid=3e992ab3-37c4-4f38-be5c-aeaea204ff4c"},"vehicle_type_id":"4","last_reported":1728195145,"current_range_meters":22000,"station_id":"ce4bh0h2rcd13ifvqd40","pricing_plan_id":"cebpf4jnsgd1na2vs0mg"},{"bike_id":"2223e4a7-4bbf-4607-a998-26842e0403bb","system_id":"levelo_inurba_marseille","lat":43.295567,"lon":5.422918,"is_reserved":false,"is_disabled":false,"rental_uris":{"android":"levelo://app?vid=2223e4a7-4bbf-4607-a998-26842e0403bb","ios":"levelo://app?vid=2223e4a7-4bbf-4607-a998-26842e0403bb"},"vehicle_type_id":"4","last_reported":1728195145,"current_range_meters":28400,"station_id":"ce4bhph2rcd13ifvqhdg","pricing_plan_id":"cebpf4jnsgd1na2vs0mg"},{"bike_id":"48cfda74-5ea4-41e1-bcac-d6e207673b94","system_id":"levelo_inurba_marseille","lat":43.26058,"lon":5.39396,"is_reserved":false,"is_disabled":false,"rental_uris":{"android":"levelo://app?vid=48cfda74-5ea4-41e1-bcac-d6e207673b94","ios":"levelo://app?vid=48cfda74-5ea4-41e1-bcac-d6e207673b94"},"vehicle_type_id":"4","last_reported":1728195145,"current_range_meters":37600,"station_id":"ce4bhh92rcd13ifvqfj0","pricing_plan_id":"cebpf4jnsgd1na2vs0mg"},{"bike_id":"4c890982-9552-4059-b170-81698c459747","system_id":"levelo_inurba_marseille","lat":43.2872,"lon":5.36085,"is_reserved":false,"is_disabled":false,"rental_uris":{"android":"levelo://app?vid=4c890982-9552-4059-b170-81698c459747","ios":"levelo://app?vid=4c890982-9552-4059-b170-81698c459747"},"vehicle_type_id":"4","last_reported":1728195145,"current_range_meters":38800,"station_id":"cki0cbj6b192h4jlfktg","pricing_plan_id":"cebpf4jnsgd1na2vs0mg"},{"bike_id":"cc3075c7-c54d-44a6-b275-dc4c69848582","system_id":"levelo_inurba_marseille","lat":43.251116,"lon":5.403205,"is_reserved":false,"is_disabled":false,"rental_uris":{"android":"levelo://app?vid=cc3075c7-c54d-44a6-b275-dc4c69848582","ios":"levelo://app?vid=cc3075c7-c54d-44a6-b275-dc4c69848582"},"vehicle_type_id":"4","last_reported":1728195145,"current_range_meters":39200,"station_id":"ce4bhlh2rcd13ifvqgig","pricing_plan_id":"cebpf4jnsgd1na2vs0mg"},{"bike_id":"9cf96265-f80f-4c35-9d1a-b9df73ba3727","system_id":"levelo_inurba_marseille","lat":43.28002,"lon":5.40006,"is_reserved":false,"is_disabled":false,"rental_uris":{"android":"levelo://app?vid=9cf96265-f80f-4c35-9d1a-b9df73ba3727","ios":"levelo://app?vid=9cf96265-f80f-4c35-9d1a-b9df73ba3727"},"vehicle_type_id":"4","last_reported":1728195145,"current_range_meters":3200,"station_id":"ce4bho92rcd13ifvqh4g","pricing_plan_id":"cebpf4jnsgd1na2vs0mg"},{"bike_id":"7e764f2b-b5f9-4a10-b1be-189838b6a6be","system_id":"levelo_inurba_marseille","lat":43.273199,"lon":5.390896,"is_reserved":false,"is_disabled":false,"rental_uris":{"android":"levelo://app?vid=7e764f2b-b5f9-4a10-b1be-189838b6a6be","ios":"levelo://app?vid=7e764f2b-b5f9-4a10-b1be-189838b6a6be"},"vehicle_type_id":"4","last_reported":1728195145,"current_range_meters":38800,"station_id":"ce4bhgp2rcd13ifvqfe0","pricing_plan_id":"cebpf4jnsgd1na2vs0mg"},{"bike_id":"490889b1-cee9-4892-9db5-299333956c90","system_id":"levelo_inurba_marseille","lat":43.34149,"lon":5.40904,"is_reserved":false,"is_disabled":false,"rental_uris":{"android":"levelo://app?vid=490889b1-cee9-4892-9db5-299333956c90","ios":"levelo://app?vid=490889b1-cee9-4892-9db5-299333956c90"},"vehicle_type_id":"4","last_reported":1728195145,"current_range_meters":38000,"station_id":"ce4bhqh2rcd13ifvqhlg","pricing_plan_id":"cebpf4jnsgd1na2vs0mg"},{"bike_id":"e327488f-a7a9-4538-8678-484286197957","system_id":"levelo_inurba_marseille","lat":43.2737,"lon":5.3626,"is_reserved":false,"is_disabled":false,"rental_uris":{"android":"levelo://app?vid=e327488f-a7a9-4538-8678-484286197957","ios":"levelo://app?vid=e327488f-a7a9-4538-8678-484286197957"},"vehicle_type_id":"4","last_reported":1728195145,"current_range_meters":37600,"station_id":"ce4bhbh2rcd13ifvqeo0","pricing_plan_id":"cebpf4jnsgd1na2vs0mg"},{"bike_id":"0f82228f-7977-47bb-a5b0-3a2e6b4be05b","system_id":"levelo_inurba_marseille","lat":43.31327,"lon":5.39689,"is_reserved":false,"is_disabled":false,"rental_uris":{"android":"levelo://app?vid=0f82228f-7977-47bb-a5b0-3a2e6b4be05b","ios":"levelo://app?vid=0f82228f-7977-47bb-a5b0-3a2e6b4be05b"},"vehicle_type_id":"4","last_reported":1728195145,"current_range_meters":32800,"station_id":"ce4bgvp2rcd13ifvqcu0","pricing_plan_id":"cebpf4jnsgd1na2vs0mg"},{"bike_id":"85ef83d9-fec6-405f-8a01-7a2d5ed9a2a1","system_id":"levelo_inurba_marseille","lat":43.29246,"lon":5.40907,"is_reserved":false,"is_disabled":false,"rental_uris":{"android":"levelo://app?vid=85ef83d9-fec6-405f-8a01-7a2d5ed9a2a1","ios":"levelo://app?vid=85ef83d9-fec6-405f-8a01-7a2d5ed9a2a1"},"vehicle_type_id":"4","last_reported":1728195145,"current_range_meters":27200,"station_id":"ce4bh192rcd13ifvqdc0","pricing_plan_id":"cebpf4jnsgd1na2vs0mg"},{"bike_id":"13e20207-4477-4c57-8b4a-9c9b806407cb","system_id":"levelo_inurba_marseille","lat":43.24167,"lon":5.36392,"is_reserved":false,"is_disabled":false,"rental_uris":{"android":"levelo://app?vid=13e20207-4477-4c57-8b4a-9c9b806407cb","ios":"levelo://app?vid=13e20207-4477-4c57-8b4a-9c9b806407cb"},"vehicle_type_id":"4","last_reported":1728195145,"current_range_meters":34000,"station_id":"cpo36qri1sfpv3e86is0","pricing_plan_id":"cebpf4jnsgd1na2vs0mg"},{"bike_id":"45868232-c3f8-4a17-b117-d379b6ec0c72","system_id":"levelo_inurba_marseille","lat":43.28859,"lon":5.35847,"is_reserved":false,"is_disabled":false,"rental_uris":{"android":"levelo://app?vid=45868232-c3f8-4a17-b117-d379b6ec0c72","ios":"levelo://app?vid=45868232-c3f8-4a17-b117-d379b6ec0c72"},"vehicle_type_id":"4","last_reported":1728195145,"current_range_meters":17600,"station_id":"ce4bhb12rcd13ifvqem0","pricing_plan_id":"cebpf4jnsgd1na2vs0mg"},{"bike_id":"c7b22f6a-f926-48b5-9b6e-741f1149ce43","system_id":"levelo_inurba_marseille","lat":43.291991,"lon":5.393196,"is_reserved":false,"is_disabled":false,"rental_uris":{"android":"levelo://app?vid=c7b22f6a-f926-48b5-9b6e-741f1149ce43","ios":"levelo://app?vid=c7b22f6a-f926-48b5-9b6e-741f1149ce43"},"vehicle_type_id":"4","last_reported":1728195145,"current_range_meters":31200,"station_id":"ce4bh192rcd13ifvqdd0","pricing_plan_id":"cebpf4jnsgd1na2vs0mg"},{"bike_id":"256fa177-60ee-45a2-a2aa-de47baeac3b4","system_id":"levelo_inurba_marseille","lat":43.32221,"lon":5.413485,"is_reserved":false,"is_disabled":false,"rental_uris":{"android":"levelo://app?vid=256fa177-60ee-45a2-a2aa-de47baeac3b4","ios":"levelo://app?vid=256fa177-60ee-45a2-a2aa-de47baeac3b4"},"vehicle_type_id":"4","last_reported":1728195145,"current_range_meters":38000,"station_id":"","pricing_plan_id":"cebpf4jnsgd1na2vs0mg"},{"bike_id":"389cdf32-7eb1-4775-914a-6dc8318d3538","system_id":"levelo_inurba_marseille","lat":43.267765,"lon":5.394225,"is_reserved":false,"is_disabled":false,"rental_uris":{"android":"levelo://app?vid=389cdf32-7eb1-4775-914a-6dc8318d3538","ios":"levelo://app?vid=389cdf32-7eb1-4775-914a-6dc8318d3538"},"vehicle_type_id":"4","last_reported":1728195145,"current_range_meters":30800,"station_id":"ce4bhh12rcd13ifvqfg0","pricing_plan_id":"cebpf4jnsgd1na2vs0mg"},{"bike_id":"98fab8a1-a284-40da-8df2-14f71a37d57b","system_id":"levelo_inurba_marseille","lat":43.21352,"lon":5.34937,"is_reserved":false,"is_disabled":false,"rental_uris":{"android":"levelo://app?vid=98fab8a1-a284-40da-8df2-14f71a37d57b","ios":"levelo://app?vid=98fab8a1-a284-40da-8df2-14f71a37d57b"},"vehicle_type_id":"4","last_reported":1728195145,"current_range_meters":34000,"station_id":"crv51consjfaj9uu89c0","pricing_plan_id":"cebpf4jnsgd1na2vs0mg"},{"bike_id":"168fdd0d-638b-492d-b1ce-678f05dbeac9","system_id":"levelo_inurba_marseille","lat":43.28729,"lon":5.36094,"is_reserved":false,"is_disabled":false,"rental_uris":{"android":"levelo://app?vid=168fdd0d-638b-492d-b1ce-678f05dbeac9","ios":"levelo://app?vid=168fdd0d-638b-492d-b1ce-678f05dbeac9"},"vehicle_type_id":"4","last_reported":1728195145,"current_range_meters":38800,"station_id":"cki0cbj6b192h4jlfktg","pricing_plan_id":"cebpf4jnsgd1na2vs0mg"},{"bike_id":"c1d151d5-477d-4c99-a567-ac040df1816b","system_id":"levelo_inurba_marseille","lat":43.29167,"lon":5.37138,"is_reserved":false,"is_disabled":false,"rental_uris":{"android":"levelo://app?vid=c1d151d5-477d-4c99-a567-ac040df1816b","ios":"levelo://app?vid=c1d151d5-477d-4c99-a567-ac040df1816b"},"vehicle_type_id":"4","last_reported":1728195145,"current_range_meters":38800,"station_id":"ce4bha92rcd13ifvqeh0","pricing_plan_id":"cebpf4jnsgd1na2vs0mg"},{"bike_id":"8da5e341-6cab-4468-9790-0734e5cf3e0b","system_id":"levelo_inurba_marseille","lat":43.2408,"lon":5.37752,"is_reserved":false,"is_disabled":false,"rental_uris":{"android":"levelo://app?vid=8da5e341-6cab-4468-9790-0734e5cf3e0b","ios":"levelo://app?vid=8da5e341-6cab-4468-9790-0734e5cf3e0b"},"vehicle_type_id":"4","last_reported":1728195145,"current_range_meters":38800,"station_id":"ce4bhnp2rcd13ifvqgvg","pricing_plan_id":"cebpf4jnsgd1na2vs0mg"},{"bike_id":"6bf16a2a-f63b-47d9-9110-1efaed25b77a","system_id":"levelo_inurba_marseille","lat":43.2293,"lon":5.35378,"is_reserved":false,"is_disabled":false,"rental_uris":{"android":"levelo://app?vid=6bf16a2a-f63b-47d9-9110-1efaed25b77a","ios":"levelo://app?vid=6bf16a2a-f63b-47d9-9110-1efaed25b77a"},"vehicle_type_id":"4","last_reported":1728195145,"current_range_meters":36000,"station_id":"cpo3532slgdg3j2ikp40","pricing_plan_id":"cebpf4jnsgd1na2vs0mg"},{"bike_id":"428f793c-4121-423c-8663-6edf254533e0","system_id":"levelo_inurba_marseille","lat":43.27568,"lon":5.38429,"is_reserved":false,"is_disabled":false,"rental_uris":{"android":"levelo://app?vid=428f793c-4121-423c-8663-6edf254533e0","ios":"levelo://app?vid=428f793c-4121-423c-8663-6edf254533e0"},"vehicle_type_id":"4","last_reported":1728195145,"current_range_meters":39200,"station_id":"ce4bhh92rcd13ifvqfi0","pricing_plan_id":"cebpf4jnsgd1na2vs0mg"},{"bike_id":"e5eec4b9-9a76-4196-ac0c-40b845f94b12","system_id":"levelo_inurba_marseille","lat":43.30949,"lon":5.39065,"is_reserved":false,"is_disabled":false,"rental_uris":{"android":"levelo://app?vid=e5eec4b9-9a76-4196-ac0c-40b845f94b12","ios":"levelo://app?vid=e5eec4b9-9a76-4196-ac0c-40b845f94b12"},"vehicle_type_id":"4","last_reported":1728195145,"current_range_meters":37600,"station_id":"ce4bgup2rcd13ifvqco0","pricing_plan_id":"cebpf4jnsgd1na2vs0mg"},{"bike_id":"f847f035-9a4d-4206-b6aa-aacd56cdefdc","system_id":"levelo_inurba_marseille","lat":43.28107,"lon":5.37841,"is_reserved":false,"is_disabled":false,"rental_uris":{"android":"levelo://app?vid=f847f035-9a4d-4206-b6aa-aacd56cdefdc","ios":"levelo://app?vid=f847f035-9a4d-4206-b6aa-aacd56cdefdc"},"vehicle_type_id":"4","last_reported":1728195145,"current_range_meters":39200,"station_id":"ce4bha12rcd13ifvqee0","pricing_plan_id":"cebpf4jnsgd1na2vs0mg"},{"bike_id":"f16a1e3c-43c9-4345-8f77-6960f75f80b0","system_id":"levelo_inurba_marseille","lat":43.24994,"lon":5.38931,"is_reserved":false,"is_disabled":false,"rental_uris":{"android":"levelo://app?vid=f16a1e3c-43c9-4345-8f77-6960f75f80b0","ios":"levelo://app?vid=f16a1e3c-43c9-4345-8f77-6960f75f80b0"},"vehicle_type_id":"4","last_reported":1728195145,"current_range_meters":35600,"station_id":"ce4bhgp2rcd13ifvqfd0","pricing_plan_id":"cebpf4jnsgd1na2vs0mg"},{"bike_id":"f962fd38-fe03-4482-936c-e2245547cf0a","system_id":"levelo_inurba_marseille","lat":43.30645,"lon":5.4007,"is_reserved":false,"is_disabled":false,"rental_uris":{"android":"levelo://app?vid=f962fd38-fe03-4482-936c-e2245547cf0a","ios":"levelo://app?vid=f962fd38-fe03-4482-936c-e2245547cf0a"},"vehicle_type_id":"4","last_reported":1728195145,"current_range_meters":33600,"station_id":"ce4bh112rcd13ifvqda0","pricing_plan_id":"cebpf4jnsgd1na2vs0mg"},{"bike_id":"1d8f069e-c200-4a71-9592-c6a3563ce161","system_id":"levelo_inurba_marseille","lat":43.29173,"lon":5.37137,"is_reserved":false,"is_disabled":false,"rental_uris":{"android":"levelo://app?vid=1d8f069e-c200-4a71-9592-c6a3563ce161","ios":"levelo://app?vid=1d8f069e-c200-4a71-9592-c6a3563ce161"},"vehicle_type_id":"4","last_reported":1728195145,"current_range_meters":38800,"station_id":"ce4bha92rcd13ifvqeh0","pricing_plan_id":"cebpf4jnsgd1na2vs0mg"},{"bike_id":"467f4dad-860b-40f5-b4ca-9e05ccc20611","system_id":"levelo_inurba_marseille","lat":43.30908,"lon":5.40153,"is_reserved":false,"is_disabled":false,"rental_uris":{"android":"levelo://app?vid=467f4dad-860b-40f5-b4ca-9e05ccc20611","ios":"levelo://app?vid=467f4dad-860b-40f5-b4ca-9e05ccc20611"},"vehicle_type_id":"4","last_reported":1728195145,"current_range_meters":38000,"station_id":"ce4bgvp2rcd13ifvqct0","pricing_plan_id":"cebpf4jnsgd1na2vs0mg"},{"bike_id":"54a74be3-c242-46ce-9878-c249787a7807","system_id":"levelo_inurba_marseille","lat":43.31271,"lon":5.40173,"is_reserved":false,"is_disabled":false,"rental_uris":{"android":"levelo://app?vid=54a74be3-c242-46ce-9878-c249787a7807","ios":"levelo://app?vid=54a74be3-c242-46ce-9878-c249787a7807"},"vehicle_type_id":"4","last_reported":1728195145,"current_range_meters":26800,"station_id":"ce4bh092rcd13ifvqd30","pricing_plan_id":"cebpf4jnsgd1na2vs0mg"},{"bike_id":"489d3596-b98a-4cf0-a057-455f16d5e96d","system_id":"levelo_inurba_marseille","lat":43.3133,"lon":5.39699,"is_reserved":false,"is_disabled":false,"rental_uris":{"android":"levelo://app?vid=489d3596-b98a-4cf0-a057-455f16d5e96d","ios":"levelo://app?vid=489d3596-b98a-4cf0-a057-455f16d5e96d"},"vehicle_type_id":"4","last_reported":1728195145,"current_range_meters":39200,"station_id":"ce4bgvp2rcd13ifvqcu0","pricing_plan_id":"cebpf4jnsgd1na2vs0mg"},{"bike_id":"be1c89f3-68b4-4e24-aa0a-0d7e568bd44f","system_id":"levelo_inurba_marseille","lat":43.32474,"lon":5.3656,"is_reserved":false,"is_disabled":false,"rental_uris":{"android":"levelo://app?vid=be1c89f3-68b4-4e24-aa0a-0d7e568bd44f","ios":"levelo://app?vid=be1c89f3-68b4-4e24-aa0a-0d7e568bd44f"},"vehicle_type_id":"4","last_reported":1728195145,"current_range_meters":31200,"station_id":"ce4bhs12rcd13ifvqhvg","pricing_plan_id":"cebpf4jnsgd1na2vs0mg"},{"bike_id":"247637a3-ac7d-457c-87ec-7b20f22bf9b5","system_id":"levelo_inurba_marseille","lat":43.30932,"lon":5.40144,"is_reserved":false,"is_disabled":false,"rental_uris":{"android":"levelo://app?vid=247637a3-ac7d-457c-87ec-7b20f22bf9b5","ios":"levelo://app?vid=247637a3-ac7d-457c-87ec-7b20f22bf9b5"},"vehicle_type_id":"4","last_reported":1728195145,"current_range_meters":32400,"station_id":"ce4bgvp2rcd13ifvqct0","pricing_plan_id":"cebpf4jnsgd1na2vs0mg"},{"bike_id":"270b90ca-7521-4165-af49-e1c727e5fa34","system_id":"levelo_inurba_marseille","lat":43.21345,"lon":5.34942,"is_reserved":false,"is_disabled":false,"rental_uris":{"android":"levelo://app?vid=270b90ca-7521-4165-af49-e1c727e5fa34","ios":"levelo://app?vid=270b90ca-7521-4165-af49-e1c727e5fa34"},"vehicle_type_id":"4","last_reported":1728195145,"current_range_meters":36000,"station_id":"crv51consjfaj9uu89c0","pricing_plan_id":"cebpf4jnsgd1na2vs0mg"},{"bike_id":"cda12a4d-8902-4f89-ba00-ce7f414c7bc4","system_id":"levelo_inurba_marseille","lat":43.30424,"lon":5.39761,"is_reserved":false,"is_disabled":false,"rental_uris":{"android":"levelo://app?vid=cda12a4d-8902-4f89-ba00-ce7f414c7bc4","ios":"levelo://app?vid=cda12a4d-8902-4f89-ba00-ce7f414c7bc4"},"vehicle_type_id":"4","last_reported":1728195145,"current_range_meters":4800,"station_id":"ce4bh092rcd13ifvqd20","pricing_plan_id":"cebpf4jnsgd1na2vs0mg"},{"bike_id":"646517eb-897e-4996-9fc0-4d132f59f1ae","system_id":"levelo_inurba_marseille","lat":43.28696,"lon":5.3999,"is_reserved":false,"is_disabled":false,"rental_uris":{"android":"levelo://app?vid=646517eb-897e-4996-9fc0-4d132f59f1ae","ios":"levelo://app?vid=646517eb-897e-4996-9fc0-4d132f59f1ae"},"vehicle_type_id":"4","last_reported":1728195145,"current_range_meters":38800,"station_id":"ce4bho92rcd13ifvqh3g","pricing_plan_id":"cebpf4jnsgd1na2vs0mg"},{"bike_id":"7cdd683b-1d53-47c9-89fe-f645deb63715","system_id":"levelo_inurba_marseille","lat":43.30795,"lon":5.4352,"is_reserved":false,"is_disabled":false,"rental_uris":{"android":"levelo://app?vid=7cdd683b-1d53-47c9-89fe-f645deb63715","ios":"levelo://app?vid=7cdd683b-1d53-47c9-89fe-f645deb63715"},"vehicle_type_id":"4","last_reported":1728195145,"current_range_meters":3200,"station_id":"ce4bhph2rcd13ifvqheg","pricing_plan_id":"cebpf4jnsgd1na2vs0mg"},{"bike_id":"6c71eda2-c555-4b0f-95b8-131e1b4bdcc6","system_id":"levelo_inurba_marseille","lat":43.29096,"lon":5.3814,"is_reserved":false,"is_disabled":false,"rental_uris":{"android":"levelo://app?vid=6c71eda2-c555-4b0f-95b8-131e1b4bdcc6","ios":"levelo://app?vid=6c71eda2-c555-4b0f-95b8-131e1b4bdcc6"},"vehicle_type_id":"4","last_reported":1728195145,"current_range_meters":38800,"station_id":"ce4bh512rcd13ifvqe2g","pricing_plan_id":"cebpf4jnsgd1na2vs0mg"},{"bike_id":"31ec3a06-99d6-4861-b5b2-2c5de584b055","system_id":"levelo_inurba_marseille","lat":43.247986,"lon":5.37454,"is_reserved":false,"is_disabled":false,"rental_uris":{"android":"levelo://app?vid=31ec3a06-99d6-4861-b5b2-2c5de584b055","ios":"levelo://app?vid=31ec3a06-99d6-4861-b5b2-2c5de584b055"},"vehicle_type_id":"4","last_reported":1728195145,"current_range_meters":21600,"station_id":"ce4bhgh2rcd13ifvqfb0","pricing_plan_id":"cebpf4jnsgd1na2vs0mg"},{"bike_id":"2912abb1-e6fe-40f9-a80b-b98fc8142039","system_id":"levelo_inurba_marseille","lat":43.319904,"lon":5.381514,"is_reserved":false,"is_disabled":false,"rental_uris":{"android":"levelo://app?vid=2912abb1-e6fe-40f9-a80b-b98fc8142039","ios":"levelo://app?vid=2912abb1-e6fe-40f9-a80b-b98fc8142039"},"vehicle_type_id":"4","last_reported":1728195145,"current_range_meters":38400,"station_id":"ce4bhr12rcd13ifvqhpg","pricing_plan_id":"cebpf4jnsgd1na2vs0mg"},{"bike_id":"5ed1c359-627e-4835-9959-230f7bf3336f","system_id":"levelo_inurba_marseille","lat":43.28609,"lon":5.37054,"is_reserved":false,"is_disabled":false,"rental_uris":{"android":"levelo://app?vid=5ed1c359-627e-4835-9959-230f7bf3336f","ios":"levelo://app?vid=5ed1c359-627e-4835-9959-230f7bf3336f"},"vehicle_type_id":"4","last_reported":1728195145,"current_range_meters":30000,"station_id":"ce4bht12rcd13ifvqi60","pricing_plan_id":"cebpf4jnsgd1na2vs0mg"},{"bike_id":"e8eb2859-8be7-4852-a7df-ba2f9b4c73ff","system_id":"levelo_inurba_marseille","lat":43.30599,"lon":5.39347,"is_reserved":false,"is_disabled":false,"rental_uris":{"android":"levelo://app?vid=e8eb2859-8be7-4852-a7df-ba2f9b4c73ff","ios":"levelo://app?vid=e8eb2859-8be7-4852-a7df-ba2f9b4c73ff"},"vehicle_type_id":"4","last_reported":1728195145,"current_range_meters":38800,"station_id":"ce4bh0p2rcd13ifvqd80","pricing_plan_id":"cebpf4jnsgd1na2vs0mg"},{"bike_id":"353450d4-d2eb-4e5e-a8ec-7190b723b8e6","system_id":"levelo_inurba_marseille","lat":43.29273,"lon":5.36847,"is_reserved":false,"is_disabled":false,"rental_uris":{"android":"levelo://app?vid=353450d4-d2eb-4e5e-a8ec-7190b723b8e6","ios":"levelo://app?vid=353450d4-d2eb-4e5e-a8ec-7190b723b8e6"},"vehicle_type_id":"4","last_reported":1728195145,"current_range_meters":32000,"station_id":"ce4bhbp2rcd13ifvqesg","pricing_plan_id":"cebpf4jnsgd1na2vs0mg"},{"bike_id":"5360b9ce-81c6-44c7-af66-8742a78d4063","system_id":"levelo_inurba_marseille","lat":43.28359,"lon":5.38645,"is_reserved":false,"is_disabled":false,"rental_uris":{"android":"levelo://app?vid=5360b9ce-81c6-44c7-af66-8742a78d4063","ios":"levelo://app?vid=5360b9ce-81c6-44c7-af66-8742a78d4063"},"vehicle_type_id":"4","last_reported":1728195145,"current_range_meters":35200,"station_id":"ce4bh492rcd13ifvqdvg","pricing_plan_id":"cebpf4jnsgd1na2vs0mg"},{"bike_id":"bb5f5452-4b9b-417d-b148-b396a874f3d9","system_id":"levelo_inurba_marseille","lat":43.33754,"lon":5.37442,"is_reserved":false,"is_disabled":false,"rental_uris":{"android":"levelo://app?vid=bb5f5452-4b9b-417d-b148-b396a874f3d9","ios":"levelo://app?vid=bb5f5452-4b9b-417d-b148-b396a874f3d9"},"vehicle_type_id":"4","last_reported":1728195145,"current_range_meters":27600,"station_id":"","pricing_plan_id":"cebpf4jnsgd1na2vs0mg"},{"bike_id":"f8dc0ff5-6c8a-4ba6-abb8-5e3ab8e94100","system_id":"levelo_inurba_marseille","lat":43.271737,"lon":5.409887,"is_reserved":false,"is_disabled":false,"rental_uris":{"android":"levelo://app?vid=f8dc0ff5-6c8a-4ba6-abb8-5e3ab8e94100","ios":"levelo://app?vid=f8dc0ff5-6c8a-4ba6-abb8-5e3ab8e94100"},"vehicle_type_id":"4","last_reported":1728195145,"current_range_meters":37600,"station_id":"ce4bhl12rcd13ifvqgf0","pricing_plan_id":"cebpf4jnsgd1na2vs0mg"},{"bike_id":"964e9f5a-757b-4fc5-bd08-dd7c2ccefe33","system_id":"levelo_inurba_marseille","lat":43.2904,"lon":5.39963,"is_reserved":false,"is_disabled":false,"rental_uris":{"android":"levelo://app?vid=964e9f5a-757b-4fc5-bd08-dd7c2ccefe33","ios":"levelo://app?vid=964e9f5a-757b-4fc5-bd08-dd7c2ccefe33"},"vehicle_type_id":"4","last_reported":1728195145,"current_range_meters":38800,"station_id":"ce4bh392rcd13ifvqdm0","pricing_plan_id":"cebpf4jnsgd1na2vs0mg"},{"bike_id":"ab83fadf-d068-4c8e-b6a0-a2c4cd43bc9b","system_id":"levelo_inurba_marseille","lat":43.31997,"lon":5.38149,"is_reserved":false,"is_disabled":false,"rental_uris":{"android":"levelo://app?vid=ab83fadf-d068-4c8e-b6a0-a2c4cd43bc9b","ios":"levelo://app?vid=ab83fadf-d068-4c8e-b6a0-a2c4cd43bc9b"},"vehicle_type_id":"4","last_reported":1728195145,"current_range_meters":30000,"station_id":"ce4bhr12rcd13ifvqhpg","pricing_plan_id":"cebpf4jnsgd1na2vs0mg"},{"bike_id":"73a5307d-3e7d-4037-8357-25200e33a5e5","system_id":"levelo_inurba_marseille","lat":43.28411,"lon":5.37527,"is_reserved":false,"is_disabled":false,"rental_uris":{"android":"levelo://app?vid=73a5307d-3e7d-4037-8357-25200e33a5e5","ios":"levelo://app?vid=73a5307d-3e7d-4037-8357-25200e33a5e5"},"vehicle_type_id":"4","last_reported":1728195145,"current_range_meters":31200,"station_id":"ce4bh412rcd13ifvqds0","pricing_plan_id":"cebpf4jnsgd1na2vs0mg"},{"bike_id":"d5bd4fc9-b596-4a66-8faa-61c6a5dce860","system_id":"levelo_inurba_marseille","lat":43.29893,"lon":5.43663,"is_reserved":false,"is_disabled":false,"rental_uris":{"android":"levelo://app?vid=d5bd4fc9-b596-4a66-8faa-61c6a5dce860","ios":"levelo://app?vid=d5bd4fc9-b596-4a66-8faa-61c6a5dce860"},"vehicle_type_id":"4","last_reported":1728195145,"current_range_meters":38800,"station_id":"ce4bhpp2rcd13ifvqhfg","pricing_plan_id":"cebpf4jnsgd1na2vs0mg"},{"bike_id":"d03ade4d-0971-473e-b3ae-d762f130dbfe","system_id":"levelo_inurba_marseille","lat":43.29862,"lon":5.39768,"is_reserved":false,"is_disabled":false,"rental_uris":{"android":"levelo://app?vid=d03ade4d-0971-473e-b3ae-d762f130dbfe","ios":"levelo://app?vid=d03ade4d-0971-473e-b3ae-d762f130dbfe"},"vehicle_type_id":"4","last_reported":1728195145,"current_range_meters":38800,"station_id":"ce4bh0h2rcd13ifvqd50","pricing_plan_id":"cebpf4jnsgd1na2vs0mg"},{"bike_id":"6238ab41-f237-4e3e-a911-10e62b8a4494","system_id":"levelo_inurba_marseille","lat":43.28709,"lon":5.39975,"is_reserved":false,"is_disabled":false,"rental_uris":{"android":"levelo://app?vid=6238ab41-f237-4e3e-a911-10e62b8a4494","ios":"levelo://app?vid=6238ab41-f237-4e3e-a911-10e62b8a4494"},"vehicle_type_id":"4","last_reported":1728195145,"current_range_meters":38000,"station_id":"ce4bho92rcd13ifvqh3g","pricing_plan_id":"cebpf4jnsgd1na2vs0mg"},{"bike_id":"38c89ef1-1d14-415c-859a-9589d2e0e998","system_id":"levelo_inurba_marseille","lat":43.264922,"lon":5.39546,"is_reserved":false,"is_disabled":false,"rental_uris":{"android":"levelo://app?vid=38c89ef1-1d14-415c-859a-9589d2e0e998","ios":"levelo://app?vid=38c89ef1-1d14-415c-859a-9589d2e0e998"},"vehicle_type_id":"4","last_reported":1728195145,"current_range_meters":40000,"station_id":"ce4bhi12rcd13ifvqfq0","pricing_plan_id":"cebpf4jnsgd1na2vs0mg"},{"bike_id":"7cba0374-be77-4d49-8476-e0da3cccc891","system_id":"levelo_inurba_marseille","lat":43.21347,"lon":5.34938,"is_reserved":false,"is_disabled":false,"rental_uris":{"android":"levelo://app?vid=7cba0374-be77-4d49-8476-e0da3cccc891","ios":"levelo://app?vid=7cba0374-be77-4d49-8476-e0da3cccc891"},"vehicle_type_id":"4","last_reported":1728195145,"current_range_meters":35600,"station_id":"crv51consjfaj9uu89c0","pricing_plan_id":"cebpf4jnsgd1na2vs0mg"},{"bike_id":"f3d4e1ba-c888-4e07-9a1c-39eb5179eca7","system_id":"levelo_inurba_marseille","lat":43.31186,"lon":5.38706,"is_reserved":false,"is_disabled":false,"rental_uris":{"android":"levelo://app?vid=f3d4e1ba-c888-4e07-9a1c-39eb5179eca7","ios":"levelo://app?vid=f3d4e1ba-c888-4e07-9a1c-39eb5179eca7"},"vehicle_type_id":"4","last_reported":1728195145,"current_range_meters":29600,"station_id":"ce4bgv12rcd13ifvqcp0","pricing_plan_id":"cebpf4jnsgd1na2vs0mg"},{"bike_id":"0f35cf48-fa00-4494-a8d4-4e002476bb6c","system_id":"levelo_inurba_marseille","lat":43.29562,"lon":5.42284,"is_reserved":false,"is_disabled":false,"rental_uris":{"android":"levelo://app?vid=0f35cf48-fa00-4494-a8d4-4e002476bb6c","ios":"levelo://app?vid=0f35cf48-fa00-4494-a8d4-4e002476bb6c"},"vehicle_type_id":"4","last_reported":1728195145,"current_range_meters":37600,"station_id":"ce4bhph2rcd13ifvqhdg","pricing_plan_id":"cebpf4jnsgd1na2vs0mg"},{"bike_id":"8e94c158-3450-4d74-9a10-086db250f48e","system_id":"levelo_inurba_marseille","lat":43.271633,"lon":5.390304,"is_reserved":false,"is_disabled":false,"rental_uris":{"android":"levelo://app?vid=8e94c158-3450-4d74-9a10-086db250f48e","ios":"levelo://app?vid=8e94c158-3450-4d74-9a10-086db250f48e"},"vehicle_type_id":"4","last_reported":1728195145,"current_range_meters":34000,"station_id":"","pricing_plan_id":"cebpf4jnsgd1na2vs0mg"},{"bike_id":"8ef0d884-6abe-4b43-a0e5-51a1aa3f343a","system_id":"levelo_inurba_marseille","lat":43.31712,"lon":5.42409,"is_reserved":false,"is_disabled":false,"rental_uris":{"android":"levelo://app?vid=8ef0d884-6abe-4b43-a0e5-51a1aa3f343a","ios":"levelo://app?vid=8ef0d884-6abe-4b43-a0e5-51a1aa3f343a"},"vehicle_type_id":"4","last_reported":1728195145,"current_range_meters":7200,"station_id":"ce4bhp92rcd13ifvqhbg","pricing_plan_id":"cebpf4jnsgd1na2vs0mg"},{"bike_id":"7b5b2fce-53f1-4698-9e50-7d6973cfda2f","system_id":"levelo_inurba_marseille","lat":43.28701,"lon":5.39981,"is_reserved":false,"is_disabled":false,"rental_uris":{"android":"levelo://app?vid=7b5b2fce-53f1-4698-9e50-7d6973cfda2f","ios":"levelo://app?vid=7b5b2fce-53f1-4698-9e50-7d6973cfda2f"},"vehicle_type_id":"4","last_reported":1728195145,"current_range_meters":38800,"station_id":"ce4bho92rcd13ifvqh3g","pricing_plan_id":"cebpf4jnsgd1na2vs0mg"},{"bike_id":"69566eba-08e7-4250-82d4-cbffed0657d9","system_id":"levelo_inurba_marseille","lat":43.33742,"lon":5.3745,"is_reserved":false,"is_disabled":false,"rental_uris":{"android":"levelo://app?vid=69566eba-08e7-4250-82d4-cbffed0657d9","ios":"levelo://app?vid=69566eba-08e7-4250-82d4-cbffed0657d9"},"vehicle_type_id":"4","last_reported":1728195145,"current_range_meters":27600,"station_id":"","pricing_plan_id":"cebpf4jnsgd1na2vs0mg"},{"bike_id":"2f1f7e56-c6cd-448e-b406-4d3dfc3a4de4","system_id":"levelo_inurba_marseille","lat":43.25724,"lon":5.41098,"is_reserved":false,"is_disabled":false,"rental_uris":{"android":"levelo://app?vid=2f1f7e56-c6cd-448e-b406-4d3dfc3a4de4","ios":"levelo://app?vid=2f1f7e56-c6cd-448e-b406-4d3dfc3a4de4"},"vehicle_type_id":"4","last_reported":1728195145,"current_range_meters":31200,"station_id":"ce4bhkp2rcd13ifvqgd0","pricing_plan_id":"cebpf4jnsgd1na2vs0mg"},{"bike_id":"1ee81508-41a1-4e3e-8ff6-e4273d8073de","system_id":"levelo_inurba_marseille","lat":43.32002,"lon":5.38151,"is_reserved":false,"is_disabled":false,"rental_uris":{"android":"levelo://app?vid=1ee81508-41a1-4e3e-8ff6-e4273d8073de","ios":"levelo://app?vid=1ee81508-41a1-4e3e-8ff6-e4273d8073de"},"vehicle_type_id":"4","last_reported":1728195145,"current_range_meters":3600,"station_id":"ce4bhr12rcd13ifvqhpg","pricing_plan_id":"cebpf4jnsgd1na2vs0mg"},{"bike_id":"58822ca1-68f8-4f6b-9765-150c72bf3810","system_id":"levelo_inurba_marseille","lat":43.28668,"lon":5.36354,"is_reserved":false,"is_disabled":false,"rental_uris":{"android":"levelo://app?vid=58822ca1-68f8-4f6b-9765-150c72bf3810","ios":"levelo://app?vid=58822ca1-68f8-4f6b-9765-150c72bf3810"},"vehicle_type_id":"4","last_reported":1728195145,"current_range_meters":38800,"station_id":"ce4bhah2rcd13ifvqej0","pricing_plan_id":"cebpf4jnsgd1na2vs0mg"},{"bike_id":"ad4290a2-e0da-4543-a67e-91c74f2432ac","system_id":"levelo_inurba_marseille","lat":43.27674,"lon":5.38912,"is_reserved":false,"is_disabled":false,"rental_uris":{"android":"levelo://app?vid=ad4290a2-e0da-4543-a67e-91c74f2432ac","ios":"levelo://app?vid=ad4290a2-e0da-4543-a67e-91c74f2432ac"},"vehicle_type_id":"4","last_reported":1728195145,"current_range_meters":38800,"station_id":"ce4bhi12rcd13ifvqfo0","pricing_plan_id":"cebpf4jnsgd1na2vs0mg"},{"bike_id":"ec1cbf47-768b-4ab3-b1b5-2f56d418362f","system_id":"levelo_inurba_marseille","lat":43.30592,"lon":5.39354,"is_reserved":false,"is_disabled":false,"rental_uris":{"android":"levelo://app?vid=ec1cbf47-768b-4ab3-b1b5-2f56d418362f","ios":"levelo://app?vid=ec1cbf47-768b-4ab3-b1b5-2f56d418362f"},"vehicle_type_id":"4","last_reported":1728195145,"current_range_meters":30000,"station_id":"ce4bh0p2rcd13ifvqd80","pricing_plan_id":"cebpf4jnsgd1na2vs0mg"},{"bike_id":"a8f8aea3-c3d7-4710-8712-db175e7978e0","system_id":"levelo_inurba_marseille","lat":43.30931,"lon":5.40148,"is_reserved":false,"is_disabled":false,"rental_uris":{"android":"levelo://app?vid=a8f8aea3-c3d7-4710-8712-db175e7978e0","ios":"levelo://app?vid=a8f8aea3-c3d7-4710-8712-db175e7978e0"},"vehicle_type_id":"4","last_reported":1728195145,"current_range_meters":30400,"station_id":"ce4bgvp2rcd13ifvqct0","pricing_plan_id":"cebpf4jnsgd1na2vs0mg"},{"bike_id":"bab516d1-d7f1-4d23-b2fa-cb43d0750992","system_id":"levelo_inurba_marseille","lat":43.23185,"lon":5.39988,"is_reserved":false,"is_disabled":false,"rental_uris":{"android":"levelo://app?vid=bab516d1-d7f1-4d23-b2fa-cb43d0750992","ios":"levelo://app?vid=bab516d1-d7f1-4d23-b2fa-cb43d0750992"},"vehicle_type_id":"4","last_reported":1728195145,"current_range_meters":8000,"station_id":"ce4bhn12rcd13ifvqgqg","pricing_plan_id":"cebpf4jnsgd1na2vs0mg"},{"bike_id":"1d7e584d-d9bd-4a40-880d-10ef72bd85dc","system_id":"levelo_inurba_marseille","lat":43.28081,"lon":5.39647,"is_reserved":false,"is_disabled":false,"rental_uris":{"android":"levelo://app?vid=1d7e584d-d9bd-4a40-880d-10ef72bd85dc","ios":"levelo://app?vid=1d7e584d-d9bd-4a40-880d-10ef72bd85dc"},"vehicle_type_id":"4","last_reported":1728195145,"current_range_meters":37600,"station_id":"ce4bho12rcd13ifvqh2g","pricing_plan_id":"cebpf4jnsgd1na2vs0mg"},{"bike_id":"a94f106c-921c-40e5-90b8-0a0b7d3f49ab","system_id":"levelo_inurba_marseille","lat":43.33362,"lon":5.3585,"is_reserved":false,"is_disabled":false,"rental_uris":{"android":"levelo://app?vid=a94f106c-921c-40e5-90b8-0a0b7d3f49ab","ios":"levelo://app?vid=a94f106c-921c-40e5-90b8-0a0b7d3f49ab"},"vehicle_type_id":"4","last_reported":1728195145,"current_range_meters":19600,"station_id":"","pricing_plan_id":"cebpf4jnsgd1na2vs0mg"},{"bike_id":"3f75b285-bf87-4037-863f-775d9a9d6495","system_id":"levelo_inurba_marseille","lat":43.33026,"lon":5.39036,"is_reserved":false,"is_disabled":false,"rental_uris":{"android":"levelo://app?vid=3f75b285-bf87-4037-863f-775d9a9d6495","ios":"levelo://app?vid=3f75b285-bf87-4037-863f-775d9a9d6495"},"vehicle_type_id":"4","last_reported":1728195145,"current_range_meters":38800,"station_id":"ce4bhr92rcd13ifvqhrg","pricing_plan_id":"cebpf4jnsgd1na2vs0mg"},{"bike_id":"52d4276f-2848-4c82-ac33-83fbf79e6585","system_id":"levelo_inurba_marseille","lat":43.24387,"lon":5.37056,"is_reserved":false,"is_disabled":false,"rental_uris":{"android":"levelo://app?vid=52d4276f-2848-4c82-ac33-83fbf79e6585","ios":"levelo://app?vid=52d4276f-2848-4c82-ac33-83fbf79e6585"},"vehicle_type_id":"4","last_reported":1728195145,"current_range_meters":22800,"station_id":"ce4bhhh2rcd13ifvqfk0","pricing_plan_id":"cebpf4jnsgd1na2vs0mg"},{"bike_id":"f1543ab5-4e23-417f-809a-d8a6268dedc7","system_id":"levelo_inurba_marseille","lat":43.24548,"lon":5.39524,"is_reserved":false,"is_disabled":false,"rental_uris":{"android":"levelo://app?vid=f1543ab5-4e23-417f-809a-d8a6268dedc7","ios":"levelo://app?vid=f1543ab5-4e23-417f-809a-d8a6268dedc7"},"vehicle_type_id":"4","last_reported":1728195145,"current_range_meters":38800,"station_id":"ce4bhlp2rcd13ifvqgjg","pricing_plan_id":"cebpf4jnsgd1na2vs0mg"},{"bike_id":"a7a0ce32-a2e1-414d-9cb4-b7863590ca64","system_id":"levelo_inurba_marseille","lat":43.27562,"lon":5.38415,"is_reserved":false,"is_disabled":false,"rental_uris":{"android":"levelo://app?vid=a7a0ce32-a2e1-414d-9cb4-b7863590ca64","ios":"levelo://app?vid=a7a0ce32-a2e1-414d-9cb4-b7863590ca64"},"vehicle_type_id":"4","last_reported":1728195145,"current_range_meters":38000,"station_id":"ce4bhh92rcd13ifvqfi0","pricing_plan_id":"cebpf4jnsgd1na2vs0mg"},{"bike_id":"4037c19f-b08a-4f2f-9716-23a4592989a7","system_id":"levelo_inurba_marseille","lat":43.32358,"lon":5.38881,"is_reserved":false,"is_disabled":false,"rental_uris":{"android":"levelo://app?vid=4037c19f-b08a-4f2f-9716-23a4592989a7","ios":"levelo://app?vid=4037c19f-b08a-4f2f-9716-23a4592989a7"},"vehicle_type_id":"4","last_reported":1728195145,"current_range_meters":37600,"station_id":"ce4bhqp2rcd13ifvqhog","pricing_plan_id":"cebpf4jnsgd1na2vs0mg"},{"bike_id":"dcb4c6c4-8237-41ce-a572-63834d47b3fb","system_id":"levelo_inurba_marseille","lat":43.26489,"lon":5.39552,"is_reserved":false,"is_disabled":false,"rental_uris":{"android":"levelo://app?vid=dcb4c6c4-8237-41ce-a572-63834d47b3fb","ios":"levelo://app?vid=dcb4c6c4-8237-41ce-a572-63834d47b3fb"},"vehicle_type_id":"4","last_reported":1728195145,"current_range_meters":14400,"station_id":"ce4bhi12rcd13ifvqfq0","pricing_plan_id":"cebpf4jnsgd1na2vs0mg"},{"bike_id":"6eaca8f5-3830-4424-893c-263c0864ef10","system_id":"levelo_inurba_marseille","lat":43.28033,"lon":5.36946,"is_reserved":false,"is_disabled":false,"rental_uris":{"android":"levelo://app?vid=6eaca8f5-3830-4424-893c-263c0864ef10","ios":"levelo://app?vid=6eaca8f5-3830-4424-893c-263c0864ef10"},"vehicle_type_id":"4","last_reported":1728195145,"current_range_meters":38400,"station_id":"ce4bha12rcd13ifvqef0","pricing_plan_id":"cebpf4jnsgd1na2vs0mg"},{"bike_id":"7d832797-a368-47ce-80a8-50d6a3763de8","system_id":"levelo_inurba_marseille","lat":43.28428,"lon":5.38466,"is_reserved":false,"is_disabled":false,"rental_uris":{"android":"levelo://app?vid=7d832797-a368-47ce-80a8-50d6a3763de8","ios":"levelo://app?vid=7d832797-a368-47ce-80a8-50d6a3763de8"},"vehicle_type_id":"4","last_reported":1728195145,"current_range_meters":29600,"station_id":"","pricing_plan_id":"cebpf4jnsgd1na2vs0mg"},{"bike_id":"868fa2c3-859c-4b5a-b69c-933c8c522d35","system_id":"levelo_inurba_marseille","lat":43.31362,"lon":5.38495,"is_reserved":false,"is_disabled":false,"rental_uris":{"android":"levelo://app?vid=868fa2c3-859c-4b5a-b69c-933c8c522d35","ios":"levelo://app?vid=868fa2c3-859c-4b5a-b69c-933c8c522d35"},"vehicle_type_id":"4","last_reported":1728195145,"current_range_meters":37600,"station_id":"ce4bgt92rcd13ifvqcf0","pricing_plan_id":"cebpf4jnsgd1na2vs0mg"},{"bike_id":"74983cf6-a738-4717-bd2d-9d908de43d2b","system_id":"levelo_inurba_marseille","lat":43.28474,"lon":5.35867,"is_reserved":false,"is_disabled":false,"rental_uris":{"android":"levelo://app?vid=74983cf6-a738-4717-bd2d-9d908de43d2b","ios":"levelo://app?vid=74983cf6-a738-4717-bd2d-9d908de43d2b"},"vehicle_type_id":"4","last_reported":1728195145,"current_range_meters":36000,"station_id":"ce4bhah2rcd13ifvqei0","pricing_plan_id":"cebpf4jnsgd1na2vs0mg"},{"bike_id":"126e8b9c-d4ba-4fdf-b891-8a69ddbd21f6","system_id":"levelo_inurba_marseille","lat":43.321083,"lon":5.367676,"is_reserved":false,"is_disabled":false,"rental_uris":{"android":"levelo://app?vid=126e8b9c-d4ba-4fdf-b891-8a69ddbd21f6","ios":"levelo://app?vid=126e8b9c-d4ba-4fdf-b891-8a69ddbd21f6"},"vehicle_type_id":"4","last_reported":1728195145,"current_range_meters":27200,"station_id":"ce4bhrh2rcd13ifvqhug","pricing_plan_id":"cebpf4jnsgd1na2vs0mg"},{"bike_id":"14614837-1223-42d0-aa16-71c758f5aebd","system_id":"levelo_inurba_marseille","lat":43.32366,"lon":5.38894,"is_reserved":false,"is_disabled":false,"rental_uris":{"android":"levelo://app?vid=14614837-1223-42d0-aa16-71c758f5aebd","ios":"levelo://app?vid=14614837-1223-42d0-aa16-71c758f5aebd"},"vehicle_type_id":"4","last_reported":1728195145,"current_range_meters":30000,"station_id":"ce4bhqp2rcd13ifvqhog","pricing_plan_id":"cebpf4jnsgd1na2vs0mg"},{"bike_id":"68b77a88-2067-422a-ab7b-e29094a40dcc","system_id":"levelo_inurba_marseille","lat":43.25114,"lon":5.40317,"is_reserved":false,"is_disabled":false,"rental_uris":{"android":"levelo://app?vid=68b77a88-2067-422a-ab7b-e29094a40dcc","ios":"levelo://app?vid=68b77a88-2067-422a-ab7b-e29094a40dcc"},"vehicle_type_id":"4","last_reported":1728195145,"current_range_meters":37600,"station_id":"ce4bhlh2rcd13ifvqgig","pricing_plan_id":"cebpf4jnsgd1na2vs0mg"},{"bike_id":"d3f60117-edac-46af-a600-02c6c194981b","system_id":"levelo_inurba_marseille","lat":43.30646,"lon":5.40066,"is_reserved":false,"is_disabled":false,"rental_uris":{"android":"levelo://app?vid=d3f60117-edac-46af-a600-02c6c194981b","ios":"levelo://app?vid=d3f60117-edac-46af-a600-02c6c194981b"},"vehicle_type_id":"4","last_reported":1728195145,"current_range_meters":12000,"station_id":"ce4bh112rcd13ifvqda0","pricing_plan_id":"cebpf4jnsgd1na2vs0mg"},{"bike_id":"198b7b91-efea-4512-8d8c-b04e98bbb399","system_id":"levelo_inurba_marseille","lat":43.2318,"lon":5.39978,"is_reserved":false,"is_disabled":false,"rental_uris":{"android":"levelo://app?vid=198b7b91-efea-4512-8d8c-b04e98bbb399","ios":"levelo://app?vid=198b7b91-efea-4512-8d8c-b04e98bbb399"},"vehicle_type_id":"4","last_reported":1728195145,"current_range_meters":39200,"station_id":"ce4bhn12rcd13ifvqgqg","pricing_plan_id":"cebpf4jnsgd1na2vs0mg"},{"bike_id":"b680d7bd-31db-4e86-8e19-b2e9c0cbf0fd","system_id":"levelo_inurba_marseille","lat":43.26792,"lon":5.3941,"is_reserved":false,"is_disabled":false,"rental_uris":{"android":"levelo://app?vid=b680d7bd-31db-4e86-8e19-b2e9c0cbf0fd","ios":"levelo://app?vid=b680d7bd-31db-4e86-8e19-b2e9c0cbf0fd"},"vehicle_type_id":"4","last_reported":1728195145,"current_range_meters":35600,"station_id":"ce4bhh12rcd13ifvqfg0","pricing_plan_id":"cebpf4jnsgd1na2vs0mg"},{"bike_id":"3246e9fa-6aa1-4bd7-858d-ddbf0d2e62e5","system_id":"levelo_inurba_marseille","lat":43.30138,"lon":5.39867,"is_reserved":false,"is_disabled":false,"rental_uris":{"android":"levelo://app?vid=3246e9fa-6aa1-4bd7-858d-ddbf0d2e62e5","ios":"levelo://app?vid=3246e9fa-6aa1-4bd7-858d-ddbf0d2e62e5"},"vehicle_type_id":"4","last_reported":1728195145,"current_range_meters":20400,"station_id":"ce4bh0h2rcd13ifvqd40","pricing_plan_id":"cebpf4jnsgd1na2vs0mg"},{"bike_id":"8dcd8941-687b-4a07-9cc7-8a772aee8ee8","system_id":"levelo_inurba_marseille","lat":43.29304,"lon":5.37171,"is_reserved":false,"is_disabled":false,"rental_uris":{"android":"levelo://app?vid=8dcd8941-687b-4a07-9cc7-8a772aee8ee8","ios":"levelo://app?vid=8dcd8941-687b-4a07-9cc7-8a772aee8ee8"},"vehicle_type_id":"4","last_reported":1728195145,"current_range_meters":37600,"station_id":"ce4bgh92rcd13ifvqb40","pricing_plan_id":"cebpf4jnsgd1na2vs0mg"},{"bike_id":"a95f1efe-60f1-49b4-b525-c583fa0bddf5","system_id":"levelo_inurba_marseille","lat":43.26216,"lon":5.37436,"is_reserved":false,"is_disabled":false,"rental_uris":{"android":"levelo://app?vid=a95f1efe-60f1-49b4-b525-c583fa0bddf5","ios":"levelo://app?vid=a95f1efe-60f1-49b4-b525-c583fa0bddf5"},"vehicle_type_id":"4","last_reported":1728195145,"current_range_meters":10000,"station_id":"ce4bhgp2rcd13ifvqfc0","pricing_plan_id":"cebpf4jnsgd1na2vs0mg"},{"bike_id":"d3dddb3a-2ed2-4c8b-b63c-c52d0d7d8120","system_id":"levelo_inurba_marseille","lat":43.29248,"lon":5.40903,"is_reserved":false,"is_disabled":false,"rental_uris":{"android":"levelo://app?vid=d3dddb3a-2ed2-4c8b-b63c-c52d0d7d8120","ios":"levelo://app?vid=d3dddb3a-2ed2-4c8b-b63c-c52d0d7d8120"},"vehicle_type_id":"4","last_reported":1728195145,"current_range_meters":38800,"station_id":"ce4bh192rcd13ifvqdc0","pricing_plan_id":"cebpf4jnsgd1na2vs0mg"},{"bike_id":"7b9ba1ff-08b4-4bd7-8512-4be43a62039f","system_id":"levelo_inurba_marseille","lat":43.287,"lon":5.39976,"is_reserved":false,"is_disabled":false,"rental_uris":{"android":"levelo://app?vid=7b9ba1ff-08b4-4bd7-8512-4be43a62039f","ios":"levelo://app?vid=7b9ba1ff-08b4-4bd7-8512-4be43a62039f"},"vehicle_type_id":"4","last_reported":1728195145,"current_range_meters":26000,"station_id":"ce4bho92rcd13ifvqh3g","pricing_plan_id":"cebpf4jnsgd1na2vs0mg"},{"bike_id":"8954e555-fec7-4fa3-891d-d5b51ffa52ad","system_id":"levelo_inurba_marseille","lat":43.29559,"lon":5.42292,"is_reserved":false,"is_disabled":false,"rental_uris":{"android":"levelo://app?vid=8954e555-fec7-4fa3-891d-d5b51ffa52ad","ios":"levelo://app?vid=8954e555-fec7-4fa3-891d-d5b51ffa52ad"},"vehicle_type_id":"4","last_reported":1728195145,"current_range_meters":39200,"station_id":"ce4bhph2rcd13ifvqhdg","pricing_plan_id":"cebpf4jnsgd1na2vs0mg"},{"bike_id":"1ce7e339-76b2-4237-ad27-ada904063fc2","system_id":"levelo_inurba_marseille","lat":43.28341,"lon":5.38104,"is_reserved":false,"is_disabled":false,"rental_uris":{"android":"levelo://app?vid=1ce7e339-76b2-4237-ad27-ada904063fc2","ios":"levelo://app?vid=1ce7e339-76b2-4237-ad27-ada904063fc2"},"vehicle_type_id":"4","last_reported":1728195145,"current_range_meters":38800,"station_id":"ce4bh412rcd13ifvqdr0","pricing_plan_id":"cebpf4jnsgd1na2vs0mg"},{"bike_id":"4fea846c-9813-440d-886c-458270909c65","system_id":"levelo_inurba_marseille","lat":43.2846,"lon":5.35883,"is_reserved":false,"is_disabled":false,"rental_uris":{"android":"levelo://app?vid=4fea846c-9813-440d-886c-458270909c65","ios":"levelo://app?vid=4fea846c-9813-440d-886c-458270909c65"},"vehicle_type_id":"4","last_reported":1728195145,"current_range_meters":39200,"station_id":"ce4bhah2rcd13ifvqei0","pricing_plan_id":"cebpf4jnsgd1na2vs0mg"},{"bike_id":"9f19e14f-fab5-49bf-878b-9a40978f6235","system_id":"levelo_inurba_marseille","lat":43.28434,"lon":5.39188,"is_reserved":false,"is_disabled":false,"rental_uris":{"android":"levelo://app?vid=9f19e14f-fab5-49bf-878b-9a40978f6235","ios":"levelo://app?vid=9f19e14f-fab5-49bf-878b-9a40978f6235"},"vehicle_type_id":"4","last_reported":1728195145,"current_range_meters":38800,"station_id":"ce4bhoh2rcd13ifvqh5g","pricing_plan_id":"cebpf4jnsgd1na2vs0mg"},{"bike_id":"b6fd76d3-34a5-4c26-a80e-03dca3f57387","system_id":"levelo_inurba_marseille","lat":43.33602,"lon":5.41019,"is_reserved":false,"is_disabled":false,"rental_uris":{"android":"levelo://app?vid=b6fd76d3-34a5-4c26-a80e-03dca3f57387","ios":"levelo://app?vid=b6fd76d3-34a5-4c26-a80e-03dca3f57387"},"vehicle_type_id":"4","last_reported":1728195145,"current_range_meters":8000,"station_id":"ce4bhqh2rcd13ifvqhmg","pricing_plan_id":"cebpf4jnsgd1na2vs0mg"},{"bike_id":"07132a2a-b6b1-401c-ad83-18824057f9b0","system_id":"levelo_inurba_marseille","lat":43.30649,"lon":5.400756,"is_reserved":false,"is_disabled":false,"rental_uris":{"android":"levelo://app?vid=07132a2a-b6b1-401c-ad83-18824057f9b0","ios":"levelo://app?vid=07132a2a-b6b1-401c-ad83-18824057f9b0"},"vehicle_type_id":"4","last_reported":1728195145,"current_range_meters":33600,"station_id":"ce4bh112rcd13ifvqda0","pricing_plan_id":"cebpf4jnsgd1na2vs0mg"},{"bike_id":"152f3a24-1071-41b9-a2ed-934df83e2faa","system_id":"levelo_inurba_marseille","lat":43.25865,"lon":5.39901,"is_reserved":false,"is_disabled":false,"rental_uris":{"android":"levelo://app?vid=152f3a24-1071-41b9-a2ed-934df83e2faa","ios":"levelo://app?vid=152f3a24-1071-41b9-a2ed-934df83e2faa"},"vehicle_type_id":"4","last_reported":1728195145,"current_range_meters":22400,"station_id":"ce4bhl92rcd13ifvqghg","pricing_plan_id":"cebpf4jnsgd1na2vs0mg"},{"bike_id":"e52556a0-eec0-42f8-9dff-bfa9d9b67ba6","system_id":"levelo_inurba_marseille","lat":43.32479,"lon":5.36566,"is_reserved":false,"is_disabled":false,"rental_uris":{"android":"levelo://app?vid=e52556a0-eec0-42f8-9dff-bfa9d9b67ba6","ios":"levelo://app?vid=e52556a0-eec0-42f8-9dff-bfa9d9b67ba6"},"vehicle_type_id":"4","last_reported":1728195145,"current_range_meters":26000,"station_id":"ce4bhs12rcd13ifvqhvg","pricing_plan_id":"cebpf4jnsgd1na2vs0mg"},{"bike_id":"0a843e23-1706-4500-a4bf-01a4c0c5081c","system_id":"levelo_inurba_marseille","lat":43.27878,"lon":5.38754,"is_reserved":false,"is_disabled":false,"rental_uris":{"android":"levelo://app?vid=0a843e23-1706-4500-a4bf-01a4c0c5081c","ios":"levelo://app?vid=0a843e23-1706-4500-a4bf-01a4c0c5081c"},"vehicle_type_id":"4","last_reported":1728195145,"current_range_meters":33200,"station_id":"","pricing_plan_id":"cebpf4jnsgd1na2vs0mg"},{"bike_id":"6ae0ec9e-685f-4efa-aa9e-01e411df7fa7","system_id":"levelo_inurba_marseille","lat":43.29253,"lon":5.40905,"is_reserved":false,"is_disabled":false,"rental_uris":{"android":"levelo://app?vid=6ae0ec9e-685f-4efa-aa9e-01e411df7fa7","ios":"levelo://app?vid=6ae0ec9e-685f-4efa-aa9e-01e411df7fa7"},"vehicle_type_id":"4","last_reported":1728195145,"current_range_meters":38800,"station_id":"ce4bh192rcd13ifvqdc0","pricing_plan_id":"cebpf4jnsgd1na2vs0mg"},{"bike_id":"ed9a97c8-3c0b-45af-b2b2-39f01c478202","system_id":"levelo_inurba_marseille","lat":43.243795,"lon":5.370237,"is_reserved":false,"is_disabled":false,"rental_uris":{"android":"levelo://app?vid=ed9a97c8-3c0b-45af-b2b2-39f01c478202","ios":"levelo://app?vid=ed9a97c8-3c0b-45af-b2b2-39f01c478202"},"vehicle_type_id":"4","last_reported":1728195145,"current_range_meters":24800,"station_id":"ce4bhhh2rcd13ifvqfk0","pricing_plan_id":"cebpf4jnsgd1na2vs0mg"},{"bike_id":"0206aab1-99d2-4109-8df3-4f2fc5521402","system_id":"levelo_inurba_marseille","lat":43.23195,"lon":5.35542,"is_reserved":false,"is_disabled":false,"rental_uris":{"android":"levelo://app?vid=0206aab1-99d2-4109-8df3-4f2fc5521402","ios":"levelo://app?vid=0206aab1-99d2-4109-8df3-4f2fc5521402"},"vehicle_type_id":"4","last_reported":1728195145,"current_range_meters":37600,"station_id":"ce4bhu92rcd13ifvqi70","pricing_plan_id":"cebpf4jnsgd1na2vs0mg"},{"bike_id":"77e44f96-8992-4ec5-ba2c-5e51b9e5b288","system_id":"levelo_inurba_marseille","lat":43.2706,"lon":5.3877,"is_reserved":false,"is_disabled":false,"rental_uris":{"android":"levelo://app?vid=77e44f96-8992-4ec5-ba2c-5e51b9e5b288","ios":"levelo://app?vid=77e44f96-8992-4ec5-ba2c-5e51b9e5b288"},"vehicle_type_id":"4","last_reported":1728195145,"current_range_meters":37600,"station_id":"","pricing_plan_id":"cebpf4jnsgd1na2vs0mg"},{"bike_id":"2a3f7778-8c05-46b1-aab6-1497788ce633","system_id":"levelo_inurba_marseille","lat":43.31892,"lon":5.40725,"is_reserved":false,"is_disabled":false,"rental_uris":{"android":"levelo://app?vid=2a3f7778-8c05-46b1-aab6-1497788ce633","ios":"levelo://app?vid=2a3f7778-8c05-46b1-aab6-1497788ce633"},"vehicle_type_id":"4","last_reported":1728195145,"current_range_meters":28400,"station_id":"ce4bhq12rcd13ifvqhig","pricing_plan_id":"cebpf4jnsgd1na2vs0mg"},{"bike_id":"97b2baff-d224-48b3-a58a-dbd53fb50d0d","system_id":"levelo_inurba_marseille","lat":43.28443,"lon":5.39178,"is_reserved":false,"is_disabled":false,"rental_uris":{"android":"levelo://app?vid=97b2baff-d224-48b3-a58a-dbd53fb50d0d","ios":"levelo://app?vid=97b2baff-d224-48b3-a58a-dbd53fb50d0d"},"vehicle_type_id":"4","last_reported":1728195145,"current_range_meters":38800,"station_id":"ce4bhoh2rcd13ifvqh5g","pricing_plan_id":"cebpf4jnsgd1na2vs0mg"},{"bike_id":"6204229a-b259-4fc1-b4ce-d9444f47a7cf","system_id":"levelo_inurba_marseille","lat":43.29026,"lon":5.39982,"is_reserved":false,"is_disabled":false,"rental_uris":{"android":"levelo://app?vid=6204229a-b259-4fc1-b4ce-d9444f47a7cf","ios":"levelo://app?vid=6204229a-b259-4fc1-b4ce-d9444f47a7cf"},"vehicle_type_id":"4","last_reported":1728195145,"current_range_meters":8400,"station_id":"ce4bh392rcd13ifvqdm0","pricing_plan_id":"cebpf4jnsgd1na2vs0mg"},{"bike_id":"b51ee6d2-4574-4587-a7f0-3852397ae634","system_id":"levelo_inurba_marseille","lat":43.22926,"lon":5.35379,"is_reserved":false,"is_disabled":false,"rental_uris":{"android":"levelo://app?vid=b51ee6d2-4574-4587-a7f0-3852397ae634","ios":"levelo://app?vid=b51ee6d2-4574-4587-a7f0-3852397ae634"},"vehicle_type_id":"4","last_reported":1728195145,"current_range_meters":37600,"station_id":"cpo3532slgdg3j2ikp40","pricing_plan_id":"cebpf4jnsgd1na2vs0mg"},{"bike_id":"4f5038fe-9ccd-4d04-a6cd-afe04d9be89f","system_id":"levelo_inurba_marseille","lat":43.27379,"lon":5.36251,"is_reserved":false,"is_disabled":false,"rental_uris":{"android":"levelo://app?vid=4f5038fe-9ccd-4d04-a6cd-afe04d9be89f","ios":"levelo://app?vid=4f5038fe-9ccd-4d04-a6cd-afe04d9be89f"},"vehicle_type_id":"4","last_reported":1728195145,"current_range_meters":33600,"station_id":"ce4bhbh2rcd13ifvqeo0","pricing_plan_id":"cebpf4jnsgd1na2vs0mg"},{"bike_id":"b3258a2e-c2be-4b73-95a8-085d567673c1","system_id":"levelo_inurba_marseille","lat":43.25115,"lon":5.4032,"is_reserved":false,"is_disabled":false,"rental_uris":{"android":"levelo://app?vid=b3258a2e-c2be-4b73-95a8-085d567673c1","ios":"levelo://app?vid=b3258a2e-c2be-4b73-95a8-085d567673c1"},"vehicle_type_id":"4","last_reported":1728195145,"current_range_meters":2000,"station_id":"ce4bhlh2rcd13ifvqgig","pricing_plan_id":"cebpf4jnsgd1na2vs0mg"},{"bike_id":"0a8c9a0d-0b0f-4138-98a5-c8e50caa5c7e","system_id":"levelo_inurba_marseille","lat":43.24182,"lon":5.39727,"is_reserved":false,"is_disabled":false,"rental_uris":{"android":"levelo://app?vid=0a8c9a0d-0b0f-4138-98a5-c8e50caa5c7e","ios":"levelo://app?vid=0a8c9a0d-0b0f-4138-98a5-c8e50caa5c7e"},"vehicle_type_id":"4","last_reported":1728195145,"current_range_meters":6400,"station_id":"ce4bhn12rcd13ifvqgpg","pricing_plan_id":"cebpf4jnsgd1na2vs0mg"},{"bike_id":"411b7766-5fd9-42f4-94e2-6d59554d4823","system_id":"levelo_inurba_marseille","lat":43.306504,"lon":5.400796,"is_reserved":false,"is_disabled":false,"rental_uris":{"android":"levelo://app?vid=411b7766-5fd9-42f4-94e2-6d59554d4823","ios":"levelo://app?vid=411b7766-5fd9-42f4-94e2-6d59554d4823"},"vehicle_type_id":"4","last_reported":1728195145,"current_range_meters":20400,"station_id":"ce4bh112rcd13ifvqda0","pricing_plan_id":"cebpf4jnsgd1na2vs0mg"},