{"last_updated":1766883908,"ttl":60,"version":"2.2","data":{"bikes":[{"bike_id":"115b2f8e-404e-4661-b1a9-5ff904791dd7","system_id":"levelo_inurba_marseille","lat":43.29794,"lon":5.38197,"is_reserved":false,"is_disabled":false,"rental_uris":{"android":"levelo://app?vid=115b2f8e-404e-4661-b1a9-5ff904791dd7","ios":"levelo://app?vid=115b2f8e-404e-4661-b1a9-5ff904791dd7"},"vehicle_type_id":"4","last_reported":1766883909,"current_range_meters":2800,"station_id":"","pricing_plan_id":"cebpf4jnsgd1na2vs0mg"},{"bike_id":"64721fec-77b8-4807-9667-cec3c8c1fbd0","system_id":"levelo_inurba_marseille","lat":43.24311,"lon":5.39462,"is_reserved":false,"is_disabled":false,"rental_uris":{"android":"levelo://app?vid=64721fec-77b8-4807-9667-cec3c8c1fbd0","ios":"levelo://app?vid=64721fec-77b8-4807-9667-cec3c8c1fbd0"},"vehicle_type_id":"4","last_reported":1766883909,"current_range_meters":3200,"station_id":"","pricing_plan_id":"cebpf4jnsgd1na2vs0mg"},{"bike_id":"45cb4a88-56d0-4ea5-b85d-33b8d4d652ea","system_id":"levelo_inurba_marseille","lat":43.29603,"lon":5.38343,"is_reserved":false,"is_disabled":false,"rental_uris":{"android":"levelo://app?vid=45cb4a88-56d0-4ea5-b85d-33b8d4d652ea","ios":"levelo://app?vid=45cb4a88-56d0-4ea5-b85d-33b8d4d652ea"},"vehicle_type_id":"4","last_reported":1766883909,"current_range_meters":3200,"station_id":"","pricing_plan_id":"cebpf4jnsgd1na2vs0mg"},{"bike_id":"2fad9db5-aa59-4d67-acc6-8a420e8c641e","system_id":"levelo_inurba_marseille","lat":43.28677,"lon":5.39931,"is_reserved":false,"is_disabled":false,"rental_uris":{"android":"levelo://app?vid=2fad9db5-aa59-4d67-acc6-8a420e8c641e","ios":"levelo://app?vid=2fad9db5-aa59-4d67-acc6-8a420e8c641e"},"vehicle_type_id":"4","last_reported":1766883909,"current_range_meters":3200,"station_id":"","pricing_plan_id":"cebpf4jnsgd1na2vs0mg"},{"bike_id":"e3658eed-4b2e-47eb-aa01-83fa9edbb099","system_id":"levelo_inurba_marseille","lat":43.29976,"lon":5.37181,"is_reserved":false,"is_disabled":false,"rental_uris":{"android":"levelo://app?vid=e3658eed-4b2e-47eb-aa01-83fa9edbb099","ios":"levelo://app?vid=e3658eed-4b2e-47eb-aa01-83fa9edbb099"},"vehicle_type_id":"4","last_reported":1766883909,"current_range_meters":3600,"station_id":"","pricing_plan_id":"cebpf4jnsgd1na2vs0mg"},{"bike_id":"2fd3e7c8-7852-431b-8c09-68989f4b1449","system_id":"levelo_inurba_marseille","lat":43.27205,"lon":5.39177,"is_reserved":false,"is_disabled":false,"rental_uris":{"android":"levelo://app?vid=2fd3e7c8-7852-431b-8c09-68989f4b1449","ios":"levelo://app?vid=2fd3e7c8-7852-431b-8c09-68989f4b1449"},"vehicle_type_id":"4","last_reported":1766883909,"current_range_meters":4400,"station_id":"ce4bhhp2rcd13ifvqfm0","pricing_plan_id":"cebpf4jnsgd1na2vs0mg"},{"bike_id":"e06e16f6-596f-4677-9ce6-0164b6eff11e","system_id":"levelo_inurba_marseille","lat":43.29234,"lon":5.37475,"is_reserved":false,"is_disabled":false,"rental_uris":{"android":"levelo://app?vid=e06e16f6-596f-4677-9ce6-0164b6eff11e","ios":"levelo://app?vid=e06e16f6-596f-4677-9ce6-0164b6eff11e"},"vehicle_type_id":"4","last_reported":1766883909,"current_range_meters":4400,"station_id":"","pricing_plan_id":"cebpf4jnsgd1na2vs0mg"},{"bike_id":"9a070cb2-bf25-4b91-92f6-05dc5ac581d8","system_id":"levelo_inurba_marseille","lat":43.22567,"lon":5.41628,"is_reserved":false,"is_disabled":false,"rental_uris":{"android":"levelo://app?vid=9a070cb2-bf25-4b91-92f6-05dc5ac581d8","ios":"levelo://app?vid=9a070cb2-bf25-4b91-92f6-05dc5ac581d8"},"vehicle_type_id":"4","last_reported":1766883909,"current_range_meters":5600,"station_id":"st_d2o4gvlbi1j2169b742g","pricing_plan_id":"cebpf4jnsgd1na2vs0mg"},{"bike_id":"853fc785-00bb-45cc-b4a0-f3482ebf165e","system_id":"levelo_inurba_marseille","lat":43.34143,"lon":5.40899,"is_reserved":false,"is_disabled":false,"rental_uris":{"android":"levelo://app?vid=853fc785-00bb-45cc-b4a0-f3482ebf165e","ios":"levelo://app?vid=853fc785-00bb-45cc-b4a0-f3482ebf165e"},"vehicle_type_id":"4","last_reported":1766883909,"current_range_meters":5600,"station_id":"ce4bhqh2rcd13ifvqhlg","pricing_plan_id":"cebpf4jnsgd1na2vs0mg"},{"bike_id":"c3f25187-f756-4681-b9b4-86c6274cfe9f","system_id":"levelo_inurba_marseille","lat":43.29605,"lon":5.37691,"is_reserved":false,"is_disabled":false,"rental_uris":{"android":"levelo://app?vid=c3f25187-f756-4681-b9b4-86c6274cfe9f","ios":"levelo://app?vid=c3f25187-f756-4681-b9b4-86c6274cfe9f"},"vehicle_type_id":"4","last_reported":1766883909,"current_range_meters":5600,"station_id":"ce4bgi92rcd13ifvqb90","pricing_plan_id":"cebpf4jnsgd1na2vs0mg"},{"bike_id":"66531fd5-aaca-4a6e-b3be-31639e926ec0","system_id":"levelo_inurba_marseille","lat":43.253451,"lon":5.421603,"is_reserved":false,"is_disabled":false,"rental_uris":{"android":"levelo://app?vid=66531fd5-aaca-4a6e-b3be-31639e926ec0","ios":"levelo://app?vid=66531fd5-aaca-4a6e-b3be-31639e926ec0"},"vehicle_type_id":"4","last_reported":1766883909,"current_range_meters":5600,"station_id":"st_d2m65c5bi1j21697t3ng","pricing_plan_id":"cebpf4jnsgd1na2vs0mg"},{"bike_id":"5f1c6459-3fd3-43ad-89d7-e2075908cbe7","system_id":"levelo_inurba_marseille","lat":43.27086,"lon":5.42482,"is_reserved":false,"is_disabled":false,"rental_uris":{"android":"levelo://app?vid=5f1c6459-3fd3-43ad-89d7-e2075908cbe7","ios":"levelo://app?vid=5f1c6459-3fd3-43ad-89d7-e2075908cbe7"},"vehicle_type_id":"4","last_reported":1766883909,"current_range_meters":6000,"station_id":"","pricing_plan_id":"cebpf4jnsgd1na2vs0mg"},{"bike_id":"c6c751ca-f0d9-4d7d-924c-b26f574b394e","system_id":"levelo_inurba_marseille","lat":43.26753,"lon":5.38462,"is_reserved":false,"is_disabled":false,"rental_uris":{"android":"levelo://app?vid=c6c751ca-f0d9-4d7d-924c-b26f574b394e","ios":"levelo://app?vid=c6c751ca-f0d9-4d7d-924c-b26f574b394e"},"vehicle_type_id":"4","last_reported":1766883909,"current_range_meters":6000,"station_id":"","pricing_plan_id":"cebpf4jnsgd1na2vs0mg"},{"bike_id":"7889c44c-66c5-491e-bce1-ab4755d90e40","system_id":"levelo_inurba_marseille","lat":43.253458,"lon":5.393601,"is_reserved":false,"is_disabled":false,"rental_uris":{"android":"levelo://app?vid=7889c44c-66c5-491e-bce1-ab4755d90e40","ios":"levelo://app?vid=7889c44c-66c5-491e-bce1-ab4755d90e40"},"vehicle_type_id":"4","last_reported":1766883909,"current_range_meters":6400,"station_id":"","pricing_plan_id":"cebpf4jnsgd1na2vs0mg"},{"bike_id":"1f45b2b1-d2e0-4187-926d-9979c716f8a5","system_id":"levelo_inurba_marseille","lat":43.25079,"lon":5.40459,"is_reserved":false,"is_disabled":false,"rental_uris":{"android":"levelo://app?vid=1f45b2b1-d2e0-4187-926d-9979c716f8a5","ios":"levelo://app?vid=1f45b2b1-d2e0-4187-926d-9979c716f8a5"},"vehicle_type_id":"4","last_reported":1766883909,"current_range_meters":6400,"station_id":"","pricing_plan_id":"cebpf4jnsgd1na2vs0mg"},{"bike_id":"1920210f-7e89-4d88-bdfb-fe062ddeed41","system_id":"levelo_inurba_marseille","lat":43.31278,"lon":5.40168,"is_reserved":false,"is_disabled":false,"rental_uris":{"android":"levelo://app?vid=1920210f-7e89-4d88-bdfb-fe062ddeed41","ios":"levelo://app?vid=1920210f-7e89-4d88-bdfb-fe062ddeed41"},"vehicle_type_id":"4","last_reported":1766883909,"current_range_meters":6800,"station_id":"ce4bh092rcd13ifvqd30","pricing_plan_id":"cebpf4jnsgd1na2vs0mg"},{"bike_id":"f8085185-026e-48fc-96a1-fbc0127b9fe1","system_id":"levelo_inurba_marseille","lat":43.29541,"lon":5.38537,"is_reserved":false,"is_disabled":false,"rental_uris":{"android":"levelo://app?vid=f8085185-026e-48fc-96a1-fbc0127b9fe1","ios":"levelo://app?vid=f8085185-026e-48fc-96a1-fbc0127b9fe1"},"vehicle_type_id":"4","last_reported":1766883909,"current_range_meters":6800,"station_id":"ce4bgih2rcd13ifvqba0","pricing_plan_id":"cebpf4jnsgd1na2vs0mg"},{"bike_id":"96eb6a70-1150-4aae-9621-e62dc0e66edf","system_id":"levelo_inurba_marseille","lat":43.282734,"lon":5.350784,"is_reserved":false,"is_disabled":false,"rental_uris":{"android":"levelo://app?vid=96eb6a70-1150-4aae-9621-e62dc0e66edf","ios":"levelo://app?vid=96eb6a70-1150-4aae-9621-e62dc0e66edf"},"vehicle_type_id":"4","last_reported":1766883909,"current_range_meters":6800,"station_id":"ce4bhbp2rcd13ifvqerg","pricing_plan_id":"cebpf4jnsgd1na2vs0mg"},{"bike_id":"c1b743e0-063e-4338-89c9-533b43b9eed4","system_id":"levelo_inurba_marseille","lat":43.211933,"lon":5.350723,"is_reserved":false,"is_disabled":false,"rental_uris":{"android":"levelo://app?vid=c1b743e0-063e-4338-89c9-533b43b9eed4","ios":"levelo://app?vid=c1b743e0-063e-4338-89c9-533b43b9eed4"},"vehicle_type_id":"4","last_reported":1766883909,"current_range_meters":7200,"station_id":"st_cvj6sg6p6f1abm77japg","pricing_plan_id":"cebpf4jnsgd1na2vs0mg"},{"bike_id":"9c1ff02c-df35-4545-98b6-54b455499ca0","system_id":"levelo_inurba_marseille","lat":43.27195,"lon":5.40992,"is_reserved":false,"is_disabled":true,"rental_uris":{"android":"levelo://app?vid=9c1ff02c-df35-4545-98b6-54b455499ca0","ios":"levelo://app?vid=9c1ff02c-df35-4545-98b6-54b455499ca0"},"vehicle_type_id":"4","last_reported":1766883909,"current_range_meters":7200,"station_id":"ce4bhl12rcd13ifvqgf0","pricing_plan_id":"cebpf4jnsgd1na2vs0mg"},{"bike_id":"413bfd79-2014-47f7-9869-cdc775bc7926","system_id":"levelo_inurba_marseille","lat":43.33167,"lon":5.37687,"is_reserved":false,"is_disabled":false,"rental_uris":{"android":"levelo://app?vid=413bfd79-2014-47f7-9869-cdc775bc7926","ios":"levelo://app?vid=413bfd79-2014-47f7-9869-cdc775bc7926"},"vehicle_type_id":"4","last_reported":1766883909,"current_range_meters":7200,"station_id":"st_d46cu089ee8s73dldbu0","pricing_plan_id":"cebpf4jnsgd1na2vs0mg"},{"bike_id":"339a0c71-2a9a-4cfb-a54e-2a5557b4296a","system_id":"levelo_inurba_marseille","lat":43.24171,"lon":5.36398,"is_reserved":false,"is_disabled":false,"rental_uris":{"android":"levelo://app?vid=339a0c71-2a9a-4cfb-a54e-2a5557b4296a","ios":"levelo://app?vid=339a0c71-2a9a-4cfb-a54e-2a5557b4296a"},"vehicle_type_id":"4","last_reported":1766883909,"current_range_meters":7200,"station_id":"cpo36qri1sfpv3e86is0","pricing_plan_id":"cebpf4jnsgd1na2vs0mg"},{"bike_id":"6dfbbc16-adaa-4603-8d39-f42250df2a7a","system_id":"levelo_inurba_marseille","lat":43.28103,"lon":5.37859,"is_reserved":false,"is_disabled":false,"rental_uris":{"android":"levelo://app?vid=6dfbbc16-adaa-4603-8d39-f42250df2a7a","ios":"levelo://app?vid=6dfbbc16-adaa-4603-8d39-f42250df2a7a"},"vehicle_type_id":"4","last_reported":1766883909,"current_range_meters":7200,"station_id":"ce4bha12rcd13ifvqee0","pricing_plan_id":"cebpf4jnsgd1na2vs0mg"},{"bike_id":"62e2e5fb-dc83-430c-bde0-eff7bc34a106","system_id":"levelo_inurba_marseille","lat":43.2319,"lon":5.39976,"is_reserved":false,"is_disabled":false,"rental_uris":{"android":"levelo://app?vid=62e2e5fb-dc83-430c-bde0-eff7bc34a106","ios":"levelo://app?vid=62e2e5fb-dc83-430c-bde0-eff7bc34a106"},"vehicle_type_id":"4","last_reported":1766883909,"current_range_meters":7200,"station_id":"ce4bhn12rcd13ifvqgqg","pricing_plan_id":"cebpf4jnsgd1na2vs0mg"},{"bike_id":"dac24c5c-9a42-4fdf-bf17-c0729a4a9a2a","system_id":"levelo_inurba_marseille","lat":43.32511,"lon":5.41219,"is_reserved":false,"is_disabled":false,"rental_uris":{"android":"levelo://app?vid=dac24c5c-9a42-4fdf-bf17-c0729a4a9a2a","ios":"levelo://app?vid=dac24c5c-9a42-4fdf-bf17-c0729a4a9a2a"},"vehicle_type_id":"4","last_reported":1766883909,"current_range_meters":8000,"station_id":"","pricing_plan_id":"cebpf4jnsgd1na2vs0mg"},{"bike_id":"557ab4ac-044d-49d9-a78e-542ec76386f0","system_id":"levelo_inurba_marseille","lat":43.27987,"lon":5.400153,"is_reserved":false,"is_disabled":false,"rental_uris":{"android":"levelo://app?vid=557ab4ac-044d-49d9-a78e-542ec76386f0","ios":"levelo://app?vid=557ab4ac-044d-49d9-a78e-542ec76386f0"},"vehicle_type_id":"4","last_reported":1766883909,"current_range_meters":8000,"station_id":"ce4bho92rcd13ifvqh4g","pricing_plan_id":"cebpf4jnsgd1na2vs0mg"},{"bike_id":"7ca11c4f-5f1d-47d1-ab0f-c11aaa9d6309","system_id":"levelo_inurba_marseille","lat":43.28711,"lon":5.37386,"is_reserved":false,"is_disabled":false,"rental_uris":{"android":"levelo://app?vid=7ca11c4f-5f1d-47d1-ab0f-c11aaa9d6309","ios":"levelo://app?vid=7ca11c4f-5f1d-47d1-ab0f-c11aaa9d6309"},"vehicle_type_id":"4","last_reported":1766883909,"current_range_meters":8000,"station_id":"ce4bh3p2rcd13ifvqdq0","pricing_plan_id":"cebpf4jnsgd1na2vs0mg"},{"bike_id":"548af7a7-10b4-456d-85f6-423034944083","system_id":"levelo_inurba_marseille","lat":43.23137,"lon":5.43728,"is_reserved":false,"is_disabled":false,"rental_uris":{"android":"levelo://app?vid=548af7a7-10b4-456d-85f6-423034944083","ios":"levelo://app?vid=548af7a7-10b4-456d-85f6-423034944083"},"vehicle_type_id":"4","last_reported":1766883909,"current_range_meters":8400,"station_id":"ce4bhmp2rcd13ifvqgog","pricing_plan_id":"cebpf4jnsgd1na2vs0mg"},{"bike_id":"154dd437-30b0-4b95-ac63-26fd3aee1404","system_id":"levelo_inurba_marseille","lat":43.30088,"lon":5.3907,"is_reserved":false,"is_disabled":false,"rental_uris":{"android":"levelo://app?vid=154dd437-30b0-4b95-ac63-26fd3aee1404","ios":"levelo://app?vid=154dd437-30b0-4b95-ac63-26fd3aee1404"},"vehicle_type_id":"4","last_reported":1766883909,"current_range_meters":8400,"station_id":"ce4bh192rcd13ifvqdb0","pricing_plan_id":"cebpf4jnsgd1na2vs0mg"},{"bike_id":"bc568f99-2d83-4e5a-8b80-4c8ab7d8ad1f","system_id":"levelo_inurba_marseille","lat":43.24167,"lon":5.37654,"is_reserved":false,"is_disabled":false,"rental_uris":{"android":"levelo://app?vid=bc568f99-2d83-4e5a-8b80-4c8ab7d8ad1f","ios":"levelo://app?vid=bc568f99-2d83-4e5a-8b80-4c8ab7d8ad1f"},"vehicle_type_id":"4","last_reported":1766883909,"current_range_meters":8400,"station_id":"","pricing_plan_id":"cebpf4jnsgd1na2vs0mg"},{"bike_id":"a623c603-e51a-4b27-8fbf-bcbb0ccf7185","system_id":"levelo_inurba_marseille","lat":43.24818,"lon":5.37456,"is_reserved":false,"is_disabled":false,"rental_uris":{"android":"levelo://app?vid=a623c603-e51a-4b27-8fbf-bcbb0ccf7185","ios":"levelo://app?vid=a623c603-e51a-4b27-8fbf-bcbb0ccf7185"},"vehicle_type_id":"4","last_reported":1766883909,"current_range_meters":8800,"station_id":"ce4bhgh2rcd13ifvqfb0","pricing_plan_id":"cebpf4jnsgd1na2vs0mg"},{"bike_id":"5e3f4feb-570e-4d98-bbff-99622c4ef1b1","system_id":"levelo_inurba_marseille","lat":43.29279,"lon":5.36851,"is_reserved":false,"is_disabled":false,"rental_uris":{"android":"levelo://app?vid=5e3f4feb-570e-4d98-bbff-99622c4ef1b1","ios":"levelo://app?vid=5e3f4feb-570e-4d98-bbff-99622c4ef1b1"},"vehicle_type_id":"4","last_reported":1766883909,"current_range_meters":8800,"station_id":"ce4bhbp2rcd13ifvqesg","pricing_plan_id":"cebpf4jnsgd1na2vs0mg"},{"bike_id":"c7586477-b188-4afb-9115-cd7a566c0858","system_id":"levelo_inurba_marseille","lat":43.26939,"lon":5.40223,"is_reserved":false,"is_disabled":false,"rental_uris":{"android":"levelo://app?vid=c7586477-b188-4afb-9115-cd7a566c0858","ios":"levelo://app?vid=c7586477-b188-4afb-9115-cd7a566c0858"},"vehicle_type_id":"4","last_reported":1766883909,"current_range_meters":8800,"station_id":"cjm6bp8fraef2m0cb0m0","pricing_plan_id":"cebpf4jnsgd1na2vs0mg"},{"bike_id":"99b4eb98-b7eb-4379-a6b2-33d1211601ee","system_id":"levelo_inurba_marseille","lat":43.30044,"lon":5.38567,"is_reserved":false,"is_disabled":false,"rental_uris":{"android":"levelo://app?vid=99b4eb98-b7eb-4379-a6b2-33d1211601ee","ios":"levelo://app?vid=99b4eb98-b7eb-4379-a6b2-33d1211601ee"},"vehicle_type_id":"4","last_reported":1766883909,"current_range_meters":8800,"station_id":"","pricing_plan_id":"cebpf4jnsgd1na2vs0mg"},{"bike_id":"8526cb13-c70f-4134-9aed-80c4c9d31e4e","system_id":"levelo_inurba_marseille","lat":43.2791,"lon":5.39177,"is_reserved":false,"is_disabled":false,"rental_uris":{"android":"levelo://app?vid=8526cb13-c70f-4134-9aed-80c4c9d31e4e","ios":"levelo://app?vid=8526cb13-c70f-4134-9aed-80c4c9d31e4e"},"vehicle_type_id":"4","last_reported":1766883909,"current_range_meters":8800,"station_id":"","pricing_plan_id":"cebpf4jnsgd1na2vs0mg"},{"bike_id":"d67c16bb-d17e-40da-b1f8-5f2c85a8aa2e","system_id":"levelo_inurba_marseille","lat":43.25342,"lon":5.42159,"is_reserved":false,"is_disabled":false,"rental_uris":{"android":"levelo://app?vid=d67c16bb-d17e-40da-b1f8-5f2c85a8aa2e","ios":"levelo://app?vid=d67c16bb-d17e-40da-b1f8-5f2c85a8aa2e"},"vehicle_type_id":"4","last_reported":1766883909,"current_range_meters":8800,"station_id":"st_d2m65c5bi1j21697t3ng","pricing_plan_id":"cebpf4jnsgd1na2vs0mg"},{"bike_id":"f87f747c-7695-4b9f-a19b-27029d2dd9ee","system_id":"levelo_inurba_marseille","lat":43.28476,"lon":5.38419,"is_reserved":false,"is_disabled":false,"rental_uris":{"android":"levelo://app?vid=f87f747c-7695-4b9f-a19b-27029d2dd9ee","ios":"levelo://app?vid=f87f747c-7695-4b9f-a19b-27029d2dd9ee"},"vehicle_type_id":"4","last_reported":1766883909,"current_range_meters":8800,"station_id":"ce4bh512rcd13ifvqe3g","pricing_plan_id":"cebpf4jnsgd1na2vs0mg"},{"bike_id":"8f1fbae4-9ae2-42cf-94dd-daad6d586514","system_id":"levelo_inurba_marseille","lat":43.22568,"lon":5.41635,"is_reserved":false,"is_disabled":false,"rental_uris":{"android":"levelo://app?vid=8f1fbae4-9ae2-42cf-94dd-daad6d586514","ios":"levelo://app?vid=8f1fbae4-9ae2-42cf-94dd-daad6d586514"},"vehicle_type_id":"4","last_reported":1766883909,"current_range_meters":8800,"station_id":"st_d2o4gvlbi1j2169b742g","pricing_plan_id":"cebpf4jnsgd1na2vs0mg"},{"bike_id":"9821df82-926e-489a-a328-b0f6432f6689","system_id":"levelo_inurba_marseille","lat":43.24484,"lon":5.37849,"is_reserved":false,"is_disabled":false,"rental_uris":{"android":"levelo://app?vid=9821df82-926e-489a-a328-b0f6432f6689","ios":"levelo://app?vid=9821df82-926e-489a-a328-b0f6432f6689"},"vehicle_type_id":"4","last_reported":1766883909,"current_range_meters":8800,"station_id":"","pricing_plan_id":"cebpf4jnsgd1na2vs0mg"},{"bike_id":"9946c4ed-7a05-42ed-9877-9de77083527d","system_id":"levelo_inurba_marseille","lat":43.337444,"lon":5.374475,"is_reserved":false,"is_disabled":false,"rental_uris":{"android":"levelo://app?vid=9946c4ed-7a05-42ed-9877-9de77083527d","ios":"levelo://app?vid=9946c4ed-7a05-42ed-9877-9de77083527d"},"vehicle_type_id":"4","last_reported":1766883909,"current_range_meters":8800,"station_id":"ce4bgqh2rcd13ifvqc4g","pricing_plan_id":"cebpf4jnsgd1na2vs0mg"},{"bike_id":"cf42684c-2f83-4795-ab87-4214da43d1fe","system_id":"levelo_inurba_marseille","lat":43.27332,"lon":5.39088,"is_reserved":false,"is_disabled":false,"rental_uris":{"android":"levelo://app?vid=cf42684c-2f83-4795-ab87-4214da43d1fe","ios":"levelo://app?vid=cf42684c-2f83-4795-ab87-4214da43d1fe"},"vehicle_type_id":"4","last_reported":1766883909,"current_range_meters":8800,"station_id":"ce4bhgp2rcd13ifvqfe0","pricing_plan_id":"cebpf4jnsgd1na2vs0mg"},{"bike_id":"5ed1338d-5379-4cce-90fa-a6e55ebef348","system_id":"levelo_inurba_marseille","lat":43.28094,"lon":5.37896,"is_reserved":false,"is_disabled":false,"rental_uris":{"android":"levelo://app?vid=5ed1338d-5379-4cce-90fa-a6e55ebef348","ios":"levelo://app?vid=5ed1338d-5379-4cce-90fa-a6e55ebef348"},"vehicle_type_id":"4","last_reported":1766883909,"current_range_meters":8800,"station_id":"","pricing_plan_id":"cebpf4jnsgd1na2vs0mg"},{"bike_id":"cde75731-be94-4954-af76-b79651b240b9","system_id":"levelo_inurba_marseille","lat":43.2982,"lon":5.39396,"is_reserved":false,"is_disabled":false,"rental_uris":{"android":"levelo://app?vid=cde75731-be94-4954-af76-b79651b240b9","ios":"levelo://app?vid=cde75731-be94-4954-af76-b79651b240b9"},"vehicle_type_id":"4","last_reported":1766883909,"current_range_meters":9200,"station_id":"","pricing_plan_id":"cebpf4jnsgd1na2vs0mg"},{"bike_id":"2c040193-68c9-44d7-813b-922bfab99102","system_id":"levelo_inurba_marseille","lat":43.279089,"lon":5.353608,"is_reserved":false,"is_disabled":false,"rental_uris":{"android":"levelo://app?vid=2c040193-68c9-44d7-813b-922bfab99102","ios":"levelo://app?vid=2c040193-68c9-44d7-813b-922bfab99102"},"vehicle_type_id":"4","last_reported":1766883909,"current_range_meters":9200,"station_id":"","pricing_plan_id":"cebpf4jnsgd1na2vs0mg"},{"bike_id":"e7195f19-4fc7-4c9a-b655-a9b129278d8e","system_id":"levelo_inurba_marseille","lat":43.267287,"lon":5.405692,"is_reserved":false,"is_disabled":false,"rental_uris":{"android":"levelo://app?vid=e7195f19-4fc7-4c9a-b655-a9b129278d8e","ios":"levelo://app?vid=e7195f19-4fc7-4c9a-b655-a9b129278d8e"},"vehicle_type_id":"4","last_reported":1766883909,"current_range_meters":9200,"station_id":"","pricing_plan_id":"cebpf4jnsgd1na2vs0mg"},{"bike_id":"2774eca9-c878-4033-8514-2330fd47f167","system_id":"levelo_inurba_marseille","lat":43.28471,"lon":5.48379,"is_reserved":false,"is_disabled":false,"rental_uris":{"android":"levelo://app?vid=2774eca9-c878-4033-8514-2330fd47f167","ios":"levelo://app?vid=2774eca9-c878-4033-8514-2330fd47f167"},"vehicle_type_id":"4","last_reported":1766883909,"current_range_meters":9200,"station_id":"st_d3svhcjqgbts73a3dn0g","pricing_plan_id":"cebpf4jnsgd1na2vs0mg"},{"bike_id":"08f4624a-a23d-4738-b794-a8bd53bfd7e8","system_id":"levelo_inurba_marseille","lat":43.29842,"lon":5.37645,"is_reserved":false,"is_disabled":false,"rental_uris":{"android":"levelo://app?vid=08f4624a-a23d-4738-b794-a8bd53bfd7e8","ios":"levelo://app?vid=08f4624a-a23d-4738-b794-a8bd53bfd7e8"},"vehicle_type_id":"4","last_reported":1766883909,"current_range_meters":9600,"station_id":"","pricing_plan_id":"cebpf4jnsgd1na2vs0mg"},{"bike_id":"dfdf893f-8969-45ec-a595-a78166cc5ecb","system_id":"levelo_inurba_marseille","lat":43.28424,"lon":5.35022,"is_reserved":false,"is_disabled":false,"rental_uris":{"android":"levelo://app?vid=dfdf893f-8969-45ec-a595-a78166cc5ecb","ios":"levelo://app?vid=dfdf893f-8969-45ec-a595-a78166cc5ecb"},"vehicle_type_id":"4","last_reported":1766883909,"current_range_meters":9600,"station_id":"ce4bhbh2rcd13ifvqepg","pricing_plan_id":"cebpf4jnsgd1na2vs0mg"},{"bike_id":"1c79eb29-135e-40c1-8651-901759d4aaa6","system_id":"levelo_inurba_marseille","lat":43.28564,"lon":5.35294,"is_reserved":false,"is_disabled":false,"rental_uris":{"android":"levelo://app?vid=1c79eb29-135e-40c1-8651-901759d4aaa6","ios":"levelo://app?vid=1c79eb29-135e-40c1-8651-901759d4aaa6"},"vehicle_type_id":"4","last_reported":1766883909,"current_range_meters":9600,"station_id":"","pricing_plan_id":"cebpf4jnsgd1na2vs0mg"},{"bike_id":"9d21dcb0-ce26-48db-a303-317550439f40","system_id":"levelo_inurba_marseille","lat":43.28479,"lon":5.48389,"is_reserved":false,"is_disabled":false,"rental_uris":{"android":"levelo://app?vid=9d21dcb0-ce26-48db-a303-317550439f40","ios":"levelo://app?vid=9d21dcb0-ce26-48db-a303-317550439f40"},"vehicle_type_id":"4","last_reported":1766883909,"current_range_meters":9600,"station_id":"","pricing_plan_id":"cebpf4jnsgd1na2vs0mg"},{"bike_id":"f997e645-afe3-4b31-ba4f-ffefa0262d36","system_id":"levelo_inurba_marseille","lat":43.28156,"lon":5.42669,"is_reserved":false,"is_disabled":false,"rental_uris":{"android":"levelo://app?vid=f997e645-afe3-4b31-ba4f-ffefa0262d36","ios":"levelo://app?vid=f997e645-afe3-4b31-ba4f-ffefa0262d36"},"vehicle_type_id":"4","last_reported":1766883909,"current_range_meters":9600,"station_id":"ce4bhnh2rcd13ifvqgug","pricing_plan_id":"cebpf4jnsgd1na2vs0mg"},{"bike_id":"bafbac57-f95d-474f-9ab8-4089c3a4d706","system_id":"levelo_inurba_marseille","lat":43.28546,"lon":5.44103,"is_reserved":false,"is_disabled":false,"rental_uris":{"android":"levelo://app?vid=bafbac57-f95d-474f-9ab8-4089c3a4d706","ios":"levelo://app?vid=bafbac57-f95d-474f-9ab8-4089c3a4d706"},"vehicle_type_id":"4","last_reported":1766883909,"current_range_meters":9600,"station_id":"st_d3j3df2ikq2c7380ej80","pricing_plan_id":"cebpf4jnsgd1na2vs0mg"},{"bike_id":"7ef0cae7-d0ce-42f4-8945-1ef1b36c8fff","system_id":"levelo_inurba_marseille","lat":43.29062,"lon":5.3996,"is_reserved":false,"is_disabled":false,"rental_uris":{"android":"levelo://app?vid=7ef0cae7-d0ce-42f4-8945-1ef1b36c8fff","ios":"levelo://app?vid=7ef0cae7-d0ce-42f4-8945-1ef1b36c8fff"},"vehicle_type_id":"4","last_reported":1766883909,"current_range_meters":9600,"station_id":"ce4bh392rcd13ifvqdm0","pricing_plan_id":"cebpf4jnsgd1na2vs0mg"},{"bike_id":"2e00598f-89a7-4b01-8f3d-e880cdb936fb","system_id":"levelo_inurba_marseille","lat":43.24046,"lon":5.37747,"is_reserved":false,"is_disabled":false,"rental_uris":{"android":"levelo://app?vid=2e00598f-89a7-4b01-8f3d-e880cdb936fb","ios":"levelo://app?vid=2e00598f-89a7-4b01-8f3d-e880cdb936fb"},"vehicle_type_id":"4","last_reported":1766883909,"current_range_meters":10000,"station_id":"ce4bhnp2rcd13ifvqgvg","pricing_plan_id":"cebpf4jnsgd1na2vs0mg"},{"bike_id":"075753f2-03fc-482d-992a-1a659c9f27f8","system_id":"levelo_inurba_marseille","lat":43.28199,"lon":5.3493,"is_reserved":false,"is_disabled":false,"rental_uris":{"android":"levelo://app?vid=075753f2-03fc-482d-992a-1a659c9f27f8","ios":"levelo://app?vid=075753f2-03fc-482d-992a-1a659c9f27f8"},"vehicle_type_id":"4","last_reported":1766883909,"current_range_meters":10000,"station_id":"","pricing_plan_id":"cebpf4jnsgd1na2vs0mg"},{"bike_id":"f7f83b17-2522-43b4-8e16-807e987c677e","system_id":"levelo_inurba_marseille","lat":43.29325,"lon":5.37135,"is_reserved":false,"is_disabled":false,"rental_uris":{"android":"levelo://app?vid=f7f83b17-2522-43b4-8e16-807e987c677e","ios":"levelo://app?vid=f7f83b17-2522-43b4-8e16-807e987c677e"},"vehicle_type_id":"4","last_reported":1766883909,"current_range_meters":10000,"station_id":"ce4bgh92rcd13ifvqb40","pricing_plan_id":"cebpf4jnsgd1na2vs0mg"},{"bike_id":"9ec8656d-c2fc-45ff-af44-860ca4dba739","system_id":"levelo_inurba_marseille","lat":43.22932,"lon":5.35374,"is_reserved":false,"is_disabled":false,"rental_uris":{"android":"levelo://app?vid=9ec8656d-c2fc-45ff-af44-860ca4dba739","ios":"levelo://app?vid=9ec8656d-c2fc-45ff-af44-860ca4dba739"},"vehicle_type_id":"4","last_reported":1766883909,"current_range_meters":10000,"station_id":"cpo3532slgdg3j2ikp40","pricing_plan_id":"cebpf4jnsgd1na2vs0mg"},{"bike_id":"7c5ef131-acab-4659-999a-8e7261371087","system_id":"levelo_inurba_marseille","lat":43.29852,"lon":5.3786,"is_reserved":false,"is_disabled":true,"rental_uris":{"android":"levelo://app?vid=7c5ef131-acab-4659-999a-8e7261371087","ios":"levelo://app?vid=7c5ef131-acab-4659-999a-8e7261371087"},"vehicle_type_id":"4","last_reported":1766883909,"current_range_meters":10000,"station_id":"","pricing_plan_id":"cebpf4jnsgd1na2vs0mg"},{"bike_id":"70680a39-6dc9-4f56-bccc-fa365236de63","system_id":"levelo_inurba_marseille","lat":43.28613,"lon":5.37055,"is_reserved":false,"is_disabled":false,"rental_uris":{"android":"levelo://app?vid=70680a39-6dc9-4f56-bccc-fa365236de63","ios":"levelo://app?vid=70680a39-6dc9-4f56-bccc-fa365236de63"},"vehicle_type_id":"4","last_reported":1766883909,"current_range_meters":10000,"station_id":"ce4bht12rcd13ifvqi60","pricing_plan_id":"cebpf4jnsgd1na2vs0mg"},{"bike_id":"62e53182-a2c7-4f79-9d21-3baec4579bc9","system_id":"levelo_inurba_marseille","lat":43.21199,"lon":5.35077,"is_reserved":false,"is_disabled":false,"rental_uris":{"android":"levelo://app?vid=62e53182-a2c7-4f79-9d21-3baec4579bc9","ios":"levelo://app?vid=62e53182-a2c7-4f79-9d21-3baec4579bc9"},"vehicle_type_id":"4","last_reported":1766883909,"current_range_meters":10000,"station_id":"st_cvj6sg6p6f1abm77japg","pricing_plan_id":"cebpf4jnsgd1na2vs0mg"},{"bike_id":"00ea9d76-4af4-4cec-9323-56dc143935fb","system_id":"levelo_inurba_marseille","lat":43.26551,"lon":5.38995,"is_reserved":false,"is_disabled":false,"rental_uris":{"android":"levelo://app?vid=00ea9d76-4af4-4cec-9323-56dc143935fb","ios":"levelo://app?vid=00ea9d76-4af4-4cec-9323-56dc143935fb"},"vehicle_type_id":"4","last_reported":1766883909,"current_range_meters":10000,"station_id":"ce4bhe12rcd13ifvqf30","pricing_plan_id":"cebpf4jnsgd1na2vs0mg"},{"bike_id":"ec43eae5-e76c-41b4-9f72-39eab274059d","system_id":"levelo_inurba_marseille","lat":43.30733,"lon":5.37123,"is_reserved":false,"is_disabled":false,"rental_uris":{"android":"levelo://app?vid=ec43eae5-e76c-41b4-9f72-39eab274059d","ios":"levelo://app?vid=ec43eae5-e76c-41b4-9f72-39eab274059d"},"vehicle_type_id":"4","last_reported":1766883909,"current_range_meters":10000,"station_id":"","pricing_plan_id":"cebpf4jnsgd1na2vs0mg"},{"bike_id":"9e61cfc7-d8a3-4509-8309-69d87d71ef11","system_id":"levelo_inurba_marseille","lat":43.3248,"lon":5.36584,"is_reserved":false,"is_disabled":false,"rental_uris":{"android":"levelo://app?vid=9e61cfc7-d8a3-4509-8309-69d87d71ef11","ios":"levelo://app?vid=9e61cfc7-d8a3-4509-8309-69d87d71ef11"},"vehicle_type_id":"4","last_reported":1766883909,"current_range_meters":10000,"station_id":"ce4bhs12rcd13ifvqhvg","pricing_plan_id":"cebpf4jnsgd1na2vs0mg"},{"bike_id":"c3f5205e-7d5a-44a9-93c0-681c493d6fe8","system_id":"levelo_inurba_marseille","lat":43.31081,"lon":5.37172,"is_reserved":false,"is_disabled":false,"rental_uris":{"android":"levelo://app?vid=c3f5205e-7d5a-44a9-93c0-681c493d6fe8","ios":"levelo://app?vid=c3f5205e-7d5a-44a9-93c0-681c493d6fe8"},"vehicle_type_id":"4","last_reported":1766883909,"current_range_meters":10000,"station_id":"st_d4kl2rp97mjs73e7tdfg","pricing_plan_id":"cebpf4jnsgd1na2vs0mg"},{"bike_id":"cf10dff0-c65f-457b-8864-435d3da2db86","system_id":"levelo_inurba_marseille","lat":43.300952,"lon":5.390794,"is_reserved":false,"is_disabled":false,"rental_uris":{"android":"levelo://app?vid=cf10dff0-c65f-457b-8864-435d3da2db86","ios":"levelo://app?vid=cf10dff0-c65f-457b-8864-435d3da2db86"},"vehicle_type_id":"4","last_reported":1766883909,"current_range_meters":10000,"station_id":"ce4bh192rcd13ifvqdb0","pricing_plan_id":"cebpf4jnsgd1na2vs0mg"},{"bike_id":"4901c3f8-d016-49e6-b80d-7c18a22198ed","system_id":"levelo_inurba_marseille","lat":43.261973,"lon":5.37444,"is_reserved":false,"is_disabled":false,"rental_uris":{"android":"levelo://app?vid=4901c3f8-d016-49e6-b80d-7c18a22198ed","ios":"levelo://app?vid=4901c3f8-d016-49e6-b80d-7c18a22198ed"},"vehicle_type_id":"4","last_reported":1766883909,"current_range_meters":10000,"station_id":"ce4bhgp2rcd13ifvqfc0","pricing_plan_id":"cebpf4jnsgd1na2vs0mg"},{"bike_id":"ae6f5036-1aa0-4a83-abdc-77ced3fab898","system_id":"levelo_inurba_marseille","lat":43.30933,"lon":5.38027,"is_reserved":false,"is_disabled":false,"rental_uris":{"android":"levelo://app?vid=ae6f5036-1aa0-4a83-abdc-77ced3fab898","ios":"levelo://app?vid=ae6f5036-1aa0-4a83-abdc-77ced3fab898"},"vehicle_type_id":"4","last_reported":1766883909,"current_range_meters":10800,"station_id":"","pricing_plan_id":"cebpf4jnsgd1na2vs0mg"},{"bike_id":"80e5704f-ad4a-47fa-8434-b81adbddb3a7","system_id":"levelo_inurba_marseille","lat":43.27964,"lon":5.41041,"is_reserved":false,"is_disabled":true,"rental_uris":{"android":"levelo://app?vid=80e5704f-ad4a-47fa-8434-b81adbddb3a7","ios":"levelo://app?vid=80e5704f-ad4a-47fa-8434-b81adbddb3a7"},"vehicle_type_id":"4","last_reported":1766883909,"current_range_meters":10800,"station_id":"ce4bhnp2rcd13ifvqh0g","pricing_plan_id":"cebpf4jnsgd1na2vs0mg"},{"bike_id":"50f2d474-ee9b-4c75-ad2b-2a2a28d29ffb","system_id":"levelo_inurba_marseille","lat":43.29688,"lon":5.3855,"is_reserved":false,"is_disabled":false,"rental_uris":{"android":"levelo://app?vid=50f2d474-ee9b-4c75-ad2b-2a2a28d29ffb","ios":"levelo://app?vid=50f2d474-ee9b-4c75-ad2b-2a2a28d29ffb"},"vehicle_type_id":"4","last_reported":1766883909,"current_range_meters":10800,"station_id":"","pricing_plan_id":"cebpf4jnsgd1na2vs0mg"},{"bike_id":"7451e2f1-97cc-4a6a-824e-1c725c74e9d6","system_id":"levelo_inurba_marseille","lat":43.32334,"lon":5.38493,"is_reserved":false,"is_disabled":false,"rental_uris":{"android":"levelo://app?vid=7451e2f1-97cc-4a6a-824e-1c725c74e9d6","ios":"levelo://app?vid=7451e2f1-97cc-4a6a-824e-1c725c74e9d6"},"vehicle_type_id":"4","last_reported":1766883909,"current_range_meters":10800,"station_id":"st_d45171o9ee8s73djdqug","pricing_plan_id":"cebpf4jnsgd1na2vs0mg"},{"bike_id":"577a8429-e907-45de-a0fc-b8c3d38163f6","system_id":"levelo_inurba_marseille","lat":43.30291,"lon":5.36893,"is_reserved":false,"is_disabled":false,"rental_uris":{"android":"levelo://app?vid=577a8429-e907-45de-a0fc-b8c3d38163f6","ios":"levelo://app?vid=577a8429-e907-45de-a0fc-b8c3d38163f6"},"vehicle_type_id":"4","last_reported":1766883909,"current_range_meters":10800,"station_id":"ce4bgqh2rcd13ifvqc5g","pricing_plan_id":"cebpf4jnsgd1na2vs0mg"},{"bike_id":"875cc9ee-27e1-4f02-8c0b-e76400d3ca38","system_id":"levelo_inurba_marseille","lat":43.25338,"lon":5.42172,"is_reserved":false,"is_disabled":false,"rental_uris":{"android":"levelo://app?vid=875cc9ee-27e1-4f02-8c0b-e76400d3ca38","ios":"levelo://app?vid=875cc9ee-27e1-4f02-8c0b-e76400d3ca38"},"vehicle_type_id":"4","last_reported":1766883909,"current_range_meters":10800,"station_id":"st_d2m65c5bi1j21697t3ng","pricing_plan_id":"cebpf4jnsgd1na2vs0mg"},{"bike_id":"4611e732-61f5-45a0-8297-83affa8a636d","system_id":"levelo_inurba_marseille","lat":43.21191,"lon":5.35074,"is_reserved":false,"is_disabled":false,"rental_uris":{"android":"levelo://app?vid=4611e732-61f5-45a0-8297-83affa8a636d","ios":"levelo://app?vid=4611e732-61f5-45a0-8297-83affa8a636d"},"vehicle_type_id":"4","last_reported":1766883909,"current_range_meters":10800,"station_id":"st_cvj6sg6p6f1abm77japg","pricing_plan_id":"cebpf4jnsgd1na2vs0mg"},{"bike_id":"97848435-e4dc-4eee-ab50-f0d1b0b6b0f3","system_id":"levelo_inurba_marseille","lat":43.25846,"lon":5.39898,"is_reserved":false,"is_disabled":true,"rental_uris":{"android":"levelo://app?vid=97848435-e4dc-4eee-ab50-f0d1b0b6b0f3","ios":"levelo://app?vid=97848435-e4dc-4eee-ab50-f0d1b0b6b0f3"},"vehicle_type_id":"4","last_reported":1766883909,"current_range_meters":10800,"station_id":"ce4bhl92rcd13ifvqghg","pricing_plan_id":"cebpf4jnsgd1na2vs0mg"},{"bike_id":"7b941545-04ef-4c35-af28-d0b06d9429ee","system_id":"levelo_inurba_marseille","lat":43.28162,"lon":5.42636,"is_reserved":false,"is_disabled":false,"rental_uris":{"android":"levelo://app?vid=7b941545-04ef-4c35-af28-d0b06d9429ee","ios":"levelo://app?vid=7b941545-04ef-4c35-af28-d0b06d9429ee"},"vehicle_type_id":"4","last_reported":1766883909,"current_range_meters":10800,"station_id":"ce4bhnh2rcd13ifvqgug","pricing_plan_id":"cebpf4jnsgd1na2vs0mg"},{"bike_id":"75d2cd2a-bbd5-40b2-957a-b97ffe73d011","system_id":"levelo_inurba_marseille","lat":43.28662,"lon":5.36338,"is_reserved":false,"is_disabled":false,"rental_uris":{"android":"levelo://app?vid=75d2cd2a-bbd5-40b2-957a-b97ffe73d011","ios":"levelo://app?vid=75d2cd2a-bbd5-40b2-957a-b97ffe73d011"},"vehicle_type_id":"4","last_reported":1766883909,"current_range_meters":10800,"station_id":"ce4bhah2rcd13ifvqej0","pricing_plan_id":"cebpf4jnsgd1na2vs0mg"},{"bike_id":"9e95d4d6-4ead-43b9-b013-3d5e521662f8","system_id":"levelo_inurba_marseille","lat":43.30639,"lon":5.39308,"is_reserved":false,"is_disabled":false,"rental_uris":{"android":"levelo://app?vid=9e95d4d6-4ead-43b9-b013-3d5e521662f8","ios":"levelo://app?vid=9e95d4d6-4ead-43b9-b013-3d5e521662f8"},"vehicle_type_id":"4","last_reported":1766883909,"current_range_meters":11200,"station_id":"","pricing_plan_id":"cebpf4jnsgd1na2vs0mg"},{"bike_id":"b779b4c3-bbd6-4120-94bd-1061db54af08","system_id":"levelo_inurba_marseille","lat":43.28413,"lon":5.37502,"is_reserved":false,"is_disabled":false,"rental_uris":{"android":"levelo://app?vid=b779b4c3-bbd6-4120-94bd-1061db54af08","ios":"levelo://app?vid=b779b4c3-bbd6-4120-94bd-1061db54af08"},"vehicle_type_id":"4","last_reported":1766883909,"current_range_meters":11200,"station_id":"ce4bh412rcd13ifvqds0","pricing_plan_id":"cebpf4jnsgd1na2vs0mg"},{"bike_id":"f2caf87d-4288-4c36-ae25-4b83246253ef","system_id":"levelo_inurba_marseille","lat":43.2737,"lon":5.36256,"is_reserved":false,"is_disabled":false,"rental_uris":{"android":"levelo://app?vid=f2caf87d-4288-4c36-ae25-4b83246253ef","ios":"levelo://app?vid=f2caf87d-4288-4c36-ae25-4b83246253ef"},"vehicle_type_id":"4","last_reported":1766883909,"current_range_meters":11200,"station_id":"ce4bhbh2rcd13ifvqeo0","pricing_plan_id":"cebpf4jnsgd1na2vs0mg"},{"bike_id":"eaf020f4-aef6-4385-ad64-b8dee2e47752","system_id":"levelo_inurba_marseille","lat":43.31712,"lon":5.43705,"is_reserved":false,"is_disabled":false,"rental_uris":{"android":"levelo://app?vid=eaf020f4-aef6-4385-ad64-b8dee2e47752","ios":"levelo://app?vid=eaf020f4-aef6-4385-ad64-b8dee2e47752"},"vehicle_type_id":"4","last_reported":1766883909,"current_range_meters":11200,"station_id":"ce4bhp92rcd13ifvqhcg","pricing_plan_id":"cebpf4jnsgd1na2vs0mg"},{"bike_id":"765d86ce-7793-49fe-8da7-63b3f87de73b","system_id":"levelo_inurba_marseille","lat":43.30455,"lon":5.36583,"is_reserved":false,"is_disabled":false,"rental_uris":{"android":"levelo://app?vid=765d86ce-7793-49fe-8da7-63b3f87de73b","ios":"levelo://app?vid=765d86ce-7793-49fe-8da7-63b3f87de73b"},"vehicle_type_id":"4","last_reported":1766883909,"current_range_meters":11200,"station_id":"","pricing_plan_id":"cebpf4jnsgd1na2vs0mg"},{"bike_id":"49ca9f53-43d3-48c7-b839-92e099a06ee9","system_id":"levelo_inurba_marseille","lat":43.2417,"lon":5.39731,"is_reserved":false,"is_disabled":false,"rental_uris":{"android":"levelo://app?vid=49ca9f53-43d3-48c7-b839-92e099a06ee9","ios":"levelo://app?vid=49ca9f53-43d3-48c7-b839-92e099a06ee9"},"vehicle_type_id":"4","last_reported":1766883909,"current_range_meters":11200,"station_id":"ce4bhn12rcd13ifvqgpg","pricing_plan_id":"cebpf4jnsgd1na2vs0mg"},{"bike_id":"c0723a55-d0d0-493e-a4c5-9479bcaeff93","system_id":"levelo_inurba_marseille","lat":43.28478,"lon":5.483904,"is_reserved":false,"is_disabled":false,"rental_uris":{"android":"levelo://app?vid=c0723a55-d0d0-493e-a4c5-9479bcaeff93","ios":"levelo://app?vid=c0723a55-d0d0-493e-a4c5-9479bcaeff93"},"vehicle_type_id":"4","last_reported":1766883909,"current_range_meters":11200,"station_id":"","pricing_plan_id":"cebpf4jnsgd1na2vs0mg"},{"bike_id":"24ac4676-349c-4703-9fa9-8b3f8ebfc92f","system_id":"levelo_inurba_marseille","lat":43.28539,"lon":5.44091,"is_reserved":false,"is_disabled":false,"rental_uris":{"android":"levelo://app?vid=24ac4676-349c-4703-9fa9-8b3f8ebfc92f","ios":"levelo://app?vid=24ac4676-349c-4703-9fa9-8b3f8ebfc92f"},"vehicle_type_id":"4","last_reported":1766883909,"current_range_meters":11200,"station_id":"st_d3j3df2ikq2c7380ej80","pricing_plan_id":"cebpf4jnsgd1na2vs0mg"},{"bike_id":"cfb521e7-0c66-4bf7-b087-a0f327f7e07a","system_id":"levelo_inurba_marseille","lat":43.26228,"lon":5.40461,"is_reserved":false,"is_disabled":false,"rental_uris":{"android":"levelo://app?vid=cfb521e7-0c66-4bf7-b087-a0f327f7e07a","ios":"levelo://app?vid=cfb521e7-0c66-4bf7-b087-a0f327f7e07a"},"vehicle_type_id":"4","last_reported":1766883909,"current_range_meters":11200,"station_id":"ce4bhmh2rcd13ifvqgmg","pricing_plan_id":"cebpf4jnsgd1na2vs0mg"},{"bike_id":"ee8ca4e8-f3dc-48b9-b5f2-1235114e76c1","system_id":"levelo_inurba_marseille","lat":43.23956,"lon":5.36646,"is_reserved":false,"is_disabled":false,"rental_uris":{"android":"levelo://app?vid=ee8ca4e8-f3dc-48b9-b5f2-1235114e76c1","ios":"levelo://app?vid=ee8ca4e8-f3dc-48b9-b5f2-1235114e76c1"},"vehicle_type_id":"4","last_reported":1766883909,"current_range_meters":11600,"station_id":"ce4bhi12rcd13ifvqfp0","pricing_plan_id":"cebpf4jnsgd1na2vs0mg"},{"bike_id":"9c494ab4-6064-41cc-867f-94d1d4b9902e","system_id":"levelo_inurba_marseille","lat":43.29069,"lon":5.36577,"is_reserved":false,"is_disabled":false,"rental_uris":{"android":"levelo://app?vid=9c494ab4-6064-41cc-867f-94d1d4b9902e","ios":"levelo://app?vid=9c494ab4-6064-41cc-867f-94d1d4b9902e"},"vehicle_type_id":"4","last_reported":1766883909,"current_range_meters":11600,"station_id":"","pricing_plan_id":"cebpf4jnsgd1na2vs0mg"},{"bike_id":"095544cd-b79b-4e0d-9c8f-c370d6604faa","system_id":"levelo_inurba_marseille","lat":43.29604,"lon":5.38105,"is_reserved":false,"is_disabled":false,"rental_uris":{"android":"levelo://app?vid=095544cd-b79b-4e0d-9c8f-c370d6604faa","ios":"levelo://app?vid=095544cd-b79b-4e0d-9c8f-c370d6604faa"},"vehicle_type_id":"4","last_reported":1766883909,"current_range_meters":11600,"station_id":"ce4bgl12rcd13ifvqbo0","pricing_plan_id":"cebpf4jnsgd1na2vs0mg"},{"bike_id":"364a48f3-8473-4e00-9d33-2eb0fe242911","system_id":"levelo_inurba_marseille","lat":43.276703,"lon":5.389127,"is_reserved":false,"is_disabled":true,"rental_uris":{"android":"levelo://app?vid=364a48f3-8473-4e00-9d33-2eb0fe242911","ios":"levelo://app?vid=364a48f3-8473-4e00-9d33-2eb0fe242911"},"vehicle_type_id":"4","last_reported":1766883909,"current_range_meters":11600,"station_id":"ce4bhi12rcd13ifvqfo0","pricing_plan_id":"cebpf4jnsgd1na2vs0mg"},{"bike_id":"17a49efb-d179-4b85-b20c-4afe87c0613f","system_id":"levelo_inurba_marseille","lat":43.31054,"lon":5.371863,"is_reserved":false,"is_disabled":true,"rental_uris":{"android":"levelo://app?vid=17a49efb-d179-4b85-b20c-4afe87c0613f","ios":"levelo://app?vid=17a49efb-d179-4b85-b20c-4afe87c0613f"},"vehicle_type_id":"4","last_reported":1766883909,"current_range_meters":11600,"station_id":"st_d4kl2rp97mjs73e7tdfg","pricing_plan_id":"cebpf4jnsgd1na2vs0mg"},{"bike_id":"c240e16e-ab92-4994-bb7a-6e86a197d84d","system_id":"levelo_inurba_marseille","lat":43.299817,"lon":5.384963,"is_reserved":false,"is_disabled":false,"rental_uris":{"android":"levelo://app?vid=c240e16e-ab92-4994-bb7a-6e86a197d84d","ios":"levelo://app?vid=c240e16e-ab92-4994-bb7a-6e86a197d84d"},"vehicle_type_id":"4","last_reported":1766883909,"current_range_meters":12000,"station_id":"ce4bgj92rcd13ifvqbd0","pricing_plan_id":"cebpf4jnsgd1na2vs0mg"},{"bike_id":"895c70ac-1f7e-49cc-ade5-76a63962a050","system_id":"levelo_inurba_marseille","lat":43.29146,"lon":5.37188,"is_reserved":false,"is_disabled":false,"rental_uris":{"android":"levelo://app?vid=895c70ac-1f7e-49cc-ade5-76a63962a050","ios":"levelo://app?vid=895c70ac-1f7e-49cc-ade5-76a63962a050"},"vehicle_type_id":"4","last_reported":1766883909,"current_range_meters":12000,"station_id":"ce4bha92rcd13ifvqeh0","pricing_plan_id":"cebpf4jnsgd1na2vs0mg"},{"bike_id":"4cccc62f-0042-4297-b544-bf01c9b3e39a","system_id":"levelo_inurba_marseille","lat":43.27842,"lon":5.39196,"is_reserved":false,"is_disabled":true,"rental_uris":{"android":"levelo://app?vid=4cccc62f-0042-4297-b544-bf01c9b3e39a","ios":"levelo://app?vid=4cccc62f-0042-4297-b544-bf01c9b3e39a"},"vehicle_type_id":"4","last_reported":1766883909,"current_range_meters":12000,"station_id":"ce4bhjp2rcd13ifvqga0","pricing_plan_id":"cebpf4jnsgd1na2vs0mg"},{"bike_id":"b49020c2-c5b6-4f82-82da-97752e44010f","system_id":"levelo_inurba_marseille","lat":43.29913,"lon":5.38138,"is_reserved":false,"is_disabled":false,"rental_uris":{"android":"levelo://app?vid=b49020c2-c5b6-4f82-82da-97752e44010f","ios":"levelo://app?vid=b49020c2-c5b6-4f82-82da-97752e44010f"},"vehicle_type_id":"4","last_reported":1766883909,"current_range_meters":12000,"station_id":"ce4bgj12rcd13ifvqbc0","pricing_plan_id":"cebpf4jnsgd1na2vs0mg"},{"bike_id":"e1b6fe91-09ae-4d42-8730-3d2b156ee937","system_id":"levelo_inurba_marseille","lat":43.27828,"lon":5.40745,"is_reserved":false,"is_disabled":false,"rental_uris":{"android":"levelo://app?vid=e1b6fe91-09ae-4d42-8730-3d2b156ee937","ios":"levelo://app?vid=e1b6fe91-09ae-4d42-8730-3d2b156ee937"},"vehicle_type_id":"4","last_reported":1766883909,"current_range_meters":12000,"station_id":"ce4bhnh2rcd13ifvqgtg","pricing_plan_id":"cebpf4jnsgd1na2vs0mg"},{"bike_id":"199b8ef9-121c-4d37-9141-bd46153982f9","system_id":"levelo_inurba_marseille","lat":43.29582,"lon":5.36746,"is_reserved":false,"is_disabled":false,"rental_uris":{"android":"levelo://app?vid=199b8ef9-121c-4d37-9141-bd46153982f9","ios":"levelo://app?vid=199b8ef9-121c-4d37-9141-bd46153982f9"},"vehicle_type_id":"4","last_reported":1766883909,"current_range_meters":12000,"station_id":"ce4bgph2rcd13ifvqc2g","pricing_plan_id":"cebpf4jnsgd1na2vs0mg"},{"bike_id":"2c206418-02d3-4cbf-ae00-3f1c3f6be1fd","system_id":"levelo_inurba_marseille","lat":43.27905,"lon":5.39606,"is_reserved":false,"is_disabled":false,"rental_uris":{"android":"levelo://app?vid=2c206418-02d3-4cbf-ae00-3f1c3f6be1fd","ios":"levelo://app?vid=2c206418-02d3-4cbf-ae00-3f1c3f6be1fd"},"vehicle_type_id":"4","last_reported":1766883909,"current_range_meters":12000,"station_id":"ce4bhf92rcd13ifvqf40","pricing_plan_id":"cebpf4jnsgd1na2vs0mg"},{"bike_id":"3c6dfb34-82b5-4988-93a7-7ce81fb8808f","system_id":"levelo_inurba_marseille","lat":43.27918,"lon":5.39582,"is_reserved":false,"is_disabled":true,"rental_uris":{"android":"levelo://app?vid=3c6dfb34-82b5-4988-93a7-7ce81fb8808f","ios":"levelo://app?vid=3c6dfb34-82b5-4988-93a7-7ce81fb8808f"},"vehicle_type_id":"4","last_reported":1766883909,"current_range_meters":12000,"station_id":"ce4bhf92rcd13ifvqf40","pricing_plan_id":"cebpf4jnsgd1na2vs0mg"},{"bike_id":"0b892fed-0bd6-4090-af8d-e07c7c34675c","system_id":"levelo_inurba_marseille","lat":43.24161,"lon":5.39711,"is_reserved":false,"is_disabled":false,"rental_uris":{"android":"levelo://app?vid=0b892fed-0bd6-4090-af8d-e07c7c34675c","ios":"levelo://app?vid=0b892fed-0bd6-4090-af8d-e07c7c34675c"},"vehicle_type_id":"4","last_reported":1766883909,"current_range_meters":12000,"station_id":"ce4bhn12rcd13ifvqgpg","pricing_plan_id":"cebpf4jnsgd1na2vs0mg"},{"bike_id":"558d8d4d-d226-4676-9199-346ba3a31c24","system_id":"levelo_inurba_marseille","lat":43.27326,"lon":5.39118,"is_reserved":false,"is_disabled":false,"rental_uris":{"android":"levelo://app?vid=558d8d4d-d226-4676-9199-346ba3a31c24","ios":"levelo://app?vid=558d8d4d-d226-4676-9199-346ba3a31c24"},"vehicle_type_id":"4","last_reported":1766883909,"current_range_meters":12000,"station_id":"ce4bhgp2rcd13ifvqfe0","pricing_plan_id":"cebpf4jnsgd1na2vs0mg"},{"bike_id":"8b08e47e-7726-406c-b463-2670aee0cea6","system_id":"levelo_inurba_marseille","lat":43.25731,"lon":5.41113,"is_reserved":false,"is_disabled":false,"rental_uris":{"android":"levelo://app?vid=8b08e47e-7726-406c-b463-2670aee0cea6","ios":"levelo://app?vid=8b08e47e-7726-406c-b463-2670aee0cea6"},"vehicle_type_id":"4","last_reported":1766883909,"current_range_meters":12000,"station_id":"ce4bhkp2rcd13ifvqgd0","pricing_plan_id":"cebpf4jnsgd1na2vs0mg"},{"bike_id":"9cb7d78f-c3f4-4ea4-b64f-7da45aae400a","system_id":"levelo_inurba_marseille","lat":43.31358,"lon":5.36756,"is_reserved":false,"is_disabled":false,"rental_uris":{"android":"levelo://app?vid=9cb7d78f-c3f4-4ea4-b64f-7da45aae400a","ios":"levelo://app?vid=9cb7d78f-c3f4-4ea4-b64f-7da45aae400a"},"vehicle_type_id":"4","last_reported":1766883909,"current_range_meters":12400,"station_id":"ce4bgr92rcd13ifvqc6g","pricing_plan_id":"cebpf4jnsgd1na2vs0mg"},{"bike_id":"537c96c3-c167-47e1-aa8f-6def75b31180","system_id":"levelo_inurba_marseille","lat":43.30328,"lon":5.40438,"is_reserved":false,"is_disabled":false,"rental_uris":{"android":"levelo://app?vid=537c96c3-c167-47e1-aa8f-6def75b31180","ios":"levelo://app?vid=537c96c3-c167-47e1-aa8f-6def75b31180"},"vehicle_type_id":"4","last_reported":1766883909,"current_range_meters":12400,"station_id":"ce4bh012rcd13ifvqd10","pricing_plan_id":"cebpf4jnsgd1na2vs0mg"},{"bike_id":"5c6e3ec7-cc1e-4910-93fe-8737f63c13e6","system_id":"levelo_inurba_marseille","lat":43.34149,"lon":5.409,"is_reserved":false,"is_disabled":false,"rental_uris":{"android":"levelo://app?vid=5c6e3ec7-cc1e-4910-93fe-8737f63c13e6","ios":"levelo://app?vid=5c6e3ec7-cc1e-4910-93fe-8737f63c13e6"},"vehicle_type_id":"4","last_reported":1766883909,"current_range_meters":12400,"station_id":"ce4bhqh2rcd13ifvqhlg","pricing_plan_id":"cebpf4jnsgd1na2vs0mg"},{"bike_id":"580155fc-c9ad-4365-86e8-536c105ed327","system_id":"levelo_inurba_marseille","lat":43.29976,"lon":5.37194,"is_reserved":false,"is_disabled":false,"rental_uris":{"android":"levelo://app?vid=580155fc-c9ad-4365-86e8-536c105ed327","ios":"levelo://app?vid=580155fc-c9ad-4365-86e8-536c105ed327"},"vehicle_type_id":"4","last_reported":1766883909,"current_range_meters":12400,"station_id":"ce4bgr92rcd13ifvqc7g","pricing_plan_id":"cebpf4jnsgd1na2vs0mg"},{"bike_id":"04d9e7ee-9a99-4477-a798-9646527f6ec9","system_id":"levelo_inurba_marseille","lat":43.26562,"lon":5.40326,"is_reserved":false,"is_disabled":false,"rental_uris":{"android":"levelo://app?vid=04d9e7ee-9a99-4477-a798-9646527f6ec9","ios":"levelo://app?vid=04d9e7ee-9a99-4477-a798-9646527f6ec9"},"vehicle_type_id":"4","last_reported":1766883909,"current_range_meters":12400,"station_id":"ce4bhmp2rcd13ifvqgng","pricing_plan_id":"cebpf4jnsgd1na2vs0mg"},{"bike_id":"3a2620d4-d775-4d47-a41f-e80a2864ecdd","system_id":"levelo_inurba_marseille","lat":43.26546,"lon":5.37296,"is_reserved":false,"is_disabled":false,"rental_uris":{"android":"levelo://app?vid=3a2620d4-d775-4d47-a41f-e80a2864ecdd","ios":"levelo://app?vid=3a2620d4-d775-4d47-a41f-e80a2864ecdd"},"vehicle_type_id":"4","last_reported":1766883909,"current_range_meters":12400,"station_id":"ce4bhg12rcd13ifvqf70","pricing_plan_id":"cebpf4jnsgd1na2vs0mg"},{"bike_id":"c267a687-5d3a-4391-868f-0c73efcfc0f9","system_id":"levelo_inurba_marseille","lat":43.30939,"lon":5.37263,"is_reserved":false,"is_disabled":false,"rental_uris":{"android":"levelo://app?vid=c267a687-5d3a-4391-868f-0c73efcfc0f9","ios":"levelo://app?vid=c267a687-5d3a-4391-868f-0c73efcfc0f9"},"vehicle_type_id":"4","last_reported":1766883909,"current_range_meters":12400,"station_id":"","pricing_plan_id":"cebpf4jnsgd1na2vs0mg"},{"bike_id":"278b026d-7c90-4296-9421-3e0684d777fa","system_id":"levelo_inurba_marseille","lat":43.30023,"lon":5.38217,"is_reserved":false,"is_disabled":false,"rental_uris":{"android":"levelo://app?vid=278b026d-7c90-4296-9421-3e0684d777fa","ios":"levelo://app?vid=278b026d-7c90-4296-9421-3e0684d777fa"},"vehicle_type_id":"4","last_reported":1766883909,"current_range_meters":12400,"station_id":"","pricing_plan_id":"cebpf4jnsgd1na2vs0mg"},{"bike_id":"8e9d5089-31e7-465f-ac6c-3a93651db4d5","system_id":"levelo_inurba_marseille","lat":43.30277,"lon":5.36872,"is_reserved":false,"is_disabled":false,"rental_uris":{"android":"levelo://app?vid=8e9d5089-31e7-465f-ac6c-3a93651db4d5","ios":"levelo://app?vid=8e9d5089-31e7-465f-ac6c-3a93651db4d5"},"vehicle_type_id":"4","last_reported":1766883909,"current_range_meters":12400,"station_id":"","pricing_plan_id":"cebpf4jnsgd1na2vs0mg"},{"bike_id":"4fe3897e-e3cf-4486-a367-865ecaf4afbf","system_id":"levelo_inurba_marseille","lat":43.30154,"lon":5.37416,"is_reserved":false,"is_disabled":false,"rental_uris":{"android":"levelo://app?vid=4fe3897e-e3cf-4486-a367-865ecaf4afbf","ios":"levelo://app?vid=4fe3897e-e3cf-4486-a367-865ecaf4afbf"},"vehicle_type_id":"4","last_reported":1766883909,"current_range_meters":12400,"station_id":"ce4bgs92rcd13ifvqcc0","pricing_plan_id":"cebpf4jnsgd1na2vs0mg"},{"bike_id":"94a4f78c-e446-461f-88ab-f6767a352a00","system_id":"levelo_inurba_marseille","lat":43.2827,"lon":5.35075,"is_reserved":false,"is_disabled":true,"rental_uris":{"android":"levelo://app?vid=94a4f78c-e446-461f-88ab-f6767a352a00","ios":"levelo://app?vid=94a4f78c-e446-461f-88ab-f6767a352a00"},"vehicle_type_id":"4","last_reported":1766883909,"current_range_meters":12800,"station_id":"ce4bhbp2rcd13ifvqerg","pricing_plan_id":"cebpf4jnsgd1na2vs0mg"},{"bike_id":"3926ea1c-bbc8-44d4-b73b-6574029555e8","system_id":"levelo_inurba_marseille","lat":43.28724,"lon":5.37922,"is_reserved":false,"is_disabled":false,"rental_uris":{"android":"levelo://app?vid=3926ea1c-bbc8-44d4-b73b-6574029555e8","ios":"levelo://app?vid=3926ea1c-bbc8-44d4-b73b-6574029555e8"},"vehicle_type_id":"4","last_reported":1766883909,"current_range_meters":12800,"station_id":"ce4bh9p2rcd13ifvqec0","pricing_plan_id":"cebpf4jnsgd1na2vs0mg"},{"bike_id":"85ae5dae-b019-492e-a186-279b18cdedb8","system_id":"levelo_inurba_marseille","lat":43.299161,"lon":5.374694,"is_reserved":false,"is_disabled":false,"rental_uris":{"android":"levelo://app?vid=85ae5dae-b019-492e-a186-279b18cdedb8","ios":"levelo://app?vid=85ae5dae-b019-492e-a186-279b18cdedb8"},"vehicle_type_id":"4","last_reported":1766883909,"current_range_meters":12800,"station_id":"ce4bgjh2rcd13ifvqbg0","pricing_plan_id":"cebpf4jnsgd1na2vs0mg"},{"bike_id":"49b0c665-fa12-4a0c-89df-f6080413a778","system_id":"levelo_inurba_marseille","lat":43.27556,"lon":5.38441,"is_reserved":false,"is_disabled":false,"rental_uris":{"android":"levelo://app?vid=49b0c665-fa12-4a0c-89df-f6080413a778","ios":"levelo://app?vid=49b0c665-fa12-4a0c-89df-f6080413a778"},"vehicle_type_id":"4","last_reported":1766883909,"current_range_meters":12800,"station_id":"ce4bhh92rcd13ifvqfi0","pricing_plan_id":"cebpf4jnsgd1na2vs0mg"},{"bike_id":"b7166de2-1d61-4c79-9744-9f412287c996","system_id":"levelo_inurba_marseille","lat":43.31231,"lon":5.38085,"is_reserved":false,"is_disabled":false,"rental_uris":{"android":"levelo://app?vid=b7166de2-1d61-4c79-9744-9f412287c996","ios":"levelo://app?vid=b7166de2-1d61-4c79-9744-9f412287c996"},"vehicle_type_id":"4","last_reported":1766883909,"current_range_meters":12800,"station_id":"","pricing_plan_id":"cebpf4jnsgd1na2vs0mg"},{"bike_id":"13510b18-4a9b-47d0-a954-6d7cdc2c118c","system_id":"levelo_inurba_marseille","lat":43.28497,"lon":5.48389,"is_reserved":false,"is_disabled":false,"rental_uris":{"android":"levelo://app?vid=13510b18-4a9b-47d0-a954-6d7cdc2c118c","ios":"levelo://app?vid=13510b18-4a9b-47d0-a954-6d7cdc2c118c"},"vehicle_type_id":"4","last_reported":1766883909,"current_range_meters":12800,"station_id":"st_d3svhcjqgbts73a3dn0g","pricing_plan_id":"cebpf4jnsgd1na2vs0mg"},{"bike_id":"3a8eae66-603b-4cc6-a47a-5e999d573fad","system_id":"levelo_inurba_marseille","lat":43.27006,"lon":5.38755,"is_reserved":false,"is_disabled":false,"rental_uris":{"android":"levelo://app?vid=3a8eae66-603b-4cc6-a47a-5e999d573fad","ios":"levelo://app?vid=3a8eae66-603b-4cc6-a47a-5e999d573fad"},"vehicle_type_id":"4","last_reported":1766883909,"current_range_meters":12800,"station_id":"","pricing_plan_id":"cebpf4jnsgd1na2vs0mg"},{"bike_id":"71240c45-865a-4c49-9538-853a427a3227","system_id":"levelo_inurba_marseille","lat":43.28673,"lon":5.38656,"is_reserved":false,"is_disabled":false,"rental_uris":{"android":"levelo://app?vid=71240c45-865a-4c49-9538-853a427a3227","ios":"levelo://app?vid=71240c45-865a-4c49-9538-853a427a3227"},"vehicle_type_id":"4","last_reported":1766883909,"current_range_meters":12800,"station_id":"ce4bh492rcd13ifvqdug","pricing_plan_id":"cebpf4jnsgd1na2vs0mg"},{"bike_id":"b5376b50-f066-4d3a-a28c-616e971a9e4d","system_id":"levelo_inurba_marseille","lat":43.26021,"lon":5.41748,"is_reserved":false,"is_disabled":false,"rental_uris":{"android":"levelo://app?vid=b5376b50-f066-4d3a-a28c-616e971a9e4d","ios":"levelo://app?vid=b5376b50-f066-4d3a-a28c-616e971a9e4d"},"vehicle_type_id":"4","last_reported":1766883909,"current_range_meters":12800,"station_id":"","pricing_plan_id":"cebpf4jnsgd1na2vs0mg"},{"bike_id":"e2f87a65-0fc3-4ab9-92fd-82dd33f37644","system_id":"levelo_inurba_marseille","lat":43.2636,"lon":5.41072,"is_reserved":false,"is_disabled":false,"rental_uris":{"android":"levelo://app?vid=e2f87a65-0fc3-4ab9-92fd-82dd33f37644","ios":"levelo://app?vid=e2f87a65-0fc3-4ab9-92fd-82dd33f37644"},"vehicle_type_id":"4","last_reported":1766883909,"current_range_meters":12800,"station_id":"st_d4e5ca6na9uc73bfl5fg","pricing_plan_id":"cebpf4jnsgd1na2vs0mg"},{"bike_id":"4c52f016-6b1e-4517-8d1c-67692ee4764a","system_id":"levelo_inurba_marseille","lat":43.253362,"lon":5.421691,"is_reserved":false,"is_disabled":false,"rental_uris":{"android":"levelo://app?vid=4c52f016-6b1e-4517-8d1c-67692ee4764a","ios":"levelo://app?vid=4c52f016-6b1e-4517-8d1c-67692ee4764a"},"vehicle_type_id":"4","last_reported":1766883909,"current_range_meters":12800,"station_id":"st_d2m65c5bi1j21697t3ng","pricing_plan_id":"cebpf4jnsgd1na2vs0mg"},{"bike_id":"63483ba9-c080-479c-8103-27dad2762b1d","system_id":"levelo_inurba_marseille","lat":43.2931,"lon":5.37187,"is_reserved":false,"is_disabled":false,"rental_uris":{"android":"levelo://app?vid=63483ba9-c080-479c-8103-27dad2762b1d","ios":"levelo://app?vid=63483ba9-c080-479c-8103-27dad2762b1d"},"vehicle_type_id":"4","last_reported":1766883909,"current_range_meters":13600,"station_id":"ce4bgh92rcd13ifvqb40","pricing_plan_id":"cebpf4jnsgd1na2vs0mg"},{"bike_id":"6a877136-931e-4908-bcac-f7ed9e964583","system_id":"levelo_inurba_marseille","lat":43.287508,"lon":5.379386,"is_reserved":false,"is_disabled":false,"rental_uris":{"android":"levelo://app?vid=6a877136-931e-4908-bcac-f7ed9e964583","ios":"levelo://app?vid=6a877136-931e-4908-bcac-f7ed9e964583"},"vehicle_type_id":"4","last_reported":1766883909,"current_range_meters":13600,"station_id":"ce4bh9p2rcd13ifvqec0","pricing_plan_id":"cebpf4jnsgd1na2vs0mg"},{"bike_id":"80de60ca-64a0-4e5b-8a4a-906f78b8b649","system_id":"levelo_inurba_marseille","lat":43.27066,"lon":5.42273,"is_reserved":false,"is_disabled":false,"rental_uris":{"android":"levelo://app?vid=80de60ca-64a0-4e5b-8a4a-906f78b8b649","ios":"levelo://app?vid=80de60ca-64a0-4e5b-8a4a-906f78b8b649"},"vehicle_type_id":"4","last_reported":1766883909,"current_range_meters":13600,"station_id":"ce4bhk92rcd13ifvqgb0","pricing_plan_id":"cebpf4jnsgd1na2vs0mg"},{"bike_id":"e44fdb7f-8720-46ac-981c-054c6ce20310","system_id":"levelo_inurba_marseille","lat":43.28471,"lon":5.48403,"is_reserved":false,"is_disabled":true,"rental_uris":{"android":"levelo://app?vid=e44fdb7f-8720-46ac-981c-054c6ce20310","ios":"levelo://app?vid=e44fdb7f-8720-46ac-981c-054c6ce20310"},"vehicle_type_id":"4","last_reported":1766883909,"current_range_meters":13600,"station_id":"st_d3svhcjqgbts73a3dn0g","pricing_plan_id":"cebpf4jnsgd1na2vs0mg"},{"bike_id":"98088ced-0432-42af-bcb8-19621c1eebd3","system_id":"levelo_inurba_marseille","lat":43.26958,"lon":5.38623,"is_reserved":false,"is_disabled":false,"rental_uris":{"android":"levelo://app?vid=98088ced-0432-42af-bcb8-19621c1eebd3","ios":"levelo://app?vid=98088ced-0432-42af-bcb8-19621c1eebd3"},"vehicle_type_id":"4","last_reported":1766883909,"current_range_meters":13600,"station_id":"ce4bhh92rcd13ifvqfh0","pricing_plan_id":"cebpf4jnsgd1na2vs0mg"},{"bike_id":"bbf79c3d-08ca-4c87-b5f9-8b31cf1aef88","system_id":"levelo_inurba_marseille","lat":43.32014,"lon":5.41543,"is_reserved":false,"is_disabled":false,"rental_uris":{"android":"levelo://app?vid=bbf79c3d-08ca-4c87-b5f9-8b31cf1aef88","ios":"levelo://app?vid=bbf79c3d-08ca-4c87-b5f9-8b31cf1aef88"},"vehicle_type_id":"4","last_reported":1766883909,"current_range_meters":13600,"station_id":"ce4bhq92rcd13ifvqhkg","pricing_plan_id":"cebpf4jnsgd1na2vs0mg"},{"bike_id":"17122469-6fe8-44cc-83aa-2add588c9ff0","system_id":"levelo_inurba_marseille","lat":43.27072,"lon":5.42292,"is_reserved":false,"is_disabled":false,"rental_uris":{"android":"levelo://app?vid=17122469-6fe8-44cc-83aa-2add588c9ff0","ios":"levelo://app?vid=17122469-6fe8-44cc-83aa-2add588c9ff0"},"vehicle_type_id":"4","last_reported":1766883909,"current_range_meters":13600,"station_id":"ce4bhk92rcd13ifvqgb0","pricing_plan_id":"cebpf4jnsgd1na2vs0mg"},{"bike_id":"a6b53d1a-173e-4590-b41b-38c6ae4d2437","system_id":"levelo_inurba_marseille","lat":43.29274,"lon":5.36857,"is_reserved":false,"is_disabled":false,"rental_uris":{"android":"levelo://app?vid=a6b53d1a-173e-4590-b41b-38c6ae4d2437","ios":"levelo://app?vid=a6b53d1a-173e-4590-b41b-38c6ae4d2437"},"vehicle_type_id":"4","last_reported":1766883909,"current_range_meters":13600,"station_id":"ce4bhbp2rcd13ifvqesg","pricing_plan_id":"cebpf4jnsgd1na2vs0mg"},{"bike_id":"275dd1c7-fcb2-46d8-98c7-521751829e50","system_id":"levelo_inurba_marseille","lat":43.337444,"lon":5.374475,"is_reserved":false,"is_disabled":false,"rental_uris":{"android":"levelo://app?vid=275dd1c7-fcb2-46d8-98c7-521751829e50","ios":"levelo://app?vid=275dd1c7-fcb2-46d8-98c7-521751829e50"},"vehicle_type_id":"4","last_reported":1766883909,"current_range_meters":13600,"station_id":"ce4bhqh2rcd13ifvqhmg","pricing_plan_id":"cebpf4jnsgd1na2vs0mg"},{"bike_id":"a35366dc-d58e-4947-9654-51a113ad48ed","system_id":"levelo_inurba_marseille","lat":43.31342,"lon":5.36693,"is_reserved":false,"is_disabled":false,"rental_uris":{"android":"levelo://app?vid=a35366dc-d58e-4947-9654-51a113ad48ed","ios":"levelo://app?vid=a35366dc-d58e-4947-9654-51a113ad48ed"},"vehicle_type_id":"4","last_reported":1766883909,"current_range_meters":14000,"station_id":"ce4bgr92rcd13ifvqc6g","pricing_plan_id":"cebpf4jnsgd1na2vs0mg"},{"bike_id":"f01cc437-ef1e-483b-a62b-741f6f5f54be","system_id":"levelo_inurba_marseille","lat":43.296169,"lon":5.377361,"is_reserved":false,"is_disabled":false,"rental_uris":{"android":"levelo://app?vid=f01cc437-ef1e-483b-a62b-741f6f5f54be","ios":"levelo://app?vid=f01cc437-ef1e-483b-a62b-741f6f5f54be"},"vehicle_type_id":"4","last_reported":1766883909,"current_range_meters":14000,"station_id":"ce4bgi92rcd13ifvqb90","pricing_plan_id":"cebpf4jnsgd1na2vs0mg"},{"bike_id":"81062f73-91d6-4254-837a-3a79f2f3a1d9","system_id":"levelo_inurba_marseille","lat":43.28119,"lon":5.38927,"is_reserved":false,"is_disabled":false,"rental_uris":{"android":"levelo://app?vid=81062f73-91d6-4254-837a-3a79f2f3a1d9","ios":"levelo://app?vid=81062f73-91d6-4254-837a-3a79f2f3a1d9"},"vehicle_type_id":"4","last_reported":1766883909,"current_range_meters":14000,"station_id":"","pricing_plan_id":"cebpf4jnsgd1na2vs0mg"},{"bike_id":"c5365846-c619-4f12-8c92-97c9f9725a15","system_id":"levelo_inurba_marseille","lat":43.2953,"lon":5.37947,"is_reserved":false,"is_disabled":false,"rental_uris":{"android":"levelo://app?vid=c5365846-c619-4f12-8c92-97c9f9725a15","ios":"levelo://app?vid=c5365846-c619-4f12-8c92-97c9f9725a15"},"vehicle_type_id":"4","last_reported":1766883909,"current_range_meters":14000,"station_id":"","pricing_plan_id":"cebpf4jnsgd1na2vs0mg"},{"bike_id":"ba4d9011-62b2-4515-ad99-0dd2330b9a35","system_id":"levelo_inurba_marseille","lat":43.296184,"lon":5.371517,"is_reserved":false,"is_disabled":false,"rental_uris":{"android":"levelo://app?vid=ba4d9011-62b2-4515-ad99-0dd2330b9a35","ios":"levelo://app?vid=ba4d9011-62b2-4515-ad99-0dd2330b9a35"},"vehicle_type_id":"4","last_reported":1766883909,"current_range_meters":14000,"station_id":"ce4bgnh2rcd13ifvqc0g","pricing_plan_id":"cebpf4jnsgd1na2vs0mg"},{"bike_id":"d07dc22c-a864-4104-81e7-c60339403064","system_id":"levelo_inurba_marseille","lat":43.29887,"lon":5.37637,"is_reserved":false,"is_disabled":false,"rental_uris":{"android":"levelo://app?vid=d07dc22c-a864-4104-81e7-c60339403064","ios":"levelo://app?vid=d07dc22c-a864-4104-81e7-c60339403064"},"vehicle_type_id":"4","last_reported":1766883909,"current_range_meters":14400,"station_id":"","pricing_plan_id":"cebpf4jnsgd1na2vs0mg"},{"bike_id":"d384a9df-7728-4c53-be17-7057305f0e11","system_id":"levelo_inurba_marseille","lat":43.231957,"lon":5.399853,"is_reserved":false,"is_disabled":false,"rental_uris":{"android":"levelo://app?vid=d384a9df-7728-4c53-be17-7057305f0e11","ios":"levelo://app?vid=d384a9df-7728-4c53-be17-7057305f0e11"},"vehicle_type_id":"4","last_reported":1766883909,"current_range_meters":14400,"station_id":"ce4bhn12rcd13ifvqgqg","pricing_plan_id":"cebpf4jnsgd1na2vs0mg"},{"bike_id":"0643dfd9-c5d9-40ae-bed1-b24cc38800cd","system_id":"levelo_inurba_marseille","lat":43.27676,"lon":5.38867,"is_reserved":false,"is_disabled":false,"rental_uris":{"android":"levelo://app?vid=0643dfd9-c5d9-40ae-bed1-b24cc38800cd","ios":"levelo://app?vid=0643dfd9-c5d9-40ae-bed1-b24cc38800cd"},"vehicle_type_id":"4","last_reported":1766883909,"current_range_meters":14400,"station_id":"ce4bhi12rcd13ifvqfo0","pricing_plan_id":"cebpf4jnsgd1na2vs0mg"},{"bike_id":"ade91ab6-5e8a-4de3-9d82-ea6f467f1576","system_id":"levelo_inurba_marseille","lat":43.22954,"lon":5.3539,"is_reserved":false,"is_disabled":false,"rental_uris":{"android":"levelo://app?vid=ade91ab6-5e8a-4de3-9d82-ea6f467f1576","ios":"levelo://app?vid=ade91ab6-5e8a-4de3-9d82-ea6f467f1576"},"vehicle_type_id":"4","last_reported":1766883909,"current_range_meters":14400,"station_id":"cpo3532slgdg3j2ikp40","pricing_plan_id":"cebpf4jnsgd1na2vs0mg"},{"bike_id":"b54e376b-d51a-44ea-a2d7-a09cc0607bc3","system_id":"levelo_inurba_marseille","lat":43.29046,"lon":5.3715,"is_reserved":false,"is_disabled":false,"rental_uris":{"android":"levelo://app?vid=b54e376b-d51a-44ea-a2d7-a09cc0607bc3","ios":"levelo://app?vid=b54e376b-d51a-44ea-a2d7-a09cc0607bc3"},"vehicle_type_id":"4","last_reported":1766883909,"current_range_meters":14400,"station_id":"ce4bh5p2rcd13ifvqe4g","pricing_plan_id":"cebpf4jnsgd1na2vs0mg"},{"bike_id":"e77a2825-2f18-453f-84dc-7cda1b3d469d","system_id":"levelo_inurba_marseille","lat":43.29022,"lon":5.38129,"is_reserved":false,"is_disabled":true,"rental_uris":{"android":"levelo://app?vid=e77a2825-2f18-453f-84dc-7cda1b3d469d","ios":"levelo://app?vid=e77a2825-2f18-453f-84dc-7cda1b3d469d"},"vehicle_type_id":"4","last_reported":1766883909,"current_range_meters":14400,"station_id":"ce4bh4p2rcd13ifvqe1g","pricing_plan_id":"cebpf4jnsgd1na2vs0mg"},{"bike_id":"1045d0d5-72de-4a66-82c5-54bce4ab2617","system_id":"levelo_inurba_marseille","lat":43.31271,"lon":5.38939,"is_reserved":false,"is_disabled":false,"rental_uris":{"android":"levelo://app?vid=1045d0d5-72de-4a66-82c5-54bce4ab2617","ios":"levelo://app?vid=1045d0d5-72de-4a66-82c5-54bce4ab2617"},"vehicle_type_id":"4","last_reported":1766883909,"current_range_meters":14400,"station_id":"","pricing_plan_id":"cebpf4jnsgd1na2vs0mg"},{"bike_id":"b8359eb8-309f-4919-a9d8-14bc8a289068","system_id":"levelo_inurba_marseille","lat":43.29845,"lon":5.381046,"is_reserved":false,"is_disabled":false,"rental_uris":{"android":"levelo://app?vid=b8359eb8-309f-4919-a9d8-14bc8a289068","ios":"levelo://app?vid=b8359eb8-309f-4919-a9d8-14bc8a289068"},"vehicle_type_id":"4","last_reported":1766883909,"current_range_meters":14400,"station_id":"","pricing_plan_id":"cebpf4jnsgd1na2vs0mg"},{"bike_id":"d6a449d9-67ef-4444-ae17-bd1e29b48728","system_id":"levelo_inurba_marseille","lat":43.285767,"lon":5.429835,"is_reserved":false,"is_disabled":false,"rental_uris":{"android":"levelo://app?vid=d6a449d9-67ef-4444-ae17-bd1e29b48728","ios":"levelo://app?vid=d6a449d9-67ef-4444-ae17-bd1e29b48728"},"vehicle_type_id":"4","last_reported":1766883909,"current_range_meters":14400,"station_id":"","pricing_plan_id":"cebpf4jnsgd1na2vs0mg"},{"bike_id":"cf7f7a1b-4848-4d25-ae51-9226e586f4b6","system_id":"levelo_inurba_marseille","lat":43.2966,"lon":5.36573,"is_reserved":false,"is_disabled":false,"rental_uris":{"android":"levelo://app?vid=cf7f7a1b-4848-4d25-ae51-9226e586f4b6","ios":"levelo://app?vid=cf7f7a1b-4848-4d25-ae51-9226e586f4b6"},"vehicle_type_id":"4","last_reported":1766883909,"current_range_meters":14400,"station_id":"","pricing_plan_id":"cebpf4jnsgd1na2vs0mg"},{"bike_id":"cf0e2dfe-8751-4251-bbd3-3ad00be9f3ad","system_id":"levelo_inurba_marseille","lat":43.28478,"lon":5.48392,"is_reserved":false,"is_disabled":false,"rental_uris":{"android":"levelo://app?vid=cf0e2dfe-8751-4251-bbd3-3ad00be9f3ad","ios":"levelo://app?vid=cf0e2dfe-8751-4251-bbd3-3ad00be9f3ad"},"vehicle_type_id":"4","last_reported":1766883909,"current_range_meters":14400,"station_id":"st_d3svhcjqgbts73a3dn0g","pricing_plan_id":"cebpf4jnsgd1na2vs0mg"},{"bike_id":"f4bd4050-bbb2-4a3a-89ad-dc72c5505cbb","system_id":"levelo_inurba_marseille","lat":43.29741,"lon":5.37736,"is_reserved":false,"is_disabled":false,"rental_uris":{"android":"levelo://app?vid=f4bd4050-bbb2-4a3a-89ad-dc72c5505cbb","ios":"levelo://app?vid=f4bd4050-bbb2-4a3a-89ad-dc72c5505cbb"},"vehicle_type_id":"4","last_reported":1766883909,"current_range_meters":14400,"station_id":"","pricing_plan_id":"cebpf4jnsgd1na2vs0mg"},{"bike_id":"47fb9cad-9172-49bf-ba10-e52cffbfd29b","system_id":"levelo_inurba_marseille","lat":43.29219,"lon":5.3606,"is_reserved":false,"is_disabled":false,"rental_uris":{"android":"levelo://app?vid=47fb9cad-9172-49bf-ba10-e52cffbfd29b","ios":"levelo://app?vid=47fb9cad-9172-49bf-ba10-e52cffbfd29b"},"vehicle_type_id":"4","last_reported":1766883909,"current_range_meters":14400,"station_id":"ce4bhbh2rcd13ifvqeqg","pricing_plan_id":"cebpf4jnsgd1na2vs0mg"},{"bike_id":"96cff8a2-c8e3-4b17-8132-2de8c70febcb","system_id":"levelo_inurba_marseille","lat":43.28531,"lon":5.44089,"is_reserved":false,"is_disabled":false,"rental_uris":{"android":"levelo://app?vid=96cff8a2-c8e3-4b17-8132-2de8c70febcb","ios":"levelo://app?vid=96cff8a2-c8e3-4b17-8132-2de8c70febcb"},"vehicle_type_id":"4","last_reported":1766883909,"current_range_meters":14800,"station_id":"st_d3j3df2ikq2c7380ej80","pricing_plan_id":"cebpf4jnsgd1na2vs0mg"},{"bike_id":"7b15289f-f847-4424-b1a2-7f78ef3f0d48","system_id":"levelo_inurba_marseille","lat":43.3107,"lon":5.3837,"is_reserved":false,"is_disabled":false,"rental_uris":{"android":"levelo://app?vid=7b15289f-f847-4424-b1a2-7f78ef3f0d48","ios":"levelo://app?vid=7b15289f-f847-4424-b1a2-7f78ef3f0d48"},"vehicle_type_id":"4","last_reported":1766883909,"current_range_meters":14800,"station_id":"ce4bgv92rcd13ifvqcr0","pricing_plan_id":"cebpf4jnsgd1na2vs0mg"},{"bike_id":"8c244405-7454-45de-885a-ab8b4d4fbdaa","system_id":"levelo_inurba_marseille","lat":43.31701,"lon":5.43695,"is_reserved":false,"is_disabled":false,"rental_uris":{"android":"levelo://app?vid=8c244405-7454-45de-885a-ab8b4d4fbdaa","ios":"levelo://app?vid=8c244405-7454-45de-885a-ab8b4d4fbdaa"},"vehicle_type_id":"4","last_reported":1766883909,"current_range_meters":14800,"station_id":"ce4bhp92rcd13ifvqhcg","pricing_plan_id":"cebpf4jnsgd1na2vs0mg"},{"bike_id":"4db2dd6f-8183-4e90-af8a-d7adac78a5ac","system_id":"levelo_inurba_marseille","lat":43.27203,"lon":5.39186,"is_reserved":false,"is_disabled":true,"rental_uris":{"android":"levelo://app?vid=4db2dd6f-8183-4e90-af8a-d7adac78a5ac","ios":"levelo://app?vid=4db2dd6f-8183-4e90-af8a-d7adac78a5ac"},"vehicle_type_id":"4","last_reported":1766883909,"current_range_meters":14800,"station_id":"ce4bhhp2rcd13ifvqfm0","pricing_plan_id":"cebpf4jnsgd1na2vs0mg"},{"bike_id":"4843f5fc-7f22-4dd3-867c-1e8f5297805f","system_id":"levelo_inurba_marseille","lat":43.31497,"lon":5.37312,"is_reserved":false,"is_disabled":false,"rental_uris":{"android":"levelo://app?vid=4843f5fc-7f22-4dd3-867c-1e8f5297805f","ios":"levelo://app?vid=4843f5fc-7f22-4dd3-867c-1e8f5297805f"},"vehicle_type_id":"4","last_reported":1766883909,"current_range_meters":14800,"station_id":"ce4bgt12rcd13ifvqcd0","pricing_plan_id":"cebpf4jnsgd1na2vs0mg"},{"bike_id":"651c8d18-a513-45b6-8ce4-7babf693645e","system_id":"levelo_inurba_marseille","lat":43.295755,"lon":5.37507,"is_reserved":false,"is_disabled":false,"rental_uris":{"android":"levelo://app?vid=651c8d18-a513-45b6-8ce4-7babf693645e","ios":"levelo://app?vid=651c8d18-a513-45b6-8ce4-7babf693645e"},"vehicle_type_id":"4","last_reported":1766883909,"current_range_meters":15200,"station_id":"ce4bgh92rcd13ifvqb50","pricing_plan_id":"cebpf4jnsgd1na2vs0mg"},{"bike_id":"a69353e8-79cf-4c23-b280-c941659c8119","system_id":"levelo_inurba_marseille","lat":43.30546,"lon":5.36541,"is_reserved":false,"is_disabled":false,"rental_uris":{"android":"levelo://app?vid=a69353e8-79cf-4c23-b280-c941659c8119","ios":"levelo://app?vid=a69353e8-79cf-4c23-b280-c941659c8119"},"vehicle_type_id":"4","last_reported":1766883909,"current_range_meters":15200,"station_id":"ce4bgs12rcd13ifvqcag","pricing_plan_id":"cebpf4jnsgd1na2vs0mg"},{"bike_id":"15237073-b447-4e45-8ad1-f1a977d7ce81","system_id":"levelo_inurba_marseille","lat":43.31318,"lon":5.3971,"is_reserved":false,"is_disabled":false,"rental_uris":{"android":"levelo://app?vid=15237073-b447-4e45-8ad1-f1a977d7ce81","ios":"levelo://app?vid=15237073-b447-4e45-8ad1-f1a977d7ce81"},"vehicle_type_id":"4","last_reported":1766883909,"current_range_meters":15200,"station_id":"ce4bgvp2rcd13ifvqcu0","pricing_plan_id":"cebpf4jnsgd1na2vs0mg"},{"bike_id":"d6036d6a-4554-450a-813c-91b6688060ce","system_id":"levelo_inurba_marseille","lat":43.29538,"lon":5.38545,"is_reserved":false,"is_disabled":false,"rental_uris":{"android":"levelo://app?vid=d6036d6a-4554-450a-813c-91b6688060ce","ios":"levelo://app?vid=d6036d6a-4554-450a-813c-91b6688060ce"},"vehicle_type_id":"4","last_reported":1766883909,"current_range_meters":15200,"station_id":"ce4bgih2rcd13ifvqba0","pricing_plan_id":"cebpf4jnsgd1na2vs0mg"},{"bike_id":"1ce23908-ff51-41f8-ae03-8ff4794d4a9c","system_id":"levelo_inurba_marseille","lat":43.27305,"lon":5.39066,"is_reserved":false,"is_disabled":false,"rental_uris":{"android":"levelo://app?vid=1ce23908-ff51-41f8-ae03-8ff4794d4a9c","ios":"levelo://app?vid=1ce23908-ff51-41f8-ae03-8ff4794d4a9c"},"vehicle_type_id":"4","last_reported":1766883909,"current_range_meters":15200,"station_id":"ce4bhgp2rcd13ifvqfe0","pricing_plan_id":"cebpf4jnsgd1na2vs0mg"},{"bike_id":"5e62b23f-3386-4337-a1a4-edfe3d7f3411","system_id":"levelo_inurba_marseille","lat":43.28152,"lon":5.42653,"is_reserved":false,"is_disabled":false,"rental_uris":{"android":"levelo://app?vid=5e62b23f-3386-4337-a1a4-edfe3d7f3411","ios":"levelo://app?vid=5e62b23f-3386-4337-a1a4-edfe3d7f3411"},"vehicle_type_id":"4","last_reported":1766883909,"current_range_meters":15200,"station_id":"ce4bhnh2rcd13ifvqgug","pricing_plan_id":"cebpf4jnsgd1na2vs0mg"},{"bike_id":"9197e0cd-d425-4870-b05c-e97175fb7e55","system_id":"levelo_inurba_marseille","lat":43.28006,"lon":5.41683,"is_reserved":false,"is_disabled":false,"rental_uris":{"android":"levelo://app?vid=9197e0cd-d425-4870-b05c-e97175fb7e55","ios":"levelo://app?vid=9197e0cd-d425-4870-b05c-e97175fb7e55"},"vehicle_type_id":"4","last_reported":1766883909,"current_range_meters":15200,"station_id":"ce4bho12rcd13ifvqh1g","pricing_plan_id":"cebpf4jnsgd1na2vs0mg"},{"bike_id":"ef10592e-adff-49b5-8467-d9f686a1a24b","system_id":"levelo_inurba_marseille","lat":43.28143,"lon":5.42651,"is_reserved":false,"is_disabled":false,"rental_uris":{"android":"levelo://app?vid=ef10592e-adff-49b5-8467-d9f686a1a24b","ios":"levelo://app?vid=ef10592e-adff-49b5-8467-d9f686a1a24b"},"vehicle_type_id":"4","last_reported":1766883909,"current_range_meters":15200,"station_id":"ce4bhnh2rcd13ifvqgug","pricing_plan_id":"cebpf4jnsgd1na2vs0mg"},{"bike_id":"5b749fe2-f403-49d1-914b-4e5a1f99b92b","system_id":"levelo_inurba_marseille","lat":43.25352,"lon":5.42181,"is_reserved":false,"is_disabled":false,"rental_uris":{"android":"levelo://app?vid=5b749fe2-f403-49d1-914b-4e5a1f99b92b","ios":"levelo://app?vid=5b749fe2-f403-49d1-914b-4e5a1f99b92b"},"vehicle_type_id":"4","last_reported":1766883909,"current_range_meters":15200,"station_id":"st_d2m65c5bi1j21697t3ng","pricing_plan_id":"cebpf4jnsgd1na2vs0mg"},{"bike_id":"821fef51-8ad4-4b0b-b2da-173c4ed2d51d","system_id":"levelo_inurba_marseille","lat":43.24647,"lon":5.38887,"is_reserved":false,"is_disabled":true,"rental_uris":{"android":"levelo://app?vid=821fef51-8ad4-4b0b-b2da-173c4ed2d51d","ios":"levelo://app?vid=821fef51-8ad4-4b0b-b2da-173c4ed2d51d"},"vehicle_type_id":"4","last_reported":1766883909,"current_range_meters":15200,"station_id":"ce4bhg12rcd13ifvqf60","pricing_plan_id":"cebpf4jnsgd1na2vs0mg"},{"bike_id":"417386cf-4059-4a1f-ab41-a9b62b453096","system_id":"levelo_inurba_marseille","lat":43.33772,"lon":5.3743,"is_reserved":false,"is_disabled":false,"rental_uris":{"android":"levelo://app?vid=417386cf-4059-4a1f-ab41-a9b62b453096","ios":"levelo://app?vid=417386cf-4059-4a1f-ab41-a9b62b453096"},"vehicle_type_id":"4","last_reported":1766883909,"current_range_meters":15200,"station_id":"","pricing_plan_id":"cebpf4jnsgd1na2vs0mg"},{"bike_id":"40d73e8d-0c27-4119-afd6-7fe731b3c8a2","system_id":"levelo_inurba_marseille","lat":43.23193,"lon":5.35547,"is_reserved":false,"is_disabled":false,"rental_uris":{"android":"levelo://app?vid=40d73e8d-0c27-4119-afd6-7fe731b3c8a2","ios":"levelo://app?vid=40d73e8d-0c27-4119-afd6-7fe731b3c8a2"},"vehicle_type_id":"4","last_reported":1766883909,"current_range_meters":16000,"station_id":"ce4bhu92rcd13ifvqi70","pricing_plan_id":"cebpf4jnsgd1na2vs0mg"},{"bike_id":"f9aefd96-ff9f-436b-9129-ecd99bd3e479","system_id":"levelo_inurba_marseille","lat":43.29573,"lon":5.39957,"is_reserved":false,"is_disabled":false,"rental_uris":{"android":"levelo://app?vid=f9aefd96-ff9f-436b-9129-ecd99bd3e479","ios":"levelo://app?vid=f9aefd96-ff9f-436b-9129-ecd99bd3e479"},"vehicle_type_id":"4","last_reported":1766883909,"current_range_meters":16000,"station_id":"ce4bh312rcd13ifvqdj0","pricing_plan_id":"cebpf4jnsgd1na2vs0mg"},{"bike_id":"19f74941-04e4-478b-8e11-a2167d213916","system_id":"levelo_inurba_marseille","lat":43.265668,"lon":5.390191,"is_reserved":false,"is_disabled":false,"rental_uris":{"android":"levelo://app?vid=19f74941-04e4-478b-8e11-a2167d213916","ios":"levelo://app?vid=19f74941-04e4-478b-8e11-a2167d213916"},"vehicle_type_id":"4","last_reported":1766883909,"current_range_meters":16000,"station_id":"ce4bhe12rcd13ifvqf30","pricing_plan_id":"cebpf4jnsgd1na2vs0mg"},{"bike_id":"e4a07b1e-6fca-41f2-9c81-4f94a8361727","system_id":"levelo_inurba_marseille","lat":43.290369,"lon":5.399726,"is_reserved":false,"is_disabled":false,"rental_uris":{"android":"levelo://app?vid=e4a07b1e-6fca-41f2-9c81-4f94a8361727","ios":"levelo://app?vid=e4a07b1e-6fca-41f2-9c81-4f94a8361727"},"vehicle_type_id":"4","last_reported":1766883909,"current_range_meters":16000,"station_id":"","pricing_plan_id":"cebpf4jnsgd1na2vs0mg"},{"bike_id":"12c38b32-5974-4311-910a-572392b8079a","system_id":"levelo_inurba_marseille","lat":43.280442,"lon":5.350859,"is_reserved":false,"is_disabled":false,"rental_uris":{"android":"levelo://app?vid=12c38b32-5974-4311-910a-572392b8079a","ios":"levelo://app?vid=12c38b32-5974-4311-910a-572392b8079a"},"vehicle_type_id":"4","last_reported":1766883909,"current_range_meters":16000,"station_id":"","pricing_plan_id":"cebpf4jnsgd1na2vs0mg"},{"bike_id":"94b65cfe-edaf-4322-865d-06eff46e3ede","system_id":"levelo_inurba_marseille","lat":43.30039,"lon":5.3736,"is_reserved":false,"is_disabled":false,"rental_uris":{"android":"levelo://app?vid=94b65cfe-edaf-4322-865d-06eff46e3ede","ios":"levelo://app?vid=94b65cfe-edaf-4322-865d-06eff46e3ede"},"vehicle_type_id":"4","last_reported":1766883909,"current_range_meters":16000,"station_id":"","pricing_plan_id":"cebpf4jnsgd1na2vs0mg"},{"bike_id":"c5ceed16-6dfe-409f-82bf-89ae8b5810cf","system_id":"levelo_inurba_marseille","lat":43.28532,"lon":5.44103,"is_reserved":false,"is_disabled":false,"rental_uris":{"android":"levelo://app?vid=c5ceed16-6dfe-409f-82bf-89ae8b5810cf","ios":"levelo://app?vid=c5ceed16-6dfe-409f-82bf-89ae8b5810cf"},"vehicle_type_id":"4","last_reported":1766883909,"current_range_meters":16000,"station_id":"st_d3j3df2ikq2c7380ej80","pricing_plan_id":"cebpf4jnsgd1na2vs0mg"},{"bike_id":"c447b73a-4286-4a12-9297-8e6ba930cd60","system_id":"levelo_inurba_marseille","lat":43.312757,"lon":5.377568,"is_reserved":false,"is_disabled":false,"rental_uris":{"android":"levelo://app?vid=c447b73a-4286-4a12-9297-8e6ba930cd60","ios":"levelo://app?vid=c447b73a-4286-4a12-9297-8e6ba930cd60"},"vehicle_type_id":"4","last_reported":1766883909,"current_range_meters":16000,"station_id":"","pricing_plan_id":"cebpf4jnsgd1na2vs0mg"},{"bike_id":"8555eb79-ed2a-4c82-8720-d641edfc6391","system_id":"levelo_inurba_marseille","lat":43.24378,"lon":5.3708,"is_reserved":false,"is_disabled":false,"rental_uris":{"android":"levelo://app?vid=8555eb79-ed2a-4c82-8720-d641edfc6391","ios":"levelo://app?vid=8555eb79-ed2a-4c82-8720-d641edfc6391"},"vehicle_type_id":"4","last_reported":1766883909,"current_range_meters":16000,"station_id":"ce4bhhh2rcd13ifvqfk0","pricing_plan_id":"cebpf4jnsgd1na2vs0mg"},{"bike_id":"bc24b938-459f-43d0-b32d-6e21c9897709","system_id":"levelo_inurba_marseille","lat":43.272155,"lon":5.391761,"is_reserved":false,"is_disabled":false,"rental_uris":{"android":"levelo://app?vid=bc24b938-459f-43d0-b32d-6e21c9897709","ios":"levelo://app?vid=bc24b938-459f-43d0-b32d-6e21c9897709"},"vehicle_type_id":"4","last_reported":1766883909,"current_range_meters":16000,"station_id":"ce4bhhp2rcd13ifvqfm0","pricing_plan_id":"cebpf4jnsgd1na2vs0mg"},{"bike_id":"098f918b-7e64-4c56-82e2-d74de59319c1","system_id":"levelo_inurba_marseille","lat":43.284006,"lon":5.37509,"is_reserved":false,"is_disabled":false,"rental_uris":{"android":"levelo://app?vid=098f918b-7e64-4c56-82e2-d74de59319c1","ios":"levelo://app?vid=098f918b-7e64-4c56-82e2-d74de59319c1"},"vehicle_type_id":"4","last_reported":1766883909,"current_range_meters":16000,"station_id":"ce4bh412rcd13ifvqds0","pricing_plan_id":"cebpf4jnsgd1na2vs0mg"},{"bike_id":"b672c522-aca1-4885-98f6-4e99eceec109","system_id":"levelo_inurba_marseille","lat":43.30091,"lon":5.38692,"is_reserved":false,"is_disabled":true,"rental_uris":{"android":"levelo://app?vid=b672c522-aca1-4885-98f6-4e99eceec109","ios":"levelo://app?vid=b672c522-aca1-4885-98f6-4e99eceec109"},"vehicle_type_id":"4","last_reported":1766883909,"current_range_meters":16400,"station_id":"","pricing_plan_id":"cebpf4jnsgd1na2vs0mg"},{"bike_id":"bf558925-5984-47ad-89f6-6bf69e318d0b","system_id":"levelo_inurba_marseille","lat":43.330899,"lon":5.412786,"is_reserved":false,"is_disabled":false,"rental_uris":{"android":"levelo://app?vid=bf558925-5984-47ad-89f6-6bf69e318d0b","ios":"levelo://app?vid=bf558925-5984-47ad-89f6-6bf69e318d0b"},"vehicle_type_id":"4","last_reported":1766883909,"current_range_meters":16400,"station_id":"","pricing_plan_id":"cebpf4jnsgd1na2vs0mg"},{"bike_id":"6fa493c4-834e-4025-9483-a44850f1e06d","system_id":"levelo_inurba_marseille","lat":43.33614,"lon":5.4103,"is_reserved":false,"is_disabled":false,"rental_uris":{"android":"levelo://app?vid=6fa493c4-834e-4025-9483-a44850f1e06d","ios":"levelo://app?vid=6fa493c4-834e-4025-9483-a44850f1e06d"},"vehicle_type_id":"4","last_reported":1766883909,"current_range_meters":16400,"station_id":"ce4bhqh2rcd13ifvqhmg","pricing_plan_id":"cebpf4jnsgd1na2vs0mg"},{"bike_id":"8b31d071-5fde-4a77-9541-06c44ba6f416","system_id":"levelo_inurba_marseille","lat":43.27203,"lon":5.40987,"is_reserved":false,"is_disabled":false,"rental_uris":{"android":"levelo://app?vid=8b31d071-5fde-4a77-9541-06c44ba6f416","ios":"levelo://app?vid=8b31d071-5fde-4a77-9541-06c44ba6f416"},"vehicle_type_id":"4","last_reported":1766883909,"current_range_meters":16400,"station_id":"ce4bhl12rcd13ifvqgf0","pricing_plan_id":"cebpf4jnsgd1na2vs0mg"},{"bike_id":"d55b76b7-3988-4ec5-bad7-cf7a518ebbc2","system_id":"levelo_inurba_marseille","lat":43.30935,"lon":5.40166,"is_reserved":false,"is_disabled":false,"rental_uris":{"android":"levelo://app?vid=d55b76b7-3988-4ec5-bad7-cf7a518ebbc2","ios":"levelo://app?vid=d55b76b7-3988-4ec5-bad7-cf7a518ebbc2"},"vehicle_type_id":"4","last_reported":1766883909,"current_range_meters":16400,"station_id":"ce4bgvp2rcd13ifvqct0","pricing_plan_id":"cebpf4jnsgd1na2vs0mg"},{"bike_id":"61b15b32-726a-4cf6-82ac-da3b7a71dc6a","system_id":"levelo_inurba_marseille","lat":43.29979,"lon":5.3716,"is_reserved":false,"is_disabled":false,"rental_uris":{"android":"levelo://app?vid=61b15b32-726a-4cf6-82ac-da3b7a71dc6a","ios":"levelo://app?vid=61b15b32-726a-4cf6-82ac-da3b7a71dc6a"},"vehicle_type_id":"4","last_reported":1766883909,"current_range_meters":16400,"station_id":"ce4bgr92rcd13ifvqc7g","pricing_plan_id":"cebpf4jnsgd1na2vs0mg"},{"bike_id":"b956703e-54b6-427f-a944-6c35eb339098","system_id":"levelo_inurba_marseille","lat":43.31227,"lon":5.36841,"is_reserved":false,"is_disabled":false,"rental_uris":{"android":"levelo://app?vid=b956703e-54b6-427f-a944-6c35eb339098","ios":"levelo://app?vid=b956703e-54b6-427f-a944-6c35eb339098"},"vehicle_type_id":"4","last_reported":1766883909,"current_range_meters":16400,"station_id":"ce4bgl92rcd13ifvqbq0","pricing_plan_id":"cebpf4jnsgd1na2vs0mg"},{"bike_id":"009a3abe-17db-45a4-962d-ccda5205be12","system_id":"levelo_inurba_marseille","lat":43.30564,"lon":5.36518,"is_reserved":false,"is_disabled":false,"rental_uris":{"android":"levelo://app?vid=009a3abe-17db-45a4-962d-ccda5205be12","ios":"levelo://app?vid=009a3abe-17db-45a4-962d-ccda5205be12"},"vehicle_type_id":"4","last_reported":1766883909,"current_range_meters":16400,"station_id":"ce4bgs12rcd13ifvqcag","pricing_plan_id":"cebpf4jnsgd1na2vs0mg"},{"bike_id":"c84b8e47-5802-4c21-b1cc-1df47c4f26c2","system_id":"levelo_inurba_marseille","lat":43.28504,"lon":5.48409,"is_reserved":false,"is_disabled":false,"rental_uris":{"android":"levelo://app?vid=c84b8e47-5802-4c21-b1cc-1df47c4f26c2","ios":"levelo://app?vid=c84b8e47-5802-4c21-b1cc-1df47c4f26c2"},"vehicle_type_id":"4","last_reported":1766883909,"current_range_meters":16400,"station_id":"st_d3svhcjqgbts73a3dn0g","pricing_plan_id":"cebpf4jnsgd1na2vs0mg"},{"bike_id":"e9ffa096-acd4-4048-a7b2-1c444588a8ee","system_id":"levelo_inurba_marseille","lat":43.28512,"lon":5.44081,"is_reserved":false,"is_disabled":false,"rental_uris":{"android":"levelo://app?vid=e9ffa096-acd4-4048-a7b2-1c444588a8ee","ios":"levelo://app?vid=e9ffa096-acd4-4048-a7b2-1c444588a8ee"},"vehicle_type_id":"4","last_reported":1766883909,"current_range_meters":16400,"station_id":"st_d3j3df2ikq2c7380ej80","pricing_plan_id":"cebpf4jnsgd1na2vs0mg"},{"bike_id":"9b2d0712-3ac5-402d-bf31-0ee5331ac79b","system_id":"levelo_inurba_marseille","lat":43.30036,"lon":5.38776,"is_reserved":false,"is_disabled":false,"rental_uris":{"android":"levelo://app?vid=9b2d0712-3ac5-402d-bf31-0ee5331ac79b","ios":"levelo://app?vid=9b2d0712-3ac5-402d-bf31-0ee5331ac79b"},"vehicle_type_id":"4","last_reported":1766883909,"current_range_meters":16400,"station_id":"","pricing_plan_id":"cebpf4jnsgd1na2vs0mg"},{"bike_id":"9f81db56-9f18-4d2c-a126-f0fd49630ab7","system_id":"levelo_inurba_marseille","lat":43.32039,"lon":5.41564,"is_reserved":false,"is_disabled":false,"rental_uris":{"android":"levelo://app?vid=9f81db56-9f18-4d2c-a126-f0fd49630ab7","ios":"levelo://app?vid=9f81db56-9f18-4d2c-a126-f0fd49630ab7"},"vehicle_type_id":"4","last_reported":1766883909,"current_range_meters":16400,"station_id":"ce4bhq92rcd13ifvqhkg","pricing_plan_id":"cebpf4jnsgd1na2vs0mg"},{"bike_id":"3d8062de-4bd0-49c7-86a6-7bf3b5df4845","system_id":"levelo_inurba_marseille","lat":43.284771,"lon":5.483979,"is_reserved":false,"is_disabled":false,"rental_uris":{"android":"levelo://app?vid=3d8062de-4bd0-49c7-86a6-7bf3b5df4845","ios":"levelo://app?vid=3d8062de-4bd0-49c7-86a6-7bf3b5df4845"},"vehicle_type_id":"4","last_reported":1766883909,"current_range_meters":16400,"station_id":"","pricing_plan_id":"cebpf4jnsgd1na2vs0mg"},{"bike_id":"4bdd5a90-6051-4c04-8fea-5f3bffc97a44","system_id":"levelo_inurba_marseille","lat":43.21753,"lon":5.34621,"is_reserved":false,"is_disabled":false,"rental_uris":{"android":"levelo://app?vid=4bdd5a90-6051-4c04-8fea-5f3bffc97a44","ios":"levelo://app?vid=4bdd5a90-6051-4c04-8fea-5f3bffc97a44"},"vehicle_type_id":"4","last_reported":1766883909,"current_range_meters":16400,"station_id":"","pricing_plan_id":"cebpf4jnsgd1na2vs0mg"},{"bike_id":"f8c75f49-59f5-43d0-a50c-ce391d91c6c4","system_id":"levelo_inurba_marseille","lat":43.22927,"lon":5.35398,"is_reserved":false,"is_disabled":false,"rental_uris":{"android":"levelo://app?vid=f8c75f49-59f5-43d0-a50c-ce391d91c6c4","ios":"levelo://app?vid=f8c75f49-59f5-43d0-a50c-ce391d91c6c4"},"vehicle_type_id":"4","last_reported":1766883909,"current_range_meters":16400,"station_id":"cpo3532slgdg3j2ikp40","pricing_plan_id":"cebpf4jnsgd1na2vs0mg"},{"bike_id":"49166d3a-7d57-41ae-b5e6-9a6cbabce031","system_id":"levelo_inurba_marseille","lat":43.29686,"lon":5.36771,"is_reserved":false,"is_disabled":false,"rental_uris":{"android":"levelo://app?vid=49166d3a-7d57-41ae-b5e6-9a6cbabce031","ios":"levelo://app?vid=49166d3a-7d57-41ae-b5e6-9a6cbabce031"},"vehicle_type_id":"4","last_reported":1766883909,"current_range_meters":16800,"station_id":"","pricing_plan_id":"cebpf4jnsgd1na2vs0mg"},{"bike_id":"30506207-76ad-457b-9cde-3d6921f0760b","system_id":"levelo_inurba_marseille","lat":43.27939,"lon":5.4105,"is_reserved":false,"is_disabled":false,"rental_uris":{"android":"levelo://app?vid=30506207-76ad-457b-9cde-3d6921f0760b","ios":"levelo://app?vid=30506207-76ad-457b-9cde-3d6921f0760b"},"vehicle_type_id":"4","last_reported":1766883909,"current_range_meters":16800,"station_id":"ce4bhnp2rcd13ifvqh0g","pricing_plan_id":"cebpf4jnsgd1na2vs0mg"},{"bike_id":"c6d7197a-f832-481a-b8b6-70765dc4d724","system_id":"levelo_inurba_marseille","lat":43.27365,"lon":5.36236,"is_reserved":false,"is_disabled":false,"rental_uris":{"android":"levelo://app?vid=c6d7197a-f832-481a-b8b6-70765dc4d724","ios":"levelo://app?vid=c6d7197a-f832-481a-b8b6-70765dc4d724"},"vehicle_type_id":"4","last_reported":1766883909,"current_range_meters":16800,"station_id":"ce4bhbh2rcd13ifvqeo0","pricing_plan_id":"cebpf4jnsgd1na2vs0mg"},{"bike_id":"b854b6ee-7341-4f78-909e-177f500ef203","system_id":"levelo_inurba_marseille","lat":43.2848,"lon":5.3841,"is_reserved":false,"is_disabled":false,"rental_uris":{"android":"levelo://app?vid=b854b6ee-7341-4f78-909e-177f500ef203","ios":"levelo://app?vid=b854b6ee-7341-4f78-909e-177f500ef203"},"vehicle_type_id":"4","last_reported":1766883909,"current_range_meters":16800,"station_id":"ce4bh512rcd13ifvqe3g","pricing_plan_id":"cebpf4jnsgd1na2vs0mg"},{"bike_id":"dc47a473-6377-4424-adf4-6498be065ab5","system_id":"levelo_inurba_marseille","lat":43.26925,"lon":5.38928,"is_reserved":false,"is_disabled":false,"rental_uris":{"android":"levelo://app?vid=dc47a473-6377-4424-adf4-6498be065ab5","ios":"levelo://app?vid=dc47a473-6377-4424-adf4-6498be065ab5"},"vehicle_type_id":"4","last_reported":1766883909,"current_range_meters":16800,"station_id":"ce4bhhh2rcd13ifvqfl0","pricing_plan_id":"cebpf4jnsgd1na2vs0mg"},{"bike_id":"c03aa070-26a3-46a4-b104-b236ef7e32dd","system_id":"levelo_inurba_marseille","lat":43.29844,"lon":5.36301,"is_reserved":false,"is_disabled":false,"rental_uris":{"android":"levelo://app?vid=c03aa070-26a3-46a4-b104-b236ef7e32dd","ios":"levelo://app?vid=c03aa070-26a3-46a4-b104-b236ef7e32dd"},"vehicle_type_id":"4","last_reported":1766883909,"current_range_meters":16800,"station_id":"ce4bgpp2rcd13ifvqc3g","pricing_plan_id":"cebpf4jnsgd1na2vs0mg"},{"bike_id":"3840688d-cc44-40a4-80d2-25998707e735","system_id":"levelo_inurba_marseille","lat":43.26547,"lon":5.39484,"is_reserved":false,"is_disabled":false,"rental_uris":{"android":"levelo://app?vid=3840688d-cc44-40a4-80d2-25998707e735","ios":"levelo://app?vid=3840688d-cc44-40a4-80d2-25998707e735"},"vehicle_type_id":"4","last_reported":1766883909,"current_range_meters":16800,"station_id":"","pricing_plan_id":"cebpf4jnsgd1na2vs0mg"},{"bike_id":"e8614ad4-b227-4221-b4a0-9ed65f8f6fa7","system_id":"levelo_inurba_marseille","lat":43.29294,"lon":5.37453,"is_reserved":false,"is_disabled":false,"rental_uris":{"android":"levelo://app?vid=e8614ad4-b227-4221-b4a0-9ed65f8f6fa7","ios":"levelo://app?vid=e8614ad4-b227-4221-b4a0-9ed65f8f6fa7"},"vehicle_type_id":"4","last_reported":1766883909,"current_range_meters":16800,"station_id":"ce4bgi12rcd13ifvqb70","pricing_plan_id":"cebpf4jnsgd1na2vs0mg"},{"bike_id":"4ac20ed1-ab47-463c-96de-d7def8de3118","system_id":"levelo_inurba_marseille","lat":43.32359,"lon":5.36732,"is_reserved":false,"is_disabled":true,"rental_uris":{"android":"levelo://app?vid=4ac20ed1-ab47-463c-96de-d7def8de3118","ios":"levelo://app?vid=4ac20ed1-ab47-463c-96de-d7def8de3118"},"vehicle_type_id":"4","last_reported":1766883909,"current_range_meters":16800,"station_id":"ce4bhsh2rcd13ifvqi2g","pricing_plan_id":"cebpf4jnsgd1na2vs0mg"},{"bike_id":"07d3e072-21ac-495c-ac65-7040b0bf3346","system_id":"levelo_inurba_marseille","lat":43.295327,"lon":5.385453,"is_reserved":false,"is_disabled":false,"rental_uris":{"android":"levelo://app?vid=07d3e072-21ac-495c-ac65-7040b0bf3346","ios":"levelo://app?vid=07d3e072-21ac-495c-ac65-7040b0bf3346"},"vehicle_type_id":"4","last_reported":1766883909,"current_range_meters":16800,"station_id":"ce4bgih2rcd13ifvqba0","pricing_plan_id":"cebpf4jnsgd1na2vs0mg"},{"bike_id":"1afd2c0e-e266-4f45-8541-b175450bf256","system_id":"levelo_inurba_marseille","lat":43.321002,"lon":5.368162,"is_reserved":false,"is_disabled":false,"rental_uris":{"android":"levelo://app?vid=1afd2c0e-e266-4f45-8541-b175450bf256","ios":"levelo://app?vid=1afd2c0e-e266-4f45-8541-b175450bf256"},"vehicle_type_id":"4","last_reported":1766883909,"current_range_meters":16800,"station_id":"ce4bhrh2rcd13ifvqhug","pricing_plan_id":"cebpf4jnsgd1na2vs0mg"},{"bike_id":"22b228a2-1b0d-42a4-8030-6f7437da690b","system_id":"levelo_inurba_marseille","lat":43.289803,"lon":5.39808,"is_reserved":false,"is_disabled":false,"rental_uris":{"android":"levelo://app?vid=22b228a2-1b0d-42a4-8030-6f7437da690b","ios":"levelo://app?vid=22b228a2-1b0d-42a4-8030-6f7437da690b"},"vehicle_type_id":"4","last_reported":1766883909,"current_range_meters":16800,"station_id":"ce4bh392rcd13ifvqdm0","pricing_plan_id":"cebpf4jnsgd1na2vs0mg"},{"bike_id":"8e408ba0-2118-43f7-a8ba-d277410a9103","system_id":"levelo_inurba_marseille","lat":43.31239,"lon":5.3807,"is_reserved":false,"is_disabled":false,"rental_uris":{"android":"levelo://app?vid=8e408ba0-2118-43f7-a8ba-d277410a9103","ios":"levelo://app?vid=8e408ba0-2118-43f7-a8ba-d277410a9103"},"vehicle_type_id":"4","last_reported":1766883909,"current_range_meters":17200,"station_id":"","pricing_plan_id":"cebpf4jnsgd1na2vs0mg"},{"bike_id":"27d81ff3-38bc-4f6b-a893-a02860fd51cd","system_id":"levelo_inurba_marseille","lat":43.29566,"lon":5.39988,"is_reserved":false,"is_disabled":false,"rental_uris":{"android":"levelo://app?vid=27d81ff3-38bc-4f6b-a893-a02860fd51cd","ios":"levelo://app?vid=27d81ff3-38bc-4f6b-a893-a02860fd51cd"},"vehicle_type_id":"4","last_reported":1766883909,"current_range_meters":17200,"station_id":"ce4bh312rcd13ifvqdj0","pricing_plan_id":"cebpf4jnsgd1na2vs0mg"},{"bike_id":"83dca1a7-48e7-450f-ba29-633c503f4c11","system_id":"levelo_inurba_marseille","lat":43.3102,"lon":5.42758,"is_reserved":false,"is_disabled":false,"rental_uris":{"android":"levelo://app?vid=83dca1a7-48e7-450f-ba29-633c503f4c11","ios":"levelo://app?vid=83dca1a7-48e7-450f-ba29-633c503f4c11"},"vehicle_type_id":"4","last_reported":1766883909,"current_range_meters":17200,"station_id":"","pricing_plan_id":"cebpf4jnsgd1na2vs0mg"},{"bike_id":"e05d3b20-3341-4f48-bf31-095dd3b5e5c8","system_id":"levelo_inurba_marseille","lat":43.22926,"lon":5.35376,"is_reserved":false,"is_disabled":false,"rental_uris":{"android":"levelo://app?vid=e05d3b20-3341-4f48-bf31-095dd3b5e5c8","ios":"levelo://app?vid=e05d3b20-3341-4f48-bf31-095dd3b5e5c8"},"vehicle_type_id":"4","last_reported":1766883909,"current_range_meters":17200,"station_id":"cpo3532slgdg3j2ikp40","pricing_plan_id":"cebpf4jnsgd1na2vs0mg"},{"bike_id":"67a7760a-cb91-401a-ae7e-6280c5d6ddbd","system_id":"levelo_inurba_marseille","lat":43.2963,"lon":5.40588,"is_reserved":false,"is_disabled":false,"rental_uris":{"android":"levelo://app?vid=67a7760a-cb91-401a-ae7e-6280c5d6ddbd","ios":"levelo://app?vid=67a7760a-cb91-401a-ae7e-6280c5d6ddbd"},"vehicle_type_id":"4","last_reported":1766883909,"current_range_meters":17200,"station_id":"ce4bh0h2rcd13ifvqd60","pricing_plan_id":"cebpf4jnsgd1na2vs0mg"},{"bike_id":"27d0f3bd-d805-4e03-8197-f3ec2fb8a2e7","system_id":"levelo_inurba_marseille","lat":43.31227,"lon":5.36868,"is_reserved":false,"is_disabled":false,"rental_uris":{"android":"levelo://app?vid=27d0f3bd-d805-4e03-8197-f3ec2fb8a2e7","ios":"levelo://app?vid=27d0f3bd-d805-4e03-8197-f3ec2fb8a2e7"},"vehicle_type_id":"4","last_reported":1766883909,"current_range_meters":17200,"station_id":"ce4bgl92rcd13ifvqbq0","pricing_plan_id":"cebpf4jnsgd1na2vs0mg"},{"bike_id":"80dbd64a-bc91-4c6f-885a-5048f29c86df","system_id":"levelo_inurba_marseille","lat":43.26495,"lon":5.39532,"is_reserved":false,"is_disabled":false,"rental_uris":{"android":"levelo://app?vid=80dbd64a-bc91-4c6f-885a-5048f29c86df","ios":"levelo://app?vid=80dbd64a-bc91-4c6f-885a-5048f29c86df"},"vehicle_type_id":"4","last_reported":1766883909,"current_range_meters":17200,"station_id":"ce4bhi12rcd13ifvqfq0","pricing_plan_id":"cebpf4jnsgd1na2vs0mg"},{"bike_id":"62cf4cee-7c0c-4908-8bd6-9190e5298cee","system_id":"levelo_inurba_marseille","lat":43.22569,"lon":5.41622,"is_reserved":false,"is_disabled":false,"rental_uris":{"android":"levelo://app?vid=62cf4cee-7c0c-4908-8bd6-9190e5298cee","ios":"levelo://app?vid=62cf4cee-7c0c-4908-8bd6-9190e5298cee"},"vehicle_type_id":"4","last_reported":1766883909,"current_range_meters":17200,"station_id":"st_d2o4gvlbi1j2169b742g","pricing_plan_id":"cebpf4jnsgd1na2vs0mg"},{"bike_id":"78039576-c8c3-4c49-a798-f19dacb4adff","system_id":"levelo_inurba_marseille","lat":43.30142,"lon":5.38095,"is_reserved":false,"is_disabled":false,"rental_uris":{"android":"levelo://app?vid=78039576-c8c3-4c49-a798-f19dacb4adff","ios":"levelo://app?vid=78039576-c8c3-4c49-a798-f19dacb4adff"},"vehicle_type_id":"4","last_reported":1766883909,"current_range_meters":17200,"station_id":"ce4bgjp2rcd13ifvqbh0","pricing_plan_id":"cebpf4jnsgd1na2vs0mg"},{"bike_id":"345fd902-8d08-4b0f-8b8e-e91d27f22d37","system_id":"levelo_inurba_marseille","lat":43.26029,"lon":5.3757,"is_reserved":false,"is_disabled":false,"rental_uris":{"android":"levelo://app?vid=345fd902-8d08-4b0f-8b8e-e91d27f22d37","ios":"levelo://app?vid=345fd902-8d08-4b0f-8b8e-e91d27f22d37"},"vehicle_type_id":"4","last_reported":1766883909,"current_range_meters":17200,"station_id":"ce4bhgh2rcd13ifvqfa0","pricing_plan_id":"cebpf4jnsgd1na2vs0mg"},{"bike_id":"eb087d7f-76f2-4f0e-ab86-400d39571005","system_id":"levelo_inurba_marseille","lat":43.28438,"lon":5.39199,"is_reserved":false,"is_disabled":true,"rental_uris":{"android":"levelo://app?vid=eb087d7f-76f2-4f0e-ab86-400d39571005","ios":"levelo://app?vid=eb087d7f-76f2-4f0e-ab86-400d39571005"},"vehicle_type_id":"4","last_reported":1766883909,"current_range_meters":17200,"station_id":"ce4bhoh2rcd13ifvqh5g","pricing_plan_id":"cebpf4jnsgd1na2vs0mg"},{"bike_id":"36e3ab74-d85b-46de-9904-53928a1da310","system_id":"levelo_inurba_marseille","lat":43.25672,"lon":5.39992,"is_reserved":false,"is_disabled":false,"rental_uris":{"android":"levelo://app?vid=36e3ab74-d85b-46de-9904-53928a1da310","ios":"levelo://app?vid=36e3ab74-d85b-46de-9904-53928a1da310"},"vehicle_type_id":"4","last_reported":1766883909,"current_range_meters":17200,"station_id":"","pricing_plan_id":"cebpf4jnsgd1na2vs0mg"},{"bike_id":"0587f04e-e1d2-45f2-83bf-7bb7cf6afa1b","system_id":"levelo_inurba_marseille","lat":43.2315,"lon":5.43689,"is_reserved":false,"is_disabled":true,"rental_uris":{"android":"levelo://app?vid=0587f04e-e1d2-45f2-83bf-7bb7cf6afa1b","ios":"levelo://app?vid=0587f04e-e1d2-45f2-83bf-7bb7cf6afa1b"},"vehicle_type_id":"4","last_reported":1766883909,"current_range_meters":17200,"station_id":"ce4bhmp2rcd13ifvqgog","pricing_plan_id":"cebpf4jnsgd1na2vs0mg"},{"bike_id":"c068b2eb-05fd-4aef-9742-3a5da4ec49f0","system_id":"levelo_inurba_marseille","lat":43.31192,"lon":5.36877,"is_reserved":false,"is_disabled":false,"rental_uris":{"android":"levelo://app?vid=c068b2eb-05fd-4aef-9742-3a5da4ec49f0","ios":"levelo://app?vid=c068b2eb-05fd-4aef-9742-3a5da4ec49f0"},"vehicle_type_id":"4","last_reported":1766883909,"current_range_meters":17200,"station_id":"ce4bgl92rcd13ifvqbq0","pricing_plan_id":"cebpf4jnsgd1na2vs0mg"},{"bike_id":"8c27f8dd-49de-48cb-b4c0-2c146ce86148","system_id":"levelo_inurba_marseille","lat":43.29569,"lon":5.38157,"is_reserved":false,"is_disabled":false,"rental_uris":{"android":"levelo://app?vid=8c27f8dd-49de-48cb-b4c0-2c146ce86148","ios":"levelo://app?vid=8c27f8dd-49de-48cb-b4c0-2c146ce86148"},"vehicle_type_id":"4","last_reported":1766883909,"current_range_meters":17200,"station_id":"","pricing_plan_id":"cebpf4jnsgd1na2vs0mg"},{"bike_id":"102c36c3-98ee-4ed4-b090-e95d924b56a3","system_id":"levelo_inurba_marseille","lat":43.290658,"lon":5.371587,"is_reserved":false,"is_disabled":false,"rental_uris":{"android":"levelo://app?vid=102c36c3-98ee-4ed4-b090-e95d924b56a3","ios":"levelo://app?vid=102c36c3-98ee-4ed4-b090-e95d924b56a3"},"vehicle_type_id":"4","last_reported":1766883909,"current_range_meters":17200,"station_id":"ce4bh5p2rcd13ifvqe4g","pricing_plan_id":"cebpf4jnsgd1na2vs0mg"},{"bike_id":"f1e029ec-966a-4c18-90a6-6313298321ec","system_id":"levelo_inurba_marseille","lat":43.24239,"lon":5.39351,"is_reserved":false,"is_disabled":false,"rental_uris":{"android":"levelo://app?vid=f1e029ec-966a-4c18-90a6-6313298321ec","ios":"levelo://app?vid=f1e029ec-966a-4c18-90a6-6313298321ec"},"vehicle_type_id":"4","last_reported":1766883909,"current_range_meters":17200,"station_id":"","pricing_plan_id":"cebpf4jnsgd1na2vs0mg"},{"bike_id":"d918e5b6-a70b-4004-93ee-7f523722e196","system_id":"levelo_inurba_marseille","lat":43.21189,"lon":5.35079,"is_reserved":false,"is_disabled":false,"rental_uris":{"android":"levelo://app?vid=d918e5b6-a70b-4004-93ee-7f523722e196","ios":"levelo://app?vid=d918e5b6-a70b-4004-93ee-7f523722e196"},"vehicle_type_id":"4","last_reported":1766883909,"current_range_meters":17200,"station_id":"st_cvj6sg6p6f1abm77japg","pricing_plan_id":"cebpf4jnsgd1na2vs0mg"},