{"last_updated":1753463549,"ttl":60,"version":"2.2","data":{"bikes":[{"bike_id":"1114ccb6-409d-4197-acbe-c7b5d604f365","system_id":"levelo_inurba_marseille","lat":43.29264,"lon":5.38448,"is_reserved":false,"is_disabled":false,"rental_uris":{"android":"levelo://app?vid=1114ccb6-409d-4197-acbe-c7b5d604f365","ios":"levelo://app?vid=1114ccb6-409d-4197-acbe-c7b5d604f365"},"vehicle_type_id":"4","last_reported":1753463549,"current_range_meters":2800,"station_id":"ce4bh692rcd13ifvqea0","pricing_plan_id":"cebpf4jnsgd1na2vs0mg"},{"bike_id":"2bf6bffe-b207-4557-83a8-5416ffb85e3b","system_id":"levelo_inurba_marseille","lat":43.297752,"lon":5.371104,"is_reserved":false,"is_disabled":false,"rental_uris":{"android":"levelo://app?vid=2bf6bffe-b207-4557-83a8-5416ffb85e3b","ios":"levelo://app?vid=2bf6bffe-b207-4557-83a8-5416ffb85e3b"},"vehicle_type_id":"4","last_reported":1753463549,"current_range_meters":2800,"station_id":"","pricing_plan_id":"cebpf4jnsgd1na2vs0mg"},{"bike_id":"44cd98b7-7caa-4a71-80bc-12132c443020","system_id":"levelo_inurba_marseille","lat":43.272115,"lon":5.391818,"is_reserved":false,"is_disabled":false,"rental_uris":{"android":"levelo://app?vid=44cd98b7-7caa-4a71-80bc-12132c443020","ios":"levelo://app?vid=44cd98b7-7caa-4a71-80bc-12132c443020"},"vehicle_type_id":"4","last_reported":1753463549,"current_range_meters":2800,"station_id":"ce4bhhp2rcd13ifvqfm0","pricing_plan_id":"cebpf4jnsgd1na2vs0mg"},{"bike_id":"ed3a088b-42d0-4428-ba9f-67002e44e2f2","system_id":"levelo_inurba_marseille","lat":43.26027,"lon":5.37556,"is_reserved":false,"is_disabled":false,"rental_uris":{"android":"levelo://app?vid=ed3a088b-42d0-4428-ba9f-67002e44e2f2","ios":"levelo://app?vid=ed3a088b-42d0-4428-ba9f-67002e44e2f2"},"vehicle_type_id":"4","last_reported":1753463549,"current_range_meters":2800,"station_id":"ce4bhgh2rcd13ifvqfa0","pricing_plan_id":"cebpf4jnsgd1na2vs0mg"},{"bike_id":"ba9da5bc-8f3d-411e-a4ba-565521c5539e","system_id":"levelo_inurba_marseille","lat":43.27565,"lon":5.38412,"is_reserved":false,"is_disabled":false,"rental_uris":{"android":"levelo://app?vid=ba9da5bc-8f3d-411e-a4ba-565521c5539e","ios":"levelo://app?vid=ba9da5bc-8f3d-411e-a4ba-565521c5539e"},"vehicle_type_id":"4","last_reported":1753463549,"current_range_meters":2800,"station_id":"ce4bhh92rcd13ifvqfi0","pricing_plan_id":"cebpf4jnsgd1na2vs0mg"},{"bike_id":"89750314-74b9-473a-8beb-8a0509c0ab54","system_id":"levelo_inurba_marseille","lat":43.300934,"lon":5.390912,"is_reserved":false,"is_disabled":false,"rental_uris":{"android":"levelo://app?vid=89750314-74b9-473a-8beb-8a0509c0ab54","ios":"levelo://app?vid=89750314-74b9-473a-8beb-8a0509c0ab54"},"vehicle_type_id":"4","last_reported":1753463549,"current_range_meters":3200,"station_id":"ce4bh192rcd13ifvqdb0","pricing_plan_id":"cebpf4jnsgd1na2vs0mg"},{"bike_id":"e032122a-e90e-432e-bcf0-02c517832424","system_id":"levelo_inurba_marseille","lat":43.25723,"lon":5.41114,"is_reserved":false,"is_disabled":false,"rental_uris":{"android":"levelo://app?vid=e032122a-e90e-432e-bcf0-02c517832424","ios":"levelo://app?vid=e032122a-e90e-432e-bcf0-02c517832424"},"vehicle_type_id":"4","last_reported":1753463549,"current_range_meters":2800,"station_id":"ce4bhkp2rcd13ifvqgd0","pricing_plan_id":"cebpf4jnsgd1na2vs0mg"},{"bike_id":"1687aa87-6d6d-4ff7-aec5-dead6737477a","system_id":"levelo_inurba_marseille","lat":43.27423,"lon":5.39415,"is_reserved":false,"is_disabled":false,"rental_uris":{"android":"levelo://app?vid=1687aa87-6d6d-4ff7-aec5-dead6737477a","ios":"levelo://app?vid=1687aa87-6d6d-4ff7-aec5-dead6737477a"},"vehicle_type_id":"4","last_reported":1753463549,"current_range_meters":3600,"station_id":"ce4bhdp2rcd13ifvqf20","pricing_plan_id":"cebpf4jnsgd1na2vs0mg"},{"bike_id":"fe65d7d6-638d-40a5-bccf-533e7cf482a6","system_id":"levelo_inurba_marseille","lat":43.28374,"lon":5.43244,"is_reserved":false,"is_disabled":false,"rental_uris":{"android":"levelo://app?vid=fe65d7d6-638d-40a5-bccf-533e7cf482a6","ios":"levelo://app?vid=fe65d7d6-638d-40a5-bccf-533e7cf482a6"},"vehicle_type_id":"4","last_reported":1753463549,"current_range_meters":4000,"station_id":"","pricing_plan_id":"cebpf4jnsgd1na2vs0mg"},{"bike_id":"e0bc5ace-19fa-41af-82f6-2729ccabedfd","system_id":"levelo_inurba_marseille","lat":43.28946,"lon":5.36635,"is_reserved":false,"is_disabled":false,"rental_uris":{"android":"levelo://app?vid=e0bc5ace-19fa-41af-82f6-2729ccabedfd","ios":"levelo://app?vid=e0bc5ace-19fa-41af-82f6-2729ccabedfd"},"vehicle_type_id":"4","last_reported":1753463549,"current_range_meters":4400,"station_id":"ce4bhap2rcd13ifvqek0","pricing_plan_id":"cebpf4jnsgd1na2vs0mg"},{"bike_id":"fb800888-b409-4264-8251-c3d9c435a3ae","system_id":"levelo_inurba_marseille","lat":43.2953,"lon":5.38544,"is_reserved":false,"is_disabled":false,"rental_uris":{"android":"levelo://app?vid=fb800888-b409-4264-8251-c3d9c435a3ae","ios":"levelo://app?vid=fb800888-b409-4264-8251-c3d9c435a3ae"},"vehicle_type_id":"4","last_reported":1753463549,"current_range_meters":4800,"station_id":"ce4bgih2rcd13ifvqba0","pricing_plan_id":"cebpf4jnsgd1na2vs0mg"},{"bike_id":"330b66b1-1704-4bf5-b7ba-caa71f506696","system_id":"levelo_inurba_marseille","lat":43.29646,"lon":5.40616,"is_reserved":false,"is_disabled":false,"rental_uris":{"android":"levelo://app?vid=330b66b1-1704-4bf5-b7ba-caa71f506696","ios":"levelo://app?vid=330b66b1-1704-4bf5-b7ba-caa71f506696"},"vehicle_type_id":"4","last_reported":1753463549,"current_range_meters":4800,"station_id":"ce4bh0h2rcd13ifvqd60","pricing_plan_id":"cebpf4jnsgd1na2vs0mg"},{"bike_id":"eab24825-b8ae-424e-86eb-fa9c960d748f","system_id":"levelo_inurba_marseille","lat":43.27999,"lon":5.41658,"is_reserved":false,"is_disabled":false,"rental_uris":{"android":"levelo://app?vid=eab24825-b8ae-424e-86eb-fa9c960d748f","ios":"levelo://app?vid=eab24825-b8ae-424e-86eb-fa9c960d748f"},"vehicle_type_id":"4","last_reported":1753463549,"current_range_meters":5600,"station_id":"ce4bho12rcd13ifvqh1g","pricing_plan_id":"cebpf4jnsgd1na2vs0mg"},{"bike_id":"55b78b63-6ed1-4637-b80b-b3f1983005fb","system_id":"levelo_inurba_marseille","lat":43.279659,"lon":5.387533,"is_reserved":false,"is_disabled":false,"rental_uris":{"android":"levelo://app?vid=55b78b63-6ed1-4637-b80b-b3f1983005fb","ios":"levelo://app?vid=55b78b63-6ed1-4637-b80b-b3f1983005fb"},"vehicle_type_id":"4","last_reported":1753463549,"current_range_meters":6000,"station_id":"ce4bhg12rcd13ifvqf80","pricing_plan_id":"cebpf4jnsgd1na2vs0mg"},{"bike_id":"734beb0a-2b5b-4f92-a0b4-f138fc3076ee","system_id":"levelo_inurba_marseille","lat":43.22507,"lon":5.34781,"is_reserved":false,"is_disabled":false,"rental_uris":{"android":"levelo://app?vid=734beb0a-2b5b-4f92-a0b4-f138fc3076ee","ios":"levelo://app?vid=734beb0a-2b5b-4f92-a0b4-f138fc3076ee"},"vehicle_type_id":"4","last_reported":1753463549,"current_range_meters":6000,"station_id":"st_cvj5dfep6f1abm77gieg","pricing_plan_id":"cebpf4jnsgd1na2vs0mg"},{"bike_id":"87777db7-86d3-4e06-8a92-6ea366a17da8","system_id":"levelo_inurba_marseille","lat":43.26959,"lon":5.38634,"is_reserved":false,"is_disabled":false,"rental_uris":{"android":"levelo://app?vid=87777db7-86d3-4e06-8a92-6ea366a17da8","ios":"levelo://app?vid=87777db7-86d3-4e06-8a92-6ea366a17da8"},"vehicle_type_id":"4","last_reported":1753463549,"current_range_meters":6400,"station_id":"ce4bhh92rcd13ifvqfh0","pricing_plan_id":"cebpf4jnsgd1na2vs0mg"},{"bike_id":"d87b56f9-aec8-4c18-8340-d7aba9319bde","system_id":"levelo_inurba_marseille","lat":43.27543,"lon":5.39636,"is_reserved":false,"is_disabled":false,"rental_uris":{"android":"levelo://app?vid=d87b56f9-aec8-4c18-8340-d7aba9319bde","ios":"levelo://app?vid=d87b56f9-aec8-4c18-8340-d7aba9319bde"},"vehicle_type_id":"4","last_reported":1753463549,"current_range_meters":6400,"station_id":"","pricing_plan_id":"cebpf4jnsgd1na2vs0mg"},{"bike_id":"88a0b957-920c-4ce8-8d6b-5a7f3d8556bd","system_id":"levelo_inurba_marseille","lat":43.24653,"lon":5.38892,"is_reserved":false,"is_disabled":false,"rental_uris":{"android":"levelo://app?vid=88a0b957-920c-4ce8-8d6b-5a7f3d8556bd","ios":"levelo://app?vid=88a0b957-920c-4ce8-8d6b-5a7f3d8556bd"},"vehicle_type_id":"4","last_reported":1753463549,"current_range_meters":6400,"station_id":"ce4bhg12rcd13ifvqf60","pricing_plan_id":"cebpf4jnsgd1na2vs0mg"},{"bike_id":"09899674-0103-404f-a4ed-2c62a0da94f9","system_id":"levelo_inurba_marseille","lat":43.31685,"lon":5.40473,"is_reserved":false,"is_disabled":false,"rental_uris":{"android":"levelo://app?vid=09899674-0103-404f-a4ed-2c62a0da94f9","ios":"levelo://app?vid=09899674-0103-404f-a4ed-2c62a0da94f9"},"vehicle_type_id":"4","last_reported":1753463549,"current_range_meters":6400,"station_id":"ce4bh012rcd13ifvqd00","pricing_plan_id":"cebpf4jnsgd1na2vs0mg"},{"bike_id":"91a9c501-d2a6-4ab9-b5fc-3bd93d13cbbf","system_id":"levelo_inurba_marseille","lat":43.29806,"lon":5.39339,"is_reserved":false,"is_disabled":false,"rental_uris":{"android":"levelo://app?vid=91a9c501-d2a6-4ab9-b5fc-3bd93d13cbbf","ios":"levelo://app?vid=91a9c501-d2a6-4ab9-b5fc-3bd93d13cbbf"},"vehicle_type_id":"4","last_reported":1753463549,"current_range_meters":6400,"station_id":"chh1huq6cuj3fo74tm60","pricing_plan_id":"cebpf4jnsgd1na2vs0mg"},{"bike_id":"e19cd9bd-8f1f-4909-a624-5af678243303","system_id":"levelo_inurba_marseille","lat":43.290461,"lon":5.39901,"is_reserved":false,"is_disabled":false,"rental_uris":{"android":"levelo://app?vid=e19cd9bd-8f1f-4909-a624-5af678243303","ios":"levelo://app?vid=e19cd9bd-8f1f-4909-a624-5af678243303"},"vehicle_type_id":"4","last_reported":1753463549,"current_range_meters":6800,"station_id":"","pricing_plan_id":"cebpf4jnsgd1na2vs0mg"},{"bike_id":"b04f7842-8dad-4c0a-923b-1eead5ee4bf1","system_id":"levelo_inurba_marseille","lat":43.30536,"lon":5.36709,"is_reserved":false,"is_disabled":false,"rental_uris":{"android":"levelo://app?vid=b04f7842-8dad-4c0a-923b-1eead5ee4bf1","ios":"levelo://app?vid=b04f7842-8dad-4c0a-923b-1eead5ee4bf1"},"vehicle_type_id":"4","last_reported":1753463549,"current_range_meters":6400,"station_id":"ce4bgrp2rcd13ifvqc9g","pricing_plan_id":"cebpf4jnsgd1na2vs0mg"},{"bike_id":"3843a00f-81d8-45fd-a52a-64868b9c8532","system_id":"levelo_inurba_marseille","lat":43.29812,"lon":5.37766,"is_reserved":false,"is_disabled":false,"rental_uris":{"android":"levelo://app?vid=3843a00f-81d8-45fd-a52a-64868b9c8532","ios":"levelo://app?vid=3843a00f-81d8-45fd-a52a-64868b9c8532"},"vehicle_type_id":"4","last_reported":1753463549,"current_range_meters":6800,"station_id":"","pricing_plan_id":"cebpf4jnsgd1na2vs0mg"},{"bike_id":"cdce106a-77a6-4588-92b8-5198114e9b4e","system_id":"levelo_inurba_marseille","lat":43.30328,"lon":5.40422,"is_reserved":false,"is_disabled":false,"rental_uris":{"android":"levelo://app?vid=cdce106a-77a6-4588-92b8-5198114e9b4e","ios":"levelo://app?vid=cdce106a-77a6-4588-92b8-5198114e9b4e"},"vehicle_type_id":"4","last_reported":1753463549,"current_range_meters":4400,"station_id":"ce4bh012rcd13ifvqd10","pricing_plan_id":"cebpf4jnsgd1na2vs0mg"},{"bike_id":"676dc739-0bf1-424d-a956-7f8a7b197a1d","system_id":"levelo_inurba_marseille","lat":43.29793,"lon":5.38092,"is_reserved":false,"is_disabled":false,"rental_uris":{"android":"levelo://app?vid=676dc739-0bf1-424d-a956-7f8a7b197a1d","ios":"levelo://app?vid=676dc739-0bf1-424d-a956-7f8a7b197a1d"},"vehicle_type_id":"4","last_reported":1753463549,"current_range_meters":7200,"station_id":"ce4bgip2rcd13ifvqbb0","pricing_plan_id":"cebpf4jnsgd1na2vs0mg"},{"bike_id":"1db57e3b-8e15-4948-b30e-2956de7e5dcb","system_id":"levelo_inurba_marseille","lat":43.225099,"lon":5.347826,"is_reserved":false,"is_disabled":false,"rental_uris":{"android":"levelo://app?vid=1db57e3b-8e15-4948-b30e-2956de7e5dcb","ios":"levelo://app?vid=1db57e3b-8e15-4948-b30e-2956de7e5dcb"},"vehicle_type_id":"4","last_reported":1753463549,"current_range_meters":7200,"station_id":"","pricing_plan_id":"cebpf4jnsgd1na2vs0mg"},{"bike_id":"5ccfe601-8e7d-45dc-8f6d-411a6f4a855c","system_id":"levelo_inurba_marseille","lat":43.30544,"lon":5.36527,"is_reserved":false,"is_disabled":false,"rental_uris":{"android":"levelo://app?vid=5ccfe601-8e7d-45dc-8f6d-411a6f4a855c","ios":"levelo://app?vid=5ccfe601-8e7d-45dc-8f6d-411a6f4a855c"},"vehicle_type_id":"4","last_reported":1753463549,"current_range_meters":7200,"station_id":"ce4bgs12rcd13ifvqcag","pricing_plan_id":"cebpf4jnsgd1na2vs0mg"},{"bike_id":"7987cd75-8bbe-4a84-a729-ebf0adc7b155","system_id":"levelo_inurba_marseille","lat":43.32108,"lon":5.36771,"is_reserved":false,"is_disabled":false,"rental_uris":{"android":"levelo://app?vid=7987cd75-8bbe-4a84-a729-ebf0adc7b155","ios":"levelo://app?vid=7987cd75-8bbe-4a84-a729-ebf0adc7b155"},"vehicle_type_id":"4","last_reported":1753463549,"current_range_meters":7200,"station_id":"ce4bhrh2rcd13ifvqhug","pricing_plan_id":"cebpf4jnsgd1na2vs0mg"},{"bike_id":"c2b992d5-2777-468a-afea-4a6da609708b","system_id":"levelo_inurba_marseille","lat":43.3042,"lon":5.41278,"is_reserved":false,"is_disabled":false,"rental_uris":{"android":"levelo://app?vid=c2b992d5-2777-468a-afea-4a6da609708b","ios":"levelo://app?vid=c2b992d5-2777-468a-afea-4a6da609708b"},"vehicle_type_id":"4","last_reported":1753463549,"current_range_meters":7200,"station_id":"ce4bhop2rcd13ifvqh8g","pricing_plan_id":"cebpf4jnsgd1na2vs0mg"},{"bike_id":"30759a68-e686-4bd9-ba60-b911b5a0fedf","system_id":"levelo_inurba_marseille","lat":43.29509,"lon":5.39009,"is_reserved":false,"is_disabled":false,"rental_uris":{"android":"levelo://app?vid=30759a68-e686-4bd9-ba60-b911b5a0fedf","ios":"levelo://app?vid=30759a68-e686-4bd9-ba60-b911b5a0fedf"},"vehicle_type_id":"4","last_reported":1753463549,"current_range_meters":8000,"station_id":"ce4bh3p2rcd13ifvqdp0","pricing_plan_id":"cebpf4jnsgd1na2vs0mg"},{"bike_id":"a2544c16-8624-4773-abe7-ffa14d7b9490","system_id":"levelo_inurba_marseille","lat":43.3095,"lon":5.39017,"is_reserved":false,"is_disabled":false,"rental_uris":{"android":"levelo://app?vid=a2544c16-8624-4773-abe7-ffa14d7b9490","ios":"levelo://app?vid=a2544c16-8624-4773-abe7-ffa14d7b9490"},"vehicle_type_id":"4","last_reported":1753463549,"current_range_meters":8000,"station_id":"ce4bgup2rcd13ifvqco0","pricing_plan_id":"cebpf4jnsgd1na2vs0mg"},{"bike_id":"1e9f2572-50ec-4039-ae67-eb7ccb3c8e0c","system_id":"levelo_inurba_marseille","lat":43.29579,"lon":5.37509,"is_reserved":false,"is_disabled":false,"rental_uris":{"android":"levelo://app?vid=1e9f2572-50ec-4039-ae67-eb7ccb3c8e0c","ios":"levelo://app?vid=1e9f2572-50ec-4039-ae67-eb7ccb3c8e0c"},"vehicle_type_id":"4","last_reported":1753463549,"current_range_meters":8000,"station_id":"ce4bgh92rcd13ifvqb50","pricing_plan_id":"cebpf4jnsgd1na2vs0mg"},{"bike_id":"55aafecd-f968-436f-861e-22015270ba1e","system_id":"levelo_inurba_marseille","lat":43.29803,"lon":5.38102,"is_reserved":false,"is_disabled":false,"rental_uris":{"android":"levelo://app?vid=55aafecd-f968-436f-861e-22015270ba1e","ios":"levelo://app?vid=55aafecd-f968-436f-861e-22015270ba1e"},"vehicle_type_id":"4","last_reported":1753463549,"current_range_meters":8000,"station_id":"ce4bgip2rcd13ifvqbb0","pricing_plan_id":"cebpf4jnsgd1na2vs0mg"},{"bike_id":"b93c0803-f824-4cb7-a4ed-57da1403b68e","system_id":"levelo_inurba_marseille","lat":43.325583,"lon":5.379059,"is_reserved":false,"is_disabled":true,"rental_uris":{"android":"levelo://app?vid=b93c0803-f824-4cb7-a4ed-57da1403b68e","ios":"levelo://app?vid=b93c0803-f824-4cb7-a4ed-57da1403b68e"},"vehicle_type_id":"4","last_reported":1753463549,"current_range_meters":8000,"station_id":"","pricing_plan_id":"cebpf4jnsgd1na2vs0mg"},{"bike_id":"e64cedc5-8c55-4622-a7e2-23d22b18f7e5","system_id":"levelo_inurba_marseille","lat":43.30153,"lon":5.38085,"is_reserved":false,"is_disabled":false,"rental_uris":{"android":"levelo://app?vid=e64cedc5-8c55-4622-a7e2-23d22b18f7e5","ios":"levelo://app?vid=e64cedc5-8c55-4622-a7e2-23d22b18f7e5"},"vehicle_type_id":"4","last_reported":1753463549,"current_range_meters":8000,"station_id":"ce4bgjp2rcd13ifvqbh0","pricing_plan_id":"cebpf4jnsgd1na2vs0mg"},{"bike_id":"8f6a388d-ee3f-4548-8264-e020aaacee47","system_id":"levelo_inurba_marseille","lat":43.284105,"lon":5.375038,"is_reserved":false,"is_disabled":false,"rental_uris":{"android":"levelo://app?vid=8f6a388d-ee3f-4548-8264-e020aaacee47","ios":"levelo://app?vid=8f6a388d-ee3f-4548-8264-e020aaacee47"},"vehicle_type_id":"4","last_reported":1753463549,"current_range_meters":8000,"station_id":"ce4bh412rcd13ifvqds0","pricing_plan_id":"cebpf4jnsgd1na2vs0mg"},{"bike_id":"51979a68-a8cc-400e-b7b9-cd8004031e65","system_id":"levelo_inurba_marseille","lat":43.225,"lon":5.34789,"is_reserved":false,"is_disabled":false,"rental_uris":{"android":"levelo://app?vid=51979a68-a8cc-400e-b7b9-cd8004031e65","ios":"levelo://app?vid=51979a68-a8cc-400e-b7b9-cd8004031e65"},"vehicle_type_id":"4","last_reported":1753463549,"current_range_meters":8000,"station_id":"st_cvj5dfep6f1abm77gieg","pricing_plan_id":"cebpf4jnsgd1na2vs0mg"},{"bike_id":"1f60027f-5ca6-4a98-af30-65946b6c5b20","system_id":"levelo_inurba_marseille","lat":43.297114,"lon":5.366269,"is_reserved":false,"is_disabled":false,"rental_uris":{"android":"levelo://app?vid=1f60027f-5ca6-4a98-af30-65946b6c5b20","ios":"levelo://app?vid=1f60027f-5ca6-4a98-af30-65946b6c5b20"},"vehicle_type_id":"4","last_reported":1753463549,"current_range_meters":8400,"station_id":"ce4bgn12rcd13ifvqbt0","pricing_plan_id":"cebpf4jnsgd1na2vs0mg"},{"bike_id":"b2d9b512-461e-4c22-8160-83c7cfb0cdf8","system_id":"levelo_inurba_marseille","lat":43.27964,"lon":5.4105,"is_reserved":false,"is_disabled":true,"rental_uris":{"android":"levelo://app?vid=b2d9b512-461e-4c22-8160-83c7cfb0cdf8","ios":"levelo://app?vid=b2d9b512-461e-4c22-8160-83c7cfb0cdf8"},"vehicle_type_id":"4","last_reported":1753463549,"current_range_meters":8400,"station_id":"ce4bhnp2rcd13ifvqh0g","pricing_plan_id":"cebpf4jnsgd1na2vs0mg"},{"bike_id":"a8d7728b-bce1-4919-b58e-90a0878b0f71","system_id":"levelo_inurba_marseille","lat":43.30641,"lon":5.40075,"is_reserved":false,"is_disabled":false,"rental_uris":{"android":"levelo://app?vid=a8d7728b-bce1-4919-b58e-90a0878b0f71","ios":"levelo://app?vid=a8d7728b-bce1-4919-b58e-90a0878b0f71"},"vehicle_type_id":"4","last_reported":1753463549,"current_range_meters":8400,"station_id":"ce4bh112rcd13ifvqda0","pricing_plan_id":"cebpf4jnsgd1na2vs0mg"},{"bike_id":"ed4987ab-b583-4d49-b2c5-f6308ac67487","system_id":"levelo_inurba_marseille","lat":43.24802,"lon":5.37455,"is_reserved":false,"is_disabled":false,"rental_uris":{"android":"levelo://app?vid=ed4987ab-b583-4d49-b2c5-f6308ac67487","ios":"levelo://app?vid=ed4987ab-b583-4d49-b2c5-f6308ac67487"},"vehicle_type_id":"4","last_reported":1753463549,"current_range_meters":8400,"station_id":"ce4bhgh2rcd13ifvqfb0","pricing_plan_id":"cebpf4jnsgd1na2vs0mg"},{"bike_id":"b44e0ef0-448d-42e7-b8ce-9c7edd8e1cfe","system_id":"levelo_inurba_marseille","lat":43.28155,"lon":5.42639,"is_reserved":false,"is_disabled":false,"rental_uris":{"android":"levelo://app?vid=b44e0ef0-448d-42e7-b8ce-9c7edd8e1cfe","ios":"levelo://app?vid=b44e0ef0-448d-42e7-b8ce-9c7edd8e1cfe"},"vehicle_type_id":"4","last_reported":1753463549,"current_range_meters":8400,"station_id":"ce4bhnh2rcd13ifvqgug","pricing_plan_id":"cebpf4jnsgd1na2vs0mg"},{"bike_id":"f6b04a3f-9195-49ca-bdf1-f786dbecd596","system_id":"levelo_inurba_marseille","lat":43.284072,"lon":5.375102,"is_reserved":false,"is_disabled":false,"rental_uris":{"android":"levelo://app?vid=f6b04a3f-9195-49ca-bdf1-f786dbecd596","ios":"levelo://app?vid=f6b04a3f-9195-49ca-bdf1-f786dbecd596"},"vehicle_type_id":"4","last_reported":1753463549,"current_range_meters":8400,"station_id":"ce4bh412rcd13ifvqds0","pricing_plan_id":"cebpf4jnsgd1na2vs0mg"},{"bike_id":"bcfeb788-eed8-4a22-9566-78b3af0fa09b","system_id":"levelo_inurba_marseille","lat":43.29924,"lon":5.37563,"is_reserved":false,"is_disabled":false,"rental_uris":{"android":"levelo://app?vid=bcfeb788-eed8-4a22-9566-78b3af0fa09b","ios":"levelo://app?vid=bcfeb788-eed8-4a22-9566-78b3af0fa09b"},"vehicle_type_id":"4","last_reported":1753463549,"current_range_meters":8400,"station_id":"","pricing_plan_id":"cebpf4jnsgd1na2vs0mg"},{"bike_id":"6e4398dd-15f7-4daa-8f70-260bd0e6b4fb","system_id":"levelo_inurba_marseille","lat":43.28414,"lon":5.37502,"is_reserved":false,"is_disabled":false,"rental_uris":{"android":"levelo://app?vid=6e4398dd-15f7-4daa-8f70-260bd0e6b4fb","ios":"levelo://app?vid=6e4398dd-15f7-4daa-8f70-260bd0e6b4fb"},"vehicle_type_id":"4","last_reported":1753463549,"current_range_meters":8400,"station_id":"ce4bh412rcd13ifvqds0","pricing_plan_id":"cebpf4jnsgd1na2vs0mg"},{"bike_id":"f28d2bb9-4217-4196-a573-ba6f4c172497","system_id":"levelo_inurba_marseille","lat":43.28151,"lon":5.36123,"is_reserved":false,"is_disabled":false,"rental_uris":{"android":"levelo://app?vid=f28d2bb9-4217-4196-a573-ba6f4c172497","ios":"levelo://app?vid=f28d2bb9-4217-4196-a573-ba6f4c172497"},"vehicle_type_id":"4","last_reported":1753463549,"current_range_meters":8400,"station_id":"","pricing_plan_id":"cebpf4jnsgd1na2vs0mg"},{"bike_id":"fd4ba70a-7bfa-434e-8564-04bf25cc9f63","system_id":"levelo_inurba_marseille","lat":43.28112,"lon":5.44109,"is_reserved":false,"is_disabled":false,"rental_uris":{"android":"levelo://app?vid=fd4ba70a-7bfa-434e-8564-04bf25cc9f63","ios":"levelo://app?vid=fd4ba70a-7bfa-434e-8564-04bf25cc9f63"},"vehicle_type_id":"4","last_reported":1753463549,"current_range_meters":8400,"station_id":"","pricing_plan_id":"cebpf4jnsgd1na2vs0mg"},{"bike_id":"2b67ec79-4d5a-4504-bb33-b5d7480dc466","system_id":"levelo_inurba_marseille","lat":43.27218,"lon":5.39176,"is_reserved":false,"is_disabled":false,"rental_uris":{"android":"levelo://app?vid=2b67ec79-4d5a-4504-bb33-b5d7480dc466","ios":"levelo://app?vid=2b67ec79-4d5a-4504-bb33-b5d7480dc466"},"vehicle_type_id":"4","last_reported":1753463549,"current_range_meters":8400,"station_id":"ce4bhhp2rcd13ifvqfm0","pricing_plan_id":"cebpf4jnsgd1na2vs0mg"},{"bike_id":"95c25805-6f54-4e0e-b281-d554cb9c4dcb","system_id":"levelo_inurba_marseille","lat":43.284734,"lon":5.384305,"is_reserved":false,"is_disabled":false,"rental_uris":{"android":"levelo://app?vid=95c25805-6f54-4e0e-b281-d554cb9c4dcb","ios":"levelo://app?vid=95c25805-6f54-4e0e-b281-d554cb9c4dcb"},"vehicle_type_id":"4","last_reported":1753463549,"current_range_meters":8400,"station_id":"ce4bh512rcd13ifvqe3g","pricing_plan_id":"cebpf4jnsgd1na2vs0mg"},{"bike_id":"c0e94226-b17b-4037-abd2-02866bf257ed","system_id":"levelo_inurba_marseille","lat":43.29871,"lon":5.39725,"is_reserved":false,"is_disabled":false,"rental_uris":{"android":"levelo://app?vid=c0e94226-b17b-4037-abd2-02866bf257ed","ios":"levelo://app?vid=c0e94226-b17b-4037-abd2-02866bf257ed"},"vehicle_type_id":"4","last_reported":1753463549,"current_range_meters":8400,"station_id":"ce4bh0h2rcd13ifvqd50","pricing_plan_id":"cebpf4jnsgd1na2vs0mg"},{"bike_id":"9d3577ed-421f-4dba-9bac-9bd2049348e1","system_id":"levelo_inurba_marseille","lat":43.25021,"lon":5.38873,"is_reserved":false,"is_disabled":false,"rental_uris":{"android":"levelo://app?vid=9d3577ed-421f-4dba-9bac-9bd2049348e1","ios":"levelo://app?vid=9d3577ed-421f-4dba-9bac-9bd2049348e1"},"vehicle_type_id":"4","last_reported":1753463549,"current_range_meters":8800,"station_id":"ce4bhgp2rcd13ifvqfd0","pricing_plan_id":"cebpf4jnsgd1na2vs0mg"},{"bike_id":"65fabc23-cf2a-4ca8-a868-9941476ce202","system_id":"levelo_inurba_marseille","lat":43.2363,"lon":5.36208,"is_reserved":false,"is_disabled":false,"rental_uris":{"android":"levelo://app?vid=65fabc23-cf2a-4ca8-a868-9941476ce202","ios":"levelo://app?vid=65fabc23-cf2a-4ca8-a868-9941476ce202"},"vehicle_type_id":"4","last_reported":1753463549,"current_range_meters":8800,"station_id":"","pricing_plan_id":"cebpf4jnsgd1na2vs0mg"},{"bike_id":"ef2043fc-7d48-4e18-a084-0d3509084f2c","system_id":"levelo_inurba_marseille","lat":43.304632,"lon":5.379047,"is_reserved":false,"is_disabled":false,"rental_uris":{"android":"levelo://app?vid=ef2043fc-7d48-4e18-a084-0d3509084f2c","ios":"levelo://app?vid=ef2043fc-7d48-4e18-a084-0d3509084f2c"},"vehicle_type_id":"4","last_reported":1753463549,"current_range_meters":10000,"station_id":"ce4bgup2rcd13ifvqcn0","pricing_plan_id":"cebpf4jnsgd1na2vs0mg"},{"bike_id":"28811671-b5a2-471f-b5ef-b69bca8d608c","system_id":"levelo_inurba_marseille","lat":43.30555,"lon":5.36538,"is_reserved":false,"is_disabled":false,"rental_uris":{"android":"levelo://app?vid=28811671-b5a2-471f-b5ef-b69bca8d608c","ios":"levelo://app?vid=28811671-b5a2-471f-b5ef-b69bca8d608c"},"vehicle_type_id":"4","last_reported":1753463549,"current_range_meters":8800,"station_id":"ce4bgs12rcd13ifvqcag","pricing_plan_id":"cebpf4jnsgd1na2vs0mg"},{"bike_id":"804dc383-6194-473b-866e-85dba4172bea","system_id":"levelo_inurba_marseille","lat":43.299367,"lon":5.365558,"is_reserved":false,"is_disabled":false,"rental_uris":{"android":"levelo://app?vid=804dc383-6194-473b-866e-85dba4172bea","ios":"levelo://app?vid=804dc383-6194-473b-866e-85dba4172bea"},"vehicle_type_id":"4","last_reported":1753463549,"current_range_meters":9600,"station_id":"ce4bhbh2rcd13ifvqeqg","pricing_plan_id":"cebpf4jnsgd1na2vs0mg"},{"bike_id":"d62fa972-cf10-438d-898e-a03e121f6ffa","system_id":"levelo_inurba_marseille","lat":43.29299,"lon":5.40584,"is_reserved":false,"is_disabled":false,"rental_uris":{"android":"levelo://app?vid=d62fa972-cf10-438d-898e-a03e121f6ffa","ios":"levelo://app?vid=d62fa972-cf10-438d-898e-a03e121f6ffa"},"vehicle_type_id":"4","last_reported":1753463549,"current_range_meters":9600,"station_id":"","pricing_plan_id":"cebpf4jnsgd1na2vs0mg"},{"bike_id":"2e8e7fa4-47bc-4567-b903-96abfb4fdf66","system_id":"levelo_inurba_marseille","lat":43.29704,"lon":5.4419,"is_reserved":false,"is_disabled":false,"rental_uris":{"android":"levelo://app?vid=2e8e7fa4-47bc-4567-b903-96abfb4fdf66","ios":"levelo://app?vid=2e8e7fa4-47bc-4567-b903-96abfb4fdf66"},"vehicle_type_id":"4","last_reported":1753463549,"current_range_meters":9600,"station_id":"","pricing_plan_id":"cebpf4jnsgd1na2vs0mg"},{"bike_id":"7faf31e4-37dd-4667-93cc-d3e7f938cb68","system_id":"levelo_inurba_marseille","lat":43.29604,"lon":5.38102,"is_reserved":false,"is_disabled":false,"rental_uris":{"android":"levelo://app?vid=7faf31e4-37dd-4667-93cc-d3e7f938cb68","ios":"levelo://app?vid=7faf31e4-37dd-4667-93cc-d3e7f938cb68"},"vehicle_type_id":"4","last_reported":1753463549,"current_range_meters":9600,"station_id":"ce4bgl12rcd13ifvqbo0","pricing_plan_id":"cebpf4jnsgd1na2vs0mg"},{"bike_id":"a2ccbf76-8c1a-4aef-814f-db130f867270","system_id":"levelo_inurba_marseille","lat":43.3096,"lon":5.37363,"is_reserved":false,"is_disabled":false,"rental_uris":{"android":"levelo://app?vid=a2ccbf76-8c1a-4aef-814f-db130f867270","ios":"levelo://app?vid=a2ccbf76-8c1a-4aef-814f-db130f867270"},"vehicle_type_id":"4","last_reported":1753463549,"current_range_meters":9600,"station_id":"","pricing_plan_id":"cebpf4jnsgd1na2vs0mg"},{"bike_id":"df305f5a-182a-43b7-aec5-24fca4f79c5d","system_id":"levelo_inurba_marseille","lat":43.28854,"lon":5.35847,"is_reserved":false,"is_disabled":false,"rental_uris":{"android":"levelo://app?vid=df305f5a-182a-43b7-aec5-24fca4f79c5d","ios":"levelo://app?vid=df305f5a-182a-43b7-aec5-24fca4f79c5d"},"vehicle_type_id":"4","last_reported":1753463549,"current_range_meters":9600,"station_id":"ce4bhb12rcd13ifvqem0","pricing_plan_id":"cebpf4jnsgd1na2vs0mg"},{"bike_id":"bd5cc7bd-3abf-49cc-84c6-c5bec079fa93","system_id":"levelo_inurba_marseille","lat":43.28268,"lon":5.35064,"is_reserved":false,"is_disabled":false,"rental_uris":{"android":"levelo://app?vid=bd5cc7bd-3abf-49cc-84c6-c5bec079fa93","ios":"levelo://app?vid=bd5cc7bd-3abf-49cc-84c6-c5bec079fa93"},"vehicle_type_id":"4","last_reported":1753463549,"current_range_meters":9600,"station_id":"ce4bhbp2rcd13ifvqerg","pricing_plan_id":"cebpf4jnsgd1na2vs0mg"},{"bike_id":"a1676a90-aeae-4e28-8472-3e88e730a66f","system_id":"levelo_inurba_marseille","lat":43.29068,"lon":5.4397,"is_reserved":false,"is_disabled":false,"rental_uris":{"android":"levelo://app?vid=a1676a90-aeae-4e28-8472-3e88e730a66f","ios":"levelo://app?vid=a1676a90-aeae-4e28-8472-3e88e730a66f"},"vehicle_type_id":"4","last_reported":1753463549,"current_range_meters":10000,"station_id":"","pricing_plan_id":"cebpf4jnsgd1na2vs0mg"},{"bike_id":"5b94eff9-2e0f-4c0e-b3f6-ab7ca2eca31a","system_id":"levelo_inurba_marseille","lat":43.27379,"lon":5.36234,"is_reserved":false,"is_disabled":true,"rental_uris":{"android":"levelo://app?vid=5b94eff9-2e0f-4c0e-b3f6-ab7ca2eca31a","ios":"levelo://app?vid=5b94eff9-2e0f-4c0e-b3f6-ab7ca2eca31a"},"vehicle_type_id":"4","last_reported":1753463549,"current_range_meters":10000,"station_id":"ce4bhbh2rcd13ifvqeo0","pricing_plan_id":"cebpf4jnsgd1na2vs0mg"},{"bike_id":"2a09d982-62e8-4049-a384-d3edb1955ef8","system_id":"levelo_inurba_marseille","lat":43.27206,"lon":5.39175,"is_reserved":false,"is_disabled":false,"rental_uris":{"android":"levelo://app?vid=2a09d982-62e8-4049-a384-d3edb1955ef8","ios":"levelo://app?vid=2a09d982-62e8-4049-a384-d3edb1955ef8"},"vehicle_type_id":"4","last_reported":1753463549,"current_range_meters":10000,"station_id":"ce4bhhp2rcd13ifvqfm0","pricing_plan_id":"cebpf4jnsgd1na2vs0mg"},{"bike_id":"b89a0f9a-bf17-43fb-870e-683e2b44d4aa","system_id":"levelo_inurba_marseille","lat":43.29969,"lon":5.37175,"is_reserved":false,"is_disabled":false,"rental_uris":{"android":"levelo://app?vid=b89a0f9a-bf17-43fb-870e-683e2b44d4aa","ios":"levelo://app?vid=b89a0f9a-bf17-43fb-870e-683e2b44d4aa"},"vehicle_type_id":"4","last_reported":1753463549,"current_range_meters":9600,"station_id":"ce4bgr92rcd13ifvqc7g","pricing_plan_id":"cebpf4jnsgd1na2vs0mg"},{"bike_id":"0f37e254-3358-44bb-afe3-314c1a9c1ad7","system_id":"levelo_inurba_marseille","lat":43.25493,"lon":5.376489,"is_reserved":false,"is_disabled":false,"rental_uris":{"android":"levelo://app?vid=0f37e254-3358-44bb-afe3-314c1a9c1ad7","ios":"levelo://app?vid=0f37e254-3358-44bb-afe3-314c1a9c1ad7"},"vehicle_type_id":"4","last_reported":1753463549,"current_range_meters":10000,"station_id":"ce4bhh12rcd13ifvqff0","pricing_plan_id":"cebpf4jnsgd1na2vs0mg"},{"bike_id":"2d54822c-f9d6-422a-ae2b-0690879e2db1","system_id":"levelo_inurba_marseille","lat":43.26957,"lon":5.38634,"is_reserved":false,"is_disabled":false,"rental_uris":{"android":"levelo://app?vid=2d54822c-f9d6-422a-ae2b-0690879e2db1","ios":"levelo://app?vid=2d54822c-f9d6-422a-ae2b-0690879e2db1"},"vehicle_type_id":"4","last_reported":1753463549,"current_range_meters":10000,"station_id":"ce4bhh92rcd13ifvqfh0","pricing_plan_id":"cebpf4jnsgd1na2vs0mg"},{"bike_id":"63ec790f-2318-49da-8bbf-2fdf3e5c34c6","system_id":"levelo_inurba_marseille","lat":43.30642,"lon":5.40073,"is_reserved":false,"is_disabled":false,"rental_uris":{"android":"levelo://app?vid=63ec790f-2318-49da-8bbf-2fdf3e5c34c6","ios":"levelo://app?vid=63ec790f-2318-49da-8bbf-2fdf3e5c34c6"},"vehicle_type_id":"4","last_reported":1753463549,"current_range_meters":10000,"station_id":"ce4bh112rcd13ifvqda0","pricing_plan_id":"cebpf4jnsgd1na2vs0mg"},{"bike_id":"78d229b5-4ea5-47b5-ad56-0a81163e7163","system_id":"levelo_inurba_marseille","lat":43.30591,"lon":5.39357,"is_reserved":false,"is_disabled":false,"rental_uris":{"android":"levelo://app?vid=78d229b5-4ea5-47b5-ad56-0a81163e7163","ios":"levelo://app?vid=78d229b5-4ea5-47b5-ad56-0a81163e7163"},"vehicle_type_id":"4","last_reported":1753463549,"current_range_meters":10000,"station_id":"ce4bh0p2rcd13ifvqd80","pricing_plan_id":"cebpf4jnsgd1na2vs0mg"},{"bike_id":"d68f3124-e473-42d9-93d7-0d6c6613e4e0","system_id":"levelo_inurba_marseille","lat":43.28889,"lon":5.35808,"is_reserved":false,"is_disabled":false,"rental_uris":{"android":"levelo://app?vid=d68f3124-e473-42d9-93d7-0d6c6613e4e0","ios":"levelo://app?vid=d68f3124-e473-42d9-93d7-0d6c6613e4e0"},"vehicle_type_id":"4","last_reported":1753463549,"current_range_meters":10800,"station_id":"ce4bhb12rcd13ifvqem0","pricing_plan_id":"cebpf4jnsgd1na2vs0mg"},{"bike_id":"f7623b57-5f88-4ef7-8535-1d8b44f90d27","system_id":"levelo_inurba_marseille","lat":43.22504,"lon":5.347744,"is_reserved":false,"is_disabled":false,"rental_uris":{"android":"levelo://app?vid=f7623b57-5f88-4ef7-8535-1d8b44f90d27","ios":"levelo://app?vid=f7623b57-5f88-4ef7-8535-1d8b44f90d27"},"vehicle_type_id":"4","last_reported":1753463549,"current_range_meters":10800,"station_id":"","pricing_plan_id":"cebpf4jnsgd1na2vs0mg"},{"bike_id":"ff30a5ee-0e9d-4bfa-a593-c7beaf9df463","system_id":"levelo_inurba_marseille","lat":43.33538,"lon":5.36204,"is_reserved":false,"is_disabled":false,"rental_uris":{"android":"levelo://app?vid=ff30a5ee-0e9d-4bfa-a593-c7beaf9df463","ios":"levelo://app?vid=ff30a5ee-0e9d-4bfa-a593-c7beaf9df463"},"vehicle_type_id":"4","last_reported":1753463549,"current_range_meters":10800,"station_id":"","pricing_plan_id":"cebpf4jnsgd1na2vs0mg"},{"bike_id":"ac7f3c2f-452c-4620-beb4-96f9c8da3434","system_id":"levelo_inurba_marseille","lat":43.3061,"lon":5.38521,"is_reserved":false,"is_disabled":false,"rental_uris":{"android":"levelo://app?vid=ac7f3c2f-452c-4620-beb4-96f9c8da3434","ios":"levelo://app?vid=ac7f3c2f-452c-4620-beb4-96f9c8da3434"},"vehicle_type_id":"4","last_reported":1753463549,"current_range_meters":10800,"station_id":"","pricing_plan_id":"cebpf4jnsgd1na2vs0mg"},{"bike_id":"16cc6dbb-9a33-4d62-b568-4f134576fec0","system_id":"levelo_inurba_marseille","lat":43.30805,"lon":5.38159,"is_reserved":false,"is_disabled":false,"rental_uris":{"android":"levelo://app?vid=16cc6dbb-9a33-4d62-b568-4f134576fec0","ios":"levelo://app?vid=16cc6dbb-9a33-4d62-b568-4f134576fec0"},"vehicle_type_id":"4","last_reported":1753463549,"current_range_meters":10000,"station_id":"ce4bgt12rcd13ifvqce0","pricing_plan_id":"cebpf4jnsgd1na2vs0mg"},{"bike_id":"35ee41ab-1155-4c5d-a3ff-d1e05b86be8c","system_id":"levelo_inurba_marseille","lat":43.31294,"lon":5.43098,"is_reserved":false,"is_disabled":false,"rental_uris":{"android":"levelo://app?vid=35ee41ab-1155-4c5d-a3ff-d1e05b86be8c","ios":"levelo://app?vid=35ee41ab-1155-4c5d-a3ff-d1e05b86be8c"},"vehicle_type_id":"4","last_reported":1753463549,"current_range_meters":10800,"station_id":"","pricing_plan_id":"cebpf4jnsgd1na2vs0mg"},{"bike_id":"7587fbe7-2313-4f4c-8bf9-dd0b11582574","system_id":"levelo_inurba_marseille","lat":43.29045,"lon":5.35608,"is_reserved":false,"is_disabled":false,"rental_uris":{"android":"levelo://app?vid=7587fbe7-2313-4f4c-8bf9-dd0b11582574","ios":"levelo://app?vid=7587fbe7-2313-4f4c-8bf9-dd0b11582574"},"vehicle_type_id":"4","last_reported":1753463549,"current_range_meters":10800,"station_id":"ce4bhb92rcd13ifvqen0","pricing_plan_id":"cebpf4jnsgd1na2vs0mg"},{"bike_id":"b0642f06-95ff-41f6-9f4a-0722c8309d1c","system_id":"levelo_inurba_marseille","lat":43.26886,"lon":5.36871,"is_reserved":false,"is_disabled":false,"rental_uris":{"android":"levelo://app?vid=b0642f06-95ff-41f6-9f4a-0722c8309d1c","ios":"levelo://app?vid=b0642f06-95ff-41f6-9f4a-0722c8309d1c"},"vehicle_type_id":"4","last_reported":1753463549,"current_range_meters":11200,"station_id":"","pricing_plan_id":"cebpf4jnsgd1na2vs0mg"},{"bike_id":"2cdd71c3-85d9-4cbc-ad23-affba8f05218","system_id":"levelo_inurba_marseille","lat":43.29004,"lon":5.35602,"is_reserved":false,"is_disabled":false,"rental_uris":{"android":"levelo://app?vid=2cdd71c3-85d9-4cbc-ad23-affba8f05218","ios":"levelo://app?vid=2cdd71c3-85d9-4cbc-ad23-affba8f05218"},"vehicle_type_id":"4","last_reported":1753463549,"current_range_meters":11200,"station_id":"ce4bhb92rcd13ifvqen0","pricing_plan_id":"cebpf4jnsgd1na2vs0mg"},{"bike_id":"63623d0e-9355-423c-89c8-30e7e5c81b40","system_id":"levelo_inurba_marseille","lat":43.26211,"lon":5.37443,"is_reserved":false,"is_disabled":false,"rental_uris":{"android":"levelo://app?vid=63623d0e-9355-423c-89c8-30e7e5c81b40","ios":"levelo://app?vid=63623d0e-9355-423c-89c8-30e7e5c81b40"},"vehicle_type_id":"4","last_reported":1753463549,"current_range_meters":11200,"station_id":"ce4bhgp2rcd13ifvqfc0","pricing_plan_id":"cebpf4jnsgd1na2vs0mg"},{"bike_id":"1c31f24b-2b9e-48c3-b103-bffd32b92420","system_id":"levelo_inurba_marseille","lat":43.33512,"lon":5.40814,"is_reserved":false,"is_disabled":false,"rental_uris":{"android":"levelo://app?vid=1c31f24b-2b9e-48c3-b103-bffd32b92420","ios":"levelo://app?vid=1c31f24b-2b9e-48c3-b103-bffd32b92420"},"vehicle_type_id":"4","last_reported":1753463549,"current_range_meters":11200,"station_id":"","pricing_plan_id":"cebpf4jnsgd1na2vs0mg"},{"bike_id":"0939eecf-ab8e-4e0f-8dde-ab5f40cfd3cc","system_id":"levelo_inurba_marseille","lat":43.2841,"lon":5.34994,"is_reserved":false,"is_disabled":true,"rental_uris":{"android":"levelo://app?vid=0939eecf-ab8e-4e0f-8dde-ab5f40cfd3cc","ios":"levelo://app?vid=0939eecf-ab8e-4e0f-8dde-ab5f40cfd3cc"},"vehicle_type_id":"4","last_reported":1753463549,"current_range_meters":11200,"station_id":"ce4bhbh2rcd13ifvqepg","pricing_plan_id":"cebpf4jnsgd1na2vs0mg"},{"bike_id":"f3d850d9-f032-4b80-827d-1e66c26b963d","system_id":"levelo_inurba_marseille","lat":43.29916,"lon":5.37473,"is_reserved":false,"is_disabled":false,"rental_uris":{"android":"levelo://app?vid=f3d850d9-f032-4b80-827d-1e66c26b963d","ios":"levelo://app?vid=f3d850d9-f032-4b80-827d-1e66c26b963d"},"vehicle_type_id":"4","last_reported":1753463549,"current_range_meters":11200,"station_id":"ce4bgjh2rcd13ifvqbg0","pricing_plan_id":"cebpf4jnsgd1na2vs0mg"},{"bike_id":"cbbaa712-bdc9-4a31-b923-7ed2264059c6","system_id":"levelo_inurba_marseille","lat":43.29601,"lon":5.38097,"is_reserved":false,"is_disabled":false,"rental_uris":{"android":"levelo://app?vid=cbbaa712-bdc9-4a31-b923-7ed2264059c6","ios":"levelo://app?vid=cbbaa712-bdc9-4a31-b923-7ed2264059c6"},"vehicle_type_id":"4","last_reported":1753463549,"current_range_meters":11200,"station_id":"ce4bgl12rcd13ifvqbo0","pricing_plan_id":"cebpf4jnsgd1na2vs0mg"},{"bike_id":"79079a9a-8322-4f6c-a9e6-9aba90ee17ba","system_id":"levelo_inurba_marseille","lat":43.33771,"lon":5.37434,"is_reserved":false,"is_disabled":false,"rental_uris":{"android":"levelo://app?vid=79079a9a-8322-4f6c-a9e6-9aba90ee17ba","ios":"levelo://app?vid=79079a9a-8322-4f6c-a9e6-9aba90ee17ba"},"vehicle_type_id":"4","last_reported":1753463549,"current_range_meters":11200,"station_id":"","pricing_plan_id":"cebpf4jnsgd1na2vs0mg"},{"bike_id":"d4ed1f0b-929f-411a-95bf-a22b1c57c0b3","system_id":"levelo_inurba_marseille","lat":43.25726,"lon":5.41108,"is_reserved":false,"is_disabled":false,"rental_uris":{"android":"levelo://app?vid=d4ed1f0b-929f-411a-95bf-a22b1c57c0b3","ios":"levelo://app?vid=d4ed1f0b-929f-411a-95bf-a22b1c57c0b3"},"vehicle_type_id":"4","last_reported":1753463549,"current_range_meters":11200,"station_id":"ce4bhkp2rcd13ifvqgd0","pricing_plan_id":"cebpf4jnsgd1na2vs0mg"},{"bike_id":"df36aaed-f879-4ca1-93f5-53af5a4f1749","system_id":"levelo_inurba_marseille","lat":43.26226,"lon":5.4045,"is_reserved":false,"is_disabled":false,"rental_uris":{"android":"levelo://app?vid=df36aaed-f879-4ca1-93f5-53af5a4f1749","ios":"levelo://app?vid=df36aaed-f879-4ca1-93f5-53af5a4f1749"},"vehicle_type_id":"4","last_reported":1753463549,"current_range_meters":11600,"station_id":"ce4bhmh2rcd13ifvqgmg","pricing_plan_id":"cebpf4jnsgd1na2vs0mg"},{"bike_id":"43cf4049-15dd-4e8c-88a8-61cd8dc10bf5","system_id":"levelo_inurba_marseille","lat":43.3342,"lon":5.39779,"is_reserved":false,"is_disabled":false,"rental_uris":{"android":"levelo://app?vid=43cf4049-15dd-4e8c-88a8-61cd8dc10bf5","ios":"levelo://app?vid=43cf4049-15dd-4e8c-88a8-61cd8dc10bf5"},"vehicle_type_id":"4","last_reported":1753463549,"current_range_meters":11600,"station_id":"","pricing_plan_id":"cebpf4jnsgd1na2vs0mg"},{"bike_id":"a12459fb-772e-4b74-9514-784297907c96","system_id":"levelo_inurba_marseille","lat":43.270681,"lon":5.422794,"is_reserved":false,"is_disabled":false,"rental_uris":{"android":"levelo://app?vid=a12459fb-772e-4b74-9514-784297907c96","ios":"levelo://app?vid=a12459fb-772e-4b74-9514-784297907c96"},"vehicle_type_id":"4","last_reported":1753463549,"current_range_meters":11600,"station_id":"ce4bhk92rcd13ifvqgb0","pricing_plan_id":"cebpf4jnsgd1na2vs0mg"},{"bike_id":"8dcab7ff-30e3-4f9e-a515-fabad1a70180","system_id":"levelo_inurba_marseille","lat":43.28406,"lon":5.37519,"is_reserved":false,"is_disabled":false,"rental_uris":{"android":"levelo://app?vid=8dcab7ff-30e3-4f9e-a515-fabad1a70180","ios":"levelo://app?vid=8dcab7ff-30e3-4f9e-a515-fabad1a70180"},"vehicle_type_id":"4","last_reported":1753463549,"current_range_meters":11600,"station_id":"ce4bh412rcd13ifvqds0","pricing_plan_id":"cebpf4jnsgd1na2vs0mg"},{"bike_id":"a9049584-7762-407b-938b-ffc77830609a","system_id":"levelo_inurba_marseille","lat":43.27998,"lon":5.40011,"is_reserved":false,"is_disabled":false,"rental_uris":{"android":"levelo://app?vid=a9049584-7762-407b-938b-ffc77830609a","ios":"levelo://app?vid=a9049584-7762-407b-938b-ffc77830609a"},"vehicle_type_id":"4","last_reported":1753463549,"current_range_meters":11200,"station_id":"ce4bho92rcd13ifvqh4g","pricing_plan_id":"cebpf4jnsgd1na2vs0mg"},{"bike_id":"cd46deaf-56f9-41a0-b439-73986198afb6","system_id":"levelo_inurba_marseille","lat":43.25827,"lon":5.3944,"is_reserved":false,"is_disabled":false,"rental_uris":{"android":"levelo://app?vid=cd46deaf-56f9-41a0-b439-73986198afb6","ios":"levelo://app?vid=cd46deaf-56f9-41a0-b439-73986198afb6"},"vehicle_type_id":"4","last_reported":1753463549,"current_range_meters":11600,"station_id":"ce4bhip2rcd13ifvqft0","pricing_plan_id":"cebpf4jnsgd1na2vs0mg"},{"bike_id":"a989e203-d590-4c01-b8a1-18d39b50d1d7","system_id":"levelo_inurba_marseille","lat":43.27207,"lon":5.39181,"is_reserved":false,"is_disabled":false,"rental_uris":{"android":"levelo://app?vid=a989e203-d590-4c01-b8a1-18d39b50d1d7","ios":"levelo://app?vid=a989e203-d590-4c01-b8a1-18d39b50d1d7"},"vehicle_type_id":"4","last_reported":1753463549,"current_range_meters":11600,"station_id":"ce4bhhp2rcd13ifvqfm0","pricing_plan_id":"cebpf4jnsgd1na2vs0mg"},{"bike_id":"5dab926c-6ab5-4424-a4a1-48e52bbb9514","system_id":"levelo_inurba_marseille","lat":43.26561,"lon":5.38997,"is_reserved":false,"is_disabled":false,"rental_uris":{"android":"levelo://app?vid=5dab926c-6ab5-4424-a4a1-48e52bbb9514","ios":"levelo://app?vid=5dab926c-6ab5-4424-a4a1-48e52bbb9514"},"vehicle_type_id":"4","last_reported":1753463549,"current_range_meters":12000,"station_id":"ce4bhe12rcd13ifvqf30","pricing_plan_id":"cebpf4jnsgd1na2vs0mg"},{"bike_id":"49a25020-c17f-426d-a295-c677da1110b3","system_id":"levelo_inurba_marseille","lat":43.26213,"lon":5.37439,"is_reserved":false,"is_disabled":false,"rental_uris":{"android":"levelo://app?vid=49a25020-c17f-426d-a295-c677da1110b3","ios":"levelo://app?vid=49a25020-c17f-426d-a295-c677da1110b3"},"vehicle_type_id":"4","last_reported":1753463549,"current_range_meters":12000,"station_id":"ce4bhgp2rcd13ifvqfc0","pricing_plan_id":"cebpf4jnsgd1na2vs0mg"},{"bike_id":"08381a7c-2b13-4634-9b98-a3d209108427","system_id":"levelo_inurba_marseille","lat":43.30529,"lon":5.36688,"is_reserved":false,"is_disabled":false,"rental_uris":{"android":"levelo://app?vid=08381a7c-2b13-4634-9b98-a3d209108427","ios":"levelo://app?vid=08381a7c-2b13-4634-9b98-a3d209108427"},"vehicle_type_id":"4","last_reported":1753463549,"current_range_meters":12400,"station_id":"ce4bgrp2rcd13ifvqc9g","pricing_plan_id":"cebpf4jnsgd1na2vs0mg"},{"bike_id":"a232f953-2772-4e01-987a-5593ee87eec9","system_id":"levelo_inurba_marseille","lat":43.291982,"lon":5.358003,"is_reserved":false,"is_disabled":false,"rental_uris":{"android":"levelo://app?vid=a232f953-2772-4e01-987a-5593ee87eec9","ios":"levelo://app?vid=a232f953-2772-4e01-987a-5593ee87eec9"},"vehicle_type_id":"4","last_reported":1753463549,"current_range_meters":12400,"station_id":"ce4bhb12rcd13ifvqel0","pricing_plan_id":"cebpf4jnsgd1na2vs0mg"},{"bike_id":"e20ffe25-3eb1-4a23-adc0-8cbc86f2dda5","system_id":"levelo_inurba_marseille","lat":43.32661,"lon":5.40992,"is_reserved":false,"is_disabled":false,"rental_uris":{"android":"levelo://app?vid=e20ffe25-3eb1-4a23-adc0-8cbc86f2dda5","ios":"levelo://app?vid=e20ffe25-3eb1-4a23-adc0-8cbc86f2dda5"},"vehicle_type_id":"4","last_reported":1753463549,"current_range_meters":12400,"station_id":"ce4bhpp2rcd13ifvqhgg","pricing_plan_id":"cebpf4jnsgd1na2vs0mg"},{"bike_id":"490fd0a3-3ae2-4135-acff-5c94025f5f04","system_id":"levelo_inurba_marseille","lat":43.27923,"lon":5.39569,"is_reserved":false,"is_disabled":true,"rental_uris":{"android":"levelo://app?vid=490fd0a3-3ae2-4135-acff-5c94025f5f04","ios":"levelo://app?vid=490fd0a3-3ae2-4135-acff-5c94025f5f04"},"vehicle_type_id":"4","last_reported":1753463549,"current_range_meters":12400,"station_id":"ce4bhf92rcd13ifvqf40","pricing_plan_id":"cebpf4jnsgd1na2vs0mg"},{"bike_id":"5bbadec1-f7c5-4e36-bea1-97b4ef75ffb1","system_id":"levelo_inurba_marseille","lat":43.30541,"lon":5.36701,"is_reserved":false,"is_disabled":false,"rental_uris":{"android":"levelo://app?vid=5bbadec1-f7c5-4e36-bea1-97b4ef75ffb1","ios":"levelo://app?vid=5bbadec1-f7c5-4e36-bea1-97b4ef75ffb1"},"vehicle_type_id":"4","last_reported":1753463549,"current_range_meters":12000,"station_id":"ce4bgrp2rcd13ifvqc9g","pricing_plan_id":"cebpf4jnsgd1na2vs0mg"},{"bike_id":"d2cb877d-d63e-4c06-8493-287c3c68a37f","system_id":"levelo_inurba_marseille","lat":43.26217,"lon":5.37434,"is_reserved":false,"is_disabled":false,"rental_uris":{"android":"levelo://app?vid=d2cb877d-d63e-4c06-8493-287c3c68a37f","ios":"levelo://app?vid=d2cb877d-d63e-4c06-8493-287c3c68a37f"},"vehicle_type_id":"4","last_reported":1753463549,"current_range_meters":12400,"station_id":"ce4bhgp2rcd13ifvqfc0","pricing_plan_id":"cebpf4jnsgd1na2vs0mg"},{"bike_id":"cec5dcdf-0296-4b33-bc43-7de6f74d3c49","system_id":"levelo_inurba_marseille","lat":43.25585,"lon":5.3823,"is_reserved":false,"is_disabled":false,"rental_uris":{"android":"levelo://app?vid=cec5dcdf-0296-4b33-bc43-7de6f74d3c49","ios":"levelo://app?vid=cec5dcdf-0296-4b33-bc43-7de6f74d3c49"},"vehicle_type_id":"4","last_reported":1753463549,"current_range_meters":12000,"station_id":"ce4bhih2rcd13ifvqfs0","pricing_plan_id":"cebpf4jnsgd1na2vs0mg"},{"bike_id":"5fc666d4-7509-40b3-b359-a141ffaa9f74","system_id":"levelo_inurba_marseille","lat":43.27505,"lon":5.42452,"is_reserved":false,"is_disabled":false,"rental_uris":{"android":"levelo://app?vid=5fc666d4-7509-40b3-b359-a141ffaa9f74","ios":"levelo://app?vid=5fc666d4-7509-40b3-b359-a141ffaa9f74"},"vehicle_type_id":"4","last_reported":1753463549,"current_range_meters":12800,"station_id":"ce4bhn92rcd13ifvqgrg","pricing_plan_id":"cebpf4jnsgd1na2vs0mg"},{"bike_id":"8a77b57c-8077-462f-82e5-e1791b60f6d7","system_id":"levelo_inurba_marseille","lat":43.30542,"lon":5.36562,"is_reserved":false,"is_disabled":false,"rental_uris":{"android":"levelo://app?vid=8a77b57c-8077-462f-82e5-e1791b60f6d7","ios":"levelo://app?vid=8a77b57c-8077-462f-82e5-e1791b60f6d7"},"vehicle_type_id":"4","last_reported":1753463549,"current_range_meters":12800,"station_id":"ce4bgs12rcd13ifvqcag","pricing_plan_id":"cebpf4jnsgd1na2vs0mg"},{"bike_id":"12f1ccbe-caad-447a-81e6-68f78b4f48b3","system_id":"levelo_inurba_marseille","lat":43.286194,"lon":5.351085,"is_reserved":false,"is_disabled":false,"rental_uris":{"android":"levelo://app?vid=12f1ccbe-caad-447a-81e6-68f78b4f48b3","ios":"levelo://app?vid=12f1ccbe-caad-447a-81e6-68f78b4f48b3"},"vehicle_type_id":"4","last_reported":1753463549,"current_range_meters":12800,"station_id":"ce4bhch2rcd13ifvqeug","pricing_plan_id":"cebpf4jnsgd1na2vs0mg"},{"bike_id":"5440a182-b760-4205-92c8-d9ab0a9c67c8","system_id":"levelo_inurba_marseille","lat":43.28442,"lon":5.34958,"is_reserved":false,"is_disabled":true,"rental_uris":{"android":"levelo://app?vid=5440a182-b760-4205-92c8-d9ab0a9c67c8","ios":"levelo://app?vid=5440a182-b760-4205-92c8-d9ab0a9c67c8"},"vehicle_type_id":"4","last_reported":1753463549,"current_range_meters":12800,"station_id":"ce4bhbh2rcd13ifvqepg","pricing_plan_id":"cebpf4jnsgd1na2vs0mg"},{"bike_id":"dc5ff1b6-6ed7-4587-b5b3-51659e804f91","system_id":"levelo_inurba_marseille","lat":43.28267,"lon":5.35059,"is_reserved":false,"is_disabled":false,"rental_uris":{"android":"levelo://app?vid=dc5ff1b6-6ed7-4587-b5b3-51659e804f91","ios":"levelo://app?vid=dc5ff1b6-6ed7-4587-b5b3-51659e804f91"},"vehicle_type_id":"4","last_reported":1753463549,"current_range_meters":12400,"station_id":"ce4bhbp2rcd13ifvqerg","pricing_plan_id":"cebpf4jnsgd1na2vs0mg"},{"bike_id":"078febbd-6d49-4abf-8b46-d33f87f8da46","system_id":"levelo_inurba_marseille","lat":43.25458,"lon":5.37996,"is_reserved":false,"is_disabled":false,"rental_uris":{"android":"levelo://app?vid=078febbd-6d49-4abf-8b46-d33f87f8da46","ios":"levelo://app?vid=078febbd-6d49-4abf-8b46-d33f87f8da46"},"vehicle_type_id":"4","last_reported":1753463549,"current_range_meters":12800,"station_id":"","pricing_plan_id":"cebpf4jnsgd1na2vs0mg"},{"bike_id":"604db462-ca9a-4fd5-b251-88dff4c2360c","system_id":"levelo_inurba_marseille","lat":43.28411,"lon":5.37494,"is_reserved":false,"is_disabled":false,"rental_uris":{"android":"levelo://app?vid=604db462-ca9a-4fd5-b251-88dff4c2360c","ios":"levelo://app?vid=604db462-ca9a-4fd5-b251-88dff4c2360c"},"vehicle_type_id":"4","last_reported":1753463549,"current_range_meters":12800,"station_id":"ce4bh412rcd13ifvqds0","pricing_plan_id":"cebpf4jnsgd1na2vs0mg"},{"bike_id":"591fb768-7e78-4b54-88b5-e73a5af76b19","system_id":"levelo_inurba_marseille","lat":43.22923,"lon":5.3535,"is_reserved":false,"is_disabled":false,"rental_uris":{"android":"levelo://app?vid=591fb768-7e78-4b54-88b5-e73a5af76b19","ios":"levelo://app?vid=591fb768-7e78-4b54-88b5-e73a5af76b19"},"vehicle_type_id":"4","last_reported":1753463549,"current_range_meters":12800,"station_id":"cpo3532slgdg3j2ikp40","pricing_plan_id":"cebpf4jnsgd1na2vs0mg"},{"bike_id":"de306e56-7b08-43d2-9f70-2fe3823a212a","system_id":"levelo_inurba_marseille","lat":43.24179,"lon":5.39697,"is_reserved":false,"is_disabled":false,"rental_uris":{"android":"levelo://app?vid=de306e56-7b08-43d2-9f70-2fe3823a212a","ios":"levelo://app?vid=de306e56-7b08-43d2-9f70-2fe3823a212a"},"vehicle_type_id":"4","last_reported":1753463549,"current_range_meters":12800,"station_id":"ce4bhn12rcd13ifvqgpg","pricing_plan_id":"cebpf4jnsgd1na2vs0mg"},{"bike_id":"c017b4de-074c-46ed-bc0a-5b7912813135","system_id":"levelo_inurba_marseille","lat":43.26088,"lon":5.373,"is_reserved":false,"is_disabled":false,"rental_uris":{"android":"levelo://app?vid=c017b4de-074c-46ed-bc0a-5b7912813135","ios":"levelo://app?vid=c017b4de-074c-46ed-bc0a-5b7912813135"},"vehicle_type_id":"4","last_reported":1753463549,"current_range_meters":12800,"station_id":"","pricing_plan_id":"cebpf4jnsgd1na2vs0mg"},{"bike_id":"c9462ddc-04fc-40ed-8244-99c7469192b8","system_id":"levelo_inurba_marseille","lat":43.29534,"lon":5.39397,"is_reserved":false,"is_disabled":false,"rental_uris":{"android":"levelo://app?vid=c9462ddc-04fc-40ed-8244-99c7469192b8","ios":"levelo://app?vid=c9462ddc-04fc-40ed-8244-99c7469192b8"},"vehicle_type_id":"4","last_reported":1753463549,"current_range_meters":12400,"station_id":"ce4bh292rcd13ifvqdf0","pricing_plan_id":"cebpf4jnsgd1na2vs0mg"},{"bike_id":"8c26d18d-7b76-4f89-9a85-0ff8340cf395","system_id":"levelo_inurba_marseille","lat":43.23964,"lon":5.36625,"is_reserved":false,"is_disabled":false,"rental_uris":{"android":"levelo://app?vid=8c26d18d-7b76-4f89-9a85-0ff8340cf395","ios":"levelo://app?vid=8c26d18d-7b76-4f89-9a85-0ff8340cf395"},"vehicle_type_id":"4","last_reported":1753463549,"current_range_meters":12400,"station_id":"ce4bhi12rcd13ifvqfp0","pricing_plan_id":"cebpf4jnsgd1na2vs0mg"},{"bike_id":"5ca08581-427e-4118-be84-91c1d06acfca","system_id":"levelo_inurba_marseille","lat":43.25502,"lon":5.37648,"is_reserved":false,"is_disabled":false,"rental_uris":{"android":"levelo://app?vid=5ca08581-427e-4118-be84-91c1d06acfca","ios":"levelo://app?vid=5ca08581-427e-4118-be84-91c1d06acfca"},"vehicle_type_id":"4","last_reported":1753463549,"current_range_meters":13600,"station_id":"ce4bhh12rcd13ifvqff0","pricing_plan_id":"cebpf4jnsgd1na2vs0mg"},{"bike_id":"ccca3042-9358-40fc-ac03-e327e01c225f","system_id":"levelo_inurba_marseille","lat":43.232963,"lon":5.36109,"is_reserved":false,"is_disabled":false,"rental_uris":{"android":"levelo://app?vid=ccca3042-9358-40fc-ac03-e327e01c225f","ios":"levelo://app?vid=ccca3042-9358-40fc-ac03-e327e01c225f"},"vehicle_type_id":"4","last_reported":1753463549,"current_range_meters":13600,"station_id":"","pricing_plan_id":"cebpf4jnsgd1na2vs0mg"},{"bike_id":"386a9f65-81e3-4a9a-98ce-c6a105ba08ae","system_id":"levelo_inurba_marseille","lat":43.30276,"lon":5.37706,"is_reserved":false,"is_disabled":false,"rental_uris":{"android":"levelo://app?vid=386a9f65-81e3-4a9a-98ce-c6a105ba08ae","ios":"levelo://app?vid=386a9f65-81e3-4a9a-98ce-c6a105ba08ae"},"vehicle_type_id":"4","last_reported":1753463549,"current_range_meters":13600,"station_id":"ce4bguh2rcd13ifvqcj0","pricing_plan_id":"cebpf4jnsgd1na2vs0mg"},{"bike_id":"a3fe9995-2e3e-423b-9540-429a92fa997e","system_id":"levelo_inurba_marseille","lat":43.30178,"lon":5.37197,"is_reserved":false,"is_disabled":false,"rental_uris":{"android":"levelo://app?vid=a3fe9995-2e3e-423b-9540-429a92fa997e","ios":"levelo://app?vid=a3fe9995-2e3e-423b-9540-429a92fa997e"},"vehicle_type_id":"4","last_reported":1753463549,"current_range_meters":13600,"station_id":"","pricing_plan_id":"cebpf4jnsgd1na2vs0mg"},{"bike_id":"573a3c4a-0b98-44d0-8b26-00d12827f478","system_id":"levelo_inurba_marseille","lat":43.29617,"lon":5.37721,"is_reserved":false,"is_disabled":false,"rental_uris":{"android":"levelo://app?vid=573a3c4a-0b98-44d0-8b26-00d12827f478","ios":"levelo://app?vid=573a3c4a-0b98-44d0-8b26-00d12827f478"},"vehicle_type_id":"4","last_reported":1753463549,"current_range_meters":14000,"station_id":"ce4bgi92rcd13ifvqb90","pricing_plan_id":"cebpf4jnsgd1na2vs0mg"},{"bike_id":"eb83f636-9f57-4bf9-a976-73b5bf47f8ce","system_id":"levelo_inurba_marseille","lat":43.22507,"lon":5.34782,"is_reserved":false,"is_disabled":false,"rental_uris":{"android":"levelo://app?vid=eb83f636-9f57-4bf9-a976-73b5bf47f8ce","ios":"levelo://app?vid=eb83f636-9f57-4bf9-a976-73b5bf47f8ce"},"vehicle_type_id":"4","last_reported":1753463549,"current_range_meters":14000,"station_id":"st_cvj5dfep6f1abm77gieg","pricing_plan_id":"cebpf4jnsgd1na2vs0mg"},{"bike_id":"874897cd-408b-4751-912a-cb6321a24c44","system_id":"levelo_inurba_marseille","lat":43.28419,"lon":5.34978,"is_reserved":false,"is_disabled":false,"rental_uris":{"android":"levelo://app?vid=874897cd-408b-4751-912a-cb6321a24c44","ios":"levelo://app?vid=874897cd-408b-4751-912a-cb6321a24c44"},"vehicle_type_id":"4","last_reported":1753463549,"current_range_meters":14000,"station_id":"ce4bhbh2rcd13ifvqepg","pricing_plan_id":"cebpf4jnsgd1na2vs0mg"},{"bike_id":"9b111c84-1c94-478e-a262-7409e374875a","system_id":"levelo_inurba_marseille","lat":43.301514,"lon":5.380831,"is_reserved":false,"is_disabled":false,"rental_uris":{"android":"levelo://app?vid=9b111c84-1c94-478e-a262-7409e374875a","ios":"levelo://app?vid=9b111c84-1c94-478e-a262-7409e374875a"},"vehicle_type_id":"4","last_reported":1753463549,"current_range_meters":14000,"station_id":"ce4bgjp2rcd13ifvqbh0","pricing_plan_id":"cebpf4jnsgd1na2vs0mg"},{"bike_id":"ba00d103-850b-4592-9be9-fea05914fea6","system_id":"levelo_inurba_marseille","lat":43.24076,"lon":5.37752,"is_reserved":false,"is_disabled":false,"rental_uris":{"android":"levelo://app?vid=ba00d103-850b-4592-9be9-fea05914fea6","ios":"levelo://app?vid=ba00d103-850b-4592-9be9-fea05914fea6"},"vehicle_type_id":"4","last_reported":1753463549,"current_range_meters":14000,"station_id":"ce4bhnp2rcd13ifvqgvg","pricing_plan_id":"cebpf4jnsgd1na2vs0mg"},{"bike_id":"14290dc3-0ecb-4c09-bf2e-6db4a8e35188","system_id":"levelo_inurba_marseille","lat":43.24395,"lon":5.37065,"is_reserved":false,"is_disabled":false,"rental_uris":{"android":"levelo://app?vid=14290dc3-0ecb-4c09-bf2e-6db4a8e35188","ios":"levelo://app?vid=14290dc3-0ecb-4c09-bf2e-6db4a8e35188"},"vehicle_type_id":"4","last_reported":1753463549,"current_range_meters":14000,"station_id":"ce4bhhh2rcd13ifvqfk0","pricing_plan_id":"cebpf4jnsgd1na2vs0mg"},{"bike_id":"ddac9b20-aea3-4e85-ad04-3d2fb1b5131d","system_id":"levelo_inurba_marseille","lat":43.27208,"lon":5.3918,"is_reserved":false,"is_disabled":false,"rental_uris":{"android":"levelo://app?vid=ddac9b20-aea3-4e85-ad04-3d2fb1b5131d","ios":"levelo://app?vid=ddac9b20-aea3-4e85-ad04-3d2fb1b5131d"},"vehicle_type_id":"4","last_reported":1753463549,"current_range_meters":13600,"station_id":"ce4bhhp2rcd13ifvqfm0","pricing_plan_id":"cebpf4jnsgd1na2vs0mg"},{"bike_id":"b2f1d24a-4807-4d0e-aa10-210dbf41f0c1","system_id":"levelo_inurba_marseille","lat":43.29559,"lon":5.42288,"is_reserved":false,"is_disabled":false,"rental_uris":{"android":"levelo://app?vid=b2f1d24a-4807-4d0e-aa10-210dbf41f0c1","ios":"levelo://app?vid=b2f1d24a-4807-4d0e-aa10-210dbf41f0c1"},"vehicle_type_id":"4","last_reported":1753463549,"current_range_meters":14000,"station_id":"ce4bhph2rcd13ifvqhdg","pricing_plan_id":"cebpf4jnsgd1na2vs0mg"},{"bike_id":"45919cfe-4302-488b-8296-1458eac6db93","system_id":"levelo_inurba_marseille","lat":43.290311,"lon":5.399895,"is_reserved":false,"is_disabled":true,"rental_uris":{"android":"levelo://app?vid=45919cfe-4302-488b-8296-1458eac6db93","ios":"levelo://app?vid=45919cfe-4302-488b-8296-1458eac6db93"},"vehicle_type_id":"4","last_reported":1753463549,"current_range_meters":14400,"station_id":"ce4bh392rcd13ifvqdm0","pricing_plan_id":"cebpf4jnsgd1na2vs0mg"},{"bike_id":"378521b9-2f88-49b6-9620-86cb628eab29","system_id":"levelo_inurba_marseille","lat":43.27178,"lon":5.40993,"is_reserved":false,"is_disabled":false,"rental_uris":{"android":"levelo://app?vid=378521b9-2f88-49b6-9620-86cb628eab29","ios":"levelo://app?vid=378521b9-2f88-49b6-9620-86cb628eab29"},"vehicle_type_id":"4","last_reported":1753463549,"current_range_meters":14400,"station_id":"ce4bhl12rcd13ifvqgf0","pricing_plan_id":"cebpf4jnsgd1na2vs0mg"},{"bike_id":"88713064-73b6-47c5-8baf-21f8c90f1d38","system_id":"levelo_inurba_marseille","lat":43.29297,"lon":5.3787,"is_reserved":false,"is_disabled":false,"rental_uris":{"android":"levelo://app?vid=88713064-73b6-47c5-8baf-21f8c90f1d38","ios":"levelo://app?vid=88713064-73b6-47c5-8baf-21f8c90f1d38"},"vehicle_type_id":"4","last_reported":1753463549,"current_range_meters":14400,"station_id":"","pricing_plan_id":"cebpf4jnsgd1na2vs0mg"},{"bike_id":"eeeb9218-8042-4cbd-95a4-0834de564d28","system_id":"levelo_inurba_marseille","lat":43.21746,"lon":5.34605,"is_reserved":false,"is_disabled":true,"rental_uris":{"android":"levelo://app?vid=eeeb9218-8042-4cbd-95a4-0834de564d28","ios":"levelo://app?vid=eeeb9218-8042-4cbd-95a4-0834de564d28"},"vehicle_type_id":"4","last_reported":1753463549,"current_range_meters":14400,"station_id":"st_cvj6r9ubvosntc0bgbag","pricing_plan_id":"cebpf4jnsgd1na2vs0mg"},{"bike_id":"1adb7937-5eac-4e2e-b1c3-63df12af9e4d","system_id":"levelo_inurba_marseille","lat":43.29972,"lon":5.3849,"is_reserved":false,"is_disabled":false,"rental_uris":{"android":"levelo://app?vid=1adb7937-5eac-4e2e-b1c3-63df12af9e4d","ios":"levelo://app?vid=1adb7937-5eac-4e2e-b1c3-63df12af9e4d"},"vehicle_type_id":"4","last_reported":1753463549,"current_range_meters":14400,"station_id":"ce4bgj92rcd13ifvqbd0","pricing_plan_id":"cebpf4jnsgd1na2vs0mg"},{"bike_id":"85cdef39-29b4-4da3-a5df-00f4315712c0","system_id":"levelo_inurba_marseille","lat":43.2991,"lon":5.37474,"is_reserved":false,"is_disabled":false,"rental_uris":{"android":"levelo://app?vid=85cdef39-29b4-4da3-a5df-00f4315712c0","ios":"levelo://app?vid=85cdef39-29b4-4da3-a5df-00f4315712c0"},"vehicle_type_id":"4","last_reported":1753463549,"current_range_meters":14400,"station_id":"ce4bgjh2rcd13ifvqbg0","pricing_plan_id":"cebpf4jnsgd1na2vs0mg"},{"bike_id":"22abd279-ac3d-4b7c-8221-b68bbacaab0e","system_id":"levelo_inurba_marseille","lat":43.26251,"lon":5.37412,"is_reserved":false,"is_disabled":false,"rental_uris":{"android":"levelo://app?vid=22abd279-ac3d-4b7c-8221-b68bbacaab0e","ios":"levelo://app?vid=22abd279-ac3d-4b7c-8221-b68bbacaab0e"},"vehicle_type_id":"4","last_reported":1753463549,"current_range_meters":14800,"station_id":"ce4bhgp2rcd13ifvqfc0","pricing_plan_id":"cebpf4jnsgd1na2vs0mg"},{"bike_id":"998111db-eeca-4c77-9e0c-e081b470aa34","system_id":"levelo_inurba_marseille","lat":43.278054,"lon":5.407128,"is_reserved":false,"is_disabled":false,"rental_uris":{"android":"levelo://app?vid=998111db-eeca-4c77-9e0c-e081b470aa34","ios":"levelo://app?vid=998111db-eeca-4c77-9e0c-e081b470aa34"},"vehicle_type_id":"4","last_reported":1753463549,"current_range_meters":14800,"station_id":"ce4bhnh2rcd13ifvqgtg","pricing_plan_id":"cebpf4jnsgd1na2vs0mg"},{"bike_id":"c07e20cc-6724-4af5-a3ac-826edc27d1dd","system_id":"levelo_inurba_marseille","lat":43.26227,"lon":5.40454,"is_reserved":false,"is_disabled":false,"rental_uris":{"android":"levelo://app?vid=c07e20cc-6724-4af5-a3ac-826edc27d1dd","ios":"levelo://app?vid=c07e20cc-6724-4af5-a3ac-826edc27d1dd"},"vehicle_type_id":"4","last_reported":1753463549,"current_range_meters":14800,"station_id":"ce4bhmh2rcd13ifvqgmg","pricing_plan_id":"cebpf4jnsgd1na2vs0mg"},{"bike_id":"b9014e67-9928-49a6-801d-8ea0e575ad8d","system_id":"levelo_inurba_marseille","lat":43.28409,"lon":5.34967,"is_reserved":false,"is_disabled":false,"rental_uris":{"android":"levelo://app?vid=b9014e67-9928-49a6-801d-8ea0e575ad8d","ios":"levelo://app?vid=b9014e67-9928-49a6-801d-8ea0e575ad8d"},"vehicle_type_id":"4","last_reported":1753463549,"current_range_meters":14800,"station_id":"ce4bhbh2rcd13ifvqepg","pricing_plan_id":"cebpf4jnsgd1na2vs0mg"},{"bike_id":"ec5cb7ad-6860-4def-8cdc-2b9b2dec4d72","system_id":"levelo_inurba_marseille","lat":43.28415,"lon":5.37511,"is_reserved":false,"is_disabled":false,"rental_uris":{"android":"levelo://app?vid=ec5cb7ad-6860-4def-8cdc-2b9b2dec4d72","ios":"levelo://app?vid=ec5cb7ad-6860-4def-8cdc-2b9b2dec4d72"},"vehicle_type_id":"4","last_reported":1753463549,"current_range_meters":14800,"station_id":"ce4bh412rcd13ifvqds0","pricing_plan_id":"cebpf4jnsgd1na2vs0mg"},{"bike_id":"9506fefb-5dce-4a5f-b0f0-5e38a423e085","system_id":"levelo_inurba_marseille","lat":43.23194,"lon":5.35556,"is_reserved":false,"is_disabled":false,"rental_uris":{"android":"levelo://app?vid=9506fefb-5dce-4a5f-b0f0-5e38a423e085","ios":"levelo://app?vid=9506fefb-5dce-4a5f-b0f0-5e38a423e085"},"vehicle_type_id":"4","last_reported":1753463549,"current_range_meters":14800,"station_id":"ce4bhu92rcd13ifvqi70","pricing_plan_id":"cebpf4jnsgd1na2vs0mg"},{"bike_id":"f3874552-67ae-42b2-8118-9593cfbe8355","system_id":"levelo_inurba_marseille","lat":43.24177,"lon":5.36377,"is_reserved":false,"is_disabled":false,"rental_uris":{"android":"levelo://app?vid=f3874552-67ae-42b2-8118-9593cfbe8355","ios":"levelo://app?vid=f3874552-67ae-42b2-8118-9593cfbe8355"},"vehicle_type_id":"4","last_reported":1753463549,"current_range_meters":15200,"station_id":"cpo36qri1sfpv3e86is0","pricing_plan_id":"cebpf4jnsgd1na2vs0mg"},{"bike_id":"d79b409f-ca1b-43df-9348-1c6665f1fc25","system_id":"levelo_inurba_marseille","lat":43.22502,"lon":5.34772,"is_reserved":false,"is_disabled":false,"rental_uris":{"android":"levelo://app?vid=d79b409f-ca1b-43df-9348-1c6665f1fc25","ios":"levelo://app?vid=d79b409f-ca1b-43df-9348-1c6665f1fc25"},"vehicle_type_id":"4","last_reported":1753463549,"current_range_meters":15200,"station_id":"st_cvj5dfep6f1abm77gieg","pricing_plan_id":"cebpf4jnsgd1na2vs0mg"},{"bike_id":"3123e30a-b47a-4d6d-828d-0ca9f7f2ca43","system_id":"levelo_inurba_marseille","lat":43.28822,"lon":5.35874,"is_reserved":false,"is_disabled":false,"rental_uris":{"android":"levelo://app?vid=3123e30a-b47a-4d6d-828d-0ca9f7f2ca43","ios":"levelo://app?vid=3123e30a-b47a-4d6d-828d-0ca9f7f2ca43"},"vehicle_type_id":"4","last_reported":1753463549,"current_range_meters":14800,"station_id":"ce4bhb12rcd13ifvqem0","pricing_plan_id":"cebpf4jnsgd1na2vs0mg"},{"bike_id":"0255549e-f0f9-43eb-beb5-728812b89f2c","system_id":"levelo_inurba_marseille","lat":43.23963,"lon":5.36624,"is_reserved":false,"is_disabled":false,"rental_uris":{"android":"levelo://app?vid=0255549e-f0f9-43eb-beb5-728812b89f2c","ios":"levelo://app?vid=0255549e-f0f9-43eb-beb5-728812b89f2c"},"vehicle_type_id":"4","last_reported":1753463549,"current_range_meters":14800,"station_id":"ce4bhi12rcd13ifvqfp0","pricing_plan_id":"cebpf4jnsgd1na2vs0mg"},{"bike_id":"534c91e0-8480-46ff-b36e-1fd32a741d5c","system_id":"levelo_inurba_marseille","lat":43.29544,"lon":5.3854,"is_reserved":false,"is_disabled":false,"rental_uris":{"android":"levelo://app?vid=534c91e0-8480-46ff-b36e-1fd32a741d5c","ios":"levelo://app?vid=534c91e0-8480-46ff-b36e-1fd32a741d5c"},"vehicle_type_id":"4","last_reported":1753463549,"current_range_meters":15200,"station_id":"ce4bgih2rcd13ifvqba0","pricing_plan_id":"cebpf4jnsgd1na2vs0mg"},{"bike_id":"5355e1b3-cc94-4134-8f0b-3295db4dde11","system_id":"levelo_inurba_marseille","lat":43.28568,"lon":5.39501,"is_reserved":false,"is_disabled":false,"rental_uris":{"android":"levelo://app?vid=5355e1b3-cc94-4134-8f0b-3295db4dde11","ios":"levelo://app?vid=5355e1b3-cc94-4134-8f0b-3295db4dde11"},"vehicle_type_id":"4","last_reported":1753463549,"current_range_meters":15200,"station_id":"ce4bh292rcd13ifvqdg0","pricing_plan_id":"cebpf4jnsgd1na2vs0mg"},{"bike_id":"06efbd2a-fcca-4784-aa74-70f8fdbdc82d","system_id":"levelo_inurba_marseille","lat":43.29275,"lon":5.36842,"is_reserved":false,"is_disabled":true,"rental_uris":{"android":"levelo://app?vid=06efbd2a-fcca-4784-aa74-70f8fdbdc82d","ios":"levelo://app?vid=06efbd2a-fcca-4784-aa74-70f8fdbdc82d"},"vehicle_type_id":"4","last_reported":1753463549,"current_range_meters":15200,"station_id":"ce4bhbp2rcd13ifvqesg","pricing_plan_id":"cebpf4jnsgd1na2vs0mg"},{"bike_id":"2281f91c-75c1-4d66-8289-5d747a81e921","system_id":"levelo_inurba_marseille","lat":43.29711,"lon":5.36608,"is_reserved":false,"is_disabled":false,"rental_uris":{"android":"levelo://app?vid=2281f91c-75c1-4d66-8289-5d747a81e921","ios":"levelo://app?vid=2281f91c-75c1-4d66-8289-5d747a81e921"},"vehicle_type_id":"4","last_reported":1753463549,"current_range_meters":16000,"station_id":"ce4bgn12rcd13ifvqbt0","pricing_plan_id":"cebpf4jnsgd1na2vs0mg"},{"bike_id":"303275e5-7303-4c92-9a75-3e5756937b3f","system_id":"levelo_inurba_marseille","lat":43.23205,"lon":5.35537,"is_reserved":false,"is_disabled":false,"rental_uris":{"android":"levelo://app?vid=303275e5-7303-4c92-9a75-3e5756937b3f","ios":"levelo://app?vid=303275e5-7303-4c92-9a75-3e5756937b3f"},"vehicle_type_id":"4","last_reported":1753463549,"current_range_meters":16000,"station_id":"ce4bhu92rcd13ifvqi70","pricing_plan_id":"cebpf4jnsgd1na2vs0mg"},{"bike_id":"7e6cbf23-0744-43af-8253-8c672c5274d7","system_id":"levelo_inurba_marseille","lat":43.28616,"lon":5.37064,"is_reserved":false,"is_disabled":false,"rental_uris":{"android":"levelo://app?vid=7e6cbf23-0744-43af-8253-8c672c5274d7","ios":"levelo://app?vid=7e6cbf23-0744-43af-8253-8c672c5274d7"},"vehicle_type_id":"4","last_reported":1753463549,"current_range_meters":16000,"station_id":"ce4bht12rcd13ifvqi60","pricing_plan_id":"cebpf4jnsgd1na2vs0mg"},{"bike_id":"22dca147-1260-44d8-822d-d9d1d50cce31","system_id":"levelo_inurba_marseille","lat":43.27461,"lon":5.39553,"is_reserved":false,"is_disabled":false,"rental_uris":{"android":"levelo://app?vid=22dca147-1260-44d8-822d-d9d1d50cce31","ios":"levelo://app?vid=22dca147-1260-44d8-822d-d9d1d50cce31"},"vehicle_type_id":"4","last_reported":1753463549,"current_range_meters":16000,"station_id":"","pricing_plan_id":"cebpf4jnsgd1na2vs0mg"},{"bike_id":"10edddaa-410f-4caa-8f76-ffdefd05fdfd","system_id":"levelo_inurba_marseille","lat":43.29913,"lon":5.38137,"is_reserved":false,"is_disabled":false,"rental_uris":{"android":"levelo://app?vid=10edddaa-410f-4caa-8f76-ffdefd05fdfd","ios":"levelo://app?vid=10edddaa-410f-4caa-8f76-ffdefd05fdfd"},"vehicle_type_id":"4","last_reported":1753463549,"current_range_meters":16000,"station_id":"ce4bgj12rcd13ifvqbc0","pricing_plan_id":"cebpf4jnsgd1na2vs0mg"},{"bike_id":"9575837e-b363-4708-9b96-c153c5fc2eb1","system_id":"levelo_inurba_marseille","lat":43.323638,"lon":5.367627,"is_reserved":false,"is_disabled":false,"rental_uris":{"android":"levelo://app?vid=9575837e-b363-4708-9b96-c153c5fc2eb1","ios":"levelo://app?vid=9575837e-b363-4708-9b96-c153c5fc2eb1"},"vehicle_type_id":"4","last_reported":1753463549,"current_range_meters":16000,"station_id":"ce4bhsh2rcd13ifvqi2g","pricing_plan_id":"cebpf4jnsgd1na2vs0mg"},{"bike_id":"21a22bc7-65fe-4b97-a005-517b211a0b98","system_id":"levelo_inurba_marseille","lat":43.2305,"lon":5.35487,"is_reserved":false,"is_disabled":false,"rental_uris":{"android":"levelo://app?vid=21a22bc7-65fe-4b97-a005-517b211a0b98","ios":"levelo://app?vid=21a22bc7-65fe-4b97-a005-517b211a0b98"},"vehicle_type_id":"4","last_reported":1753463549,"current_range_meters":16000,"station_id":"cpo3342slgdg3j2ifvpg","pricing_plan_id":"cebpf4jnsgd1na2vs0mg"},{"bike_id":"c26f1b4d-11e7-4aaa-8fd1-0c8a6e22bd7c","system_id":"levelo_inurba_marseille","lat":43.301304,"lon":5.387815,"is_reserved":false,"is_disabled":true,"rental_uris":{"android":"levelo://app?vid=c26f1b4d-11e7-4aaa-8fd1-0c8a6e22bd7c","ios":"levelo://app?vid=c26f1b4d-11e7-4aaa-8fd1-0c8a6e22bd7c"},"vehicle_type_id":"4","last_reported":1753463549,"current_range_meters":16000,"station_id":"ce4bghh2rcd13ifvqb60","pricing_plan_id":"cebpf4jnsgd1na2vs0mg"},{"bike_id":"97f7f26d-6a74-466a-873f-eae8918ac8c6","system_id":"levelo_inurba_marseille","lat":43.3095,"lon":5.39022,"is_reserved":false,"is_disabled":false,"rental_uris":{"android":"levelo://app?vid=97f7f26d-6a74-466a-873f-eae8918ac8c6","ios":"levelo://app?vid=97f7f26d-6a74-466a-873f-eae8918ac8c6"},"vehicle_type_id":"4","last_reported":1753463549,"current_range_meters":15200,"station_id":"ce4bgup2rcd13ifvqco0","pricing_plan_id":"cebpf4jnsgd1na2vs0mg"},{"bike_id":"d0c1a4ce-43c5-4029-aa0d-5c6b6d8dc883","system_id":"levelo_inurba_marseille","lat":43.28417,"lon":5.34975,"is_reserved":false,"is_disabled":false,"rental_uris":{"android":"levelo://app?vid=d0c1a4ce-43c5-4029-aa0d-5c6b6d8dc883","ios":"levelo://app?vid=d0c1a4ce-43c5-4029-aa0d-5c6b6d8dc883"},"vehicle_type_id":"4","last_reported":1753463549,"current_range_meters":16000,"station_id":"ce4bhbh2rcd13ifvqepg","pricing_plan_id":"cebpf4jnsgd1na2vs0mg"},{"bike_id":"36f324cb-a9ad-46b7-afb0-26f814934e1f","system_id":"levelo_inurba_marseille","lat":43.2623,"lon":5.37424,"is_reserved":false,"is_disabled":false,"rental_uris":{"android":"levelo://app?vid=36f324cb-a9ad-46b7-afb0-26f814934e1f","ios":"levelo://app?vid=36f324cb-a9ad-46b7-afb0-26f814934e1f"},"vehicle_type_id":"4","last_reported":1753463549,"current_range_meters":16000,"station_id":"ce4bhgp2rcd13ifvqfc0","pricing_plan_id":"cebpf4jnsgd1na2vs0mg"},{"bike_id":"4eedb553-1a5f-47e4-a136-f5051ab058e6","system_id":"levelo_inurba_marseille","lat":43.28453,"lon":5.34931,"is_reserved":false,"is_disabled":true,"rental_uris":{"android":"levelo://app?vid=4eedb553-1a5f-47e4-a136-f5051ab058e6","ios":"levelo://app?vid=4eedb553-1a5f-47e4-a136-f5051ab058e6"},"vehicle_type_id":"4","last_reported":1753463549,"current_range_meters":16000,"station_id":"ce4bhbh2rcd13ifvqepg","pricing_plan_id":"cebpf4jnsgd1na2vs0mg"},{"bike_id":"65c77654-b412-4ca0-80f4-86270a6d7e5c","system_id":"levelo_inurba_marseille","lat":43.297332,"lon":5.380522,"is_reserved":false,"is_disabled":false,"rental_uris":{"android":"levelo://app?vid=65c77654-b412-4ca0-80f4-86270a6d7e5c","ios":"levelo://app?vid=65c77654-b412-4ca0-80f4-86270a6d7e5c"},"vehicle_type_id":"4","last_reported":1753463549,"current_range_meters":16000,"station_id":"ce4bgh92rcd13ifvqb50","pricing_plan_id":"cebpf4jnsgd1na2vs0mg"},{"bike_id":"45ec1091-e6ba-41f1-9533-82769723cafd","system_id":"levelo_inurba_marseille","lat":43.32368,"lon":5.38891,"is_reserved":false,"is_disabled":false,"rental_uris":{"android":"levelo://app?vid=45ec1091-e6ba-41f1-9533-82769723cafd","ios":"levelo://app?vid=45ec1091-e6ba-41f1-9533-82769723cafd"},"vehicle_type_id":"4","last_reported":1753463549,"current_range_meters":16000,"station_id":"ce4bhqp2rcd13ifvqhog","pricing_plan_id":"cebpf4jnsgd1na2vs0mg"},{"bike_id":"cb278293-9f1e-47b2-a401-660fac112f1b","system_id":"levelo_inurba_marseille","lat":43.262054,"lon":5.374491,"is_reserved":false,"is_disabled":false,"rental_uris":{"android":"levelo://app?vid=cb278293-9f1e-47b2-a401-660fac112f1b","ios":"levelo://app?vid=cb278293-9f1e-47b2-a401-660fac112f1b"},"vehicle_type_id":"4","last_reported":1753463549,"current_range_meters":16000,"station_id":"","pricing_plan_id":"cebpf4jnsgd1na2vs0mg"},{"bike_id":"9fe55485-e9bc-4d0e-8b35-7e9c5c12c5b3","system_id":"levelo_inurba_marseille","lat":43.25499,"lon":5.37648,"is_reserved":false,"is_disabled":false,"rental_uris":{"android":"levelo://app?vid=9fe55485-e9bc-4d0e-8b35-7e9c5c12c5b3","ios":"levelo://app?vid=9fe55485-e9bc-4d0e-8b35-7e9c5c12c5b3"},"vehicle_type_id":"4","last_reported":1753463549,"current_range_meters":16000,"station_id":"ce4bhh12rcd13ifvqff0","pricing_plan_id":"cebpf4jnsgd1na2vs0mg"},{"bike_id":"e0d651f5-5160-4395-a0b6-4ca1bb481902","system_id":"levelo_inurba_marseille","lat":43.32357,"lon":5.36741,"is_reserved":false,"is_disabled":false,"rental_uris":{"android":"levelo://app?vid=e0d651f5-5160-4395-a0b6-4ca1bb481902","ios":"levelo://app?vid=e0d651f5-5160-4395-a0b6-4ca1bb481902"},"vehicle_type_id":"4","last_reported":1753463549,"current_range_meters":16400,"station_id":"ce4bhsh2rcd13ifvqi2g","pricing_plan_id":"cebpf4jnsgd1na2vs0mg"},{"bike_id":"4d72a855-a15c-4b80-87db-d5d3b8786584","system_id":"levelo_inurba_marseille","lat":43.2863,"lon":5.35115,"is_reserved":false,"is_disabled":false,"rental_uris":{"android":"levelo://app?vid=4d72a855-a15c-4b80-87db-d5d3b8786584","ios":"levelo://app?vid=4d72a855-a15c-4b80-87db-d5d3b8786584"},"vehicle_type_id":"4","last_reported":1753463549,"current_range_meters":16400,"station_id":"ce4bhch2rcd13ifvqeug","pricing_plan_id":"cebpf4jnsgd1na2vs0mg"},{"bike_id":"4decc3c3-7d1d-4c63-8fe2-54f8b619ee6f","system_id":"levelo_inurba_marseille","lat":43.30148,"lon":5.39864,"is_reserved":false,"is_disabled":false,"rental_uris":{"android":"levelo://app?vid=4decc3c3-7d1d-4c63-8fe2-54f8b619ee6f","ios":"levelo://app?vid=4decc3c3-7d1d-4c63-8fe2-54f8b619ee6f"},"vehicle_type_id":"4","last_reported":1753463549,"current_range_meters":16400,"station_id":"ce4bh0h2rcd13ifvqd40","pricing_plan_id":"cebpf4jnsgd1na2vs0mg"},{"bike_id":"de99b14c-9afd-4bdd-bc56-50354c110c3d","system_id":"levelo_inurba_marseille","lat":43.25467,"lon":5.37687,"is_reserved":false,"is_disabled":false,"rental_uris":{"android":"levelo://app?vid=de99b14c-9afd-4bdd-bc56-50354c110c3d","ios":"levelo://app?vid=de99b14c-9afd-4bdd-bc56-50354c110c3d"},"vehicle_type_id":"4","last_reported":1753463549,"current_range_meters":16400,"station_id":"","pricing_plan_id":"cebpf4jnsgd1na2vs0mg"},{"bike_id":"9b3c65ac-3671-4cc1-8554-feb875d958e8","system_id":"levelo_inurba_marseille","lat":43.23188,"lon":5.39981,"is_reserved":false,"is_disabled":false,"rental_uris":{"android":"levelo://app?vid=9b3c65ac-3671-4cc1-8554-feb875d958e8","ios":"levelo://app?vid=9b3c65ac-3671-4cc1-8554-feb875d958e8"},"vehicle_type_id":"4","last_reported":1753463549,"current_range_meters":16400,"station_id":"ce4bhn12rcd13ifvqgqg","pricing_plan_id":"cebpf4jnsgd1na2vs0mg"},{"bike_id":"482d6cad-c4d5-4c04-975b-8bb2c3b908a9","system_id":"levelo_inurba_marseille","lat":43.279694,"lon":5.379034,"is_reserved":false,"is_disabled":false,"rental_uris":{"android":"levelo://app?vid=482d6cad-c4d5-4c04-975b-8bb2c3b908a9","ios":"levelo://app?vid=482d6cad-c4d5-4c04-975b-8bb2c3b908a9"},"vehicle_type_id":"4","last_reported":1753463549,"current_range_meters":16000,"station_id":"ce4bha12rcd13ifvqee0","pricing_plan_id":"cebpf4jnsgd1na2vs0mg"},{"bike_id":"3a60eb53-2b00-49d1-be4b-4e9811eae09f","system_id":"levelo_inurba_marseille","lat":43.30083,"lon":5.39084,"is_reserved":false,"is_disabled":false,"rental_uris":{"android":"levelo://app?vid=3a60eb53-2b00-49d1-be4b-4e9811eae09f","ios":"levelo://app?vid=3a60eb53-2b00-49d1-be4b-4e9811eae09f"},"vehicle_type_id":"4","last_reported":1753463549,"current_range_meters":16400,"station_id":"ce4bh192rcd13ifvqdb0","pricing_plan_id":"cebpf4jnsgd1na2vs0mg"},{"bike_id":"dd4669b8-7a1e-455c-921c-cef6ea4213f0","system_id":"levelo_inurba_marseille","lat":43.29803,"lon":5.37661,"is_reserved":false,"is_disabled":false,"rental_uris":{"android":"levelo://app?vid=dd4669b8-7a1e-455c-921c-cef6ea4213f0","ios":"levelo://app?vid=dd4669b8-7a1e-455c-921c-cef6ea4213f0"},"vehicle_type_id":"4","last_reported":1753463549,"current_range_meters":16400,"station_id":"","pricing_plan_id":"cebpf4jnsgd1na2vs0mg"},{"bike_id":"87d20b8b-99c3-4b0b-a502-8a40de7300dc","system_id":"levelo_inurba_marseille","lat":43.2987,"lon":5.39726,"is_reserved":false,"is_disabled":false,"rental_uris":{"android":"levelo://app?vid=87d20b8b-99c3-4b0b-a502-8a40de7300dc","ios":"levelo://app?vid=87d20b8b-99c3-4b0b-a502-8a40de7300dc"},"vehicle_type_id":"4","last_reported":1753463549,"current_range_meters":16400,"station_id":"ce4bh0h2rcd13ifvqd50","pricing_plan_id":"cebpf4jnsgd1na2vs0mg"},{"bike_id":"57755280-973c-4ff3-9c25-8f15e2c5b510","system_id":"levelo_inurba_marseille","lat":43.31872,"lon":5.37373,"is_reserved":false,"is_disabled":false,"rental_uris":{"android":"levelo://app?vid=57755280-973c-4ff3-9c25-8f15e2c5b510","ios":"levelo://app?vid=57755280-973c-4ff3-9c25-8f15e2c5b510"},"vehicle_type_id":"4","last_reported":1753463549,"current_range_meters":16400,"station_id":"","pricing_plan_id":"cebpf4jnsgd1na2vs0mg"},{"bike_id":"ec2ff7fe-96f8-4ea8-9c99-8b7c542133c4","system_id":"levelo_inurba_marseille","lat":43.2738,"lon":5.36255,"is_reserved":false,"is_disabled":false,"rental_uris":{"android":"levelo://app?vid=ec2ff7fe-96f8-4ea8-9c99-8b7c542133c4","ios":"levelo://app?vid=ec2ff7fe-96f8-4ea8-9c99-8b7c542133c4"},"vehicle_type_id":"4","last_reported":1753463549,"current_range_meters":16400,"station_id":"ce4bhbh2rcd13ifvqeo0","pricing_plan_id":"cebpf4jnsgd1na2vs0mg"},{"bike_id":"0d51a031-3b45-4ae2-b687-314d45522399","system_id":"levelo_inurba_marseille","lat":43.29788,"lon":5.39346,"is_reserved":false,"is_disabled":false,"rental_uris":{"android":"levelo://app?vid=0d51a031-3b45-4ae2-b687-314d45522399","ios":"levelo://app?vid=0d51a031-3b45-4ae2-b687-314d45522399"},"vehicle_type_id":"4","last_reported":1753463549,"current_range_meters":16800,"station_id":"chh1huq6cuj3fo74tm60","pricing_plan_id":"cebpf4jnsgd1na2vs0mg"},{"bike_id":"09b7f600-cb1e-4ea0-adc2-9c3dcb778794","system_id":"levelo_inurba_marseille","lat":43.22495,"lon":5.34802,"is_reserved":false,"is_disabled":false,"rental_uris":{"android":"levelo://app?vid=09b7f600-cb1e-4ea0-adc2-9c3dcb778794","ios":"levelo://app?vid=09b7f600-cb1e-4ea0-adc2-9c3dcb778794"},"vehicle_type_id":"4","last_reported":1753463549,"current_range_meters":16800,"station_id":"st_cvj5dfep6f1abm77gieg","pricing_plan_id":"cebpf4jnsgd1na2vs0mg"},{"bike_id":"7f7a4770-cb44-4cbe-afee-f7531a238fa9","system_id":"levelo_inurba_marseille","lat":43.225059,"lon":5.347842,"is_reserved":false,"is_disabled":false,"rental_uris":{"android":"levelo://app?vid=7f7a4770-cb44-4cbe-afee-f7531a238fa9","ios":"levelo://app?vid=7f7a4770-cb44-4cbe-afee-f7531a238fa9"},"vehicle_type_id":"4","last_reported":1753463549,"current_range_meters":16800,"station_id":"st_cvj5dfep6f1abm77gieg","pricing_plan_id":"cebpf4jnsgd1na2vs0mg"},{"bike_id":"7528e0ee-3254-4380-8007-ffef61e356ca","system_id":"levelo_inurba_marseille","lat":43.265574,"lon":5.372868,"is_reserved":false,"is_disabled":false,"rental_uris":{"android":"levelo://app?vid=7528e0ee-3254-4380-8007-ffef61e356ca","ios":"levelo://app?vid=7528e0ee-3254-4380-8007-ffef61e356ca"},"vehicle_type_id":"4","last_reported":1753463549,"current_range_meters":16800,"station_id":"ce4bhg12rcd13ifvqf70","pricing_plan_id":"cebpf4jnsgd1na2vs0mg"},{"bike_id":"2a2021fd-fc0b-4d1f-a7e1-3c23df4679f3","system_id":"levelo_inurba_marseille","lat":43.28148,"lon":5.42637,"is_reserved":false,"is_disabled":false,"rental_uris":{"android":"levelo://app?vid=2a2021fd-fc0b-4d1f-a7e1-3c23df4679f3","ios":"levelo://app?vid=2a2021fd-fc0b-4d1f-a7e1-3c23df4679f3"},"vehicle_type_id":"4","last_reported":1753463549,"current_range_meters":16800,"station_id":"ce4bhnh2rcd13ifvqgug","pricing_plan_id":"cebpf4jnsgd1na2vs0mg"},{"bike_id":"2ed36394-f5aa-4f62-a562-8524cb4a46ea","system_id":"levelo_inurba_marseille","lat":43.286872,"lon":5.363687,"is_reserved":false,"is_disabled":false,"rental_uris":{"android":"levelo://app?vid=2ed36394-f5aa-4f62-a562-8524cb4a46ea","ios":"levelo://app?vid=2ed36394-f5aa-4f62-a562-8524cb4a46ea"},"vehicle_type_id":"4","last_reported":1753463549,"current_range_meters":16800,"station_id":"","pricing_plan_id":"cebpf4jnsgd1na2vs0mg"},{"bike_id":"a520aef3-d8ee-479c-910a-c0447822ca28","system_id":"levelo_inurba_marseille","lat":43.32683,"lon":5.40968,"is_reserved":false,"is_disabled":false,"rental_uris":{"android":"levelo://app?vid=a520aef3-d8ee-479c-910a-c0447822ca28","ios":"levelo://app?vid=a520aef3-d8ee-479c-910a-c0447822ca28"},"vehicle_type_id":"4","last_reported":1753463549,"current_range_meters":16800,"station_id":"ce4bhpp2rcd13ifvqhgg","pricing_plan_id":"cebpf4jnsgd1na2vs0mg"},{"bike_id":"b5faf0f0-8a73-4fc4-b6fc-daffce16b582","system_id":"levelo_inurba_marseille","lat":43.301458,"lon":5.380836,"is_reserved":false,"is_disabled":false,"rental_uris":{"android":"levelo://app?vid=b5faf0f0-8a73-4fc4-b6fc-daffce16b582","ios":"levelo://app?vid=b5faf0f0-8a73-4fc4-b6fc-daffce16b582"},"vehicle_type_id":"4","last_reported":1753463549,"current_range_meters":16800,"station_id":"ce4bgjp2rcd13ifvqbh0","pricing_plan_id":"cebpf4jnsgd1na2vs0mg"},{"bike_id":"6ab0b13c-2ff1-417a-acfd-489d6800d4c9","system_id":"levelo_inurba_marseille","lat":43.27384,"lon":5.36231,"is_reserved":false,"is_disabled":true,"rental_uris":{"android":"levelo://app?vid=6ab0b13c-2ff1-417a-acfd-489d6800d4c9","ios":"levelo://app?vid=6ab0b13c-2ff1-417a-acfd-489d6800d4c9"},"vehicle_type_id":"4","last_reported":1753463549,"current_range_meters":16800,"station_id":"ce4bhbh2rcd13ifvqeo0","pricing_plan_id":"cebpf4jnsgd1na2vs0mg"},{"bike_id":"5069af35-3e9c-4145-8228-e8f265285062","system_id":"levelo_inurba_marseille","lat":43.28939,"lon":5.36634,"is_reserved":false,"is_disabled":false,"rental_uris":{"android":"levelo://app?vid=5069af35-3e9c-4145-8228-e8f265285062","ios":"levelo://app?vid=5069af35-3e9c-4145-8228-e8f265285062"},"vehicle_type_id":"4","last_reported":1753463549,"current_range_meters":17200,"station_id":"ce4bhap2rcd13ifvqek0","pricing_plan_id":"cebpf4jnsgd1na2vs0mg"},{"bike_id":"01e33441-24ef-4bd2-ac9c-7485a91d9062","system_id":"levelo_inurba_marseille","lat":43.31485,"lon":5.37306,"is_reserved":false,"is_disabled":false,"rental_uris":{"android":"levelo://app?vid=01e33441-24ef-4bd2-ac9c-7485a91d9062","ios":"levelo://app?vid=01e33441-24ef-4bd2-ac9c-7485a91d9062"},"vehicle_type_id":"4","last_reported":1753463549,"current_range_meters":17200,"station_id":"ce4bgt12rcd13ifvqcd0","pricing_plan_id":"cebpf4jnsgd1na2vs0mg"},{"bike_id":"847b44c9-efab-4746-8937-dcebf1206fff","system_id":"levelo_inurba_marseille","lat":43.262095,"lon":5.374463,"is_reserved":false,"is_disabled":true,"rental_uris":{"android":"levelo://app?vid=847b44c9-efab-4746-8937-dcebf1206fff","ios":"levelo://app?vid=847b44c9-efab-4746-8937-dcebf1206fff"},"vehicle_type_id":"4","last_reported":1753463549,"current_range_meters":17200,"station_id":"ce4bhgp2rcd13ifvqfc0","pricing_plan_id":"cebpf4jnsgd1na2vs0mg"},{"bike_id":"97a719d6-9a61-41a3-aa32-c84796fe6ec0","system_id":"levelo_inurba_marseille","lat":43.28411,"lon":5.37502,"is_reserved":false,"is_disabled":false,"rental_uris":{"android":"levelo://app?vid=97a719d6-9a61-41a3-aa32-c84796fe6ec0","ios":"levelo://app?vid=97a719d6-9a61-41a3-aa32-c84796fe6ec0"},"vehicle_type_id":"4","last_reported":1753463549,"current_range_meters":17200,"station_id":"ce4bh412rcd13ifvqds0","pricing_plan_id":"cebpf4jnsgd1na2vs0mg"},{"bike_id":"4c6cb480-fbd8-4087-8db2-bb21e6b84ee4","system_id":"levelo_inurba_marseille","lat":43.27833,"lon":5.39205,"is_reserved":false,"is_disabled":false,"rental_uris":{"android":"levelo://app?vid=4c6cb480-fbd8-4087-8db2-bb21e6b84ee4","ios":"levelo://app?vid=4c6cb480-fbd8-4087-8db2-bb21e6b84ee4"},"vehicle_type_id":"4","last_reported":1753463549,"current_range_meters":16800,"station_id":"ce4bhjp2rcd13ifvqga0","pricing_plan_id":"cebpf4jnsgd1na2vs0mg"},{"bike_id":"ec74f06a-40dc-4c39-a0cb-57d6f568a4e5","system_id":"levelo_inurba_marseille","lat":43.22948,"lon":5.35364,"is_reserved":false,"is_disabled":false,"rental_uris":{"android":"levelo://app?vid=ec74f06a-40dc-4c39-a0cb-57d6f568a4e5","ios":"levelo://app?vid=ec74f06a-40dc-4c39-a0cb-57d6f568a4e5"},"vehicle_type_id":"4","last_reported":1753463549,"current_range_meters":17200,"station_id":"cpo3532slgdg3j2ikp40","pricing_plan_id":"cebpf4jnsgd1na2vs0mg"},{"bike_id":"59359022-519d-498d-b5d3-80088a775f62","system_id":"levelo_inurba_marseille","lat":43.25826,"lon":5.39441,"is_reserved":false,"is_disabled":false,"rental_uris":{"android":"levelo://app?vid=59359022-519d-498d-b5d3-80088a775f62","ios":"levelo://app?vid=59359022-519d-498d-b5d3-80088a775f62"},"vehicle_type_id":"4","last_reported":1753463549,"current_range_meters":17200,"station_id":"ce4bhip2rcd13ifvqft0","pricing_plan_id":"cebpf4jnsgd1na2vs0mg"},{"bike_id":"2d7ef9b7-b477-4e11-9fd6-d94b1db634de","system_id":"levelo_inurba_marseille","lat":43.27317,"lon":5.39071,"is_reserved":false,"is_disabled":false,"rental_uris":{"android":"levelo://app?vid=2d7ef9b7-b477-4e11-9fd6-d94b1db634de","ios":"levelo://app?vid=2d7ef9b7-b477-4e11-9fd6-d94b1db634de"},"vehicle_type_id":"4","last_reported":1753463549,"current_range_meters":17200,"station_id":"ce4bhgp2rcd13ifvqfe0","pricing_plan_id":"cebpf4jnsgd1na2vs0mg"},{"bike_id":"98f0cbde-a78c-4fb5-8cf0-d78f5fdb31ba","system_id":"levelo_inurba_marseille","lat":43.2318,"lon":5.39983,"is_reserved":false,"is_disabled":false,"rental_uris":{"android":"levelo://app?vid=98f0cbde-a78c-4fb5-8cf0-d78f5fdb31ba","ios":"levelo://app?vid=98f0cbde-a78c-4fb5-8cf0-d78f5fdb31ba"},"vehicle_type_id":"4","last_reported":1753463549,"current_range_meters":17200,"station_id":"ce4bhn12rcd13ifvqgqg","pricing_plan_id":"cebpf4jnsgd1na2vs0mg"},{"bike_id":"329c8f00-9fb0-47d7-84ef-1bc64e291f9c","system_id":"levelo_inurba_marseille","lat":43.292789,"lon":5.36837,"is_reserved":false,"is_disabled":false,"rental_uris":{"android":"levelo://app?vid=329c8f00-9fb0-47d7-84ef-1bc64e291f9c","ios":"levelo://app?vid=329c8f00-9fb0-47d7-84ef-1bc64e291f9c"},"vehicle_type_id":"4","last_reported":1753463549,"current_range_meters":17200,"station_id":"","pricing_plan_id":"cebpf4jnsgd1na2vs0mg"},{"bike_id":"80acebb2-0350-48ac-b0aa-274664838171","system_id":"levelo_inurba_marseille","lat":43.2416,"lon":5.36417,"is_reserved":false,"is_disabled":false,"rental_uris":{"android":"levelo://app?vid=80acebb2-0350-48ac-b0aa-274664838171","ios":"levelo://app?vid=80acebb2-0350-48ac-b0aa-274664838171"},"vehicle_type_id":"4","last_reported":1753463549,"current_range_meters":17200,"station_id":"cpo36qri1sfpv3e86is0","pricing_plan_id":"cebpf4jnsgd1na2vs0mg"},{"bike_id":"41c13628-058b-4536-a147-26a14c9666bb","system_id":"levelo_inurba_marseille","lat":43.24815,"lon":5.37441,"is_reserved":false,"is_disabled":false,"rental_uris":{"android":"levelo://app?vid=41c13628-058b-4536-a147-26a14c9666bb","ios":"levelo://app?vid=41c13628-058b-4536-a147-26a14c9666bb"},"vehicle_type_id":"4","last_reported":1753463549,"current_range_meters":17600,"station_id":"ce4bhgh2rcd13ifvqfb0","pricing_plan_id":"cebpf4jnsgd1na2vs0mg"},{"bike_id":"e4f31a6b-6a86-4e65-a23f-08684edc7662","system_id":"levelo_inurba_marseille","lat":43.25585,"lon":5.38224,"is_reserved":false,"is_disabled":false,"rental_uris":{"android":"levelo://app?vid=e4f31a6b-6a86-4e65-a23f-08684edc7662","ios":"levelo://app?vid=e4f31a6b-6a86-4e65-a23f-08684edc7662"},"vehicle_type_id":"4","last_reported":1753463549,"current_range_meters":17200,"station_id":"ce4bhih2rcd13ifvqfs0","pricing_plan_id":"cebpf4jnsgd1na2vs0mg"},{"bike_id":"9a739606-5f97-49e3-8f4e-6ce3c8567d9e","system_id":"levelo_inurba_marseille","lat":43.273737,"lon":5.362639,"is_reserved":false,"is_disabled":false,"rental_uris":{"android":"levelo://app?vid=9a739606-5f97-49e3-8f4e-6ce3c8567d9e","ios":"levelo://app?vid=9a739606-5f97-49e3-8f4e-6ce3c8567d9e"},"vehicle_type_id":"4","last_reported":1753463549,"current_range_meters":17600,"station_id":"ce4bhbh2rcd13ifvqeo0","pricing_plan_id":"cebpf4jnsgd1na2vs0mg"},{"bike_id":"16971f4c-ccac-4993-ad28-795396f2377f","system_id":"levelo_inurba_marseille","lat":43.24209,"lon":5.36377,"is_reserved":false,"is_disabled":false,"rental_uris":{"android":"levelo://app?vid=16971f4c-ccac-4993-ad28-795396f2377f","ios":"levelo://app?vid=16971f4c-ccac-4993-ad28-795396f2377f"},"vehicle_type_id":"4","last_reported":1753463549,"current_range_meters":17600,"station_id":"cpo36qri1sfpv3e86is0","pricing_plan_id":"cebpf4jnsgd1na2vs0mg"},{"bike_id":"5fcd77a8-d73b-4ffa-9032-5bae4fc0e984","system_id":"levelo_inurba_marseille","lat":43.29029,"lon":5.38619,"is_reserved":false,"is_disabled":false,"rental_uris":{"android":"levelo://app?vid=5fcd77a8-d73b-4ffa-9032-5bae4fc0e984","ios":"levelo://app?vid=5fcd77a8-d73b-4ffa-9032-5bae4fc0e984"},"vehicle_type_id":"4","last_reported":1753463549,"current_range_meters":17200,"station_id":"ce4bh4p2rcd13ifvqe0g","pricing_plan_id":"cebpf4jnsgd1na2vs0mg"},{"bike_id":"c3c0f2f9-b1e3-492a-843c-b1c55d5d42ad","system_id":"levelo_inurba_marseille","lat":43.29221,"lon":5.36262,"is_reserved":false,"is_disabled":false,"rental_uris":{"android":"levelo://app?vid=c3c0f2f9-b1e3-492a-843c-b1c55d5d42ad","ios":"levelo://app?vid=c3c0f2f9-b1e3-492a-843c-b1c55d5d42ad"},"vehicle_type_id":"4","last_reported":1753463549,"current_range_meters":16400,"station_id":"","pricing_plan_id":"cebpf4jnsgd1na2vs0mg"},{"bike_id":"152247a2-6f09-485f-acf9-4f6bd27a046c","system_id":"levelo_inurba_marseille","lat":43.28157,"lon":5.42629,"is_reserved":false,"is_disabled":false,"rental_uris":{"android":"levelo://app?vid=152247a2-6f09-485f-acf9-4f6bd27a046c","ios":"levelo://app?vid=152247a2-6f09-485f-acf9-4f6bd27a046c"},"vehicle_type_id":"4","last_reported":1753463549,"current_range_meters":17600,"station_id":"ce4bhnh2rcd13ifvqgug","pricing_plan_id":"cebpf4jnsgd1na2vs0mg"},{"bike_id":"bfdf73f1-9e11-4f51-942e-79eaa3fdfd31","system_id":"levelo_inurba_marseille","lat":43.29528,"lon":5.39027,"is_reserved":false,"is_disabled":false,"rental_uris":{"android":"levelo://app?vid=bfdf73f1-9e11-4f51-942e-79eaa3fdfd31","ios":"levelo://app?vid=bfdf73f1-9e11-4f51-942e-79eaa3fdfd31"},"vehicle_type_id":"4","last_reported":1753463549,"current_range_meters":17200,"station_id":"ce4bh3p2rcd13ifvqdp0","pricing_plan_id":"cebpf4jnsgd1na2vs0mg"},{"bike_id":"16f6ea43-974d-4fb6-9f93-ed97d5a46b21","system_id":"levelo_inurba_marseille","lat":43.30436,"lon":5.38882,"is_reserved":false,"is_disabled":false,"rental_uris":{"android":"levelo://app?vid=16f6ea43-974d-4fb6-9f93-ed97d5a46b21","ios":"levelo://app?vid=16f6ea43-974d-4fb6-9f93-ed97d5a46b21"},"vehicle_type_id":"4","last_reported":1753463549,"current_range_meters":17200,"station_id":"ce4bgk12rcd13ifvqbi0","pricing_plan_id":"cebpf4jnsgd1na2vs0mg"},{"bike_id":"8a6c99a6-8dff-4392-a594-26b2336fe09d","system_id":"levelo_inurba_marseille","lat":43.30147,"lon":5.38089,"is_reserved":false,"is_disabled":false,"rental_uris":{"android":"levelo://app?vid=8a6c99a6-8dff-4392-a594-26b2336fe09d","ios":"levelo://app?vid=8a6c99a6-8dff-4392-a594-26b2336fe09d"},"vehicle_type_id":"4","last_reported":1753463549,"current_range_meters":17600,"station_id":"ce4bgjp2rcd13ifvqbh0","pricing_plan_id":"cebpf4jnsgd1na2vs0mg"},{"bike_id":"5fdac892-5788-4b60-8be7-09dd43754d01","system_id":"levelo_inurba_marseille","lat":43.25875,"lon":5.39901,"is_reserved":false,"is_disabled":false,"rental_uris":{"android":"levelo://app?vid=5fdac892-5788-4b60-8be7-09dd43754d01","ios":"levelo://app?vid=5fdac892-5788-4b60-8be7-09dd43754d01"},"vehicle_type_id":"4","last_reported":1753463549,"current_range_meters":17600,"station_id":"ce4bhl92rcd13ifvqghg","pricing_plan_id":"cebpf4jnsgd1na2vs0mg"},{"bike_id":"8f4ca69e-9621-4ffd-91af-41f939f5f71e","system_id":"levelo_inurba_marseille","lat":43.23964,"lon":5.36631,"is_reserved":false,"is_disabled":false,"rental_uris":{"android":"levelo://app?vid=8f4ca69e-9621-4ffd-91af-41f939f5f71e","ios":"levelo://app?vid=8f4ca69e-9621-4ffd-91af-41f939f5f71e"},"vehicle_type_id":"4","last_reported":1753463549,"current_range_meters":18000,"station_id":"ce4bhi12rcd13ifvqfp0","pricing_plan_id":"cebpf4jnsgd1na2vs0mg"},{"bike_id":"2c1587f6-c8c8-454c-82f5-3204e1a93abf","system_id":"levelo_inurba_marseille","lat":43.28619,"lon":5.35099,"is_reserved":false,"is_disabled":false,"rental_uris":{"android":"levelo://app?vid=2c1587f6-c8c8-454c-82f5-3204e1a93abf","ios":"levelo://app?vid=2c1587f6-c8c8-454c-82f5-3204e1a93abf"},"vehicle_type_id":"4","last_reported":1753463549,"current_range_meters":18000,"station_id":"ce4bhch2rcd13ifvqeug","pricing_plan_id":"cebpf4jnsgd1na2vs0mg"},{"bike_id":"c3c2652b-f2d7-4ed4-89ec-9559feb01451","system_id":"levelo_inurba_marseille","lat":43.292236,"lon":5.360521,"is_reserved":false,"is_disabled":true,"rental_uris":{"android":"levelo://app?vid=c3c2652b-f2d7-4ed4-89ec-9559feb01451","ios":"levelo://app?vid=c3c2652b-f2d7-4ed4-89ec-9559feb01451"},"vehicle_type_id":"4","last_reported":1753463549,"current_range_meters":18000,"station_id":"ce4bhbh2rcd13ifvqeqg","pricing_plan_id":"cebpf4jnsgd1na2vs0mg"},{"bike_id":"1855cbe1-5a05-480e-9057-6e9b3976dbbe","system_id":"levelo_inurba_marseille","lat":43.337365,"lon":5.391863,"is_reserved":false,"is_disabled":false,"rental_uris":{"android":"levelo://app?vid=1855cbe1-5a05-480e-9057-6e9b3976dbbe","ios":"levelo://app?vid=1855cbe1-5a05-480e-9057-6e9b3976dbbe"},"vehicle_type_id":"4","last_reported":1753463549,"current_range_meters":18000,"station_id":"ce4bhr92rcd13ifvqhsg","pricing_plan_id":"cebpf4jnsgd1na2vs0mg"},{"bike_id":"e7652c6c-2402-49f7-a93f-025650a12a4e","system_id":"levelo_inurba_marseille","lat":43.28644,"lon":5.35075,"is_reserved":false,"is_disabled":false,"rental_uris":{"android":"levelo://app?vid=e7652c6c-2402-49f7-a93f-025650a12a4e","ios":"levelo://app?vid=e7652c6c-2402-49f7-a93f-025650a12a4e"},"vehicle_type_id":"4","last_reported":1753463549,"current_range_meters":18000,"station_id":"ce4bhch2rcd13ifvqeug","pricing_plan_id":"cebpf4jnsgd1na2vs0mg"},{"bike_id":"d66d1ee1-f636-4cbf-b265-9c4b7c78a4d3","system_id":"levelo_inurba_marseille","lat":43.29228,"lon":5.360711,"is_reserved":false,"is_disabled":false,"rental_uris":{"android":"levelo://app?vid=d66d1ee1-f636-4cbf-b265-9c4b7c78a4d3","ios":"levelo://app?vid=d66d1ee1-f636-4cbf-b265-9c4b7c78a4d3"},"vehicle_type_id":"4","last_reported":1753463549,"current_range_meters":19200,"station_id":"ce4bhbh2rcd13ifvqeqg","pricing_plan_id":"cebpf4jnsgd1na2vs0mg"},{"bike_id":"df575919-e566-4f6e-b9fb-1d38e0855558","system_id":"levelo_inurba_marseille","lat":43.23193,"lon":5.35557,"is_reserved":false,"is_disabled":false,"rental_uris":{"android":"levelo://app?vid=df575919-e566-4f6e-b9fb-1d38e0855558","ios":"levelo://app?vid=df575919-e566-4f6e-b9fb-1d38e0855558"},"vehicle_type_id":"4","last_reported":1753463549,"current_range_meters":18000,"station_id":"ce4bhu92rcd13ifvqi70","pricing_plan_id":"cebpf4jnsgd1na2vs0mg"},{"bike_id":"d1118ba2-7ab0-47ff-a120-ca2f2f1b3dfe","system_id":"levelo_inurba_marseille","lat":43.286259,"lon":5.350905,"is_reserved":false,"is_disabled":false,"rental_uris":{"android":"levelo://app?vid=d1118ba2-7ab0-47ff-a120-ca2f2f1b3dfe","ios":"levelo://app?vid=d1118ba2-7ab0-47ff-a120-ca2f2f1b3dfe"},"vehicle_type_id":"4","last_reported":1753463549,"current_range_meters":18000,"station_id":"ce4bhch2rcd13ifvqeug","pricing_plan_id":"cebpf4jnsgd1na2vs0mg"},{"bike_id":"9a67752c-7e84-4313-b000-cc264836029a","system_id":"levelo_inurba_marseille","lat":43.26216,"lon":5.3744,"is_reserved":false,"is_disabled":false,"rental_uris":{"android":"levelo://app?vid=9a67752c-7e84-4313-b000-cc264836029a","ios":"levelo://app?vid=9a67752c-7e84-4313-b000-cc264836029a"},"vehicle_type_id":"4","last_reported":1753463549,"current_range_meters":18000,"station_id":"ce4bhgp2rcd13ifvqfc0","pricing_plan_id":"cebpf4jnsgd1na2vs0mg"},{"bike_id":"76c83b68-c94d-4d65-b48e-39f5e9719395","system_id":"levelo_inurba_marseille","lat":43.28271,"lon":5.35054,"is_reserved":false,"is_disabled":false,"rental_uris":{"android":"levelo://app?vid=76c83b68-c94d-4d65-b48e-39f5e9719395","ios":"levelo://app?vid=76c83b68-c94d-4d65-b48e-39f5e9719395"},"vehicle_type_id":"4","last_reported":1753463549,"current_range_meters":17600,"station_id":"ce4bhbp2rcd13ifvqerg","pricing_plan_id":"cebpf4jnsgd1na2vs0mg"},{"bike_id":"a1d5115b-997f-44a5-8b4b-21cb29757407","system_id":"levelo_inurba_marseille","lat":43.31207,"lon":5.37307,"is_reserved":false,"is_disabled":false,"rental_uris":{"android":"levelo://app?vid=a1d5115b-997f-44a5-8b4b-21cb29757407","ios":"levelo://app?vid=a1d5115b-997f-44a5-8b4b-21cb29757407"},"vehicle_type_id":"4","last_reported":1753463549,"current_range_meters":18000,"station_id":"","pricing_plan_id":"cebpf4jnsgd1na2vs0mg"},{"bike_id":"01e05855-a93f-491e-b8bb-4d89d13e7714","system_id":"levelo_inurba_marseille","lat":43.24168,"lon":5.36394,"is_reserved":false,"is_disabled":false,"rental_uris":{"android":"levelo://app?vid=01e05855-a93f-491e-b8bb-4d89d13e7714","ios":"levelo://app?vid=01e05855-a93f-491e-b8bb-4d89d13e7714"},"vehicle_type_id":"4","last_reported":1753463549,"current_range_meters":18000,"station_id":"cpo36qri1sfpv3e86is0","pricing_plan_id":"cebpf4jnsgd1na2vs0mg"},{"bike_id":"f4fd8122-3542-41c9-a204-ae963e556aa2","system_id":"levelo_inurba_marseille","lat":43.23062,"lon":5.35489,"is_reserved":false,"is_disabled":false,"rental_uris":{"android":"levelo://app?vid=f4fd8122-3542-41c9-a204-ae963e556aa2","ios":"levelo://app?vid=f4fd8122-3542-41c9-a204-ae963e556aa2"},"vehicle_type_id":"4","last_reported":1753463549,"current_range_meters":18800,"station_id":"cpo3342slgdg3j2ifvpg","pricing_plan_id":"cebpf4jnsgd1na2vs0mg"},{"bike_id":"fa5a0c96-8bd4-46e5-b946-48c3e4647c1b","system_id":"levelo_inurba_marseille","lat":43.24671,"lon":5.38156,"is_reserved":false,"is_disabled":false,"rental_uris":{"android":"levelo://app?vid=fa5a0c96-8bd4-46e5-b946-48c3e4647c1b","ios":"levelo://app?vid=fa5a0c96-8bd4-46e5-b946-48c3e4647c1b"},"vehicle_type_id":"4","last_reported":1753463549,"current_range_meters":18800,"station_id":"ce4bhih2rcd13ifvqfr0","pricing_plan_id":"cebpf4jnsgd1na2vs0mg"},{"bike_id":"ea485f04-2603-4bbb-8919-76305bde0249","system_id":"levelo_inurba_marseille","lat":43.26958,"lon":5.38627,"is_reserved":false,"is_disabled":false,"rental_uris":{"android":"levelo://app?vid=ea485f04-2603-4bbb-8919-76305bde0249","ios":"levelo://app?vid=ea485f04-2603-4bbb-8919-76305bde0249"},"vehicle_type_id":"4","last_reported":1753463549,"current_range_meters":18800,"station_id":"ce4bhh92rcd13ifvqfh0","pricing_plan_id":"cebpf4jnsgd1na2vs0mg"},{"bike_id":"c8643813-cfee-4c97-ab8d-3b3f5f43ad05","system_id":"levelo_inurba_marseille","lat":43.289447,"lon":5.365851,"is_reserved":false,"is_disabled":false,"rental_uris":{"android":"levelo://app?vid=c8643813-cfee-4c97-ab8d-3b3f5f43ad05","ios":"levelo://app?vid=c8643813-cfee-4c97-ab8d-3b3f5f43ad05"},"vehicle_type_id":"4","last_reported":1753463549,"current_range_meters":19200,"station_id":"ce4bhap2rcd13ifvqek0","pricing_plan_id":"cebpf4jnsgd1na2vs0mg"},{"bike_id":"07889d7f-750d-4c2a-9f82-d7fdd37d056c","system_id":"levelo_inurba_marseille","lat":43.286,"lon":5.37046,"is_reserved":false,"is_disabled":false,"rental_uris":{"android":"levelo://app?vid=07889d7f-750d-4c2a-9f82-d7fdd37d056c","ios":"levelo://app?vid=07889d7f-750d-4c2a-9f82-d7fdd37d056c"},"vehicle_type_id":"4","last_reported":1753463549,"current_range_meters":18800,"station_id":"ce4bht12rcd13ifvqi60","pricing_plan_id":"cebpf4jnsgd1na2vs0mg"},{"bike_id":"1e5c96a6-9d0f-4d5f-85ef-5a5f8ac0317a","system_id":"levelo_inurba_marseille","lat":43.33488,"lon":5.39135,"is_reserved":false,"is_disabled":false,"rental_uris":{"android":"levelo://app?vid=1e5c96a6-9d0f-4d5f-85ef-5a5f8ac0317a","ios":"levelo://app?vid=1e5c96a6-9d0f-4d5f-85ef-5a5f8ac0317a"},"vehicle_type_id":"4","last_reported":1753463549,"current_range_meters":18800,"station_id":"","pricing_plan_id":"cebpf4jnsgd1na2vs0mg"},