{"last_updated":1774010090,"ttl":60,"version":"2.2","data":{"bikes":[{"bike_id":"f8002e32-7d40-48f8-99b3-a631b985eba5","system_id":"levelo_inurba_marseille","lat":43.337566,"lon":5.374557,"is_reserved":false,"is_disabled":false,"rental_uris":{"android":"levelo://app?vid=f8002e32-7d40-48f8-99b3-a631b985eba5","ios":"levelo://app?vid=f8002e32-7d40-48f8-99b3-a631b985eba5"},"vehicle_type_id":"4","last_reported":1774010091,"current_range_meters":2800,"station_id":"","pricing_plan_id":"cebpf4jnsgd1na2vs0mg"},{"bike_id":"8c29270d-5d11-446e-a3f0-f5c56ae9c816","system_id":"levelo_inurba_marseille","lat":43.27566,"lon":5.43284,"is_reserved":false,"is_disabled":false,"rental_uris":{"android":"levelo://app?vid=8c29270d-5d11-446e-a3f0-f5c56ae9c816","ios":"levelo://app?vid=8c29270d-5d11-446e-a3f0-f5c56ae9c816"},"vehicle_type_id":"4","last_reported":1774010091,"current_range_meters":2800,"station_id":"","pricing_plan_id":"cebpf4jnsgd1na2vs0mg"},{"bike_id":"82cf9b6c-bb16-4e3c-9fb4-e331ebf59e36","system_id":"levelo_inurba_marseille","lat":43.24398,"lon":5.37065,"is_reserved":false,"is_disabled":false,"rental_uris":{"android":"levelo://app?vid=82cf9b6c-bb16-4e3c-9fb4-e331ebf59e36","ios":"levelo://app?vid=82cf9b6c-bb16-4e3c-9fb4-e331ebf59e36"},"vehicle_type_id":"4","last_reported":1774010091,"current_range_meters":2800,"station_id":"ce4bhhh2rcd13ifvqfk0","pricing_plan_id":"cebpf4jnsgd1na2vs0mg"},{"bike_id":"653417a1-4b3e-4d39-9c57-a85e662a0357","system_id":"levelo_inurba_marseille","lat":43.32119,"lon":5.36777,"is_reserved":false,"is_disabled":false,"rental_uris":{"android":"levelo://app?vid=653417a1-4b3e-4d39-9c57-a85e662a0357","ios":"levelo://app?vid=653417a1-4b3e-4d39-9c57-a85e662a0357"},"vehicle_type_id":"4","last_reported":1774010091,"current_range_meters":2800,"station_id":"ce4bhrh2rcd13ifvqhug","pricing_plan_id":"cebpf4jnsgd1na2vs0mg"},{"bike_id":"caf5e45c-f3f2-43eb-99a6-b11ec33451e8","system_id":"levelo_inurba_marseille","lat":43.23972,"lon":5.36606,"is_reserved":false,"is_disabled":false,"rental_uris":{"android":"levelo://app?vid=caf5e45c-f3f2-43eb-99a6-b11ec33451e8","ios":"levelo://app?vid=caf5e45c-f3f2-43eb-99a6-b11ec33451e8"},"vehicle_type_id":"4","last_reported":1774010091,"current_range_meters":2800,"station_id":"ce4bhi12rcd13ifvqfp0","pricing_plan_id":"cebpf4jnsgd1na2vs0mg"},{"bike_id":"c26b6ea3-9541-4332-a876-6cac97c00dc1","system_id":"levelo_inurba_marseille","lat":43.21754,"lon":5.34589,"is_reserved":false,"is_disabled":false,"rental_uris":{"android":"levelo://app?vid=c26b6ea3-9541-4332-a876-6cac97c00dc1","ios":"levelo://app?vid=c26b6ea3-9541-4332-a876-6cac97c00dc1"},"vehicle_type_id":"4","last_reported":1774010091,"current_range_meters":2800,"station_id":"st_cvj6r9ubvosntc0bgbag","pricing_plan_id":"cebpf4jnsgd1na2vs0mg"},{"bike_id":"fe1dc0a7-f687-4492-8dbc-eab7282acd74","system_id":"levelo_inurba_marseille","lat":43.28498,"lon":5.38576,"is_reserved":false,"is_disabled":false,"rental_uris":{"android":"levelo://app?vid=fe1dc0a7-f687-4492-8dbc-eab7282acd74","ios":"levelo://app?vid=fe1dc0a7-f687-4492-8dbc-eab7282acd74"},"vehicle_type_id":"4","last_reported":1774010091,"current_range_meters":2800,"station_id":"ce4bh8p2rcd13ifvqeb0","pricing_plan_id":"cebpf4jnsgd1na2vs0mg"},{"bike_id":"0ea2008e-8105-4b7d-88af-3195b832f9f2","system_id":"levelo_inurba_marseille","lat":43.23158,"lon":5.43708,"is_reserved":false,"is_disabled":false,"rental_uris":{"android":"levelo://app?vid=0ea2008e-8105-4b7d-88af-3195b832f9f2","ios":"levelo://app?vid=0ea2008e-8105-4b7d-88af-3195b832f9f2"},"vehicle_type_id":"4","last_reported":1774010091,"current_range_meters":2800,"station_id":"ce4bhmp2rcd13ifvqgog","pricing_plan_id":"cebpf4jnsgd1na2vs0mg"},{"bike_id":"e1fcda96-10f8-4416-a2de-b3c0381d6f12","system_id":"levelo_inurba_marseille","lat":43.27384,"lon":5.36267,"is_reserved":false,"is_disabled":true,"rental_uris":{"android":"levelo://app?vid=e1fcda96-10f8-4416-a2de-b3c0381d6f12","ios":"levelo://app?vid=e1fcda96-10f8-4416-a2de-b3c0381d6f12"},"vehicle_type_id":"4","last_reported":1774010091,"current_range_meters":2800,"station_id":"ce4bhbh2rcd13ifvqeo0","pricing_plan_id":"cebpf4jnsgd1na2vs0mg"},{"bike_id":"37b975f8-1f84-4e4b-92cd-3bedcf69760d","system_id":"levelo_inurba_marseille","lat":43.30493,"lon":5.3791,"is_reserved":false,"is_disabled":false,"rental_uris":{"android":"levelo://app?vid=37b975f8-1f84-4e4b-92cd-3bedcf69760d","ios":"levelo://app?vid=37b975f8-1f84-4e4b-92cd-3bedcf69760d"},"vehicle_type_id":"4","last_reported":1774010091,"current_range_meters":2800,"station_id":"","pricing_plan_id":"cebpf4jnsgd1na2vs0mg"},{"bike_id":"ac454419-7857-42db-9cec-3a60b0be5b74","system_id":"levelo_inurba_marseille","lat":43.28621,"lon":5.35082,"is_reserved":false,"is_disabled":false,"rental_uris":{"android":"levelo://app?vid=ac454419-7857-42db-9cec-3a60b0be5b74","ios":"levelo://app?vid=ac454419-7857-42db-9cec-3a60b0be5b74"},"vehicle_type_id":"4","last_reported":1774010091,"current_range_meters":2800,"station_id":"","pricing_plan_id":"cebpf4jnsgd1na2vs0mg"},{"bike_id":"3ce101bb-93b1-42b2-81d9-4c2fbd76a5bc","system_id":"levelo_inurba_marseille","lat":43.28161,"lon":5.4264,"is_reserved":false,"is_disabled":false,"rental_uris":{"android":"levelo://app?vid=3ce101bb-93b1-42b2-81d9-4c2fbd76a5bc","ios":"levelo://app?vid=3ce101bb-93b1-42b2-81d9-4c2fbd76a5bc"},"vehicle_type_id":"4","last_reported":1774010091,"current_range_meters":3200,"station_id":"ce4bhnh2rcd13ifvqgug","pricing_plan_id":"cebpf4jnsgd1na2vs0mg"},{"bike_id":"a0ae2982-85c4-4de7-b9eb-5ab3919346ff","system_id":"levelo_inurba_marseille","lat":43.23186,"lon":5.39982,"is_reserved":false,"is_disabled":false,"rental_uris":{"android":"levelo://app?vid=a0ae2982-85c4-4de7-b9eb-5ab3919346ff","ios":"levelo://app?vid=a0ae2982-85c4-4de7-b9eb-5ab3919346ff"},"vehicle_type_id":"4","last_reported":1774010091,"current_range_meters":3200,"station_id":"ce4bhn12rcd13ifvqgqg","pricing_plan_id":"cebpf4jnsgd1na2vs0mg"},{"bike_id":"94e25fc8-ad80-48a7-aeab-0541215c0623","system_id":"levelo_inurba_marseille","lat":43.30652,"lon":5.4009,"is_reserved":false,"is_disabled":false,"rental_uris":{"android":"levelo://app?vid=94e25fc8-ad80-48a7-aeab-0541215c0623","ios":"levelo://app?vid=94e25fc8-ad80-48a7-aeab-0541215c0623"},"vehicle_type_id":"4","last_reported":1774010091,"current_range_meters":3200,"station_id":"ce4bh112rcd13ifvqda0","pricing_plan_id":"cebpf4jnsgd1na2vs0mg"},{"bike_id":"11efeb9a-09c0-4360-9075-c305fe59339b","system_id":"levelo_inurba_marseille","lat":43.29899,"lon":5.43674,"is_reserved":false,"is_disabled":false,"rental_uris":{"android":"levelo://app?vid=11efeb9a-09c0-4360-9075-c305fe59339b","ios":"levelo://app?vid=11efeb9a-09c0-4360-9075-c305fe59339b"},"vehicle_type_id":"4","last_reported":1774010091,"current_range_meters":3200,"station_id":"ce4bhpp2rcd13ifvqhfg","pricing_plan_id":"cebpf4jnsgd1na2vs0mg"},{"bike_id":"f4c70563-ae37-4217-8153-be98a0198563","system_id":"levelo_inurba_marseille","lat":43.29022,"lon":5.38132,"is_reserved":false,"is_disabled":false,"rental_uris":{"android":"levelo://app?vid=f4c70563-ae37-4217-8153-be98a0198563","ios":"levelo://app?vid=f4c70563-ae37-4217-8153-be98a0198563"},"vehicle_type_id":"4","last_reported":1774010091,"current_range_meters":3200,"station_id":"ce4bh4p2rcd13ifvqe1g","pricing_plan_id":"cebpf4jnsgd1na2vs0mg"},{"bike_id":"eb5467af-d1ed-4f7a-ae3a-4249800b2085","system_id":"levelo_inurba_marseille","lat":43.2638,"lon":5.41062,"is_reserved":false,"is_disabled":false,"rental_uris":{"android":"levelo://app?vid=eb5467af-d1ed-4f7a-ae3a-4249800b2085","ios":"levelo://app?vid=eb5467af-d1ed-4f7a-ae3a-4249800b2085"},"vehicle_type_id":"4","last_reported":1774010091,"current_range_meters":3200,"station_id":"st_d4e5ca6na9uc73bfl5fg","pricing_plan_id":"cebpf4jnsgd1na2vs0mg"},{"bike_id":"4d53a062-89aa-45a9-bf2c-91b3ba4895c5","system_id":"levelo_inurba_marseille","lat":43.23188,"lon":5.43721,"is_reserved":false,"is_disabled":false,"rental_uris":{"android":"levelo://app?vid=4d53a062-89aa-45a9-bf2c-91b3ba4895c5","ios":"levelo://app?vid=4d53a062-89aa-45a9-bf2c-91b3ba4895c5"},"vehicle_type_id":"4","last_reported":1774010091,"current_range_meters":3200,"station_id":"ce4bhmp2rcd13ifvqgog","pricing_plan_id":"cebpf4jnsgd1na2vs0mg"},{"bike_id":"cf21a704-d1d6-45ac-b508-b7d48f023c9f","system_id":"levelo_inurba_marseille","lat":43.3212,"lon":5.36756,"is_reserved":false,"is_disabled":false,"rental_uris":{"android":"levelo://app?vid=cf21a704-d1d6-45ac-b508-b7d48f023c9f","ios":"levelo://app?vid=cf21a704-d1d6-45ac-b508-b7d48f023c9f"},"vehicle_type_id":"4","last_reported":1774010091,"current_range_meters":3600,"station_id":"ce4bhrh2rcd13ifvqhug","pricing_plan_id":"cebpf4jnsgd1na2vs0mg"},{"bike_id":"24dc1ce5-2db6-421b-869a-69d6f082b300","system_id":"levelo_inurba_marseille","lat":43.29819,"lon":5.36235,"is_reserved":false,"is_disabled":false,"rental_uris":{"android":"levelo://app?vid=24dc1ce5-2db6-421b-869a-69d6f082b300","ios":"levelo://app?vid=24dc1ce5-2db6-421b-869a-69d6f082b300"},"vehicle_type_id":"4","last_reported":1774010091,"current_range_meters":3600,"station_id":"ce4bgpp2rcd13ifvqc3g","pricing_plan_id":"cebpf4jnsgd1na2vs0mg"},{"bike_id":"bd60a6ec-18d4-4476-ab1b-f354043c4b72","system_id":"levelo_inurba_marseille","lat":43.29799,"lon":5.42577,"is_reserved":false,"is_disabled":false,"rental_uris":{"android":"levelo://app?vid=bd60a6ec-18d4-4476-ab1b-f354043c4b72","ios":"levelo://app?vid=bd60a6ec-18d4-4476-ab1b-f354043c4b72"},"vehicle_type_id":"4","last_reported":1774010091,"current_range_meters":3600,"station_id":"","pricing_plan_id":"cebpf4jnsgd1na2vs0mg"},{"bike_id":"cdbe0466-2db4-4b36-87a4-e819d4b3a877","system_id":"levelo_inurba_marseille","lat":43.28578,"lon":5.37081,"is_reserved":false,"is_disabled":false,"rental_uris":{"android":"levelo://app?vid=cdbe0466-2db4-4b36-87a4-e819d4b3a877","ios":"levelo://app?vid=cdbe0466-2db4-4b36-87a4-e819d4b3a877"},"vehicle_type_id":"4","last_reported":1774010091,"current_range_meters":3600,"station_id":"ce4bht12rcd13ifvqi60","pricing_plan_id":"cebpf4jnsgd1na2vs0mg"},{"bike_id":"dd10efc5-28b9-436a-be78-8011941e89fc","system_id":"levelo_inurba_marseille","lat":43.28484,"lon":5.48416,"is_reserved":false,"is_disabled":false,"rental_uris":{"android":"levelo://app?vid=dd10efc5-28b9-436a-be78-8011941e89fc","ios":"levelo://app?vid=dd10efc5-28b9-436a-be78-8011941e89fc"},"vehicle_type_id":"4","last_reported":1774010091,"current_range_meters":3600,"station_id":"st_d3svhcjqgbts73a3dn0g","pricing_plan_id":"cebpf4jnsgd1na2vs0mg"},{"bike_id":"a2858752-113b-4571-b0d9-f5de0d1f5974","system_id":"levelo_inurba_marseille","lat":43.24404,"lon":5.37074,"is_reserved":false,"is_disabled":false,"rental_uris":{"android":"levelo://app?vid=a2858752-113b-4571-b0d9-f5de0d1f5974","ios":"levelo://app?vid=a2858752-113b-4571-b0d9-f5de0d1f5974"},"vehicle_type_id":"4","last_reported":1774010091,"current_range_meters":3600,"station_id":"ce4bhhh2rcd13ifvqfk0","pricing_plan_id":"cebpf4jnsgd1na2vs0mg"},{"bike_id":"c26b2406-9b0a-4bc9-9fcf-b48b58f49d40","system_id":"levelo_inurba_marseille","lat":43.30654,"lon":5.40074,"is_reserved":false,"is_disabled":false,"rental_uris":{"android":"levelo://app?vid=c26b2406-9b0a-4bc9-9fcf-b48b58f49d40","ios":"levelo://app?vid=c26b2406-9b0a-4bc9-9fcf-b48b58f49d40"},"vehicle_type_id":"4","last_reported":1774010091,"current_range_meters":3600,"station_id":"ce4bh112rcd13ifvqda0","pricing_plan_id":"cebpf4jnsgd1na2vs0mg"},{"bike_id":"299e519b-3b2c-4aa3-9af1-362f343fe8f8","system_id":"levelo_inurba_marseille","lat":43.23776,"lon":5.36621,"is_reserved":false,"is_disabled":false,"rental_uris":{"android":"levelo://app?vid=299e519b-3b2c-4aa3-9af1-362f343fe8f8","ios":"levelo://app?vid=299e519b-3b2c-4aa3-9af1-362f343fe8f8"},"vehicle_type_id":"4","last_reported":1774010091,"current_range_meters":3600,"station_id":"st_d3nk18o9ro0c73en2l3g","pricing_plan_id":"cebpf4jnsgd1na2vs0mg"},{"bike_id":"20855773-52f1-41b4-b870-ba6c3fc908d4","system_id":"levelo_inurba_marseille","lat":43.30306,"lon":5.36883,"is_reserved":false,"is_disabled":false,"rental_uris":{"android":"levelo://app?vid=20855773-52f1-41b4-b870-ba6c3fc908d4","ios":"levelo://app?vid=20855773-52f1-41b4-b870-ba6c3fc908d4"},"vehicle_type_id":"4","last_reported":1774010091,"current_range_meters":3600,"station_id":"ce4bgqh2rcd13ifvqc5g","pricing_plan_id":"cebpf4jnsgd1na2vs0mg"},{"bike_id":"13243d3c-36f1-423c-9b1a-5632aef121d8","system_id":"levelo_inurba_marseille","lat":43.337444,"lon":5.374475,"is_reserved":false,"is_disabled":false,"rental_uris":{"android":"levelo://app?vid=13243d3c-36f1-423c-9b1a-5632aef121d8","ios":"levelo://app?vid=13243d3c-36f1-423c-9b1a-5632aef121d8"},"vehicle_type_id":"4","last_reported":1774010091,"current_range_meters":3600,"station_id":"","pricing_plan_id":"cebpf4jnsgd1na2vs0mg"},{"bike_id":"e83fcca9-3240-48e1-ad71-b032868b7e4c","system_id":"levelo_inurba_marseille","lat":43.26931,"lon":5.38916,"is_reserved":false,"is_disabled":false,"rental_uris":{"android":"levelo://app?vid=e83fcca9-3240-48e1-ad71-b032868b7e4c","ios":"levelo://app?vid=e83fcca9-3240-48e1-ad71-b032868b7e4c"},"vehicle_type_id":"4","last_reported":1774010091,"current_range_meters":3600,"station_id":"ce4bhhh2rcd13ifvqfl0","pricing_plan_id":"cebpf4jnsgd1na2vs0mg"},{"bike_id":"ec327ac2-9680-48a1-8584-22f43bc41c50","system_id":"levelo_inurba_marseille","lat":43.2927,"lon":5.37643,"is_reserved":false,"is_disabled":true,"rental_uris":{"android":"levelo://app?vid=ec327ac2-9680-48a1-8584-22f43bc41c50","ios":"levelo://app?vid=ec327ac2-9680-48a1-8584-22f43bc41c50"},"vehicle_type_id":"4","last_reported":1774010091,"current_range_meters":3600,"station_id":"ce4bgi12rcd13ifvqb80","pricing_plan_id":"cebpf4jnsgd1na2vs0mg"},{"bike_id":"3f9fb310-6fac-4137-b487-279ff0e33710","system_id":"levelo_inurba_marseille","lat":43.26032,"lon":5.3755,"is_reserved":false,"is_disabled":false,"rental_uris":{"android":"levelo://app?vid=3f9fb310-6fac-4137-b487-279ff0e33710","ios":"levelo://app?vid=3f9fb310-6fac-4137-b487-279ff0e33710"},"vehicle_type_id":"4","last_reported":1774010091,"current_range_meters":4000,"station_id":"ce4bhgh2rcd13ifvqfa0","pricing_plan_id":"cebpf4jnsgd1na2vs0mg"},{"bike_id":"ae3653ee-4b50-4f8a-971b-1802190756aa","system_id":"levelo_inurba_marseille","lat":43.28418,"lon":5.3498,"is_reserved":false,"is_disabled":false,"rental_uris":{"android":"levelo://app?vid=ae3653ee-4b50-4f8a-971b-1802190756aa","ios":"levelo://app?vid=ae3653ee-4b50-4f8a-971b-1802190756aa"},"vehicle_type_id":"4","last_reported":1774010091,"current_range_meters":4000,"station_id":"ce4bhbh2rcd13ifvqepg","pricing_plan_id":"cebpf4jnsgd1na2vs0mg"},{"bike_id":"24e02049-7d35-48ad-9eee-757709960f87","system_id":"levelo_inurba_marseille","lat":43.26045,"lon":5.37545,"is_reserved":false,"is_disabled":false,"rental_uris":{"android":"levelo://app?vid=24e02049-7d35-48ad-9eee-757709960f87","ios":"levelo://app?vid=24e02049-7d35-48ad-9eee-757709960f87"},"vehicle_type_id":"4","last_reported":1774010091,"current_range_meters":4000,"station_id":"ce4bhgh2rcd13ifvqfa0","pricing_plan_id":"cebpf4jnsgd1na2vs0mg"},{"bike_id":"1b59308a-c85f-483c-a117-40fa1d2ad46e","system_id":"levelo_inurba_marseille","lat":43.24391,"lon":5.37072,"is_reserved":false,"is_disabled":false,"rental_uris":{"android":"levelo://app?vid=1b59308a-c85f-483c-a117-40fa1d2ad46e","ios":"levelo://app?vid=1b59308a-c85f-483c-a117-40fa1d2ad46e"},"vehicle_type_id":"4","last_reported":1774010091,"current_range_meters":4000,"station_id":"ce4bhhh2rcd13ifvqfk0","pricing_plan_id":"cebpf4jnsgd1na2vs0mg"},{"bike_id":"d5f7f0bf-c4f5-45e1-bf7d-f4959ca7505e","system_id":"levelo_inurba_marseille","lat":43.2439,"lon":5.37068,"is_reserved":false,"is_disabled":false,"rental_uris":{"android":"levelo://app?vid=d5f7f0bf-c4f5-45e1-bf7d-f4959ca7505e","ios":"levelo://app?vid=d5f7f0bf-c4f5-45e1-bf7d-f4959ca7505e"},"vehicle_type_id":"4","last_reported":1774010091,"current_range_meters":4000,"station_id":"ce4bhhh2rcd13ifvqfk0","pricing_plan_id":"cebpf4jnsgd1na2vs0mg"},{"bike_id":"868e32ef-041c-4da6-9818-4d2e0ec63d82","system_id":"levelo_inurba_marseille","lat":43.30987,"lon":5.39015,"is_reserved":false,"is_disabled":false,"rental_uris":{"android":"levelo://app?vid=868e32ef-041c-4da6-9818-4d2e0ec63d82","ios":"levelo://app?vid=868e32ef-041c-4da6-9818-4d2e0ec63d82"},"vehicle_type_id":"4","last_reported":1774010091,"current_range_meters":4000,"station_id":"ce4bgup2rcd13ifvqco0","pricing_plan_id":"cebpf4jnsgd1na2vs0mg"},{"bike_id":"eb110a4b-cd62-4383-bb1d-35f1208b0726","system_id":"levelo_inurba_marseille","lat":43.30182,"lon":5.366,"is_reserved":false,"is_disabled":false,"rental_uris":{"android":"levelo://app?vid=eb110a4b-cd62-4383-bb1d-35f1208b0726","ios":"levelo://app?vid=eb110a4b-cd62-4383-bb1d-35f1208b0726"},"vehicle_type_id":"4","last_reported":1774010091,"current_range_meters":4000,"station_id":"ce4bgrh2rcd13ifvqc8g","pricing_plan_id":"cebpf4jnsgd1na2vs0mg"},{"bike_id":"a7589a93-7e92-46e3-9adb-33c382fc7b2d","system_id":"levelo_inurba_marseille","lat":43.2397,"lon":5.36618,"is_reserved":false,"is_disabled":false,"rental_uris":{"android":"levelo://app?vid=a7589a93-7e92-46e3-9adb-33c382fc7b2d","ios":"levelo://app?vid=a7589a93-7e92-46e3-9adb-33c382fc7b2d"},"vehicle_type_id":"4","last_reported":1774010091,"current_range_meters":4000,"station_id":"ce4bhi12rcd13ifvqfp0","pricing_plan_id":"cebpf4jnsgd1na2vs0mg"},{"bike_id":"f0572f62-4b35-4e01-90cf-a1b609375ea8","system_id":"levelo_inurba_marseille","lat":43.29005,"lon":5.35612,"is_reserved":false,"is_disabled":false,"rental_uris":{"android":"levelo://app?vid=f0572f62-4b35-4e01-90cf-a1b609375ea8","ios":"levelo://app?vid=f0572f62-4b35-4e01-90cf-a1b609375ea8"},"vehicle_type_id":"4","last_reported":1774010091,"current_range_meters":4000,"station_id":"ce4bhb92rcd13ifvqen0","pricing_plan_id":"cebpf4jnsgd1na2vs0mg"},{"bike_id":"5ab2600a-040b-4995-bfc6-9e44799ea303","system_id":"levelo_inurba_marseille","lat":43.30959,"lon":5.39039,"is_reserved":false,"is_disabled":false,"rental_uris":{"android":"levelo://app?vid=5ab2600a-040b-4995-bfc6-9e44799ea303","ios":"levelo://app?vid=5ab2600a-040b-4995-bfc6-9e44799ea303"},"vehicle_type_id":"4","last_reported":1774010091,"current_range_meters":4000,"station_id":"ce4bgup2rcd13ifvqco0","pricing_plan_id":"cebpf4jnsgd1na2vs0mg"},{"bike_id":"9fbfdc7a-8398-40b5-b97f-ba1104c7c96f","system_id":"levelo_inurba_marseille","lat":43.23189,"lon":5.35554,"is_reserved":false,"is_disabled":false,"rental_uris":{"android":"levelo://app?vid=9fbfdc7a-8398-40b5-b97f-ba1104c7c96f","ios":"levelo://app?vid=9fbfdc7a-8398-40b5-b97f-ba1104c7c96f"},"vehicle_type_id":"4","last_reported":1774010091,"current_range_meters":4400,"station_id":"ce4bhu92rcd13ifvqi70","pricing_plan_id":"cebpf4jnsgd1na2vs0mg"},{"bike_id":"5c133fff-cd66-4ce9-a9c2-ebb4ba7cdf1c","system_id":"levelo_inurba_marseille","lat":43.29286,"lon":5.36795,"is_reserved":false,"is_disabled":false,"rental_uris":{"android":"levelo://app?vid=5c133fff-cd66-4ce9-a9c2-ebb4ba7cdf1c","ios":"levelo://app?vid=5c133fff-cd66-4ce9-a9c2-ebb4ba7cdf1c"},"vehicle_type_id":"4","last_reported":1774010091,"current_range_meters":4400,"station_id":"ce4bhbp2rcd13ifvqesg","pricing_plan_id":"cebpf4jnsgd1na2vs0mg"},{"bike_id":"b8001939-03a0-4af5-b74f-2f5b14d46d83","system_id":"levelo_inurba_marseille","lat":43.273834,"lon":5.362538,"is_reserved":false,"is_disabled":false,"rental_uris":{"android":"levelo://app?vid=b8001939-03a0-4af5-b74f-2f5b14d46d83","ios":"levelo://app?vid=b8001939-03a0-4af5-b74f-2f5b14d46d83"},"vehicle_type_id":"4","last_reported":1774010091,"current_range_meters":4400,"station_id":"ce4bhbh2rcd13ifvqeo0","pricing_plan_id":"cebpf4jnsgd1na2vs0mg"},{"bike_id":"be523ae7-f0fc-4e2a-970b-30a3029fa717","system_id":"levelo_inurba_marseille","lat":43.28474,"lon":5.48391,"is_reserved":false,"is_disabled":false,"rental_uris":{"android":"levelo://app?vid=be523ae7-f0fc-4e2a-970b-30a3029fa717","ios":"levelo://app?vid=be523ae7-f0fc-4e2a-970b-30a3029fa717"},"vehicle_type_id":"4","last_reported":1774010091,"current_range_meters":4400,"station_id":"st_d3svhcjqgbts73a3dn0g","pricing_plan_id":"cebpf4jnsgd1na2vs0mg"},{"bike_id":"15750178-4f9b-426f-bafa-493e04eb7e36","system_id":"levelo_inurba_marseille","lat":43.30801,"lon":5.40679,"is_reserved":false,"is_disabled":false,"rental_uris":{"android":"levelo://app?vid=15750178-4f9b-426f-bafa-493e04eb7e36","ios":"levelo://app?vid=15750178-4f9b-426f-bafa-493e04eb7e36"},"vehicle_type_id":"4","last_reported":1774010091,"current_range_meters":4400,"station_id":"","pricing_plan_id":"cebpf4jnsgd1na2vs0mg"},{"bike_id":"436dc482-62dc-426f-8bb7-32589d38ef0a","system_id":"levelo_inurba_marseille","lat":43.28255,"lon":5.35094,"is_reserved":false,"is_disabled":false,"rental_uris":{"android":"levelo://app?vid=436dc482-62dc-426f-8bb7-32589d38ef0a","ios":"levelo://app?vid=436dc482-62dc-426f-8bb7-32589d38ef0a"},"vehicle_type_id":"4","last_reported":1774010091,"current_range_meters":4400,"station_id":"ce4bhbp2rcd13ifvqerg","pricing_plan_id":"cebpf4jnsgd1na2vs0mg"},{"bike_id":"27cfd7f2-48c6-4fe4-9d82-e5b76120df75","system_id":"levelo_inurba_marseille","lat":43.29817,"lon":5.44052,"is_reserved":false,"is_disabled":false,"rental_uris":{"android":"levelo://app?vid=27cfd7f2-48c6-4fe4-9d82-e5b76120df75","ios":"levelo://app?vid=27cfd7f2-48c6-4fe4-9d82-e5b76120df75"},"vehicle_type_id":"4","last_reported":1774010091,"current_range_meters":4800,"station_id":"st_d3jp68qikq2c7381ktn0","pricing_plan_id":"cebpf4jnsgd1na2vs0mg"},{"bike_id":"9083b64c-9df9-44ed-95a6-7fe8603be4f3","system_id":"levelo_inurba_marseille","lat":43.29277,"lon":5.3685,"is_reserved":false,"is_disabled":false,"rental_uris":{"android":"levelo://app?vid=9083b64c-9df9-44ed-95a6-7fe8603be4f3","ios":"levelo://app?vid=9083b64c-9df9-44ed-95a6-7fe8603be4f3"},"vehicle_type_id":"4","last_reported":1774010091,"current_range_meters":4800,"station_id":"ce4bhbp2rcd13ifvqesg","pricing_plan_id":"cebpf4jnsgd1na2vs0mg"},{"bike_id":"52f6a6b9-7af9-4956-b458-baf5061e66bf","system_id":"levelo_inurba_marseille","lat":43.23331,"lon":5.44475,"is_reserved":false,"is_disabled":false,"rental_uris":{"android":"levelo://app?vid=52f6a6b9-7af9-4956-b458-baf5061e66bf","ios":"levelo://app?vid=52f6a6b9-7af9-4956-b458-baf5061e66bf"},"vehicle_type_id":"4","last_reported":1774010091,"current_range_meters":4800,"station_id":"","pricing_plan_id":"cebpf4jnsgd1na2vs0mg"},{"bike_id":"347a0133-45d3-4213-ae48-606f4453bbf3","system_id":"levelo_inurba_marseille","lat":43.23054,"lon":5.35495,"is_reserved":false,"is_disabled":false,"rental_uris":{"android":"levelo://app?vid=347a0133-45d3-4213-ae48-606f4453bbf3","ios":"levelo://app?vid=347a0133-45d3-4213-ae48-606f4453bbf3"},"vehicle_type_id":"4","last_reported":1774010091,"current_range_meters":4800,"station_id":"cpo3342slgdg3j2ifvpg","pricing_plan_id":"cebpf4jnsgd1na2vs0mg"},{"bike_id":"88f62a4c-1dd5-4d07-a59a-902271acdb70","system_id":"levelo_inurba_marseille","lat":43.28164,"lon":5.42649,"is_reserved":false,"is_disabled":false,"rental_uris":{"android":"levelo://app?vid=88f62a4c-1dd5-4d07-a59a-902271acdb70","ios":"levelo://app?vid=88f62a4c-1dd5-4d07-a59a-902271acdb70"},"vehicle_type_id":"4","last_reported":1774010091,"current_range_meters":4800,"station_id":"ce4bhnh2rcd13ifvqgug","pricing_plan_id":"cebpf4jnsgd1na2vs0mg"},{"bike_id":"b1fe2046-ff56-492e-bea9-3a4ac9e3579b","system_id":"levelo_inurba_marseille","lat":43.30091,"lon":5.39079,"is_reserved":false,"is_disabled":false,"rental_uris":{"android":"levelo://app?vid=b1fe2046-ff56-492e-bea9-3a4ac9e3579b","ios":"levelo://app?vid=b1fe2046-ff56-492e-bea9-3a4ac9e3579b"},"vehicle_type_id":"4","last_reported":1774010091,"current_range_meters":4800,"station_id":"ce4bh192rcd13ifvqdb0","pricing_plan_id":"cebpf4jnsgd1na2vs0mg"},{"bike_id":"89b4eee5-d780-4538-9977-d6af82ec5c72","system_id":"levelo_inurba_marseille","lat":43.30599,"lon":5.37235,"is_reserved":false,"is_disabled":false,"rental_uris":{"android":"levelo://app?vid=89b4eee5-d780-4538-9977-d6af82ec5c72","ios":"levelo://app?vid=89b4eee5-d780-4538-9977-d6af82ec5c72"},"vehicle_type_id":"4","last_reported":1774010091,"current_range_meters":4800,"station_id":"ce4bgqh2rcd13ifvqc4g","pricing_plan_id":"cebpf4jnsgd1na2vs0mg"},{"bike_id":"f5c2b59b-d5a6-4b1b-b27f-51beb91e4447","system_id":"levelo_inurba_marseille","lat":43.23894,"lon":5.37448,"is_reserved":false,"is_disabled":false,"rental_uris":{"android":"levelo://app?vid=f5c2b59b-d5a6-4b1b-b27f-51beb91e4447","ios":"levelo://app?vid=f5c2b59b-d5a6-4b1b-b27f-51beb91e4447"},"vehicle_type_id":"4","last_reported":1774010091,"current_range_meters":4800,"station_id":"st_d6sm7csbq4hs73f8fpjg","pricing_plan_id":"cebpf4jnsgd1na2vs0mg"},{"bike_id":"6443900c-da0c-4905-bee6-0bb1b84d34d9","system_id":"levelo_inurba_marseille","lat":43.24542,"lon":5.39533,"is_reserved":false,"is_disabled":false,"rental_uris":{"android":"levelo://app?vid=6443900c-da0c-4905-bee6-0bb1b84d34d9","ios":"levelo://app?vid=6443900c-da0c-4905-bee6-0bb1b84d34d9"},"vehicle_type_id":"4","last_reported":1774010091,"current_range_meters":4800,"station_id":"ce4bhlp2rcd13ifvqgjg","pricing_plan_id":"cebpf4jnsgd1na2vs0mg"},{"bike_id":"c59fa13c-bfbe-4a9e-836f-0d3e5bb3abd7","system_id":"levelo_inurba_marseille","lat":43.28403,"lon":5.3752,"is_reserved":false,"is_disabled":false,"rental_uris":{"android":"levelo://app?vid=c59fa13c-bfbe-4a9e-836f-0d3e5bb3abd7","ios":"levelo://app?vid=c59fa13c-bfbe-4a9e-836f-0d3e5bb3abd7"},"vehicle_type_id":"4","last_reported":1774010091,"current_range_meters":5600,"station_id":"ce4bh412rcd13ifvqds0","pricing_plan_id":"cebpf4jnsgd1na2vs0mg"},{"bike_id":"f14aff41-730a-4b5e-a3d1-aa44d92a860d","system_id":"levelo_inurba_marseille","lat":43.29272,"lon":5.36831,"is_reserved":false,"is_disabled":false,"rental_uris":{"android":"levelo://app?vid=f14aff41-730a-4b5e-a3d1-aa44d92a860d","ios":"levelo://app?vid=f14aff41-730a-4b5e-a3d1-aa44d92a860d"},"vehicle_type_id":"4","last_reported":1774010091,"current_range_meters":5600,"station_id":"ce4bhbp2rcd13ifvqesg","pricing_plan_id":"cebpf4jnsgd1na2vs0mg"},{"bike_id":"b790cc6c-beda-4dcd-96dd-e541806c10fa","system_id":"levelo_inurba_marseille","lat":43.27515,"lon":5.41534,"is_reserved":false,"is_disabled":false,"rental_uris":{"android":"levelo://app?vid=b790cc6c-beda-4dcd-96dd-e541806c10fa","ios":"levelo://app?vid=b790cc6c-beda-4dcd-96dd-e541806c10fa"},"vehicle_type_id":"4","last_reported":1774010091,"current_range_meters":5600,"station_id":"st_d6im8g6chgec73a5pndg","pricing_plan_id":"cebpf4jnsgd1na2vs0mg"},{"bike_id":"a7dd1c2f-1863-4db6-9064-755a90a3283b","system_id":"levelo_inurba_marseille","lat":43.29728,"lon":5.42576,"is_reserved":false,"is_disabled":false,"rental_uris":{"android":"levelo://app?vid=a7dd1c2f-1863-4db6-9064-755a90a3283b","ios":"levelo://app?vid=a7dd1c2f-1863-4db6-9064-755a90a3283b"},"vehicle_type_id":"4","last_reported":1774010091,"current_range_meters":5600,"station_id":"","pricing_plan_id":"cebpf4jnsgd1na2vs0mg"},{"bike_id":"0a9897ee-e97b-42bb-8c02-2969ac027935","system_id":"levelo_inurba_marseille","lat":43.30183,"lon":5.37351,"is_reserved":false,"is_disabled":false,"rental_uris":{"android":"levelo://app?vid=0a9897ee-e97b-42bb-8c02-2969ac027935","ios":"levelo://app?vid=0a9897ee-e97b-42bb-8c02-2969ac027935"},"vehicle_type_id":"4","last_reported":1774010091,"current_range_meters":5600,"station_id":"","pricing_plan_id":"cebpf4jnsgd1na2vs0mg"},{"bike_id":"93d5e6db-4ba4-413a-919e-3bd7414ef769","system_id":"levelo_inurba_marseille","lat":43.277,"lon":5.3888,"is_reserved":false,"is_disabled":false,"rental_uris":{"android":"levelo://app?vid=93d5e6db-4ba4-413a-919e-3bd7414ef769","ios":"levelo://app?vid=93d5e6db-4ba4-413a-919e-3bd7414ef769"},"vehicle_type_id":"4","last_reported":1774010091,"current_range_meters":5600,"station_id":"ce4bhi12rcd13ifvqfo0","pricing_plan_id":"cebpf4jnsgd1na2vs0mg"},{"bike_id":"6e50a54a-c657-4ef5-9339-4c225154dc0d","system_id":"levelo_inurba_marseille","lat":43.27929,"lon":5.42232,"is_reserved":false,"is_disabled":false,"rental_uris":{"android":"levelo://app?vid=6e50a54a-c657-4ef5-9339-4c225154dc0d","ios":"levelo://app?vid=6e50a54a-c657-4ef5-9339-4c225154dc0d"},"vehicle_type_id":"4","last_reported":1774010091,"current_range_meters":5600,"station_id":"","pricing_plan_id":"cebpf4jnsgd1na2vs0mg"},{"bike_id":"744826ba-753a-4ecc-8e5c-e31c07526efd","system_id":"levelo_inurba_marseille","lat":43.27984,"lon":5.41654,"is_reserved":false,"is_disabled":false,"rental_uris":{"android":"levelo://app?vid=744826ba-753a-4ecc-8e5c-e31c07526efd","ios":"levelo://app?vid=744826ba-753a-4ecc-8e5c-e31c07526efd"},"vehicle_type_id":"4","last_reported":1774010091,"current_range_meters":5600,"station_id":"ce4bho12rcd13ifvqh1g","pricing_plan_id":"cebpf4jnsgd1na2vs0mg"},{"bike_id":"bab3fc79-e0c2-432c-9cfa-8df953159e2f","system_id":"levelo_inurba_marseille","lat":43.25113,"lon":5.40322,"is_reserved":false,"is_disabled":false,"rental_uris":{"android":"levelo://app?vid=bab3fc79-e0c2-432c-9cfa-8df953159e2f","ios":"levelo://app?vid=bab3fc79-e0c2-432c-9cfa-8df953159e2f"},"vehicle_type_id":"4","last_reported":1774010091,"current_range_meters":5600,"station_id":"ce4bhlh2rcd13ifvqgig","pricing_plan_id":"cebpf4jnsgd1na2vs0mg"},{"bike_id":"b3c6ee7e-839e-47ca-8bd1-12618e78dd87","system_id":"levelo_inurba_marseille","lat":43.23961,"lon":5.36621,"is_reserved":false,"is_disabled":false,"rental_uris":{"android":"levelo://app?vid=b3c6ee7e-839e-47ca-8bd1-12618e78dd87","ios":"levelo://app?vid=b3c6ee7e-839e-47ca-8bd1-12618e78dd87"},"vehicle_type_id":"4","last_reported":1774010091,"current_range_meters":5600,"station_id":"ce4bhi12rcd13ifvqfp0","pricing_plan_id":"cebpf4jnsgd1na2vs0mg"},{"bike_id":"07e17c1d-28a1-4be0-b05f-04b2b828c423","system_id":"levelo_inurba_marseille","lat":43.29585,"lon":5.3997,"is_reserved":false,"is_disabled":false,"rental_uris":{"android":"levelo://app?vid=07e17c1d-28a1-4be0-b05f-04b2b828c423","ios":"levelo://app?vid=07e17c1d-28a1-4be0-b05f-04b2b828c423"},"vehicle_type_id":"4","last_reported":1774010091,"current_range_meters":6000,"station_id":"ce4bh312rcd13ifvqdj0","pricing_plan_id":"cebpf4jnsgd1na2vs0mg"},{"bike_id":"0836c59c-4e19-4ca7-8410-a79df9dfcc6b","system_id":"levelo_inurba_marseille","lat":43.28534,"lon":5.44097,"is_reserved":false,"is_disabled":false,"rental_uris":{"android":"levelo://app?vid=0836c59c-4e19-4ca7-8410-a79df9dfcc6b","ios":"levelo://app?vid=0836c59c-4e19-4ca7-8410-a79df9dfcc6b"},"vehicle_type_id":"4","last_reported":1774010091,"current_range_meters":6000,"station_id":"st_d3j3df2ikq2c7380ej80","pricing_plan_id":"cebpf4jnsgd1na2vs0mg"},{"bike_id":"addd9e53-bfde-4c2f-8c89-4a891b6a7add","system_id":"levelo_inurba_marseille","lat":43.31348,"lon":5.37918,"is_reserved":false,"is_disabled":false,"rental_uris":{"android":"levelo://app?vid=addd9e53-bfde-4c2f-8c89-4a891b6a7add","ios":"levelo://app?vid=addd9e53-bfde-4c2f-8c89-4a891b6a7add"},"vehicle_type_id":"4","last_reported":1774010091,"current_range_meters":6000,"station_id":"","pricing_plan_id":"cebpf4jnsgd1na2vs0mg"},{"bike_id":"8ba5e59c-1b23-4850-921f-9f05aa4326d2","system_id":"levelo_inurba_marseille","lat":43.32659,"lon":5.40977,"is_reserved":false,"is_disabled":true,"rental_uris":{"android":"levelo://app?vid=8ba5e59c-1b23-4850-921f-9f05aa4326d2","ios":"levelo://app?vid=8ba5e59c-1b23-4850-921f-9f05aa4326d2"},"vehicle_type_id":"4","last_reported":1774010091,"current_range_meters":6000,"station_id":"ce4bhpp2rcd13ifvqhgg","pricing_plan_id":"cebpf4jnsgd1na2vs0mg"},{"bike_id":"5cc8e3ed-b06f-4543-8afd-114d51b9bc0e","system_id":"levelo_inurba_marseille","lat":43.28413,"lon":5.34984,"is_reserved":false,"is_disabled":false,"rental_uris":{"android":"levelo://app?vid=5cc8e3ed-b06f-4543-8afd-114d51b9bc0e","ios":"levelo://app?vid=5cc8e3ed-b06f-4543-8afd-114d51b9bc0e"},"vehicle_type_id":"4","last_reported":1774010091,"current_range_meters":6000,"station_id":"ce4bhbh2rcd13ifvqepg","pricing_plan_id":"cebpf4jnsgd1na2vs0mg"},{"bike_id":"33e015f6-34a2-44b9-a37e-fd5fd3630f6d","system_id":"levelo_inurba_marseille","lat":43.24171,"lon":5.36391,"is_reserved":false,"is_disabled":false,"rental_uris":{"android":"levelo://app?vid=33e015f6-34a2-44b9-a37e-fd5fd3630f6d","ios":"levelo://app?vid=33e015f6-34a2-44b9-a37e-fd5fd3630f6d"},"vehicle_type_id":"4","last_reported":1774010091,"current_range_meters":6000,"station_id":"cpo36qri1sfpv3e86is0","pricing_plan_id":"cebpf4jnsgd1na2vs0mg"},{"bike_id":"da45a1ae-2696-4b6f-8321-c62e9c32e931","system_id":"levelo_inurba_marseille","lat":43.21749,"lon":5.346,"is_reserved":false,"is_disabled":false,"rental_uris":{"android":"levelo://app?vid=da45a1ae-2696-4b6f-8321-c62e9c32e931","ios":"levelo://app?vid=da45a1ae-2696-4b6f-8321-c62e9c32e931"},"vehicle_type_id":"4","last_reported":1774010091,"current_range_meters":6000,"station_id":"st_cvj6r9ubvosntc0bgbag","pricing_plan_id":"cebpf4jnsgd1na2vs0mg"},{"bike_id":"2f189acb-1cb2-4268-b56d-7e9348446549","system_id":"levelo_inurba_marseille","lat":43.28454,"lon":5.35891,"is_reserved":false,"is_disabled":false,"rental_uris":{"android":"levelo://app?vid=2f189acb-1cb2-4268-b56d-7e9348446549","ios":"levelo://app?vid=2f189acb-1cb2-4268-b56d-7e9348446549"},"vehicle_type_id":"4","last_reported":1774010091,"current_range_meters":6000,"station_id":"ce4bhah2rcd13ifvqei0","pricing_plan_id":"cebpf4jnsgd1na2vs0mg"},{"bike_id":"1fc87fed-6040-40bc-99c6-6f694d257aa1","system_id":"levelo_inurba_marseille","lat":43.30947,"lon":5.4084,"is_reserved":false,"is_disabled":false,"rental_uris":{"android":"levelo://app?vid=1fc87fed-6040-40bc-99c6-6f694d257aa1","ios":"levelo://app?vid=1fc87fed-6040-40bc-99c6-6f694d257aa1"},"vehicle_type_id":"4","last_reported":1774010091,"current_range_meters":6000,"station_id":"","pricing_plan_id":"cebpf4jnsgd1na2vs0mg"},{"bike_id":"3bcd3f37-7909-4e8a-be03-a9562a2c0e45","system_id":"levelo_inurba_marseille","lat":43.28482,"lon":5.48388,"is_reserved":false,"is_disabled":false,"rental_uris":{"android":"levelo://app?vid=3bcd3f37-7909-4e8a-be03-a9562a2c0e45","ios":"levelo://app?vid=3bcd3f37-7909-4e8a-be03-a9562a2c0e45"},"vehicle_type_id":"4","last_reported":1774010091,"current_range_meters":6400,"station_id":"","pricing_plan_id":"cebpf4jnsgd1na2vs0mg"},{"bike_id":"5ec4d809-1f98-41b4-a959-e5071962858f","system_id":"levelo_inurba_marseille","lat":43.28417,"lon":5.34978,"is_reserved":false,"is_disabled":false,"rental_uris":{"android":"levelo://app?vid=5ec4d809-1f98-41b4-a959-e5071962858f","ios":"levelo://app?vid=5ec4d809-1f98-41b4-a959-e5071962858f"},"vehicle_type_id":"4","last_reported":1774010091,"current_range_meters":6400,"station_id":"ce4bhbh2rcd13ifvqepg","pricing_plan_id":"cebpf4jnsgd1na2vs0mg"},{"bike_id":"b3ce5f4e-fe9b-4f42-8117-38663f8ce0a8","system_id":"levelo_inurba_marseille","lat":43.31471,"lon":5.37298,"is_reserved":false,"is_disabled":false,"rental_uris":{"android":"levelo://app?vid=b3ce5f4e-fe9b-4f42-8117-38663f8ce0a8","ios":"levelo://app?vid=b3ce5f4e-fe9b-4f42-8117-38663f8ce0a8"},"vehicle_type_id":"4","last_reported":1774010091,"current_range_meters":6400,"station_id":"ce4bgt12rcd13ifvqcd0","pricing_plan_id":"cebpf4jnsgd1na2vs0mg"},{"bike_id":"856fe66d-4acf-4111-b537-8a0bb0fdb356","system_id":"levelo_inurba_marseille","lat":43.29909,"lon":5.38459,"is_reserved":false,"is_disabled":false,"rental_uris":{"android":"levelo://app?vid=856fe66d-4acf-4111-b537-8a0bb0fdb356","ios":"levelo://app?vid=856fe66d-4acf-4111-b537-8a0bb0fdb356"},"vehicle_type_id":"4","last_reported":1774010091,"current_range_meters":6400,"station_id":"","pricing_plan_id":"cebpf4jnsgd1na2vs0mg"},{"bike_id":"10ced8a1-0004-454c-a343-b116c3880ed6","system_id":"levelo_inurba_marseille","lat":43.32122,"lon":5.36769,"is_reserved":false,"is_disabled":false,"rental_uris":{"android":"levelo://app?vid=10ced8a1-0004-454c-a343-b116c3880ed6","ios":"levelo://app?vid=10ced8a1-0004-454c-a343-b116c3880ed6"},"vehicle_type_id":"4","last_reported":1774010091,"current_range_meters":6400,"station_id":"ce4bhrh2rcd13ifvqhug","pricing_plan_id":"cebpf4jnsgd1na2vs0mg"},{"bike_id":"09f4ac72-c7c8-45a2-8175-d6dcf47aaf6d","system_id":"levelo_inurba_marseille","lat":43.30208,"lon":5.39454,"is_reserved":false,"is_disabled":false,"rental_uris":{"android":"levelo://app?vid=09f4ac72-c7c8-45a2-8175-d6dcf47aaf6d","ios":"levelo://app?vid=09f4ac72-c7c8-45a2-8175-d6dcf47aaf6d"},"vehicle_type_id":"4","last_reported":1774010091,"current_range_meters":6400,"station_id":"ce4bh0p2rcd13ifvqd70","pricing_plan_id":"cebpf4jnsgd1na2vs0mg"},{"bike_id":"e08d225b-8f4a-4ce0-895d-d9f7f842408c","system_id":"levelo_inurba_marseille","lat":43.24174,"lon":5.36393,"is_reserved":false,"is_disabled":false,"rental_uris":{"android":"levelo://app?vid=e08d225b-8f4a-4ce0-895d-d9f7f842408c","ios":"levelo://app?vid=e08d225b-8f4a-4ce0-895d-d9f7f842408c"},"vehicle_type_id":"4","last_reported":1774010091,"current_range_meters":6400,"station_id":"cpo36qri1sfpv3e86is0","pricing_plan_id":"cebpf4jnsgd1na2vs0mg"},{"bike_id":"938f5b2b-699a-47ff-8381-c70adbd93b65","system_id":"levelo_inurba_marseille","lat":43.29794,"lon":5.37116,"is_reserved":false,"is_disabled":true,"rental_uris":{"android":"levelo://app?vid=938f5b2b-699a-47ff-8381-c70adbd93b65","ios":"levelo://app?vid=938f5b2b-699a-47ff-8381-c70adbd93b65"},"vehicle_type_id":"4","last_reported":1774010091,"current_range_meters":6400,"station_id":"ce4bgop2rcd13ifvqc1g","pricing_plan_id":"cebpf4jnsgd1na2vs0mg"},{"bike_id":"681f5372-2ff2-4dd0-a093-84c447cff888","system_id":"levelo_inurba_marseille","lat":43.22564,"lon":5.41647,"is_reserved":false,"is_disabled":false,"rental_uris":{"android":"levelo://app?vid=681f5372-2ff2-4dd0-a093-84c447cff888","ios":"levelo://app?vid=681f5372-2ff2-4dd0-a093-84c447cff888"},"vehicle_type_id":"4","last_reported":1774010091,"current_range_meters":6400,"station_id":"st_d2o4gvlbi1j2169b742g","pricing_plan_id":"cebpf4jnsgd1na2vs0mg"},{"bike_id":"0264288d-82fa-4432-8751-6c08c0e54bb7","system_id":"levelo_inurba_marseille","lat":43.30288,"lon":5.42469,"is_reserved":false,"is_disabled":false,"rental_uris":{"android":"levelo://app?vid=0264288d-82fa-4432-8751-6c08c0e54bb7","ios":"levelo://app?vid=0264288d-82fa-4432-8751-6c08c0e54bb7"},"vehicle_type_id":"4","last_reported":1774010091,"current_range_meters":6800,"station_id":"","pricing_plan_id":"cebpf4jnsgd1na2vs0mg"},{"bike_id":"69067704-4b9d-4067-8ddd-5b71f4ef1a8a","system_id":"levelo_inurba_marseille","lat":43.25929,"lon":5.409,"is_reserved":false,"is_disabled":true,"rental_uris":{"android":"levelo://app?vid=69067704-4b9d-4067-8ddd-5b71f4ef1a8a","ios":"levelo://app?vid=69067704-4b9d-4067-8ddd-5b71f4ef1a8a"},"vehicle_type_id":"4","last_reported":1774010091,"current_range_meters":6800,"station_id":"ce4bhm92rcd13ifvqglg","pricing_plan_id":"cebpf4jnsgd1na2vs0mg"},{"bike_id":"e5947b0b-b618-4388-bf38-e329623cb266","system_id":"levelo_inurba_marseille","lat":43.31724,"lon":5.42392,"is_reserved":false,"is_disabled":false,"rental_uris":{"android":"levelo://app?vid=e5947b0b-b618-4388-bf38-e329623cb266","ios":"levelo://app?vid=e5947b0b-b618-4388-bf38-e329623cb266"},"vehicle_type_id":"4","last_reported":1774010091,"current_range_meters":6800,"station_id":"ce4bhp92rcd13ifvqhbg","pricing_plan_id":"cebpf4jnsgd1na2vs0mg"},{"bike_id":"43d0032e-c2fb-47a6-8035-d14bbdfe98c5","system_id":"levelo_inurba_marseille","lat":43.31263,"lon":5.36887,"is_reserved":false,"is_disabled":false,"rental_uris":{"android":"levelo://app?vid=43d0032e-c2fb-47a6-8035-d14bbdfe98c5","ios":"levelo://app?vid=43d0032e-c2fb-47a6-8035-d14bbdfe98c5"},"vehicle_type_id":"4","last_reported":1774010091,"current_range_meters":6800,"station_id":"ce4bgl92rcd13ifvqbq0","pricing_plan_id":"cebpf4jnsgd1na2vs0mg"},{"bike_id":"97f89870-e3a2-4acc-b807-3b7fdbf7b741","system_id":"levelo_inurba_marseille","lat":43.26567,"lon":5.37294,"is_reserved":false,"is_disabled":false,"rental_uris":{"android":"levelo://app?vid=97f89870-e3a2-4acc-b807-3b7fdbf7b741","ios":"levelo://app?vid=97f89870-e3a2-4acc-b807-3b7fdbf7b741"},"vehicle_type_id":"4","last_reported":1774010091,"current_range_meters":6800,"station_id":"ce4bhg12rcd13ifvqf70","pricing_plan_id":"cebpf4jnsgd1na2vs0mg"},{"bike_id":"a58b14be-ade4-498e-ab67-6c2572ad511a","system_id":"levelo_inurba_marseille","lat":43.30923,"lon":5.36844,"is_reserved":false,"is_disabled":false,"rental_uris":{"android":"levelo://app?vid=a58b14be-ade4-498e-ab67-6c2572ad511a","ios":"levelo://app?vid=a58b14be-ade4-498e-ab67-6c2572ad511a"},"vehicle_type_id":"4","last_reported":1774010091,"current_range_meters":6800,"station_id":"ce4bgn92rcd13ifvqbvg","pricing_plan_id":"cebpf4jnsgd1na2vs0mg"},{"bike_id":"9a979488-f11a-4904-8681-9badc8e985e1","system_id":"levelo_inurba_marseille","lat":43.31225,"lon":5.36855,"is_reserved":false,"is_disabled":false,"rental_uris":{"android":"levelo://app?vid=9a979488-f11a-4904-8681-9badc8e985e1","ios":"levelo://app?vid=9a979488-f11a-4904-8681-9badc8e985e1"},"vehicle_type_id":"4","last_reported":1774010091,"current_range_meters":6800,"station_id":"ce4bgl92rcd13ifvqbq0","pricing_plan_id":"cebpf4jnsgd1na2vs0mg"},{"bike_id":"4ebc5a1c-fa8c-44d8-a7fc-38229c55eb9d","system_id":"levelo_inurba_marseille","lat":43.24663,"lon":5.38882,"is_reserved":false,"is_disabled":false,"rental_uris":{"android":"levelo://app?vid=4ebc5a1c-fa8c-44d8-a7fc-38229c55eb9d","ios":"levelo://app?vid=4ebc5a1c-fa8c-44d8-a7fc-38229c55eb9d"},"vehicle_type_id":"4","last_reported":1774010091,"current_range_meters":6800,"station_id":"ce4bhg12rcd13ifvqf60","pricing_plan_id":"cebpf4jnsgd1na2vs0mg"},{"bike_id":"2a0517bc-acba-451e-bf62-7bba934d6b71","system_id":"levelo_inurba_marseille","lat":43.26514,"lon":5.39549,"is_reserved":false,"is_disabled":false,"rental_uris":{"android":"levelo://app?vid=2a0517bc-acba-451e-bf62-7bba934d6b71","ios":"levelo://app?vid=2a0517bc-acba-451e-bf62-7bba934d6b71"},"vehicle_type_id":"4","last_reported":1774010091,"current_range_meters":6800,"station_id":"ce4bhi12rcd13ifvqfq0","pricing_plan_id":"cebpf4jnsgd1na2vs0mg"},{"bike_id":"5d093622-4e87-4d50-9da4-eab65f5eb92c","system_id":"levelo_inurba_marseille","lat":43.264,"lon":5.41055,"is_reserved":false,"is_disabled":false,"rental_uris":{"android":"levelo://app?vid=5d093622-4e87-4d50-9da4-eab65f5eb92c","ios":"levelo://app?vid=5d093622-4e87-4d50-9da4-eab65f5eb92c"},"vehicle_type_id":"4","last_reported":1774010091,"current_range_meters":6800,"station_id":"st_d4e5ca6na9uc73bfl5fg","pricing_plan_id":"cebpf4jnsgd1na2vs0mg"},{"bike_id":"ab09d209-60f6-4303-8d09-86dc43261279","system_id":"levelo_inurba_marseille","lat":43.21211,"lon":5.35039,"is_reserved":false,"is_disabled":false,"rental_uris":{"android":"levelo://app?vid=ab09d209-60f6-4303-8d09-86dc43261279","ios":"levelo://app?vid=ab09d209-60f6-4303-8d09-86dc43261279"},"vehicle_type_id":"4","last_reported":1774010091,"current_range_meters":6800,"station_id":"st_cvj6sg6p6f1abm77japg","pricing_plan_id":"cebpf4jnsgd1na2vs0mg"},{"bike_id":"ea5f9520-90f0-49e6-8d6a-50c76753ddaa","system_id":"levelo_inurba_marseille","lat":43.308952,"lon":5.396642,"is_reserved":false,"is_disabled":false,"rental_uris":{"android":"levelo://app?vid=ea5f9520-90f0-49e6-8d6a-50c76753ddaa","ios":"levelo://app?vid=ea5f9520-90f0-49e6-8d6a-50c76753ddaa"},"vehicle_type_id":"4","last_reported":1774010091,"current_range_meters":7200,"station_id":"ce4bh012rcd13ifvqcv0","pricing_plan_id":"cebpf4jnsgd1na2vs0mg"},{"bike_id":"12118d88-8157-4d76-ad00-12ce3bc20921","system_id":"levelo_inurba_marseille","lat":43.3085,"lon":5.37128,"is_reserved":false,"is_disabled":false,"rental_uris":{"android":"levelo://app?vid=12118d88-8157-4d76-ad00-12ce3bc20921","ios":"levelo://app?vid=12118d88-8157-4d76-ad00-12ce3bc20921"},"vehicle_type_id":"4","last_reported":1774010091,"current_range_meters":7200,"station_id":"","pricing_plan_id":"cebpf4jnsgd1na2vs0mg"},{"bike_id":"3165bc1b-1cdc-48ac-bccc-fe7023580417","system_id":"levelo_inurba_marseille","lat":43.28543,"lon":5.44087,"is_reserved":false,"is_disabled":false,"rental_uris":{"android":"levelo://app?vid=3165bc1b-1cdc-48ac-bccc-fe7023580417","ios":"levelo://app?vid=3165bc1b-1cdc-48ac-bccc-fe7023580417"},"vehicle_type_id":"4","last_reported":1774010091,"current_range_meters":7200,"station_id":"st_d3j3df2ikq2c7380ej80","pricing_plan_id":"cebpf4jnsgd1na2vs0mg"},{"bike_id":"ad01608b-0d85-4403-b3b5-96c2345de9a8","system_id":"levelo_inurba_marseille","lat":43.29006,"lon":5.35596,"is_reserved":false,"is_disabled":false,"rental_uris":{"android":"levelo://app?vid=ad01608b-0d85-4403-b3b5-96c2345de9a8","ios":"levelo://app?vid=ad01608b-0d85-4403-b3b5-96c2345de9a8"},"vehicle_type_id":"4","last_reported":1774010091,"current_range_meters":7200,"station_id":"ce4bhb92rcd13ifvqen0","pricing_plan_id":"cebpf4jnsgd1na2vs0mg"},{"bike_id":"b5076d1f-3eaa-4ea2-84a9-828ed3f4695b","system_id":"levelo_inurba_marseille","lat":43.2557,"lon":5.38261,"is_reserved":false,"is_disabled":false,"rental_uris":{"android":"levelo://app?vid=b5076d1f-3eaa-4ea2-84a9-828ed3f4695b","ios":"levelo://app?vid=b5076d1f-3eaa-4ea2-84a9-828ed3f4695b"},"vehicle_type_id":"4","last_reported":1774010091,"current_range_meters":7200,"station_id":"ce4bhih2rcd13ifvqfs0","pricing_plan_id":"cebpf4jnsgd1na2vs0mg"},{"bike_id":"c6b20400-3641-48f3-b609-b110a5527d07","system_id":"levelo_inurba_marseille","lat":43.22573,"lon":5.41635,"is_reserved":false,"is_disabled":false,"rental_uris":{"android":"levelo://app?vid=c6b20400-3641-48f3-b609-b110a5527d07","ios":"levelo://app?vid=c6b20400-3641-48f3-b609-b110a5527d07"},"vehicle_type_id":"4","last_reported":1774010091,"current_range_meters":7200,"station_id":"st_d2o4gvlbi1j2169b742g","pricing_plan_id":"cebpf4jnsgd1na2vs0mg"},{"bike_id":"be9b4f06-9d1a-41ee-b10b-9de4e628d9db","system_id":"levelo_inurba_marseille","lat":43.25595,"lon":5.38211,"is_reserved":false,"is_disabled":false,"rental_uris":{"android":"levelo://app?vid=be9b4f06-9d1a-41ee-b10b-9de4e628d9db","ios":"levelo://app?vid=be9b4f06-9d1a-41ee-b10b-9de4e628d9db"},"vehicle_type_id":"4","last_reported":1774010091,"current_range_meters":7200,"station_id":"ce4bhih2rcd13ifvqfs0","pricing_plan_id":"cebpf4jnsgd1na2vs0mg"},{"bike_id":"dd74091b-705a-4531-bc39-afff2195d9a1","system_id":"levelo_inurba_marseille","lat":43.24823,"lon":5.37425,"is_reserved":false,"is_disabled":false,"rental_uris":{"android":"levelo://app?vid=dd74091b-705a-4531-bc39-afff2195d9a1","ios":"levelo://app?vid=dd74091b-705a-4531-bc39-afff2195d9a1"},"vehicle_type_id":"4","last_reported":1774010091,"current_range_meters":7200,"station_id":"ce4bhgh2rcd13ifvqfb0","pricing_plan_id":"cebpf4jnsgd1na2vs0mg"},{"bike_id":"9abc2129-6d00-4075-ac9a-62e38d632983","system_id":"levelo_inurba_marseille","lat":43.23899,"lon":5.37463,"is_reserved":false,"is_disabled":false,"rental_uris":{"android":"levelo://app?vid=9abc2129-6d00-4075-ac9a-62e38d632983","ios":"levelo://app?vid=9abc2129-6d00-4075-ac9a-62e38d632983"},"vehicle_type_id":"4","last_reported":1774010091,"current_range_meters":7200,"station_id":"st_d6sm7csbq4hs73f8fpjg","pricing_plan_id":"cebpf4jnsgd1na2vs0mg"},{"bike_id":"29ceb06a-4df8-4e2a-9dd9-b070e185b37f","system_id":"levelo_inurba_marseille","lat":43.28501,"lon":5.48394,"is_reserved":false,"is_disabled":false,"rental_uris":{"android":"levelo://app?vid=29ceb06a-4df8-4e2a-9dd9-b070e185b37f","ios":"levelo://app?vid=29ceb06a-4df8-4e2a-9dd9-b070e185b37f"},"vehicle_type_id":"4","last_reported":1774010091,"current_range_meters":7200,"station_id":"st_d3svhcjqgbts73a3dn0g","pricing_plan_id":"cebpf4jnsgd1na2vs0mg"},{"bike_id":"c142af26-b83c-4aa3-ab8b-699576493d34","system_id":"levelo_inurba_marseille","lat":43.21204,"lon":5.35056,"is_reserved":false,"is_disabled":true,"rental_uris":{"android":"levelo://app?vid=c142af26-b83c-4aa3-ab8b-699576493d34","ios":"levelo://app?vid=c142af26-b83c-4aa3-ab8b-699576493d34"},"vehicle_type_id":"4","last_reported":1774010091,"current_range_meters":7200,"station_id":"st_cvj6sg6p6f1abm77japg","pricing_plan_id":"cebpf4jnsgd1na2vs0mg"},{"bike_id":"99a4dbe7-2c5c-408d-b1e9-74a8ab733e97","system_id":"levelo_inurba_marseille","lat":43.30961,"lon":5.39037,"is_reserved":false,"is_disabled":false,"rental_uris":{"android":"levelo://app?vid=99a4dbe7-2c5c-408d-b1e9-74a8ab733e97","ios":"levelo://app?vid=99a4dbe7-2c5c-408d-b1e9-74a8ab733e97"},"vehicle_type_id":"4","last_reported":1774010091,"current_range_meters":7200,"station_id":"ce4bgup2rcd13ifvqco0","pricing_plan_id":"cebpf4jnsgd1na2vs0mg"},{"bike_id":"29705345-7a8e-4bdd-8b65-5ba8856c877f","system_id":"levelo_inurba_marseille","lat":43.30292,"lon":5.44954,"is_reserved":false,"is_disabled":false,"rental_uris":{"android":"levelo://app?vid=29705345-7a8e-4bdd-8b65-5ba8856c877f","ios":"levelo://app?vid=29705345-7a8e-4bdd-8b65-5ba8856c877f"},"vehicle_type_id":"4","last_reported":1774010091,"current_range_meters":7200,"station_id":"","pricing_plan_id":"cebpf4jnsgd1na2vs0mg"},{"bike_id":"1747e8ca-68a9-4c78-9c38-95f97dbdf577","system_id":"levelo_inurba_marseille","lat":43.30437,"lon":5.38865,"is_reserved":false,"is_disabled":false,"rental_uris":{"android":"levelo://app?vid=1747e8ca-68a9-4c78-9c38-95f97dbdf577","ios":"levelo://app?vid=1747e8ca-68a9-4c78-9c38-95f97dbdf577"},"vehicle_type_id":"4","last_reported":1774010091,"current_range_meters":7200,"station_id":"ce4bgk12rcd13ifvqbi0","pricing_plan_id":"cebpf4jnsgd1na2vs0mg"},{"bike_id":"c48440d7-f4d5-4be3-a842-7dc1a317748e","system_id":"levelo_inurba_marseille","lat":43.33946,"lon":5.3573,"is_reserved":false,"is_disabled":false,"rental_uris":{"android":"levelo://app?vid=c48440d7-f4d5-4be3-a842-7dc1a317748e","ios":"levelo://app?vid=c48440d7-f4d5-4be3-a842-7dc1a317748e"},"vehicle_type_id":"4","last_reported":1774010091,"current_range_meters":7200,"station_id":"","pricing_plan_id":"cebpf4jnsgd1na2vs0mg"},{"bike_id":"78cb10e7-f931-469c-8310-955130feb4e9","system_id":"levelo_inurba_marseille","lat":43.29895,"lon":5.4368,"is_reserved":false,"is_disabled":false,"rental_uris":{"android":"levelo://app?vid=78cb10e7-f931-469c-8310-955130feb4e9","ios":"levelo://app?vid=78cb10e7-f931-469c-8310-955130feb4e9"},"vehicle_type_id":"4","last_reported":1774010091,"current_range_meters":7200,"station_id":"ce4bhpp2rcd13ifvqhfg","pricing_plan_id":"cebpf4jnsgd1na2vs0mg"},{"bike_id":"fb2930ba-12f9-4225-853d-4132d581b379","system_id":"levelo_inurba_marseille","lat":43.26181,"lon":5.37488,"is_reserved":false,"is_disabled":false,"rental_uris":{"android":"levelo://app?vid=fb2930ba-12f9-4225-853d-4132d581b379","ios":"levelo://app?vid=fb2930ba-12f9-4225-853d-4132d581b379"},"vehicle_type_id":"4","last_reported":1774010091,"current_range_meters":7200,"station_id":"ce4bhgp2rcd13ifvqfc0","pricing_plan_id":"cebpf4jnsgd1na2vs0mg"},{"bike_id":"f328e3b6-a38c-49fe-80e0-c552630893a5","system_id":"levelo_inurba_marseille","lat":43.22956,"lon":5.35353,"is_reserved":false,"is_disabled":false,"rental_uris":{"android":"levelo://app?vid=f328e3b6-a38c-49fe-80e0-c552630893a5","ios":"levelo://app?vid=f328e3b6-a38c-49fe-80e0-c552630893a5"},"vehicle_type_id":"4","last_reported":1774010091,"current_range_meters":8000,"station_id":"cpo3532slgdg3j2ikp40","pricing_plan_id":"cebpf4jnsgd1na2vs0mg"},{"bike_id":"a775511c-9985-4a58-8c4c-775aad7f3e36","system_id":"levelo_inurba_marseille","lat":43.29897,"lon":5.43673,"is_reserved":false,"is_disabled":false,"rental_uris":{"android":"levelo://app?vid=a775511c-9985-4a58-8c4c-775aad7f3e36","ios":"levelo://app?vid=a775511c-9985-4a58-8c4c-775aad7f3e36"},"vehicle_type_id":"4","last_reported":1774010091,"current_range_meters":8000,"station_id":"ce4bhpp2rcd13ifvqhfg","pricing_plan_id":"cebpf4jnsgd1na2vs0mg"},{"bike_id":"f7920f36-a914-457c-ab01-53a67f4f04d0","system_id":"levelo_inurba_marseille","lat":43.28938,"lon":5.36647,"is_reserved":false,"is_disabled":false,"rental_uris":{"android":"levelo://app?vid=f7920f36-a914-457c-ab01-53a67f4f04d0","ios":"levelo://app?vid=f7920f36-a914-457c-ab01-53a67f4f04d0"},"vehicle_type_id":"4","last_reported":1774010091,"current_range_meters":8000,"station_id":"ce4bhap2rcd13ifvqek0","pricing_plan_id":"cebpf4jnsgd1na2vs0mg"},{"bike_id":"b982f9c2-1bc6-4e83-a027-82eb2b163b10","system_id":"levelo_inurba_marseille","lat":43.28416,"lon":5.3498,"is_reserved":false,"is_disabled":false,"rental_uris":{"android":"levelo://app?vid=b982f9c2-1bc6-4e83-a027-82eb2b163b10","ios":"levelo://app?vid=b982f9c2-1bc6-4e83-a027-82eb2b163b10"},"vehicle_type_id":"4","last_reported":1774010091,"current_range_meters":8000,"station_id":"ce4bhbh2rcd13ifvqepg","pricing_plan_id":"cebpf4jnsgd1na2vs0mg"},{"bike_id":"9e2308d9-37dd-470c-aa56-a0dd7a027efb","system_id":"levelo_inurba_marseille","lat":43.29518,"lon":5.3747,"is_reserved":false,"is_disabled":true,"rental_uris":{"android":"levelo://app?vid=9e2308d9-37dd-470c-aa56-a0dd7a027efb","ios":"levelo://app?vid=9e2308d9-37dd-470c-aa56-a0dd7a027efb"},"vehicle_type_id":"4","last_reported":1774010091,"current_range_meters":8000,"station_id":"ce4bgkp2rcd13ifvqbmg","pricing_plan_id":"cebpf4jnsgd1na2vs0mg"},{"bike_id":"28f3f20c-b900-4eb5-b2b3-3f43b44c5ecf","system_id":"levelo_inurba_marseille","lat":43.28489,"lon":5.38568,"is_reserved":false,"is_disabled":false,"rental_uris":{"android":"levelo://app?vid=28f3f20c-b900-4eb5-b2b3-3f43b44c5ecf","ios":"levelo://app?vid=28f3f20c-b900-4eb5-b2b3-3f43b44c5ecf"},"vehicle_type_id":"4","last_reported":1774010091,"current_range_meters":8000,"station_id":"ce4bh8p2rcd13ifvqeb0","pricing_plan_id":"cebpf4jnsgd1na2vs0mg"},{"bike_id":"e5eba928-e3a4-441b-9540-937747ee47b9","system_id":"levelo_inurba_marseille","lat":43.2257,"lon":5.41632,"is_reserved":false,"is_disabled":false,"rental_uris":{"android":"levelo://app?vid=e5eba928-e3a4-441b-9540-937747ee47b9","ios":"levelo://app?vid=e5eba928-e3a4-441b-9540-937747ee47b9"},"vehicle_type_id":"4","last_reported":1774010091,"current_range_meters":8000,"station_id":"st_d2o4gvlbi1j2169b742g","pricing_plan_id":"cebpf4jnsgd1na2vs0mg"},{"bike_id":"c0289adb-9f9c-40e5-9a53-0a54fe2a9f60","system_id":"levelo_inurba_marseille","lat":43.29876,"lon":5.38899,"is_reserved":false,"is_disabled":false,"rental_uris":{"android":"levelo://app?vid=c0289adb-9f9c-40e5-9a53-0a54fe2a9f60","ios":"levelo://app?vid=c0289adb-9f9c-40e5-9a53-0a54fe2a9f60"},"vehicle_type_id":"4","last_reported":1774010091,"current_range_meters":8000,"station_id":"ce4bh392rcd13ifvqdl0","pricing_plan_id":"cebpf4jnsgd1na2vs0mg"},{"bike_id":"6cba1fd1-a35f-43db-9cac-82476971f911","system_id":"levelo_inurba_marseille","lat":43.2921,"lon":5.39333,"is_reserved":false,"is_disabled":false,"rental_uris":{"android":"levelo://app?vid=6cba1fd1-a35f-43db-9cac-82476971f911","ios":"levelo://app?vid=6cba1fd1-a35f-43db-9cac-82476971f911"},"vehicle_type_id":"4","last_reported":1774010091,"current_range_meters":8000,"station_id":"ce4bh192rcd13ifvqdd0","pricing_plan_id":"cebpf4jnsgd1na2vs0mg"},{"bike_id":"646c7015-5400-49b6-9ecb-1fc782efa767","system_id":"levelo_inurba_marseille","lat":43.21757,"lon":5.3459,"is_reserved":false,"is_disabled":false,"rental_uris":{"android":"levelo://app?vid=646c7015-5400-49b6-9ecb-1fc782efa767","ios":"levelo://app?vid=646c7015-5400-49b6-9ecb-1fc782efa767"},"vehicle_type_id":"4","last_reported":1774010091,"current_range_meters":8000,"station_id":"st_cvj6r9ubvosntc0bgbag","pricing_plan_id":"cebpf4jnsgd1na2vs0mg"},{"bike_id":"5d76d7be-3aca-461e-84ed-7cc20b2099bf","system_id":"levelo_inurba_marseille","lat":43.24814,"lon":5.37436,"is_reserved":false,"is_disabled":false,"rental_uris":{"android":"levelo://app?vid=5d76d7be-3aca-461e-84ed-7cc20b2099bf","ios":"levelo://app?vid=5d76d7be-3aca-461e-84ed-7cc20b2099bf"},"vehicle_type_id":"4","last_reported":1774010091,"current_range_meters":8000,"station_id":"ce4bhgh2rcd13ifvqfb0","pricing_plan_id":"cebpf4jnsgd1na2vs0mg"},{"bike_id":"82da6c3a-fe16-4711-9731-a3c69841de7a","system_id":"levelo_inurba_marseille","lat":43.29007,"lon":5.35612,"is_reserved":false,"is_disabled":false,"rental_uris":{"android":"levelo://app?vid=82da6c3a-fe16-4711-9731-a3c69841de7a","ios":"levelo://app?vid=82da6c3a-fe16-4711-9731-a3c69841de7a"},"vehicle_type_id":"4","last_reported":1774010091,"current_range_meters":8000,"station_id":"ce4bhb92rcd13ifvqen0","pricing_plan_id":"cebpf4jnsgd1na2vs0mg"},{"bike_id":"0f77ab19-02c3-4b4a-be9a-c8801aa3d4b5","system_id":"levelo_inurba_marseille","lat":43.33164,"lon":5.37687,"is_reserved":false,"is_disabled":false,"rental_uris":{"android":"levelo://app?vid=0f77ab19-02c3-4b4a-be9a-c8801aa3d4b5","ios":"levelo://app?vid=0f77ab19-02c3-4b4a-be9a-c8801aa3d4b5"},"vehicle_type_id":"4","last_reported":1774010091,"current_range_meters":8000,"station_id":"st_d46cu089ee8s73dldbu0","pricing_plan_id":"cebpf4jnsgd1na2vs0mg"},{"bike_id":"a545c754-e350-45a1-864b-ec76871d3bf7","system_id":"levelo_inurba_marseille","lat":43.21764,"lon":5.34578,"is_reserved":false,"is_disabled":false,"rental_uris":{"android":"levelo://app?vid=a545c754-e350-45a1-864b-ec76871d3bf7","ios":"levelo://app?vid=a545c754-e350-45a1-864b-ec76871d3bf7"},"vehicle_type_id":"4","last_reported":1774010091,"current_range_meters":8000,"station_id":"","pricing_plan_id":"cebpf4jnsgd1na2vs0mg"},{"bike_id":"9ec1942c-b173-4801-9f27-3e6493805e2b","system_id":"levelo_inurba_marseille","lat":43.24651,"lon":5.38901,"is_reserved":false,"is_disabled":false,"rental_uris":{"android":"levelo://app?vid=9ec1942c-b173-4801-9f27-3e6493805e2b","ios":"levelo://app?vid=9ec1942c-b173-4801-9f27-3e6493805e2b"},"vehicle_type_id":"4","last_reported":1774010091,"current_range_meters":8400,"station_id":"ce4bhg12rcd13ifvqf60","pricing_plan_id":"cebpf4jnsgd1na2vs0mg"},{"bike_id":"53f48266-4564-420b-96ab-d243233055dc","system_id":"levelo_inurba_marseille","lat":43.28465,"lon":5.48398,"is_reserved":false,"is_disabled":false,"rental_uris":{"android":"levelo://app?vid=53f48266-4564-420b-96ab-d243233055dc","ios":"levelo://app?vid=53f48266-4564-420b-96ab-d243233055dc"},"vehicle_type_id":"4","last_reported":1774010091,"current_range_meters":8400,"station_id":"","pricing_plan_id":"cebpf4jnsgd1na2vs0mg"},{"bike_id":"4a0e609e-6c21-48e8-8aeb-8e3d0c22ce4c","system_id":"levelo_inurba_marseille","lat":43.26561,"lon":5.37266,"is_reserved":false,"is_disabled":false,"rental_uris":{"android":"levelo://app?vid=4a0e609e-6c21-48e8-8aeb-8e3d0c22ce4c","ios":"levelo://app?vid=4a0e609e-6c21-48e8-8aeb-8e3d0c22ce4c"},"vehicle_type_id":"4","last_reported":1774010091,"current_range_meters":8400,"station_id":"ce4bhg12rcd13ifvqf70","pricing_plan_id":"cebpf4jnsgd1na2vs0mg"},{"bike_id":"5c37a49c-ab60-4c11-8a61-6592ff444186","system_id":"levelo_inurba_marseille","lat":43.27908,"lon":5.39175,"is_reserved":false,"is_disabled":false,"rental_uris":{"android":"levelo://app?vid=5c37a49c-ab60-4c11-8a61-6592ff444186","ios":"levelo://app?vid=5c37a49c-ab60-4c11-8a61-6592ff444186"},"vehicle_type_id":"4","last_reported":1774010091,"current_range_meters":8400,"station_id":"","pricing_plan_id":"cebpf4jnsgd1na2vs0mg"},{"bike_id":"efaeaac2-37d1-487c-ade3-c1d910c99c2d","system_id":"levelo_inurba_marseille","lat":43.29781,"lon":5.37111,"is_reserved":false,"is_disabled":false,"rental_uris":{"android":"levelo://app?vid=efaeaac2-37d1-487c-ade3-c1d910c99c2d","ios":"levelo://app?vid=efaeaac2-37d1-487c-ade3-c1d910c99c2d"},"vehicle_type_id":"4","last_reported":1774010091,"current_range_meters":8400,"station_id":"ce4bgop2rcd13ifvqc1g","pricing_plan_id":"cebpf4jnsgd1na2vs0mg"},{"bike_id":"7f1100be-3bd4-4920-a550-0e3e03b5753b","system_id":"levelo_inurba_marseille","lat":43.28458,"lon":5.35883,"is_reserved":false,"is_disabled":false,"rental_uris":{"android":"levelo://app?vid=7f1100be-3bd4-4920-a550-0e3e03b5753b","ios":"levelo://app?vid=7f1100be-3bd4-4920-a550-0e3e03b5753b"},"vehicle_type_id":"4","last_reported":1774010091,"current_range_meters":8400,"station_id":"ce4bhah2rcd13ifvqei0","pricing_plan_id":"cebpf4jnsgd1na2vs0mg"},{"bike_id":"89ad46cf-ad84-4e5e-be57-87ac2cebe69c","system_id":"levelo_inurba_marseille","lat":43.28493,"lon":5.48375,"is_reserved":false,"is_disabled":false,"rental_uris":{"android":"levelo://app?vid=89ad46cf-ad84-4e5e-be57-87ac2cebe69c","ios":"levelo://app?vid=89ad46cf-ad84-4e5e-be57-87ac2cebe69c"},"vehicle_type_id":"4","last_reported":1774010091,"current_range_meters":8400,"station_id":"st_d3svhcjqgbts73a3dn0g","pricing_plan_id":"cebpf4jnsgd1na2vs0mg"},{"bike_id":"570e30b9-8ff8-41bf-8662-4a5c2a72ee00","system_id":"levelo_inurba_marseille","lat":43.27373,"lon":5.36264,"is_reserved":false,"is_disabled":false,"rental_uris":{"android":"levelo://app?vid=570e30b9-8ff8-41bf-8662-4a5c2a72ee00","ios":"levelo://app?vid=570e30b9-8ff8-41bf-8662-4a5c2a72ee00"},"vehicle_type_id":"4","last_reported":1774010091,"current_range_meters":8400,"station_id":"ce4bhbh2rcd13ifvqeo0","pricing_plan_id":"cebpf4jnsgd1na2vs0mg"},{"bike_id":"4cdfbf62-8c8a-4abe-9274-190115b1f9b9","system_id":"levelo_inurba_marseille","lat":43.25327,"lon":5.42168,"is_reserved":false,"is_disabled":false,"rental_uris":{"android":"levelo://app?vid=4cdfbf62-8c8a-4abe-9274-190115b1f9b9","ios":"levelo://app?vid=4cdfbf62-8c8a-4abe-9274-190115b1f9b9"},"vehicle_type_id":"4","last_reported":1774010091,"current_range_meters":8400,"station_id":"st_d2m65c5bi1j21697t3ng","pricing_plan_id":"cebpf4jnsgd1na2vs0mg"},{"bike_id":"94d7ff09-819e-489a-bb88-56ef8c2bc4bf","system_id":"levelo_inurba_marseille","lat":43.2841,"lon":5.34987,"is_reserved":false,"is_disabled":false,"rental_uris":{"android":"levelo://app?vid=94d7ff09-819e-489a-bb88-56ef8c2bc4bf","ios":"levelo://app?vid=94d7ff09-819e-489a-bb88-56ef8c2bc4bf"},"vehicle_type_id":"4","last_reported":1774010091,"current_range_meters":8400,"station_id":"ce4bhbh2rcd13ifvqepg","pricing_plan_id":"cebpf4jnsgd1na2vs0mg"},{"bike_id":"249d43a2-0726-46de-8da2-42fe2c5e6d5f","system_id":"levelo_inurba_marseille","lat":43.30545,"lon":5.36555,"is_reserved":false,"is_disabled":false,"rental_uris":{"android":"levelo://app?vid=249d43a2-0726-46de-8da2-42fe2c5e6d5f","ios":"levelo://app?vid=249d43a2-0726-46de-8da2-42fe2c5e6d5f"},"vehicle_type_id":"4","last_reported":1774010091,"current_range_meters":8400,"station_id":"ce4bgs12rcd13ifvqcag","pricing_plan_id":"cebpf4jnsgd1na2vs0mg"},{"bike_id":"276f1320-13c0-49a0-87f6-3d6beae5a60f","system_id":"levelo_inurba_marseille","lat":43.27956,"lon":5.38727,"is_reserved":false,"is_disabled":false,"rental_uris":{"android":"levelo://app?vid=276f1320-13c0-49a0-87f6-3d6beae5a60f","ios":"levelo://app?vid=276f1320-13c0-49a0-87f6-3d6beae5a60f"},"vehicle_type_id":"4","last_reported":1774010091,"current_range_meters":8400,"station_id":"ce4bhg12rcd13ifvqf80","pricing_plan_id":"cebpf4jnsgd1na2vs0mg"},{"bike_id":"7fa64d84-cd92-4f02-a79d-c348b129b15f","system_id":"levelo_inurba_marseille","lat":43.24164,"lon":5.36404,"is_reserved":false,"is_disabled":false,"rental_uris":{"android":"levelo://app?vid=7fa64d84-cd92-4f02-a79d-c348b129b15f","ios":"levelo://app?vid=7fa64d84-cd92-4f02-a79d-c348b129b15f"},"vehicle_type_id":"4","last_reported":1774010091,"current_range_meters":8400,"station_id":"cpo36qri1sfpv3e86is0","pricing_plan_id":"cebpf4jnsgd1na2vs0mg"},{"bike_id":"87f56d98-adde-49bf-8b75-10c2809e57f7","system_id":"levelo_inurba_marseille","lat":43.27476,"lon":5.3967,"is_reserved":false,"is_disabled":false,"rental_uris":{"android":"levelo://app?vid=87f56d98-adde-49bf-8b75-10c2809e57f7","ios":"levelo://app?vid=87f56d98-adde-49bf-8b75-10c2809e57f7"},"vehicle_type_id":"4","last_reported":1774010091,"current_range_meters":8400,"station_id":"","pricing_plan_id":"cebpf4jnsgd1na2vs0mg"},{"bike_id":"59d2267f-7247-4a75-b01c-e6739320c121","system_id":"levelo_inurba_marseille","lat":43.28956,"lon":5.3784,"is_reserved":false,"is_disabled":true,"rental_uris":{"android":"levelo://app?vid=59d2267f-7247-4a75-b01c-e6739320c121","ios":"levelo://app?vid=59d2267f-7247-4a75-b01c-e6739320c121"},"vehicle_type_id":"4","last_reported":1774010091,"current_range_meters":8400,"station_id":"ce4bh9p2rcd13ifvqed0","pricing_plan_id":"cebpf4jnsgd1na2vs0mg"},{"bike_id":"d8a154e6-4e79-47e0-8157-586e8dd9835c","system_id":"levelo_inurba_marseille","lat":43.28487,"lon":5.38568,"is_reserved":false,"is_disabled":false,"rental_uris":{"android":"levelo://app?vid=d8a154e6-4e79-47e0-8157-586e8dd9835c","ios":"levelo://app?vid=d8a154e6-4e79-47e0-8157-586e8dd9835c"},"vehicle_type_id":"4","last_reported":1774010091,"current_range_meters":8400,"station_id":"ce4bh8p2rcd13ifvqeb0","pricing_plan_id":"cebpf4jnsgd1na2vs0mg"},{"bike_id":"524d4f4d-9481-4c69-a364-dc591d52f94a","system_id":"levelo_inurba_marseille","lat":43.30967,"lon":5.3915,"is_reserved":false,"is_disabled":false,"rental_uris":{"android":"levelo://app?vid=524d4f4d-9481-4c69-a364-dc591d52f94a","ios":"levelo://app?vid=524d4f4d-9481-4c69-a364-dc591d52f94a"},"vehicle_type_id":"4","last_reported":1774010091,"current_range_meters":8400,"station_id":"","pricing_plan_id":"cebpf4jnsgd1na2vs0mg"},{"bike_id":"9199d306-1897-452d-9de6-a7ce2af4063b","system_id":"levelo_inurba_marseille","lat":43.25578,"lon":5.38227,"is_reserved":false,"is_disabled":false,"rental_uris":{"android":"levelo://app?vid=9199d306-1897-452d-9de6-a7ce2af4063b","ios":"levelo://app?vid=9199d306-1897-452d-9de6-a7ce2af4063b"},"vehicle_type_id":"4","last_reported":1774010091,"current_range_meters":8400,"station_id":"ce4bhih2rcd13ifvqfs0","pricing_plan_id":"cebpf4jnsgd1na2vs0mg"},{"bike_id":"912e5f30-2e0b-48a9-85db-a984611241c9","system_id":"levelo_inurba_marseille","lat":43.29824,"lon":5.44094,"is_reserved":false,"is_disabled":false,"rental_uris":{"android":"levelo://app?vid=912e5f30-2e0b-48a9-85db-a984611241c9","ios":"levelo://app?vid=912e5f30-2e0b-48a9-85db-a984611241c9"},"vehicle_type_id":"4","last_reported":1774010091,"current_range_meters":8800,"station_id":"","pricing_plan_id":"cebpf4jnsgd1na2vs0mg"},{"bike_id":"1c67d299-fb2e-420a-8b3e-f4c3c2f937b2","system_id":"levelo_inurba_marseille","lat":43.24467,"lon":5.42544,"is_reserved":false,"is_disabled":false,"rental_uris":{"android":"levelo://app?vid=1c67d299-fb2e-420a-8b3e-f4c3c2f937b2","ios":"levelo://app?vid=1c67d299-fb2e-420a-8b3e-f4c3c2f937b2"},"vehicle_type_id":"4","last_reported":1774010091,"current_range_meters":8800,"station_id":"st_d4a3vfp97mjs738cd8kg","pricing_plan_id":"cebpf4jnsgd1na2vs0mg"},{"bike_id":"d98676a3-493e-49af-8b89-e7d7e5b495a4","system_id":"levelo_inurba_marseille","lat":43.30553,"lon":5.36692,"is_reserved":false,"is_disabled":false,"rental_uris":{"android":"levelo://app?vid=d98676a3-493e-49af-8b89-e7d7e5b495a4","ios":"levelo://app?vid=d98676a3-493e-49af-8b89-e7d7e5b495a4"},"vehicle_type_id":"4","last_reported":1774010091,"current_range_meters":8800,"station_id":"ce4bgrp2rcd13ifvqc9g","pricing_plan_id":"cebpf4jnsgd1na2vs0mg"},{"bike_id":"9a467371-1241-4758-b8e4-a7fbf83f615d","system_id":"levelo_inurba_marseille","lat":43.31219,"lon":5.36834,"is_reserved":false,"is_disabled":false,"rental_uris":{"android":"levelo://app?vid=9a467371-1241-4758-b8e4-a7fbf83f615d","ios":"levelo://app?vid=9a467371-1241-4758-b8e4-a7fbf83f615d"},"vehicle_type_id":"4","last_reported":1774010091,"current_range_meters":8800,"station_id":"ce4bgl92rcd13ifvqbq0","pricing_plan_id":"cebpf4jnsgd1na2vs0mg"},{"bike_id":"ac94a75f-91df-4818-a357-956d25b78ee0","system_id":"levelo_inurba_marseille","lat":43.31074,"lon":5.42432,"is_reserved":false,"is_disabled":false,"rental_uris":{"android":"levelo://app?vid=ac94a75f-91df-4818-a357-956d25b78ee0","ios":"levelo://app?vid=ac94a75f-91df-4818-a357-956d25b78ee0"},"vehicle_type_id":"4","last_reported":1774010091,"current_range_meters":8800,"station_id":"ce4bhp92rcd13ifvqhag","pricing_plan_id":"cebpf4jnsgd1na2vs0mg"},{"bike_id":"8648ff3d-a49d-4491-be6c-bab3f9812603","system_id":"levelo_inurba_marseille","lat":43.28297,"lon":5.43807,"is_reserved":false,"is_disabled":false,"rental_uris":{"android":"levelo://app?vid=8648ff3d-a49d-4491-be6c-bab3f9812603","ios":"levelo://app?vid=8648ff3d-a49d-4491-be6c-bab3f9812603"},"vehicle_type_id":"4","last_reported":1774010091,"current_range_meters":8800,"station_id":"","pricing_plan_id":"cebpf4jnsgd1na2vs0mg"},{"bike_id":"a8c8307b-e1e9-4950-a785-578e1a82f805","system_id":"levelo_inurba_marseille","lat":43.31276,"lon":5.37797,"is_reserved":false,"is_disabled":false,"rental_uris":{"android":"levelo://app?vid=a8c8307b-e1e9-4950-a785-578e1a82f805","ios":"levelo://app?vid=a8c8307b-e1e9-4950-a785-578e1a82f805"},"vehicle_type_id":"4","last_reported":1774010091,"current_range_meters":8800,"station_id":"","pricing_plan_id":"cebpf4jnsgd1na2vs0mg"},{"bike_id":"962e3e51-db50-4f61-a079-9b1c6a103eb5","system_id":"levelo_inurba_marseille","lat":43.30963,"lon":5.36814,"is_reserved":false,"is_disabled":false,"rental_uris":{"android":"levelo://app?vid=962e3e51-db50-4f61-a079-9b1c6a103eb5","ios":"levelo://app?vid=962e3e51-db50-4f61-a079-9b1c6a103eb5"},"vehicle_type_id":"4","last_reported":1774010091,"current_range_meters":8800,"station_id":"","pricing_plan_id":"cebpf4jnsgd1na2vs0mg"},{"bike_id":"7f166c91-9eb1-4dc8-a940-85d8139ad9d9","system_id":"levelo_inurba_marseille","lat":43.23963,"lon":5.36638,"is_reserved":false,"is_disabled":false,"rental_uris":{"android":"levelo://app?vid=7f166c91-9eb1-4dc8-a940-85d8139ad9d9","ios":"levelo://app?vid=7f166c91-9eb1-4dc8-a940-85d8139ad9d9"},"vehicle_type_id":"4","last_reported":1774010091,"current_range_meters":8800,"station_id":"ce4bhi12rcd13ifvqfp0","pricing_plan_id":"cebpf4jnsgd1na2vs0mg"},{"bike_id":"7b653ed7-dc73-4d19-b1cd-de2ae69e2a3e","system_id":"levelo_inurba_marseille","lat":43.30795,"lon":5.37648,"is_reserved":false,"is_disabled":false,"rental_uris":{"android":"levelo://app?vid=7b653ed7-dc73-4d19-b1cd-de2ae69e2a3e","ios":"levelo://app?vid=7b653ed7-dc73-4d19-b1cd-de2ae69e2a3e"},"vehicle_type_id":"4","last_reported":1774010091,"current_range_meters":8800,"station_id":"ce4bgv92rcd13ifvqcq0","pricing_plan_id":"cebpf4jnsgd1na2vs0mg"},{"bike_id":"2d9e4754-9b17-40b5-bbeb-5b1c9c5bbe64","system_id":"levelo_inurba_marseille","lat":43.30128,"lon":5.38808,"is_reserved":false,"is_disabled":true,"rental_uris":{"android":"levelo://app?vid=2d9e4754-9b17-40b5-bbeb-5b1c9c5bbe64","ios":"levelo://app?vid=2d9e4754-9b17-40b5-bbeb-5b1c9c5bbe64"},"vehicle_type_id":"4","last_reported":1774010091,"current_range_meters":8800,"station_id":"ce4bghh2rcd13ifvqb60","pricing_plan_id":"cebpf4jnsgd1na2vs0mg"},{"bike_id":"a21c66aa-3c00-4df5-8e6f-91b2549e46d1","system_id":"levelo_inurba_marseille","lat":43.27958,"lon":5.43622,"is_reserved":false,"is_disabled":false,"rental_uris":{"android":"levelo://app?vid=a21c66aa-3c00-4df5-8e6f-91b2549e46d1","ios":"levelo://app?vid=a21c66aa-3c00-4df5-8e6f-91b2549e46d1"},"vehicle_type_id":"4","last_reported":1774010091,"current_range_meters":8800,"station_id":"","pricing_plan_id":"cebpf4jnsgd1na2vs0mg"},{"bike_id":"1376a9e6-82f2-4044-9646-2a6072ea4527","system_id":"levelo_inurba_marseille","lat":43.23784,"lon":5.36637,"is_reserved":false,"is_disabled":false,"rental_uris":{"android":"levelo://app?vid=1376a9e6-82f2-4044-9646-2a6072ea4527","ios":"levelo://app?vid=1376a9e6-82f2-4044-9646-2a6072ea4527"},"vehicle_type_id":"4","last_reported":1774010091,"current_range_meters":8800,"station_id":"st_d3nk18o9ro0c73en2l3g","pricing_plan_id":"cebpf4jnsgd1na2vs0mg"},{"bike_id":"1919d8af-2c65-4a98-82dc-f67d83dfecc8","system_id":"levelo_inurba_marseille","lat":43.23181,"lon":5.43676,"is_reserved":false,"is_disabled":false,"rental_uris":{"android":"levelo://app?vid=1919d8af-2c65-4a98-82dc-f67d83dfecc8","ios":"levelo://app?vid=1919d8af-2c65-4a98-82dc-f67d83dfecc8"},"vehicle_type_id":"4","last_reported":1774010091,"current_range_meters":8800,"station_id":"ce4bhmp2rcd13ifvqgog","pricing_plan_id":"cebpf4jnsgd1na2vs0mg"},{"bike_id":"cf644b4a-b00b-4198-9a69-695c69bc416b","system_id":"levelo_inurba_marseille","lat":43.23065,"lon":5.35485,"is_reserved":false,"is_disabled":false,"rental_uris":{"android":"levelo://app?vid=cf644b4a-b00b-4198-9a69-695c69bc416b","ios":"levelo://app?vid=cf644b4a-b00b-4198-9a69-695c69bc416b"},"vehicle_type_id":"4","last_reported":1774010091,"current_range_meters":8800,"station_id":"cpo3342slgdg3j2ifvpg","pricing_plan_id":"cebpf4jnsgd1na2vs0mg"},{"bike_id":"c5dd7ebb-68db-436a-8324-fe70f36e2ec5","system_id":"levelo_inurba_marseille","lat":43.25936,"lon":5.40893,"is_reserved":false,"is_disabled":false,"rental_uris":{"android":"levelo://app?vid=c5dd7ebb-68db-436a-8324-fe70f36e2ec5","ios":"levelo://app?vid=c5dd7ebb-68db-436a-8324-fe70f36e2ec5"},"vehicle_type_id":"4","last_reported":1774010091,"current_range_meters":8800,"station_id":"ce4bhm92rcd13ifvqglg","pricing_plan_id":"cebpf4jnsgd1na2vs0mg"},{"bike_id":"164ef4bd-d279-4e43-b18f-276ca93b0ec8","system_id":"levelo_inurba_marseille","lat":43.26674,"lon":5.3825,"is_reserved":false,"is_disabled":false,"rental_uris":{"android":"levelo://app?vid=164ef4bd-d279-4e43-b18f-276ca93b0ec8","ios":"levelo://app?vid=164ef4bd-d279-4e43-b18f-276ca93b0ec8"},"vehicle_type_id":"4","last_reported":1774010091,"current_range_meters":8800,"station_id":"ce4bhg92rcd13ifvqf90","pricing_plan_id":"cebpf4jnsgd1na2vs0mg"},{"bike_id":"31f54568-ee2a-4e1a-8776-1ff926e2109d","system_id":"levelo_inurba_marseille","lat":43.27901,"lon":5.37998,"is_reserved":false,"is_disabled":false,"rental_uris":{"android":"levelo://app?vid=31f54568-ee2a-4e1a-8776-1ff926e2109d","ios":"levelo://app?vid=31f54568-ee2a-4e1a-8776-1ff926e2109d"},"vehicle_type_id":"4","last_reported":1774010091,"current_range_meters":9200,"station_id":"ce4bhf92rcd13ifvqf50","pricing_plan_id":"cebpf4jnsgd1na2vs0mg"},{"bike_id":"b63e28c4-e4db-4a92-a9ce-06fc27566f70","system_id":"levelo_inurba_marseille","lat":43.254928,"lon":5.376482,"is_reserved":false,"is_disabled":true,"rental_uris":{"android":"levelo://app?vid=b63e28c4-e4db-4a92-a9ce-06fc27566f70","ios":"levelo://app?vid=b63e28c4-e4db-4a92-a9ce-06fc27566f70"},"vehicle_type_id":"4","last_reported":1774010091,"current_range_meters":9200,"station_id":"ce4bhh12rcd13ifvqff0","pricing_plan_id":"cebpf4jnsgd1na2vs0mg"},{"bike_id":"e2420c11-4646-4145-aa2e-baedb91a43dc","system_id":"levelo_inurba_marseille","lat":43.32085,"lon":5.37096,"is_reserved":false,"is_disabled":false,"rental_uris":{"android":"levelo://app?vid=e2420c11-4646-4145-aa2e-baedb91a43dc","ios":"levelo://app?vid=e2420c11-4646-4145-aa2e-baedb91a43dc"},"vehicle_type_id":"4","last_reported":1774010091,"current_range_meters":9200,"station_id":"","pricing_plan_id":"cebpf4jnsgd1na2vs0mg"},{"bike_id":"d4c6f501-fff5-4202-ab66-c28212c8a314","system_id":"levelo_inurba_marseille","lat":43.23189,"lon":5.39986,"is_reserved":false,"is_disabled":false,"rental_uris":{"android":"levelo://app?vid=d4c6f501-fff5-4202-ab66-c28212c8a314","ios":"levelo://app?vid=d4c6f501-fff5-4202-ab66-c28212c8a314"},"vehicle_type_id":"4","last_reported":1774010091,"current_range_meters":9200,"station_id":"ce4bhn12rcd13ifvqgqg","pricing_plan_id":"cebpf4jnsgd1na2vs0mg"},{"bike_id":"d00ce6b1-d263-4644-9ac8-801c3d34ac19","system_id":"levelo_inurba_marseille","lat":43.22571,"lon":5.41601,"is_reserved":false,"is_disabled":false,"rental_uris":{"android":"levelo://app?vid=d00ce6b1-d263-4644-9ac8-801c3d34ac19","ios":"levelo://app?vid=d00ce6b1-d263-4644-9ac8-801c3d34ac19"},"vehicle_type_id":"4","last_reported":1774010091,"current_range_meters":9200,"station_id":"st_d2o4gvlbi1j2169b742g","pricing_plan_id":"cebpf4jnsgd1na2vs0mg"},{"bike_id":"47786148-3158-4346-a285-e47a9280a644","system_id":"levelo_inurba_marseille","lat":43.26562,"lon":5.39015,"is_reserved":false,"is_disabled":false,"rental_uris":{"android":"levelo://app?vid=47786148-3158-4346-a285-e47a9280a644","ios":"levelo://app?vid=47786148-3158-4346-a285-e47a9280a644"},"vehicle_type_id":"4","last_reported":1774010091,"current_range_meters":9200,"station_id":"ce4bhe12rcd13ifvqf30","pricing_plan_id":"cebpf4jnsgd1na2vs0mg"},{"bike_id":"f3414e99-2d7c-4b03-96db-df8c1c6d3f2b","system_id":"levelo_inurba_marseille","lat":43.28478,"lon":5.48401,"is_reserved":false,"is_disabled":false,"rental_uris":{"android":"levelo://app?vid=f3414e99-2d7c-4b03-96db-df8c1c6d3f2b","ios":"levelo://app?vid=f3414e99-2d7c-4b03-96db-df8c1c6d3f2b"},"vehicle_type_id":"4","last_reported":1774010091,"current_range_meters":9200,"station_id":"","pricing_plan_id":"cebpf4jnsgd1na2vs0mg"},{"bike_id":"ef44b202-9721-4216-b67e-57f456ee14f6","system_id":"levelo_inurba_marseille","lat":43.24805,"lon":5.37451,"is_reserved":false,"is_disabled":false,"rental_uris":{"android":"levelo://app?vid=ef44b202-9721-4216-b67e-57f456ee14f6","ios":"levelo://app?vid=ef44b202-9721-4216-b67e-57f456ee14f6"},"vehicle_type_id":"4","last_reported":1774010091,"current_range_meters":9200,"station_id":"ce4bhgh2rcd13ifvqfb0","pricing_plan_id":"cebpf4jnsgd1na2vs0mg"},{"bike_id":"bfa999de-7a32-454a-b31e-f99ace51a3fc","system_id":"levelo_inurba_marseille","lat":43.28487,"lon":5.48373,"is_reserved":false,"is_disabled":false,"rental_uris":{"android":"levelo://app?vid=bfa999de-7a32-454a-b31e-f99ace51a3fc","ios":"levelo://app?vid=bfa999de-7a32-454a-b31e-f99ace51a3fc"},"vehicle_type_id":"4","last_reported":1774010091,"current_range_meters":9200,"station_id":"","pricing_plan_id":"cebpf4jnsgd1na2vs0mg"},{"bike_id":"b3b3bb0b-fb2d-4490-a557-6f80b344e03f","system_id":"levelo_inurba_marseille","lat":43.28964,"lon":5.39624,"is_reserved":false,"is_disabled":true,"rental_uris":{"android":"levelo://app?vid=b3b3bb0b-fb2d-4490-a557-6f80b344e03f","ios":"levelo://app?vid=b3b3bb0b-fb2d-4490-a557-6f80b344e03f"},"vehicle_type_id":"4","last_reported":1774010091,"current_range_meters":9200,"station_id":"ce4bh3h2rcd13ifvqdn0","pricing_plan_id":"cebpf4jnsgd1na2vs0mg"},{"bike_id":"d83d86a0-48a4-442a-9465-a11cff966d5c","system_id":"levelo_inurba_marseille","lat":43.30488,"lon":5.37868,"is_reserved":false,"is_disabled":false,"rental_uris":{"android":"levelo://app?vid=d83d86a0-48a4-442a-9465-a11cff966d5c","ios":"levelo://app?vid=d83d86a0-48a4-442a-9465-a11cff966d5c"},"vehicle_type_id":"4","last_reported":1774010091,"current_range_meters":9200,"station_id":"","pricing_plan_id":"cebpf4jnsgd1na2vs0mg"},{"bike_id":"ffee91b4-e1f4-4cfe-bfbf-9ca7434cffe2","system_id":"levelo_inurba_marseille","lat":43.2743,"lon":5.39389,"is_reserved":false,"is_disabled":true,"rental_uris":{"android":"levelo://app?vid=ffee91b4-e1f4-4cfe-bfbf-9ca7434cffe2","ios":"levelo://app?vid=ffee91b4-e1f4-4cfe-bfbf-9ca7434cffe2"},"vehicle_type_id":"4","last_reported":1774010091,"current_range_meters":9200,"station_id":"ce4bhdp2rcd13ifvqf20","pricing_plan_id":"cebpf4jnsgd1na2vs0mg"},{"bike_id":"688f3f7f-4027-429d-94b9-fbdb553c93b2","system_id":"levelo_inurba_marseille","lat":43.26549,"lon":5.37298,"is_reserved":false,"is_disabled":false,"rental_uris":{"android":"levelo://app?vid=688f3f7f-4027-429d-94b9-fbdb553c93b2","ios":"levelo://app?vid=688f3f7f-4027-429d-94b9-fbdb553c93b2"},"vehicle_type_id":"4","last_reported":1774010091,"current_range_meters":9200,"station_id":"ce4bhg12rcd13ifvqf70","pricing_plan_id":"cebpf4jnsgd1na2vs0mg"},{"bike_id":"2b86208f-8086-4e01-8e6f-3bdaebe5cd81","system_id":"levelo_inurba_marseille","lat":43.30971,"lon":5.39006,"is_reserved":false,"is_disabled":false,"rental_uris":{"android":"levelo://app?vid=2b86208f-8086-4e01-8e6f-3bdaebe5cd81","ios":"levelo://app?vid=2b86208f-8086-4e01-8e6f-3bdaebe5cd81"},"vehicle_type_id":"4","last_reported":1774010091,"current_range_meters":9200,"station_id":"ce4bgup2rcd13ifvqco0","pricing_plan_id":"cebpf4jnsgd1na2vs0mg"},{"bike_id":"fcbac447-81a4-4750-9ddb-361aed1cd640","system_id":"levelo_inurba_marseille","lat":43.23184,"lon":5.39994,"is_reserved":false,"is_disabled":false,"rental_uris":{"android":"levelo://app?vid=fcbac447-81a4-4750-9ddb-361aed1cd640","ios":"levelo://app?vid=fcbac447-81a4-4750-9ddb-361aed1cd640"},"vehicle_type_id":"4","last_reported":1774010091,"current_range_meters":9200,"station_id":"ce4bhn12rcd13ifvqgqg","pricing_plan_id":"cebpf4jnsgd1na2vs0mg"},{"bike_id":"aef78bd0-ea9a-490e-b29e-79fe1986976a","system_id":"levelo_inurba_marseille","lat":43.24645,"lon":5.38887,"is_reserved":false,"is_disabled":false,"rental_uris":{"android":"levelo://app?vid=aef78bd0-ea9a-490e-b29e-79fe1986976a","ios":"levelo://app?vid=aef78bd0-ea9a-490e-b29e-79fe1986976a"},"vehicle_type_id":"4","last_reported":1774010091,"current_range_meters":9200,"station_id":"ce4bhg12rcd13ifvqf60","pricing_plan_id":"cebpf4jnsgd1na2vs0mg"},{"bike_id":"c49bbaaa-2352-4fdc-b3de-1140d58d5fea","system_id":"levelo_inurba_marseille","lat":43.29183,"lon":5.42751,"is_reserved":false,"is_disabled":false,"rental_uris":{"android":"levelo://app?vid=c49bbaaa-2352-4fdc-b3de-1140d58d5fea","ios":"levelo://app?vid=c49bbaaa-2352-4fdc-b3de-1140d58d5fea"},"vehicle_type_id":"4","last_reported":1774010091,"current_range_meters":9200,"station_id":"","pricing_plan_id":"cebpf4jnsgd1na2vs0mg"},{"bike_id":"15c3e7ad-f871-4796-b17d-a8e4059ab7b4","system_id":"levelo_inurba_marseille","lat":43.28491,"lon":5.3854,"is_reserved":false,"is_disabled":false,"rental_uris":{"android":"levelo://app?vid=15c3e7ad-f871-4796-b17d-a8e4059ab7b4","ios":"levelo://app?vid=15c3e7ad-f871-4796-b17d-a8e4059ab7b4"},"vehicle_type_id":"4","last_reported":1774010091,"current_range_meters":9600,"station_id":"ce4bh8p2rcd13ifvqeb0","pricing_plan_id":"cebpf4jnsgd1na2vs0mg"},{"bike_id":"7f69ea73-8aff-462b-a819-a0809de4b8a2","system_id":"levelo_inurba_marseille","lat":43.30552,"lon":5.36533,"is_reserved":false,"is_disabled":false,"rental_uris":{"android":"levelo://app?vid=7f69ea73-8aff-462b-a819-a0809de4b8a2","ios":"levelo://app?vid=7f69ea73-8aff-462b-a819-a0809de4b8a2"},"vehicle_type_id":"4","last_reported":1774010091,"current_range_meters":9600,"station_id":"ce4bgs12rcd13ifvqcag","pricing_plan_id":"cebpf4jnsgd1na2vs0mg"},{"bike_id":"7416c786-7a8d-42df-ab23-6befc9da1aef","system_id":"levelo_inurba_marseille","lat":43.26552,"lon":5.37282,"is_reserved":false,"is_disabled":false,"rental_uris":{"android":"levelo://app?vid=7416c786-7a8d-42df-ab23-6befc9da1aef","ios":"levelo://app?vid=7416c786-7a8d-42df-ab23-6befc9da1aef"},"vehicle_type_id":"4","last_reported":1774010091,"current_range_meters":9600,"station_id":"ce4bhg12rcd13ifvqf70","pricing_plan_id":"cebpf4jnsgd1na2vs0mg"},{"bike_id":"0868aaec-19e6-45d1-9c23-f06d20ba31e2","system_id":"levelo_inurba_marseille","lat":43.29766,"lon":5.42784,"is_reserved":false,"is_disabled":false,"rental_uris":{"android":"levelo://app?vid=0868aaec-19e6-45d1-9c23-f06d20ba31e2","ios":"levelo://app?vid=0868aaec-19e6-45d1-9c23-f06d20ba31e2"},"vehicle_type_id":"4","last_reported":1774010091,"current_range_meters":9600,"station_id":"st_d3md5207bmas73dh9klg","pricing_plan_id":"cebpf4jnsgd1na2vs0mg"},{"bike_id":"92f32112-8a58-4a2d-8380-c50aa46da344","system_id":"levelo_inurba_marseille","lat":43.24087,"lon":5.36375,"is_reserved":false,"is_disabled":false,"rental_uris":{"android":"levelo://app?vid=92f32112-8a58-4a2d-8380-c50aa46da344","ios":"levelo://app?vid=92f32112-8a58-4a2d-8380-c50aa46da344"},"vehicle_type_id":"4","last_reported":1774010091,"current_range_meters":9600,"station_id":"","pricing_plan_id":"cebpf4jnsgd1na2vs0mg"},{"bike_id":"e0cac70a-102e-45a3-a5cc-d5ba79673d38","system_id":"levelo_inurba_marseille","lat":43.28175,"lon":5.42656,"is_reserved":false,"is_disabled":false,"rental_uris":{"android":"levelo://app?vid=e0cac70a-102e-45a3-a5cc-d5ba79673d38","ios":"levelo://app?vid=e0cac70a-102e-45a3-a5cc-d5ba79673d38"},"vehicle_type_id":"4","last_reported":1774010091,"current_range_meters":9600,"station_id":"ce4bhnh2rcd13ifvqgug","pricing_plan_id":"cebpf4jnsgd1na2vs0mg"},{"bike_id":"ffb1efc1-bc25-42ea-b6a8-d99aad17e440","system_id":"levelo_inurba_marseille","lat":43.31513,"lon":5.37281,"is_reserved":false,"is_disabled":false,"rental_uris":{"android":"levelo://app?vid=ffb1efc1-bc25-42ea-b6a8-d99aad17e440","ios":"levelo://app?vid=ffb1efc1-bc25-42ea-b6a8-d99aad17e440"},"vehicle_type_id":"4","last_reported":1774010091,"current_range_meters":9600,"station_id":"ce4bgt12rcd13ifvqcd0","pricing_plan_id":"cebpf4jnsgd1na2vs0mg"},{"bike_id":"cd58e9b0-0759-409d-8bd2-8e37a9643059","system_id":"levelo_inurba_marseille","lat":43.31061,"lon":5.37173,"is_reserved":false,"is_disabled":false,"rental_uris":{"android":"levelo://app?vid=cd58e9b0-0759-409d-8bd2-8e37a9643059","ios":"levelo://app?vid=cd58e9b0-0759-409d-8bd2-8e37a9643059"},"vehicle_type_id":"4","last_reported":1774010091,"current_range_meters":9600,"station_id":"st_d4kl2rp97mjs73e7tdfg","pricing_plan_id":"cebpf4jnsgd1na2vs0mg"},{"bike_id":"c9b3c56d-e58a-4122-ac1f-e329bf8c6d22","system_id":"levelo_inurba_marseille","lat":43.26681,"lon":5.38251,"is_reserved":false,"is_disabled":false,"rental_uris":{"android":"levelo://app?vid=c9b3c56d-e58a-4122-ac1f-e329bf8c6d22","ios":"levelo://app?vid=c9b3c56d-e58a-4122-ac1f-e329bf8c6d22"},"vehicle_type_id":"4","last_reported":1774010091,"current_range_meters":9600,"station_id":"ce4bhg92rcd13ifvqf90","pricing_plan_id":"cebpf4jnsgd1na2vs0mg"},{"bike_id":"79676942-3051-4c8d-9ec5-fa7181a0eac0","system_id":"levelo_inurba_marseille","lat":43.25114,"lon":5.4033,"is_reserved":false,"is_disabled":false,"rental_uris":{"android":"levelo://app?vid=79676942-3051-4c8d-9ec5-fa7181a0eac0","ios":"levelo://app?vid=79676942-3051-4c8d-9ec5-fa7181a0eac0"},"vehicle_type_id":"4","last_reported":1774010091,"current_range_meters":10000,"station_id":"ce4bhlh2rcd13ifvqgig","pricing_plan_id":"cebpf4jnsgd1na2vs0mg"},{"bike_id":"54b8391b-9041-426a-8386-b4be1f248145","system_id":"levelo_inurba_marseille","lat":43.24991,"lon":5.38929,"is_reserved":false,"is_disabled":false,"rental_uris":{"android":"levelo://app?vid=54b8391b-9041-426a-8386-b4be1f248145","ios":"levelo://app?vid=54b8391b-9041-426a-8386-b4be1f248145"},"vehicle_type_id":"4","last_reported":1774010091,"current_range_meters":10000,"station_id":"ce4bhgp2rcd13ifvqfd0","pricing_plan_id":"cebpf4jnsgd1na2vs0mg"},{"bike_id":"98fd4811-f5fe-471b-acec-fa220e91fa77","system_id":"levelo_inurba_marseille","lat":43.30315,"lon":5.36886,"is_reserved":false,"is_disabled":false,"rental_uris":{"android":"levelo://app?vid=98fd4811-f5fe-471b-acec-fa220e91fa77","ios":"levelo://app?vid=98fd4811-f5fe-471b-acec-fa220e91fa77"},"vehicle_type_id":"4","last_reported":1774010091,"current_range_meters":10000,"station_id":"ce4bgqh2rcd13ifvqc5g","pricing_plan_id":"cebpf4jnsgd1na2vs0mg"},{"bike_id":"cc777a7e-f3d4-4026-819d-66c6f1a5d2b6","system_id":"levelo_inurba_marseille","lat":43.29216,"lon":5.42587,"is_reserved":false,"is_disabled":false,"rental_uris":{"android":"levelo://app?vid=cc777a7e-f3d4-4026-819d-66c6f1a5d2b6","ios":"levelo://app?vid=cc777a7e-f3d4-4026-819d-66c6f1a5d2b6"},"vehicle_type_id":"4","last_reported":1774010091,"current_range_meters":10000,"station_id":"","pricing_plan_id":"cebpf4jnsgd1na2vs0mg"},{"bike_id":"3676a395-9d4a-4d07-81c5-7b1d4a0acb38","system_id":"levelo_inurba_marseille","lat":43.31524,"lon":5.37281,"is_reserved":false,"is_disabled":false,"rental_uris":{"android":"levelo://app?vid=3676a395-9d4a-4d07-81c5-7b1d4a0acb38","ios":"levelo://app?vid=3676a395-9d4a-4d07-81c5-7b1d4a0acb38"},"vehicle_type_id":"4","last_reported":1774010091,"current_range_meters":10000,"station_id":"","pricing_plan_id":"cebpf4jnsgd1na2vs0mg"},{"bike_id":"360fd481-1b79-4851-bf35-4750a475ff1d","system_id":"levelo_inurba_marseille","lat":43.28624,"lon":5.35083,"is_reserved":false,"is_disabled":false,"rental_uris":{"android":"levelo://app?vid=360fd481-1b79-4851-bf35-4750a475ff1d","ios":"levelo://app?vid=360fd481-1b79-4851-bf35-4750a475ff1d"},"vehicle_type_id":"4","last_reported":1774010091,"current_range_meters":10000,"station_id":"ce4bhch2rcd13ifvqeug","pricing_plan_id":"cebpf4jnsgd1na2vs0mg"},{"bike_id":"5823234a-ebe5-4f73-a6ca-e22e8e37fb65","system_id":"levelo_inurba_marseille","lat":43.30814,"lon":5.37618,"is_reserved":false,"is_disabled":true,"rental_uris":{"android":"levelo://app?vid=5823234a-ebe5-4f73-a6ca-e22e8e37fb65","ios":"levelo://app?vid=5823234a-ebe5-4f73-a6ca-e22e8e37fb65"},"vehicle_type_id":"4","last_reported":1774010091,"current_range_meters":10000,"station_id":"ce4bgv92rcd13ifvqcq0","pricing_plan_id":"cebpf4jnsgd1na2vs0mg"},{"bike_id":"26e56ee0-fc26-4c5d-8125-03580af7854e","system_id":"levelo_inurba_marseille","lat":43.31515,"lon":5.37318,"is_reserved":false,"is_disabled":false,"rental_uris":{"android":"levelo://app?vid=26e56ee0-fc26-4c5d-8125-03580af7854e","ios":"levelo://app?vid=26e56ee0-fc26-4c5d-8125-03580af7854e"},"vehicle_type_id":"4","last_reported":1774010091,"current_range_meters":10000,"station_id":"ce4bgt12rcd13ifvqcd0","pricing_plan_id":"cebpf4jnsgd1na2vs0mg"},{"bike_id":"082220aa-d370-432c-9051-6818fbf15d1d","system_id":"levelo_inurba_marseille","lat":43.31231,"lon":5.3683,"is_reserved":false,"is_disabled":true,"rental_uris":{"android":"levelo://app?vid=082220aa-d370-432c-9051-6818fbf15d1d","ios":"levelo://app?vid=082220aa-d370-432c-9051-6818fbf15d1d"},"vehicle_type_id":"4","last_reported":1774010091,"current_range_meters":10000,"station_id":"ce4bgl92rcd13ifvqbq0","pricing_plan_id":"cebpf4jnsgd1na2vs0mg"},{"bike_id":"bb64248e-0e5d-4ee1-9d8f-d48a0dd77d66","system_id":"levelo_inurba_marseille","lat":43.21629,"lon":5.34465,"is_reserved":false,"is_disabled":false,"rental_uris":{"android":"levelo://app?vid=bb64248e-0e5d-4ee1-9d8f-d48a0dd77d66","ios":"levelo://app?vid=bb64248e-0e5d-4ee1-9d8f-d48a0dd77d66"},"vehicle_type_id":"4","last_reported":1774010091,"current_range_meters":10000,"station_id":"","pricing_plan_id":"cebpf4jnsgd1na2vs0mg"},{"bike_id":"420f82c5-ff93-45c1-9f1a-4270c5955f6f","system_id":"levelo_inurba_marseille","lat":43.26214,"lon":5.40463,"is_reserved":false,"is_disabled":false,"rental_uris":{"android":"levelo://app?vid=420f82c5-ff93-45c1-9f1a-4270c5955f6f","ios":"levelo://app?vid=420f82c5-ff93-45c1-9f1a-4270c5955f6f"},"vehicle_type_id":"4","last_reported":1774010091,"current_range_meters":10000,"station_id":"ce4bhmh2rcd13ifvqgmg","pricing_plan_id":"cebpf4jnsgd1na2vs0mg"},{"bike_id":"c86bc19f-cacf-4edb-af3a-b8bffca50dfc","system_id":"levelo_inurba_marseille","lat":43.2842,"lon":5.3498,"is_reserved":false,"is_disabled":false,"rental_uris":{"android":"levelo://app?vid=c86bc19f-cacf-4edb-af3a-b8bffca50dfc","ios":"levelo://app?vid=c86bc19f-cacf-4edb-af3a-b8bffca50dfc"},"vehicle_type_id":"4","last_reported":1774010091,"current_range_meters":10000,"station_id":"ce4bhbh2rcd13ifvqepg","pricing_plan_id":"cebpf4jnsgd1na2vs0mg"},{"bike_id":"26066282-ccc8-4b9b-9f39-dc5c97caee4b","system_id":"levelo_inurba_marseille","lat":43.28269,"lon":5.35063,"is_reserved":false,"is_disabled":false,"rental_uris":{"android":"levelo://app?vid=26066282-ccc8-4b9b-9f39-dc5c97caee4b","ios":"levelo://app?vid=26066282-ccc8-4b9b-9f39-dc5c97caee4b"},"vehicle_type_id":"4","last_reported":1774010091,"current_range_meters":10000,"station_id":"ce4bhbp2rcd13ifvqerg","pricing_plan_id":"cebpf4jnsgd1na2vs0mg"},{"bike_id":"f44e27c5-d3c1-470f-b047-cface7316b82","system_id":"levelo_inurba_marseille","lat":43.31232,"lon":5.36899,"is_reserved":false,"is_disabled":false,"rental_uris":{"android":"levelo://app?vid=f44e27c5-d3c1-470f-b047-cface7316b82","ios":"levelo://app?vid=f44e27c5-d3c1-470f-b047-cface7316b82"},"vehicle_type_id":"4","last_reported":1774010091,"current_range_meters":10000,"station_id":"ce4bgl92rcd13ifvqbq0","pricing_plan_id":"cebpf4jnsgd1na2vs0mg"},{"bike_id":"21ae8af0-d0ad-42af-9050-72e80d970c46","system_id":"levelo_inurba_marseille","lat":43.2895,"lon":5.36392,"is_reserved":false,"is_disabled":false,"rental_uris":{"android":"levelo://app?vid=21ae8af0-d0ad-42af-9050-72e80d970c46","ios":"levelo://app?vid=21ae8af0-d0ad-42af-9050-72e80d970c46"},"vehicle_type_id":"4","last_reported":1774010091,"current_range_meters":10000,"station_id":"ce4bhc92rcd13ifvqetg","pricing_plan_id":"cebpf4jnsgd1na2vs0mg"},{"bike_id":"ab712094-d8cf-49ff-b926-80dc138ff2ae","system_id":"levelo_inurba_marseille","lat":43.23167,"lon":5.43704,"is_reserved":false,"is_disabled":false,"rental_uris":{"android":"levelo://app?vid=ab712094-d8cf-49ff-b926-80dc138ff2ae","ios":"levelo://app?vid=ab712094-d8cf-49ff-b926-80dc138ff2ae"},"vehicle_type_id":"4","last_reported":1774010091,"current_range_meters":10800,"station_id":"ce4bhmp2rcd13ifvqgog","pricing_plan_id":"cebpf4jnsgd1na2vs0mg"},{"bike_id":"383536d7-4576-45c9-8ba0-0246348934c0","system_id":"levelo_inurba_marseille","lat":43.29937,"lon":5.36546,"is_reserved":false,"is_disabled":false,"rental_uris":{"android":"levelo://app?vid=383536d7-4576-45c9-8ba0-0246348934c0","ios":"levelo://app?vid=383536d7-4576-45c9-8ba0-0246348934c0"},"vehicle_type_id":"4","last_reported":1774010091,"current_range_meters":10800,"station_id":"ce4bgm92rcd13ifvqbr0","pricing_plan_id":"cebpf4jnsgd1na2vs0mg"},{"bike_id":"de960b48-3a2d-4a77-892c-1b36776932b9","system_id":"levelo_inurba_marseille","lat":43.30534,"lon":5.38432,"is_reserved":false,"is_disabled":false,"rental_uris":{"android":"levelo://app?vid=de960b48-3a2d-4a77-892c-1b36776932b9","ios":"levelo://app?vid=de960b48-3a2d-4a77-892c-1b36776932b9"},"vehicle_type_id":"4","last_reported":1774010091,"current_range_meters":10800,"station_id":"ce4bgg92rcd13ifvqb30","pricing_plan_id":"cebpf4jnsgd1na2vs0mg"},{"bike_id":"9fc3100e-4d82-48d6-89bc-f6f291702956","system_id":"levelo_inurba_marseille","lat":43.31766,"lon":5.39031,"is_reserved":false,"is_disabled":false,"rental_uris":{"android":"levelo://app?vid=9fc3100e-4d82-48d6-89bc-f6f291702956","ios":"levelo://app?vid=9fc3100e-4d82-48d6-89bc-f6f291702956"},"vehicle_type_id":"4","last_reported":1774010091,"current_range_meters":10800,"station_id":"ce4bhqp2rcd13ifvqhng","pricing_plan_id":"cebpf4jnsgd1na2vs0mg"},{"bike_id":"bddc0248-0f74-4f8a-9f25-d71d28d9f7cc","system_id":"levelo_inurba_marseille","lat":43.25579,"lon":5.38244,"is_reserved":false,"is_disabled":false,"rental_uris":{"android":"levelo://app?vid=bddc0248-0f74-4f8a-9f25-d71d28d9f7cc","ios":"levelo://app?vid=bddc0248-0f74-4f8a-9f25-d71d28d9f7cc"},"vehicle_type_id":"4","last_reported":1774010091,"current_range_meters":10800,"station_id":"ce4bhih2rcd13ifvqfs0","pricing_plan_id":"cebpf4jnsgd1na2vs0mg"},{"bike_id":"012c8d3f-083d-424d-a884-f5725bcf6481","system_id":"levelo_inurba_marseille","lat":43.29769,"lon":5.37093,"is_reserved":false,"is_disabled":false,"rental_uris":{"android":"levelo://app?vid=012c8d3f-083d-424d-a884-f5725bcf6481","ios":"levelo://app?vid=012c8d3f-083d-424d-a884-f5725bcf6481"},"vehicle_type_id":"4","last_reported":1774010091,"current_range_meters":10800,"station_id":"ce4bgop2rcd13ifvqc1g","pricing_plan_id":"cebpf4jnsgd1na2vs0mg"},{"bike_id":"df5ad533-8354-43dd-b4db-d4118becde63","system_id":"levelo_inurba_marseille","lat":43.28537,"lon":5.48305,"is_reserved":false,"is_disabled":false,"rental_uris":{"android":"levelo://app?vid=df5ad533-8354-43dd-b4db-d4118becde63","ios":"levelo://app?vid=df5ad533-8354-43dd-b4db-d4118becde63"},"vehicle_type_id":"4","last_reported":1774010091,"current_range_meters":10800,"station_id":"","pricing_plan_id":"cebpf4jnsgd1na2vs0mg"},{"bike_id":"5cedefe2-ed17-4452-9933-659cd1a0200b","system_id":"levelo_inurba_marseille","lat":43.30318,"lon":5.369,"is_reserved":false,"is_disabled":false,"rental_uris":{"android":"levelo://app?vid=5cedefe2-ed17-4452-9933-659cd1a0200b","ios":"levelo://app?vid=5cedefe2-ed17-4452-9933-659cd1a0200b"},"vehicle_type_id":"4","last_reported":1774010091,"current_range_meters":10800,"station_id":"ce4bgqh2rcd13ifvqc5g","pricing_plan_id":"cebpf4jnsgd1na2vs0mg"},{"bike_id":"3727d6e3-4577-49ea-959e-93a5e09450a3","system_id":"levelo_inurba_marseille","lat":43.31447,"lon":5.40068,"is_reserved":false,"is_disabled":false,"rental_uris":{"android":"levelo://app?vid=3727d6e3-4577-49ea-959e-93a5e09450a3","ios":"levelo://app?vid=3727d6e3-4577-49ea-959e-93a5e09450a3"},"vehicle_type_id":"4","last_reported":1774010091,"current_range_meters":10800,"station_id":"","pricing_plan_id":"cebpf4jnsgd1na2vs0mg"},{"bike_id":"7db5496d-09d6-4603-99f4-8236883013ea","system_id":"levelo_inurba_marseille","lat":43.27077,"lon":5.42292,"is_reserved":false,"is_disabled":false,"rental_uris":{"android":"levelo://app?vid=7db5496d-09d6-4603-99f4-8236883013ea","ios":"levelo://app?vid=7db5496d-09d6-4603-99f4-8236883013ea"},"vehicle_type_id":"4","last_reported":1774010091,"current_range_meters":10800,"station_id":"ce4bhk92rcd13ifvqgb0","pricing_plan_id":"cebpf4jnsgd1na2vs0mg"},{"bike_id":"d9a2340f-4dc0-456b-89f0-454af4d93a65","system_id":"levelo_inurba_marseille","lat":43.28494,"lon":5.3512,"is_reserved":false,"is_disabled":false,"rental_uris":{"android":"levelo://app?vid=d9a2340f-4dc0-456b-89f0-454af4d93a65","ios":"levelo://app?vid=d9a2340f-4dc0-456b-89f0-454af4d93a65"},"vehicle_type_id":"4","last_reported":1774010091,"current_range_meters":10800,"station_id":"","pricing_plan_id":"cebpf4jnsgd1na2vs0mg"},{"bike_id":"a8ec2749-dc44-4f65-b4b6-5e6dec576433","system_id":"levelo_inurba_marseille","lat":43.27818,"lon":5.40706,"is_reserved":false,"is_disabled":false,"rental_uris":{"android":"levelo://app?vid=a8ec2749-dc44-4f65-b4b6-5e6dec576433","ios":"levelo://app?vid=a8ec2749-dc44-4f65-b4b6-5e6dec576433"},"vehicle_type_id":"4","last_reported":1774010091,"current_range_meters":10800,"station_id":"ce4bhnh2rcd13ifvqgtg","pricing_plan_id":"cebpf4jnsgd1na2vs0mg"},{"bike_id":"2b15899e-8abb-46ce-a672-e497d3bf290b","system_id":"levelo_inurba_marseille","lat":43.32673,"lon":5.40997,"is_reserved":false,"is_disabled":false,"rental_uris":{"android":"levelo://app?vid=2b15899e-8abb-46ce-a672-e497d3bf290b","ios":"levelo://app?vid=2b15899e-8abb-46ce-a672-e497d3bf290b"},"vehicle_type_id":"4","last_reported":1774010091,"current_range_meters":11200,"station_id":"ce4bhpp2rcd13ifvqhgg","pricing_plan_id":"cebpf4jnsgd1na2vs0mg"},{"bike_id":"36750a5a-e715-404b-ab4e-4dfa557014c3","system_id":"levelo_inurba_marseille","lat":43.24462,"lon":5.42541,"is_reserved":false,"is_disabled":false,"rental_uris":{"android":"levelo://app?vid=36750a5a-e715-404b-ab4e-4dfa557014c3","ios":"levelo://app?vid=36750a5a-e715-404b-ab4e-4dfa557014c3"},"vehicle_type_id":"4","last_reported":1774010091,"current_range_meters":11200,"station_id":"st_d4a3vfp97mjs738cd8kg","pricing_plan_id":"cebpf4jnsgd1na2vs0mg"},{"bike_id":"504f4727-53de-409f-a2cb-7201e581069d","system_id":"levelo_inurba_marseille","lat":43.29803,"lon":5.38106,"is_reserved":false,"is_disabled":false,"rental_uris":{"android":"levelo://app?vid=504f4727-53de-409f-a2cb-7201e581069d","ios":"levelo://app?vid=504f4727-53de-409f-a2cb-7201e581069d"},"vehicle_type_id":"4","last_reported":1774010091,"current_range_meters":11200,"station_id":"ce4bgip2rcd13ifvqbb0","pricing_plan_id":"cebpf4jnsgd1na2vs0mg"},{"bike_id":"8dad645a-02b8-4a02-a5f6-e325b00efd57","system_id":"levelo_inurba_marseille","lat":43.26243,"lon":5.38779,"is_reserved":false,"is_disabled":false,"rental_uris":{"android":"levelo://app?vid=8dad645a-02b8-4a02-a5f6-e325b00efd57","ios":"levelo://app?vid=8dad645a-02b8-4a02-a5f6-e325b00efd57"},"vehicle_type_id":"4","last_reported":1774010091,"current_range_meters":11200,"station_id":"","pricing_plan_id":"cebpf4jnsgd1na2vs0mg"},{"bike_id":"3ed078f5-5498-466f-b8bc-cc4221a03208","system_id":"levelo_inurba_marseille","lat":43.30172,"lon":5.37407,"is_reserved":false,"is_disabled":false,"rental_uris":{"android":"levelo://app?vid=3ed078f5-5498-466f-b8bc-cc4221a03208","ios":"levelo://app?vid=3ed078f5-5498-466f-b8bc-cc4221a03208"},"vehicle_type_id":"4","last_reported":1774010091,"current_range_meters":11200,"station_id":"ce4bgs92rcd13ifvqcc0","pricing_plan_id":"cebpf4jnsgd1na2vs0mg"},{"bike_id":"8ff4739f-da8f-493e-b609-b54b4435f7a9","system_id":"levelo_inurba_marseille","lat":43.30956,"lon":5.39043,"is_reserved":false,"is_disabled":false,"rental_uris":{"android":"levelo://app?vid=8ff4739f-da8f-493e-b609-b54b4435f7a9","ios":"levelo://app?vid=8ff4739f-da8f-493e-b609-b54b4435f7a9"},"vehicle_type_id":"4","last_reported":1774010091,"current_range_meters":11200,"station_id":"ce4bgup2rcd13ifvqco0","pricing_plan_id":"cebpf4jnsgd1na2vs0mg"},{"bike_id":"1fc7187b-cbcb-4711-84aa-744d6593ecae","system_id":"levelo_inurba_marseille","lat":43.28265,"lon":5.35097,"is_reserved":false,"is_disabled":false,"rental_uris":{"android":"levelo://app?vid=1fc7187b-cbcb-4711-84aa-744d6593ecae","ios":"levelo://app?vid=1fc7187b-cbcb-4711-84aa-744d6593ecae"},"vehicle_type_id":"4","last_reported":1774010091,"current_range_meters":11200,"station_id":"ce4bhbp2rcd13ifvqerg","pricing_plan_id":"cebpf4jnsgd1na2vs0mg"},{"bike_id":"a9ca645c-495f-4e35-a2f0-ebfe99c4421f","system_id":"levelo_inurba_marseille","lat":43.26977,"lon":5.38708,"is_reserved":false,"is_disabled":true,"rental_uris":{"android":"levelo://app?vid=a9ca645c-495f-4e35-a2f0-ebfe99c4421f","ios":"levelo://app?vid=a9ca645c-495f-4e35-a2f0-ebfe99c4421f"},