{"last_updated":1721516846,"ttl":30,"version":"2.2","data":{"bikes":[{"bike_id":"576dd87b-7b54-497f-bc24-34588c84e871","system_id":"levelo_inurba_marseille","lat":43.312239,"lon":5.368562,"is_reserved":false,"is_disabled":false,"rental_uris":{"android":"levelo://app?vid=576dd87b-7b54-497f-bc24-34588c84e871","ios":"levelo://app?vid=576dd87b-7b54-497f-bc24-34588c84e871"},"vehicle_type_id":"4","last_reported":1721516846,"current_range_meters":1600,"station_id":"ce4bgl92rcd13ifvqbq0","pricing_plan_id":"cebpf4jnsgd1na2vs0mg"},{"bike_id":"d4714bca-3bf2-4ae2-923c-72fe1aca53cb","system_id":"levelo_inurba_marseille","lat":43.312239,"lon":5.368562,"is_reserved":false,"is_disabled":false,"rental_uris":{"android":"levelo://app?vid=d4714bca-3bf2-4ae2-923c-72fe1aca53cb","ios":"levelo://app?vid=d4714bca-3bf2-4ae2-923c-72fe1aca53cb"},"vehicle_type_id":"4","last_reported":1721516846,"current_range_meters":800,"station_id":"ce4bgl92rcd13ifvqbq0","pricing_plan_id":"cebpf4jnsgd1na2vs0mg"},{"bike_id":"be7b53ca-c6af-430e-9ca5-90e026bbae79","system_id":"levelo_inurba_marseille","lat":43.312239,"lon":5.368562,"is_reserved":false,"is_disabled":false,"rental_uris":{"android":"levelo://app?vid=be7b53ca-c6af-430e-9ca5-90e026bbae79","ios":"levelo://app?vid=be7b53ca-c6af-430e-9ca5-90e026bbae79"},"vehicle_type_id":"4","last_reported":1721516846,"current_range_meters":23200,"station_id":"ce4bgl92rcd13ifvqbq0","pricing_plan_id":"cebpf4jnsgd1na2vs0mg"},{"bike_id":"e7bb21b1-187c-446c-83f3-e51fe3fc6a05","system_id":"levelo_inurba_marseille","lat":43.31215,"lon":5.36875,"is_reserved":false,"is_disabled":false,"rental_uris":{"android":"levelo://app?vid=e7bb21b1-187c-446c-83f3-e51fe3fc6a05","ios":"levelo://app?vid=e7bb21b1-187c-446c-83f3-e51fe3fc6a05"},"vehicle_type_id":"4","last_reported":1721516846,"current_range_meters":28800,"station_id":"ce4bgl92rcd13ifvqbq0","pricing_plan_id":"cebpf4jnsgd1na2vs0mg"},{"bike_id":"72d926e9-6ed7-4cb1-96cd-0871ec1810bb","system_id":"levelo_inurba_marseille","lat":43.314811,"lon":5.373103,"is_reserved":false,"is_disabled":false,"rental_uris":{"android":"levelo://app?vid=72d926e9-6ed7-4cb1-96cd-0871ec1810bb","ios":"levelo://app?vid=72d926e9-6ed7-4cb1-96cd-0871ec1810bb"},"vehicle_type_id":"4","last_reported":1721516846,"current_range_meters":18000,"station_id":"ce4bgt12rcd13ifvqcd0","pricing_plan_id":"cebpf4jnsgd1na2vs0mg"},{"bike_id":"c2bd955e-542d-42fe-9612-c7463f5af12a","system_id":"levelo_inurba_marseille","lat":43.314811,"lon":5.373103,"is_reserved":false,"is_disabled":false,"rental_uris":{"android":"levelo://app?vid=c2bd955e-542d-42fe-9612-c7463f5af12a","ios":"levelo://app?vid=c2bd955e-542d-42fe-9612-c7463f5af12a"},"vehicle_type_id":"4","last_reported":1721516846,"current_range_meters":22800,"station_id":"ce4bgt12rcd13ifvqcd0","pricing_plan_id":"cebpf4jnsgd1na2vs0mg"},{"bike_id":"b3a1c30b-a375-4cbf-b59f-81e069cf42ce","system_id":"levelo_inurba_marseille","lat":43.314811,"lon":5.373103,"is_reserved":false,"is_disabled":false,"rental_uris":{"android":"levelo://app?vid=b3a1c30b-a375-4cbf-b59f-81e069cf42ce","ios":"levelo://app?vid=b3a1c30b-a375-4cbf-b59f-81e069cf42ce"},"vehicle_type_id":"4","last_reported":1721516846,"current_range_meters":30000,"station_id":"ce4bgt12rcd13ifvqcd0","pricing_plan_id":"cebpf4jnsgd1na2vs0mg"},{"bike_id":"fd9dd0ec-1fd6-45e3-927d-175a9f543e3a","system_id":"levelo_inurba_marseille","lat":43.314811,"lon":5.373103,"is_reserved":false,"is_disabled":false,"rental_uris":{"android":"levelo://app?vid=fd9dd0ec-1fd6-45e3-927d-175a9f543e3a","ios":"levelo://app?vid=fd9dd0ec-1fd6-45e3-927d-175a9f543e3a"},"vehicle_type_id":"4","last_reported":1721516846,"current_range_meters":9600,"station_id":"ce4bgt12rcd13ifvqcd0","pricing_plan_id":"cebpf4jnsgd1na2vs0mg"},{"bike_id":"21e8b330-750d-43fb-9e3d-b3d8f515091d","system_id":"levelo_inurba_marseille","lat":43.314811,"lon":5.373103,"is_reserved":false,"is_disabled":false,"rental_uris":{"android":"levelo://app?vid=21e8b330-750d-43fb-9e3d-b3d8f515091d","ios":"levelo://app?vid=21e8b330-750d-43fb-9e3d-b3d8f515091d"},"vehicle_type_id":"4","last_reported":1721516846,"current_range_meters":16400,"station_id":"ce4bgt12rcd13ifvqcd0","pricing_plan_id":"cebpf4jnsgd1na2vs0mg"},{"bike_id":"8b2d07bc-1390-4f78-abd1-a2acb37a6625","system_id":"levelo_inurba_marseille","lat":43.314811,"lon":5.373103,"is_reserved":false,"is_disabled":false,"rental_uris":{"android":"levelo://app?vid=8b2d07bc-1390-4f78-abd1-a2acb37a6625","ios":"levelo://app?vid=8b2d07bc-1390-4f78-abd1-a2acb37a6625"},"vehicle_type_id":"4","last_reported":1721516846,"current_range_meters":21600,"station_id":"ce4bgt12rcd13ifvqcd0","pricing_plan_id":"cebpf4jnsgd1na2vs0mg"},{"bike_id":"be6f20e7-20a4-4781-8691-e4e1097d99f5","system_id":"levelo_inurba_marseille","lat":43.314811,"lon":5.373103,"is_reserved":false,"is_disabled":false,"rental_uris":{"android":"levelo://app?vid=be6f20e7-20a4-4781-8691-e4e1097d99f5","ios":"levelo://app?vid=be6f20e7-20a4-4781-8691-e4e1097d99f5"},"vehicle_type_id":"4","last_reported":1721516846,"current_range_meters":400,"station_id":"ce4bgt12rcd13ifvqcd0","pricing_plan_id":"cebpf4jnsgd1na2vs0mg"},{"bike_id":"05d52551-006a-404b-ac2d-1f69ffddecf5","system_id":"levelo_inurba_marseille","lat":43.31491,"lon":5.37312,"is_reserved":false,"is_disabled":false,"rental_uris":{"android":"levelo://app?vid=05d52551-006a-404b-ac2d-1f69ffddecf5","ios":"levelo://app?vid=05d52551-006a-404b-ac2d-1f69ffddecf5"},"vehicle_type_id":"4","last_reported":1721516846,"current_range_meters":4400,"station_id":"ce4bgt12rcd13ifvqcd0","pricing_plan_id":"cebpf4jnsgd1na2vs0mg"},{"bike_id":"6ab613aa-8d1e-42b1-9a83-4aea6bb0211a","system_id":"levelo_inurba_marseille","lat":43.31493,"lon":5.37311,"is_reserved":false,"is_disabled":false,"rental_uris":{"android":"levelo://app?vid=6ab613aa-8d1e-42b1-9a83-4aea6bb0211a","ios":"levelo://app?vid=6ab613aa-8d1e-42b1-9a83-4aea6bb0211a"},"vehicle_type_id":"4","last_reported":1721516846,"current_range_meters":15600,"station_id":"ce4bgt12rcd13ifvqcd0","pricing_plan_id":"cebpf4jnsgd1na2vs0mg"},{"bike_id":"28ad5533-2626-49c9-ae0e-7eb911a967f8","system_id":"levelo_inurba_marseille","lat":43.314811,"lon":5.373103,"is_reserved":false,"is_disabled":false,"rental_uris":{"android":"levelo://app?vid=28ad5533-2626-49c9-ae0e-7eb911a967f8","ios":"levelo://app?vid=28ad5533-2626-49c9-ae0e-7eb911a967f8"},"vehicle_type_id":"4","last_reported":1721516846,"current_range_meters":6000,"station_id":"ce4bgt12rcd13ifvqcd0","pricing_plan_id":"cebpf4jnsgd1na2vs0mg"},{"bike_id":"3b3c79fd-a67c-42fb-b05e-80e13db12e36","system_id":"levelo_inurba_marseille","lat":43.309039,"lon":5.371797,"is_reserved":false,"is_disabled":false,"rental_uris":{"android":"levelo://app?vid=3b3c79fd-a67c-42fb-b05e-80e13db12e36","ios":"levelo://app?vid=3b3c79fd-a67c-42fb-b05e-80e13db12e36"},"vehicle_type_id":"4","last_reported":1721516846,"current_range_meters":4800,"station_id":"ce4bguh2rcd13ifvqckg","pricing_plan_id":"cebpf4jnsgd1na2vs0mg"},{"bike_id":"32bf86fb-39c7-4520-b12e-60e8f91c25e9","system_id":"levelo_inurba_marseille","lat":43.30643,"lon":5.36802,"is_reserved":false,"is_disabled":false,"rental_uris":{"android":"levelo://app?vid=32bf86fb-39c7-4520-b12e-60e8f91c25e9","ios":"levelo://app?vid=32bf86fb-39c7-4520-b12e-60e8f91c25e9"},"vehicle_type_id":"4","last_reported":1721516846,"current_range_meters":30400,"station_id":"","pricing_plan_id":"cebpf4jnsgd1na2vs0mg"},{"bike_id":"3f42619e-f320-4a8f-a6dc-83b71473b3ac","system_id":"levelo_inurba_marseille","lat":43.305706,"lon":5.365654,"is_reserved":false,"is_disabled":false,"rental_uris":{"android":"levelo://app?vid=3f42619e-f320-4a8f-a6dc-83b71473b3ac","ios":"levelo://app?vid=3f42619e-f320-4a8f-a6dc-83b71473b3ac"},"vehicle_type_id":"4","last_reported":1721516846,"current_range_meters":28000,"station_id":"ce4bgs12rcd13ifvqcag","pricing_plan_id":"cebpf4jnsgd1na2vs0mg"},{"bike_id":"a5647cad-9a9f-406a-b4b3-7a7a47e15ff6","system_id":"levelo_inurba_marseille","lat":43.311125,"lon":5.377624,"is_reserved":false,"is_disabled":false,"rental_uris":{"android":"levelo://app?vid=a5647cad-9a9f-406a-b4b3-7a7a47e15ff6","ios":"levelo://app?vid=a5647cad-9a9f-406a-b4b3-7a7a47e15ff6"},"vehicle_type_id":"4","last_reported":1721516846,"current_range_meters":0,"station_id":"ce4bgt92rcd13ifvqcg0","pricing_plan_id":"cebpf4jnsgd1na2vs0mg"},{"bike_id":"6177dd89-9ce6-4dd9-89b2-1a74518e5828","system_id":"levelo_inurba_marseille","lat":43.31116,"lon":5.37769,"is_reserved":false,"is_disabled":false,"rental_uris":{"android":"levelo://app?vid=6177dd89-9ce6-4dd9-89b2-1a74518e5828","ios":"levelo://app?vid=6177dd89-9ce6-4dd9-89b2-1a74518e5828"},"vehicle_type_id":"4","last_reported":1721516846,"current_range_meters":0,"station_id":"ce4bgt92rcd13ifvqcg0","pricing_plan_id":"cebpf4jnsgd1na2vs0mg"},{"bike_id":"9533b94d-4896-47e2-87b5-04b892cccbbf","system_id":"levelo_inurba_marseille","lat":43.31118,"lon":5.37777,"is_reserved":false,"is_disabled":false,"rental_uris":{"android":"levelo://app?vid=9533b94d-4896-47e2-87b5-04b892cccbbf","ios":"levelo://app?vid=9533b94d-4896-47e2-87b5-04b892cccbbf"},"vehicle_type_id":"4","last_reported":1721516846,"current_range_meters":5600,"station_id":"ce4bgt92rcd13ifvqcg0","pricing_plan_id":"cebpf4jnsgd1na2vs0mg"},{"bike_id":"f61c78aa-52ea-4423-93fb-dc9cf3b8736f","system_id":"levelo_inurba_marseille","lat":43.311131,"lon":5.377651,"is_reserved":false,"is_disabled":false,"rental_uris":{"android":"levelo://app?vid=f61c78aa-52ea-4423-93fb-dc9cf3b8736f","ios":"levelo://app?vid=f61c78aa-52ea-4423-93fb-dc9cf3b8736f"},"vehicle_type_id":"4","last_reported":1721516846,"current_range_meters":25600,"station_id":"ce4bgt92rcd13ifvqcg0","pricing_plan_id":"cebpf4jnsgd1na2vs0mg"},{"bike_id":"9c72d8c9-d7c8-4a52-b2c4-f23c160139a8","system_id":"levelo_inurba_marseille","lat":43.307945,"lon":5.376487,"is_reserved":false,"is_disabled":false,"rental_uris":{"android":"levelo://app?vid=9c72d8c9-d7c8-4a52-b2c4-f23c160139a8","ios":"levelo://app?vid=9c72d8c9-d7c8-4a52-b2c4-f23c160139a8"},"vehicle_type_id":"4","last_reported":1721516846,"current_range_meters":10400,"station_id":"ce4bgv92rcd13ifvqcq0","pricing_plan_id":"cebpf4jnsgd1na2vs0mg"},{"bike_id":"1b1928b9-c220-438c-b1c0-1c95f4d9cf94","system_id":"levelo_inurba_marseille","lat":43.317075,"lon":5.377367,"is_reserved":false,"is_disabled":false,"rental_uris":{"android":"levelo://app?vid=1b1928b9-c220-438c-b1c0-1c95f4d9cf94","ios":"levelo://app?vid=1b1928b9-c220-438c-b1c0-1c95f4d9cf94"},"vehicle_type_id":"4","last_reported":1721516846,"current_range_meters":22400,"station_id":"ce4bgth2rcd13ifvqch0","pricing_plan_id":"cebpf4jnsgd1na2vs0mg"},{"bike_id":"f460199d-0c60-4149-ab41-bfbe68a31b14","system_id":"levelo_inurba_marseille","lat":43.317075,"lon":5.377367,"is_reserved":false,"is_disabled":false,"rental_uris":{"android":"levelo://app?vid=f460199d-0c60-4149-ab41-bfbe68a31b14","ios":"levelo://app?vid=f460199d-0c60-4149-ab41-bfbe68a31b14"},"vehicle_type_id":"4","last_reported":1721516846,"current_range_meters":5600,"station_id":"ce4bgth2rcd13ifvqch0","pricing_plan_id":"cebpf4jnsgd1na2vs0mg"},{"bike_id":"6974de72-642b-43e6-be03-a2d5362db180","system_id":"levelo_inurba_marseille","lat":43.317075,"lon":5.377367,"is_reserved":false,"is_disabled":false,"rental_uris":{"android":"levelo://app?vid=6974de72-642b-43e6-be03-a2d5362db180","ios":"levelo://app?vid=6974de72-642b-43e6-be03-a2d5362db180"},"vehicle_type_id":"4","last_reported":1721516846,"current_range_meters":25600,"station_id":"ce4bgth2rcd13ifvqch0","pricing_plan_id":"cebpf4jnsgd1na2vs0mg"},{"bike_id":"afbcc338-845f-412e-8967-52b602c59038","system_id":"levelo_inurba_marseille","lat":43.314811,"lon":5.373103,"is_reserved":false,"is_disabled":false,"rental_uris":{"android":"levelo://app?vid=afbcc338-845f-412e-8967-52b602c59038","ios":"levelo://app?vid=afbcc338-845f-412e-8967-52b602c59038"},"vehicle_type_id":"4","last_reported":1721516846,"current_range_meters":14800,"station_id":"ce4bgt12rcd13ifvqcd0","pricing_plan_id":"cebpf4jnsgd1na2vs0mg"},{"bike_id":"003d200f-8240-4438-88c5-703192b9bcd0","system_id":"levelo_inurba_marseille","lat":43.315289,"lon":5.380349,"is_reserved":false,"is_disabled":false,"rental_uris":{"android":"levelo://app?vid=003d200f-8240-4438-88c5-703192b9bcd0","ios":"levelo://app?vid=003d200f-8240-4438-88c5-703192b9bcd0"},"vehicle_type_id":"4","last_reported":1721516846,"current_range_meters":6000,"station_id":"ce4bhsp2rcd13ifvqi50","pricing_plan_id":"cebpf4jnsgd1na2vs0mg"},{"bike_id":"0ee25f2e-2785-4191-937b-5e0844d9d9c8","system_id":"levelo_inurba_marseille","lat":43.315289,"lon":5.380349,"is_reserved":false,"is_disabled":false,"rental_uris":{"android":"levelo://app?vid=0ee25f2e-2785-4191-937b-5e0844d9d9c8","ios":"levelo://app?vid=0ee25f2e-2785-4191-937b-5e0844d9d9c8"},"vehicle_type_id":"4","last_reported":1721516846,"current_range_meters":12000,"station_id":"ce4bhsp2rcd13ifvqi50","pricing_plan_id":"cebpf4jnsgd1na2vs0mg"},{"bike_id":"0bddf143-6c7e-4488-9245-722e14fc7d78","system_id":"levelo_inurba_marseille","lat":43.315289,"lon":5.380349,"is_reserved":false,"is_disabled":false,"rental_uris":{"android":"levelo://app?vid=0bddf143-6c7e-4488-9245-722e14fc7d78","ios":"levelo://app?vid=0bddf143-6c7e-4488-9245-722e14fc7d78"},"vehicle_type_id":"4","last_reported":1721516846,"current_range_meters":31200,"station_id":"ce4bhsp2rcd13ifvqi50","pricing_plan_id":"cebpf4jnsgd1na2vs0mg"},{"bike_id":"55e63889-e744-4a7f-addb-4c3a0d056861","system_id":"levelo_inurba_marseille","lat":43.3019,"lon":5.3663,"is_reserved":false,"is_disabled":false,"rental_uris":{"android":"levelo://app?vid=55e63889-e744-4a7f-addb-4c3a0d056861","ios":"levelo://app?vid=55e63889-e744-4a7f-addb-4c3a0d056861"},"vehicle_type_id":"4","last_reported":1721516846,"current_range_meters":13200,"station_id":"ce4bgrh2rcd13ifvqc8g","pricing_plan_id":"cebpf4jnsgd1na2vs0mg"},{"bike_id":"751b495a-ded5-440d-924d-2bf060460f69","system_id":"levelo_inurba_marseille","lat":43.32476,"lon":5.365747,"is_reserved":false,"is_disabled":false,"rental_uris":{"android":"levelo://app?vid=751b495a-ded5-440d-924d-2bf060460f69","ios":"levelo://app?vid=751b495a-ded5-440d-924d-2bf060460f69"},"vehicle_type_id":"4","last_reported":1721516846,"current_range_meters":16400,"station_id":"ce4bhs12rcd13ifvqhvg","pricing_plan_id":"cebpf4jnsgd1na2vs0mg"},{"bike_id":"b32653a6-eced-4061-82a4-11bf0d00e36c","system_id":"levelo_inurba_marseille","lat":43.32477,"lon":5.36565,"is_reserved":false,"is_disabled":false,"rental_uris":{"android":"levelo://app?vid=b32653a6-eced-4061-82a4-11bf0d00e36c","ios":"levelo://app?vid=b32653a6-eced-4061-82a4-11bf0d00e36c"},"vehicle_type_id":"4","last_reported":1721516846,"current_range_meters":5600,"station_id":"ce4bhs12rcd13ifvqhvg","pricing_plan_id":"cebpf4jnsgd1na2vs0mg"},{"bike_id":"7d11714e-96d7-41dd-a4a9-54f2adc58df2","system_id":"levelo_inurba_marseille","lat":43.32479,"lon":5.36576,"is_reserved":false,"is_disabled":false,"rental_uris":{"android":"levelo://app?vid=7d11714e-96d7-41dd-a4a9-54f2adc58df2","ios":"levelo://app?vid=7d11714e-96d7-41dd-a4a9-54f2adc58df2"},"vehicle_type_id":"4","last_reported":1721516846,"current_range_meters":0,"station_id":"ce4bhs12rcd13ifvqhvg","pricing_plan_id":"cebpf4jnsgd1na2vs0mg"},{"bike_id":"e2da006c-386c-4a1e-ac7a-09bd7b696728","system_id":"levelo_inurba_marseille","lat":43.324771,"lon":5.36557,"is_reserved":false,"is_disabled":false,"rental_uris":{"android":"levelo://app?vid=e2da006c-386c-4a1e-ac7a-09bd7b696728","ios":"levelo://app?vid=e2da006c-386c-4a1e-ac7a-09bd7b696728"},"vehicle_type_id":"4","last_reported":1721516846,"current_range_meters":30000,"station_id":"ce4bhs12rcd13ifvqhvg","pricing_plan_id":"cebpf4jnsgd1na2vs0mg"},{"bike_id":"96190691-5c79-4f2a-af95-3f66f23d1b5b","system_id":"levelo_inurba_marseille","lat":43.3248,"lon":5.36584,"is_reserved":false,"is_disabled":false,"rental_uris":{"android":"levelo://app?vid=96190691-5c79-4f2a-af95-3f66f23d1b5b","ios":"levelo://app?vid=96190691-5c79-4f2a-af95-3f66f23d1b5b"},"vehicle_type_id":"4","last_reported":1721516846,"current_range_meters":0,"station_id":"ce4bhs12rcd13ifvqhvg","pricing_plan_id":"cebpf4jnsgd1na2vs0mg"},{"bike_id":"2baca4ef-0d69-4564-91f0-6aa88a9ace5b","system_id":"levelo_inurba_marseille","lat":43.324843,"lon":5.365786,"is_reserved":false,"is_disabled":false,"rental_uris":{"android":"levelo://app?vid=2baca4ef-0d69-4564-91f0-6aa88a9ace5b","ios":"levelo://app?vid=2baca4ef-0d69-4564-91f0-6aa88a9ace5b"},"vehicle_type_id":"4","last_reported":1721516846,"current_range_meters":10000,"station_id":"ce4bhs12rcd13ifvqhvg","pricing_plan_id":"cebpf4jnsgd1na2vs0mg"},{"bike_id":"249abbc2-e92e-45b1-b839-e010147e148e","system_id":"levelo_inurba_marseille","lat":43.324771,"lon":5.36557,"is_reserved":false,"is_disabled":false,"rental_uris":{"android":"levelo://app?vid=249abbc2-e92e-45b1-b839-e010147e148e","ios":"levelo://app?vid=249abbc2-e92e-45b1-b839-e010147e148e"},"vehicle_type_id":"4","last_reported":1721516846,"current_range_meters":11200,"station_id":"ce4bhs12rcd13ifvqhvg","pricing_plan_id":"cebpf4jnsgd1na2vs0mg"},{"bike_id":"52b54f02-976b-4e33-8fde-f03092e37688","system_id":"levelo_inurba_marseille","lat":43.310804,"lon":5.38359,"is_reserved":false,"is_disabled":false,"rental_uris":{"android":"levelo://app?vid=52b54f02-976b-4e33-8fde-f03092e37688","ios":"levelo://app?vid=52b54f02-976b-4e33-8fde-f03092e37688"},"vehicle_type_id":"4","last_reported":1721516846,"current_range_meters":14000,"station_id":"ce4bgv92rcd13ifvqcr0","pricing_plan_id":"cebpf4jnsgd1na2vs0mg"},{"bike_id":"7c82dfbc-6aef-44f5-a394-37a20b6eb864","system_id":"levelo_inurba_marseille","lat":43.30143,"lon":5.37413,"is_reserved":false,"is_disabled":false,"rental_uris":{"android":"levelo://app?vid=7c82dfbc-6aef-44f5-a394-37a20b6eb864","ios":"levelo://app?vid=7c82dfbc-6aef-44f5-a394-37a20b6eb864"},"vehicle_type_id":"4","last_reported":1721516846,"current_range_meters":12000,"station_id":"ce4bgs92rcd13ifvqcc0","pricing_plan_id":"cebpf4jnsgd1na2vs0mg"},{"bike_id":"b2491559-e2df-41ee-b5a1-2dbcafaeed4d","system_id":"levelo_inurba_marseille","lat":43.313571,"lon":5.384829,"is_reserved":false,"is_disabled":false,"rental_uris":{"android":"levelo://app?vid=b2491559-e2df-41ee-b5a1-2dbcafaeed4d","ios":"levelo://app?vid=b2491559-e2df-41ee-b5a1-2dbcafaeed4d"},"vehicle_type_id":"4","last_reported":1721516846,"current_range_meters":24800,"station_id":"ce4bgt92rcd13ifvqcf0","pricing_plan_id":"cebpf4jnsgd1na2vs0mg"},{"bike_id":"6d9890d6-e07f-4160-ad83-e20072c3694c","system_id":"levelo_inurba_marseille","lat":43.313571,"lon":5.384829,"is_reserved":false,"is_disabled":false,"rental_uris":{"android":"levelo://app?vid=6d9890d6-e07f-4160-ad83-e20072c3694c","ios":"levelo://app?vid=6d9890d6-e07f-4160-ad83-e20072c3694c"},"vehicle_type_id":"4","last_reported":1721516846,"current_range_meters":6400,"station_id":"ce4bgt92rcd13ifvqcf0","pricing_plan_id":"cebpf4jnsgd1na2vs0mg"},{"bike_id":"df35b2e9-d92f-470d-bfac-4a8cd0f2c083","system_id":"levelo_inurba_marseille","lat":43.313571,"lon":5.384829,"is_reserved":false,"is_disabled":false,"rental_uris":{"android":"levelo://app?vid=df35b2e9-d92f-470d-bfac-4a8cd0f2c083","ios":"levelo://app?vid=df35b2e9-d92f-470d-bfac-4a8cd0f2c083"},"vehicle_type_id":"4","last_reported":1721516846,"current_range_meters":11600,"station_id":"ce4bgt92rcd13ifvqcf0","pricing_plan_id":"cebpf4jnsgd1na2vs0mg"},{"bike_id":"b505c06f-05e3-4a13-94f9-1115a95d51fb","system_id":"levelo_inurba_marseille","lat":43.313571,"lon":5.384829,"is_reserved":false,"is_disabled":false,"rental_uris":{"android":"levelo://app?vid=b505c06f-05e3-4a13-94f9-1115a95d51fb","ios":"levelo://app?vid=b505c06f-05e3-4a13-94f9-1115a95d51fb"},"vehicle_type_id":"4","last_reported":1721516846,"current_range_meters":6000,"station_id":"ce4bgt92rcd13ifvqcf0","pricing_plan_id":"cebpf4jnsgd1na2vs0mg"},{"bike_id":"01b43b9c-2272-44b7-badc-fd7a4fc04b8c","system_id":"levelo_inurba_marseille","lat":43.313571,"lon":5.384829,"is_reserved":false,"is_disabled":false,"rental_uris":{"android":"levelo://app?vid=01b43b9c-2272-44b7-badc-fd7a4fc04b8c","ios":"levelo://app?vid=01b43b9c-2272-44b7-badc-fd7a4fc04b8c"},"vehicle_type_id":"4","last_reported":1721516846,"current_range_meters":3600,"station_id":"ce4bgt92rcd13ifvqcf0","pricing_plan_id":"cebpf4jnsgd1na2vs0mg"},{"bike_id":"60382999-651e-40a8-822a-e9cfcd0ac3a9","system_id":"levelo_inurba_marseille","lat":43.313571,"lon":5.384829,"is_reserved":false,"is_disabled":false,"rental_uris":{"android":"levelo://app?vid=60382999-651e-40a8-822a-e9cfcd0ac3a9","ios":"levelo://app?vid=60382999-651e-40a8-822a-e9cfcd0ac3a9"},"vehicle_type_id":"4","last_reported":1721516846,"current_range_meters":0,"station_id":"ce4bgt92rcd13ifvqcf0","pricing_plan_id":"cebpf4jnsgd1na2vs0mg"},{"bike_id":"7bea7a3a-4981-400f-9201-072c7d13c539","system_id":"levelo_inurba_marseille","lat":43.313571,"lon":5.384829,"is_reserved":false,"is_disabled":false,"rental_uris":{"android":"levelo://app?vid=7bea7a3a-4981-400f-9201-072c7d13c539","ios":"levelo://app?vid=7bea7a3a-4981-400f-9201-072c7d13c539"},"vehicle_type_id":"4","last_reported":1721516846,"current_range_meters":18800,"station_id":"ce4bgt92rcd13ifvqcf0","pricing_plan_id":"cebpf4jnsgd1na2vs0mg"},{"bike_id":"27d36079-c472-482e-91b0-1c80fabe4439","system_id":"levelo_inurba_marseille","lat":43.299724,"lon":5.371829,"is_reserved":false,"is_disabled":false,"rental_uris":{"android":"levelo://app?vid=27d36079-c472-482e-91b0-1c80fabe4439","ios":"levelo://app?vid=27d36079-c472-482e-91b0-1c80fabe4439"},"vehicle_type_id":"4","last_reported":1721516846,"current_range_meters":0,"station_id":"ce4bgr92rcd13ifvqc7g","pricing_plan_id":"cebpf4jnsgd1na2vs0mg"},{"bike_id":"23e7cf0b-3c98-47a2-b72b-316c588d3dbe","system_id":"levelo_inurba_marseille","lat":43.305364,"lon":5.384119,"is_reserved":false,"is_disabled":false,"rental_uris":{"android":"levelo://app?vid=23e7cf0b-3c98-47a2-b72b-316c588d3dbe","ios":"levelo://app?vid=23e7cf0b-3c98-47a2-b72b-316c588d3dbe"},"vehicle_type_id":"4","last_reported":1721516846,"current_range_meters":10800,"station_id":"ce4bgg92rcd13ifvqb30","pricing_plan_id":"cebpf4jnsgd1na2vs0mg"},{"bike_id":"a4245cd1-a01c-47f9-be7f-22243ab42ba4","system_id":"levelo_inurba_marseille","lat":43.32596,"lon":5.37511,"is_reserved":false,"is_disabled":false,"rental_uris":{"android":"levelo://app?vid=a4245cd1-a01c-47f9-be7f-22243ab42ba4","ios":"levelo://app?vid=a4245cd1-a01c-47f9-be7f-22243ab42ba4"},"vehicle_type_id":"4","last_reported":1721516846,"current_range_meters":14000,"station_id":"","pricing_plan_id":"cebpf4jnsgd1na2vs0mg"},{"bike_id":"c0e217f1-df17-4786-84c8-ef20135cf0be","system_id":"levelo_inurba_marseille","lat":43.298433,"lon":5.362774,"is_reserved":false,"is_disabled":false,"rental_uris":{"android":"levelo://app?vid=c0e217f1-df17-4786-84c8-ef20135cf0be","ios":"levelo://app?vid=c0e217f1-df17-4786-84c8-ef20135cf0be"},"vehicle_type_id":"4","last_reported":1721516846,"current_range_meters":24000,"station_id":"ce4bgpp2rcd13ifvqc3g","pricing_plan_id":"cebpf4jnsgd1na2vs0mg"},{"bike_id":"95a90ae0-e722-456b-989f-39017398790a","system_id":"levelo_inurba_marseille","lat":43.305364,"lon":5.384119,"is_reserved":false,"is_disabled":false,"rental_uris":{"android":"levelo://app?vid=95a90ae0-e722-456b-989f-39017398790a","ios":"levelo://app?vid=95a90ae0-e722-456b-989f-39017398790a"},"vehicle_type_id":"4","last_reported":1721516846,"current_range_meters":17600,"station_id":"ce4bgg92rcd13ifvqb30","pricing_plan_id":"cebpf4jnsgd1na2vs0mg"},{"bike_id":"69f035e2-5783-4770-9225-0ebd8ced24ac","system_id":"levelo_inurba_marseille","lat":43.311722,"lon":5.387247,"is_reserved":false,"is_disabled":false,"rental_uris":{"android":"levelo://app?vid=69f035e2-5783-4770-9225-0ebd8ced24ac","ios":"levelo://app?vid=69f035e2-5783-4770-9225-0ebd8ced24ac"},"vehicle_type_id":"4","last_reported":1721516846,"current_range_meters":24400,"station_id":"ce4bgv12rcd13ifvqcp0","pricing_plan_id":"cebpf4jnsgd1na2vs0mg"},{"bike_id":"ecc6b15e-7264-4c2e-94c1-05e5006bf5b1","system_id":"levelo_inurba_marseille","lat":43.305364,"lon":5.384119,"is_reserved":false,"is_disabled":false,"rental_uris":{"android":"levelo://app?vid=ecc6b15e-7264-4c2e-94c1-05e5006bf5b1","ios":"levelo://app?vid=ecc6b15e-7264-4c2e-94c1-05e5006bf5b1"},"vehicle_type_id":"4","last_reported":1721516846,"current_range_meters":2000,"station_id":"ce4bgg92rcd13ifvqb30","pricing_plan_id":"cebpf4jnsgd1na2vs0mg"},{"bike_id":"fa58a701-9c9e-44d6-9773-2d309b34f248","system_id":"levelo_inurba_marseille","lat":43.311722,"lon":5.387247,"is_reserved":false,"is_disabled":false,"rental_uris":{"android":"levelo://app?vid=fa58a701-9c9e-44d6-9773-2d309b34f248","ios":"levelo://app?vid=fa58a701-9c9e-44d6-9773-2d309b34f248"},"vehicle_type_id":"4","last_reported":1721516846,"current_range_meters":3600,"station_id":"ce4bgv12rcd13ifvqcp0","pricing_plan_id":"cebpf4jnsgd1na2vs0mg"},{"bike_id":"94ea461b-768a-42b8-98f4-a3a7fcab5a1f","system_id":"levelo_inurba_marseille","lat":43.299106,"lon":5.374611,"is_reserved":false,"is_disabled":false,"rental_uris":{"android":"levelo://app?vid=94ea461b-768a-42b8-98f4-a3a7fcab5a1f","ios":"levelo://app?vid=94ea461b-768a-42b8-98f4-a3a7fcab5a1f"},"vehicle_type_id":"4","last_reported":1721516846,"current_range_meters":31200,"station_id":"","pricing_plan_id":"cebpf4jnsgd1na2vs0mg"},{"bike_id":"0ffe8fa2-a52a-4a82-a1b7-da56fc90b1dd","system_id":"levelo_inurba_marseille","lat":43.29797,"lon":5.36294,"is_reserved":false,"is_disabled":false,"rental_uris":{"android":"levelo://app?vid=0ffe8fa2-a52a-4a82-a1b7-da56fc90b1dd","ios":"levelo://app?vid=0ffe8fa2-a52a-4a82-a1b7-da56fc90b1dd"},"vehicle_type_id":"4","last_reported":1721516846,"current_range_meters":0,"station_id":"","pricing_plan_id":"cebpf4jnsgd1na2vs0mg"},{"bike_id":"eeb85521-1f4b-4e81-92c2-57a5155c50ec","system_id":"levelo_inurba_marseille","lat":43.297774,"lon":5.370875,"is_reserved":false,"is_disabled":false,"rental_uris":{"android":"levelo://app?vid=eeb85521-1f4b-4e81-92c2-57a5155c50ec","ios":"levelo://app?vid=eeb85521-1f4b-4e81-92c2-57a5155c50ec"},"vehicle_type_id":"4","last_reported":1721516846,"current_range_meters":23200,"station_id":"ce4bgop2rcd13ifvqc1g","pricing_plan_id":"cebpf4jnsgd1na2vs0mg"},{"bike_id":"fa7ddb86-a0da-4d34-b490-ca7a6cfa3a06","system_id":"levelo_inurba_marseille","lat":43.297163,"lon":5.365866,"is_reserved":false,"is_disabled":false,"rental_uris":{"android":"levelo://app?vid=fa7ddb86-a0da-4d34-b490-ca7a6cfa3a06","ios":"levelo://app?vid=fa7ddb86-a0da-4d34-b490-ca7a6cfa3a06"},"vehicle_type_id":"4","last_reported":1721516846,"current_range_meters":2800,"station_id":"ce4bgn12rcd13ifvqbt0","pricing_plan_id":"cebpf4jnsgd1na2vs0mg"},{"bike_id":"b1012c4d-d416-4b02-a2f4-3498c40b05aa","system_id":"levelo_inurba_marseille","lat":43.316286,"lon":5.387955,"is_reserved":false,"is_disabled":false,"rental_uris":{"android":"levelo://app?vid=b1012c4d-d416-4b02-a2f4-3498c40b05aa","ios":"levelo://app?vid=b1012c4d-d416-4b02-a2f4-3498c40b05aa"},"vehicle_type_id":"4","last_reported":1721516846,"current_range_meters":18400,"station_id":"","pricing_plan_id":"cebpf4jnsgd1na2vs0mg"},{"bike_id":"8685c198-af2d-428e-9013-e4de515249d2","system_id":"levelo_inurba_marseille","lat":43.29703,"lon":5.36615,"is_reserved":false,"is_disabled":false,"rental_uris":{"android":"levelo://app?vid=8685c198-af2d-428e-9013-e4de515249d2","ios":"levelo://app?vid=8685c198-af2d-428e-9013-e4de515249d2"},"vehicle_type_id":"4","last_reported":1721516846,"current_range_meters":31200,"station_id":"ce4bgn12rcd13ifvqbt0","pricing_plan_id":"cebpf4jnsgd1na2vs0mg"},{"bike_id":"239cb844-d542-48ef-8b8d-9c2d2114586d","system_id":"levelo_inurba_marseille","lat":43.29761,"lon":5.37282,"is_reserved":false,"is_disabled":false,"rental_uris":{"android":"levelo://app?vid=239cb844-d542-48ef-8b8d-9c2d2114586d","ios":"levelo://app?vid=239cb844-d542-48ef-8b8d-9c2d2114586d"},"vehicle_type_id":"4","last_reported":1721516846,"current_range_meters":21600,"station_id":"","pricing_plan_id":"cebpf4jnsgd1na2vs0mg"},{"bike_id":"05bdae84-1067-465f-ae1f-1f8e13b8e143","system_id":"levelo_inurba_marseille","lat":43.329157,"lon":5.367067,"is_reserved":false,"is_disabled":false,"rental_uris":{"android":"levelo://app?vid=05bdae84-1067-465f-ae1f-1f8e13b8e143","ios":"levelo://app?vid=05bdae84-1067-465f-ae1f-1f8e13b8e143"},"vehicle_type_id":"4","last_reported":1721516846,"current_range_meters":1600,"station_id":"","pricing_plan_id":"cebpf4jnsgd1na2vs0mg"},{"bike_id":"699b8868-09ce-4156-a4cd-1946de7951b3","system_id":"levelo_inurba_marseille","lat":43.29573,"lon":5.367355,"is_reserved":false,"is_disabled":false,"rental_uris":{"android":"levelo://app?vid=699b8868-09ce-4156-a4cd-1946de7951b3","ios":"levelo://app?vid=699b8868-09ce-4156-a4cd-1946de7951b3"},"vehicle_type_id":"4","last_reported":1721516846,"current_range_meters":27200,"station_id":"ce4bgph2rcd13ifvqc2g","pricing_plan_id":"cebpf4jnsgd1na2vs0mg"},{"bike_id":"648697f8-4547-4cc8-959c-131444feffd7","system_id":"levelo_inurba_marseille","lat":43.29573,"lon":5.367355,"is_reserved":false,"is_disabled":false,"rental_uris":{"android":"levelo://app?vid=648697f8-4547-4cc8-959c-131444feffd7","ios":"levelo://app?vid=648697f8-4547-4cc8-959c-131444feffd7"},"vehicle_type_id":"4","last_reported":1721516846,"current_range_meters":21200,"station_id":"ce4bgph2rcd13ifvqc2g","pricing_plan_id":"cebpf4jnsgd1na2vs0mg"},{"bike_id":"21f0cf82-7ee7-4878-8d38-b07668abbff9","system_id":"levelo_inurba_marseille","lat":43.299028,"lon":5.381509,"is_reserved":false,"is_disabled":false,"rental_uris":{"android":"levelo://app?vid=21f0cf82-7ee7-4878-8d38-b07668abbff9","ios":"levelo://app?vid=21f0cf82-7ee7-4878-8d38-b07668abbff9"},"vehicle_type_id":"4","last_reported":1721516846,"current_range_meters":9200,"station_id":"ce4bgj12rcd13ifvqbc0","pricing_plan_id":"cebpf4jnsgd1na2vs0mg"},{"bike_id":"bc017b8f-2b8d-4236-9461-ad858264185f","system_id":"levelo_inurba_marseille","lat":43.309589,"lon":5.390258,"is_reserved":false,"is_disabled":false,"rental_uris":{"android":"levelo://app?vid=bc017b8f-2b8d-4236-9461-ad858264185f","ios":"levelo://app?vid=bc017b8f-2b8d-4236-9461-ad858264185f"},"vehicle_type_id":"4","last_reported":1721516846,"current_range_meters":23600,"station_id":"ce4bgup2rcd13ifvqco0","pricing_plan_id":"cebpf4jnsgd1na2vs0mg"},{"bike_id":"fa1cbb0f-fb06-43b8-a0ea-e8acaeb9ac57","system_id":"levelo_inurba_marseille","lat":43.29733,"lon":5.37844,"is_reserved":false,"is_disabled":false,"rental_uris":{"android":"levelo://app?vid=fa1cbb0f-fb06-43b8-a0ea-e8acaeb9ac57","ios":"levelo://app?vid=fa1cbb0f-fb06-43b8-a0ea-e8acaeb9ac57"},"vehicle_type_id":"4","last_reported":1721516846,"current_range_meters":0,"station_id":"","pricing_plan_id":"cebpf4jnsgd1na2vs0mg"},{"bike_id":"183d913a-5725-4ad9-97f8-fa939119866d","system_id":"levelo_inurba_marseille","lat":43.317557,"lon":5.390173,"is_reserved":false,"is_disabled":false,"rental_uris":{"android":"levelo://app?vid=183d913a-5725-4ad9-97f8-fa939119866d","ios":"levelo://app?vid=183d913a-5725-4ad9-97f8-fa939119866d"},"vehicle_type_id":"4","last_reported":1721516846,"current_range_meters":19200,"station_id":"ce4bhqp2rcd13ifvqhng","pricing_plan_id":"cebpf4jnsgd1na2vs0mg"},{"bike_id":"94b1e089-7bbd-46ef-9656-03c9f8004e63","system_id":"levelo_inurba_marseille","lat":43.317557,"lon":5.390173,"is_reserved":false,"is_disabled":false,"rental_uris":{"android":"levelo://app?vid=94b1e089-7bbd-46ef-9656-03c9f8004e63","ios":"levelo://app?vid=94b1e089-7bbd-46ef-9656-03c9f8004e63"},"vehicle_type_id":"4","last_reported":1721516846,"current_range_meters":2400,"station_id":"ce4bhqp2rcd13ifvqhng","pricing_plan_id":"cebpf4jnsgd1na2vs0mg"},{"bike_id":"bdede3ea-ef07-41d2-a0ec-0fd52a3b9d0e","system_id":"levelo_inurba_marseille","lat":43.317557,"lon":5.390173,"is_reserved":false,"is_disabled":false,"rental_uris":{"android":"levelo://app?vid=bdede3ea-ef07-41d2-a0ec-0fd52a3b9d0e","ios":"levelo://app?vid=bdede3ea-ef07-41d2-a0ec-0fd52a3b9d0e"},"vehicle_type_id":"4","last_reported":1721516846,"current_range_meters":0,"station_id":"ce4bhqp2rcd13ifvqhng","pricing_plan_id":"cebpf4jnsgd1na2vs0mg"},{"bike_id":"8ab1c5ee-8247-4398-9218-f61b3e682cfc","system_id":"levelo_inurba_marseille","lat":43.295748,"lon":5.37522,"is_reserved":false,"is_disabled":false,"rental_uris":{"android":"levelo://app?vid=8ab1c5ee-8247-4398-9218-f61b3e682cfc","ios":"levelo://app?vid=8ab1c5ee-8247-4398-9218-f61b3e682cfc"},"vehicle_type_id":"4","last_reported":1721516846,"current_range_meters":23200,"station_id":"ce4bgh92rcd13ifvqb50","pricing_plan_id":"cebpf4jnsgd1na2vs0mg"},{"bike_id":"d6e59740-abeb-4880-8efb-41c076779849","system_id":"levelo_inurba_marseille","lat":43.296263,"lon":5.377094,"is_reserved":false,"is_disabled":false,"rental_uris":{"android":"levelo://app?vid=d6e59740-abeb-4880-8efb-41c076779849","ios":"levelo://app?vid=d6e59740-abeb-4880-8efb-41c076779849"},"vehicle_type_id":"4","last_reported":1721516846,"current_range_meters":25200,"station_id":"ce4bgi92rcd13ifvqb90","pricing_plan_id":"cebpf4jnsgd1na2vs0mg"},{"bike_id":"a414f8b7-b2d6-4d59-ae96-3a221daf37dd","system_id":"levelo_inurba_marseille","lat":43.295279,"lon":5.375048,"is_reserved":false,"is_disabled":false,"rental_uris":{"android":"levelo://app?vid=a414f8b7-b2d6-4d59-ae96-3a221daf37dd","ios":"levelo://app?vid=a414f8b7-b2d6-4d59-ae96-3a221daf37dd"},"vehicle_type_id":"4","last_reported":1721516846,"current_range_meters":26800,"station_id":"ce4bgkp2rcd13ifvqbmg","pricing_plan_id":"cebpf4jnsgd1na2vs0mg"},{"bike_id":"18491e9b-089a-423d-92a6-2224fb4ac1cb","system_id":"levelo_inurba_marseille","lat":43.30473,"lon":5.39011,"is_reserved":false,"is_disabled":false,"rental_uris":{"android":"levelo://app?vid=18491e9b-089a-423d-92a6-2224fb4ac1cb","ios":"levelo://app?vid=18491e9b-089a-423d-92a6-2224fb4ac1cb"},"vehicle_type_id":"4","last_reported":1721516846,"current_range_meters":2000,"station_id":"","pricing_plan_id":"cebpf4jnsgd1na2vs0mg"},{"bike_id":"ffc55c81-4f6b-4701-8422-7782e5347d1d","system_id":"levelo_inurba_marseille","lat":43.299707,"lon":5.384859,"is_reserved":false,"is_disabled":false,"rental_uris":{"android":"levelo://app?vid=ffc55c81-4f6b-4701-8422-7782e5347d1d","ios":"levelo://app?vid=ffc55c81-4f6b-4701-8422-7782e5347d1d"},"vehicle_type_id":"4","last_reported":1721516846,"current_range_meters":30400,"station_id":"ce4bgj92rcd13ifvqbd0","pricing_plan_id":"cebpf4jnsgd1na2vs0mg"},{"bike_id":"9b1af44f-de0e-4e07-bf14-6519b2f0b0c9","system_id":"levelo_inurba_marseille","lat":43.301396,"lon":5.387812,"is_reserved":false,"is_disabled":false,"rental_uris":{"android":"levelo://app?vid=9b1af44f-de0e-4e07-bf14-6519b2f0b0c9","ios":"levelo://app?vid=9b1af44f-de0e-4e07-bf14-6519b2f0b0c9"},"vehicle_type_id":"4","last_reported":1721516846,"current_range_meters":30800,"station_id":"ce4bghh2rcd13ifvqb60","pricing_plan_id":"cebpf4jnsgd1na2vs0mg"},{"bike_id":"35747471-7dbb-4323-bf02-4230b97b9e47","system_id":"levelo_inurba_marseille","lat":43.301396,"lon":5.387812,"is_reserved":false,"is_disabled":false,"rental_uris":{"android":"levelo://app?vid=35747471-7dbb-4323-bf02-4230b97b9e47","ios":"levelo://app?vid=35747471-7dbb-4323-bf02-4230b97b9e47"},"vehicle_type_id":"4","last_reported":1721516846,"current_range_meters":0,"station_id":"ce4bghh2rcd13ifvqb60","pricing_plan_id":"cebpf4jnsgd1na2vs0mg"},{"bike_id":"00b50152-a624-4b67-99e9-ab0ee98105da","system_id":"levelo_inurba_marseille","lat":43.32367,"lon":5.388836,"is_reserved":false,"is_disabled":false,"rental_uris":{"android":"levelo://app?vid=00b50152-a624-4b67-99e9-ab0ee98105da","ios":"levelo://app?vid=00b50152-a624-4b67-99e9-ab0ee98105da"},"vehicle_type_id":"4","last_reported":1721516846,"current_range_meters":1200,"station_id":"ce4bhqp2rcd13ifvqhog","pricing_plan_id":"cebpf4jnsgd1na2vs0mg"},{"bike_id":"b1a4c943-d97e-4571-8451-61a1bacf1009","system_id":"levelo_inurba_marseille","lat":43.29653,"lon":5.38137,"is_reserved":false,"is_disabled":false,"rental_uris":{"android":"levelo://app?vid=b1a4c943-d97e-4571-8451-61a1bacf1009","ios":"levelo://app?vid=b1a4c943-d97e-4571-8451-61a1bacf1009"},"vehicle_type_id":"4","last_reported":1721516846,"current_range_meters":24400,"station_id":"","pricing_plan_id":"cebpf4jnsgd1na2vs0mg"},{"bike_id":"e23a8a22-d242-4578-940a-030b3281dc93","system_id":"levelo_inurba_marseille","lat":43.32367,"lon":5.388836,"is_reserved":false,"is_disabled":false,"rental_uris":{"android":"levelo://app?vid=e23a8a22-d242-4578-940a-030b3281dc93","ios":"levelo://app?vid=e23a8a22-d242-4578-940a-030b3281dc93"},"vehicle_type_id":"4","last_reported":1721516846,"current_range_meters":24400,"station_id":"ce4bhqp2rcd13ifvqhog","pricing_plan_id":"cebpf4jnsgd1na2vs0mg"},{"bike_id":"dd21fabf-d6d3-4527-9061-ebde78b9a6e2","system_id":"levelo_inurba_marseille","lat":43.32367,"lon":5.388836,"is_reserved":false,"is_disabled":false,"rental_uris":{"android":"levelo://app?vid=dd21fabf-d6d3-4527-9061-ebde78b9a6e2","ios":"levelo://app?vid=dd21fabf-d6d3-4527-9061-ebde78b9a6e2"},"vehicle_type_id":"4","last_reported":1721516846,"current_range_meters":0,"station_id":"ce4bhqp2rcd13ifvqhog","pricing_plan_id":"cebpf4jnsgd1na2vs0mg"},{"bike_id":"b0e86925-2587-4289-9efb-325479c6f615","system_id":"levelo_inurba_marseille","lat":43.32367,"lon":5.388836,"is_reserved":false,"is_disabled":false,"rental_uris":{"android":"levelo://app?vid=b0e86925-2587-4289-9efb-325479c6f615","ios":"levelo://app?vid=b0e86925-2587-4289-9efb-325479c6f615"},"vehicle_type_id":"4","last_reported":1721516846,"current_range_meters":1200,"station_id":"ce4bhqp2rcd13ifvqhog","pricing_plan_id":"cebpf4jnsgd1na2vs0mg"},{"bike_id":"5b46c555-81a4-4d11-bec8-11588f937b4c","system_id":"levelo_inurba_marseille","lat":43.32367,"lon":5.388836,"is_reserved":false,"is_disabled":false,"rental_uris":{"android":"levelo://app?vid=5b46c555-81a4-4d11-bec8-11588f937b4c","ios":"levelo://app?vid=5b46c555-81a4-4d11-bec8-11588f937b4c"},"vehicle_type_id":"4","last_reported":1721516846,"current_range_meters":21600,"station_id":"ce4bhqp2rcd13ifvqhog","pricing_plan_id":"cebpf4jnsgd1na2vs0mg"},{"bike_id":"1318d410-14ab-4533-8235-42a00727bc65","system_id":"levelo_inurba_marseille","lat":43.29602,"lon":5.381084,"is_reserved":false,"is_disabled":false,"rental_uris":{"android":"levelo://app?vid=1318d410-14ab-4533-8235-42a00727bc65","ios":"levelo://app?vid=1318d410-14ab-4533-8235-42a00727bc65"},"vehicle_type_id":"4","last_reported":1721516846,"current_range_meters":14000,"station_id":"ce4bgl12rcd13ifvqbo0","pricing_plan_id":"cebpf4jnsgd1na2vs0mg"},{"bike_id":"21231d6a-e679-4492-8c6e-6773872f7467","system_id":"levelo_inurba_marseille","lat":43.298681,"lon":5.397225,"is_reserved":false,"is_disabled":false,"rental_uris":{"android":"levelo://app?vid=21231d6a-e679-4492-8c6e-6773872f7467","ios":"levelo://app?vid=21231d6a-e679-4492-8c6e-6773872f7467"},"vehicle_type_id":"4","last_reported":1721516846,"current_range_meters":14400,"station_id":"ce4bh0h2rcd13ifvqd50","pricing_plan_id":"cebpf4jnsgd1na2vs0mg"},{"bike_id":"a714632d-44c0-4d33-8aa9-55a02a942e0d","system_id":"levelo_inurba_marseille","lat":43.325351,"lon":5.387847,"is_reserved":false,"is_disabled":false,"rental_uris":{"android":"levelo://app?vid=a714632d-44c0-4d33-8aa9-55a02a942e0d","ios":"levelo://app?vid=a714632d-44c0-4d33-8aa9-55a02a942e0d"},"vehicle_type_id":"4","last_reported":1721516846,"current_range_meters":11600,"station_id":"","pricing_plan_id":"cebpf4jnsgd1na2vs0mg"},{"bike_id":"4f9958e0-e513-4d81-8058-1eaaf501515b","system_id":"levelo_inurba_marseille","lat":43.292749,"lon":5.368402,"is_reserved":false,"is_disabled":false,"rental_uris":{"android":"levelo://app?vid=4f9958e0-e513-4d81-8058-1eaaf501515b","ios":"levelo://app?vid=4f9958e0-e513-4d81-8058-1eaaf501515b"},"vehicle_type_id":"4","last_reported":1721516846,"current_range_meters":5200,"station_id":"ce4bhbp2rcd13ifvqesg","pricing_plan_id":"cebpf4jnsgd1na2vs0mg"},{"bike_id":"2bb6f90a-bf1e-486b-8751-7df49e5f89de","system_id":"levelo_inurba_marseille","lat":43.332722,"lon":5.362553,"is_reserved":false,"is_disabled":false,"rental_uris":{"android":"levelo://app?vid=2bb6f90a-bf1e-486b-8751-7df49e5f89de","ios":"levelo://app?vid=2bb6f90a-bf1e-486b-8751-7df49e5f89de"},"vehicle_type_id":"4","last_reported":1721516846,"current_range_meters":6400,"station_id":"","pricing_plan_id":"cebpf4jnsgd1na2vs0mg"},{"bike_id":"4907a8dd-aa03-4cb0-a796-5307482d7cda","system_id":"levelo_inurba_marseille","lat":43.305935,"lon":5.393557,"is_reserved":false,"is_disabled":false,"rental_uris":{"android":"levelo://app?vid=4907a8dd-aa03-4cb0-a796-5307482d7cda","ios":"levelo://app?vid=4907a8dd-aa03-4cb0-a796-5307482d7cda"},"vehicle_type_id":"4","last_reported":1721516846,"current_range_meters":10000,"station_id":"ce4bh0p2rcd13ifvqd80","pricing_plan_id":"cebpf4jnsgd1na2vs0mg"},{"bike_id":"c3eda5e5-59db-4d2d-a079-823ce4fa8e01","system_id":"levelo_inurba_marseille","lat":43.303002,"lon":5.392142,"is_reserved":false,"is_disabled":false,"rental_uris":{"android":"levelo://app?vid=c3eda5e5-59db-4d2d-a079-823ce4fa8e01","ios":"levelo://app?vid=c3eda5e5-59db-4d2d-a079-823ce4fa8e01"},"vehicle_type_id":"4","last_reported":1721516846,"current_range_meters":20000,"station_id":"ce4bgkh2rcd13ifvqbk0","pricing_plan_id":"cebpf4jnsgd1na2vs0mg"},{"bike_id":"8c449df3-8faf-4ed9-a503-6c1ba764be0e","system_id":"levelo_inurba_marseille","lat":43.293709,"lon":5.378607,"is_reserved":false,"is_disabled":false,"rental_uris":{"android":"levelo://app?vid=8c449df3-8faf-4ed9-a503-6c1ba764be0e","ios":"levelo://app?vid=8c449df3-8faf-4ed9-a503-6c1ba764be0e"},"vehicle_type_id":"4","last_reported":1721516846,"current_range_meters":0,"station_id":"ce4bgjh2rcd13ifvqbf0","pricing_plan_id":"cebpf4jnsgd1na2vs0mg"},{"bike_id":"43db4a71-5e57-4a6f-916b-d2d76e28080e","system_id":"levelo_inurba_marseille","lat":43.309038,"lon":5.396546,"is_reserved":false,"is_disabled":false,"rental_uris":{"android":"levelo://app?vid=43db4a71-5e57-4a6f-916b-d2d76e28080e","ios":"levelo://app?vid=43db4a71-5e57-4a6f-916b-d2d76e28080e"},"vehicle_type_id":"4","last_reported":1721516846,"current_range_meters":26800,"station_id":"ce4bh012rcd13ifvqcv0","pricing_plan_id":"cebpf4jnsgd1na2vs0mg"},{"bike_id":"920caefd-62a6-47dd-b538-1d86025d0922","system_id":"levelo_inurba_marseille","lat":43.309038,"lon":5.396546,"is_reserved":false,"is_disabled":false,"rental_uris":{"android":"levelo://app?vid=920caefd-62a6-47dd-b538-1d86025d0922","ios":"levelo://app?vid=920caefd-62a6-47dd-b538-1d86025d0922"},"vehicle_type_id":"4","last_reported":1721516846,"current_range_meters":26800,"station_id":"ce4bh012rcd13ifvqcv0","pricing_plan_id":"cebpf4jnsgd1na2vs0mg"},{"bike_id":"411a8b4f-6dc1-497d-9a00-f755e7343cc0","system_id":"levelo_inurba_marseille","lat":43.309038,"lon":5.396546,"is_reserved":false,"is_disabled":false,"rental_uris":{"android":"levelo://app?vid=411a8b4f-6dc1-497d-9a00-f755e7343cc0","ios":"levelo://app?vid=411a8b4f-6dc1-497d-9a00-f755e7343cc0"},"vehicle_type_id":"4","last_reported":1721516846,"current_range_meters":16800,"station_id":"ce4bh012rcd13ifvqcv0","pricing_plan_id":"cebpf4jnsgd1na2vs0mg"},{"bike_id":"df8aec4d-0a74-4e5d-8a69-34de9d291cae","system_id":"levelo_inurba_marseille","lat":43.31326,"lon":5.39691,"is_reserved":false,"is_disabled":false,"rental_uris":{"android":"levelo://app?vid=df8aec4d-0a74-4e5d-8a69-34de9d291cae","ios":"levelo://app?vid=df8aec4d-0a74-4e5d-8a69-34de9d291cae"},"vehicle_type_id":"4","last_reported":1721516846,"current_range_meters":6400,"station_id":"ce4bgvp2rcd13ifvqcu0","pricing_plan_id":"cebpf4jnsgd1na2vs0mg"},{"bike_id":"14b292e0-df09-4726-8366-cf77a19171a9","system_id":"levelo_inurba_marseille","lat":43.313291,"lon":5.396838,"is_reserved":false,"is_disabled":false,"rental_uris":{"android":"levelo://app?vid=14b292e0-df09-4726-8366-cf77a19171a9","ios":"levelo://app?vid=14b292e0-df09-4726-8366-cf77a19171a9"},"vehicle_type_id":"4","last_reported":1721516846,"current_range_meters":22000,"station_id":"ce4bgvp2rcd13ifvqcu0","pricing_plan_id":"cebpf4jnsgd1na2vs0mg"},{"bike_id":"b5855b7d-2f84-48cb-b937-23fdebdb1d18","system_id":"levelo_inurba_marseille","lat":43.313291,"lon":5.396838,"is_reserved":false,"is_disabled":false,"rental_uris":{"android":"levelo://app?vid=b5855b7d-2f84-48cb-b937-23fdebdb1d18","ios":"levelo://app?vid=b5855b7d-2f84-48cb-b937-23fdebdb1d18"},"vehicle_type_id":"4","last_reported":1721516846,"current_range_meters":6400,"station_id":"ce4bgvp2rcd13ifvqcu0","pricing_plan_id":"cebpf4jnsgd1na2vs0mg"},{"bike_id":"a1f5becb-c21a-45b9-9296-dc381aba2eb3","system_id":"levelo_inurba_marseille","lat":43.309047,"lon":5.396551,"is_reserved":false,"is_disabled":false,"rental_uris":{"android":"levelo://app?vid=a1f5becb-c21a-45b9-9296-dc381aba2eb3","ios":"levelo://app?vid=a1f5becb-c21a-45b9-9296-dc381aba2eb3"},"vehicle_type_id":"4","last_reported":1721516846,"current_range_meters":12800,"station_id":"ce4bh012rcd13ifvqcv0","pricing_plan_id":"cebpf4jnsgd1na2vs0mg"},{"bike_id":"147ad771-4770-40ae-958a-1bbca83d4453","system_id":"levelo_inurba_marseille","lat":43.3133,"lon":5.39694,"is_reserved":false,"is_disabled":false,"rental_uris":{"android":"levelo://app?vid=147ad771-4770-40ae-958a-1bbca83d4453","ios":"levelo://app?vid=147ad771-4770-40ae-958a-1bbca83d4453"},"vehicle_type_id":"4","last_reported":1721516846,"current_range_meters":12000,"station_id":"ce4bgvp2rcd13ifvqcu0","pricing_plan_id":"cebpf4jnsgd1na2vs0mg"},{"bike_id":"e3d2e934-2f64-40eb-85e5-9e205a7adc41","system_id":"levelo_inurba_marseille","lat":43.313291,"lon":5.396838,"is_reserved":false,"is_disabled":false,"rental_uris":{"android":"levelo://app?vid=e3d2e934-2f64-40eb-85e5-9e205a7adc41","ios":"levelo://app?vid=e3d2e934-2f64-40eb-85e5-9e205a7adc41"},"vehicle_type_id":"4","last_reported":1721516846,"current_range_meters":0,"station_id":"ce4bgvp2rcd13ifvqcu0","pricing_plan_id":"cebpf4jnsgd1na2vs0mg"},{"bike_id":"393d2fb8-f82b-46b4-b607-685c1317d2c1","system_id":"levelo_inurba_marseille","lat":43.313291,"lon":5.396838,"is_reserved":false,"is_disabled":false,"rental_uris":{"android":"levelo://app?vid=393d2fb8-f82b-46b4-b607-685c1317d2c1","ios":"levelo://app?vid=393d2fb8-f82b-46b4-b607-685c1317d2c1"},"vehicle_type_id":"4","last_reported":1721516846,"current_range_meters":30000,"station_id":"ce4bgvp2rcd13ifvqcu0","pricing_plan_id":"cebpf4jnsgd1na2vs0mg"},{"bike_id":"52558ca6-e30c-44f5-a845-60501bc926b7","system_id":"levelo_inurba_marseille","lat":43.31326,"lon":5.39698,"is_reserved":false,"is_disabled":false,"rental_uris":{"android":"levelo://app?vid=52558ca6-e30c-44f5-a845-60501bc926b7","ios":"levelo://app?vid=52558ca6-e30c-44f5-a845-60501bc926b7"},"vehicle_type_id":"4","last_reported":1721516846,"current_range_meters":27600,"station_id":"ce4bgvp2rcd13ifvqcu0","pricing_plan_id":"cebpf4jnsgd1na2vs0mg"},{"bike_id":"b9138ac3-7a6c-4a81-b2bd-5be0492cd9c1","system_id":"levelo_inurba_marseille","lat":43.309047,"lon":5.396551,"is_reserved":false,"is_disabled":false,"rental_uris":{"android":"levelo://app?vid=b9138ac3-7a6c-4a81-b2bd-5be0492cd9c1","ios":"levelo://app?vid=b9138ac3-7a6c-4a81-b2bd-5be0492cd9c1"},"vehicle_type_id":"4","last_reported":1721516846,"current_range_meters":10400,"station_id":"ce4bh012rcd13ifvqcv0","pricing_plan_id":"cebpf4jnsgd1na2vs0mg"},{"bike_id":"9ef45d07-c975-47b0-bb15-010673568959","system_id":"levelo_inurba_marseille","lat":43.31324,"lon":5.397,"is_reserved":false,"is_disabled":false,"rental_uris":{"android":"levelo://app?vid=9ef45d07-c975-47b0-bb15-010673568959","ios":"levelo://app?vid=9ef45d07-c975-47b0-bb15-010673568959"},"vehicle_type_id":"4","last_reported":1721516846,"current_range_meters":14000,"station_id":"ce4bgvp2rcd13ifvqcu0","pricing_plan_id":"cebpf4jnsgd1na2vs0mg"},{"bike_id":"db22133b-8c49-4d91-9c88-d4f210c49ca0","system_id":"levelo_inurba_marseille","lat":43.309038,"lon":5.396546,"is_reserved":false,"is_disabled":false,"rental_uris":{"android":"levelo://app?vid=db22133b-8c49-4d91-9c88-d4f210c49ca0","ios":"levelo://app?vid=db22133b-8c49-4d91-9c88-d4f210c49ca0"},"vehicle_type_id":"4","last_reported":1721516846,"current_range_meters":5600,"station_id":"ce4bh012rcd13ifvqcv0","pricing_plan_id":"cebpf4jnsgd1na2vs0mg"},{"bike_id":"4cdd5f22-46ef-46d6-bb53-c8f8b7ed6db0","system_id":"levelo_inurba_marseille","lat":43.31331,"lon":5.39702,"is_reserved":false,"is_disabled":false,"rental_uris":{"android":"levelo://app?vid=4cdd5f22-46ef-46d6-bb53-c8f8b7ed6db0","ios":"levelo://app?vid=4cdd5f22-46ef-46d6-bb53-c8f8b7ed6db0"},"vehicle_type_id":"4","last_reported":1721516846,"current_range_meters":10000,"station_id":"ce4bgvp2rcd13ifvqcu0","pricing_plan_id":"cebpf4jnsgd1na2vs0mg"},{"bike_id":"7db5763c-39a1-426b-b18f-664162994cee","system_id":"levelo_inurba_marseille","lat":43.309038,"lon":5.396546,"is_reserved":false,"is_disabled":false,"rental_uris":{"android":"levelo://app?vid=7db5763c-39a1-426b-b18f-664162994cee","ios":"levelo://app?vid=7db5763c-39a1-426b-b18f-664162994cee"},"vehicle_type_id":"4","last_reported":1721516846,"current_range_meters":23200,"station_id":"ce4bh012rcd13ifvqcv0","pricing_plan_id":"cebpf4jnsgd1na2vs0mg"},{"bike_id":"3bd1dd81-cc68-4ac6-a030-3a0dcee4b788","system_id":"levelo_inurba_marseille","lat":43.309038,"lon":5.396546,"is_reserved":false,"is_disabled":false,"rental_uris":{"android":"levelo://app?vid=3bd1dd81-cc68-4ac6-a030-3a0dcee4b788","ios":"levelo://app?vid=3bd1dd81-cc68-4ac6-a030-3a0dcee4b788"},"vehicle_type_id":"4","last_reported":1721516846,"current_range_meters":9600,"station_id":"ce4bh012rcd13ifvqcv0","pricing_plan_id":"cebpf4jnsgd1na2vs0mg"},{"bike_id":"dbce3027-f1b1-46a4-a3d3-fd7e93c1d4ba","system_id":"levelo_inurba_marseille","lat":43.332406,"lon":5.380534,"is_reserved":false,"is_disabled":false,"rental_uris":{"android":"levelo://app?vid=dbce3027-f1b1-46a4-a3d3-fd7e93c1d4ba","ios":"levelo://app?vid=dbce3027-f1b1-46a4-a3d3-fd7e93c1d4ba"},"vehicle_type_id":"4","last_reported":1721516846,"current_range_meters":0,"station_id":"","pricing_plan_id":"cebpf4jnsgd1na2vs0mg"},{"bike_id":"dfe75f38-945e-40dd-90b5-d96a9549bacf","system_id":"levelo_inurba_marseille","lat":43.29532,"lon":5.38555,"is_reserved":false,"is_disabled":false,"rental_uris":{"android":"levelo://app?vid=dfe75f38-945e-40dd-90b5-d96a9549bacf","ios":"levelo://app?vid=dfe75f38-945e-40dd-90b5-d96a9549bacf"},"vehicle_type_id":"4","last_reported":1721516846,"current_range_meters":13600,"station_id":"ce4bgih2rcd13ifvqba0","pricing_plan_id":"cebpf4jnsgd1na2vs0mg"},{"bike_id":"765c9067-2f74-4d2f-aad1-468462def3b4","system_id":"levelo_inurba_marseille","lat":43.2936,"lon":5.37835,"is_reserved":false,"is_disabled":false,"rental_uris":{"android":"levelo://app?vid=765c9067-2f74-4d2f-aad1-468462def3b4","ios":"levelo://app?vid=765c9067-2f74-4d2f-aad1-468462def3b4"},"vehicle_type_id":"4","last_reported":1721516846,"current_range_meters":0,"station_id":"ce4bgjh2rcd13ifvqbf0","pricing_plan_id":"cebpf4jnsgd1na2vs0mg"},{"bike_id":"005d735d-1d58-4557-96bb-8a839c05a752","system_id":"levelo_inurba_marseille","lat":43.3021,"lon":5.39469,"is_reserved":false,"is_disabled":false,"rental_uris":{"android":"levelo://app?vid=005d735d-1d58-4557-96bb-8a839c05a752","ios":"levelo://app?vid=005d735d-1d58-4557-96bb-8a839c05a752"},"vehicle_type_id":"4","last_reported":1721516846,"current_range_meters":31200,"station_id":"ce4bh0p2rcd13ifvqd70","pricing_plan_id":"cebpf4jnsgd1na2vs0mg"},{"bike_id":"b7b5b76d-bd44-47ac-8df1-6919c7f98dda","system_id":"levelo_inurba_marseille","lat":43.302008,"lon":5.394694,"is_reserved":false,"is_disabled":false,"rental_uris":{"android":"levelo://app?vid=b7b5b76d-bd44-47ac-8df1-6919c7f98dda","ios":"levelo://app?vid=b7b5b76d-bd44-47ac-8df1-6919c7f98dda"},"vehicle_type_id":"4","last_reported":1721516846,"current_range_meters":11200,"station_id":"ce4bh0p2rcd13ifvqd70","pricing_plan_id":"cebpf4jnsgd1na2vs0mg"},{"bike_id":"13d4a2fe-2ce3-4158-93b6-706ca070789e","system_id":"levelo_inurba_marseille","lat":43.290631,"lon":5.359244,"is_reserved":false,"is_disabled":false,"rental_uris":{"android":"levelo://app?vid=13d4a2fe-2ce3-4158-93b6-706ca070789e","ios":"levelo://app?vid=13d4a2fe-2ce3-4158-93b6-706ca070789e"},"vehicle_type_id":"4","last_reported":1721516846,"current_range_meters":30000,"station_id":"ce4bha92rcd13ifvqeg0","pricing_plan_id":"cebpf4jnsgd1na2vs0mg"},{"bike_id":"50b4523e-fe65-4bd3-a904-8256b759c6fd","system_id":"levelo_inurba_marseille","lat":43.290624,"lon":5.359245,"is_reserved":false,"is_disabled":false,"rental_uris":{"android":"levelo://app?vid=50b4523e-fe65-4bd3-a904-8256b759c6fd","ios":"levelo://app?vid=50b4523e-fe65-4bd3-a904-8256b759c6fd"},"vehicle_type_id":"4","last_reported":1721516846,"current_range_meters":22400,"station_id":"ce4bha92rcd13ifvqeg0","pricing_plan_id":"cebpf4jnsgd1na2vs0mg"},{"bike_id":"4d8eac3c-8a13-457e-bb05-912549e26d95","system_id":"levelo_inurba_marseille","lat":43.290401,"lon":5.375046,"is_reserved":false,"is_disabled":false,"rental_uris":{"android":"levelo://app?vid=4d8eac3c-8a13-457e-bb05-912549e26d95","ios":"levelo://app?vid=4d8eac3c-8a13-457e-bb05-912549e26d95"},"vehicle_type_id":"4","last_reported":1721516846,"current_range_meters":4000,"station_id":"","pricing_plan_id":"cebpf4jnsgd1na2vs0mg"},{"bike_id":"29d8c631-1552-4fd4-a044-5383626a57be","system_id":"levelo_inurba_marseille","lat":43.29419,"lon":5.38624,"is_reserved":false,"is_disabled":false,"rental_uris":{"android":"levelo://app?vid=29d8c631-1552-4fd4-a044-5383626a57be","ios":"levelo://app?vid=29d8c631-1552-4fd4-a044-5383626a57be"},"vehicle_type_id":"4","last_reported":1721516846,"current_range_meters":0,"station_id":"ce4bh2h2rcd13ifvqdh0","pricing_plan_id":"cebpf4jnsgd1na2vs0mg"},{"bike_id":"e76b2dcb-782b-4183-bee1-b16ea883d9cf","system_id":"levelo_inurba_marseille","lat":43.29418,"lon":5.38624,"is_reserved":false,"is_disabled":false,"rental_uris":{"android":"levelo://app?vid=e76b2dcb-782b-4183-bee1-b16ea883d9cf","ios":"levelo://app?vid=e76b2dcb-782b-4183-bee1-b16ea883d9cf"},"vehicle_type_id":"4","last_reported":1721516846,"current_range_meters":0,"station_id":"ce4bh2h2rcd13ifvqdh0","pricing_plan_id":"cebpf4jnsgd1na2vs0mg"},{"bike_id":"2876fd78-d587-4943-960e-6cebb4b40993","system_id":"levelo_inurba_marseille","lat":43.29031,"lon":5.37554,"is_reserved":false,"is_disabled":false,"rental_uris":{"android":"levelo://app?vid=2876fd78-d587-4943-960e-6cebb4b40993","ios":"levelo://app?vid=2876fd78-d587-4943-960e-6cebb4b40993"},"vehicle_type_id":"4","last_reported":1721516846,"current_range_meters":0,"station_id":"ce4bh692rcd13ifvqe90","pricing_plan_id":"cebpf4jnsgd1na2vs0mg"},{"bike_id":"4ceab3ae-e81f-4236-90cd-0e2808aec381","system_id":"levelo_inurba_marseille","lat":43.29416,"lon":5.38627,"is_reserved":false,"is_disabled":false,"rental_uris":{"android":"levelo://app?vid=4ceab3ae-e81f-4236-90cd-0e2808aec381","ios":"levelo://app?vid=4ceab3ae-e81f-4236-90cd-0e2808aec381"},"vehicle_type_id":"4","last_reported":1721516846,"current_range_meters":0,"station_id":"ce4bh2h2rcd13ifvqdh0","pricing_plan_id":"cebpf4jnsgd1na2vs0mg"},{"bike_id":"2112bb7d-3ff1-492a-b53f-23f637c867ee","system_id":"levelo_inurba_marseille","lat":43.289184,"lon":5.366408,"is_reserved":false,"is_disabled":false,"rental_uris":{"android":"levelo://app?vid=2112bb7d-3ff1-492a-b53f-23f637c867ee","ios":"levelo://app?vid=2112bb7d-3ff1-492a-b53f-23f637c867ee"},"vehicle_type_id":"4","last_reported":1721516846,"current_range_meters":0,"station_id":"ce4bhap2rcd13ifvqek0","pricing_plan_id":"cebpf4jnsgd1na2vs0mg"},{"bike_id":"c273a9b6-3943-4965-9023-e09598d233d5","system_id":"levelo_inurba_marseille","lat":43.292642,"lon":5.384254,"is_reserved":false,"is_disabled":false,"rental_uris":{"android":"levelo://app?vid=c273a9b6-3943-4965-9023-e09598d233d5","ios":"levelo://app?vid=c273a9b6-3943-4965-9023-e09598d233d5"},"vehicle_type_id":"4","last_reported":1721516846,"current_range_meters":0,"station_id":"ce4bh692rcd13ifvqea0","pricing_plan_id":"cebpf4jnsgd1na2vs0mg"},{"bike_id":"4e93009d-1bea-40e7-a183-6423531cd4c9","system_id":"levelo_inurba_marseille","lat":43.29269,"lon":5.38449,"is_reserved":false,"is_disabled":false,"rental_uris":{"android":"levelo://app?vid=4e93009d-1bea-40e7-a183-6423531cd4c9","ios":"levelo://app?vid=4e93009d-1bea-40e7-a183-6423531cd4c9"},"vehicle_type_id":"4","last_reported":1721516846,"current_range_meters":0,"station_id":"ce4bh692rcd13ifvqea0","pricing_plan_id":"cebpf4jnsgd1na2vs0mg"},{"bike_id":"84acf8d9-215c-4c69-ba70-d2f4957475dc","system_id":"levelo_inurba_marseille","lat":43.30423,"lon":5.39748,"is_reserved":false,"is_disabled":false,"rental_uris":{"android":"levelo://app?vid=84acf8d9-215c-4c69-ba70-d2f4957475dc","ios":"levelo://app?vid=84acf8d9-215c-4c69-ba70-d2f4957475dc"},"vehicle_type_id":"4","last_reported":1721516846,"current_range_meters":20000,"station_id":"ce4bh092rcd13ifvqd20","pricing_plan_id":"cebpf4jnsgd1na2vs0mg"},{"bike_id":"47dfc8b3-018c-406f-8cfa-33c5055db71b","system_id":"levelo_inurba_marseille","lat":43.292642,"lon":5.384254,"is_reserved":false,"is_disabled":false,"rental_uris":{"android":"levelo://app?vid=47dfc8b3-018c-406f-8cfa-33c5055db71b","ios":"levelo://app?vid=47dfc8b3-018c-406f-8cfa-33c5055db71b"},"vehicle_type_id":"4","last_reported":1721516846,"current_range_meters":800,"station_id":"ce4bh692rcd13ifvqea0","pricing_plan_id":"cebpf4jnsgd1na2vs0mg"},{"bike_id":"7e28f2f6-d453-4210-bf24-3842601e1cc3","system_id":"levelo_inurba_marseille","lat":43.304296,"lon":5.397513,"is_reserved":false,"is_disabled":false,"rental_uris":{"android":"levelo://app?vid=7e28f2f6-d453-4210-bf24-3842601e1cc3","ios":"levelo://app?vid=7e28f2f6-d453-4210-bf24-3842601e1cc3"},"vehicle_type_id":"4","last_reported":1721516846,"current_range_meters":0,"station_id":"ce4bh092rcd13ifvqd20","pricing_plan_id":"cebpf4jnsgd1na2vs0mg"},{"bike_id":"505078a5-0ca9-43b2-b849-2a1d42687205","system_id":"levelo_inurba_marseille","lat":43.29255,"lon":5.38442,"is_reserved":false,"is_disabled":false,"rental_uris":{"android":"levelo://app?vid=505078a5-0ca9-43b2-b849-2a1d42687205","ios":"levelo://app?vid=505078a5-0ca9-43b2-b849-2a1d42687205"},"vehicle_type_id":"4","last_reported":1721516846,"current_range_meters":0,"station_id":"ce4bh692rcd13ifvqea0","pricing_plan_id":"cebpf4jnsgd1na2vs0mg"},{"bike_id":"21fab268-cc6f-4939-9cc7-eec23f9930c9","system_id":"levelo_inurba_marseille","lat":43.290995,"lon":5.381361,"is_reserved":false,"is_disabled":false,"rental_uris":{"android":"levelo://app?vid=21fab268-cc6f-4939-9cc7-eec23f9930c9","ios":"levelo://app?vid=21fab268-cc6f-4939-9cc7-eec23f9930c9"},"vehicle_type_id":"4","last_reported":1721516846,"current_range_meters":9200,"station_id":"ce4bh512rcd13ifvqe2g","pricing_plan_id":"cebpf4jnsgd1na2vs0mg"},{"bike_id":"1a4b84fe-3c25-427e-9e5d-fed5722995e6","system_id":"levelo_inurba_marseille","lat":43.290104,"lon":5.356111,"is_reserved":false,"is_disabled":false,"rental_uris":{"android":"levelo://app?vid=1a4b84fe-3c25-427e-9e5d-fed5722995e6","ios":"levelo://app?vid=1a4b84fe-3c25-427e-9e5d-fed5722995e6"},"vehicle_type_id":"4","last_reported":1721516846,"current_range_meters":7200,"station_id":"ce4bhb92rcd13ifvqen0","pricing_plan_id":"cebpf4jnsgd1na2vs0mg"},{"bike_id":"c0da4d5c-6caa-47a9-b5fa-cc64791236c9","system_id":"levelo_inurba_marseille","lat":43.290104,"lon":5.356111,"is_reserved":false,"is_disabled":false,"rental_uris":{"android":"levelo://app?vid=c0da4d5c-6caa-47a9-b5fa-cc64791236c9","ios":"levelo://app?vid=c0da4d5c-6caa-47a9-b5fa-cc64791236c9"},"vehicle_type_id":"4","last_reported":1721516846,"current_range_meters":17600,"station_id":"ce4bhb92rcd13ifvqen0","pricing_plan_id":"cebpf4jnsgd1na2vs0mg"},{"bike_id":"77cf18d0-2a79-46d0-97c3-34e1c8073d7d","system_id":"levelo_inurba_marseille","lat":43.290972,"lon":5.381582,"is_reserved":false,"is_disabled":false,"rental_uris":{"android":"levelo://app?vid=77cf18d0-2a79-46d0-97c3-34e1c8073d7d","ios":"levelo://app?vid=77cf18d0-2a79-46d0-97c3-34e1c8073d7d"},"vehicle_type_id":"4","last_reported":1721516846,"current_range_meters":0,"station_id":"ce4bh512rcd13ifvqe2g","pricing_plan_id":"cebpf4jnsgd1na2vs0mg"},{"bike_id":"5c292134-4d69-4d96-866d-0e6c3dddff62","system_id":"levelo_inurba_marseille","lat":43.297815,"lon":5.393548,"is_reserved":false,"is_disabled":false,"rental_uris":{"android":"levelo://app?vid=5c292134-4d69-4d96-866d-0e6c3dddff62","ios":"levelo://app?vid=5c292134-4d69-4d96-866d-0e6c3dddff62"},"vehicle_type_id":"4","last_reported":1721516846,"current_range_meters":5200,"station_id":"chh1huq6cuj3fo74tm60","pricing_plan_id":"cebpf4jnsgd1na2vs0mg"},{"bike_id":"0d3ba3b8-3577-44c9-a15a-ede8f9219f7c","system_id":"levelo_inurba_marseille","lat":43.297807,"lon":5.393533,"is_reserved":false,"is_disabled":false,"rental_uris":{"android":"levelo://app?vid=0d3ba3b8-3577-44c9-a15a-ede8f9219f7c","ios":"levelo://app?vid=0d3ba3b8-3577-44c9-a15a-ede8f9219f7c"},"vehicle_type_id":"4","last_reported":1721516846,"current_range_meters":12000,"station_id":"chh1huq6cuj3fo74tm60","pricing_plan_id":"cebpf4jnsgd1na2vs0mg"},{"bike_id":"5093edce-9452-46e7-b98d-4ff34769d87c","system_id":"levelo_inurba_marseille","lat":43.2944,"lon":5.38907,"is_reserved":false,"is_disabled":false,"rental_uris":{"android":"levelo://app?vid=5093edce-9452-46e7-b98d-4ff34769d87c","ios":"levelo://app?vid=5093edce-9452-46e7-b98d-4ff34769d87c"},"vehicle_type_id":"4","last_reported":1721516846,"current_range_meters":22400,"station_id":"","pricing_plan_id":"cebpf4jnsgd1na2vs0mg"},{"bike_id":"0c86ec78-503e-4e15-8fe9-23a904b1623a","system_id":"levelo_inurba_marseille","lat":43.33024,"lon":5.39034,"is_reserved":false,"is_disabled":false,"rental_uris":{"android":"levelo://app?vid=0c86ec78-503e-4e15-8fe9-23a904b1623a","ios":"levelo://app?vid=0c86ec78-503e-4e15-8fe9-23a904b1623a"},"vehicle_type_id":"4","last_reported":1721516846,"current_range_meters":31200,"station_id":"ce4bhr92rcd13ifvqhrg","pricing_plan_id":"cebpf4jnsgd1na2vs0mg"},{"bike_id":"bee761b4-9228-4cf3-82bf-e1088ff31759","system_id":"levelo_inurba_marseille","lat":43.297815,"lon":5.393548,"is_reserved":false,"is_disabled":false,"rental_uris":{"android":"levelo://app?vid=bee761b4-9228-4cf3-82bf-e1088ff31759","ios":"levelo://app?vid=bee761b4-9228-4cf3-82bf-e1088ff31759"},"vehicle_type_id":"4","last_reported":1721516846,"current_range_meters":8800,"station_id":"chh1huq6cuj3fo74tm60","pricing_plan_id":"cebpf4jnsgd1na2vs0mg"},{"bike_id":"532309ff-8933-4953-90bc-53cc073803a4","system_id":"levelo_inurba_marseille","lat":43.330442,"lon":5.389148,"is_reserved":false,"is_disabled":false,"rental_uris":{"android":"levelo://app?vid=532309ff-8933-4953-90bc-53cc073803a4","ios":"levelo://app?vid=532309ff-8933-4953-90bc-53cc073803a4"},"vehicle_type_id":"4","last_reported":1721516846,"current_range_meters":19200,"station_id":"ce4bhr92rcd13ifvqhrg","pricing_plan_id":"cebpf4jnsgd1na2vs0mg"},{"bike_id":"873bd8e6-81c9-4ac9-bcd8-7efc0d23213e","system_id":"levelo_inurba_marseille","lat":43.330442,"lon":5.389148,"is_reserved":false,"is_disabled":false,"rental_uris":{"android":"levelo://app?vid=873bd8e6-81c9-4ac9-bcd8-7efc0d23213e","ios":"levelo://app?vid=873bd8e6-81c9-4ac9-bcd8-7efc0d23213e"},"vehicle_type_id":"4","last_reported":1721516846,"current_range_meters":5200,"station_id":"ce4bhr92rcd13ifvqhrg","pricing_plan_id":"cebpf4jnsgd1na2vs0mg"},{"bike_id":"6e276623-2584-4bab-af54-57fa6c553707","system_id":"levelo_inurba_marseille","lat":43.330442,"lon":5.389148,"is_reserved":false,"is_disabled":false,"rental_uris":{"android":"levelo://app?vid=6e276623-2584-4bab-af54-57fa6c553707","ios":"levelo://app?vid=6e276623-2584-4bab-af54-57fa6c553707"},"vehicle_type_id":"4","last_reported":1721516846,"current_range_meters":4400,"station_id":"ce4bhr92rcd13ifvqhrg","pricing_plan_id":"cebpf4jnsgd1na2vs0mg"},{"bike_id":"f7f27b00-f0ae-414e-b731-d4d17b9b5928","system_id":"levelo_inurba_marseille","lat":43.330442,"lon":5.389148,"is_reserved":false,"is_disabled":false,"rental_uris":{"android":"levelo://app?vid=f7f27b00-f0ae-414e-b731-d4d17b9b5928","ios":"levelo://app?vid=f7f27b00-f0ae-414e-b731-d4d17b9b5928"},"vehicle_type_id":"4","last_reported":1721516846,"current_range_meters":25600,"station_id":"ce4bhr92rcd13ifvqhrg","pricing_plan_id":"cebpf4jnsgd1na2vs0mg"},{"bike_id":"8410054d-37d3-4618-961a-9327b78d0952","system_id":"levelo_inurba_marseille","lat":43.3302,"lon":5.39045,"is_reserved":false,"is_disabled":false,"rental_uris":{"android":"levelo://app?vid=8410054d-37d3-4618-961a-9327b78d0952","ios":"levelo://app?vid=8410054d-37d3-4618-961a-9327b78d0952"},"vehicle_type_id":"4","last_reported":1721516846,"current_range_meters":27600,"station_id":"ce4bhr92rcd13ifvqhrg","pricing_plan_id":"cebpf4jnsgd1na2vs0mg"},{"bike_id":"f13991bc-7ece-4d30-afec-292efbc84651","system_id":"levelo_inurba_marseille","lat":43.33021,"lon":5.39046,"is_reserved":false,"is_disabled":false,"rental_uris":{"android":"levelo://app?vid=f13991bc-7ece-4d30-afec-292efbc84651","ios":"levelo://app?vid=f13991bc-7ece-4d30-afec-292efbc84651"},"vehicle_type_id":"4","last_reported":1721516846,"current_range_meters":31600,"station_id":"ce4bhr92rcd13ifvqhrg","pricing_plan_id":"cebpf4jnsgd1na2vs0mg"},{"bike_id":"3f948297-240f-4f4e-b127-457767ad6119","system_id":"levelo_inurba_marseille","lat":43.33023,"lon":5.39044,"is_reserved":false,"is_disabled":false,"rental_uris":{"android":"levelo://app?vid=3f948297-240f-4f4e-b127-457767ad6119","ios":"levelo://app?vid=3f948297-240f-4f4e-b127-457767ad6119"},"vehicle_type_id":"4","last_reported":1721516846,"current_range_meters":5600,"station_id":"ce4bhr92rcd13ifvqhrg","pricing_plan_id":"cebpf4jnsgd1na2vs0mg"},{"bike_id":"3992961e-5698-472e-9c79-bd3ff6e8a9b5","system_id":"levelo_inurba_marseille","lat":43.289742,"lon":5.37843,"is_reserved":false,"is_disabled":false,"rental_uris":{"android":"levelo://app?vid=3992961e-5698-472e-9c79-bd3ff6e8a9b5","ios":"levelo://app?vid=3992961e-5698-472e-9c79-bd3ff6e8a9b5"},"vehicle_type_id":"4","last_reported":1721516846,"current_range_meters":0,"station_id":"ce4bh9p2rcd13ifvqed0","pricing_plan_id":"cebpf4jnsgd1na2vs0mg"},{"bike_id":"00593b76-8768-487d-941d-6cb2115f1c6b","system_id":"levelo_inurba_marseille","lat":43.330442,"lon":5.389148,"is_reserved":false,"is_disabled":false,"rental_uris":{"android":"levelo://app?vid=00593b76-8768-487d-941d-6cb2115f1c6b","ios":"levelo://app?vid=00593b76-8768-487d-941d-6cb2115f1c6b"},"vehicle_type_id":"4","last_reported":1721516846,"current_range_meters":12800,"station_id":"ce4bhr92rcd13ifvqhrg","pricing_plan_id":"cebpf4jnsgd1na2vs0mg"},{"bike_id":"cf317b95-8df9-467b-8fce-d08baa11ead0","system_id":"levelo_inurba_marseille","lat":43.29366,"lon":5.38897,"is_reserved":false,"is_disabled":false,"rental_uris":{"android":"levelo://app?vid=cf317b95-8df9-467b-8fce-d08baa11ead0","ios":"levelo://app?vid=cf317b95-8df9-467b-8fce-d08baa11ead0"},"vehicle_type_id":"4","last_reported":1721516846,"current_range_meters":31200,"station_id":"","pricing_plan_id":"cebpf4jnsgd1na2vs0mg"},{"bike_id":"6f7d62c4-3e72-4861-9c15-22c7f4b37518","system_id":"levelo_inurba_marseille","lat":43.28856,"lon":5.358371,"is_reserved":false,"is_disabled":false,"rental_uris":{"android":"levelo://app?vid=6f7d62c4-3e72-4861-9c15-22c7f4b37518","ios":"levelo://app?vid=6f7d62c4-3e72-4861-9c15-22c7f4b37518"},"vehicle_type_id":"4","last_reported":1721516846,"current_range_meters":0,"station_id":"ce4bhb12rcd13ifvqem0","pricing_plan_id":"cebpf4jnsgd1na2vs0mg"},{"bike_id":"9458a255-a47a-41f1-849e-755dc4612ffe","system_id":"levelo_inurba_marseille","lat":43.337454,"lon":5.37452,"is_reserved":false,"is_disabled":false,"rental_uris":{"android":"levelo://app?vid=9458a255-a47a-41f1-849e-755dc4612ffe","ios":"levelo://app?vid=9458a255-a47a-41f1-849e-755dc4612ffe"},"vehicle_type_id":"4","last_reported":1721516846,"current_range_meters":20000,"station_id":"","pricing_plan_id":"cebpf4jnsgd1na2vs0mg"},{"bike_id":"1c8e15cd-28e9-4d58-940a-b801c54c74d3","system_id":"levelo_inurba_marseille","lat":43.3093,"lon":5.40143,"is_reserved":false,"is_disabled":false,"rental_uris":{"android":"levelo://app?vid=1c8e15cd-28e9-4d58-940a-b801c54c74d3","ios":"levelo://app?vid=1c8e15cd-28e9-4d58-940a-b801c54c74d3"},"vehicle_type_id":"4","last_reported":1721516846,"current_range_meters":13600,"station_id":"ce4bgvp2rcd13ifvqct0","pricing_plan_id":"cebpf4jnsgd1na2vs0mg"},{"bike_id":"f2b0285e-2a10-45e4-9f01-200e462fb2d2","system_id":"levelo_inurba_marseille","lat":43.30928,"lon":5.40144,"is_reserved":false,"is_disabled":false,"rental_uris":{"android":"levelo://app?vid=f2b0285e-2a10-45e4-9f01-200e462fb2d2","ios":"levelo://app?vid=f2b0285e-2a10-45e4-9f01-200e462fb2d2"},"vehicle_type_id":"4","last_reported":1721516846,"current_range_meters":5200,"station_id":"ce4bgvp2rcd13ifvqct0","pricing_plan_id":"cebpf4jnsgd1na2vs0mg"},{"bike_id":"da1ef795-4411-4787-a704-e9710fe27f7e","system_id":"levelo_inurba_marseille","lat":43.337472,"lon":5.374599,"is_reserved":false,"is_disabled":false,"rental_uris":{"android":"levelo://app?vid=da1ef795-4411-4787-a704-e9710fe27f7e","ios":"levelo://app?vid=da1ef795-4411-4787-a704-e9710fe27f7e"},"vehicle_type_id":"4","last_reported":1721516846,"current_range_meters":21200,"station_id":"","pricing_plan_id":"cebpf4jnsgd1na2vs0mg"},{"bike_id":"072629c3-6d0f-4a59-a5af-80ebe0873b7d","system_id":"levelo_inurba_marseille","lat":43.30935,"lon":5.40146,"is_reserved":false,"is_disabled":false,"rental_uris":{"android":"levelo://app?vid=072629c3-6d0f-4a59-a5af-80ebe0873b7d","ios":"levelo://app?vid=072629c3-6d0f-4a59-a5af-80ebe0873b7d"},"vehicle_type_id":"4","last_reported":1721516846,"current_range_meters":31200,"station_id":"ce4bgvp2rcd13ifvqct0","pricing_plan_id":"cebpf4jnsgd1na2vs0mg"},{"bike_id":"adbadfa8-8624-433d-8e88-02797a52a200","system_id":"levelo_inurba_marseille","lat":43.287868,"lon":5.373713,"is_reserved":false,"is_disabled":false,"rental_uris":{"android":"levelo://app?vid=adbadfa8-8624-433d-8e88-02797a52a200","ios":"levelo://app?vid=adbadfa8-8624-433d-8e88-02797a52a200"},"vehicle_type_id":"4","last_reported":1721516846,"current_range_meters":18400,"station_id":"","pricing_plan_id":"cebpf4jnsgd1na2vs0mg"},{"bike_id":"a38e5ebe-5f35-42c0-8e3f-d936e6af3c68","system_id":"levelo_inurba_marseille","lat":43.312609,"lon":5.401662,"is_reserved":false,"is_disabled":false,"rental_uris":{"android":"levelo://app?vid=a38e5ebe-5f35-42c0-8e3f-d936e6af3c68","ios":"levelo://app?vid=a38e5ebe-5f35-42c0-8e3f-d936e6af3c68"},"vehicle_type_id":"4","last_reported":1721516846,"current_range_meters":19200,"station_id":"ce4bh092rcd13ifvqd30","pricing_plan_id":"cebpf4jnsgd1na2vs0mg"},{"bike_id":"395efcc6-61a6-4759-9ed5-774f8f242172","system_id":"levelo_inurba_marseille","lat":43.30931,"lon":5.40149,"is_reserved":false,"is_disabled":false,"rental_uris":{"android":"levelo://app?vid=395efcc6-61a6-4759-9ed5-774f8f242172","ios":"levelo://app?vid=395efcc6-61a6-4759-9ed5-774f8f242172"},"vehicle_type_id":"4","last_reported":1721516846,"current_range_meters":1200,"station_id":"ce4bgvp2rcd13ifvqct0","pricing_plan_id":"cebpf4jnsgd1na2vs0mg"},{"bike_id":"e85c6621-89f3-4d16-a2cd-521c690124dc","system_id":"levelo_inurba_marseille","lat":43.309262,"lon":5.401489,"is_reserved":false,"is_disabled":false,"rental_uris":{"android":"levelo://app?vid=e85c6621-89f3-4d16-a2cd-521c690124dc","ios":"levelo://app?vid=e85c6621-89f3-4d16-a2cd-521c690124dc"},"vehicle_type_id":"4","last_reported":1721516846,"current_range_meters":20800,"station_id":"ce4bgvp2rcd13ifvqct0","pricing_plan_id":"cebpf4jnsgd1na2vs0mg"},{"bike_id":"d648bcfa-7c9c-47c4-b338-e4c53079ff68","system_id":"levelo_inurba_marseille","lat":43.30929,"lon":5.40152,"is_reserved":false,"is_disabled":false,"rental_uris":{"android":"levelo://app?vid=d648bcfa-7c9c-47c4-b338-e4c53079ff68","ios":"levelo://app?vid=d648bcfa-7c9c-47c4-b338-e4c53079ff68"},"vehicle_type_id":"4","last_reported":1721516846,"current_range_meters":11200,"station_id":"ce4bgvp2rcd13ifvqct0","pricing_plan_id":"cebpf4jnsgd1na2vs0mg"},{"bike_id":"0ad3db73-21e8-41b5-aad3-7f410c37748d","system_id":"levelo_inurba_marseille","lat":43.33754,"lon":5.37454,"is_reserved":false,"is_disabled":false,"rental_uris":{"android":"levelo://app?vid=0ad3db73-21e8-41b5-aad3-7f410c37748d","ios":"levelo://app?vid=0ad3db73-21e8-41b5-aad3-7f410c37748d"},"vehicle_type_id":"4","last_reported":1721516846,"current_range_meters":12800,"station_id":"","pricing_plan_id":"cebpf4jnsgd1na2vs0mg"},{"bike_id":"9fd23b8b-c7c3-4b5a-b11d-8284b8e4dfa2","system_id":"levelo_inurba_marseille","lat":43.337578,"lon":5.374428,"is_reserved":false,"is_disabled":false,"rental_uris":{"android":"levelo://app?vid=9fd23b8b-c7c3-4b5a-b11d-8284b8e4dfa2","ios":"levelo://app?vid=9fd23b8b-c7c3-4b5a-b11d-8284b8e4dfa2"},"vehicle_type_id":"4","last_reported":1721516846,"current_range_meters":24800,"station_id":"","pricing_plan_id":"cebpf4jnsgd1na2vs0mg"},{"bike_id":"bd2d1d99-b576-442e-86b9-6cb8da143237","system_id":"levelo_inurba_marseille","lat":43.30929,"lon":5.40156,"is_reserved":false,"is_disabled":false,"rental_uris":{"android":"levelo://app?vid=bd2d1d99-b576-442e-86b9-6cb8da143237","ios":"levelo://app?vid=bd2d1d99-b576-442e-86b9-6cb8da143237"},"vehicle_type_id":"4","last_reported":1721516846,"current_range_meters":2800,"station_id":"ce4bgvp2rcd13ifvqct0","pricing_plan_id":"cebpf4jnsgd1na2vs0mg"},{"bike_id":"7518ee7c-c4cd-48d2-8766-ee912923eb41","system_id":"levelo_inurba_marseille","lat":43.30928,"lon":5.40156,"is_reserved":false,"is_disabled":false,"rental_uris":{"android":"levelo://app?vid=7518ee7c-c4cd-48d2-8766-ee912923eb41","ios":"levelo://app?vid=7518ee7c-c4cd-48d2-8766-ee912923eb41"},"vehicle_type_id":"4","last_reported":1721516846,"current_range_meters":0,"station_id":"ce4bgvp2rcd13ifvqct0","pricing_plan_id":"cebpf4jnsgd1na2vs0mg"},{"bike_id":"fb5f1507-dcbf-4659-be17-db7bd4f1e765","system_id":"levelo_inurba_marseille","lat":43.306412,"lon":5.401035,"is_reserved":false,"is_disabled":false,"rental_uris":{"android":"levelo://app?vid=fb5f1507-dcbf-4659-be17-db7bd4f1e765","ios":"levelo://app?vid=fb5f1507-dcbf-4659-be17-db7bd4f1e765"},"vehicle_type_id":"4","last_reported":1721516846,"current_range_meters":20800,"station_id":"ce4bh112rcd13ifvqda0","pricing_plan_id":"cebpf4jnsgd1na2vs0mg"},{"bike_id":"27783107-cce1-4524-a38f-24c4ac856328","system_id":"levelo_inurba_marseille","lat":43.306412,"lon":5.401035,"is_reserved":false,"is_disabled":false,"rental_uris":{"android":"levelo://app?vid=27783107-cce1-4524-a38f-24c4ac856328","ios":"levelo://app?vid=27783107-cce1-4524-a38f-24c4ac856328"},"vehicle_type_id":"4","last_reported":1721516846,"current_range_meters":27200,"station_id":"ce4bh112rcd13ifvqda0","pricing_plan_id":"cebpf4jnsgd1na2vs0mg"},{"bike_id":"1a845b70-af23-4f4e-be45-f50295336e8f","system_id":"levelo_inurba_marseille","lat":43.30642,"lon":5.401031,"is_reserved":false,"is_disabled":false,"rental_uris":{"android":"levelo://app?vid=1a845b70-af23-4f4e-be45-f50295336e8f","ios":"levelo://app?vid=1a845b70-af23-4f4e-be45-f50295336e8f"},"vehicle_type_id":"4","last_reported":1721516846,"current_range_meters":23600,"station_id":"ce4bh112rcd13ifvqda0","pricing_plan_id":"cebpf4jnsgd1na2vs0mg"},{"bike_id":"44c30d2e-200e-4e74-a7b6-aad8d31bce62","system_id":"levelo_inurba_marseille","lat":43.306412,"lon":5.401035,"is_reserved":false,"is_disabled":false,"rental_uris":{"android":"levelo://app?vid=44c30d2e-200e-4e74-a7b6-aad8d31bce62","ios":"levelo://app?vid=44c30d2e-200e-4e74-a7b6-aad8d31bce62"},"vehicle_type_id":"4","last_reported":1721516846,"current_range_meters":18800,"station_id":"ce4bh112rcd13ifvqda0","pricing_plan_id":"cebpf4jnsgd1na2vs0mg"},{"bike_id":"b1048006-c7d3-4894-99fe-8594aaf9d1cc","system_id":"levelo_inurba_marseille","lat":43.309371,"lon":5.401449,"is_reserved":false,"is_disabled":false,"rental_uris":{"android":"levelo://app?vid=b1048006-c7d3-4894-99fe-8594aaf9d1cc","ios":"levelo://app?vid=b1048006-c7d3-4894-99fe-8594aaf9d1cc"},"vehicle_type_id":"4","last_reported":1721516846,"current_range_meters":11200,"station_id":"ce4bgvp2rcd13ifvqct0","pricing_plan_id":"cebpf4jnsgd1na2vs0mg"},{"bike_id":"d0723523-f35a-472e-b198-a5153fc33bb6","system_id":"levelo_inurba_marseille","lat":43.33758,"lon":5.37479,"is_reserved":false,"is_disabled":false,"rental_uris":{"android":"levelo://app?vid=d0723523-f35a-472e-b198-a5153fc33bb6","ios":"levelo://app?vid=d0723523-f35a-472e-b198-a5153fc33bb6"},"vehicle_type_id":"4","last_reported":1721516846,"current_range_meters":20400,"station_id":"","pricing_plan_id":"cebpf4jnsgd1na2vs0mg"},{"bike_id":"f4f97782-f988-43e1-8ce3-c0d5033a1491","system_id":"levelo_inurba_marseille","lat":43.30642,"lon":5.401031,"is_reserved":false,"is_disabled":false,"rental_uris":{"android":"levelo://app?vid=f4f97782-f988-43e1-8ce3-c0d5033a1491","ios":"levelo://app?vid=f4f97782-f988-43e1-8ce3-c0d5033a1491"},"vehicle_type_id":"4","last_reported":1721516846,"current_range_meters":26400,"station_id":"ce4bh112rcd13ifvqda0","pricing_plan_id":"cebpf4jnsgd1na2vs0mg"},{"bike_id":"5a4a559d-c7ce-49d4-b883-405b3f3a3eb2","system_id":"levelo_inurba_marseille","lat":43.30642,"lon":5.401031,"is_reserved":false,"is_disabled":false,"rental_uris":{"android":"levelo://app?vid=5a4a559d-c7ce-49d4-b883-405b3f3a3eb2","ios":"levelo://app?vid=5a4a559d-c7ce-49d4-b883-405b3f3a3eb2"},"vehicle_type_id":"4","last_reported":1721516846,"current_range_meters":24400,"station_id":"ce4bh112rcd13ifvqda0","pricing_plan_id":"cebpf4jnsgd1na2vs0mg"},{"bike_id":"ac377a63-6a02-42fa-8a70-d5bb9b7546c9","system_id":"levelo_inurba_marseille","lat":43.337691,"lon":5.374353,"is_reserved":false,"is_disabled":false,"rental_uris":{"android":"levelo://app?vid=ac377a63-6a02-42fa-8a70-d5bb9b7546c9","ios":"levelo://app?vid=ac377a63-6a02-42fa-8a70-d5bb9b7546c9"},"vehicle_type_id":"4","last_reported":1721516846,"current_range_meters":19200,"station_id":"","pricing_plan_id":"cebpf4jnsgd1na2vs0mg"},{"bike_id":"e88e110d-7ebf-4611-afdf-788738fbdc02","system_id":"levelo_inurba_marseille","lat":43.306412,"lon":5.401035,"is_reserved":false,"is_disabled":false,"rental_uris":{"android":"levelo://app?vid=e88e110d-7ebf-4611-afdf-788738fbdc02","ios":"levelo://app?vid=e88e110d-7ebf-4611-afdf-788738fbdc02"},"vehicle_type_id":"4","last_reported":1721516846,"current_range_meters":20400,"station_id":"ce4bh112rcd13ifvqda0","pricing_plan_id":"cebpf4jnsgd1na2vs0mg"},{"bike_id":"af1cc6d8-3591-402a-8696-3016e51c486d","system_id":"levelo_inurba_marseille","lat":43.306412,"lon":5.401035,"is_reserved":false,"is_disabled":false,"rental_uris":{"android":"levelo://app?vid=af1cc6d8-3591-402a-8696-3016e51c486d","ios":"levelo://app?vid=af1cc6d8-3591-402a-8696-3016e51c486d"},"vehicle_type_id":"4","last_reported":1721516846,"current_range_meters":0,"station_id":"ce4bh112rcd13ifvqda0","pricing_plan_id":"cebpf4jnsgd1na2vs0mg"},{"bike_id":"60cbad40-7d1d-4ced-8939-fd0adaa7074b","system_id":"levelo_inurba_marseille","lat":43.30121,"lon":5.39847,"is_reserved":false,"is_disabled":false,"rental_uris":{"android":"levelo://app?vid=60cbad40-7d1d-4ced-8939-fd0adaa7074b","ios":"levelo://app?vid=60cbad40-7d1d-4ced-8939-fd0adaa7074b"},"vehicle_type_id":"4","last_reported":1721516846,"current_range_meters":31200,"station_id":"ce4bh0h2rcd13ifvqd40","pricing_plan_id":"cebpf4jnsgd1na2vs0mg"},{"bike_id":"c9241f82-263c-4af7-8e46-6960e91a8a52","system_id":"levelo_inurba_marseille","lat":43.301117,"lon":5.398795,"is_reserved":false,"is_disabled":false,"rental_uris":{"android":"levelo://app?vid=c9241f82-263c-4af7-8e46-6960e91a8a52","ios":"levelo://app?vid=c9241f82-263c-4af7-8e46-6960e91a8a52"},"vehicle_type_id":"4","last_reported":1721516846,"current_range_meters":31200,"station_id":"ce4bh0h2rcd13ifvqd40","pricing_plan_id":"cebpf4jnsgd1na2vs0mg"},{"bike_id":"ae727638-1afd-4230-9dd8-1a74e79b45b4","system_id":"levelo_inurba_marseille","lat":43.28733,"lon":5.36087,"is_reserved":false,"is_disabled":false,"rental_uris":{"android":"levelo://app?vid=ae727638-1afd-4230-9dd8-1a74e79b45b4","ios":"levelo://app?vid=ae727638-1afd-4230-9dd8-1a74e79b45b4"},"vehicle_type_id":"4","last_reported":1721516846,"current_range_meters":0,"station_id":"cki0cbj6b192h4jlfktg","pricing_plan_id":"cebpf4jnsgd1na2vs0mg"},{"bike_id":"3f0fc716-2a9b-4f16-b023-3cd73f8a1e40","system_id":"levelo_inurba_marseille","lat":43.28727,"lon":5.36078,"is_reserved":false,"is_disabled":false,"rental_uris":{"android":"levelo://app?vid=3f0fc716-2a9b-4f16-b023-3cd73f8a1e40","ios":"levelo://app?vid=3f0fc716-2a9b-4f16-b023-3cd73f8a1e40"},"vehicle_type_id":"4","last_reported":1721516846,"current_range_meters":30400,"station_id":"cki0cbj6b192h4jlfktg","pricing_plan_id":"cebpf4jnsgd1na2vs0mg"},{"bike_id":"4fd8535a-0081-48ee-bcc6-1c6da5d9a186","system_id":"levelo_inurba_marseille","lat":43.312609,"lon":5.401662,"is_reserved":false,"is_disabled":false,"rental_uris":{"android":"levelo://app?vid=4fd8535a-0081-48ee-bcc6-1c6da5d9a186","ios":"levelo://app?vid=4fd8535a-0081-48ee-bcc6-1c6da5d9a186"},"vehicle_type_id":"4","last_reported":1721516846,"current_range_meters":28800,"station_id":"ce4bh092rcd13ifvqd30","pricing_plan_id":"cebpf4jnsgd1na2vs0mg"},{"bike_id":"9fb01c9f-8ca6-48ff-b27b-bfe3e65d14bb","system_id":"levelo_inurba_marseille","lat":43.286961,"lon":5.373785,"is_reserved":false,"is_disabled":false,"rental_uris":{"android":"levelo://app?vid=9fb01c9f-8ca6-48ff-b27b-bfe3e65d14bb","ios":"levelo://app?vid=9fb01c9f-8ca6-48ff-b27b-bfe3e65d14bb"},"vehicle_type_id":"4","last_reported":1721516846,"current_range_meters":14400,"station_id":"ce4bh3p2rcd13ifvqdq0","pricing_plan_id":"cebpf4jnsgd1na2vs0mg"},{"bike_id":"c0e46319-7d1d-47c7-9c24-870f1e723c6b","system_id":"levelo_inurba_marseille","lat":43.286961,"lon":5.373785,"is_reserved":false,"is_disabled":false,"rental_uris":{"android":"levelo://app?vid=c0e46319-7d1d-47c7-9c24-870f1e723c6b","ios":"levelo://app?vid=c0e46319-7d1d-47c7-9c24-870f1e723c6b"},"vehicle_type_id":"4","last_reported":1721516846,"current_range_meters":0,"station_id":"ce4bh3p2rcd13ifvqdq0","pricing_plan_id":"cebpf4jnsgd1na2vs0mg"},{"bike_id":"2bfc7a8f-332a-435b-a507-fc107a5f81fc","system_id":"levelo_inurba_marseille","lat":43.29877,"lon":5.3974,"is_reserved":false,"is_disabled":false,"rental_uris":{"android":"levelo://app?vid=2bfc7a8f-332a-435b-a507-fc107a5f81fc","ios":"levelo://app?vid=2bfc7a8f-332a-435b-a507-fc107a5f81fc"},"vehicle_type_id":"4","last_reported":1721516846,"current_range_meters":31200,"station_id":"ce4bh0h2rcd13ifvqd50","pricing_plan_id":"cebpf4jnsgd1na2vs0mg"},{"bike_id":"1cddc14a-a024-4ae2-af30-9957efa9c547","system_id":"levelo_inurba_marseille","lat":43.286591,"lon":5.363346,"is_reserved":false,"is_disabled":false,"rental_uris":{"android":"levelo://app?vid=1cddc14a-a024-4ae2-af30-9957efa9c547","ios":"levelo://app?vid=1cddc14a-a024-4ae2-af30-9957efa9c547"},"vehicle_type_id":"4","last_reported":1721516846,"current_range_meters":6800,"station_id":"ce4bhah2rcd13ifvqej0","pricing_plan_id":"cebpf4jnsgd1na2vs0mg"},{"bike_id":"01772f89-d92c-47c9-9ccf-6c851be6bd6b","system_id":"levelo_inurba_marseille","lat":43.286591,"lon":5.363346,"is_reserved":false,"is_disabled":false,"rental_uris":{"android":"levelo://app?vid=01772f89-d92c-47c9-9ccf-6c851be6bd6b","ios":"levelo://app?vid=01772f89-d92c-47c9-9ccf-6c851be6bd6b"},"vehicle_type_id":"4","last_reported":1721516846,"current_range_meters":10400,"station_id":"ce4bhah2rcd13ifvqej0","pricing_plan_id":"cebpf4jnsgd1na2vs0mg"},{"bike_id":"547b40a9-47f8-4cb2-9c47-ca4ad6125526","system_id":"levelo_inurba_marseille","lat":43.286593,"lon":5.363346,"is_reserved":false,"is_disabled":false,"rental_uris":{"android":"levelo://app?vid=547b40a9-47f8-4cb2-9c47-ca4ad6125526","ios":"levelo://app?vid=547b40a9-47f8-4cb2-9c47-ca4ad6125526"},"vehicle_type_id":"4","last_reported":1721516846,"current_range_meters":12000,"station_id":"ce4bhah2rcd13ifvqej0","pricing_plan_id":"cebpf4jnsgd1na2vs0mg"},{"bike_id":"9b4d3593-ac77-4213-b7a2-2023264cfd31","system_id":"levelo_inurba_marseille","lat":43.29031,"lon":5.3866,"is_reserved":false,"is_disabled":false,"rental_uris":{"android":"levelo://app?vid=9b4d3593-ac77-4213-b7a2-2023264cfd31","ios":"levelo://app?vid=9b4d3593-ac77-4213-b7a2-2023264cfd31"},"vehicle_type_id":"4","last_reported":1721516846,"current_range_meters":0,"station_id":"ce4bh4p2rcd13ifvqe0g","pricing_plan_id":"cebpf4jnsgd1na2vs0mg"},{"bike_id":"4a0aa169-e899-4bba-ae84-b6aacc69c66f","system_id":"levelo_inurba_marseille","lat":43.286039,"lon":5.370679,"is_reserved":false,"is_disabled":false,"rental_uris":{"android":"levelo://app?vid=4a0aa169-e899-4bba-ae84-b6aacc69c66f","ios":"levelo://app?vid=4a0aa169-e899-4bba-ae84-b6aacc69c66f"},"vehicle_type_id":"4","last_reported":1721516846,"current_range_meters":4400,"station_id":"ce4bht12rcd13ifvqi60","pricing_plan_id":"cebpf4jnsgd1na2vs0mg"},{"bike_id":"faf91377-c6e6-4d96-912c-445a4592b7b8","system_id":"levelo_inurba_marseille","lat":43.287184,"lon":5.37937,"is_reserved":false,"is_disabled":false,"rental_uris":{"android":"levelo://app?vid=faf91377-c6e6-4d96-912c-445a4592b7b8","ios":"levelo://app?vid=faf91377-c6e6-4d96-912c-445a4592b7b8"},"vehicle_type_id":"4","last_reported":1721516846,"current_range_meters":5600,"station_id":"ce4bh9p2rcd13ifvqec0","pricing_plan_id":"cebpf4jnsgd1na2vs0mg"},{"bike_id":"71a79c3b-0dae-4118-b15d-dc4ca640cd11","system_id":"levelo_inurba_marseille","lat":43.316828,"lon":5.404723,"is_reserved":false,"is_disabled":false,"rental_uris":{"android":"levelo://app?vid=71a79c3b-0dae-4118-b15d-dc4ca640cd11","ios":"levelo://app?vid=71a79c3b-0dae-4118-b15d-dc4ca640cd11"},"vehicle_type_id":"4","last_reported":1721516846,"current_range_meters":17200,"station_id":"ce4bh012rcd13ifvqd00","pricing_plan_id":"cebpf4jnsgd1na2vs0mg"},{"bike_id":"3b423933-4053-4e8a-a391-33b4c4744a52","system_id":"levelo_inurba_marseille","lat":43.316828,"lon":5.404723,"is_reserved":false,"is_disabled":false,"rental_uris":{"android":"levelo://app?vid=3b423933-4053-4e8a-a391-33b4c4744a52","ios":"levelo://app?vid=3b423933-4053-4e8a-a391-33b4c4744a52"},"vehicle_type_id":"4","last_reported":1721516846,"current_range_meters":14400,"station_id":"ce4bh012rcd13ifvqd00","pricing_plan_id":"cebpf4jnsgd1na2vs0mg"},{"bike_id":"db2456f8-5ef8-4599-a26e-1667900fc221","system_id":"levelo_inurba_marseille","lat":43.316821,"lon":5.404737,"is_reserved":false,"is_disabled":false,"rental_uris":{"android":"levelo://app?vid=db2456f8-5ef8-4599-a26e-1667900fc221","ios":"levelo://app?vid=db2456f8-5ef8-4599-a26e-1667900fc221"},"vehicle_type_id":"4","last_reported":1721516846,"current_range_meters":27600,"station_id":"ce4bh012rcd13ifvqd00","pricing_plan_id":"cebpf4jnsgd1na2vs0mg"},{"bike_id":"a9cd064d-5c55-4702-b496-fa4f81745b74","system_id":"levelo_inurba_marseille","lat":43.316821,"lon":5.404737,"is_reserved":false,"is_disabled":false,"rental_uris":{"android":"levelo://app?vid=a9cd064d-5c55-4702-b496-fa4f81745b74","ios":"levelo://app?vid=a9cd064d-5c55-4702-b496-fa4f81745b74"},"vehicle_type_id":"4","last_reported":1721516846,"current_range_meters":27600,"station_id":"ce4bh012rcd13ifvqd00","pricing_plan_id":"cebpf4jnsgd1na2vs0mg"},{"bike_id":"c8a448b0-612f-4a16-a99b-f1893589db71","system_id":"levelo_inurba_marseille","lat":43.284534,"lon":5.358662,"is_reserved":false,"is_disabled":false,"rental_uris":{"android":"levelo://app?vid=c8a448b0-612f-4a16-a99b-f1893589db71","ios":"levelo://app?vid=c8a448b0-612f-4a16-a99b-f1893589db71"},"vehicle_type_id":"4","last_reported":1721516846,"current_range_meters":23200,"station_id":"ce4bhah2rcd13ifvqei0","pricing_plan_id":"cebpf4jnsgd1na2vs0mg"},{"bike_id":"2b09f276-1e06-4228-ae93-7b289ca8870c","system_id":"levelo_inurba_marseille","lat":43.28461,"lon":5.35894,"is_reserved":false,"is_disabled":false,"rental_uris":{"android":"levelo://app?vid=2b09f276-1e06-4228-ae93-7b289ca8870c","ios":"levelo://app?vid=2b09f276-1e06-4228-ae93-7b289ca8870c"},"vehicle_type_id":"4","last_reported":1721516846,"current_range_meters":10000,"station_id":"ce4bhah2rcd13ifvqei0","pricing_plan_id":"cebpf4jnsgd1na2vs0mg"},{"bike_id":"89570d4a-a34e-449a-b8a5-91f6e7469b00","system_id":"levelo_inurba_marseille","lat":43.284534,"lon":5.358662,"is_reserved":false,"is_disabled":false,"rental_uris":{"android":"levelo://app?vid=89570d4a-a34e-449a-b8a5-91f6e7469b00","ios":"levelo://app?vid=89570d4a-a34e-449a-b8a5-91f6e7469b00"},"vehicle_type_id":"4","last_reported":1721516846,"current_range_meters":9200,"station_id":"ce4bhah2rcd13ifvqei0","pricing_plan_id":"cebpf4jnsgd1na2vs0mg"},{"bike_id":"df4b1a16-4098-42d9-bb0d-48c877d0082d","system_id":"levelo_inurba_marseille","lat":43.294314,"lon":5.397498,"is_reserved":false,"is_disabled":false,"rental_uris":{"android":"levelo://app?vid=df4b1a16-4098-42d9-bb0d-48c877d0082d","ios":"levelo://app?vid=df4b1a16-4098-42d9-bb0d-48c877d0082d"},"vehicle_type_id":"4","last_reported":1721516846,"current_range_meters":4000,"station_id":"ce4bh3h2rcd13ifvqdo0","pricing_plan_id":"cebpf4jnsgd1na2vs0mg"},{"bike_id":"356cb77c-efe5-4fd0-a968-06400ab0b6fa","system_id":"levelo_inurba_marseille","lat":43.284534,"lon":5.358662,"is_reserved":false,"is_disabled":false,"rental_uris":{"android":"levelo://app?vid=356cb77c-efe5-4fd0-a968-06400ab0b6fa","ios":"levelo://app?vid=356cb77c-efe5-4fd0-a968-06400ab0b6fa"},"vehicle_type_id":"4","last_reported":1721516846,"current_range_meters":20800,"station_id":"ce4bhah2rcd13ifvqei0","pricing_plan_id":"cebpf4jnsgd1na2vs0mg"},{"bike_id":"55451659-128f-45be-b918-ffe357c840a3","system_id":"levelo_inurba_marseille","lat":43.285856,"lon":5.350771,"is_reserved":false,"is_disabled":false,"rental_uris":{"android":"levelo://app?vid=55451659-128f-45be-b918-ffe357c840a3","ios":"levelo://app?vid=55451659-128f-45be-b918-ffe357c840a3"},"vehicle_type_id":"4","last_reported":1721516846,"current_range_meters":27200,"station_id":"ce4bhch2rcd13ifvqeug","pricing_plan_id":"cebpf4jnsgd1na2vs0mg"},{"bike_id":"e6192aa3-4d39-454b-84ec-efb9a2e75fb8","system_id":"levelo_inurba_marseille","lat":43.283998,"lon":5.375062,"is_reserved":false,"is_disabled":false,"rental_uris":{"android":"levelo://app?vid=e6192aa3-4d39-454b-84ec-efb9a2e75fb8","ios":"levelo://app?vid=e6192aa3-4d39-454b-84ec-efb9a2e75fb8"},"vehicle_type_id":"4","last_reported":1721516846,"current_range_meters":31200,"station_id":"ce4bh412rcd13ifvqds0","pricing_plan_id":"cebpf4jnsgd1na2vs0mg"},{"bike_id":"5369729d-9313-4b5a-b6b0-1e023fc78d95","system_id":"levelo_inurba_marseille","lat":43.29571,"lon":5.39978,"is_reserved":false,"is_disabled":false,"rental_uris":{"android":"levelo://app?vid=5369729d-9313-4b5a-b6b0-1e023fc78d95","ios":"levelo://app?vid=5369729d-9313-4b5a-b6b0-1e023fc78d95"},"vehicle_type_id":"4","last_reported":1721516846,"current_range_meters":7600,"station_id":"ce4bh312rcd13ifvqdj0","pricing_plan_id":"cebpf4jnsgd1na2vs0mg"},{"bike_id":"abf19871-6620-4c07-851b-8ec7294660d8","system_id":"levelo_inurba_marseille","lat":43.29572,"lon":5.39979,"is_reserved":false,"is_disabled":false,"rental_uris":{"android":"levelo://app?vid=abf19871-6620-4c07-851b-8ec7294660d8","ios":"levelo://app?vid=abf19871-6620-4c07-851b-8ec7294660d8"},"vehicle_type_id":"4","last_reported":1721516846,"current_range_meters":4800,"station_id":"ce4bh312rcd13ifvqdj0","pricing_plan_id":"cebpf4jnsgd1na2vs0mg"},{"bike_id":"050a57b2-8816-4ef3-9b88-27ee72ea9f88","system_id":"levelo_inurba_marseille","lat":43.295713,"lon":5.399639,"is_reserved":false,"is_disabled":false,"rental_uris":{"android":"levelo://app?vid=050a57b2-8816-4ef3-9b88-27ee72ea9f88","ios":"levelo://app?vid=050a57b2-8816-4ef3-9b88-27ee72ea9f88"},"vehicle_type_id":"4","last_reported":1721516846,"current_range_meters":0,"station_id":"ce4bh312rcd13ifvqdj0","pricing_plan_id":"cebpf4jnsgd1na2vs0mg"},{"bike_id":"56906011-4622-48a8-93e7-3c9fd6b76fd9","system_id":"levelo_inurba_marseille","lat":43.283998,"lon":5.375062,"is_reserved":false,"is_disabled":false,"rental_uris":{"android":"levelo://app?vid=56906011-4622-48a8-93e7-3c9fd6b76fd9","ios":"levelo://app?vid=56906011-4622-48a8-93e7-3c9fd6b76fd9"},"vehicle_type_id":"4","last_reported":1721516846,"current_range_meters":6800,"station_id":"ce4bh412rcd13ifvqds0","pricing_plan_id":"cebpf4jnsgd1na2vs0mg"},{"bike_id":"982705c8-434b-4984-840a-d1e0da4b6124","system_id":"levelo_inurba_marseille","lat":43.29954,"lon":5.403116,"is_reserved":false,"is_disabled":false,"rental_uris":{"android":"levelo://app?vid=982705c8-434b-4984-840a-d1e0da4b6124","ios":"levelo://app?vid=982705c8-434b-4984-840a-d1e0da4b6124"},"vehicle_type_id":"4","last_reported":1721516846,"current_range_meters":14400,"station_id":"","pricing_plan_id":"cebpf4jnsgd1na2vs0mg"},{"bike_id":"18d42bff-0136-4bfa-be41-4875a6f053e1","system_id":"levelo_inurba_marseille","lat":43.283998,"lon":5.375062,"is_reserved":false,"is_disabled":false,"rental_uris":{"android":"levelo://app?vid=18d42bff-0136-4bfa-be41-4875a6f053e1","ios":"levelo://app?vid=18d42bff-0136-4bfa-be41-4875a6f053e1"},"vehicle_type_id":"4","last_reported":1721516846,"current_range_meters":17600,"station_id":"ce4bh412rcd13ifvqds0","pricing_plan_id":"cebpf4jnsgd1na2vs0mg"},{"bike_id":"5bca150e-4c44-459b-bfae-9ba5c67b8c02","system_id":"levelo_inurba_marseille","lat":43.286595,"lon":5.386795,"is_reserved":false,"is_disabled":false,"rental_uris":{"android":"levelo://app?vid=5bca150e-4c44-459b-bfae-9ba5c67b8c02","ios":"levelo://app?vid=5bca150e-4c44-459b-bfae-9ba5c67b8c02"},"vehicle_type_id":"4","last_reported":1721516846,"current_range_meters":0,"station_id":"ce4bh492rcd13ifvqdug","pricing_plan_id":"cebpf4jnsgd1na2vs0mg"},{"bike_id":"0e46db1c-aa33-4c6b-84c1-4105d8d326ff","system_id":"levelo_inurba_marseille","lat":43.319179,"lon":5.407725,"is_reserved":false,"is_disabled":false,"rental_uris":{"android":"levelo://app?vid=0e46db1c-aa33-4c6b-84c1-4105d8d326ff","ios":"levelo://app?vid=0e46db1c-aa33-4c6b-84c1-4105d8d326ff"},"vehicle_type_id":"4","last_reported":1721516846,"current_range_meters":31200,"station_id":"ce4bhq12rcd13ifvqhig","pricing_plan_id":"cebpf4jnsgd1na2vs0mg"},{"bike_id":"8f24d554-4697-4e40-9ea6-fffbd5b9f596","system_id":"levelo_inurba_marseille","lat":43.319179,"lon":5.407725,"is_reserved":false,"is_disabled":false,"rental_uris":{"android":"levelo://app?vid=8f24d554-4697-4e40-9ea6-fffbd5b9f596","ios":"levelo://app?vid=8f24d554-4697-4e40-9ea6-fffbd5b9f596"},"vehicle_type_id":"4","last_reported":1721516846,"current_range_meters":20400,"station_id":"ce4bhq12rcd13ifvqhig","pricing_plan_id":"cebpf4jnsgd1na2vs0mg"},{"bike_id":"c6ef4f86-073d-424e-9d04-2cb70451baff","system_id":"levelo_inurba_marseille","lat":43.319179,"lon":5.407725,"is_reserved":false,"is_disabled":false,"rental_uris":{"android":"levelo://app?vid=c6ef4f86-073d-424e-9d04-2cb70451baff","ios":"levelo://app?vid=c6ef4f86-073d-424e-9d04-2cb70451baff"},"vehicle_type_id":"4","last_reported":1721516846,"current_range_meters":25200,"station_id":"ce4bhq12rcd13ifvqhig","pricing_plan_id":"cebpf4jnsgd1na2vs0mg"},{"bike_id":"c88a2533-b03e-49e9-8e0f-90fcae18cfdb","system_id":"levelo_inurba_marseille","lat":43.319179,"lon":5.407725,"is_reserved":false,"is_disabled":false,"rental_uris":{"android":"levelo://app?vid=c88a2533-b03e-49e9-8e0f-90fcae18cfdb","ios":"levelo://app?vid=c88a2533-b03e-49e9-8e0f-90fcae18cfdb"},"vehicle_type_id":"4","last_reported":1721516846,"current_range_meters":31200,"station_id":"ce4bhq12rcd13ifvqhig","pricing_plan_id":"cebpf4jnsgd1na2vs0mg"},{"bike_id":"70c0504f-e7f4-4e63-838f-eb8c2a8bcf79","system_id":"levelo_inurba_marseille","lat":43.319179,"lon":5.407725,"is_reserved":false,"is_disabled":false,"rental_uris":{"android":"levelo://app?vid=70c0504f-e7f4-4e63-838f-eb8c2a8bcf79","ios":"levelo://app?vid=70c0504f-e7f4-4e63-838f-eb8c2a8bcf79"},"vehicle_type_id":"4","last_reported":1721516846,"current_range_meters":27200,"station_id":"ce4bhq12rcd13ifvqhig","pricing_plan_id":"cebpf4jnsgd1na2vs0mg"},{"bike_id":"4f071ffb-ae52-429f-bc2e-669cd2ae2229","system_id":"levelo_inurba_marseille","lat":43.28836,"lon":5.39127,"is_reserved":false,"is_disabled":false,"rental_uris":{"android":"levelo://app?vid=4f071ffb-ae52-429f-bc2e-669cd2ae2229","ios":"levelo://app?vid=4f071ffb-ae52-429f-bc2e-669cd2ae2229"},"vehicle_type_id":"4","last_reported":1721516846,"current_range_meters":18400,"station_id":"","pricing_plan_id":"cebpf4jnsgd1na2vs0mg"},{"bike_id":"095c779d-d2aa-4d11-bb31-1c1e7a1b6818","system_id":"levelo_inurba_marseille","lat":43.33717,"lon":5.391857,"is_reserved":false,"is_disabled":false,"rental_uris":{"android":"levelo://app?vid=095c779d-d2aa-4d11-bb31-1c1e7a1b6818","ios":"levelo://app?vid=095c779d-d2aa-4d11-bb31-1c1e7a1b6818"},"vehicle_type_id":"4","last_reported":1721516846,"current_range_meters":23600,"station_id":"ce4bhr92rcd13ifvqhsg","pricing_plan_id":"cebpf4jnsgd1na2vs0mg"},{"bike_id":"e99dff7f-f7cb-40fa-8b0a-cf8e0fc2ad50","system_id":"levelo_inurba_marseille","lat":43.323464,"lon":5.406297,"is_reserved":false,"is_disabled":false,"rental_uris":{"android":"levelo://app?vid=e99dff7f-f7cb-40fa-8b0a-cf8e0fc2ad50","ios":"levelo://app?vid=e99dff7f-f7cb-40fa-8b0a-cf8e0fc2ad50"},"vehicle_type_id":"4","last_reported":1721516846,"current_range_meters":11200,"station_id":"ce4bhq92rcd13ifvqhjg","pricing_plan_id":"cebpf4jnsgd1na2vs0mg"},{"bike_id":"24931dfb-2c60-4330-8cdc-e14155391ccd","system_id":"levelo_inurba_marseille","lat":43.323464,"lon":5.406297,"is_reserved":false,"is_disabled":false,"rental_uris":{"android":"levelo://app?vid=24931dfb-2c60-4330-8cdc-e14155391ccd","ios":"levelo://app?vid=24931dfb-2c60-4330-8cdc-e14155391ccd"},"vehicle_type_id":"4","last_reported":1721516846,"current_range_meters":18000,"station_id":"ce4bhq92rcd13ifvqhjg","pricing_plan_id":"cebpf4jnsgd1na2vs0mg"},{"bike_id":"57481249-3d07-4101-83ed-30c52800bec7","system_id":"levelo_inurba_marseille","lat":43.323464,"lon":5.406297,"is_reserved":false,"is_disabled":false,"rental_uris":{"android":"levelo://app?vid=57481249-3d07-4101-83ed-30c52800bec7","ios":"levelo://app?vid=57481249-3d07-4101-83ed-30c52800bec7"},"vehicle_type_id":"4","last_reported":1721516846,"current_range_meters":16000,"station_id":"ce4bhq92rcd13ifvqhjg","pricing_plan_id":"cebpf4jnsgd1na2vs0mg"},{"bike_id":"d8adf910-d5da-4fd5-b707-4c18d894a12b","system_id":"levelo_inurba_marseille","lat":43.323464,"lon":5.406297,"is_reserved":false,"is_disabled":false,"rental_uris":{"android":"levelo://app?vid=d8adf910-d5da-4fd5-b707-4c18d894a12b","ios":"levelo://app?vid=d8adf910-d5da-4fd5-b707-4c18d894a12b"},"vehicle_type_id":"4","last_reported":1721516846,"current_range_meters":20400,"station_id":"ce4bhq92rcd13ifvqhjg","pricing_plan_id":"cebpf4jnsgd1na2vs0mg"},{"bike_id":"b4db5a51-561f-4ff9-bf60-dc34098a4bf4","system_id":"levelo_inurba_marseille","lat":43.323464,"lon":5.406297,"is_reserved":false,"is_disabled":false,"rental_uris":{"android":"levelo://app?vid=b4db5a51-561f-4ff9-bf60-dc34098a4bf4","ios":"levelo://app?vid=b4db5a51-561f-4ff9-bf60-dc34098a4bf4"},"vehicle_type_id":"4","last_reported":1721516846,"current_range_meters":17600,"station_id":"ce4bhq92rcd13ifvqhjg","pricing_plan_id":"cebpf4jnsgd1na2vs0mg"},{"bike_id":"2b457cdb-03e4-40e8-b518-2628bdd0f2b3","system_id":"levelo_inurba_marseille","lat":43.33717,"lon":5.391857,"is_reserved":false,"is_disabled":false,"rental_uris":{"android":"levelo://app?vid=2b457cdb-03e4-40e8-b518-2628bdd0f2b3","ios":"levelo://app?vid=2b457cdb-03e4-40e8-b518-2628bdd0f2b3"},"vehicle_type_id":"4","last_reported":1721516846,"current_range_meters":18800,"station_id":"ce4bhr92rcd13ifvqhsg","pricing_plan_id":"cebpf4jnsgd1na2vs0mg"},{"bike_id":"e660bb79-2a06-438f-b53f-fddfe259a491","system_id":"levelo_inurba_marseille","lat":43.323464,"lon":5.406297,"is_reserved":false,"is_disabled":false,"rental_uris":{"android":"levelo://app?vid=e660bb79-2a06-438f-b53f-fddfe259a491","ios":"levelo://app?vid=e660bb79-2a06-438f-b53f-fddfe259a491"},"vehicle_type_id":"4","last_reported":1721516846,"current_range_meters":8400,"station_id":"ce4bhq92rcd13ifvqhjg","pricing_plan_id":"cebpf4jnsgd1na2vs0mg"},{"bike_id":"eb2e20b7-4717-46fa-9088-99e285b1fe52","system_id":"levelo_inurba_marseille","lat":43.323464,"lon":5.406297,"is_reserved":false,"is_disabled":false,"rental_uris":{"android":"levelo://app?vid=eb2e20b7-4717-46fa-9088-99e285b1fe52","ios":"levelo://app?vid=eb2e20b7-4717-46fa-9088-99e285b1fe52"},"vehicle_type_id":"4","last_reported":1721516846,"current_range_meters":18800,"station_id":"ce4bhq92rcd13ifvqhjg","pricing_plan_id":"cebpf4jnsgd1na2vs0mg"},