{"last_updated":1725977323,"ttl":30,"version":"2.2","data":{"bikes":[{"bike_id":"7d877363-4448-4b92-8e0a-8d49e7075f50","system_id":"levelo_inurba_marseille","lat":43.27377,"lon":5.36252,"is_reserved":false,"is_disabled":false,"rental_uris":{"android":"levelo://app?vid=7d877363-4448-4b92-8e0a-8d49e7075f50","ios":"levelo://app?vid=7d877363-4448-4b92-8e0a-8d49e7075f50"},"vehicle_type_id":"4","last_reported":1725977323,"current_range_meters":32400,"station_id":"ce4bhbh2rcd13ifvqeo0","pricing_plan_id":"cebpf4jnsgd1na2vs0mg"},{"bike_id":"614cb3c7-7a6e-4201-85b8-598968480966","system_id":"levelo_inurba_marseille","lat":43.30536,"lon":5.367,"is_reserved":false,"is_disabled":false,"rental_uris":{"android":"levelo://app?vid=614cb3c7-7a6e-4201-85b8-598968480966","ios":"levelo://app?vid=614cb3c7-7a6e-4201-85b8-598968480966"},"vehicle_type_id":"4","last_reported":1725977323,"current_range_meters":34000,"station_id":"ce4bgrp2rcd13ifvqc9g","pricing_plan_id":"cebpf4jnsgd1na2vs0mg"},{"bike_id":"37182dd3-a2fb-4a22-95b6-20329edf151b","system_id":"levelo_inurba_marseille","lat":43.24181,"lon":5.39735,"is_reserved":false,"is_disabled":false,"rental_uris":{"android":"levelo://app?vid=37182dd3-a2fb-4a22-95b6-20329edf151b","ios":"levelo://app?vid=37182dd3-a2fb-4a22-95b6-20329edf151b"},"vehicle_type_id":"4","last_reported":1725977323,"current_range_meters":24800,"station_id":"ce4bhn12rcd13ifvqgpg","pricing_plan_id":"cebpf4jnsgd1na2vs0mg"},{"bike_id":"c8e29672-ff3e-4bc9-bdf1-4f66dae93711","system_id":"levelo_inurba_marseille","lat":43.30547,"lon":5.36711,"is_reserved":false,"is_disabled":false,"rental_uris":{"android":"levelo://app?vid=c8e29672-ff3e-4bc9-bdf1-4f66dae93711","ios":"levelo://app?vid=c8e29672-ff3e-4bc9-bdf1-4f66dae93711"},"vehicle_type_id":"4","last_reported":1725977323,"current_range_meters":31200,"station_id":"ce4bgrp2rcd13ifvqc9g","pricing_plan_id":"cebpf4jnsgd1na2vs0mg"},{"bike_id":"ea779118-3afa-4928-8ab5-0649affabc87","system_id":"levelo_inurba_marseille","lat":43.32493,"lon":5.36567,"is_reserved":false,"is_disabled":false,"rental_uris":{"android":"levelo://app?vid=ea779118-3afa-4928-8ab5-0649affabc87","ios":"levelo://app?vid=ea779118-3afa-4928-8ab5-0649affabc87"},"vehicle_type_id":"4","last_reported":1725977323,"current_range_meters":20400,"station_id":"ce4bhs12rcd13ifvqhvg","pricing_plan_id":"cebpf4jnsgd1na2vs0mg"},{"bike_id":"735998a3-729f-4390-bf53-f8a224045445","system_id":"levelo_inurba_marseille","lat":43.23146,"lon":5.43727,"is_reserved":false,"is_disabled":false,"rental_uris":{"android":"levelo://app?vid=735998a3-729f-4390-bf53-f8a224045445","ios":"levelo://app?vid=735998a3-729f-4390-bf53-f8a224045445"},"vehicle_type_id":"4","last_reported":1725977323,"current_range_meters":28800,"station_id":"ce4bhmp2rcd13ifvqgog","pricing_plan_id":"cebpf4jnsgd1na2vs0mg"},{"bike_id":"684e978f-429d-4c65-a560-3d8809e981a1","system_id":"levelo_inurba_marseille","lat":43.25862,"lon":5.39896,"is_reserved":false,"is_disabled":false,"rental_uris":{"android":"levelo://app?vid=684e978f-429d-4c65-a560-3d8809e981a1","ios":"levelo://app?vid=684e978f-429d-4c65-a560-3d8809e981a1"},"vehicle_type_id":"4","last_reported":1725977323,"current_range_meters":30400,"station_id":"ce4bhl92rcd13ifvqghg","pricing_plan_id":"cebpf4jnsgd1na2vs0mg"},{"bike_id":"df1336a7-6eb6-465b-a836-f0e8eb5d269d","system_id":"levelo_inurba_marseille","lat":43.30545,"lon":5.36522,"is_reserved":false,"is_disabled":false,"rental_uris":{"android":"levelo://app?vid=df1336a7-6eb6-465b-a836-f0e8eb5d269d","ios":"levelo://app?vid=df1336a7-6eb6-465b-a836-f0e8eb5d269d"},"vehicle_type_id":"4","last_reported":1725977323,"current_range_meters":26000,"station_id":"ce4bgs12rcd13ifvqcag","pricing_plan_id":"cebpf4jnsgd1na2vs0mg"},{"bike_id":"7468e6de-4b3b-44a0-a565-74e5db766e47","system_id":"levelo_inurba_marseille","lat":43.27068,"lon":5.42272,"is_reserved":false,"is_disabled":false,"rental_uris":{"android":"levelo://app?vid=7468e6de-4b3b-44a0-a565-74e5db766e47","ios":"levelo://app?vid=7468e6de-4b3b-44a0-a565-74e5db766e47"},"vehicle_type_id":"4","last_reported":1725977323,"current_range_meters":34800,"station_id":"ce4bhk92rcd13ifvqgb0","pricing_plan_id":"cebpf4jnsgd1na2vs0mg"},{"bike_id":"42dd6ac3-7a0e-427e-8bb4-397b4aae312d","system_id":"levelo_inurba_marseille","lat":43.25823,"lon":5.3943,"is_reserved":false,"is_disabled":false,"rental_uris":{"android":"levelo://app?vid=42dd6ac3-7a0e-427e-8bb4-397b4aae312d","ios":"levelo://app?vid=42dd6ac3-7a0e-427e-8bb4-397b4aae312d"},"vehicle_type_id":"4","last_reported":1725977323,"current_range_meters":38400,"station_id":"ce4bhip2rcd13ifvqft0","pricing_plan_id":"cebpf4jnsgd1na2vs0mg"},{"bike_id":"090b928a-8bf6-4d7d-a657-49620f6daa21","system_id":"levelo_inurba_marseille","lat":43.31484,"lon":5.37305,"is_reserved":false,"is_disabled":false,"rental_uris":{"android":"levelo://app?vid=090b928a-8bf6-4d7d-a657-49620f6daa21","ios":"levelo://app?vid=090b928a-8bf6-4d7d-a657-49620f6daa21"},"vehicle_type_id":"4","last_reported":1725977323,"current_range_meters":17600,"station_id":"ce4bgt12rcd13ifvqcd0","pricing_plan_id":"cebpf4jnsgd1na2vs0mg"},{"bike_id":"b1f4b7fb-0238-4f72-85e6-fe5b21641860","system_id":"levelo_inurba_marseille","lat":43.32297,"lon":5.38267,"is_reserved":false,"is_disabled":false,"rental_uris":{"android":"levelo://app?vid=b1f4b7fb-0238-4f72-85e6-fe5b21641860","ios":"levelo://app?vid=b1f4b7fb-0238-4f72-85e6-fe5b21641860"},"vehicle_type_id":"4","last_reported":1725977323,"current_range_meters":31200,"station_id":"ce4bhr12rcd13ifvqhqg","pricing_plan_id":"cebpf4jnsgd1na2vs0mg"},{"bike_id":"278ae90f-898d-43af-878b-deaa555c55ee","system_id":"levelo_inurba_marseille","lat":43.23147,"lon":5.43716,"is_reserved":false,"is_disabled":false,"rental_uris":{"android":"levelo://app?vid=278ae90f-898d-43af-878b-deaa555c55ee","ios":"levelo://app?vid=278ae90f-898d-43af-878b-deaa555c55ee"},"vehicle_type_id":"4","last_reported":1725977323,"current_range_meters":36800,"station_id":"ce4bhmp2rcd13ifvqgog","pricing_plan_id":"cebpf4jnsgd1na2vs0mg"},{"bike_id":"3b2f86b5-766d-4ede-b300-057cbaf7cca5","system_id":"levelo_inurba_marseille","lat":43.29857,"lon":5.3974,"is_reserved":false,"is_disabled":false,"rental_uris":{"android":"levelo://app?vid=3b2f86b5-766d-4ede-b300-057cbaf7cca5","ios":"levelo://app?vid=3b2f86b5-766d-4ede-b300-057cbaf7cca5"},"vehicle_type_id":"4","last_reported":1725977323,"current_range_meters":14800,"station_id":"ce4bh0h2rcd13ifvqd50","pricing_plan_id":"cebpf4jnsgd1na2vs0mg"},{"bike_id":"96dbe859-bd8d-4fce-8397-119bf2fca5c7","system_id":"levelo_inurba_marseille","lat":43.30539,"lon":5.367,"is_reserved":false,"is_disabled":false,"rental_uris":{"android":"levelo://app?vid=96dbe859-bd8d-4fce-8397-119bf2fca5c7","ios":"levelo://app?vid=96dbe859-bd8d-4fce-8397-119bf2fca5c7"},"vehicle_type_id":"4","last_reported":1725977323,"current_range_meters":33200,"station_id":"ce4bgrp2rcd13ifvqc9g","pricing_plan_id":"cebpf4jnsgd1na2vs0mg"},{"bike_id":"0a9cca8b-8e2b-4815-afd7-dd206d11f261","system_id":"levelo_inurba_marseille","lat":43.26961,"lon":5.38634,"is_reserved":false,"is_disabled":false,"rental_uris":{"android":"levelo://app?vid=0a9cca8b-8e2b-4815-afd7-dd206d11f261","ios":"levelo://app?vid=0a9cca8b-8e2b-4815-afd7-dd206d11f261"},"vehicle_type_id":"4","last_reported":1725977323,"current_range_meters":23200,"station_id":"ce4bhh92rcd13ifvqfh0","pricing_plan_id":"cebpf4jnsgd1na2vs0mg"},{"bike_id":"ce974845-1d48-4c66-8dc3-a3e541df3d2c","system_id":"levelo_inurba_marseille","lat":43.298,"lon":5.38103,"is_reserved":false,"is_disabled":false,"rental_uris":{"android":"levelo://app?vid=ce974845-1d48-4c66-8dc3-a3e541df3d2c","ios":"levelo://app?vid=ce974845-1d48-4c66-8dc3-a3e541df3d2c"},"vehicle_type_id":"4","last_reported":1725977323,"current_range_meters":35200,"station_id":"ce4bgip2rcd13ifvqbb0","pricing_plan_id":"cebpf4jnsgd1na2vs0mg"},{"bike_id":"893c4ca0-4220-43c1-8b42-7dedc128bd22","system_id":"levelo_inurba_marseille","lat":43.289335,"lon":5.39638,"is_reserved":false,"is_disabled":false,"rental_uris":{"android":"levelo://app?vid=893c4ca0-4220-43c1-8b42-7dedc128bd22","ios":"levelo://app?vid=893c4ca0-4220-43c1-8b42-7dedc128bd22"},"vehicle_type_id":"4","last_reported":1725977323,"current_range_meters":2000,"station_id":"ce4bh3h2rcd13ifvqdn0","pricing_plan_id":"cebpf4jnsgd1na2vs0mg"},{"bike_id":"f1ce545f-b411-47e4-807a-30ab2ae02117","system_id":"levelo_inurba_marseille","lat":43.2861,"lon":5.35109,"is_reserved":false,"is_disabled":false,"rental_uris":{"android":"levelo://app?vid=f1ce545f-b411-47e4-807a-30ab2ae02117","ios":"levelo://app?vid=f1ce545f-b411-47e4-807a-30ab2ae02117"},"vehicle_type_id":"4","last_reported":1725977323,"current_range_meters":35600,"station_id":"ce4bhch2rcd13ifvqeug","pricing_plan_id":"cebpf4jnsgd1na2vs0mg"},{"bike_id":"8932dc83-7054-4816-8142-c47696795558","system_id":"levelo_inurba_marseille","lat":43.30424,"lon":5.3889,"is_reserved":false,"is_disabled":false,"rental_uris":{"android":"levelo://app?vid=8932dc83-7054-4816-8142-c47696795558","ios":"levelo://app?vid=8932dc83-7054-4816-8142-c47696795558"},"vehicle_type_id":"4","last_reported":1725977323,"current_range_meters":22400,"station_id":"ce4bgk12rcd13ifvqbi0","pricing_plan_id":"cebpf4jnsgd1na2vs0mg"},{"bike_id":"97ee11ed-b5f9-4048-8c2a-077a1a9b848d","system_id":"levelo_inurba_marseille","lat":43.24543,"lon":5.39527,"is_reserved":false,"is_disabled":false,"rental_uris":{"android":"levelo://app?vid=97ee11ed-b5f9-4048-8c2a-077a1a9b848d","ios":"levelo://app?vid=97ee11ed-b5f9-4048-8c2a-077a1a9b848d"},"vehicle_type_id":"4","last_reported":1725977323,"current_range_meters":19600,"station_id":"ce4bhlp2rcd13ifvqgjg","pricing_plan_id":"cebpf4jnsgd1na2vs0mg"},{"bike_id":"949740a5-baad-414e-b934-26ec039034a4","system_id":"levelo_inurba_marseille","lat":43.2709,"lon":5.39414,"is_reserved":false,"is_disabled":false,"rental_uris":{"android":"levelo://app?vid=949740a5-baad-414e-b934-26ec039034a4","ios":"levelo://app?vid=949740a5-baad-414e-b934-26ec039034a4"},"vehicle_type_id":"4","last_reported":1725977323,"current_range_meters":6800,"station_id":"","pricing_plan_id":"cebpf4jnsgd1na2vs0mg"},{"bike_id":"dec72014-5456-4b93-8753-a354bfa5ff63","system_id":"levelo_inurba_marseille","lat":43.28436,"lon":5.39191,"is_reserved":false,"is_disabled":false,"rental_uris":{"android":"levelo://app?vid=dec72014-5456-4b93-8753-a354bfa5ff63","ios":"levelo://app?vid=dec72014-5456-4b93-8753-a354bfa5ff63"},"vehicle_type_id":"4","last_reported":1725977323,"current_range_meters":37600,"station_id":"ce4bhoh2rcd13ifvqh5g","pricing_plan_id":"cebpf4jnsgd1na2vs0mg"},{"bike_id":"6c02a711-e0d4-4009-9d44-fba5428f55b2","system_id":"levelo_inurba_marseille","lat":43.23194,"lon":5.3556,"is_reserved":false,"is_disabled":false,"rental_uris":{"android":"levelo://app?vid=6c02a711-e0d4-4009-9d44-fba5428f55b2","ios":"levelo://app?vid=6c02a711-e0d4-4009-9d44-fba5428f55b2"},"vehicle_type_id":"4","last_reported":1725977323,"current_range_meters":9200,"station_id":"ce4bhu92rcd13ifvqi70","pricing_plan_id":"cebpf4jnsgd1na2vs0mg"},{"bike_id":"c5c2776c-41fa-48ef-866a-58217c169f97","system_id":"levelo_inurba_marseille","lat":43.24661,"lon":5.38171,"is_reserved":false,"is_disabled":false,"rental_uris":{"android":"levelo://app?vid=c5c2776c-41fa-48ef-866a-58217c169f97","ios":"levelo://app?vid=c5c2776c-41fa-48ef-866a-58217c169f97"},"vehicle_type_id":"4","last_reported":1725977323,"current_range_meters":20400,"station_id":"ce4bhih2rcd13ifvqfr0","pricing_plan_id":"cebpf4jnsgd1na2vs0mg"},{"bike_id":"8ee0229d-5517-4ffe-9c58-9f32b68fa674","system_id":"levelo_inurba_marseille","lat":43.27842,"lon":5.39211,"is_reserved":false,"is_disabled":false,"rental_uris":{"android":"levelo://app?vid=8ee0229d-5517-4ffe-9c58-9f32b68fa674","ios":"levelo://app?vid=8ee0229d-5517-4ffe-9c58-9f32b68fa674"},"vehicle_type_id":"4","last_reported":1725977323,"current_range_meters":20000,"station_id":"ce4bhjp2rcd13ifvqga0","pricing_plan_id":"cebpf4jnsgd1na2vs0mg"},{"bike_id":"3beaf4c4-cb1d-43c7-9158-7cddb25adbb9","system_id":"levelo_inurba_marseille","lat":43.32292,"lon":5.38271,"is_reserved":false,"is_disabled":false,"rental_uris":{"android":"levelo://app?vid=3beaf4c4-cb1d-43c7-9158-7cddb25adbb9","ios":"levelo://app?vid=3beaf4c4-cb1d-43c7-9158-7cddb25adbb9"},"vehicle_type_id":"4","last_reported":1725977323,"current_range_meters":14400,"station_id":"ce4bhr12rcd13ifvqhqg","pricing_plan_id":"cebpf4jnsgd1na2vs0mg"},{"bike_id":"b71abc5a-941f-4844-b3c9-bba34ad84ede","system_id":"levelo_inurba_marseille","lat":43.255013,"lon":5.376479,"is_reserved":false,"is_disabled":false,"rental_uris":{"android":"levelo://app?vid=b71abc5a-941f-4844-b3c9-bba34ad84ede","ios":"levelo://app?vid=b71abc5a-941f-4844-b3c9-bba34ad84ede"},"vehicle_type_id":"4","last_reported":1725977323,"current_range_meters":21600,"station_id":"ce4bhh12rcd13ifvqff0","pricing_plan_id":"cebpf4jnsgd1na2vs0mg"},{"bike_id":"dd994a43-ae47-4092-ba10-05420a4e4cd9","system_id":"levelo_inurba_marseille","lat":43.31073,"lon":5.38361,"is_reserved":false,"is_disabled":false,"rental_uris":{"android":"levelo://app?vid=dd994a43-ae47-4092-ba10-05420a4e4cd9","ios":"levelo://app?vid=dd994a43-ae47-4092-ba10-05420a4e4cd9"},"vehicle_type_id":"4","last_reported":1725977323,"current_range_meters":33200,"station_id":"ce4bgv92rcd13ifvqcr0","pricing_plan_id":"cebpf4jnsgd1na2vs0mg"},{"bike_id":"1f69f027-c8c5-48bc-aceb-4c1ced32d309","system_id":"levelo_inurba_marseille","lat":43.30254,"lon":5.40067,"is_reserved":false,"is_disabled":false,"rental_uris":{"android":"levelo://app?vid=1f69f027-c8c5-48bc-aceb-4c1ced32d309","ios":"levelo://app?vid=1f69f027-c8c5-48bc-aceb-4c1ced32d309"},"vehicle_type_id":"4","last_reported":1725977323,"current_range_meters":22000,"station_id":"ce4bgvh2rcd13ifvqcs0","pricing_plan_id":"cebpf4jnsgd1na2vs0mg"},{"bike_id":"e03905ad-1087-491b-ba2b-0aabe10b3cc4","system_id":"levelo_inurba_marseille","lat":43.26495,"lon":5.39551,"is_reserved":false,"is_disabled":false,"rental_uris":{"android":"levelo://app?vid=e03905ad-1087-491b-ba2b-0aabe10b3cc4","ios":"levelo://app?vid=e03905ad-1087-491b-ba2b-0aabe10b3cc4"},"vehicle_type_id":"4","last_reported":1725977323,"current_range_meters":32800,"station_id":"ce4bhi12rcd13ifvqfq0","pricing_plan_id":"cebpf4jnsgd1na2vs0mg"},{"bike_id":"1dc0fdbe-8037-480b-b58c-603dc1eacd0d","system_id":"levelo_inurba_marseille","lat":43.29276,"lon":5.40117,"is_reserved":false,"is_disabled":false,"rental_uris":{"android":"levelo://app?vid=1dc0fdbe-8037-480b-b58c-603dc1eacd0d","ios":"levelo://app?vid=1dc0fdbe-8037-480b-b58c-603dc1eacd0d"},"vehicle_type_id":"4","last_reported":1725977323,"current_range_meters":15200,"station_id":"ce4bh312rcd13ifvqdk0","pricing_plan_id":"cebpf4jnsgd1na2vs0mg"},{"bike_id":"659bb493-b2a2-4da4-8f8f-a2e4392eeaa7","system_id":"levelo_inurba_marseille","lat":43.282781,"lon":5.350711,"is_reserved":false,"is_disabled":false,"rental_uris":{"android":"levelo://app?vid=659bb493-b2a2-4da4-8f8f-a2e4392eeaa7","ios":"levelo://app?vid=659bb493-b2a2-4da4-8f8f-a2e4392eeaa7"},"vehicle_type_id":"4","last_reported":1725977323,"current_range_meters":19600,"station_id":"ce4bhbp2rcd13ifvqerg","pricing_plan_id":"cebpf4jnsgd1na2vs0mg"},{"bike_id":"93f525db-906e-4e02-b346-12aa74777590","system_id":"levelo_inurba_marseille","lat":43.23151,"lon":5.4372,"is_reserved":false,"is_disabled":false,"rental_uris":{"android":"levelo://app?vid=93f525db-906e-4e02-b346-12aa74777590","ios":"levelo://app?vid=93f525db-906e-4e02-b346-12aa74777590"},"vehicle_type_id":"4","last_reported":1725977323,"current_range_meters":16000,"station_id":"ce4bhmp2rcd13ifvqgog","pricing_plan_id":"cebpf4jnsgd1na2vs0mg"},{"bike_id":"c24de65c-6650-4c34-9b6c-9c8ecc0399c2","system_id":"levelo_inurba_marseille","lat":43.28617,"lon":5.35104,"is_reserved":false,"is_disabled":false,"rental_uris":{"android":"levelo://app?vid=c24de65c-6650-4c34-9b6c-9c8ecc0399c2","ios":"levelo://app?vid=c24de65c-6650-4c34-9b6c-9c8ecc0399c2"},"vehicle_type_id":"4","last_reported":1725977323,"current_range_meters":36400,"station_id":"ce4bhch2rcd13ifvqeug","pricing_plan_id":"cebpf4jnsgd1na2vs0mg"},{"bike_id":"582f6b72-2e32-43e8-8ae4-6794cc27eef7","system_id":"levelo_inurba_marseille","lat":43.31329,"lon":5.39695,"is_reserved":false,"is_disabled":false,"rental_uris":{"android":"levelo://app?vid=582f6b72-2e32-43e8-8ae4-6794cc27eef7","ios":"levelo://app?vid=582f6b72-2e32-43e8-8ae4-6794cc27eef7"},"vehicle_type_id":"4","last_reported":1725977323,"current_range_meters":12400,"station_id":"ce4bgvp2rcd13ifvqcu0","pricing_plan_id":"cebpf4jnsgd1na2vs0mg"},{"bike_id":"d84a0d30-4ac4-4e6a-b8f8-2bddec432685","system_id":"levelo_inurba_marseille","lat":43.3175,"lon":5.39012,"is_reserved":false,"is_disabled":false,"rental_uris":{"android":"levelo://app?vid=d84a0d30-4ac4-4e6a-b8f8-2bddec432685","ios":"levelo://app?vid=d84a0d30-4ac4-4e6a-b8f8-2bddec432685"},"vehicle_type_id":"4","last_reported":1725977323,"current_range_meters":4800,"station_id":"ce4bhqp2rcd13ifvqhng","pricing_plan_id":"cebpf4jnsgd1na2vs0mg"},{"bike_id":"e52af0a4-607d-474f-bb60-cc35457d7347","system_id":"levelo_inurba_marseille","lat":43.27968,"lon":5.38727,"is_reserved":false,"is_disabled":false,"rental_uris":{"android":"levelo://app?vid=e52af0a4-607d-474f-bb60-cc35457d7347","ios":"levelo://app?vid=e52af0a4-607d-474f-bb60-cc35457d7347"},"vehicle_type_id":"4","last_reported":1725977323,"current_range_meters":20000,"station_id":"ce4bhg12rcd13ifvqf80","pricing_plan_id":"cebpf4jnsgd1na2vs0mg"},{"bike_id":"e1946b08-4bd2-4bd8-bca3-558872b89e8b","system_id":"levelo_inurba_marseille","lat":43.27489,"lon":5.42459,"is_reserved":false,"is_disabled":false,"rental_uris":{"android":"levelo://app?vid=e1946b08-4bd2-4bd8-bca3-558872b89e8b","ios":"levelo://app?vid=e1946b08-4bd2-4bd8-bca3-558872b89e8b"},"vehicle_type_id":"4","last_reported":1725977323,"current_range_meters":11200,"station_id":"ce4bhn92rcd13ifvqgrg","pricing_plan_id":"cebpf4jnsgd1na2vs0mg"},{"bike_id":"a13f03dd-a149-4b66-8883-db940e9250e2","system_id":"levelo_inurba_marseille","lat":43.28609,"lon":5.3707,"is_reserved":false,"is_disabled":false,"rental_uris":{"android":"levelo://app?vid=a13f03dd-a149-4b66-8883-db940e9250e2","ios":"levelo://app?vid=a13f03dd-a149-4b66-8883-db940e9250e2"},"vehicle_type_id":"4","last_reported":1725977323,"current_range_meters":3200,"station_id":"ce4bht12rcd13ifvqi60","pricing_plan_id":"cebpf4jnsgd1na2vs0mg"},{"bike_id":"2f196b7c-2b0e-41b0-b36f-4ced46be4efa","system_id":"levelo_inurba_marseille","lat":43.29804,"lon":5.38094,"is_reserved":false,"is_disabled":false,"rental_uris":{"android":"levelo://app?vid=2f196b7c-2b0e-41b0-b36f-4ced46be4efa","ios":"levelo://app?vid=2f196b7c-2b0e-41b0-b36f-4ced46be4efa"},"vehicle_type_id":"4","last_reported":1725977323,"current_range_meters":2000,"station_id":"ce4bgip2rcd13ifvqbb0","pricing_plan_id":"cebpf4jnsgd1na2vs0mg"},{"bike_id":"13e1d338-f0f0-4408-b98f-e31b2cf99511","system_id":"levelo_inurba_marseille","lat":43.28271,"lon":5.35073,"is_reserved":false,"is_disabled":false,"rental_uris":{"android":"levelo://app?vid=13e1d338-f0f0-4408-b98f-e31b2cf99511","ios":"levelo://app?vid=13e1d338-f0f0-4408-b98f-e31b2cf99511"},"vehicle_type_id":"4","last_reported":1725977323,"current_range_meters":38800,"station_id":"ce4bhbp2rcd13ifvqerg","pricing_plan_id":"cebpf4jnsgd1na2vs0mg"},{"bike_id":"c60f8bc7-0bb1-4367-9324-414f2bec5dbd","system_id":"levelo_inurba_marseille","lat":43.29903,"lon":5.43665,"is_reserved":false,"is_disabled":false,"rental_uris":{"android":"levelo://app?vid=c60f8bc7-0bb1-4367-9324-414f2bec5dbd","ios":"levelo://app?vid=c60f8bc7-0bb1-4367-9324-414f2bec5dbd"},"vehicle_type_id":"4","last_reported":1725977323,"current_range_meters":10000,"station_id":"ce4bhpp2rcd13ifvqhfg","pricing_plan_id":"cebpf4jnsgd1na2vs0mg"},{"bike_id":"d88f2e52-8c81-4ab3-9963-8c1e58946083","system_id":"levelo_inurba_marseille","lat":43.28419,"lon":5.34989,"is_reserved":false,"is_disabled":false,"rental_uris":{"android":"levelo://app?vid=d88f2e52-8c81-4ab3-9963-8c1e58946083","ios":"levelo://app?vid=d88f2e52-8c81-4ab3-9963-8c1e58946083"},"vehicle_type_id":"4","last_reported":1725977323,"current_range_meters":38800,"station_id":"ce4bhbh2rcd13ifvqepg","pricing_plan_id":"cebpf4jnsgd1na2vs0mg"},{"bike_id":"d7dee9fc-d4bf-4a0b-89f9-024b51ffe1ed","system_id":"levelo_inurba_marseille","lat":43.30804,"lon":5.43517,"is_reserved":false,"is_disabled":false,"rental_uris":{"android":"levelo://app?vid=d7dee9fc-d4bf-4a0b-89f9-024b51ffe1ed","ios":"levelo://app?vid=d7dee9fc-d4bf-4a0b-89f9-024b51ffe1ed"},"vehicle_type_id":"4","last_reported":1725977323,"current_range_meters":18800,"station_id":"ce4bhph2rcd13ifvqheg","pricing_plan_id":"cebpf4jnsgd1na2vs0mg"},{"bike_id":"44ca47b9-26f0-4a71-ac85-211abb9f668b","system_id":"levelo_inurba_marseille","lat":43.24386,"lon":5.37063,"is_reserved":false,"is_disabled":false,"rental_uris":{"android":"levelo://app?vid=44ca47b9-26f0-4a71-ac85-211abb9f668b","ios":"levelo://app?vid=44ca47b9-26f0-4a71-ac85-211abb9f668b"},"vehicle_type_id":"4","last_reported":1725977323,"current_range_meters":6000,"station_id":"ce4bhhh2rcd13ifvqfk0","pricing_plan_id":"cebpf4jnsgd1na2vs0mg"},{"bike_id":"3dcf4b94-a621-48c3-8d86-0b806d1bf276","system_id":"levelo_inurba_marseille","lat":43.24994,"lon":5.38941,"is_reserved":false,"is_disabled":false,"rental_uris":{"android":"levelo://app?vid=3dcf4b94-a621-48c3-8d86-0b806d1bf276","ios":"levelo://app?vid=3dcf4b94-a621-48c3-8d86-0b806d1bf276"},"vehicle_type_id":"4","last_reported":1725977323,"current_range_meters":38800,"station_id":"ce4bhgp2rcd13ifvqfd0","pricing_plan_id":"cebpf4jnsgd1na2vs0mg"},{"bike_id":"97eae57a-7b96-412e-896b-251c6477f54a","system_id":"levelo_inurba_marseille","lat":43.29968,"lon":5.41321,"is_reserved":false,"is_disabled":false,"rental_uris":{"android":"levelo://app?vid=97eae57a-7b96-412e-896b-251c6477f54a","ios":"levelo://app?vid=97eae57a-7b96-412e-896b-251c6477f54a"},"vehicle_type_id":"4","last_reported":1725977323,"current_range_meters":37600,"station_id":"ce4bhp12rcd13ifvqh9g","pricing_plan_id":"cebpf4jnsgd1na2vs0mg"},{"bike_id":"07f891dd-9b2a-474c-9f9a-45da8e186fac","system_id":"levelo_inurba_marseille","lat":43.27182,"lon":5.40999,"is_reserved":false,"is_disabled":false,"rental_uris":{"android":"levelo://app?vid=07f891dd-9b2a-474c-9f9a-45da8e186fac","ios":"levelo://app?vid=07f891dd-9b2a-474c-9f9a-45da8e186fac"},"vehicle_type_id":"4","last_reported":1725977323,"current_range_meters":28000,"station_id":"ce4bhl12rcd13ifvqgf0","pricing_plan_id":"cebpf4jnsgd1na2vs0mg"},{"bike_id":"cba59381-9f80-42c2-9ede-0ad154377ff3","system_id":"levelo_inurba_marseille","lat":43.287981,"lon":5.379369,"is_reserved":false,"is_disabled":false,"rental_uris":{"android":"levelo://app?vid=cba59381-9f80-42c2-9ede-0ad154377ff3","ios":"levelo://app?vid=cba59381-9f80-42c2-9ede-0ad154377ff3"},"vehicle_type_id":"4","last_reported":1725977323,"current_range_meters":36800,"station_id":"ce4bh9p2rcd13ifvqec0","pricing_plan_id":"cebpf4jnsgd1na2vs0mg"},{"bike_id":"cbe342fb-bfc1-4a9e-b1ef-d6f96bb0cde4","system_id":"levelo_inurba_marseille","lat":43.23181,"lon":5.39987,"is_reserved":false,"is_disabled":false,"rental_uris":{"android":"levelo://app?vid=cbe342fb-bfc1-4a9e-b1ef-d6f96bb0cde4","ios":"levelo://app?vid=cbe342fb-bfc1-4a9e-b1ef-d6f96bb0cde4"},"vehicle_type_id":"4","last_reported":1725977323,"current_range_meters":8800,"station_id":"ce4bhn12rcd13ifvqgqg","pricing_plan_id":"cebpf4jnsgd1na2vs0mg"},{"bike_id":"dc1539f4-f36a-4c3e-9244-fd222249d35a","system_id":"levelo_inurba_marseille","lat":43.27819,"lon":5.40713,"is_reserved":false,"is_disabled":false,"rental_uris":{"android":"levelo://app?vid=dc1539f4-f36a-4c3e-9244-fd222249d35a","ios":"levelo://app?vid=dc1539f4-f36a-4c3e-9244-fd222249d35a"},"vehicle_type_id":"4","last_reported":1725977323,"current_range_meters":24400,"station_id":"ce4bhnh2rcd13ifvqgtg","pricing_plan_id":"cebpf4jnsgd1na2vs0mg"},{"bike_id":"6a943ad7-089a-4af7-9a5f-72672972d89f","system_id":"levelo_inurba_marseille","lat":43.25499,"lon":5.3765,"is_reserved":false,"is_disabled":false,"rental_uris":{"android":"levelo://app?vid=6a943ad7-089a-4af7-9a5f-72672972d89f","ios":"levelo://app?vid=6a943ad7-089a-4af7-9a5f-72672972d89f"},"vehicle_type_id":"4","last_reported":1725977323,"current_range_meters":22000,"station_id":"ce4bhh12rcd13ifvqff0","pricing_plan_id":"cebpf4jnsgd1na2vs0mg"},{"bike_id":"daaaa56f-2378-49bc-a2d3-f113c0180e88","system_id":"levelo_inurba_marseille","lat":43.23156,"lon":5.43714,"is_reserved":false,"is_disabled":false,"rental_uris":{"android":"levelo://app?vid=daaaa56f-2378-49bc-a2d3-f113c0180e88","ios":"levelo://app?vid=daaaa56f-2378-49bc-a2d3-f113c0180e88"},"vehicle_type_id":"4","last_reported":1725977323,"current_range_meters":37600,"station_id":"ce4bhmp2rcd13ifvqgog","pricing_plan_id":"cebpf4jnsgd1na2vs0mg"},{"bike_id":"be69ea51-7d25-4693-a88c-db7b4117aed9","system_id":"levelo_inurba_marseille","lat":43.27945,"lon":5.41046,"is_reserved":false,"is_disabled":false,"rental_uris":{"android":"levelo://app?vid=be69ea51-7d25-4693-a88c-db7b4117aed9","ios":"levelo://app?vid=be69ea51-7d25-4693-a88c-db7b4117aed9"},"vehicle_type_id":"4","last_reported":1725977323,"current_range_meters":6000,"station_id":"ce4bhnp2rcd13ifvqh0g","pricing_plan_id":"cebpf4jnsgd1na2vs0mg"},{"bike_id":"dd33fe7c-abb9-4c50-adc0-a596731ca0dd","system_id":"levelo_inurba_marseille","lat":43.23158,"lon":5.43701,"is_reserved":false,"is_disabled":false,"rental_uris":{"android":"levelo://app?vid=dd33fe7c-abb9-4c50-adc0-a596731ca0dd","ios":"levelo://app?vid=dd33fe7c-abb9-4c50-adc0-a596731ca0dd"},"vehicle_type_id":"4","last_reported":1725977323,"current_range_meters":35200,"station_id":"ce4bhmp2rcd13ifvqgog","pricing_plan_id":"cebpf4jnsgd1na2vs0mg"},{"bike_id":"e05c8849-7da7-4b3d-9ec5-acf2037a832b","system_id":"levelo_inurba_marseille","lat":43.28275,"lon":5.35076,"is_reserved":false,"is_disabled":false,"rental_uris":{"android":"levelo://app?vid=e05c8849-7da7-4b3d-9ec5-acf2037a832b","ios":"levelo://app?vid=e05c8849-7da7-4b3d-9ec5-acf2037a832b"},"vehicle_type_id":"4","last_reported":1725977323,"current_range_meters":14400,"station_id":"ce4bhbp2rcd13ifvqerg","pricing_plan_id":"cebpf4jnsgd1na2vs0mg"},{"bike_id":"3f731b0c-33c3-4d71-9433-f18c84fa1da8","system_id":"levelo_inurba_marseille","lat":43.29047,"lon":5.35919,"is_reserved":false,"is_disabled":false,"rental_uris":{"android":"levelo://app?vid=3f731b0c-33c3-4d71-9433-f18c84fa1da8","ios":"levelo://app?vid=3f731b0c-33c3-4d71-9433-f18c84fa1da8"},"vehicle_type_id":"4","last_reported":1725977323,"current_range_meters":13600,"station_id":"ce4bha92rcd13ifvqeg0","pricing_plan_id":"cebpf4jnsgd1na2vs0mg"},{"bike_id":"5d352641-3593-4267-b2f1-8ab039017e05","system_id":"levelo_inurba_marseille","lat":43.23196,"lon":5.35554,"is_reserved":false,"is_disabled":false,"rental_uris":{"android":"levelo://app?vid=5d352641-3593-4267-b2f1-8ab039017e05","ios":"levelo://app?vid=5d352641-3593-4267-b2f1-8ab039017e05"},"vehicle_type_id":"4","last_reported":1725977323,"current_range_meters":4800,"station_id":"ce4bhu92rcd13ifvqi70","pricing_plan_id":"cebpf4jnsgd1na2vs0mg"},{"bike_id":"395f4933-4b36-43ab-8901-aaf2add919ad","system_id":"levelo_inurba_marseille","lat":43.28613,"lon":5.35099,"is_reserved":false,"is_disabled":false,"rental_uris":{"android":"levelo://app?vid=395f4933-4b36-43ab-8901-aaf2add919ad","ios":"levelo://app?vid=395f4933-4b36-43ab-8901-aaf2add919ad"},"vehicle_type_id":"4","last_reported":1725977323,"current_range_meters":37600,"station_id":"ce4bhch2rcd13ifvqeug","pricing_plan_id":"cebpf4jnsgd1na2vs0mg"},{"bike_id":"22604623-184c-44b3-9fb6-0e4ffbb6fa0b","system_id":"levelo_inurba_marseille","lat":43.28739,"lon":5.36086,"is_reserved":false,"is_disabled":false,"rental_uris":{"android":"levelo://app?vid=22604623-184c-44b3-9fb6-0e4ffbb6fa0b","ios":"levelo://app?vid=22604623-184c-44b3-9fb6-0e4ffbb6fa0b"},"vehicle_type_id":"4","last_reported":1725977323,"current_range_meters":36000,"station_id":"cki0cbj6b192h4jlfktg","pricing_plan_id":"cebpf4jnsgd1na2vs0mg"},{"bike_id":"917f5979-8940-4fd8-a5f2-834f29795b7c","system_id":"levelo_inurba_marseille","lat":43.23153,"lon":5.43693,"is_reserved":false,"is_disabled":false,"rental_uris":{"android":"levelo://app?vid=917f5979-8940-4fd8-a5f2-834f29795b7c","ios":"levelo://app?vid=917f5979-8940-4fd8-a5f2-834f29795b7c"},"vehicle_type_id":"4","last_reported":1725977323,"current_range_meters":36800,"station_id":"ce4bhmp2rcd13ifvqgog","pricing_plan_id":"cebpf4jnsgd1na2vs0mg"},{"bike_id":"29f1cbac-77e4-4249-a0a2-be996311df9b","system_id":"levelo_inurba_marseille","lat":43.2971,"lon":5.37883,"is_reserved":false,"is_disabled":false,"rental_uris":{"android":"levelo://app?vid=29f1cbac-77e4-4249-a0a2-be996311df9b","ios":"levelo://app?vid=29f1cbac-77e4-4249-a0a2-be996311df9b"},"vehicle_type_id":"4","last_reported":1725977323,"current_range_meters":33600,"station_id":"","pricing_plan_id":"cebpf4jnsgd1na2vs0mg"},{"bike_id":"ebd8b7d4-1f18-4af1-8c93-74c66a69bbbf","system_id":"levelo_inurba_marseille","lat":43.23149,"lon":5.43699,"is_reserved":false,"is_disabled":false,"rental_uris":{"android":"levelo://app?vid=ebd8b7d4-1f18-4af1-8c93-74c66a69bbbf","ios":"levelo://app?vid=ebd8b7d4-1f18-4af1-8c93-74c66a69bbbf"},"vehicle_type_id":"4","last_reported":1725977323,"current_range_meters":14800,"station_id":"ce4bhmp2rcd13ifvqgog","pricing_plan_id":"cebpf4jnsgd1na2vs0mg"},{"bike_id":"ad6901f3-d9b1-47ca-837b-5c1e917180fc","system_id":"levelo_inurba_marseille","lat":43.23066,"lon":5.35492,"is_reserved":false,"is_disabled":false,"rental_uris":{"android":"levelo://app?vid=ad6901f3-d9b1-47ca-837b-5c1e917180fc","ios":"levelo://app?vid=ad6901f3-d9b1-47ca-837b-5c1e917180fc"},"vehicle_type_id":"4","last_reported":1725977323,"current_range_meters":2800,"station_id":"cpo3342slgdg3j2ifvpg","pricing_plan_id":"cebpf4jnsgd1na2vs0mg"},{"bike_id":"8567d22c-90da-4598-9bff-149cf1c54f8f","system_id":"levelo_inurba_marseille","lat":43.337444,"lon":5.374475,"is_reserved":false,"is_disabled":false,"rental_uris":{"android":"levelo://app?vid=8567d22c-90da-4598-9bff-149cf1c54f8f","ios":"levelo://app?vid=8567d22c-90da-4598-9bff-149cf1c54f8f"},"vehicle_type_id":"4","last_reported":1725977323,"current_range_meters":34000,"station_id":"ce4bgv92rcd13ifvqcq0","pricing_plan_id":"cebpf4jnsgd1na2vs0mg"},{"bike_id":"dc3ba369-0bf3-430f-bf0f-5567076f0c21","system_id":"levelo_inurba_marseille","lat":43.28157,"lon":5.42647,"is_reserved":false,"is_disabled":false,"rental_uris":{"android":"levelo://app?vid=dc3ba369-0bf3-430f-bf0f-5567076f0c21","ios":"levelo://app?vid=dc3ba369-0bf3-430f-bf0f-5567076f0c21"},"vehicle_type_id":"4","last_reported":1725977323,"current_range_meters":3600,"station_id":"ce4bhnh2rcd13ifvqgug","pricing_plan_id":"cebpf4jnsgd1na2vs0mg"},{"bike_id":"2aad4b02-945c-4d35-b3a5-85b3d17dc503","system_id":"levelo_inurba_marseille","lat":43.32287,"lon":5.3826,"is_reserved":false,"is_disabled":false,"rental_uris":{"android":"levelo://app?vid=2aad4b02-945c-4d35-b3a5-85b3d17dc503","ios":"levelo://app?vid=2aad4b02-945c-4d35-b3a5-85b3d17dc503"},"vehicle_type_id":"4","last_reported":1725977323,"current_range_meters":8800,"station_id":"ce4bhr12rcd13ifvqhqg","pricing_plan_id":"cebpf4jnsgd1na2vs0mg"},{"bike_id":"85f197b4-336f-48da-af08-649e93b61de7","system_id":"levelo_inurba_marseille","lat":43.29685,"lon":5.3729,"is_reserved":false,"is_disabled":false,"rental_uris":{"android":"levelo://app?vid=85f197b4-336f-48da-af08-649e93b61de7","ios":"levelo://app?vid=85f197b4-336f-48da-af08-649e93b61de7"},"vehicle_type_id":"4","last_reported":1725977323,"current_range_meters":18000,"station_id":"ce4bgk12rcd13ifvqbj0","pricing_plan_id":"cebpf4jnsgd1na2vs0mg"},{"bike_id":"eb69017f-fa47-418e-91ec-569222c992eb","system_id":"levelo_inurba_marseille","lat":43.25933,"lon":5.40912,"is_reserved":false,"is_disabled":false,"rental_uris":{"android":"levelo://app?vid=eb69017f-fa47-418e-91ec-569222c992eb","ios":"levelo://app?vid=eb69017f-fa47-418e-91ec-569222c992eb"},"vehicle_type_id":"4","last_reported":1725977323,"current_range_meters":6800,"station_id":"ce4bhm92rcd13ifvqglg","pricing_plan_id":"cebpf4jnsgd1na2vs0mg"},{"bike_id":"97412743-687f-4557-aa2b-5c98bb06265e","system_id":"levelo_inurba_marseille","lat":43.23153,"lon":5.43708,"is_reserved":false,"is_disabled":false,"rental_uris":{"android":"levelo://app?vid=97412743-687f-4557-aa2b-5c98bb06265e","ios":"levelo://app?vid=97412743-687f-4557-aa2b-5c98bb06265e"},"vehicle_type_id":"4","last_reported":1725977323,"current_range_meters":18000,"station_id":"ce4bhmp2rcd13ifvqgog","pricing_plan_id":"cebpf4jnsgd1na2vs0mg"},{"bike_id":"36441004-7d2a-493f-9f53-8d058354976e","system_id":"levelo_inurba_marseille","lat":43.297501,"lon":5.369033,"is_reserved":false,"is_disabled":false,"rental_uris":{"android":"levelo://app?vid=36441004-7d2a-493f-9f53-8d058354976e","ios":"levelo://app?vid=36441004-7d2a-493f-9f53-8d058354976e"},"vehicle_type_id":"4","last_reported":1725977323,"current_range_meters":16800,"station_id":"ce4bgn12rcd13ifvqbt0","pricing_plan_id":"cebpf4jnsgd1na2vs0mg"},{"bike_id":"e6de7295-2b8b-47d7-b458-12db3c5e0b18","system_id":"levelo_inurba_marseille","lat":43.25495,"lon":5.37648,"is_reserved":false,"is_disabled":false,"rental_uris":{"android":"levelo://app?vid=e6de7295-2b8b-47d7-b458-12db3c5e0b18","ios":"levelo://app?vid=e6de7295-2b8b-47d7-b458-12db3c5e0b18"},"vehicle_type_id":"4","last_reported":1725977323,"current_range_meters":35200,"station_id":"ce4bhh12rcd13ifvqff0","pricing_plan_id":"cebpf4jnsgd1na2vs0mg"},{"bike_id":"05f3db2c-8e4b-4b4d-9527-c2b8431c5f40","system_id":"levelo_inurba_marseille","lat":43.28941,"lon":5.36626,"is_reserved":false,"is_disabled":false,"rental_uris":{"android":"levelo://app?vid=05f3db2c-8e4b-4b4d-9527-c2b8431c5f40","ios":"levelo://app?vid=05f3db2c-8e4b-4b4d-9527-c2b8431c5f40"},"vehicle_type_id":"4","last_reported":1725977323,"current_range_meters":4400,"station_id":"ce4bhap2rcd13ifvqek0","pricing_plan_id":"cebpf4jnsgd1na2vs0mg"},{"bike_id":"e60fc3e2-2f0f-4d3d-9c25-711494ab118c","system_id":"levelo_inurba_marseille","lat":43.33026,"lon":5.39047,"is_reserved":false,"is_disabled":false,"rental_uris":{"android":"levelo://app?vid=e60fc3e2-2f0f-4d3d-9c25-711494ab118c","ios":"levelo://app?vid=e60fc3e2-2f0f-4d3d-9c25-711494ab118c"},"vehicle_type_id":"4","last_reported":1725977323,"current_range_meters":20000,"station_id":"ce4bhr92rcd13ifvqhrg","pricing_plan_id":"cebpf4jnsgd1na2vs0mg"},{"bike_id":"f1009423-44b9-46e0-916f-a90ebc93de0a","system_id":"levelo_inurba_marseille","lat":43.31863,"lon":5.37395,"is_reserved":false,"is_disabled":false,"rental_uris":{"android":"levelo://app?vid=f1009423-44b9-46e0-916f-a90ebc93de0a","ios":"levelo://app?vid=f1009423-44b9-46e0-916f-a90ebc93de0a"},"vehicle_type_id":"4","last_reported":1725977323,"current_range_meters":16000,"station_id":"ce4bgup2rcd13ifvqco0","pricing_plan_id":"cebpf4jnsgd1na2vs0mg"},{"bike_id":"cc0c3ace-cdd1-4b29-95ce-9bdf6f9db201","system_id":"levelo_inurba_marseille","lat":43.23155,"lon":5.43703,"is_reserved":false,"is_disabled":false,"rental_uris":{"android":"levelo://app?vid=cc0c3ace-cdd1-4b29-95ce-9bdf6f9db201","ios":"levelo://app?vid=cc0c3ace-cdd1-4b29-95ce-9bdf6f9db201"},"vehicle_type_id":"4","last_reported":1725977323,"current_range_meters":35600,"station_id":"ce4bhmp2rcd13ifvqgog","pricing_plan_id":"cebpf4jnsgd1na2vs0mg"},{"bike_id":"14b0ae12-b3fe-4c67-a787-81d89eaf19a0","system_id":"levelo_inurba_marseille","lat":43.33028,"lon":5.39041,"is_reserved":false,"is_disabled":false,"rental_uris":{"android":"levelo://app?vid=14b0ae12-b3fe-4c67-a787-81d89eaf19a0","ios":"levelo://app?vid=14b0ae12-b3fe-4c67-a787-81d89eaf19a0"},"vehicle_type_id":"4","last_reported":1725977323,"current_range_meters":32000,"station_id":"ce4bhr92rcd13ifvqhrg","pricing_plan_id":"cebpf4jnsgd1na2vs0mg"},{"bike_id":"f89a60e7-ee00-428a-bc28-82eb6e2f0022","system_id":"levelo_inurba_marseille","lat":43.29809,"lon":5.381,"is_reserved":false,"is_disabled":false,"rental_uris":{"android":"levelo://app?vid=f89a60e7-ee00-428a-bc28-82eb6e2f0022","ios":"levelo://app?vid=f89a60e7-ee00-428a-bc28-82eb6e2f0022"},"vehicle_type_id":"4","last_reported":1725977323,"current_range_meters":39200,"station_id":"ce4bgip2rcd13ifvqbb0","pricing_plan_id":"cebpf4jnsgd1na2vs0mg"},{"bike_id":"e9325df9-e72f-4573-a615-b79136d0be44","system_id":"levelo_inurba_marseille","lat":43.27818,"lon":5.40714,"is_reserved":false,"is_disabled":false,"rental_uris":{"android":"levelo://app?vid=e9325df9-e72f-4573-a615-b79136d0be44","ios":"levelo://app?vid=e9325df9-e72f-4573-a615-b79136d0be44"},"vehicle_type_id":"4","last_reported":1725977323,"current_range_meters":11200,"station_id":"ce4bhnh2rcd13ifvqgtg","pricing_plan_id":"cebpf4jnsgd1na2vs0mg"},{"bike_id":"cd9eeecf-7384-46fa-8fcd-4793b1daa2a9","system_id":"levelo_inurba_marseille","lat":43.30534,"lon":5.3655,"is_reserved":false,"is_disabled":false,"rental_uris":{"android":"levelo://app?vid=cd9eeecf-7384-46fa-8fcd-4793b1daa2a9","ios":"levelo://app?vid=cd9eeecf-7384-46fa-8fcd-4793b1daa2a9"},"vehicle_type_id":"4","last_reported":1725977323,"current_range_meters":33200,"station_id":"ce4bgs12rcd13ifvqcag","pricing_plan_id":"cebpf4jnsgd1na2vs0mg"},{"bike_id":"ca5f538b-1a98-4326-b1ea-2d2ba7090058","system_id":"levelo_inurba_marseille","lat":43.2315,"lon":5.4371,"is_reserved":false,"is_disabled":false,"rental_uris":{"android":"levelo://app?vid=ca5f538b-1a98-4326-b1ea-2d2ba7090058","ios":"levelo://app?vid=ca5f538b-1a98-4326-b1ea-2d2ba7090058"},"vehicle_type_id":"4","last_reported":1725977323,"current_range_meters":14400,"station_id":"ce4bhmp2rcd13ifvqgog","pricing_plan_id":"cebpf4jnsgd1na2vs0mg"},{"bike_id":"8abd8e19-47fe-4266-9877-3e65b25573d6","system_id":"levelo_inurba_marseille","lat":43.23148,"lon":5.43725,"is_reserved":false,"is_disabled":false,"rental_uris":{"android":"levelo://app?vid=8abd8e19-47fe-4266-9877-3e65b25573d6","ios":"levelo://app?vid=8abd8e19-47fe-4266-9877-3e65b25573d6"},"vehicle_type_id":"4","last_reported":1725977323,"current_range_meters":39200,"station_id":"ce4bhmp2rcd13ifvqgog","pricing_plan_id":"cebpf4jnsgd1na2vs0mg"},{"bike_id":"b5366984-c044-43a5-bd4f-45496bfc4ac7","system_id":"levelo_inurba_marseille","lat":43.28158,"lon":5.42642,"is_reserved":false,"is_disabled":false,"rental_uris":{"android":"levelo://app?vid=b5366984-c044-43a5-bd4f-45496bfc4ac7","ios":"levelo://app?vid=b5366984-c044-43a5-bd4f-45496bfc4ac7"},"vehicle_type_id":"4","last_reported":1725977323,"current_range_meters":3200,"station_id":"ce4bhnh2rcd13ifvqgug","pricing_plan_id":"cebpf4jnsgd1na2vs0mg"},{"bike_id":"3fe76259-e7c7-444e-9dba-c84c1b2aced2","system_id":"levelo_inurba_marseille","lat":43.30541,"lon":5.36702,"is_reserved":false,"is_disabled":false,"rental_uris":{"android":"levelo://app?vid=3fe76259-e7c7-444e-9dba-c84c1b2aced2","ios":"levelo://app?vid=3fe76259-e7c7-444e-9dba-c84c1b2aced2"},"vehicle_type_id":"4","last_reported":1725977323,"current_range_meters":39200,"station_id":"ce4bgrp2rcd13ifvqc9g","pricing_plan_id":"cebpf4jnsgd1na2vs0mg"},{"bike_id":"4b740380-435b-4ce9-9b96-3da5fb37bac6","system_id":"levelo_inurba_marseille","lat":43.30964,"lon":5.40061,"is_reserved":false,"is_disabled":false,"rental_uris":{"android":"levelo://app?vid=4b740380-435b-4ce9-9b96-3da5fb37bac6","ios":"levelo://app?vid=4b740380-435b-4ce9-9b96-3da5fb37bac6"},"vehicle_type_id":"4","last_reported":1725977323,"current_range_meters":12400,"station_id":"ce4bhpp2rcd13ifvqhgg","pricing_plan_id":"cebpf4jnsgd1na2vs0mg"},{"bike_id":"07a9f714-2c83-4ea4-ae47-0f2bd88edf71","system_id":"levelo_inurba_marseille","lat":43.27493,"lon":5.42456,"is_reserved":false,"is_disabled":false,"rental_uris":{"android":"levelo://app?vid=07a9f714-2c83-4ea4-ae47-0f2bd88edf71","ios":"levelo://app?vid=07a9f714-2c83-4ea4-ae47-0f2bd88edf71"},"vehicle_type_id":"4","last_reported":1725977323,"current_range_meters":33200,"station_id":"ce4bhn92rcd13ifvqgrg","pricing_plan_id":"cebpf4jnsgd1na2vs0mg"},{"bike_id":"9a8a0a26-28f8-4a68-ad24-0caf2818c865","system_id":"levelo_inurba_marseille","lat":43.24178,"lon":5.39723,"is_reserved":false,"is_disabled":false,"rental_uris":{"android":"levelo://app?vid=9a8a0a26-28f8-4a68-ad24-0caf2818c865","ios":"levelo://app?vid=9a8a0a26-28f8-4a68-ad24-0caf2818c865"},"vehicle_type_id":"4","last_reported":1725977323,"current_range_meters":18000,"station_id":"ce4bhn12rcd13ifvqgpg","pricing_plan_id":"cebpf4jnsgd1na2vs0mg"},{"bike_id":"020ab2c2-8dba-49f7-8b1f-88f08634fa8f","system_id":"levelo_inurba_marseille","lat":43.296082,"lon":5.3813,"is_reserved":false,"is_disabled":false,"rental_uris":{"android":"levelo://app?vid=020ab2c2-8dba-49f7-8b1f-88f08634fa8f","ios":"levelo://app?vid=020ab2c2-8dba-49f7-8b1f-88f08634fa8f"},"vehicle_type_id":"4","last_reported":1725977323,"current_range_meters":35200,"station_id":"ce4bgl12rcd13ifvqbo0","pricing_plan_id":"cebpf4jnsgd1na2vs0mg"},{"bike_id":"e6fdeebb-c9cd-4b09-b8bf-c05ce06f53ae","system_id":"levelo_inurba_marseille","lat":43.25937,"lon":5.40905,"is_reserved":false,"is_disabled":false,"rental_uris":{"android":"levelo://app?vid=e6fdeebb-c9cd-4b09-b8bf-c05ce06f53ae","ios":"levelo://app?vid=e6fdeebb-c9cd-4b09-b8bf-c05ce06f53ae"},"vehicle_type_id":"4","last_reported":1725977323,"current_range_meters":30400,"station_id":"ce4bhm92rcd13ifvqglg","pricing_plan_id":"cebpf4jnsgd1na2vs0mg"},{"bike_id":"9579fefb-29e2-4eca-b0a6-f3f76ae8c19b","system_id":"levelo_inurba_marseille","lat":43.27951,"lon":5.4104,"is_reserved":false,"is_disabled":false,"rental_uris":{"android":"levelo://app?vid=9579fefb-29e2-4eca-b0a6-f3f76ae8c19b","ios":"levelo://app?vid=9579fefb-29e2-4eca-b0a6-f3f76ae8c19b"},"vehicle_type_id":"4","last_reported":1725977323,"current_range_meters":17600,"station_id":"ce4bhnp2rcd13ifvqh0g","pricing_plan_id":"cebpf4jnsgd1na2vs0mg"},{"bike_id":"a4cdd021-f643-4194-a517-da4b36edd559","system_id":"levelo_inurba_marseille","lat":43.29581,"lon":5.36742,"is_reserved":false,"is_disabled":false,"rental_uris":{"android":"levelo://app?vid=a4cdd021-f643-4194-a517-da4b36edd559","ios":"levelo://app?vid=a4cdd021-f643-4194-a517-da4b36edd559"},"vehicle_type_id":"4","last_reported":1725977323,"current_range_meters":36000,"station_id":"ce4bgph2rcd13ifvqc2g","pricing_plan_id":"cebpf4jnsgd1na2vs0mg"},{"bike_id":"e4c5dde6-8e98-455e-8ecf-2b718a6f5fab","system_id":"levelo_inurba_marseille","lat":43.25587,"lon":5.38234,"is_reserved":false,"is_disabled":false,"rental_uris":{"android":"levelo://app?vid=e4c5dde6-8e98-455e-8ecf-2b718a6f5fab","ios":"levelo://app?vid=e4c5dde6-8e98-455e-8ecf-2b718a6f5fab"},"vehicle_type_id":"4","last_reported":1725977323,"current_range_meters":29600,"station_id":"ce4bhih2rcd13ifvqfs0","pricing_plan_id":"cebpf4jnsgd1na2vs0mg"},{"bike_id":"d3c8ea6e-d01d-4d9e-9557-beffc1884ace","system_id":"levelo_inurba_marseille","lat":43.3229,"lon":5.38278,"is_reserved":false,"is_disabled":false,"rental_uris":{"android":"levelo://app?vid=d3c8ea6e-d01d-4d9e-9557-beffc1884ace","ios":"levelo://app?vid=d3c8ea6e-d01d-4d9e-9557-beffc1884ace"},"vehicle_type_id":"4","last_reported":1725977323,"current_range_meters":39200,"station_id":"ce4bhr12rcd13ifvqhqg","pricing_plan_id":"cebpf4jnsgd1na2vs0mg"},{"bike_id":"0aa3eea0-205e-411b-93f0-03a6d12ce70c","system_id":"levelo_inurba_marseille","lat":43.27814,"lon":5.40717,"is_reserved":false,"is_disabled":false,"rental_uris":{"android":"levelo://app?vid=0aa3eea0-205e-411b-93f0-03a6d12ce70c","ios":"levelo://app?vid=0aa3eea0-205e-411b-93f0-03a6d12ce70c"},"vehicle_type_id":"4","last_reported":1725977323,"current_range_meters":28000,"station_id":"ce4bhnh2rcd13ifvqgtg","pricing_plan_id":"cebpf4jnsgd1na2vs0mg"},{"bike_id":"cb118e03-afb5-4944-87b0-432501b15b5c","system_id":"levelo_inurba_marseille","lat":43.28418,"lon":5.34987,"is_reserved":false,"is_disabled":false,"rental_uris":{"android":"levelo://app?vid=cb118e03-afb5-4944-87b0-432501b15b5c","ios":"levelo://app?vid=cb118e03-afb5-4944-87b0-432501b15b5c"},"vehicle_type_id":"4","last_reported":1725977323,"current_range_meters":18000,"station_id":"ce4bhbh2rcd13ifvqepg","pricing_plan_id":"cebpf4jnsgd1na2vs0mg"},{"bike_id":"43d2b43c-4332-40c5-aff4-86c8f1010d11","system_id":"levelo_inurba_marseille","lat":43.28446,"lon":5.39206,"is_reserved":false,"is_disabled":false,"rental_uris":{"android":"levelo://app?vid=43d2b43c-4332-40c5-aff4-86c8f1010d11","ios":"levelo://app?vid=43d2b43c-4332-40c5-aff4-86c8f1010d11"},"vehicle_type_id":"4","last_reported":1725977323,"current_range_meters":34000,"station_id":"ce4bhoh2rcd13ifvqh5g","pricing_plan_id":"cebpf4jnsgd1na2vs0mg"},{"bike_id":"507f99d3-0b82-4a35-89e2-98eb58769a71","system_id":"levelo_inurba_marseille","lat":43.23195,"lon":5.3555,"is_reserved":false,"is_disabled":false,"rental_uris":{"android":"levelo://app?vid=507f99d3-0b82-4a35-89e2-98eb58769a71","ios":"levelo://app?vid=507f99d3-0b82-4a35-89e2-98eb58769a71"},"vehicle_type_id":"4","last_reported":1725977323,"current_range_meters":16800,"station_id":"ce4bhu92rcd13ifvqi70","pricing_plan_id":"cebpf4jnsgd1na2vs0mg"},{"bike_id":"758265bb-2753-4294-a2fc-e060f3083b37","system_id":"levelo_inurba_marseille","lat":43.29969,"lon":5.37179,"is_reserved":false,"is_disabled":false,"rental_uris":{"android":"levelo://app?vid=758265bb-2753-4294-a2fc-e060f3083b37","ios":"levelo://app?vid=758265bb-2753-4294-a2fc-e060f3083b37"},"vehicle_type_id":"4","last_reported":1725977323,"current_range_meters":30400,"station_id":"ce4bgr92rcd13ifvqc7g","pricing_plan_id":"cebpf4jnsgd1na2vs0mg"},{"bike_id":"07b232a7-9f11-494d-87c1-46c38197036c","system_id":"levelo_inurba_marseille","lat":43.311737,"lon":5.387179,"is_reserved":false,"is_disabled":false,"rental_uris":{"android":"levelo://app?vid=07b232a7-9f11-494d-87c1-46c38197036c","ios":"levelo://app?vid=07b232a7-9f11-494d-87c1-46c38197036c"},"vehicle_type_id":"4","last_reported":1725977323,"current_range_meters":34000,"station_id":"ce4bgvp2rcd13ifvqct0","pricing_plan_id":"cebpf4jnsgd1na2vs0mg"},{"bike_id":"d264cdb1-fc9d-4045-9062-0902a22abc56","system_id":"levelo_inurba_marseille","lat":43.25582,"lon":5.38242,"is_reserved":false,"is_disabled":false,"rental_uris":{"android":"levelo://app?vid=d264cdb1-fc9d-4045-9062-0902a22abc56","ios":"levelo://app?vid=d264cdb1-fc9d-4045-9062-0902a22abc56"},"vehicle_type_id":"4","last_reported":1725977323,"current_range_meters":30400,"station_id":"ce4bhih2rcd13ifvqfs0","pricing_plan_id":"cebpf4jnsgd1na2vs0mg"},{"bike_id":"bf43cda2-c25c-43fd-b6bf-a6faf398c7d8","system_id":"levelo_inurba_marseille","lat":43.28274,"lon":5.35073,"is_reserved":false,"is_disabled":false,"rental_uris":{"android":"levelo://app?vid=bf43cda2-c25c-43fd-b6bf-a6faf398c7d8","ios":"levelo://app?vid=bf43cda2-c25c-43fd-b6bf-a6faf398c7d8"},"vehicle_type_id":"4","last_reported":1725977323,"current_range_meters":24400,"station_id":"ce4bhbp2rcd13ifvqerg","pricing_plan_id":"cebpf4jnsgd1na2vs0mg"},{"bike_id":"0d85afe1-d0e4-4a11-b127-a8073f004d8a","system_id":"levelo_inurba_marseille","lat":43.26216,"lon":5.37445,"is_reserved":false,"is_disabled":false,"rental_uris":{"android":"levelo://app?vid=0d85afe1-d0e4-4a11-b127-a8073f004d8a","ios":"levelo://app?vid=0d85afe1-d0e4-4a11-b127-a8073f004d8a"},"vehicle_type_id":"4","last_reported":1725977323,"current_range_meters":33200,"station_id":"ce4bhgp2rcd13ifvqfc0","pricing_plan_id":"cebpf4jnsgd1na2vs0mg"},{"bike_id":"2c051775-d8d7-4454-bd61-6efd6a006278","system_id":"levelo_inurba_marseille","lat":43.24661,"lon":5.38164,"is_reserved":false,"is_disabled":false,"rental_uris":{"android":"levelo://app?vid=2c051775-d8d7-4454-bd61-6efd6a006278","ios":"levelo://app?vid=2c051775-d8d7-4454-bd61-6efd6a006278"},"vehicle_type_id":"4","last_reported":1725977323,"current_range_meters":8800,"station_id":"ce4bhih2rcd13ifvqfr0","pricing_plan_id":"cebpf4jnsgd1na2vs0mg"},{"bike_id":"36e02e03-11f3-41ac-9b0f-93c4017adc48","system_id":"levelo_inurba_marseille","lat":43.27406,"lon":5.41455,"is_reserved":false,"is_disabled":false,"rental_uris":{"android":"levelo://app?vid=36e02e03-11f3-41ac-9b0f-93c4017adc48","ios":"levelo://app?vid=36e02e03-11f3-41ac-9b0f-93c4017adc48"},"vehicle_type_id":"4","last_reported":1725977323,"current_range_meters":6400,"station_id":"","pricing_plan_id":"cebpf4jnsgd1na2vs0mg"},{"bike_id":"70f95dd3-feb1-4148-bea1-a909ebb1d847","system_id":"levelo_inurba_marseille","lat":43.28002,"lon":5.40023,"is_reserved":false,"is_disabled":false,"rental_uris":{"android":"levelo://app?vid=70f95dd3-feb1-4148-bea1-a909ebb1d847","ios":"levelo://app?vid=70f95dd3-feb1-4148-bea1-a909ebb1d847"},"vehicle_type_id":"4","last_reported":1725977323,"current_range_meters":23200,"station_id":"ce4bho92rcd13ifvqh4g","pricing_plan_id":"cebpf4jnsgd1na2vs0mg"},{"bike_id":"36973a74-dcb5-42a3-b6ab-222146836943","system_id":"levelo_inurba_marseille","lat":43.3175,"lon":5.39015,"is_reserved":false,"is_disabled":false,"rental_uris":{"android":"levelo://app?vid=36973a74-dcb5-42a3-b6ab-222146836943","ios":"levelo://app?vid=36973a74-dcb5-42a3-b6ab-222146836943"},"vehicle_type_id":"4","last_reported":1725977323,"current_range_meters":3200,"station_id":"ce4bhqp2rcd13ifvqhng","pricing_plan_id":"cebpf4jnsgd1na2vs0mg"},{"bike_id":"41c6d272-049d-4970-bea7-0ba8333657c1","system_id":"levelo_inurba_marseille","lat":43.2315,"lon":5.43711,"is_reserved":false,"is_disabled":false,"rental_uris":{"android":"levelo://app?vid=41c6d272-049d-4970-bea7-0ba8333657c1","ios":"levelo://app?vid=41c6d272-049d-4970-bea7-0ba8333657c1"},"vehicle_type_id":"4","last_reported":1725977323,"current_range_meters":36000,"station_id":"ce4bhmp2rcd13ifvqgog","pricing_plan_id":"cebpf4jnsgd1na2vs0mg"},{"bike_id":"18067122-8282-4e60-97cc-2636b488f5f5","system_id":"levelo_inurba_marseille","lat":43.29052,"lon":5.35921,"is_reserved":false,"is_disabled":false,"rental_uris":{"android":"levelo://app?vid=18067122-8282-4e60-97cc-2636b488f5f5","ios":"levelo://app?vid=18067122-8282-4e60-97cc-2636b488f5f5"},"vehicle_type_id":"4","last_reported":1725977323,"current_range_meters":32800,"station_id":"ce4bha92rcd13ifvqeg0","pricing_plan_id":"cebpf4jnsgd1na2vs0mg"},{"bike_id":"151bacaa-1d68-4241-8e06-bd26bf9b5bfe","system_id":"levelo_inurba_marseille","lat":43.29676,"lon":5.37294,"is_reserved":false,"is_disabled":false,"rental_uris":{"android":"levelo://app?vid=151bacaa-1d68-4241-8e06-bd26bf9b5bfe","ios":"levelo://app?vid=151bacaa-1d68-4241-8e06-bd26bf9b5bfe"},"vehicle_type_id":"4","last_reported":1725977323,"current_range_meters":14000,"station_id":"ce4bgk12rcd13ifvqbj0","pricing_plan_id":"cebpf4jnsgd1na2vs0mg"},{"bike_id":"d0ea76f2-70d6-49ac-a51f-8d4153d4cd05","system_id":"levelo_inurba_marseille","lat":43.2582,"lon":5.39435,"is_reserved":false,"is_disabled":false,"rental_uris":{"android":"levelo://app?vid=d0ea76f2-70d6-49ac-a51f-8d4153d4cd05","ios":"levelo://app?vid=d0ea76f2-70d6-49ac-a51f-8d4153d4cd05"},"vehicle_type_id":"4","last_reported":1725977323,"current_range_meters":16800,"station_id":"ce4bhip2rcd13ifvqft0","pricing_plan_id":"cebpf4jnsgd1na2vs0mg"},{"bike_id":"73f93659-f05c-4343-b74e-880e638ab01e","system_id":"levelo_inurba_marseille","lat":43.26033,"lon":5.37548,"is_reserved":false,"is_disabled":false,"rental_uris":{"android":"levelo://app?vid=73f93659-f05c-4343-b74e-880e638ab01e","ios":"levelo://app?vid=73f93659-f05c-4343-b74e-880e638ab01e"},"vehicle_type_id":"4","last_reported":1725977323,"current_range_meters":40000,"station_id":"ce4bhgh2rcd13ifvqfa0","pricing_plan_id":"cebpf4jnsgd1na2vs0mg"},{"bike_id":"5e178adc-333f-4c78-b97c-7bef82b4ceb5","system_id":"levelo_inurba_marseille","lat":43.24081,"lon":5.37752,"is_reserved":false,"is_disabled":false,"rental_uris":{"android":"levelo://app?vid=5e178adc-333f-4c78-b97c-7bef82b4ceb5","ios":"levelo://app?vid=5e178adc-333f-4c78-b97c-7bef82b4ceb5"},"vehicle_type_id":"4","last_reported":1725977323,"current_range_meters":31200,"station_id":"ce4bhnp2rcd13ifvqgvg","pricing_plan_id":"cebpf4jnsgd1na2vs0mg"},{"bike_id":"1aedd178-bb8a-4b20-9f57-4994cc152691","system_id":"levelo_inurba_marseille","lat":43.30897,"lon":5.37181,"is_reserved":false,"is_disabled":false,"rental_uris":{"android":"levelo://app?vid=1aedd178-bb8a-4b20-9f57-4994cc152691","ios":"levelo://app?vid=1aedd178-bb8a-4b20-9f57-4994cc152691"},"vehicle_type_id":"4","last_reported":1725977323,"current_range_meters":17600,"station_id":"ce4bguh2rcd13ifvqckg","pricing_plan_id":"cebpf4jnsgd1na2vs0mg"},{"bike_id":"982e60b0-c320-410d-b42e-112aa048d694","system_id":"levelo_inurba_marseille","lat":43.24806,"lon":5.37456,"is_reserved":false,"is_disabled":false,"rental_uris":{"android":"levelo://app?vid=982e60b0-c320-410d-b42e-112aa048d694","ios":"levelo://app?vid=982e60b0-c320-410d-b42e-112aa048d694"},"vehicle_type_id":"4","last_reported":1725977323,"current_range_meters":10800,"station_id":"ce4bhgh2rcd13ifvqfb0","pricing_plan_id":"cebpf4jnsgd1na2vs0mg"},{"bike_id":"82a7c6d4-935e-45c3-a8ae-cefe4d3d658b","system_id":"levelo_inurba_marseille","lat":43.287168,"lon":5.379349,"is_reserved":false,"is_disabled":false,"rental_uris":{"android":"levelo://app?vid=82a7c6d4-935e-45c3-a8ae-cefe4d3d658b","ios":"levelo://app?vid=82a7c6d4-935e-45c3-a8ae-cefe4d3d658b"},"vehicle_type_id":"4","last_reported":1725977323,"current_range_meters":4000,"station_id":"ce4bh9p2rcd13ifvqec0","pricing_plan_id":"cebpf4jnsgd1na2vs0mg"},{"bike_id":"62dc56a9-beb5-4b6d-a91e-3c5f7df8a39a","system_id":"levelo_inurba_marseille","lat":43.24081,"lon":5.37738,"is_reserved":false,"is_disabled":false,"rental_uris":{"android":"levelo://app?vid=62dc56a9-beb5-4b6d-a91e-3c5f7df8a39a","ios":"levelo://app?vid=62dc56a9-beb5-4b6d-a91e-3c5f7df8a39a"},"vehicle_type_id":"4","last_reported":1725977323,"current_range_meters":19600,"station_id":"ce4bhnp2rcd13ifvqgvg","pricing_plan_id":"cebpf4jnsgd1na2vs0mg"},{"bike_id":"d8a942ac-172e-41e2-bd99-3b5fb8813152","system_id":"levelo_inurba_marseille","lat":43.27377,"lon":5.36257,"is_reserved":false,"is_disabled":false,"rental_uris":{"android":"levelo://app?vid=d8a942ac-172e-41e2-bd99-3b5fb8813152","ios":"levelo://app?vid=d8a942ac-172e-41e2-bd99-3b5fb8813152"},"vehicle_type_id":"4","last_reported":1725977323,"current_range_meters":32400,"station_id":"ce4bhbh2rcd13ifvqeo0","pricing_plan_id":"cebpf4jnsgd1na2vs0mg"},{"bike_id":"5876c5ef-9fac-478d-bd3c-ea1780c21005","system_id":"levelo_inurba_marseille","lat":43.33762,"lon":5.3745,"is_reserved":false,"is_disabled":false,"rental_uris":{"android":"levelo://app?vid=5876c5ef-9fac-478d-bd3c-ea1780c21005","ios":"levelo://app?vid=5876c5ef-9fac-478d-bd3c-ea1780c21005"},"vehicle_type_id":"4","last_reported":1725977323,"current_range_meters":36400,"station_id":"","pricing_plan_id":"cebpf4jnsgd1na2vs0mg"},{"bike_id":"fd8c8fab-c98a-4819-b2b6-63b5528f3fbd","system_id":"levelo_inurba_marseille","lat":43.29711,"lon":5.3662,"is_reserved":false,"is_disabled":false,"rental_uris":{"android":"levelo://app?vid=fd8c8fab-c98a-4819-b2b6-63b5528f3fbd","ios":"levelo://app?vid=fd8c8fab-c98a-4819-b2b6-63b5528f3fbd"},"vehicle_type_id":"4","last_reported":1725977323,"current_range_meters":32400,"station_id":"ce4bgn12rcd13ifvqbt0","pricing_plan_id":"cebpf4jnsgd1na2vs0mg"},{"bike_id":"3b08b7ac-09d0-491c-9396-eeff2b8056c4","system_id":"levelo_inurba_marseille","lat":43.29818,"lon":5.38106,"is_reserved":false,"is_disabled":false,"rental_uris":{"android":"levelo://app?vid=3b08b7ac-09d0-491c-9396-eeff2b8056c4","ios":"levelo://app?vid=3b08b7ac-09d0-491c-9396-eeff2b8056c4"},"vehicle_type_id":"4","last_reported":1725977323,"current_range_meters":34800,"station_id":"ce4bgip2rcd13ifvqbb0","pricing_plan_id":"cebpf4jnsgd1na2vs0mg"},{"bike_id":"656ce5e7-25aa-4289-a732-a117a17f7803","system_id":"levelo_inurba_marseille","lat":43.32294,"lon":5.38261,"is_reserved":false,"is_disabled":false,"rental_uris":{"android":"levelo://app?vid=656ce5e7-25aa-4289-a732-a117a17f7803","ios":"levelo://app?vid=656ce5e7-25aa-4289-a732-a117a17f7803"},"vehicle_type_id":"4","last_reported":1725977323,"current_range_meters":39200,"station_id":"ce4bhr12rcd13ifvqhqg","pricing_plan_id":"cebpf4jnsgd1na2vs0mg"},{"bike_id":"0df07e36-e0a0-4ebe-8f67-562ed5aeed0d","system_id":"levelo_inurba_marseille","lat":43.23184,"lon":5.39977,"is_reserved":false,"is_disabled":false,"rental_uris":{"android":"levelo://app?vid=0df07e36-e0a0-4ebe-8f67-562ed5aeed0d","ios":"levelo://app?vid=0df07e36-e0a0-4ebe-8f67-562ed5aeed0d"},"vehicle_type_id":"4","last_reported":1725977323,"current_range_meters":10000,"station_id":"ce4bhn12rcd13ifvqgqg","pricing_plan_id":"cebpf4jnsgd1na2vs0mg"},{"bike_id":"d0526bc3-ba55-4266-b7b1-bd5f643804d8","system_id":"levelo_inurba_marseille","lat":43.26952,"lon":5.38632,"is_reserved":false,"is_disabled":false,"rental_uris":{"android":"levelo://app?vid=d0526bc3-ba55-4266-b7b1-bd5f643804d8","ios":"levelo://app?vid=d0526bc3-ba55-4266-b7b1-bd5f643804d8"},"vehicle_type_id":"4","last_reported":1725977323,"current_range_meters":34000,"station_id":"ce4bhh92rcd13ifvqfh0","pricing_plan_id":"cebpf4jnsgd1na2vs0mg"},{"bike_id":"96764d99-3a84-4bc9-bda3-fda521cded5c","system_id":"levelo_inurba_marseille","lat":43.24076,"lon":5.37764,"is_reserved":false,"is_disabled":false,"rental_uris":{"android":"levelo://app?vid=96764d99-3a84-4bc9-bda3-fda521cded5c","ios":"levelo://app?vid=96764d99-3a84-4bc9-bda3-fda521cded5c"},"vehicle_type_id":"4","last_reported":1725977323,"current_range_meters":28400,"station_id":"ce4bhnp2rcd13ifvqgvg","pricing_plan_id":"cebpf4jnsgd1na2vs0mg"},{"bike_id":"aea824c8-03b1-40c1-a12b-40545fa99cde","system_id":"levelo_inurba_marseille","lat":43.2996,"lon":5.41321,"is_reserved":false,"is_disabled":false,"rental_uris":{"android":"levelo://app?vid=aea824c8-03b1-40c1-a12b-40545fa99cde","ios":"levelo://app?vid=aea824c8-03b1-40c1-a12b-40545fa99cde"},"vehicle_type_id":"4","last_reported":1725977323,"current_range_meters":30000,"station_id":"ce4bhp12rcd13ifvqh9g","pricing_plan_id":"cebpf4jnsgd1na2vs0mg"},{"bike_id":"72454584-0b5e-4785-bd1d-cf466dd0b738","system_id":"levelo_inurba_marseille","lat":43.24072,"lon":5.3777,"is_reserved":false,"is_disabled":false,"rental_uris":{"android":"levelo://app?vid=72454584-0b5e-4785-bd1d-cf466dd0b738","ios":"levelo://app?vid=72454584-0b5e-4785-bd1d-cf466dd0b738"},"vehicle_type_id":"4","last_reported":1725977323,"current_range_meters":8400,"station_id":"ce4bhnp2rcd13ifvqgvg","pricing_plan_id":"cebpf4jnsgd1na2vs0mg"},{"bike_id":"1201ae8b-94c8-49c2-9d05-eef82c37a4cd","system_id":"levelo_inurba_marseille","lat":43.29568,"lon":5.37528,"is_reserved":false,"is_disabled":false,"rental_uris":{"android":"levelo://app?vid=1201ae8b-94c8-49c2-9d05-eef82c37a4cd","ios":"levelo://app?vid=1201ae8b-94c8-49c2-9d05-eef82c37a4cd"},"vehicle_type_id":"4","last_reported":1725977323,"current_range_meters":13600,"station_id":"ce4bgh92rcd13ifvqb50","pricing_plan_id":"cebpf4jnsgd1na2vs0mg"},{"bike_id":"c1cfe90f-08b6-4e65-8dc4-13ad9651cabb","system_id":"levelo_inurba_marseille","lat":43.29325,"lon":5.41168,"is_reserved":false,"is_disabled":false,"rental_uris":{"android":"levelo://app?vid=c1cfe90f-08b6-4e65-8dc4-13ad9651cabb","ios":"levelo://app?vid=c1cfe90f-08b6-4e65-8dc4-13ad9651cabb"},"vehicle_type_id":"4","last_reported":1725977323,"current_range_meters":20800,"station_id":"","pricing_plan_id":"cebpf4jnsgd1na2vs0mg"},{"bike_id":"d8faa913-e48c-48bd-b909-a587f5b7b5a3","system_id":"levelo_inurba_marseille","lat":43.29163,"lon":5.3715,"is_reserved":false,"is_disabled":false,"rental_uris":{"android":"levelo://app?vid=d8faa913-e48c-48bd-b909-a587f5b7b5a3","ios":"levelo://app?vid=d8faa913-e48c-48bd-b909-a587f5b7b5a3"},"vehicle_type_id":"4","last_reported":1725977323,"current_range_meters":36000,"station_id":"ce4bha92rcd13ifvqeh0","pricing_plan_id":"cebpf4jnsgd1na2vs0mg"},{"bike_id":"3d89b69a-c944-4e79-a569-4d8d383a6e1b","system_id":"levelo_inurba_marseille","lat":43.24075,"lon":5.37761,"is_reserved":false,"is_disabled":false,"rental_uris":{"android":"levelo://app?vid=3d89b69a-c944-4e79-a569-4d8d383a6e1b","ios":"levelo://app?vid=3d89b69a-c944-4e79-a569-4d8d383a6e1b"},"vehicle_type_id":"4","last_reported":1725977323,"current_range_meters":14800,"station_id":"ce4bhnp2rcd13ifvqgvg","pricing_plan_id":"cebpf4jnsgd1na2vs0mg"},{"bike_id":"d7dd2163-3cf1-4291-a575-d21665abc9b0","system_id":"levelo_inurba_marseille","lat":43.32489,"lon":5.36563,"is_reserved":false,"is_disabled":false,"rental_uris":{"android":"levelo://app?vid=d7dd2163-3cf1-4291-a575-d21665abc9b0","ios":"levelo://app?vid=d7dd2163-3cf1-4291-a575-d21665abc9b0"},"vehicle_type_id":"4","last_reported":1725977323,"current_range_meters":27200,"station_id":"ce4bhs12rcd13ifvqhvg","pricing_plan_id":"cebpf4jnsgd1na2vs0mg"},{"bike_id":"fbfd6dd7-2c07-4e31-996c-10f740d8c686","system_id":"levelo_inurba_marseille","lat":43.258259,"lon":5.39439,"is_reserved":false,"is_disabled":false,"rental_uris":{"android":"levelo://app?vid=fbfd6dd7-2c07-4e31-996c-10f740d8c686","ios":"levelo://app?vid=fbfd6dd7-2c07-4e31-996c-10f740d8c686"},"vehicle_type_id":"4","last_reported":1725977323,"current_range_meters":38800,"station_id":"ce4bhip2rcd13ifvqft0","pricing_plan_id":"cebpf4jnsgd1na2vs0mg"},{"bike_id":"f7061018-28cb-492f-8bbc-cb60513815c4","system_id":"levelo_inurba_marseille","lat":43.269815,"lon":5.386831,"is_reserved":false,"is_disabled":false,"rental_uris":{"android":"levelo://app?vid=f7061018-28cb-492f-8bbc-cb60513815c4","ios":"levelo://app?vid=f7061018-28cb-492f-8bbc-cb60513815c4"},"vehicle_type_id":"4","last_reported":1725977323,"current_range_meters":17200,"station_id":"","pricing_plan_id":"cebpf4jnsgd1na2vs0mg"},{"bike_id":"ead0caad-9d50-49ed-ae95-9168d4473694","system_id":"levelo_inurba_marseille","lat":43.25869,"lon":5.39902,"is_reserved":false,"is_disabled":false,"rental_uris":{"android":"levelo://app?vid=ead0caad-9d50-49ed-ae95-9168d4473694","ios":"levelo://app?vid=ead0caad-9d50-49ed-ae95-9168d4473694"},"vehicle_type_id":"4","last_reported":1725977323,"current_range_meters":23200,"station_id":"ce4bhl92rcd13ifvqghg","pricing_plan_id":"cebpf4jnsgd1na2vs0mg"},{"bike_id":"88cd8491-5e8f-426c-9b9d-c1570c6277bf","system_id":"levelo_inurba_marseille","lat":43.28613,"lon":5.351,"is_reserved":false,"is_disabled":false,"rental_uris":{"android":"levelo://app?vid=88cd8491-5e8f-426c-9b9d-c1570c6277bf","ios":"levelo://app?vid=88cd8491-5e8f-426c-9b9d-c1570c6277bf"},"vehicle_type_id":"4","last_reported":1725977323,"current_range_meters":26800,"station_id":"ce4bhch2rcd13ifvqeug","pricing_plan_id":"cebpf4jnsgd1na2vs0mg"},{"bike_id":"15ed394b-6f43-4f49-af71-7e825b10e102","system_id":"levelo_inurba_marseille","lat":43.2293,"lon":5.35375,"is_reserved":false,"is_disabled":false,"rental_uris":{"android":"levelo://app?vid=15ed394b-6f43-4f49-af71-7e825b10e102","ios":"levelo://app?vid=15ed394b-6f43-4f49-af71-7e825b10e102"},"vehicle_type_id":"4","last_reported":1725977323,"current_range_meters":5600,"station_id":"cpo3532slgdg3j2ikp40","pricing_plan_id":"cebpf4jnsgd1na2vs0mg"},{"bike_id":"609fe28e-0573-41a4-897d-d501b0bb6f63","system_id":"levelo_inurba_marseille","lat":43.24082,"lon":5.37746,"is_reserved":false,"is_disabled":false,"rental_uris":{"android":"levelo://app?vid=609fe28e-0573-41a4-897d-d501b0bb6f63","ios":"levelo://app?vid=609fe28e-0573-41a4-897d-d501b0bb6f63"},"vehicle_type_id":"4","last_reported":1725977323,"current_range_meters":17200,"station_id":"ce4bhnp2rcd13ifvqgvg","pricing_plan_id":"cebpf4jnsgd1na2vs0mg"},{"bike_id":"f8c3a952-33cc-4f30-b184-6be43839dd76","system_id":"levelo_inurba_marseille","lat":43.239666,"lon":5.3663,"is_reserved":false,"is_disabled":false,"rental_uris":{"android":"levelo://app?vid=f8c3a952-33cc-4f30-b184-6be43839dd76","ios":"levelo://app?vid=f8c3a952-33cc-4f30-b184-6be43839dd76"},"vehicle_type_id":"4","last_reported":1725977323,"current_range_meters":7200,"station_id":"ce4bhi12rcd13ifvqfp0","pricing_plan_id":"cebpf4jnsgd1na2vs0mg"},{"bike_id":"641260cc-ce87-44f4-867f-f3c68b2e7f48","system_id":"levelo_inurba_marseille","lat":43.25591,"lon":5.38228,"is_reserved":false,"is_disabled":false,"rental_uris":{"android":"levelo://app?vid=641260cc-ce87-44f4-867f-f3c68b2e7f48","ios":"levelo://app?vid=641260cc-ce87-44f4-867f-f3c68b2e7f48"},"vehicle_type_id":"4","last_reported":1725977323,"current_range_meters":34000,"station_id":"ce4bhih2rcd13ifvqfs0","pricing_plan_id":"cebpf4jnsgd1na2vs0mg"},{"bike_id":"404df2f1-de2e-4cda-91ba-50a6e9d04525","system_id":"levelo_inurba_marseille","lat":43.2407,"lon":5.37755,"is_reserved":false,"is_disabled":false,"rental_uris":{"android":"levelo://app?vid=404df2f1-de2e-4cda-91ba-50a6e9d04525","ios":"levelo://app?vid=404df2f1-de2e-4cda-91ba-50a6e9d04525"},"vehicle_type_id":"4","last_reported":1725977323,"current_range_meters":8000,"station_id":"ce4bhnp2rcd13ifvqgvg","pricing_plan_id":"cebpf4jnsgd1na2vs0mg"},{"bike_id":"87301146-958b-4bb9-9439-c87b1a24530e","system_id":"levelo_inurba_marseille","lat":43.24647,"lon":5.38896,"is_reserved":false,"is_disabled":false,"rental_uris":{"android":"levelo://app?vid=87301146-958b-4bb9-9439-c87b1a24530e","ios":"levelo://app?vid=87301146-958b-4bb9-9439-c87b1a24530e"},"vehicle_type_id":"4","last_reported":1725977323,"current_range_meters":25600,"station_id":"ce4bhg12rcd13ifvqf60","pricing_plan_id":"cebpf4jnsgd1na2vs0mg"},{"bike_id":"22e98c37-4cff-46cf-8570-a0af242526e9","system_id":"levelo_inurba_marseille","lat":43.24081,"lon":5.37739,"is_reserved":false,"is_disabled":false,"rental_uris":{"android":"levelo://app?vid=22e98c37-4cff-46cf-8570-a0af242526e9","ios":"levelo://app?vid=22e98c37-4cff-46cf-8570-a0af242526e9"},"vehicle_type_id":"4","last_reported":1725977323,"current_range_meters":17600,"station_id":"ce4bhnp2rcd13ifvqgvg","pricing_plan_id":"cebpf4jnsgd1na2vs0mg"},{"bike_id":"3c4c0f57-8e9f-4094-ba91-f0e816fa8959","system_id":"levelo_inurba_marseille","lat":43.29555,"lon":5.42283,"is_reserved":false,"is_disabled":false,"rental_uris":{"android":"levelo://app?vid=3c4c0f57-8e9f-4094-ba91-f0e816fa8959","ios":"levelo://app?vid=3c4c0f57-8e9f-4094-ba91-f0e816fa8959"},"vehicle_type_id":"4","last_reported":1725977323,"current_range_meters":15200,"station_id":"ce4bhph2rcd13ifvqhdg","pricing_plan_id":"cebpf4jnsgd1na2vs0mg"},{"bike_id":"c8e0fcb6-1d3f-4d83-b861-1f56e6b3ab2c","system_id":"levelo_inurba_marseille","lat":43.32297,"lon":5.38269,"is_reserved":false,"is_disabled":false,"rental_uris":{"android":"levelo://app?vid=c8e0fcb6-1d3f-4d83-b861-1f56e6b3ab2c","ios":"levelo://app?vid=c8e0fcb6-1d3f-4d83-b861-1f56e6b3ab2c"},"vehicle_type_id":"4","last_reported":1725977323,"current_range_meters":36000,"station_id":"ce4bhr12rcd13ifvqhqg","pricing_plan_id":"cebpf4jnsgd1na2vs0mg"},{"bike_id":"20789e99-8643-45ca-b226-1236aa6e0831","system_id":"levelo_inurba_marseille","lat":43.30137,"lon":5.37432,"is_reserved":false,"is_disabled":false,"rental_uris":{"android":"levelo://app?vid=20789e99-8643-45ca-b226-1236aa6e0831","ios":"levelo://app?vid=20789e99-8643-45ca-b226-1236aa6e0831"},"vehicle_type_id":"4","last_reported":1725977323,"current_range_meters":12400,"station_id":"ce4bgs92rcd13ifvqcc0","pricing_plan_id":"cebpf4jnsgd1na2vs0mg"},{"bike_id":"48ca542d-5718-4d92-98b5-904a7e1bf2dc","system_id":"levelo_inurba_marseille","lat":43.24545,"lon":5.39526,"is_reserved":false,"is_disabled":false,"rental_uris":{"android":"levelo://app?vid=48ca542d-5718-4d92-98b5-904a7e1bf2dc","ios":"levelo://app?vid=48ca542d-5718-4d92-98b5-904a7e1bf2dc"},"vehicle_type_id":"4","last_reported":1725977323,"current_range_meters":14400,"station_id":"ce4bhlp2rcd13ifvqgjg","pricing_plan_id":"cebpf4jnsgd1na2vs0mg"},{"bike_id":"42302304-647e-43c3-9c52-8cb483aa8554","system_id":"levelo_inurba_marseille","lat":43.31763,"lon":5.39016,"is_reserved":false,"is_disabled":false,"rental_uris":{"android":"levelo://app?vid=42302304-647e-43c3-9c52-8cb483aa8554","ios":"levelo://app?vid=42302304-647e-43c3-9c52-8cb483aa8554"},"vehicle_type_id":"4","last_reported":1725977323,"current_range_meters":16400,"station_id":"ce4bhqp2rcd13ifvqhng","pricing_plan_id":"cebpf4jnsgd1na2vs0mg"},{"bike_id":"ac56009b-5799-4287-8d1c-24cb2c843596","system_id":"levelo_inurba_marseille","lat":43.30132,"lon":5.37423,"is_reserved":false,"is_disabled":false,"rental_uris":{"android":"levelo://app?vid=ac56009b-5799-4287-8d1c-24cb2c843596","ios":"levelo://app?vid=ac56009b-5799-4287-8d1c-24cb2c843596"},"vehicle_type_id":"4","last_reported":1725977323,"current_range_meters":39200,"station_id":"ce4bgs92rcd13ifvqcc0","pricing_plan_id":"cebpf4jnsgd1na2vs0mg"},{"bike_id":"4d03f1c7-b36d-475b-bba0-c9e9bb300712","system_id":"levelo_inurba_marseille","lat":43.31366,"lon":5.38497,"is_reserved":false,"is_disabled":false,"rental_uris":{"android":"levelo://app?vid=4d03f1c7-b36d-475b-bba0-c9e9bb300712","ios":"levelo://app?vid=4d03f1c7-b36d-475b-bba0-c9e9bb300712"},"vehicle_type_id":"4","last_reported":1725977323,"current_range_meters":33600,"station_id":"ce4bgt92rcd13ifvqcf0","pricing_plan_id":"cebpf4jnsgd1na2vs0mg"},{"bike_id":"1643de72-29cd-450d-8b9b-5eba8821b51b","system_id":"levelo_inurba_marseille","lat":43.29532,"lon":5.39401,"is_reserved":false,"is_disabled":false,"rental_uris":{"android":"levelo://app?vid=1643de72-29cd-450d-8b9b-5eba8821b51b","ios":"levelo://app?vid=1643de72-29cd-450d-8b9b-5eba8821b51b"},"vehicle_type_id":"4","last_reported":1725977323,"current_range_meters":35600,"station_id":"ce4bh292rcd13ifvqdf0","pricing_plan_id":"cebpf4jnsgd1na2vs0mg"},{"bike_id":"2d7dbd25-3f0c-4d35-bb61-e5419133369b","system_id":"levelo_inurba_marseille","lat":43.23182,"lon":5.39987,"is_reserved":false,"is_disabled":false,"rental_uris":{"android":"levelo://app?vid=2d7dbd25-3f0c-4d35-bb61-e5419133369b","ios":"levelo://app?vid=2d7dbd25-3f0c-4d35-bb61-e5419133369b"},"vehicle_type_id":"4","last_reported":1725977323,"current_range_meters":10000,"station_id":"ce4bhn12rcd13ifvqgqg","pricing_plan_id":"cebpf4jnsgd1na2vs0mg"},{"bike_id":"89da03dd-b11d-4d69-9bbb-007fe1be6c1f","system_id":"levelo_inurba_marseille","lat":43.26218,"lon":5.37441,"is_reserved":false,"is_disabled":false,"rental_uris":{"android":"levelo://app?vid=89da03dd-b11d-4d69-9bbb-007fe1be6c1f","ios":"levelo://app?vid=89da03dd-b11d-4d69-9bbb-007fe1be6c1f"},"vehicle_type_id":"4","last_reported":1725977323,"current_range_meters":12400,"station_id":"ce4bhgp2rcd13ifvqfc0","pricing_plan_id":"cebpf4jnsgd1na2vs0mg"},{"bike_id":"b5ddb026-895e-4461-a160-58babbe4bd74","system_id":"levelo_inurba_marseille","lat":43.25935,"lon":5.40908,"is_reserved":false,"is_disabled":false,"rental_uris":{"android":"levelo://app?vid=b5ddb026-895e-4461-a160-58babbe4bd74","ios":"levelo://app?vid=b5ddb026-895e-4461-a160-58babbe4bd74"},"vehicle_type_id":"4","last_reported":1725977323,"current_range_meters":9200,"station_id":"ce4bhm92rcd13ifvqglg","pricing_plan_id":"cebpf4jnsgd1na2vs0mg"},{"bike_id":"b2aae679-3e99-40e2-820f-725946de1e45","system_id":"levelo_inurba_marseille","lat":43.3171,"lon":5.43701,"is_reserved":false,"is_disabled":false,"rental_uris":{"android":"levelo://app?vid=b2aae679-3e99-40e2-820f-725946de1e45","ios":"levelo://app?vid=b2aae679-3e99-40e2-820f-725946de1e45"},"vehicle_type_id":"4","last_reported":1725977323,"current_range_meters":16000,"station_id":"ce4bhp92rcd13ifvqhcg","pricing_plan_id":"cebpf4jnsgd1na2vs0mg"},{"bike_id":"67773653-fd2f-4cc7-87b2-21107ab004a7","system_id":"levelo_inurba_marseille","lat":43.28996,"lon":5.35618,"is_reserved":false,"is_disabled":false,"rental_uris":{"android":"levelo://app?vid=67773653-fd2f-4cc7-87b2-21107ab004a7","ios":"levelo://app?vid=67773653-fd2f-4cc7-87b2-21107ab004a7"},"vehicle_type_id":"4","last_reported":1725977323,"current_range_meters":28800,"station_id":"ce4bhb92rcd13ifvqen0","pricing_plan_id":"cebpf4jnsgd1na2vs0mg"},{"bike_id":"7d7d8743-bd53-4410-b360-99e085c94ff2","system_id":"levelo_inurba_marseille","lat":43.337444,"lon":5.374475,"is_reserved":false,"is_disabled":false,"rental_uris":{"android":"levelo://app?vid=7d7d8743-bd53-4410-b360-99e085c94ff2","ios":"levelo://app?vid=7d7d8743-bd53-4410-b360-99e085c94ff2"},"vehicle_type_id":"4","last_reported":1725977323,"current_range_meters":23200,"station_id":"ce4bgv92rcd13ifvqcq0","pricing_plan_id":"cebpf4jnsgd1na2vs0mg"},{"bike_id":"a03eb064-e91e-47e0-8a5e-c13268869ee7","system_id":"levelo_inurba_marseille","lat":43.292606,"lon":5.384411,"is_reserved":false,"is_disabled":false,"rental_uris":{"android":"levelo://app?vid=a03eb064-e91e-47e0-8a5e-c13268869ee7","ios":"levelo://app?vid=a03eb064-e91e-47e0-8a5e-c13268869ee7"},"vehicle_type_id":"4","last_reported":1725977323,"current_range_meters":28400,"station_id":"ce4bh692rcd13ifvqea0","pricing_plan_id":"cebpf4jnsgd1na2vs0mg"},{"bike_id":"55145fae-a8cb-41b8-a97f-efce85464954","system_id":"levelo_inurba_marseille","lat":43.33753,"lon":5.37458,"is_reserved":false,"is_disabled":false,"rental_uris":{"android":"levelo://app?vid=55145fae-a8cb-41b8-a97f-efce85464954","ios":"levelo://app?vid=55145fae-a8cb-41b8-a97f-efce85464954"},"vehicle_type_id":"4","last_reported":1725977323,"current_range_meters":36000,"station_id":"","pricing_plan_id":"cebpf4jnsgd1na2vs0mg"},{"bike_id":"fb4a7c96-e356-4e96-8ef1-b5ac083d3671","system_id":"levelo_inurba_marseille","lat":43.292792,"lon":5.362132,"is_reserved":false,"is_disabled":false,"rental_uris":{"android":"levelo://app?vid=fb4a7c96-e356-4e96-8ef1-b5ac083d3671","ios":"levelo://app?vid=fb4a7c96-e356-4e96-8ef1-b5ac083d3671"},"vehicle_type_id":"4","last_reported":1725977323,"current_range_meters":6800,"station_id":"ce4bhbh2rcd13ifvqeqg","pricing_plan_id":"cebpf4jnsgd1na2vs0mg"},{"bike_id":"f400d370-a20e-4ced-86f0-64f62510749c","system_id":"levelo_inurba_marseille","lat":43.3237,"lon":5.38926,"is_reserved":false,"is_disabled":false,"rental_uris":{"android":"levelo://app?vid=f400d370-a20e-4ced-86f0-64f62510749c","ios":"levelo://app?vid=f400d370-a20e-4ced-86f0-64f62510749c"},"vehicle_type_id":"4","last_reported":1725977323,"current_range_meters":18000,"station_id":"","pricing_plan_id":"cebpf4jnsgd1na2vs0mg"},{"bike_id":"ac628836-308f-41f5-9f00-593bcb76205f","system_id":"levelo_inurba_marseille","lat":43.25582,"lon":5.3825,"is_reserved":false,"is_disabled":false,"rental_uris":{"android":"levelo://app?vid=ac628836-308f-41f5-9f00-593bcb76205f","ios":"levelo://app?vid=ac628836-308f-41f5-9f00-593bcb76205f"},"vehicle_type_id":"4","last_reported":1725977323,"current_range_meters":18000,"station_id":"ce4bhih2rcd13ifvqfs0","pricing_plan_id":"cebpf4jnsgd1na2vs0mg"},{"bike_id":"2839b3cf-67ba-43b2-8fa8-e6872f027dc9","system_id":"levelo_inurba_marseille","lat":43.27812,"lon":5.40715,"is_reserved":false,"is_disabled":false,"rental_uris":{"android":"levelo://app?vid=2839b3cf-67ba-43b2-8fa8-e6872f027dc9","ios":"levelo://app?vid=2839b3cf-67ba-43b2-8fa8-e6872f027dc9"},"vehicle_type_id":"4","last_reported":1725977323,"current_range_meters":34800,"station_id":"ce4bhnh2rcd13ifvqgtg","pricing_plan_id":"cebpf4jnsgd1na2vs0mg"},{"bike_id":"418e0b99-2ad9-4f92-bb9d-c2e58a1c304d","system_id":"levelo_inurba_marseille","lat":43.278147,"lon":5.407109,"is_reserved":false,"is_disabled":false,"rental_uris":{"android":"levelo://app?vid=418e0b99-2ad9-4f92-bb9d-c2e58a1c304d","ios":"levelo://app?vid=418e0b99-2ad9-4f92-bb9d-c2e58a1c304d"},"vehicle_type_id":"4","last_reported":1725977323,"current_range_meters":29600,"station_id":"ce4bh4p2rcd13ifvqe0g","pricing_plan_id":"cebpf4jnsgd1na2vs0mg"},{"bike_id":"d95500de-e38b-4405-9bbd-bd92a1b0608a","system_id":"levelo_inurba_marseille","lat":43.243905,"lon":5.370557,"is_reserved":false,"is_disabled":false,"rental_uris":{"android":"levelo://app?vid=d95500de-e38b-4405-9bbd-bd92a1b0608a","ios":"levelo://app?vid=d95500de-e38b-4405-9bbd-bd92a1b0608a"},"vehicle_type_id":"4","last_reported":1725977323,"current_range_meters":14400,"station_id":"ce4bhhh2rcd13ifvqfk0","pricing_plan_id":"cebpf4jnsgd1na2vs0mg"},{"bike_id":"f03f6359-2862-4c38-ade4-de2f32ba1374","system_id":"levelo_inurba_marseille","lat":43.23181,"lon":5.39982,"is_reserved":false,"is_disabled":false,"rental_uris":{"android":"levelo://app?vid=f03f6359-2862-4c38-ade4-de2f32ba1374","ios":"levelo://app?vid=f03f6359-2862-4c38-ade4-de2f32ba1374"},"vehicle_type_id":"4","last_reported":1725977323,"current_range_meters":28400,"station_id":"ce4bhn12rcd13ifvqgqg","pricing_plan_id":"cebpf4jnsgd1na2vs0mg"},{"bike_id":"10014529-3199-44ba-9b01-95782a7216a2","system_id":"levelo_inurba_marseille","lat":43.27944,"lon":5.41047,"is_reserved":false,"is_disabled":false,"rental_uris":{"android":"levelo://app?vid=10014529-3199-44ba-9b01-95782a7216a2","ios":"levelo://app?vid=10014529-3199-44ba-9b01-95782a7216a2"},"vehicle_type_id":"4","last_reported":1725977323,"current_range_meters":34800,"station_id":"ce4bhnp2rcd13ifvqh0g","pricing_plan_id":"cebpf4jnsgd1na2vs0mg"},{"bike_id":"f17cdb92-5b1c-4d7f-8de7-8a32a985a37d","system_id":"levelo_inurba_marseille","lat":43.28574,"lon":5.39497,"is_reserved":false,"is_disabled":false,"rental_uris":{"android":"levelo://app?vid=f17cdb92-5b1c-4d7f-8de7-8a32a985a37d","ios":"levelo://app?vid=f17cdb92-5b1c-4d7f-8de7-8a32a985a37d"},"vehicle_type_id":"4","last_reported":1725977323,"current_range_meters":19200,"station_id":"ce4bh292rcd13ifvqdg0","pricing_plan_id":"cebpf4jnsgd1na2vs0mg"},{"bike_id":"8542bf91-30ba-4b78-a115-4736886b8fdc","system_id":"levelo_inurba_marseille","lat":43.32367,"lon":5.38874,"is_reserved":false,"is_disabled":false,"rental_uris":{"android":"levelo://app?vid=8542bf91-30ba-4b78-a115-4736886b8fdc","ios":"levelo://app?vid=8542bf91-30ba-4b78-a115-4736886b8fdc"},"vehicle_type_id":"4","last_reported":1725977323,"current_range_meters":10000,"station_id":"ce4bhqp2rcd13ifvqhog","pricing_plan_id":"cebpf4jnsgd1na2vs0mg"},{"bike_id":"92087ad8-9a0a-48e4-81fd-5309bf2791bb","system_id":"levelo_inurba_marseille","lat":43.26572,"lon":5.39,"is_reserved":false,"is_disabled":false,"rental_uris":{"android":"levelo://app?vid=92087ad8-9a0a-48e4-81fd-5309bf2791bb","ios":"levelo://app?vid=92087ad8-9a0a-48e4-81fd-5309bf2791bb"},"vehicle_type_id":"4","last_reported":1725977323,"current_range_meters":18000,"station_id":"ce4bhe12rcd13ifvqf30","pricing_plan_id":"cebpf4jnsgd1na2vs0mg"},{"bike_id":"e9e74260-561b-405e-926d-4b5072f57e0c","system_id":"levelo_inurba_marseille","lat":43.24084,"lon":5.37751,"is_reserved":false,"is_disabled":false,"rental_uris":{"android":"levelo://app?vid=e9e74260-561b-405e-926d-4b5072f57e0c","ios":"levelo://app?vid=e9e74260-561b-405e-926d-4b5072f57e0c"},"vehicle_type_id":"4","last_reported":1725977323,"current_range_meters":7200,"station_id":"ce4bhnp2rcd13ifvqgvg","pricing_plan_id":"cebpf4jnsgd1na2vs0mg"},{"bike_id":"9c062e3e-580c-428c-b779-2c61f7e08c1b","system_id":"levelo_inurba_marseille","lat":43.28155,"lon":5.42646,"is_reserved":false,"is_disabled":false,"rental_uris":{"android":"levelo://app?vid=9c062e3e-580c-428c-b779-2c61f7e08c1b","ios":"levelo://app?vid=9c062e3e-580c-428c-b779-2c61f7e08c1b"},"vehicle_type_id":"4","last_reported":1725977323,"current_range_meters":13600,"station_id":"ce4bhnh2rcd13ifvqgug","pricing_plan_id":"cebpf4jnsgd1na2vs0mg"},{"bike_id":"9b4ed205-14f8-4b53-9f55-2a039b21a88b","system_id":"levelo_inurba_marseille","lat":43.25934,"lon":5.4091,"is_reserved":false,"is_disabled":false,"rental_uris":{"android":"levelo://app?vid=9b4ed205-14f8-4b53-9f55-2a039b21a88b","ios":"levelo://app?vid=9b4ed205-14f8-4b53-9f55-2a039b21a88b"},"vehicle_type_id":"4","last_reported":1725977323,"current_range_meters":16400,"station_id":"ce4bhm92rcd13ifvqglg","pricing_plan_id":"cebpf4jnsgd1na2vs0mg"},{"bike_id":"89b0aa50-6f7f-45a5-bc09-7e4c2acbdbb3","system_id":"levelo_inurba_marseille","lat":43.29025,"lon":5.38644,"is_reserved":false,"is_disabled":false,"rental_uris":{"android":"levelo://app?vid=89b0aa50-6f7f-45a5-bc09-7e4c2acbdbb3","ios":"levelo://app?vid=89b0aa50-6f7f-45a5-bc09-7e4c2acbdbb3"},"vehicle_type_id":"4","last_reported":1725977323,"current_range_meters":3200,"station_id":"ce4bh4p2rcd13ifvqe0g","pricing_plan_id":"cebpf4jnsgd1na2vs0mg"},{"bike_id":"cb81844a-9a1f-40a3-9ab6-67e78c1f951e","system_id":"levelo_inurba_marseille","lat":43.29607,"lon":5.38099,"is_reserved":false,"is_disabled":false,"rental_uris":{"android":"levelo://app?vid=cb81844a-9a1f-40a3-9ab6-67e78c1f951e","ios":"levelo://app?vid=cb81844a-9a1f-40a3-9ab6-67e78c1f951e"},"vehicle_type_id":"4","last_reported":1725977323,"current_range_meters":24400,"station_id":"ce4bgl12rcd13ifvqbo0","pricing_plan_id":"cebpf4jnsgd1na2vs0mg"},{"bike_id":"1ed77850-03fb-42ab-a2a0-0cb0820f629a","system_id":"levelo_inurba_marseille","lat":43.31715,"lon":5.37746,"is_reserved":false,"is_disabled":false,"rental_uris":{"android":"levelo://app?vid=1ed77850-03fb-42ab-a2a0-0cb0820f629a","ios":"levelo://app?vid=1ed77850-03fb-42ab-a2a0-0cb0820f629a"},"vehicle_type_id":"4","last_reported":1725977323,"current_range_meters":10800,"station_id":"ce4bgth2rcd13ifvqch0","pricing_plan_id":"cebpf4jnsgd1na2vs0mg"},{"bike_id":"e4cca738-32ea-4eef-9dc8-f4818ad6af68","system_id":"levelo_inurba_marseille","lat":43.246086,"lon":5.389773,"is_reserved":false,"is_disabled":false,"rental_uris":{"android":"levelo://app?vid=e4cca738-32ea-4eef-9dc8-f4818ad6af68","ios":"levelo://app?vid=e4cca738-32ea-4eef-9dc8-f4818ad6af68"},"vehicle_type_id":"4","last_reported":1725977323,"current_range_meters":6000,"station_id":"ce4bhg12rcd13ifvqf60","pricing_plan_id":"cebpf4jnsgd1na2vs0mg"},{"bike_id":"34bf65a0-be87-45e8-accd-1fbc9c00665b","system_id":"levelo_inurba_marseille","lat":43.29062,"lon":5.37172,"is_reserved":false,"is_disabled":false,"rental_uris":{"android":"levelo://app?vid=34bf65a0-be87-45e8-accd-1fbc9c00665b","ios":"levelo://app?vid=34bf65a0-be87-45e8-accd-1fbc9c00665b"},"vehicle_type_id":"4","last_reported":1725977323,"current_range_meters":16000,"station_id":"ce4bh5p2rcd13ifvqe4g","pricing_plan_id":"cebpf4jnsgd1na2vs0mg"},{"bike_id":"0b22576b-08bd-4ee0-932c-a067cf347a63","system_id":"levelo_inurba_marseille","lat":43.28611,"lon":5.37064,"is_reserved":false,"is_disabled":false,"rental_uris":{"android":"levelo://app?vid=0b22576b-08bd-4ee0-932c-a067cf347a63","ios":"levelo://app?vid=0b22576b-08bd-4ee0-932c-a067cf347a63"},"vehicle_type_id":"4","last_reported":1725977323,"current_range_meters":7200,"station_id":"ce4bht12rcd13ifvqi60","pricing_plan_id":"cebpf4jnsgd1na2vs0mg"},{"bike_id":"b48ad0d7-a11c-4659-aff2-414b3c449b92","system_id":"levelo_inurba_marseille","lat":43.25823,"lon":5.3943,"is_reserved":false,"is_disabled":false,"rental_uris":{"android":"levelo://app?vid=b48ad0d7-a11c-4659-aff2-414b3c449b92","ios":"levelo://app?vid=b48ad0d7-a11c-4659-aff2-414b3c449b92"},"vehicle_type_id":"4","last_reported":1725977323,"current_range_meters":38800,"station_id":"ce4bhip2rcd13ifvqft0","pricing_plan_id":"cebpf4jnsgd1na2vs0mg"},{"bike_id":"3ce10c21-705e-437f-af33-7e794ded3992","system_id":"levelo_inurba_marseille","lat":43.27815,"lon":5.40704,"is_reserved":false,"is_disabled":false,"rental_uris":{"android":"levelo://app?vid=3ce10c21-705e-437f-af33-7e794ded3992","ios":"levelo://app?vid=3ce10c21-705e-437f-af33-7e794ded3992"},"vehicle_type_id":"4","last_reported":1725977323,"current_range_meters":36400,"station_id":"ce4bhnh2rcd13ifvqgtg","pricing_plan_id":"cebpf4jnsgd1na2vs0mg"},{"bike_id":"541a0ce8-478e-40fa-bb54-81eb08225ea5","system_id":"levelo_inurba_marseille","lat":43.337444,"lon":5.374475,"is_reserved":false,"is_disabled":false,"rental_uris":{"android":"levelo://app?vid=541a0ce8-478e-40fa-bb54-81eb08225ea5","ios":"levelo://app?vid=541a0ce8-478e-40fa-bb54-81eb08225ea5"},"vehicle_type_id":"4","last_reported":1725977323,"current_range_meters":38800,"station_id":"ce4bgv92rcd13ifvqcq0","pricing_plan_id":"cebpf4jnsgd1na2vs0mg"},{"bike_id":"36f58328-8f54-4fcf-bcca-0a753cccddb2","system_id":"levelo_inurba_marseille","lat":43.23195,"lon":5.35558,"is_reserved":false,"is_disabled":false,"rental_uris":{"android":"levelo://app?vid=36f58328-8f54-4fcf-bcca-0a753cccddb2","ios":"levelo://app?vid=36f58328-8f54-4fcf-bcca-0a753cccddb2"},"vehicle_type_id":"4","last_reported":1725977323,"current_range_meters":22000,"station_id":"ce4bhu92rcd13ifvqi70","pricing_plan_id":"cebpf4jnsgd1na2vs0mg"},{"bike_id":"44f32411-a978-4e5c-8794-5490ed45ba7d","system_id":"levelo_inurba_marseille","lat":43.33767,"lon":5.37434,"is_reserved":false,"is_disabled":false,"rental_uris":{"android":"levelo://app?vid=44f32411-a978-4e5c-8794-5490ed45ba7d","ios":"levelo://app?vid=44f32411-a978-4e5c-8794-5490ed45ba7d"},"vehicle_type_id":"4","last_reported":1725977323,"current_range_meters":38800,"station_id":"","pricing_plan_id":"cebpf4jnsgd1na2vs0mg"},{"bike_id":"711ee51e-0b15-4553-b914-081dc3b87533","system_id":"levelo_inurba_marseille","lat":43.29057,"lon":5.35911,"is_reserved":false,"is_disabled":false,"rental_uris":{"android":"levelo://app?vid=711ee51e-0b15-4553-b914-081dc3b87533","ios":"levelo://app?vid=711ee51e-0b15-4553-b914-081dc3b87533"},"vehicle_type_id":"4","last_reported":1725977323,"current_range_meters":28000,"station_id":"ce4bha92rcd13ifvqeg0","pricing_plan_id":"cebpf4jnsgd1na2vs0mg"},{"bike_id":"ad41ce1e-28aa-43b6-bf7c-37227e87fc34","system_id":"levelo_inurba_marseille","lat":43.26683,"lon":5.38267,"is_reserved":false,"is_disabled":false,"rental_uris":{"android":"levelo://app?vid=ad41ce1e-28aa-43b6-bf7c-37227e87fc34","ios":"levelo://app?vid=ad41ce1e-28aa-43b6-bf7c-37227e87fc34"},"vehicle_type_id":"4","last_reported":1725977323,"current_range_meters":36400,"station_id":"ce4bhg92rcd13ifvqf90","pricing_plan_id":"cebpf4jnsgd1na2vs0mg"},{"bike_id":"29b63118-6bc3-4f35-b6c2-5f3d0215126f","system_id":"levelo_inurba_marseille","lat":43.23062,"lon":5.35489,"is_reserved":false,"is_disabled":false,"rental_uris":{"android":"levelo://app?vid=29b63118-6bc3-4f35-b6c2-5f3d0215126f","ios":"levelo://app?vid=29b63118-6bc3-4f35-b6c2-5f3d0215126f"},"vehicle_type_id":"4","last_reported":1725977323,"current_range_meters":32400,"station_id":"cpo3342slgdg3j2ifvpg","pricing_plan_id":"cebpf4jnsgd1na2vs0mg"},{"bike_id":"e0599a38-4951-4c8e-8773-96292c24cc83","system_id":"levelo_inurba_marseille","lat":43.27818,"lon":5.40725,"is_reserved":false,"is_disabled":false,"rental_uris":{"android":"levelo://app?vid=e0599a38-4951-4c8e-8773-96292c24cc83","ios":"levelo://app?vid=e0599a38-4951-4c8e-8773-96292c24cc83"},"vehicle_type_id":"4","last_reported":1725977323,"current_range_meters":12400,"station_id":"ce4bhnh2rcd13ifvqgtg","pricing_plan_id":"cebpf4jnsgd1na2vs0mg"},{"bike_id":"4d1cd020-9802-45ab-a9e0-d3421d28344b","system_id":"levelo_inurba_marseille","lat":43.26681,"lon":5.3827,"is_reserved":false,"is_disabled":false,"rental_uris":{"android":"levelo://app?vid=4d1cd020-9802-45ab-a9e0-d3421d28344b","ios":"levelo://app?vid=4d1cd020-9802-45ab-a9e0-d3421d28344b"},"vehicle_type_id":"4","last_reported":1725977323,"current_range_meters":6000,"station_id":"ce4bhg92rcd13ifvqf90","pricing_plan_id":"cebpf4jnsgd1na2vs0mg"},{"bike_id":"9cf15fbe-b802-4da8-a254-cc4290ea3d33","system_id":"levelo_inurba_marseille","lat":43.26038,"lon":5.37547,"is_reserved":false,"is_disabled":false,"rental_uris":{"android":"levelo://app?vid=9cf15fbe-b802-4da8-a254-cc4290ea3d33","ios":"levelo://app?vid=9cf15fbe-b802-4da8-a254-cc4290ea3d33"},"vehicle_type_id":"4","last_reported":1725977323,"current_range_meters":14000,"station_id":"ce4bhgh2rcd13ifvqfa0","pricing_plan_id":"cebpf4jnsgd1na2vs0mg"},{"bike_id":"c959f129-8f4f-421f-b03d-7168c3425514","system_id":"levelo_inurba_marseille","lat":43.2979,"lon":5.381,"is_reserved":false,"is_disabled":false,"rental_uris":{"android":"levelo://app?vid=c959f129-8f4f-421f-b03d-7168c3425514","ios":"levelo://app?vid=c959f129-8f4f-421f-b03d-7168c3425514"},"vehicle_type_id":"4","last_reported":1725977323,"current_range_meters":30800,"station_id":"ce4bgip2rcd13ifvqbb0","pricing_plan_id":"cebpf4jnsgd1na2vs0mg"},{"bike_id":"b2de7ac6-13c6-4e9e-9481-2254e4afae56","system_id":"levelo_inurba_marseille","lat":43.28079,"lon":5.39653,"is_reserved":false,"is_disabled":false,"rental_uris":{"android":"levelo://app?vid=b2de7ac6-13c6-4e9e-9481-2254e4afae56","ios":"levelo://app?vid=b2de7ac6-13c6-4e9e-9481-2254e4afae56"},"vehicle_type_id":"4","last_reported":1725977323,"current_range_meters":34000,"station_id":"ce4bho12rcd13ifvqh2g","pricing_plan_id":"cebpf4jnsgd1na2vs0mg"},{"bike_id":"fa410d04-2696-4f84-b241-3c6733e12b54","system_id":"levelo_inurba_marseille","lat":43.28155,"lon":5.42643,"is_reserved":false,"is_disabled":false,"rental_uris":{"android":"levelo://app?vid=fa410d04-2696-4f84-b241-3c6733e12b54","ios":"levelo://app?vid=fa410d04-2696-4f84-b241-3c6733e12b54"},"vehicle_type_id":"4","last_reported":1725977323,"current_range_meters":26000,"station_id":"ce4bhnh2rcd13ifvqgug","pricing_plan_id":"cebpf4jnsgd1na2vs0mg"},{"bike_id":"ad4a6df5-6a17-4b2b-afa0-fdaf62d66402","system_id":"levelo_inurba_marseille","lat":43.26063,"lon":5.39398,"is_reserved":false,"is_disabled":false,"rental_uris":{"android":"levelo://app?vid=ad4a6df5-6a17-4b2b-afa0-fdaf62d66402","ios":"levelo://app?vid=ad4a6df5-6a17-4b2b-afa0-fdaf62d66402"},"vehicle_type_id":"4","last_reported":1725977323,"current_range_meters":12800,"station_id":"ce4bhh92rcd13ifvqfj0","pricing_plan_id":"cebpf4jnsgd1na2vs0mg"},{"bike_id":"4a7dae75-998e-4aa4-97a6-910dd5ab4265","system_id":"levelo_inurba_marseille","lat":43.297059,"lon":5.366208,"is_reserved":false,"is_disabled":false,"rental_uris":{"android":"levelo://app?vid=4a7dae75-998e-4aa4-97a6-910dd5ab4265","ios":"levelo://app?vid=4a7dae75-998e-4aa4-97a6-910dd5ab4265"},"vehicle_type_id":"4","last_reported":1725977323,"current_range_meters":30800,"station_id":"ce4bgn12rcd13ifvqbt0","pricing_plan_id":"cebpf4jnsgd1na2vs0mg"},{"bike_id":"e6067101-9a82-4d65-8bdf-59b27578146c","system_id":"levelo_inurba_marseille","lat":43.25124,"lon":5.40324,"is_reserved":false,"is_disabled":false,"rental_uris":{"android":"levelo://app?vid=e6067101-9a82-4d65-8bdf-59b27578146c","ios":"levelo://app?vid=e6067101-9a82-4d65-8bdf-59b27578146c"},"vehicle_type_id":"4","last_reported":1725977323,"current_range_meters":28000,"station_id":"ce4bhlh2rcd13ifvqgig","pricing_plan_id":"cebpf4jnsgd1na2vs0mg"},{"bike_id":"3af9f657-62cf-4d6a-a7a8-e8c9f80fb1f5","system_id":"levelo_inurba_marseille","lat":43.30533,"lon":5.36706,"is_reserved":false,"is_disabled":false,"rental_uris":{"android":"levelo://app?vid=3af9f657-62cf-4d6a-a7a8-e8c9f80fb1f5","ios":"levelo://app?vid=3af9f657-62cf-4d6a-a7a8-e8c9f80fb1f5"},"vehicle_type_id":"4","last_reported":1725977323,"current_range_meters":38000,"station_id":"ce4bgrp2rcd13ifvqc9g","pricing_plan_id":"cebpf4jnsgd1na2vs0mg"},{"bike_id":"8f0d4f6b-4c59-4002-9401-0ba051f36f96","system_id":"levelo_inurba_marseille","lat":43.312687,"lon":5.401641,"is_reserved":false,"is_disabled":false,"rental_uris":{"android":"levelo://app?vid=8f0d4f6b-4c59-4002-9401-0ba051f36f96","ios":"levelo://app?vid=8f0d4f6b-4c59-4002-9401-0ba051f36f96"},"vehicle_type_id":"4","last_reported":1725977323,"current_range_meters":15200,"station_id":"ce4bh092rcd13ifvqd30","pricing_plan_id":"cebpf4jnsgd1na2vs0mg"},{"bike_id":"2743c6e4-7a6a-45ec-b410-8efcd0d70840","system_id":"levelo_inurba_marseille","lat":43.23148,"lon":5.43716,"is_reserved":false,"is_disabled":false,"rental_uris":{"android":"levelo://app?vid=2743c6e4-7a6a-45ec-b410-8efcd0d70840","ios":"levelo://app?vid=2743c6e4-7a6a-45ec-b410-8efcd0d70840"},"vehicle_type_id":"4","last_reported":1725977323,"current_range_meters":16800,"station_id":"ce4bhmp2rcd13ifvqgog","pricing_plan_id":"cebpf4jnsgd1na2vs0mg"},{"bike_id":"38663d24-596d-4aa8-b0f4-ae8759df31c5","system_id":"levelo_inurba_marseille","lat":43.24656,"lon":5.38891,"is_reserved":false,"is_disabled":false,"rental_uris":{"android":"levelo://app?vid=38663d24-596d-4aa8-b0f4-ae8759df31c5","ios":"levelo://app?vid=38663d24-596d-4aa8-b0f4-ae8759df31c5"},"vehicle_type_id":"4","last_reported":1725977323,"current_range_meters":34800,"station_id":"ce4bhg12rcd13ifvqf60","pricing_plan_id":"cebpf4jnsgd1na2vs0mg"},{"bike_id":"12a580cb-12fd-4ce9-b337-4d16f886d13b","system_id":"levelo_inurba_marseille","lat":43.24392,"lon":5.3706,"is_reserved":false,"is_disabled":false,"rental_uris":{"android":"levelo://app?vid=12a580cb-12fd-4ce9-b337-4d16f886d13b","ios":"levelo://app?vid=12a580cb-12fd-4ce9-b337-4d16f886d13b"},"vehicle_type_id":"4","last_reported":1725977323,"current_range_meters":16400,"station_id":"ce4bhhh2rcd13ifvqfk0","pricing_plan_id":"cebpf4jnsgd1na2vs0mg"},{"bike_id":"1fda24c3-2740-4b3b-85f9-2ecb3bf0cb75","system_id":"levelo_inurba_marseille","lat":43.29261,"lon":5.40911,"is_reserved":false,"is_disabled":false,"rental_uris":{"android":"levelo://app?vid=1fda24c3-2740-4b3b-85f9-2ecb3bf0cb75","ios":"levelo://app?vid=1fda24c3-2740-4b3b-85f9-2ecb3bf0cb75"},"vehicle_type_id":"4","last_reported":1725977323,"current_range_meters":24400,"station_id":"ce4bh192rcd13ifvqdc0","pricing_plan_id":"cebpf4jnsgd1na2vs0mg"},{"bike_id":"3bfff435-780c-430e-a884-b7e0a240cebc","system_id":"levelo_inurba_marseille","lat":43.28158,"lon":5.40438,"is_reserved":false,"is_disabled":false,"rental_uris":{"android":"levelo://app?vid=3bfff435-780c-430e-a884-b7e0a240cebc","ios":"levelo://app?vid=3bfff435-780c-430e-a884-b7e0a240cebc"},"vehicle_type_id":"4","last_reported":1725977323,"current_range_meters":27200,"station_id":"","pricing_plan_id":"cebpf4jnsgd1na2vs0mg"},{"bike_id":"57959b26-5bd7-4318-b89f-080ff8fcc385","system_id":"levelo_inurba_marseille","lat":43.29919,"lon":5.37503,"is_reserved":false,"is_disabled":false,"rental_uris":{"android":"levelo://app?vid=57959b26-5bd7-4318-b89f-080ff8fcc385","ios":"levelo://app?vid=57959b26-5bd7-4318-b89f-080ff8fcc385"},"vehicle_type_id":"4","last_reported":1725977323,"current_range_meters":2800,"station_id":"ce4bgjh2rcd13ifvqbg0","pricing_plan_id":"cebpf4jnsgd1na2vs0mg"},{"bike_id":"1b9fe5c3-78e3-4c62-92cc-c9dab6f19636","system_id":"levelo_inurba_marseille","lat":43.28455,"lon":5.35891,"is_reserved":false,"is_disabled":false,"rental_uris":{"android":"levelo://app?vid=1b9fe5c3-78e3-4c62-92cc-c9dab6f19636","ios":"levelo://app?vid=1b9fe5c3-78e3-4c62-92cc-c9dab6f19636"},"vehicle_type_id":"4","last_reported":1725977323,"current_range_meters":11600,"station_id":"ce4bhah2rcd13ifvqei0","pricing_plan_id":"cebpf4jnsgd1na2vs0mg"},{"bike_id":"db4d7747-9c2b-4b82-93ad-3001947712a9","system_id":"levelo_inurba_marseille","lat":43.274978,"lon":5.424558,"is_reserved":false,"is_disabled":false,"rental_uris":{"android":"levelo://app?vid=db4d7747-9c2b-4b82-93ad-3001947712a9","ios":"levelo://app?vid=db4d7747-9c2b-4b82-93ad-3001947712a9"},"vehicle_type_id":"4","last_reported":1725977323,"current_range_meters":12000,"station_id":"ce4bhn92rcd13ifvqgrg","pricing_plan_id":"cebpf4jnsgd1na2vs0mg"},{"bike_id":"7eb763e6-83de-429c-8926-05f7380f98db","system_id":"levelo_inurba_marseille","lat":43.23156,"lon":5.43701,"is_reserved":false,"is_disabled":false,"rental_uris":{"android":"levelo://app?vid=7eb763e6-83de-429c-8926-05f7380f98db","ios":"levelo://app?vid=7eb763e6-83de-429c-8926-05f7380f98db"},"vehicle_type_id":"4","last_reported":1725977323,"current_range_meters":2000,"station_id":"ce4bhmp2rcd13ifvqgog","pricing_plan_id":"cebpf4jnsgd1na2vs0mg"},{"bike_id":"1a7f64a8-2c9d-43e8-acb2-7d0556e1c1a4","system_id":"levelo_inurba_marseille","lat":43.28008,"lon":5.40012,"is_reserved":false,"is_disabled":false,"rental_uris":{"android":"levelo://app?vid=1a7f64a8-2c9d-43e8-acb2-7d0556e1c1a4","ios":"levelo://app?vid=1a7f64a8-2c9d-43e8-acb2-7d0556e1c1a4"},"vehicle_type_id":"4","last_reported":1725977323,"current_range_meters":24800,"station_id":"ce4bho92rcd13ifvqh4g","pricing_plan_id":"cebpf4jnsgd1na2vs0mg"},{"bike_id":"91c4c2be-d5ac-4ded-b227-5df53afe1752","system_id":"levelo_inurba_marseille","lat":43.265747,"lon":5.390423,"is_reserved":false,"is_disabled":false,"rental_uris":{"android":"levelo://app?vid=91c4c2be-d5ac-4ded-b227-5df53afe1752","ios":"levelo://app?vid=91c4c2be-d5ac-4ded-b227-5df53afe1752"},"vehicle_type_id":"4","last_reported":1725977323,"current_range_meters":17600,"station_id":"ce4bhe12rcd13ifvqf30","pricing_plan_id":"cebpf4jnsgd1na2vs0mg"},{"bike_id":"c8aa7fe8-5355-455a-8bf3-31a42f3b7e8f","system_id":"levelo_inurba_marseille","lat":43.25823,"lon":5.39434,"is_reserved":false,"is_disabled":false,"rental_uris":{"android":"levelo://app?vid=c8aa7fe8-5355-455a-8bf3-31a42f3b7e8f","ios":"levelo://app?vid=c8aa7fe8-5355-455a-8bf3-31a42f3b7e8f"},"vehicle_type_id":"4","last_reported":1725977323,"current_range_meters":16400,"station_id":"ce4bhip2rcd13ifvqft0","pricing_plan_id":"cebpf4jnsgd1na2vs0mg"},{"bike_id":"29ed2b7b-5be8-4330-a37b-19de41847167","system_id":"levelo_inurba_marseille","lat":43.31355,"lon":5.36721,"is_reserved":false,"is_disabled":false,"rental_uris":{"android":"levelo://app?vid=29ed2b7b-5be8-4330-a37b-19de41847167","ios":"levelo://app?vid=29ed2b7b-5be8-4330-a37b-19de41847167"},"vehicle_type_id":"4","last_reported":1725977323,"current_range_meters":7200,"station_id":"ce4bgr92rcd13ifvqc6g","pricing_plan_id":"cebpf4jnsgd1na2vs0mg"},{"bike_id":"59547261-34f2-4f95-bc82-9e7c298b670c","system_id":"levelo_inurba_marseille","lat":43.31372,"lon":5.385,"is_reserved":false,"is_disabled":false,"rental_uris":{"android":"levelo://app?vid=59547261-34f2-4f95-bc82-9e7c298b670c","ios":"levelo://app?vid=59547261-34f2-4f95-bc82-9e7c298b670c"},"vehicle_type_id":"4","last_reported":1725977323,"current_range_meters":37600,"station_id":"ce4bgt92rcd13ifvqcf0","pricing_plan_id":"cebpf4jnsgd1na2vs0mg"},{"bike_id":"f12d439d-6390-43b1-932d-dc232dcae3bf","system_id":"levelo_inurba_marseille","lat":43.23059,"lon":5.35487,"is_reserved":false,"is_disabled":false,"rental_uris":{"android":"levelo://app?vid=f12d439d-6390-43b1-932d-dc232dcae3bf","ios":"levelo://app?vid=f12d439d-6390-43b1-932d-dc232dcae3bf"},"vehicle_type_id":"4","last_reported":1725977323,"current_range_meters":16800,"station_id":"cpo3342slgdg3j2ifvpg","pricing_plan_id":"cebpf4jnsgd1na2vs0mg"},{"bike_id":"35bc1d68-37a6-4ae2-bf6c-1b32caf096d0","system_id":"levelo_inurba_marseille","lat":43.29895,"lon":5.37269,"is_reserved":false,"is_disabled":false,"rental_uris":{"android":"levelo://app?vid=35bc1d68-37a6-4ae2-bf6c-1b32caf096d0","ios":"levelo://app?vid=35bc1d68-37a6-4ae2-bf6c-1b32caf096d0"},"vehicle_type_id":"4","last_reported":1725977323,"current_range_meters":21600,"station_id":"","pricing_plan_id":"cebpf4jnsgd1na2vs0mg"},{"bike_id":"8c8548fb-918d-4a6e-8223-310d694de915","system_id":"levelo_inurba_marseille","lat":43.30601,"lon":5.37237,"is_reserved":false,"is_disabled":false,"rental_uris":{"android":"levelo://app?vid=8c8548fb-918d-4a6e-8223-310d694de915","ios":"levelo://app?vid=8c8548fb-918d-4a6e-8223-310d694de915"},"vehicle_type_id":"4","last_reported":1725977323,"current_range_meters":24400,"station_id":"ce4bgqh2rcd13ifvqc4g","pricing_plan_id":"cebpf4jnsgd1na2vs0mg"},{"bike_id":"d13a0f41-139c-47db-ba12-558d9e1ab284","system_id":"levelo_inurba_marseille","lat":43.31725,"lon":5.42402,"is_reserved":false,"is_disabled":false,"rental_uris":{"android":"levelo://app?vid=d13a0f41-139c-47db-ba12-558d9e1ab284","ios":"levelo://app?vid=d13a0f41-139c-47db-ba12-558d9e1ab284"},"vehicle_type_id":"4","last_reported":1725977323,"current_range_meters":23200,"station_id":"ce4bhp92rcd13ifvqhbg","pricing_plan_id":"cebpf4jnsgd1na2vs0mg"},{"bike_id":"1677b20d-cb22-4c2c-b51e-2bb04b5c6d5f","system_id":"levelo_inurba_marseille","lat":43.30314,"lon":5.36896,"is_reserved":false,"is_disabled":false,"rental_uris":{"android":"levelo://app?vid=1677b20d-cb22-4c2c-b51e-2bb04b5c6d5f","ios":"levelo://app?vid=1677b20d-cb22-4c2c-b51e-2bb04b5c6d5f"},"vehicle_type_id":"4","last_reported":1725977323,"current_range_meters":22000,"station_id":"ce4bgqh2rcd13ifvqc5g","pricing_plan_id":"cebpf4jnsgd1na2vs0mg"},{"bike_id":"20e99fee-7f5e-4fd9-8345-d42fb0592de3","system_id":"levelo_inurba_marseille","lat":43.33753,"lon":5.37458,"is_reserved":false,"is_disabled":false,"rental_uris":{"android":"levelo://app?vid=20e99fee-7f5e-4fd9-8345-d42fb0592de3","ios":"levelo://app?vid=20e99fee-7f5e-4fd9-8345-d42fb0592de3"},"vehicle_type_id":"4","last_reported":1725977323,"current_range_meters":20000,"station_id":"","pricing_plan_id":"cebpf4jnsgd1na2vs0mg"},{"bike_id":"17588213-0bd3-4075-a77f-43bab2710438","system_id":"levelo_inurba_marseille","lat":43.286177,"lon":5.39335,"is_reserved":false,"is_disabled":false,"rental_uris":{"android":"levelo://app?vid=17588213-0bd3-4075-a77f-43bab2710438","ios":"levelo://app?vid=17588213-0bd3-4075-a77f-43bab2710438"},"vehicle_type_id":"4","last_reported":1725977323,"current_range_meters":16800,"station_id":"ce4bh292rcd13ifvqdg0","pricing_plan_id":"cebpf4jnsgd1na2vs0mg"},