{"last_updated":1768825594,"ttl":60,"version":"2.2","data":{"bikes":[{"bike_id":"a922151a-a9d3-4690-b181-d4467766ed0f","system_id":"levelo_inurba_marseille","lat":43.24464,"lon":5.42538,"is_reserved":false,"is_disabled":false,"rental_uris":{"android":"levelo://app?vid=a922151a-a9d3-4690-b181-d4467766ed0f","ios":"levelo://app?vid=a922151a-a9d3-4690-b181-d4467766ed0f"},"vehicle_type_id":"4","last_reported":1768825595,"current_range_meters":2800,"station_id":"st_d4a3vfp97mjs738cd8kg","pricing_plan_id":"cebpf4jnsgd1na2vs0mg"},{"bike_id":"724da048-f937-4446-a0b2-3f881c76c59a","system_id":"levelo_inurba_marseille","lat":43.28148,"lon":5.42622,"is_reserved":false,"is_disabled":false,"rental_uris":{"android":"levelo://app?vid=724da048-f937-4446-a0b2-3f881c76c59a","ios":"levelo://app?vid=724da048-f937-4446-a0b2-3f881c76c59a"},"vehicle_type_id":"4","last_reported":1768825595,"current_range_meters":2800,"station_id":"ce4bhnh2rcd13ifvqgug","pricing_plan_id":"cebpf4jnsgd1na2vs0mg"},{"bike_id":"ed437d7a-570f-45e9-b9a8-0abb195a4299","system_id":"levelo_inurba_marseille","lat":43.27962,"lon":5.38754,"is_reserved":false,"is_disabled":false,"rental_uris":{"android":"levelo://app?vid=ed437d7a-570f-45e9-b9a8-0abb195a4299","ios":"levelo://app?vid=ed437d7a-570f-45e9-b9a8-0abb195a4299"},"vehicle_type_id":"4","last_reported":1768825595,"current_range_meters":2800,"station_id":"ce4bhg12rcd13ifvqf80","pricing_plan_id":"cebpf4jnsgd1na2vs0mg"},{"bike_id":"f9650e24-8048-44b3-9275-13d881c210a3","system_id":"levelo_inurba_marseille","lat":43.30294,"lon":5.37703,"is_reserved":false,"is_disabled":false,"rental_uris":{"android":"levelo://app?vid=f9650e24-8048-44b3-9275-13d881c210a3","ios":"levelo://app?vid=f9650e24-8048-44b3-9275-13d881c210a3"},"vehicle_type_id":"4","last_reported":1768825595,"current_range_meters":2800,"station_id":"ce4bguh2rcd13ifvqcj0","pricing_plan_id":"cebpf4jnsgd1na2vs0mg"},{"bike_id":"a904369c-102d-46bd-9e47-c846391596b8","system_id":"levelo_inurba_marseille","lat":43.30317,"lon":5.37691,"is_reserved":false,"is_disabled":false,"rental_uris":{"android":"levelo://app?vid=a904369c-102d-46bd-9e47-c846391596b8","ios":"levelo://app?vid=a904369c-102d-46bd-9e47-c846391596b8"},"vehicle_type_id":"4","last_reported":1768825595,"current_range_meters":2800,"station_id":"ce4bguh2rcd13ifvqcj0","pricing_plan_id":"cebpf4jnsgd1na2vs0mg"},{"bike_id":"3fcd7be5-9e86-4360-8db1-236a81bdedf0","system_id":"levelo_inurba_marseille","lat":43.26024,"lon":5.39688,"is_reserved":false,"is_disabled":false,"rental_uris":{"android":"levelo://app?vid=3fcd7be5-9e86-4360-8db1-236a81bdedf0","ios":"levelo://app?vid=3fcd7be5-9e86-4360-8db1-236a81bdedf0"},"vehicle_type_id":"4","last_reported":1768825595,"current_range_meters":2800,"station_id":"","pricing_plan_id":"cebpf4jnsgd1na2vs0mg"},{"bike_id":"109af0eb-39f9-40cc-ad66-5e9547b38e76","system_id":"levelo_inurba_marseille","lat":43.24994,"lon":5.38942,"is_reserved":false,"is_disabled":false,"rental_uris":{"android":"levelo://app?vid=109af0eb-39f9-40cc-ad66-5e9547b38e76","ios":"levelo://app?vid=109af0eb-39f9-40cc-ad66-5e9547b38e76"},"vehicle_type_id":"4","last_reported":1768825595,"current_range_meters":2800,"station_id":"ce4bhgp2rcd13ifvqfd0","pricing_plan_id":"cebpf4jnsgd1na2vs0mg"},{"bike_id":"facd135e-5d16-41e6-9df2-8346db37bc1b","system_id":"levelo_inurba_marseille","lat":43.26951,"lon":5.38651,"is_reserved":false,"is_disabled":false,"rental_uris":{"android":"levelo://app?vid=facd135e-5d16-41e6-9df2-8346db37bc1b","ios":"levelo://app?vid=facd135e-5d16-41e6-9df2-8346db37bc1b"},"vehicle_type_id":"4","last_reported":1768825595,"current_range_meters":2800,"station_id":"ce4bhh92rcd13ifvqfh0","pricing_plan_id":"cebpf4jnsgd1na2vs0mg"},{"bike_id":"0d7999cc-9cee-4eb1-9751-8dc379f75d28","system_id":"levelo_inurba_marseille","lat":43.287153,"lon":5.379268,"is_reserved":false,"is_disabled":false,"rental_uris":{"android":"levelo://app?vid=0d7999cc-9cee-4eb1-9751-8dc379f75d28","ios":"levelo://app?vid=0d7999cc-9cee-4eb1-9751-8dc379f75d28"},"vehicle_type_id":"4","last_reported":1768825595,"current_range_meters":2800,"station_id":"ce4bh9p2rcd13ifvqec0","pricing_plan_id":"cebpf4jnsgd1na2vs0mg"},{"bike_id":"6441e861-a2f0-4746-b077-a43f0369b9d8","system_id":"levelo_inurba_marseille","lat":43.27065,"lon":5.38302,"is_reserved":false,"is_disabled":false,"rental_uris":{"android":"levelo://app?vid=6441e861-a2f0-4746-b077-a43f0369b9d8","ios":"levelo://app?vid=6441e861-a2f0-4746-b077-a43f0369b9d8"},"vehicle_type_id":"4","last_reported":1768825595,"current_range_meters":2800,"station_id":"st_d3n2fo6cfp8s73cte1j0","pricing_plan_id":"cebpf4jnsgd1na2vs0mg"},{"bike_id":"2f8add22-4e28-4f16-8701-3a07774a980c","system_id":"levelo_inurba_marseille","lat":43.24073,"lon":5.37763,"is_reserved":false,"is_disabled":false,"rental_uris":{"android":"levelo://app?vid=2f8add22-4e28-4f16-8701-3a07774a980c","ios":"levelo://app?vid=2f8add22-4e28-4f16-8701-3a07774a980c"},"vehicle_type_id":"4","last_reported":1768825595,"current_range_meters":3200,"station_id":"ce4bhnp2rcd13ifvqgvg","pricing_plan_id":"cebpf4jnsgd1na2vs0mg"},{"bike_id":"e718a9ae-6d8f-4faf-a5ce-be558aa834c5","system_id":"levelo_inurba_marseille","lat":43.28366,"lon":5.38635,"is_reserved":false,"is_disabled":false,"rental_uris":{"android":"levelo://app?vid=e718a9ae-6d8f-4faf-a5ce-be558aa834c5","ios":"levelo://app?vid=e718a9ae-6d8f-4faf-a5ce-be558aa834c5"},"vehicle_type_id":"4","last_reported":1768825595,"current_range_meters":3200,"station_id":"ce4bh492rcd13ifvqdvg","pricing_plan_id":"cebpf4jnsgd1na2vs0mg"},{"bike_id":"f962ae84-d003-4134-bfcb-6bd4299e92f0","system_id":"levelo_inurba_marseille","lat":43.30538,"lon":5.36695,"is_reserved":false,"is_disabled":false,"rental_uris":{"android":"levelo://app?vid=f962ae84-d003-4134-bfcb-6bd4299e92f0","ios":"levelo://app?vid=f962ae84-d003-4134-bfcb-6bd4299e92f0"},"vehicle_type_id":"4","last_reported":1768825595,"current_range_meters":3200,"station_id":"ce4bgrp2rcd13ifvqc9g","pricing_plan_id":"cebpf4jnsgd1na2vs0mg"},{"bike_id":"1eb77da4-c550-4824-a6e6-4ad4e8cfbf29","system_id":"levelo_inurba_marseille","lat":43.29971,"lon":5.37184,"is_reserved":false,"is_disabled":false,"rental_uris":{"android":"levelo://app?vid=1eb77da4-c550-4824-a6e6-4ad4e8cfbf29","ios":"levelo://app?vid=1eb77da4-c550-4824-a6e6-4ad4e8cfbf29"},"vehicle_type_id":"4","last_reported":1768825595,"current_range_meters":3600,"station_id":"ce4bgr92rcd13ifvqc7g","pricing_plan_id":"cebpf4jnsgd1na2vs0mg"},{"bike_id":"53e3bdc2-3350-4597-b889-679f95ce65f7","system_id":"levelo_inurba_marseille","lat":43.284725,"lon":5.384184,"is_reserved":false,"is_disabled":false,"rental_uris":{"android":"levelo://app?vid=53e3bdc2-3350-4597-b889-679f95ce65f7","ios":"levelo://app?vid=53e3bdc2-3350-4597-b889-679f95ce65f7"},"vehicle_type_id":"4","last_reported":1768825595,"current_range_meters":3600,"station_id":"","pricing_plan_id":"cebpf4jnsgd1na2vs0mg"},{"bike_id":"ff839314-dbe7-407b-b40a-0a369c1d2176","system_id":"levelo_inurba_marseille","lat":43.29243,"lon":5.38456,"is_reserved":false,"is_disabled":false,"rental_uris":{"android":"levelo://app?vid=ff839314-dbe7-407b-b40a-0a369c1d2176","ios":"levelo://app?vid=ff839314-dbe7-407b-b40a-0a369c1d2176"},"vehicle_type_id":"4","last_reported":1768825595,"current_range_meters":3600,"station_id":"ce4bh692rcd13ifvqea0","pricing_plan_id":"cebpf4jnsgd1na2vs0mg"},{"bike_id":"6f14ae8d-8959-4661-a35e-ffbf6c793c91","system_id":"levelo_inurba_marseille","lat":43.24395,"lon":5.37075,"is_reserved":false,"is_disabled":false,"rental_uris":{"android":"levelo://app?vid=6f14ae8d-8959-4661-a35e-ffbf6c793c91","ios":"levelo://app?vid=6f14ae8d-8959-4661-a35e-ffbf6c793c91"},"vehicle_type_id":"4","last_reported":1768825595,"current_range_meters":3600,"station_id":"ce4bhhh2rcd13ifvqfk0","pricing_plan_id":"cebpf4jnsgd1na2vs0mg"},{"bike_id":"88eda01b-9b11-4891-a90d-78b2d63e55b2","system_id":"levelo_inurba_marseille","lat":43.24658,"lon":5.38155,"is_reserved":false,"is_disabled":false,"rental_uris":{"android":"levelo://app?vid=88eda01b-9b11-4891-a90d-78b2d63e55b2","ios":"levelo://app?vid=88eda01b-9b11-4891-a90d-78b2d63e55b2"},"vehicle_type_id":"4","last_reported":1768825595,"current_range_meters":3600,"station_id":"ce4bhih2rcd13ifvqfr0","pricing_plan_id":"cebpf4jnsgd1na2vs0mg"},{"bike_id":"c6b7d41c-17d5-4d4d-98f7-04f5d62108df","system_id":"levelo_inurba_marseille","lat":43.225563,"lon":5.416261,"is_reserved":false,"is_disabled":true,"rental_uris":{"android":"levelo://app?vid=c6b7d41c-17d5-4d4d-98f7-04f5d62108df","ios":"levelo://app?vid=c6b7d41c-17d5-4d4d-98f7-04f5d62108df"},"vehicle_type_id":"4","last_reported":1768825595,"current_range_meters":3600,"station_id":"st_d2o4gvlbi1j2169b742g","pricing_plan_id":"cebpf4jnsgd1na2vs0mg"},{"bike_id":"97796854-4dd8-491a-b7a7-15ef7af6df38","system_id":"levelo_inurba_marseille","lat":43.26501,"lon":5.39539,"is_reserved":false,"is_disabled":false,"rental_uris":{"android":"levelo://app?vid=97796854-4dd8-491a-b7a7-15ef7af6df38","ios":"levelo://app?vid=97796854-4dd8-491a-b7a7-15ef7af6df38"},"vehicle_type_id":"4","last_reported":1768825595,"current_range_meters":3600,"station_id":"ce4bhi12rcd13ifvqfq0","pricing_plan_id":"cebpf4jnsgd1na2vs0mg"},{"bike_id":"0105de79-43a8-4de9-af65-6d3d110a6400","system_id":"levelo_inurba_marseille","lat":43.2415,"lon":5.39722,"is_reserved":false,"is_disabled":false,"rental_uris":{"android":"levelo://app?vid=0105de79-43a8-4de9-af65-6d3d110a6400","ios":"levelo://app?vid=0105de79-43a8-4de9-af65-6d3d110a6400"},"vehicle_type_id":"4","last_reported":1768825595,"current_range_meters":4000,"station_id":"ce4bhn12rcd13ifvqgpg","pricing_plan_id":"cebpf4jnsgd1na2vs0mg"},{"bike_id":"c55653aa-3b40-49b8-ab2e-4981db381d01","system_id":"levelo_inurba_marseille","lat":43.28002,"lon":5.41669,"is_reserved":false,"is_disabled":false,"rental_uris":{"android":"levelo://app?vid=c55653aa-3b40-49b8-ab2e-4981db381d01","ios":"levelo://app?vid=c55653aa-3b40-49b8-ab2e-4981db381d01"},"vehicle_type_id":"4","last_reported":1768825595,"current_range_meters":4000,"station_id":"ce4bho12rcd13ifvqh1g","pricing_plan_id":"cebpf4jnsgd1na2vs0mg"},{"bike_id":"56737267-0063-4755-9e12-e94daf7863d8","system_id":"levelo_inurba_marseille","lat":43.24815,"lon":5.37461,"is_reserved":false,"is_disabled":false,"rental_uris":{"android":"levelo://app?vid=56737267-0063-4755-9e12-e94daf7863d8","ios":"levelo://app?vid=56737267-0063-4755-9e12-e94daf7863d8"},"vehicle_type_id":"4","last_reported":1768825595,"current_range_meters":4000,"station_id":"ce4bhgh2rcd13ifvqfb0","pricing_plan_id":"cebpf4jnsgd1na2vs0mg"},{"bike_id":"5acb1989-2eb4-426f-87c1-2dd0797aeeec","system_id":"levelo_inurba_marseille","lat":43.30586,"lon":5.39362,"is_reserved":false,"is_disabled":false,"rental_uris":{"android":"levelo://app?vid=5acb1989-2eb4-426f-87c1-2dd0797aeeec","ios":"levelo://app?vid=5acb1989-2eb4-426f-87c1-2dd0797aeeec"},"vehicle_type_id":"4","last_reported":1768825595,"current_range_meters":4000,"station_id":"ce4bh0p2rcd13ifvqd80","pricing_plan_id":"cebpf4jnsgd1na2vs0mg"},{"bike_id":"52d76d5a-c8fd-4dbd-b507-0ab60f5b55ae","system_id":"levelo_inurba_marseille","lat":43.25539,"lon":5.43232,"is_reserved":false,"is_disabled":false,"rental_uris":{"android":"levelo://app?vid=52d76d5a-c8fd-4dbd-b507-0ab60f5b55ae","ios":"levelo://app?vid=52d76d5a-c8fd-4dbd-b507-0ab60f5b55ae"},"vehicle_type_id":"4","last_reported":1768825595,"current_range_meters":4000,"station_id":"","pricing_plan_id":"cebpf4jnsgd1na2vs0mg"},{"bike_id":"5cccdad3-57e0-40c4-bb97-5effe42d761a","system_id":"levelo_inurba_marseille","lat":43.24809,"lon":5.37463,"is_reserved":false,"is_disabled":false,"rental_uris":{"android":"levelo://app?vid=5cccdad3-57e0-40c4-bb97-5effe42d761a","ios":"levelo://app?vid=5cccdad3-57e0-40c4-bb97-5effe42d761a"},"vehicle_type_id":"4","last_reported":1768825595,"current_range_meters":4000,"station_id":"ce4bhgh2rcd13ifvqfb0","pricing_plan_id":"cebpf4jnsgd1na2vs0mg"},{"bike_id":"bd5b8903-ee80-42f9-a060-38ece4dff82d","system_id":"levelo_inurba_marseille","lat":43.275,"lon":5.42463,"is_reserved":false,"is_disabled":false,"rental_uris":{"android":"levelo://app?vid=bd5b8903-ee80-42f9-a060-38ece4dff82d","ios":"levelo://app?vid=bd5b8903-ee80-42f9-a060-38ece4dff82d"},"vehicle_type_id":"4","last_reported":1768825595,"current_range_meters":4000,"station_id":"ce4bhn92rcd13ifvqgrg","pricing_plan_id":"cebpf4jnsgd1na2vs0mg"},{"bike_id":"ec84f853-3c1e-432f-84f1-c7932f803205","system_id":"levelo_inurba_marseille","lat":43.24463,"lon":5.42544,"is_reserved":false,"is_disabled":false,"rental_uris":{"android":"levelo://app?vid=ec84f853-3c1e-432f-84f1-c7932f803205","ios":"levelo://app?vid=ec84f853-3c1e-432f-84f1-c7932f803205"},"vehicle_type_id":"4","last_reported":1768825595,"current_range_meters":4000,"station_id":"st_d4a3vfp97mjs738cd8kg","pricing_plan_id":"cebpf4jnsgd1na2vs0mg"},{"bike_id":"ab74dafd-bdde-4806-9312-7ac8c28f3c12","system_id":"levelo_inurba_marseille","lat":43.28867,"lon":5.42515,"is_reserved":false,"is_disabled":false,"rental_uris":{"android":"levelo://app?vid=ab74dafd-bdde-4806-9312-7ac8c28f3c12","ios":"levelo://app?vid=ab74dafd-bdde-4806-9312-7ac8c28f3c12"},"vehicle_type_id":"4","last_reported":1768825595,"current_range_meters":4000,"station_id":"st_d3b462108ojc7389ooeg","pricing_plan_id":"cebpf4jnsgd1na2vs0mg"},{"bike_id":"f105a622-1eec-4225-9e46-e84e6e6b6073","system_id":"levelo_inurba_marseille","lat":43.24824,"lon":5.37462,"is_reserved":false,"is_disabled":false,"rental_uris":{"android":"levelo://app?vid=f105a622-1eec-4225-9e46-e84e6e6b6073","ios":"levelo://app?vid=f105a622-1eec-4225-9e46-e84e6e6b6073"},"vehicle_type_id":"4","last_reported":1768825595,"current_range_meters":4000,"station_id":"ce4bhgh2rcd13ifvqfb0","pricing_plan_id":"cebpf4jnsgd1na2vs0mg"},{"bike_id":"dafa0255-fbd0-433a-9ac1-dc6e95106f69","system_id":"levelo_inurba_marseille","lat":43.29024,"lon":5.38135,"is_reserved":false,"is_disabled":false,"rental_uris":{"android":"levelo://app?vid=dafa0255-fbd0-433a-9ac1-dc6e95106f69","ios":"levelo://app?vid=dafa0255-fbd0-433a-9ac1-dc6e95106f69"},"vehicle_type_id":"4","last_reported":1768825595,"current_range_meters":4000,"station_id":"ce4bh4p2rcd13ifvqe1g","pricing_plan_id":"cebpf4jnsgd1na2vs0mg"},{"bike_id":"d4af8cb5-d624-4062-88e8-fa1012c96efd","system_id":"levelo_inurba_marseille","lat":43.248,"lon":5.37457,"is_reserved":false,"is_disabled":false,"rental_uris":{"android":"levelo://app?vid=d4af8cb5-d624-4062-88e8-fa1012c96efd","ios":"levelo://app?vid=d4af8cb5-d624-4062-88e8-fa1012c96efd"},"vehicle_type_id":"4","last_reported":1768825595,"current_range_meters":4000,"station_id":"ce4bhgh2rcd13ifvqfb0","pricing_plan_id":"cebpf4jnsgd1na2vs0mg"},{"bike_id":"4a28a0a5-92a3-4f41-871e-f75bf8fb68f3","system_id":"levelo_inurba_marseille","lat":43.30404,"lon":5.40975,"is_reserved":false,"is_disabled":false,"rental_uris":{"android":"levelo://app?vid=4a28a0a5-92a3-4f41-871e-f75bf8fb68f3","ios":"levelo://app?vid=4a28a0a5-92a3-4f41-871e-f75bf8fb68f3"},"vehicle_type_id":"4","last_reported":1768825595,"current_range_meters":4000,"station_id":"","pricing_plan_id":"cebpf4jnsgd1na2vs0mg"},{"bike_id":"2cde3825-9f56-4240-83b3-7ac9750b5616","system_id":"levelo_inurba_marseille","lat":43.29744,"lon":5.3689,"is_reserved":false,"is_disabled":false,"rental_uris":{"android":"levelo://app?vid=2cde3825-9f56-4240-83b3-7ac9750b5616","ios":"levelo://app?vid=2cde3825-9f56-4240-83b3-7ac9750b5616"},"vehicle_type_id":"4","last_reported":1768825595,"current_range_meters":4000,"station_id":"","pricing_plan_id":"cebpf4jnsgd1na2vs0mg"},{"bike_id":"124badea-ffe9-4312-a403-3f74a4b040a9","system_id":"levelo_inurba_marseille","lat":43.34142,"lon":5.40907,"is_reserved":false,"is_disabled":false,"rental_uris":{"android":"levelo://app?vid=124badea-ffe9-4312-a403-3f74a4b040a9","ios":"levelo://app?vid=124badea-ffe9-4312-a403-3f74a4b040a9"},"vehicle_type_id":"4","last_reported":1768825595,"current_range_meters":4000,"station_id":"ce4bhqh2rcd13ifvqhlg","pricing_plan_id":"cebpf4jnsgd1na2vs0mg"},{"bike_id":"2b38c1fe-7b40-40b3-a3f9-5013de1a9ac2","system_id":"levelo_inurba_marseille","lat":43.26249,"lon":5.37461,"is_reserved":false,"is_disabled":false,"rental_uris":{"android":"levelo://app?vid=2b38c1fe-7b40-40b3-a3f9-5013de1a9ac2","ios":"levelo://app?vid=2b38c1fe-7b40-40b3-a3f9-5013de1a9ac2"},"vehicle_type_id":"4","last_reported":1768825595,"current_range_meters":4400,"station_id":"","pricing_plan_id":"cebpf4jnsgd1na2vs0mg"},{"bike_id":"e67e42fe-b68e-4d43-9d57-582dc6eaf5d9","system_id":"levelo_inurba_marseille","lat":43.25578,"lon":5.38239,"is_reserved":false,"is_disabled":false,"rental_uris":{"android":"levelo://app?vid=e67e42fe-b68e-4d43-9d57-582dc6eaf5d9","ios":"levelo://app?vid=e67e42fe-b68e-4d43-9d57-582dc6eaf5d9"},"vehicle_type_id":"4","last_reported":1768825595,"current_range_meters":4400,"station_id":"ce4bhih2rcd13ifvqfs0","pricing_plan_id":"cebpf4jnsgd1na2vs0mg"},{"bike_id":"d2e09b08-74a4-4d06-8ec0-688eef749fe6","system_id":"levelo_inurba_marseille","lat":43.31212,"lon":5.36881,"is_reserved":false,"is_disabled":false,"rental_uris":{"android":"levelo://app?vid=d2e09b08-74a4-4d06-8ec0-688eef749fe6","ios":"levelo://app?vid=d2e09b08-74a4-4d06-8ec0-688eef749fe6"},"vehicle_type_id":"4","last_reported":1768825595,"current_range_meters":4400,"station_id":"ce4bgl92rcd13ifvqbq0","pricing_plan_id":"cebpf4jnsgd1na2vs0mg"},{"bike_id":"02ab98c5-1cd1-4d33-a034-5f5e1f65b38a","system_id":"levelo_inurba_marseille","lat":43.28481,"lon":5.48383,"is_reserved":false,"is_disabled":false,"rental_uris":{"android":"levelo://app?vid=02ab98c5-1cd1-4d33-a034-5f5e1f65b38a","ios":"levelo://app?vid=02ab98c5-1cd1-4d33-a034-5f5e1f65b38a"},"vehicle_type_id":"4","last_reported":1768825595,"current_range_meters":4400,"station_id":"","pricing_plan_id":"cebpf4jnsgd1na2vs0mg"},{"bike_id":"6355e7aa-a5cc-4172-b776-1eb210d2dfc4","system_id":"levelo_inurba_marseille","lat":43.31218,"lon":5.36901,"is_reserved":false,"is_disabled":false,"rental_uris":{"android":"levelo://app?vid=6355e7aa-a5cc-4172-b776-1eb210d2dfc4","ios":"levelo://app?vid=6355e7aa-a5cc-4172-b776-1eb210d2dfc4"},"vehicle_type_id":"4","last_reported":1768825595,"current_range_meters":4400,"station_id":"ce4bgl92rcd13ifvqbq0","pricing_plan_id":"cebpf4jnsgd1na2vs0mg"},{"bike_id":"1877dc01-0bc3-49f7-8e81-793365d72c01","system_id":"levelo_inurba_marseille","lat":43.3054,"lon":5.38423,"is_reserved":false,"is_disabled":false,"rental_uris":{"android":"levelo://app?vid=1877dc01-0bc3-49f7-8e81-793365d72c01","ios":"levelo://app?vid=1877dc01-0bc3-49f7-8e81-793365d72c01"},"vehicle_type_id":"4","last_reported":1768825595,"current_range_meters":4400,"station_id":"ce4bgg92rcd13ifvqb30","pricing_plan_id":"cebpf4jnsgd1na2vs0mg"},{"bike_id":"833b6106-dfe6-4cdd-9d1d-a98f15b29da7","system_id":"levelo_inurba_marseille","lat":43.25581,"lon":5.38242,"is_reserved":false,"is_disabled":false,"rental_uris":{"android":"levelo://app?vid=833b6106-dfe6-4cdd-9d1d-a98f15b29da7","ios":"levelo://app?vid=833b6106-dfe6-4cdd-9d1d-a98f15b29da7"},"vehicle_type_id":"4","last_reported":1768825595,"current_range_meters":4400,"station_id":"ce4bhih2rcd13ifvqfs0","pricing_plan_id":"cebpf4jnsgd1na2vs0mg"},{"bike_id":"f85f4c33-1265-4e47-befa-9150dd174599","system_id":"levelo_inurba_marseille","lat":43.30308,"lon":5.37693,"is_reserved":false,"is_disabled":false,"rental_uris":{"android":"levelo://app?vid=f85f4c33-1265-4e47-befa-9150dd174599","ios":"levelo://app?vid=f85f4c33-1265-4e47-befa-9150dd174599"},"vehicle_type_id":"4","last_reported":1768825595,"current_range_meters":4400,"station_id":"ce4bguh2rcd13ifvqcj0","pricing_plan_id":"cebpf4jnsgd1na2vs0mg"},{"bike_id":"aed8e840-8fda-44b6-b985-afa7f19a0c0b","system_id":"levelo_inurba_marseille","lat":43.28667,"lon":5.38669,"is_reserved":false,"is_disabled":false,"rental_uris":{"android":"levelo://app?vid=aed8e840-8fda-44b6-b985-afa7f19a0c0b","ios":"levelo://app?vid=aed8e840-8fda-44b6-b985-afa7f19a0c0b"},"vehicle_type_id":"4","last_reported":1768825595,"current_range_meters":4400,"station_id":"ce4bh492rcd13ifvqdug","pricing_plan_id":"cebpf4jnsgd1na2vs0mg"},{"bike_id":"5037036f-188b-4c9c-9f7e-772a64c012d7","system_id":"levelo_inurba_marseille","lat":43.24183,"lon":5.39742,"is_reserved":false,"is_disabled":false,"rental_uris":{"android":"levelo://app?vid=5037036f-188b-4c9c-9f7e-772a64c012d7","ios":"levelo://app?vid=5037036f-188b-4c9c-9f7e-772a64c012d7"},"vehicle_type_id":"4","last_reported":1768825595,"current_range_meters":4800,"station_id":"ce4bhn12rcd13ifvqgpg","pricing_plan_id":"cebpf4jnsgd1na2vs0mg"},{"bike_id":"4471b153-47fa-489c-846a-d53b16f561e8","system_id":"levelo_inurba_marseille","lat":43.262042,"lon":5.374555,"is_reserved":false,"is_disabled":false,"rental_uris":{"android":"levelo://app?vid=4471b153-47fa-489c-846a-d53b16f561e8","ios":"levelo://app?vid=4471b153-47fa-489c-846a-d53b16f561e8"},"vehicle_type_id":"4","last_reported":1768825595,"current_range_meters":4800,"station_id":"ce4bhgp2rcd13ifvqfc0","pricing_plan_id":"cebpf4jnsgd1na2vs0mg"},{"bike_id":"9d4e52fe-5fd6-47e1-841a-1b3079f7fe1d","system_id":"levelo_inurba_marseille","lat":43.309,"lon":5.36873,"is_reserved":false,"is_disabled":false,"rental_uris":{"android":"levelo://app?vid=9d4e52fe-5fd6-47e1-841a-1b3079f7fe1d","ios":"levelo://app?vid=9d4e52fe-5fd6-47e1-841a-1b3079f7fe1d"},"vehicle_type_id":"4","last_reported":1768825595,"current_range_meters":5600,"station_id":"ce4bgn92rcd13ifvqbvg","pricing_plan_id":"cebpf4jnsgd1na2vs0mg"},{"bike_id":"7598ef3a-b665-4fa8-b3de-2e188254c5cb","system_id":"levelo_inurba_marseille","lat":43.26489,"lon":5.39531,"is_reserved":false,"is_disabled":false,"rental_uris":{"android":"levelo://app?vid=7598ef3a-b665-4fa8-b3de-2e188254c5cb","ios":"levelo://app?vid=7598ef3a-b665-4fa8-b3de-2e188254c5cb"},"vehicle_type_id":"4","last_reported":1768825595,"current_range_meters":5600,"station_id":"ce4bhi12rcd13ifvqfq0","pricing_plan_id":"cebpf4jnsgd1na2vs0mg"},{"bike_id":"7f52f1ee-3651-463f-8d88-7d23eb28c691","system_id":"levelo_inurba_marseille","lat":43.303756,"lon":5.424906,"is_reserved":false,"is_disabled":false,"rental_uris":{"android":"levelo://app?vid=7f52f1ee-3651-463f-8d88-7d23eb28c691","ios":"levelo://app?vid=7f52f1ee-3651-463f-8d88-7d23eb28c691"},"vehicle_type_id":"4","last_reported":1768825595,"current_range_meters":5600,"station_id":"ce4bhoh2rcd13ifvqh6g","pricing_plan_id":"cebpf4jnsgd1na2vs0mg"},{"bike_id":"e9b99b13-70e4-4e95-bcc3-1f69fa5e158f","system_id":"levelo_inurba_marseille","lat":43.30137,"lon":5.37416,"is_reserved":false,"is_disabled":false,"rental_uris":{"android":"levelo://app?vid=e9b99b13-70e4-4e95-bcc3-1f69fa5e158f","ios":"levelo://app?vid=e9b99b13-70e4-4e95-bcc3-1f69fa5e158f"},"vehicle_type_id":"4","last_reported":1768825595,"current_range_meters":5600,"station_id":"ce4bgs92rcd13ifvqcc0","pricing_plan_id":"cebpf4jnsgd1na2vs0mg"},{"bike_id":"f760a7b1-29a2-400f-be88-26a576d0ed33","system_id":"levelo_inurba_marseille","lat":43.22565,"lon":5.41631,"is_reserved":false,"is_disabled":false,"rental_uris":{"android":"levelo://app?vid=f760a7b1-29a2-400f-be88-26a576d0ed33","ios":"levelo://app?vid=f760a7b1-29a2-400f-be88-26a576d0ed33"},"vehicle_type_id":"4","last_reported":1768825595,"current_range_meters":5600,"station_id":"st_d2o4gvlbi1j2169b742g","pricing_plan_id":"cebpf4jnsgd1na2vs0mg"},{"bike_id":"5ae218fc-4b59-47bf-843d-07e184a1a6c6","system_id":"levelo_inurba_marseille","lat":43.25579,"lon":5.38258,"is_reserved":false,"is_disabled":false,"rental_uris":{"android":"levelo://app?vid=5ae218fc-4b59-47bf-843d-07e184a1a6c6","ios":"levelo://app?vid=5ae218fc-4b59-47bf-843d-07e184a1a6c6"},"vehicle_type_id":"4","last_reported":1768825595,"current_range_meters":5600,"station_id":"ce4bhih2rcd13ifvqfs0","pricing_plan_id":"cebpf4jnsgd1na2vs0mg"},{"bike_id":"997bd131-bc4b-4ed3-be50-234bd23db618","system_id":"levelo_inurba_marseille","lat":43.23782,"lon":5.36633,"is_reserved":false,"is_disabled":false,"rental_uris":{"android":"levelo://app?vid=997bd131-bc4b-4ed3-be50-234bd23db618","ios":"levelo://app?vid=997bd131-bc4b-4ed3-be50-234bd23db618"},"vehicle_type_id":"4","last_reported":1768825595,"current_range_meters":5600,"station_id":"st_d3nk18o9ro0c73en2l3g","pricing_plan_id":"cebpf4jnsgd1na2vs0mg"},{"bike_id":"c17fb97b-ae07-4c98-a543-c0e22027b693","system_id":"levelo_inurba_marseille","lat":43.24401,"lon":5.37057,"is_reserved":false,"is_disabled":false,"rental_uris":{"android":"levelo://app?vid=c17fb97b-ae07-4c98-a543-c0e22027b693","ios":"levelo://app?vid=c17fb97b-ae07-4c98-a543-c0e22027b693"},"vehicle_type_id":"4","last_reported":1768825595,"current_range_meters":5600,"station_id":"ce4bhhh2rcd13ifvqfk0","pricing_plan_id":"cebpf4jnsgd1na2vs0mg"},{"bike_id":"3c846b70-cb12-4226-9359-8834b0cfb326","system_id":"levelo_inurba_marseille","lat":43.24076,"lon":5.37765,"is_reserved":false,"is_disabled":false,"rental_uris":{"android":"levelo://app?vid=3c846b70-cb12-4226-9359-8834b0cfb326","ios":"levelo://app?vid=3c846b70-cb12-4226-9359-8834b0cfb326"},"vehicle_type_id":"4","last_reported":1768825595,"current_range_meters":5600,"station_id":"ce4bhnp2rcd13ifvqgvg","pricing_plan_id":"cebpf4jnsgd1na2vs0mg"},{"bike_id":"7138963b-56af-444b-9f3c-7acb67c6163b","system_id":"levelo_inurba_marseille","lat":43.26055,"lon":5.39385,"is_reserved":false,"is_disabled":false,"rental_uris":{"android":"levelo://app?vid=7138963b-56af-444b-9f3c-7acb67c6163b","ios":"levelo://app?vid=7138963b-56af-444b-9f3c-7acb67c6163b"},"vehicle_type_id":"4","last_reported":1768825595,"current_range_meters":5600,"station_id":"ce4bhh92rcd13ifvqfj0","pricing_plan_id":"cebpf4jnsgd1na2vs0mg"},{"bike_id":"a54d5df4-8e04-455c-aff5-6470c2bee2e4","system_id":"levelo_inurba_marseille","lat":43.27972,"lon":5.38525,"is_reserved":false,"is_disabled":false,"rental_uris":{"android":"levelo://app?vid=a54d5df4-8e04-455c-aff5-6470c2bee2e4","ios":"levelo://app?vid=a54d5df4-8e04-455c-aff5-6470c2bee2e4"},"vehicle_type_id":"4","last_reported":1768825595,"current_range_meters":6000,"station_id":"","pricing_plan_id":"cebpf4jnsgd1na2vs0mg"},{"bike_id":"e3ab7fbc-a543-4ce6-8bfb-a545434b1568","system_id":"levelo_inurba_marseille","lat":43.2887,"lon":5.42525,"is_reserved":false,"is_disabled":false,"rental_uris":{"android":"levelo://app?vid=e3ab7fbc-a543-4ce6-8bfb-a545434b1568","ios":"levelo://app?vid=e3ab7fbc-a543-4ce6-8bfb-a545434b1568"},"vehicle_type_id":"4","last_reported":1768825595,"current_range_meters":6000,"station_id":"st_d3b462108ojc7389ooeg","pricing_plan_id":"cebpf4jnsgd1na2vs0mg"},{"bike_id":"456fa838-bde1-41a1-bacb-725c5d31c7ed","system_id":"levelo_inurba_marseille","lat":43.27385,"lon":5.362456,"is_reserved":false,"is_disabled":false,"rental_uris":{"android":"levelo://app?vid=456fa838-bde1-41a1-bacb-725c5d31c7ed","ios":"levelo://app?vid=456fa838-bde1-41a1-bacb-725c5d31c7ed"},"vehicle_type_id":"4","last_reported":1768825595,"current_range_meters":6000,"station_id":"ce4bhbh2rcd13ifvqeo0","pricing_plan_id":"cebpf4jnsgd1na2vs0mg"},{"bike_id":"ba07251e-69c5-4418-ace3-7cd844e33077","system_id":"levelo_inurba_marseille","lat":43.27824,"lon":5.40712,"is_reserved":false,"is_disabled":false,"rental_uris":{"android":"levelo://app?vid=ba07251e-69c5-4418-ace3-7cd844e33077","ios":"levelo://app?vid=ba07251e-69c5-4418-ace3-7cd844e33077"},"vehicle_type_id":"4","last_reported":1768825595,"current_range_meters":6000,"station_id":"ce4bhnh2rcd13ifvqgtg","pricing_plan_id":"cebpf4jnsgd1na2vs0mg"},{"bike_id":"825dbe6a-05ff-42c5-b686-988034ec5c97","system_id":"levelo_inurba_marseille","lat":43.27961,"lon":5.41059,"is_reserved":false,"is_disabled":true,"rental_uris":{"android":"levelo://app?vid=825dbe6a-05ff-42c5-b686-988034ec5c97","ios":"levelo://app?vid=825dbe6a-05ff-42c5-b686-988034ec5c97"},"vehicle_type_id":"4","last_reported":1768825595,"current_range_meters":6000,"station_id":"ce4bhnp2rcd13ifvqh0g","pricing_plan_id":"cebpf4jnsgd1na2vs0mg"},{"bike_id":"e0b3d136-4efd-4410-be5e-53b3cc12c4c3","system_id":"levelo_inurba_marseille","lat":43.2605,"lon":5.386504,"is_reserved":false,"is_disabled":false,"rental_uris":{"android":"levelo://app?vid=e0b3d136-4efd-4410-be5e-53b3cc12c4c3","ios":"levelo://app?vid=e0b3d136-4efd-4410-be5e-53b3cc12c4c3"},"vehicle_type_id":"4","last_reported":1768825595,"current_range_meters":6000,"station_id":"","pricing_plan_id":"cebpf4jnsgd1na2vs0mg"},{"bike_id":"9ea71dd4-557a-49eb-872d-de0717506d64","system_id":"levelo_inurba_marseille","lat":43.23195,"lon":5.35543,"is_reserved":false,"is_disabled":false,"rental_uris":{"android":"levelo://app?vid=9ea71dd4-557a-49eb-872d-de0717506d64","ios":"levelo://app?vid=9ea71dd4-557a-49eb-872d-de0717506d64"},"vehicle_type_id":"4","last_reported":1768825595,"current_range_meters":6000,"station_id":"ce4bhu92rcd13ifvqi70","pricing_plan_id":"cebpf4jnsgd1na2vs0mg"},{"bike_id":"3e1b0ae8-bc2e-47bc-9eec-b1e55fd276e4","system_id":"levelo_inurba_marseille","lat":43.28478,"lon":5.48388,"is_reserved":false,"is_disabled":false,"rental_uris":{"android":"levelo://app?vid=3e1b0ae8-bc2e-47bc-9eec-b1e55fd276e4","ios":"levelo://app?vid=3e1b0ae8-bc2e-47bc-9eec-b1e55fd276e4"},"vehicle_type_id":"4","last_reported":1768825595,"current_range_meters":6000,"station_id":"st_d3svhcjqgbts73a3dn0g","pricing_plan_id":"cebpf4jnsgd1na2vs0mg"},{"bike_id":"99eb7f6e-7d47-4fe7-a5ad-44af0b5818fb","system_id":"levelo_inurba_marseille","lat":43.24088,"lon":5.39708,"is_reserved":false,"is_disabled":false,"rental_uris":{"android":"levelo://app?vid=99eb7f6e-7d47-4fe7-a5ad-44af0b5818fb","ios":"levelo://app?vid=99eb7f6e-7d47-4fe7-a5ad-44af0b5818fb"},"vehicle_type_id":"4","last_reported":1768825595,"current_range_meters":6000,"station_id":"","pricing_plan_id":"cebpf4jnsgd1na2vs0mg"},{"bike_id":"9e956125-d135-4c5b-a672-b787c5ecd852","system_id":"levelo_inurba_marseille","lat":43.24168,"lon":5.39715,"is_reserved":false,"is_disabled":false,"rental_uris":{"android":"levelo://app?vid=9e956125-d135-4c5b-a672-b787c5ecd852","ios":"levelo://app?vid=9e956125-d135-4c5b-a672-b787c5ecd852"},"vehicle_type_id":"4","last_reported":1768825595,"current_range_meters":6000,"station_id":"ce4bhn12rcd13ifvqgpg","pricing_plan_id":"cebpf4jnsgd1na2vs0mg"},{"bike_id":"84d602b3-8943-4780-bcf1-164d29a27b66","system_id":"levelo_inurba_marseille","lat":43.28472,"lon":5.48423,"is_reserved":false,"is_disabled":false,"rental_uris":{"android":"levelo://app?vid=84d602b3-8943-4780-bcf1-164d29a27b66","ios":"levelo://app?vid=84d602b3-8943-4780-bcf1-164d29a27b66"},"vehicle_type_id":"4","last_reported":1768825595,"current_range_meters":6000,"station_id":"","pricing_plan_id":"cebpf4jnsgd1na2vs0mg"},{"bike_id":"043a8f71-7ffa-4574-9e3e-fc5934436c88","system_id":"levelo_inurba_marseille","lat":43.26228,"lon":5.40463,"is_reserved":false,"is_disabled":false,"rental_uris":{"android":"levelo://app?vid=043a8f71-7ffa-4574-9e3e-fc5934436c88","ios":"levelo://app?vid=043a8f71-7ffa-4574-9e3e-fc5934436c88"},"vehicle_type_id":"4","last_reported":1768825595,"current_range_meters":6000,"station_id":"ce4bhmh2rcd13ifvqgmg","pricing_plan_id":"cebpf4jnsgd1na2vs0mg"},{"bike_id":"188c635f-31eb-4e45-b29f-e748801ba7a3","system_id":"levelo_inurba_marseille","lat":43.28483,"lon":5.48411,"is_reserved":false,"is_disabled":false,"rental_uris":{"android":"levelo://app?vid=188c635f-31eb-4e45-b29f-e748801ba7a3","ios":"levelo://app?vid=188c635f-31eb-4e45-b29f-e748801ba7a3"},"vehicle_type_id":"4","last_reported":1768825595,"current_range_meters":6000,"station_id":"st_d3svhcjqgbts73a3dn0g","pricing_plan_id":"cebpf4jnsgd1na2vs0mg"},{"bike_id":"c90d00dd-558e-4bd3-83d8-e548aedde335","system_id":"levelo_inurba_marseille","lat":43.31059,"lon":5.37158,"is_reserved":false,"is_disabled":false,"rental_uris":{"android":"levelo://app?vid=c90d00dd-558e-4bd3-83d8-e548aedde335","ios":"levelo://app?vid=c90d00dd-558e-4bd3-83d8-e548aedde335"},"vehicle_type_id":"4","last_reported":1768825595,"current_range_meters":6000,"station_id":"st_d4kl2rp97mjs73e7tdfg","pricing_plan_id":"cebpf4jnsgd1na2vs0mg"},{"bike_id":"ce8d2dc5-ec92-413d-9911-ee777fd76281","system_id":"levelo_inurba_marseille","lat":43.29303,"lon":5.3745,"is_reserved":false,"is_disabled":false,"rental_uris":{"android":"levelo://app?vid=ce8d2dc5-ec92-413d-9911-ee777fd76281","ios":"levelo://app?vid=ce8d2dc5-ec92-413d-9911-ee777fd76281"},"vehicle_type_id":"4","last_reported":1768825595,"current_range_meters":6000,"station_id":"ce4bgi12rcd13ifvqb70","pricing_plan_id":"cebpf4jnsgd1na2vs0mg"},{"bike_id":"f6adf0c1-f5b5-44a2-95f0-fade2e340101","system_id":"levelo_inurba_marseille","lat":43.27823,"lon":5.40728,"is_reserved":false,"is_disabled":false,"rental_uris":{"android":"levelo://app?vid=f6adf0c1-f5b5-44a2-95f0-fade2e340101","ios":"levelo://app?vid=f6adf0c1-f5b5-44a2-95f0-fade2e340101"},"vehicle_type_id":"4","last_reported":1768825595,"current_range_meters":6000,"station_id":"ce4bhnh2rcd13ifvqgtg","pricing_plan_id":"cebpf4jnsgd1na2vs0mg"},{"bike_id":"0975f492-1758-4813-958c-364296bfbee6","system_id":"levelo_inurba_marseille","lat":43.26061,"lon":5.39402,"is_reserved":false,"is_disabled":false,"rental_uris":{"android":"levelo://app?vid=0975f492-1758-4813-958c-364296bfbee6","ios":"levelo://app?vid=0975f492-1758-4813-958c-364296bfbee6"},"vehicle_type_id":"4","last_reported":1768825595,"current_range_meters":6400,"station_id":"ce4bhh92rcd13ifvqfj0","pricing_plan_id":"cebpf4jnsgd1na2vs0mg"},{"bike_id":"4eadcc1b-0762-4040-86d7-ebfc094275a1","system_id":"levelo_inurba_marseille","lat":43.27188,"lon":5.39143,"is_reserved":false,"is_disabled":false,"rental_uris":{"android":"levelo://app?vid=4eadcc1b-0762-4040-86d7-ebfc094275a1","ios":"levelo://app?vid=4eadcc1b-0762-4040-86d7-ebfc094275a1"},"vehicle_type_id":"4","last_reported":1768825595,"current_range_meters":6400,"station_id":"","pricing_plan_id":"cebpf4jnsgd1na2vs0mg"},{"bike_id":"3685f9e3-08c8-45d7-ab98-5f889efb34b2","system_id":"levelo_inurba_marseille","lat":43.25857,"lon":5.39912,"is_reserved":false,"is_disabled":false,"rental_uris":{"android":"levelo://app?vid=3685f9e3-08c8-45d7-ab98-5f889efb34b2","ios":"levelo://app?vid=3685f9e3-08c8-45d7-ab98-5f889efb34b2"},"vehicle_type_id":"4","last_reported":1768825595,"current_range_meters":6400,"station_id":"ce4bhl92rcd13ifvqghg","pricing_plan_id":"cebpf4jnsgd1na2vs0mg"},{"bike_id":"1606f888-b4dc-4200-b20c-005f9a7c7417","system_id":"levelo_inurba_marseille","lat":43.22949,"lon":5.3542,"is_reserved":false,"is_disabled":false,"rental_uris":{"android":"levelo://app?vid=1606f888-b4dc-4200-b20c-005f9a7c7417","ios":"levelo://app?vid=1606f888-b4dc-4200-b20c-005f9a7c7417"},"vehicle_type_id":"4","last_reported":1768825595,"current_range_meters":6400,"station_id":"cpo3532slgdg3j2ikp40","pricing_plan_id":"cebpf4jnsgd1na2vs0mg"},{"bike_id":"da5ec0dc-b428-4d22-9b7d-d9f0923ad17e","system_id":"levelo_inurba_marseille","lat":43.29634,"lon":5.371526,"is_reserved":false,"is_disabled":true,"rental_uris":{"android":"levelo://app?vid=da5ec0dc-b428-4d22-9b7d-d9f0923ad17e","ios":"levelo://app?vid=da5ec0dc-b428-4d22-9b7d-d9f0923ad17e"},"vehicle_type_id":"4","last_reported":1768825595,"current_range_meters":6400,"station_id":"ce4bgnh2rcd13ifvqc0g","pricing_plan_id":"cebpf4jnsgd1na2vs0mg"},{"bike_id":"6cf01478-fde2-46e6-bdc7-d20cd609786f","system_id":"levelo_inurba_marseille","lat":43.28485,"lon":5.38536,"is_reserved":false,"is_disabled":false,"rental_uris":{"android":"levelo://app?vid=6cf01478-fde2-46e6-bdc7-d20cd609786f","ios":"levelo://app?vid=6cf01478-fde2-46e6-bdc7-d20cd609786f"},"vehicle_type_id":"4","last_reported":1768825595,"current_range_meters":6400,"station_id":"ce4bh8p2rcd13ifvqeb0","pricing_plan_id":"cebpf4jnsgd1na2vs0mg"},{"bike_id":"690af2d6-2b19-481a-b583-fd30b59f0a81","system_id":"levelo_inurba_marseille","lat":43.24071,"lon":5.37762,"is_reserved":false,"is_disabled":false,"rental_uris":{"android":"levelo://app?vid=690af2d6-2b19-481a-b583-fd30b59f0a81","ios":"levelo://app?vid=690af2d6-2b19-481a-b583-fd30b59f0a81"},"vehicle_type_id":"4","last_reported":1768825595,"current_range_meters":6400,"station_id":"ce4bhnp2rcd13ifvqgvg","pricing_plan_id":"cebpf4jnsgd1na2vs0mg"},{"bike_id":"2d060480-4076-4ee0-b2c8-9a6123da7b4a","system_id":"levelo_inurba_marseille","lat":43.3047,"lon":5.37911,"is_reserved":false,"is_disabled":false,"rental_uris":{"android":"levelo://app?vid=2d060480-4076-4ee0-b2c8-9a6123da7b4a","ios":"levelo://app?vid=2d060480-4076-4ee0-b2c8-9a6123da7b4a"},"vehicle_type_id":"4","last_reported":1768825595,"current_range_meters":6400,"station_id":"ce4bgup2rcd13ifvqcn0","pricing_plan_id":"cebpf4jnsgd1na2vs0mg"},{"bike_id":"39133ef5-deb1-4ed5-9a13-e89d3e4fa4d7","system_id":"levelo_inurba_marseille","lat":43.30964,"lon":5.39038,"is_reserved":false,"is_disabled":false,"rental_uris":{"android":"levelo://app?vid=39133ef5-deb1-4ed5-9a13-e89d3e4fa4d7","ios":"levelo://app?vid=39133ef5-deb1-4ed5-9a13-e89d3e4fa4d7"},"vehicle_type_id":"4","last_reported":1768825595,"current_range_meters":6400,"station_id":"ce4bgup2rcd13ifvqco0","pricing_plan_id":"cebpf4jnsgd1na2vs0mg"},{"bike_id":"1837b76f-55b2-4942-aef4-b0d299ab4019","system_id":"levelo_inurba_marseille","lat":43.25221,"lon":5.38037,"is_reserved":false,"is_disabled":false,"rental_uris":{"android":"levelo://app?vid=1837b76f-55b2-4942-aef4-b0d299ab4019","ios":"levelo://app?vid=1837b76f-55b2-4942-aef4-b0d299ab4019"},"vehicle_type_id":"4","last_reported":1768825595,"current_range_meters":6400,"station_id":"","pricing_plan_id":"cebpf4jnsgd1na2vs0mg"},{"bike_id":"a9cdf974-4322-4744-b774-7480af4d3eeb","system_id":"levelo_inurba_marseille","lat":43.27992,"lon":5.41667,"is_reserved":false,"is_disabled":false,"rental_uris":{"android":"levelo://app?vid=a9cdf974-4322-4744-b774-7480af4d3eeb","ios":"levelo://app?vid=a9cdf974-4322-4744-b774-7480af4d3eeb"},"vehicle_type_id":"4","last_reported":1768825595,"current_range_meters":6800,"station_id":"ce4bho12rcd13ifvqh1g","pricing_plan_id":"cebpf4jnsgd1na2vs0mg"},{"bike_id":"ec1861e3-cf5e-47e7-9bee-92fe639b30f4","system_id":"levelo_inurba_marseille","lat":43.24534,"lon":5.39516,"is_reserved":false,"is_disabled":false,"rental_uris":{"android":"levelo://app?vid=ec1861e3-cf5e-47e7-9bee-92fe639b30f4","ios":"levelo://app?vid=ec1861e3-cf5e-47e7-9bee-92fe639b30f4"},"vehicle_type_id":"4","last_reported":1768825595,"current_range_meters":6800,"station_id":"ce4bhlp2rcd13ifvqgjg","pricing_plan_id":"cebpf4jnsgd1na2vs0mg"},{"bike_id":"9c38cd9d-84b4-4369-aa2e-5faffbdeea43","system_id":"levelo_inurba_marseille","lat":43.27617,"lon":5.36118,"is_reserved":false,"is_disabled":false,"rental_uris":{"android":"levelo://app?vid=9c38cd9d-84b4-4369-aa2e-5faffbdeea43","ios":"levelo://app?vid=9c38cd9d-84b4-4369-aa2e-5faffbdeea43"},"vehicle_type_id":"4","last_reported":1768825595,"current_range_meters":6800,"station_id":"ce4bgj92rcd13ifvqbe0","pricing_plan_id":"cebpf4jnsgd1na2vs0mg"},{"bike_id":"0b0bd9e8-0e91-4cd7-8087-c13549508128","system_id":"levelo_inurba_marseille","lat":43.28529,"lon":5.44089,"is_reserved":false,"is_disabled":false,"rental_uris":{"android":"levelo://app?vid=0b0bd9e8-0e91-4cd7-8087-c13549508128","ios":"levelo://app?vid=0b0bd9e8-0e91-4cd7-8087-c13549508128"},"vehicle_type_id":"4","last_reported":1768825595,"current_range_meters":6800,"station_id":"st_d3j3df2ikq2c7380ej80","pricing_plan_id":"cebpf4jnsgd1na2vs0mg"},{"bike_id":"b61f087a-7595-4f9f-aa52-ebfe4d644995","system_id":"levelo_inurba_marseille","lat":43.30785,"lon":5.37639,"is_reserved":false,"is_disabled":false,"rental_uris":{"android":"levelo://app?vid=b61f087a-7595-4f9f-aa52-ebfe4d644995","ios":"levelo://app?vid=b61f087a-7595-4f9f-aa52-ebfe4d644995"},"vehicle_type_id":"4","last_reported":1768825595,"current_range_meters":6800,"station_id":"ce4bgv92rcd13ifvqcq0","pricing_plan_id":"cebpf4jnsgd1na2vs0mg"},{"bike_id":"76bd8662-78d2-416e-bd1f-dbf6b13bf763","system_id":"levelo_inurba_marseille","lat":43.26954,"lon":5.40258,"is_reserved":false,"is_disabled":false,"rental_uris":{"android":"levelo://app?vid=76bd8662-78d2-416e-bd1f-dbf6b13bf763","ios":"levelo://app?vid=76bd8662-78d2-416e-bd1f-dbf6b13bf763"},"vehicle_type_id":"4","last_reported":1768825595,"current_range_meters":6800,"station_id":"cjm6bp8fraef2m0cb0m0","pricing_plan_id":"cebpf4jnsgd1na2vs0mg"},{"bike_id":"0fd21be0-2047-4c19-93b0-3d78a043614b","system_id":"levelo_inurba_marseille","lat":43.23791,"lon":5.36636,"is_reserved":false,"is_disabled":false,"rental_uris":{"android":"levelo://app?vid=0fd21be0-2047-4c19-93b0-3d78a043614b","ios":"levelo://app?vid=0fd21be0-2047-4c19-93b0-3d78a043614b"},"vehicle_type_id":"4","last_reported":1768825595,"current_range_meters":6800,"station_id":"st_d3nk18o9ro0c73en2l3g","pricing_plan_id":"cebpf4jnsgd1na2vs0mg"},{"bike_id":"f6dee482-e963-4223-be46-6a1a82c523df","system_id":"levelo_inurba_marseille","lat":43.24176,"lon":5.39708,"is_reserved":false,"is_disabled":false,"rental_uris":{"android":"levelo://app?vid=f6dee482-e963-4223-be46-6a1a82c523df","ios":"levelo://app?vid=f6dee482-e963-4223-be46-6a1a82c523df"},"vehicle_type_id":"4","last_reported":1768825595,"current_range_meters":6800,"station_id":"ce4bhn12rcd13ifvqgpg","pricing_plan_id":"cebpf4jnsgd1na2vs0mg"},{"bike_id":"80b40564-d8ca-4fba-94c7-74b7e6e95b0e","system_id":"levelo_inurba_marseille","lat":43.30543,"lon":5.36532,"is_reserved":false,"is_disabled":false,"rental_uris":{"android":"levelo://app?vid=80b40564-d8ca-4fba-94c7-74b7e6e95b0e","ios":"levelo://app?vid=80b40564-d8ca-4fba-94c7-74b7e6e95b0e"},"vehicle_type_id":"4","last_reported":1768825595,"current_range_meters":6800,"station_id":"ce4bgs12rcd13ifvqcag","pricing_plan_id":"cebpf4jnsgd1na2vs0mg"},{"bike_id":"2e88101f-a281-4e05-9f19-152cdd58c385","system_id":"levelo_inurba_marseille","lat":43.30215,"lon":5.39472,"is_reserved":false,"is_disabled":false,"rental_uris":{"android":"levelo://app?vid=2e88101f-a281-4e05-9f19-152cdd58c385","ios":"levelo://app?vid=2e88101f-a281-4e05-9f19-152cdd58c385"},"vehicle_type_id":"4","last_reported":1768825595,"current_range_meters":6800,"station_id":"ce4bh0p2rcd13ifvqd70","pricing_plan_id":"cebpf4jnsgd1na2vs0mg"},{"bike_id":"6e6668ca-b731-4a0f-96be-569ad39a25a1","system_id":"levelo_inurba_marseille","lat":43.23152,"lon":5.43721,"is_reserved":false,"is_disabled":true,"rental_uris":{"android":"levelo://app?vid=6e6668ca-b731-4a0f-96be-569ad39a25a1","ios":"levelo://app?vid=6e6668ca-b731-4a0f-96be-569ad39a25a1"},"vehicle_type_id":"4","last_reported":1768825595,"current_range_meters":6800,"station_id":"ce4bhmp2rcd13ifvqgog","pricing_plan_id":"cebpf4jnsgd1na2vs0mg"},{"bike_id":"44d80ca6-dac0-4000-97a2-ac8fa224bc0e","system_id":"levelo_inurba_marseille","lat":43.28742,"lon":5.37172,"is_reserved":false,"is_disabled":false,"rental_uris":{"android":"levelo://app?vid=44d80ca6-dac0-4000-97a2-ac8fa224bc0e","ios":"levelo://app?vid=44d80ca6-dac0-4000-97a2-ac8fa224bc0e"},"vehicle_type_id":"4","last_reported":1768825595,"current_range_meters":6800,"station_id":"","pricing_plan_id":"cebpf4jnsgd1na2vs0mg"},{"bike_id":"664c8239-aa8b-47b5-8dce-a2acee471db8","system_id":"levelo_inurba_marseille","lat":43.285376,"lon":5.3837,"is_reserved":false,"is_disabled":false,"rental_uris":{"android":"levelo://app?vid=664c8239-aa8b-47b5-8dce-a2acee471db8","ios":"levelo://app?vid=664c8239-aa8b-47b5-8dce-a2acee471db8"},"vehicle_type_id":"4","last_reported":1768825595,"current_range_meters":6800,"station_id":"ce4bh512rcd13ifvqe3g","pricing_plan_id":"cebpf4jnsgd1na2vs0mg"},{"bike_id":"f5d8cfad-c031-48dc-82b9-35d878387062","system_id":"levelo_inurba_marseille","lat":43.24952,"lon":5.40487,"is_reserved":false,"is_disabled":false,"rental_uris":{"android":"levelo://app?vid=f5d8cfad-c031-48dc-82b9-35d878387062","ios":"levelo://app?vid=f5d8cfad-c031-48dc-82b9-35d878387062"},"vehicle_type_id":"4","last_reported":1768825595,"current_range_meters":6800,"station_id":"st_d2ngiaodas8pm72gd1h0","pricing_plan_id":"cebpf4jnsgd1na2vs0mg"},{"bike_id":"bbe519d1-7d24-4dfc-8eea-7f3e8bf5a4b8","system_id":"levelo_inurba_marseille","lat":43.24176,"lon":5.39719,"is_reserved":false,"is_disabled":false,"rental_uris":{"android":"levelo://app?vid=bbe519d1-7d24-4dfc-8eea-7f3e8bf5a4b8","ios":"levelo://app?vid=bbe519d1-7d24-4dfc-8eea-7f3e8bf5a4b8"},"vehicle_type_id":"4","last_reported":1768825595,"current_range_meters":6800,"station_id":"ce4bhn12rcd13ifvqgpg","pricing_plan_id":"cebpf4jnsgd1na2vs0mg"},{"bike_id":"d4edc0c6-4433-4852-ac62-4e9d0b2576e8","system_id":"levelo_inurba_marseille","lat":43.213824,"lon":5.350399,"is_reserved":false,"is_disabled":false,"rental_uris":{"android":"levelo://app?vid=d4edc0c6-4433-4852-ac62-4e9d0b2576e8","ios":"levelo://app?vid=d4edc0c6-4433-4852-ac62-4e9d0b2576e8"},"vehicle_type_id":"4","last_reported":1768825595,"current_range_meters":6800,"station_id":"","pricing_plan_id":"cebpf4jnsgd1na2vs0mg"},{"bike_id":"32ee46d3-d1fd-40dd-871e-0ba6f1f5b7a2","system_id":"levelo_inurba_marseille","lat":43.27688,"lon":5.38901,"is_reserved":false,"is_disabled":false,"rental_uris":{"android":"levelo://app?vid=32ee46d3-d1fd-40dd-871e-0ba6f1f5b7a2","ios":"levelo://app?vid=32ee46d3-d1fd-40dd-871e-0ba6f1f5b7a2"},"vehicle_type_id":"4","last_reported":1768825595,"current_range_meters":7200,"station_id":"ce4bhi12rcd13ifvqfo0","pricing_plan_id":"cebpf4jnsgd1na2vs0mg"},{"bike_id":"edbdf6e9-2547-490c-a2bd-1ef1e295ef67","system_id":"levelo_inurba_marseille","lat":43.27207,"lon":5.39179,"is_reserved":false,"is_disabled":false,"rental_uris":{"android":"levelo://app?vid=edbdf6e9-2547-490c-a2bd-1ef1e295ef67","ios":"levelo://app?vid=edbdf6e9-2547-490c-a2bd-1ef1e295ef67"},"vehicle_type_id":"4","last_reported":1768825595,"current_range_meters":7200,"station_id":"ce4bhhp2rcd13ifvqfm0","pricing_plan_id":"cebpf4jnsgd1na2vs0mg"},{"bike_id":"681232eb-8730-4455-bfaa-f9a1ecc3ac98","system_id":"levelo_inurba_marseille","lat":43.24808,"lon":5.37458,"is_reserved":false,"is_disabled":false,"rental_uris":{"android":"levelo://app?vid=681232eb-8730-4455-bfaa-f9a1ecc3ac98","ios":"levelo://app?vid=681232eb-8730-4455-bfaa-f9a1ecc3ac98"},"vehicle_type_id":"4","last_reported":1768825595,"current_range_meters":7200,"station_id":"ce4bhgh2rcd13ifvqfb0","pricing_plan_id":"cebpf4jnsgd1na2vs0mg"},{"bike_id":"a793b43a-2f1a-44e5-b8fd-5c578f863f85","system_id":"levelo_inurba_marseille","lat":43.317563,"lon":5.3902,"is_reserved":false,"is_disabled":false,"rental_uris":{"android":"levelo://app?vid=a793b43a-2f1a-44e5-b8fd-5c578f863f85","ios":"levelo://app?vid=a793b43a-2f1a-44e5-b8fd-5c578f863f85"},"vehicle_type_id":"4","last_reported":1768825595,"current_range_meters":7200,"station_id":"ce4bhqp2rcd13ifvqhng","pricing_plan_id":"cebpf4jnsgd1na2vs0mg"},{"bike_id":"f105bb30-5feb-43b7-adae-39f585dd1cca","system_id":"levelo_inurba_marseille","lat":43.28604,"lon":5.35113,"is_reserved":false,"is_disabled":true,"rental_uris":{"android":"levelo://app?vid=f105bb30-5feb-43b7-adae-39f585dd1cca","ios":"levelo://app?vid=f105bb30-5feb-43b7-adae-39f585dd1cca"},"vehicle_type_id":"4","last_reported":1768825595,"current_range_meters":7200,"station_id":"ce4bhch2rcd13ifvqeug","pricing_plan_id":"cebpf4jnsgd1na2vs0mg"},{"bike_id":"c3633228-22c1-48b6-a73d-2db8665cea58","system_id":"levelo_inurba_marseille","lat":43.27797,"lon":5.40718,"is_reserved":false,"is_disabled":false,"rental_uris":{"android":"levelo://app?vid=c3633228-22c1-48b6-a73d-2db8665cea58","ios":"levelo://app?vid=c3633228-22c1-48b6-a73d-2db8665cea58"},"vehicle_type_id":"4","last_reported":1768825595,"current_range_meters":7200,"station_id":"ce4bhnh2rcd13ifvqgtg","pricing_plan_id":"cebpf4jnsgd1na2vs0mg"},{"bike_id":"3bf143c0-503a-40dc-9325-bed2497bf5ee","system_id":"levelo_inurba_marseille","lat":43.26491,"lon":5.39529,"is_reserved":false,"is_disabled":false,"rental_uris":{"android":"levelo://app?vid=3bf143c0-503a-40dc-9325-bed2497bf5ee","ios":"levelo://app?vid=3bf143c0-503a-40dc-9325-bed2497bf5ee"},"vehicle_type_id":"4","last_reported":1768825595,"current_range_meters":7200,"station_id":"ce4bhi12rcd13ifvqfq0","pricing_plan_id":"cebpf4jnsgd1na2vs0mg"},{"bike_id":"ac2fc524-5063-4cb0-9f81-07382904f51d","system_id":"levelo_inurba_marseille","lat":43.29259,"lon":5.38438,"is_reserved":false,"is_disabled":false,"rental_uris":{"android":"levelo://app?vid=ac2fc524-5063-4cb0-9f81-07382904f51d","ios":"levelo://app?vid=ac2fc524-5063-4cb0-9f81-07382904f51d"},"vehicle_type_id":"4","last_reported":1768825595,"current_range_meters":7200,"station_id":"ce4bh692rcd13ifvqea0","pricing_plan_id":"cebpf4jnsgd1na2vs0mg"},{"bike_id":"5e5e22bc-3c3d-4ad0-8a90-45bf55ecfadc","system_id":"levelo_inurba_marseille","lat":43.290336,"lon":5.375686,"is_reserved":false,"is_disabled":false,"rental_uris":{"android":"levelo://app?vid=5e5e22bc-3c3d-4ad0-8a90-45bf55ecfadc","ios":"levelo://app?vid=5e5e22bc-3c3d-4ad0-8a90-45bf55ecfadc"},"vehicle_type_id":"4","last_reported":1768825595,"current_range_meters":7200,"station_id":"ce4bh692rcd13ifvqe90","pricing_plan_id":"cebpf4jnsgd1na2vs0mg"},{"bike_id":"ef88c352-189d-4372-beb9-7002182fbb2b","system_id":"levelo_inurba_marseille","lat":43.27987,"lon":5.3999,"is_reserved":false,"is_disabled":false,"rental_uris":{"android":"levelo://app?vid=ef88c352-189d-4372-beb9-7002182fbb2b","ios":"levelo://app?vid=ef88c352-189d-4372-beb9-7002182fbb2b"},"vehicle_type_id":"4","last_reported":1768825595,"current_range_meters":7200,"station_id":"ce4bho92rcd13ifvqh4g","pricing_plan_id":"cebpf4jnsgd1na2vs0mg"},{"bike_id":"abf30d9a-8f0c-4626-8dc8-b0faa0cf4d72","system_id":"levelo_inurba_marseille","lat":43.24944,"lon":5.40482,"is_reserved":false,"is_disabled":false,"rental_uris":{"android":"levelo://app?vid=abf30d9a-8f0c-4626-8dc8-b0faa0cf4d72","ios":"levelo://app?vid=abf30d9a-8f0c-4626-8dc8-b0faa0cf4d72"},"vehicle_type_id":"4","last_reported":1768825595,"current_range_meters":7200,"station_id":"st_d2ngiaodas8pm72gd1h0","pricing_plan_id":"cebpf4jnsgd1na2vs0mg"},{"bike_id":"791ccb0c-3ea6-4f65-9436-65087a5f1af6","system_id":"levelo_inurba_marseille","lat":43.33753,"lon":5.37462,"is_reserved":false,"is_disabled":false,"rental_uris":{"android":"levelo://app?vid=791ccb0c-3ea6-4f65-9436-65087a5f1af6","ios":"levelo://app?vid=791ccb0c-3ea6-4f65-9436-65087a5f1af6"},"vehicle_type_id":"4","last_reported":1768825595,"current_range_meters":7200,"station_id":"","pricing_plan_id":"cebpf4jnsgd1na2vs0mg"},{"bike_id":"13c7565e-579a-4d8c-8e4a-79f4880e8378","system_id":"levelo_inurba_marseille","lat":43.25357,"lon":5.37962,"is_reserved":false,"is_disabled":false,"rental_uris":{"android":"levelo://app?vid=13c7565e-579a-4d8c-8e4a-79f4880e8378","ios":"levelo://app?vid=13c7565e-579a-4d8c-8e4a-79f4880e8378"},"vehicle_type_id":"4","last_reported":1768825595,"current_range_meters":7200,"station_id":"","pricing_plan_id":"cebpf4jnsgd1na2vs0mg"},{"bike_id":"3019b242-daef-4adc-9001-a765b1be88a4","system_id":"levelo_inurba_marseille","lat":43.2854,"lon":5.44104,"is_reserved":false,"is_disabled":false,"rental_uris":{"android":"levelo://app?vid=3019b242-daef-4adc-9001-a765b1be88a4","ios":"levelo://app?vid=3019b242-daef-4adc-9001-a765b1be88a4"},"vehicle_type_id":"4","last_reported":1768825595,"current_range_meters":7200,"station_id":"st_d3j3df2ikq2c7380ej80","pricing_plan_id":"cebpf4jnsgd1na2vs0mg"},{"bike_id":"85e5b6f5-3fad-4389-a62d-0d5edd813f11","system_id":"levelo_inurba_marseille","lat":43.26558,"lon":5.40328,"is_reserved":false,"is_disabled":false,"rental_uris":{"android":"levelo://app?vid=85e5b6f5-3fad-4389-a62d-0d5edd813f11","ios":"levelo://app?vid=85e5b6f5-3fad-4389-a62d-0d5edd813f11"},"vehicle_type_id":"4","last_reported":1768825595,"current_range_meters":7200,"station_id":"ce4bhmp2rcd13ifvqgng","pricing_plan_id":"cebpf4jnsgd1na2vs0mg"},{"bike_id":"8455fcca-6f48-4b26-9ef4-64e076fe4155","system_id":"levelo_inurba_marseille","lat":43.26354,"lon":5.41074,"is_reserved":false,"is_disabled":false,"rental_uris":{"android":"levelo://app?vid=8455fcca-6f48-4b26-9ef4-64e076fe4155","ios":"levelo://app?vid=8455fcca-6f48-4b26-9ef4-64e076fe4155"},"vehicle_type_id":"4","last_reported":1768825595,"current_range_meters":7200,"station_id":"st_d4e5ca6na9uc73bfl5fg","pricing_plan_id":"cebpf4jnsgd1na2vs0mg"},{"bike_id":"35cbe345-bda9-4679-9b8a-d02808797df6","system_id":"levelo_inurba_marseille","lat":43.289213,"lon":5.383965,"is_reserved":false,"is_disabled":true,"rental_uris":{"android":"levelo://app?vid=35cbe345-bda9-4679-9b8a-d02808797df6","ios":"levelo://app?vid=35cbe345-bda9-4679-9b8a-d02808797df6"},"vehicle_type_id":"4","last_reported":1768825595,"current_range_meters":7200,"station_id":"ce4bh612rcd13ifvqe6g","pricing_plan_id":"cebpf4jnsgd1na2vs0mg"},{"bike_id":"544bcdbb-4ade-4e28-8d58-bd0ce6c900eb","system_id":"levelo_inurba_marseille","lat":43.25339,"lon":5.42173,"is_reserved":false,"is_disabled":false,"rental_uris":{"android":"levelo://app?vid=544bcdbb-4ade-4e28-8d58-bd0ce6c900eb","ios":"levelo://app?vid=544bcdbb-4ade-4e28-8d58-bd0ce6c900eb"},"vehicle_type_id":"4","last_reported":1768825595,"current_range_meters":7200,"station_id":"st_d2m65c5bi1j21697t3ng","pricing_plan_id":"cebpf4jnsgd1na2vs0mg"},{"bike_id":"5197f958-cf80-4607-b163-03ff06a676ef","system_id":"levelo_inurba_marseille","lat":43.2534,"lon":5.4217,"is_reserved":false,"is_disabled":false,"rental_uris":{"android":"levelo://app?vid=5197f958-cf80-4607-b163-03ff06a676ef","ios":"levelo://app?vid=5197f958-cf80-4607-b163-03ff06a676ef"},"vehicle_type_id":"4","last_reported":1768825595,"current_range_meters":8000,"station_id":"st_d2m65c5bi1j21697t3ng","pricing_plan_id":"cebpf4jnsgd1na2vs0mg"},{"bike_id":"f8bf59b4-3e23-4e90-bc70-5ee15a6c83c2","system_id":"levelo_inurba_marseille","lat":43.25336,"lon":5.42172,"is_reserved":false,"is_disabled":false,"rental_uris":{"android":"levelo://app?vid=f8bf59b4-3e23-4e90-bc70-5ee15a6c83c2","ios":"levelo://app?vid=f8bf59b4-3e23-4e90-bc70-5ee15a6c83c2"},"vehicle_type_id":"4","last_reported":1768825595,"current_range_meters":8000,"station_id":"st_d2m65c5bi1j21697t3ng","pricing_plan_id":"cebpf4jnsgd1na2vs0mg"},{"bike_id":"016900bc-5ac6-4330-ab84-4d755560128b","system_id":"levelo_inurba_marseille","lat":43.27932,"lon":5.39972,"is_reserved":false,"is_disabled":false,"rental_uris":{"android":"levelo://app?vid=016900bc-5ac6-4330-ab84-4d755560128b","ios":"levelo://app?vid=016900bc-5ac6-4330-ab84-4d755560128b"},"vehicle_type_id":"4","last_reported":1768825595,"current_range_meters":8000,"station_id":"","pricing_plan_id":"cebpf4jnsgd1na2vs0mg"},{"bike_id":"58fcb4ec-9c17-42cd-9134-f379e029a9fd","system_id":"levelo_inurba_marseille","lat":43.301675,"lon":5.379825,"is_reserved":false,"is_disabled":false,"rental_uris":{"android":"levelo://app?vid=58fcb4ec-9c17-42cd-9134-f379e029a9fd","ios":"levelo://app?vid=58fcb4ec-9c17-42cd-9134-f379e029a9fd"},"vehicle_type_id":"4","last_reported":1768825595,"current_range_meters":8000,"station_id":"","pricing_plan_id":"cebpf4jnsgd1na2vs0mg"},{"bike_id":"a701194d-0cc5-497a-93ea-f1faca1626fe","system_id":"levelo_inurba_marseille","lat":43.26565,"lon":5.40319,"is_reserved":false,"is_disabled":false,"rental_uris":{"android":"levelo://app?vid=a701194d-0cc5-497a-93ea-f1faca1626fe","ios":"levelo://app?vid=a701194d-0cc5-497a-93ea-f1faca1626fe"},"vehicle_type_id":"4","last_reported":1768825595,"current_range_meters":8000,"station_id":"ce4bhmp2rcd13ifvqgng","pricing_plan_id":"cebpf4jnsgd1na2vs0mg"},{"bike_id":"4cdfadb1-1bf3-4d49-ad80-a271fd97b4c1","system_id":"levelo_inurba_marseille","lat":43.33758,"lon":5.37493,"is_reserved":false,"is_disabled":false,"rental_uris":{"android":"levelo://app?vid=4cdfadb1-1bf3-4d49-ad80-a271fd97b4c1","ios":"levelo://app?vid=4cdfadb1-1bf3-4d49-ad80-a271fd97b4c1"},"vehicle_type_id":"4","last_reported":1768825595,"current_range_meters":8000,"station_id":"","pricing_plan_id":"cebpf4jnsgd1na2vs0mg"},{"bike_id":"5e7df9d7-418f-4368-a954-d50fe151d8de","system_id":"levelo_inurba_marseille","lat":43.22934,"lon":5.35379,"is_reserved":false,"is_disabled":false,"rental_uris":{"android":"levelo://app?vid=5e7df9d7-418f-4368-a954-d50fe151d8de","ios":"levelo://app?vid=5e7df9d7-418f-4368-a954-d50fe151d8de"},"vehicle_type_id":"4","last_reported":1768825595,"current_range_meters":8000,"station_id":"cpo3532slgdg3j2ikp40","pricing_plan_id":"cebpf4jnsgd1na2vs0mg"},{"bike_id":"6735a20a-0321-423c-a55a-4ecf97e291d0","system_id":"levelo_inurba_marseille","lat":43.22934,"lon":5.35389,"is_reserved":false,"is_disabled":false,"rental_uris":{"android":"levelo://app?vid=6735a20a-0321-423c-a55a-4ecf97e291d0","ios":"levelo://app?vid=6735a20a-0321-423c-a55a-4ecf97e291d0"},"vehicle_type_id":"4","last_reported":1768825595,"current_range_meters":8000,"station_id":"cpo3532slgdg3j2ikp40","pricing_plan_id":"cebpf4jnsgd1na2vs0mg"},{"bike_id":"676b108a-8631-463b-ac20-0a121b44cff0","system_id":"levelo_inurba_marseille","lat":43.264946,"lon":5.395401,"is_reserved":false,"is_disabled":false,"rental_uris":{"android":"levelo://app?vid=676b108a-8631-463b-ac20-0a121b44cff0","ios":"levelo://app?vid=676b108a-8631-463b-ac20-0a121b44cff0"},"vehicle_type_id":"4","last_reported":1768825595,"current_range_meters":8000,"station_id":"ce4bhi12rcd13ifvqfq0","pricing_plan_id":"cebpf4jnsgd1na2vs0mg"},{"bike_id":"48f71577-14e0-4c4d-b0bc-4f1868dfa910","system_id":"levelo_inurba_marseille","lat":43.27316,"lon":5.39098,"is_reserved":false,"is_disabled":false,"rental_uris":{"android":"levelo://app?vid=48f71577-14e0-4c4d-b0bc-4f1868dfa910","ios":"levelo://app?vid=48f71577-14e0-4c4d-b0bc-4f1868dfa910"},"vehicle_type_id":"4","last_reported":1768825595,"current_range_meters":8000,"station_id":"ce4bhgp2rcd13ifvqfe0","pricing_plan_id":"cebpf4jnsgd1na2vs0mg"},{"bike_id":"dba3d556-97b0-4ade-b582-139382530954","system_id":"levelo_inurba_marseille","lat":43.30178,"lon":5.36625,"is_reserved":false,"is_disabled":false,"rental_uris":{"android":"levelo://app?vid=dba3d556-97b0-4ade-b582-139382530954","ios":"levelo://app?vid=dba3d556-97b0-4ade-b582-139382530954"},"vehicle_type_id":"4","last_reported":1768825595,"current_range_meters":8000,"station_id":"ce4bgrh2rcd13ifvqc8g","pricing_plan_id":"cebpf4jnsgd1na2vs0mg"},{"bike_id":"536f7c96-4167-4be5-8a94-92113cb642f7","system_id":"levelo_inurba_marseille","lat":43.22571,"lon":5.41638,"is_reserved":false,"is_disabled":false,"rental_uris":{"android":"levelo://app?vid=536f7c96-4167-4be5-8a94-92113cb642f7","ios":"levelo://app?vid=536f7c96-4167-4be5-8a94-92113cb642f7"},"vehicle_type_id":"4","last_reported":1768825595,"current_range_meters":8000,"station_id":"st_d2o4gvlbi1j2169b742g","pricing_plan_id":"cebpf4jnsgd1na2vs0mg"},{"bike_id":"7dbbcfab-8796-4f78-b67c-fb95c692bb9a","system_id":"levelo_inurba_marseille","lat":43.25214,"lon":5.40066,"is_reserved":false,"is_disabled":false,"rental_uris":{"android":"levelo://app?vid=7dbbcfab-8796-4f78-b67c-fb95c692bb9a","ios":"levelo://app?vid=7dbbcfab-8796-4f78-b67c-fb95c692bb9a"},"vehicle_type_id":"4","last_reported":1768825595,"current_range_meters":8000,"station_id":"","pricing_plan_id":"cebpf4jnsgd1na2vs0mg"},{"bike_id":"3b49d878-e7d3-4b8c-8dc4-c6dd6f7b17c0","system_id":"levelo_inurba_marseille","lat":43.28471,"lon":5.38422,"is_reserved":false,"is_disabled":true,"rental_uris":{"android":"levelo://app?vid=3b49d878-e7d3-4b8c-8dc4-c6dd6f7b17c0","ios":"levelo://app?vid=3b49d878-e7d3-4b8c-8dc4-c6dd6f7b17c0"},"vehicle_type_id":"4","last_reported":1768825595,"current_range_meters":8000,"station_id":"ce4bh512rcd13ifvqe3g","pricing_plan_id":"cebpf4jnsgd1na2vs0mg"},{"bike_id":"94631cb0-3656-4d69-b507-fbfd79198860","system_id":"levelo_inurba_marseille","lat":43.24085,"lon":5.377657,"is_reserved":false,"is_disabled":false,"rental_uris":{"android":"levelo://app?vid=94631cb0-3656-4d69-b507-fbfd79198860","ios":"levelo://app?vid=94631cb0-3656-4d69-b507-fbfd79198860"},"vehicle_type_id":"4","last_reported":1768825595,"current_range_meters":8000,"station_id":"ce4bhnp2rcd13ifvqgvg","pricing_plan_id":"cebpf4jnsgd1na2vs0mg"},{"bike_id":"40ec9b3e-8a68-4f21-9a1a-c3df8cc32599","system_id":"levelo_inurba_marseille","lat":43.24077,"lon":5.37772,"is_reserved":false,"is_disabled":false,"rental_uris":{"android":"levelo://app?vid=40ec9b3e-8a68-4f21-9a1a-c3df8cc32599","ios":"levelo://app?vid=40ec9b3e-8a68-4f21-9a1a-c3df8cc32599"},"vehicle_type_id":"4","last_reported":1768825595,"current_range_meters":8000,"station_id":"ce4bhnp2rcd13ifvqgvg","pricing_plan_id":"cebpf4jnsgd1na2vs0mg"},{"bike_id":"47c2d0bb-2851-45c2-a6c2-57b401a6f790","system_id":"levelo_inurba_marseille","lat":43.30081,"lon":5.3908,"is_reserved":false,"is_disabled":false,"rental_uris":{"android":"levelo://app?vid=47c2d0bb-2851-45c2-a6c2-57b401a6f790","ios":"levelo://app?vid=47c2d0bb-2851-45c2-a6c2-57b401a6f790"},"vehicle_type_id":"4","last_reported":1768825595,"current_range_meters":8000,"station_id":"ce4bh192rcd13ifvqdb0","pricing_plan_id":"cebpf4jnsgd1na2vs0mg"},{"bike_id":"1149869c-2dca-45dc-8e7a-dda897f2d36c","system_id":"levelo_inurba_marseille","lat":43.26687,"lon":5.38272,"is_reserved":false,"is_disabled":false,"rental_uris":{"android":"levelo://app?vid=1149869c-2dca-45dc-8e7a-dda897f2d36c","ios":"levelo://app?vid=1149869c-2dca-45dc-8e7a-dda897f2d36c"},"vehicle_type_id":"4","last_reported":1768825595,"current_range_meters":8000,"station_id":"ce4bhg92rcd13ifvqf90","pricing_plan_id":"cebpf4jnsgd1na2vs0mg"},{"bike_id":"39abefdc-6ed0-43eb-a365-1a865f6483c8","system_id":"levelo_inurba_marseille","lat":43.3361,"lon":5.41009,"is_reserved":false,"is_disabled":false,"rental_uris":{"android":"levelo://app?vid=39abefdc-6ed0-43eb-a365-1a865f6483c8","ios":"levelo://app?vid=39abefdc-6ed0-43eb-a365-1a865f6483c8"},"vehicle_type_id":"4","last_reported":1768825595,"current_range_meters":8000,"station_id":"ce4bhqh2rcd13ifvqhmg","pricing_plan_id":"cebpf4jnsgd1na2vs0mg"},{"bike_id":"7890d8a9-a5ee-4c6a-9a9c-ecbe6e802b3b","system_id":"levelo_inurba_marseille","lat":43.27988,"lon":5.40049,"is_reserved":false,"is_disabled":false,"rental_uris":{"android":"levelo://app?vid=7890d8a9-a5ee-4c6a-9a9c-ecbe6e802b3b","ios":"levelo://app?vid=7890d8a9-a5ee-4c6a-9a9c-ecbe6e802b3b"},"vehicle_type_id":"4","last_reported":1768825595,"current_range_meters":8400,"station_id":"ce4bho92rcd13ifvqh4g","pricing_plan_id":"cebpf4jnsgd1na2vs0mg"},{"bike_id":"18dac61a-1dea-47ed-a42c-a887573968cf","system_id":"levelo_inurba_marseille","lat":43.31188,"lon":5.36873,"is_reserved":false,"is_disabled":false,"rental_uris":{"android":"levelo://app?vid=18dac61a-1dea-47ed-a42c-a887573968cf","ios":"levelo://app?vid=18dac61a-1dea-47ed-a42c-a887573968cf"},"vehicle_type_id":"4","last_reported":1768825595,"current_range_meters":8400,"station_id":"ce4bgl92rcd13ifvqbq0","pricing_plan_id":"cebpf4jnsgd1na2vs0mg"},{"bike_id":"de6c90fb-dd51-4e08-9dbd-a70160fc9495","system_id":"levelo_inurba_marseille","lat":43.26371,"lon":5.41057,"is_reserved":false,"is_disabled":false,"rental_uris":{"android":"levelo://app?vid=de6c90fb-dd51-4e08-9dbd-a70160fc9495","ios":"levelo://app?vid=de6c90fb-dd51-4e08-9dbd-a70160fc9495"},"vehicle_type_id":"4","last_reported":1768825595,"current_range_meters":8400,"station_id":"st_d4e5ca6na9uc73bfl5fg","pricing_plan_id":"cebpf4jnsgd1na2vs0mg"},{"bike_id":"71e3ca9b-9c57-4342-92a7-c4d37bb24fa5","system_id":"levelo_inurba_marseille","lat":43.30953,"lon":5.39034,"is_reserved":false,"is_disabled":false,"rental_uris":{"android":"levelo://app?vid=71e3ca9b-9c57-4342-92a7-c4d37bb24fa5","ios":"levelo://app?vid=71e3ca9b-9c57-4342-92a7-c4d37bb24fa5"},"vehicle_type_id":"4","last_reported":1768825595,"current_range_meters":8400,"station_id":"ce4bgup2rcd13ifvqco0","pricing_plan_id":"cebpf4jnsgd1na2vs0mg"},{"bike_id":"da91b041-43f0-4fc2-a665-c2c687c7ea44","system_id":"levelo_inurba_marseille","lat":43.3132,"lon":5.36723,"is_reserved":false,"is_disabled":false,"rental_uris":{"android":"levelo://app?vid=da91b041-43f0-4fc2-a665-c2c687c7ea44","ios":"levelo://app?vid=da91b041-43f0-4fc2-a665-c2c687c7ea44"},"vehicle_type_id":"4","last_reported":1768825595,"current_range_meters":8400,"station_id":"ce4bgr92rcd13ifvqc6g","pricing_plan_id":"cebpf4jnsgd1na2vs0mg"},{"bike_id":"5abc37fb-a58f-4d35-8b64-36d16a620f49","system_id":"levelo_inurba_marseille","lat":43.31191,"lon":5.36867,"is_reserved":false,"is_disabled":false,"rental_uris":{"android":"levelo://app?vid=5abc37fb-a58f-4d35-8b64-36d16a620f49","ios":"levelo://app?vid=5abc37fb-a58f-4d35-8b64-36d16a620f49"},"vehicle_type_id":"4","last_reported":1768825595,"current_range_meters":8400,"station_id":"ce4bgl92rcd13ifvqbq0","pricing_plan_id":"cebpf4jnsgd1na2vs0mg"},{"bike_id":"a4579000-8afa-403c-a616-a9804f5859bf","system_id":"levelo_inurba_marseille","lat":43.265,"lon":5.39543,"is_reserved":false,"is_disabled":false,"rental_uris":{"android":"levelo://app?vid=a4579000-8afa-403c-a616-a9804f5859bf","ios":"levelo://app?vid=a4579000-8afa-403c-a616-a9804f5859bf"},"vehicle_type_id":"4","last_reported":1768825595,"current_range_meters":8400,"station_id":"","pricing_plan_id":"cebpf4jnsgd1na2vs0mg"},{"bike_id":"6eabd888-c6a1-4aa4-b081-69393e8da4b6","system_id":"levelo_inurba_marseille","lat":43.27808,"lon":5.40709,"is_reserved":false,"is_disabled":false,"rental_uris":{"android":"levelo://app?vid=6eabd888-c6a1-4aa4-b081-69393e8da4b6","ios":"levelo://app?vid=6eabd888-c6a1-4aa4-b081-69393e8da4b6"},"vehicle_type_id":"4","last_reported":1768825595,"current_range_meters":8400,"station_id":"ce4bhnh2rcd13ifvqgtg","pricing_plan_id":"cebpf4jnsgd1na2vs0mg"},{"bike_id":"f70a59b4-29fe-4c71-a82c-c9b428830b98","system_id":"levelo_inurba_marseille","lat":43.24073,"lon":5.37745,"is_reserved":false,"is_disabled":false,"rental_uris":{"android":"levelo://app?vid=f70a59b4-29fe-4c71-a82c-c9b428830b98","ios":"levelo://app?vid=f70a59b4-29fe-4c71-a82c-c9b428830b98"},"vehicle_type_id":"4","last_reported":1768825595,"current_range_meters":8400,"station_id":"ce4bhnp2rcd13ifvqgvg","pricing_plan_id":"cebpf4jnsgd1na2vs0mg"},{"bike_id":"86c3f0b8-2cd4-4a60-9cca-42812eafe40e","system_id":"levelo_inurba_marseille","lat":43.28168,"lon":5.42628,"is_reserved":false,"is_disabled":false,"rental_uris":{"android":"levelo://app?vid=86c3f0b8-2cd4-4a60-9cca-42812eafe40e","ios":"levelo://app?vid=86c3f0b8-2cd4-4a60-9cca-42812eafe40e"},"vehicle_type_id":"4","last_reported":1768825595,"current_range_meters":8400,"station_id":"ce4bhnh2rcd13ifvqgug","pricing_plan_id":"cebpf4jnsgd1na2vs0mg"},{"bike_id":"5d20606c-54bc-45cb-af68-6fb59b2b919f","system_id":"levelo_inurba_marseille","lat":43.29592,"lon":5.38107,"is_reserved":false,"is_disabled":false,"rental_uris":{"android":"levelo://app?vid=5d20606c-54bc-45cb-af68-6fb59b2b919f","ios":"levelo://app?vid=5d20606c-54bc-45cb-af68-6fb59b2b919f"},"vehicle_type_id":"4","last_reported":1768825595,"current_range_meters":8400,"station_id":"ce4bgl12rcd13ifvqbo0","pricing_plan_id":"cebpf4jnsgd1na2vs0mg"},{"bike_id":"d816586a-894c-424b-aac9-ef0daf69ea76","system_id":"levelo_inurba_marseille","lat":43.30571,"lon":5.36719,"is_reserved":false,"is_disabled":false,"rental_uris":{"android":"levelo://app?vid=d816586a-894c-424b-aac9-ef0daf69ea76","ios":"levelo://app?vid=d816586a-894c-424b-aac9-ef0daf69ea76"},"vehicle_type_id":"4","last_reported":1768825595,"current_range_meters":8400,"station_id":"ce4bgrp2rcd13ifvqc9g","pricing_plan_id":"cebpf4jnsgd1na2vs0mg"},{"bike_id":"d2f0d973-1cda-43b0-8ef2-acdd3a9bbcb3","system_id":"levelo_inurba_marseille","lat":43.3054,"lon":5.36712,"is_reserved":false,"is_disabled":false,"rental_uris":{"android":"levelo://app?vid=d2f0d973-1cda-43b0-8ef2-acdd3a9bbcb3","ios":"levelo://app?vid=d2f0d973-1cda-43b0-8ef2-acdd3a9bbcb3"},"vehicle_type_id":"4","last_reported":1768825595,"current_range_meters":8400,"station_id":"ce4bgrp2rcd13ifvqc9g","pricing_plan_id":"cebpf4jnsgd1na2vs0mg"},{"bike_id":"1bae9140-ff17-4e53-90ce-59eb9d8c1a5d","system_id":"levelo_inurba_marseille","lat":43.27983,"lon":5.41645,"is_reserved":false,"is_disabled":false,"rental_uris":{"android":"levelo://app?vid=1bae9140-ff17-4e53-90ce-59eb9d8c1a5d","ios":"levelo://app?vid=1bae9140-ff17-4e53-90ce-59eb9d8c1a5d"},"vehicle_type_id":"4","last_reported":1768825595,"current_range_meters":8400,"station_id":"ce4bho12rcd13ifvqh1g","pricing_plan_id":"cebpf4jnsgd1na2vs0mg"},{"bike_id":"5cbbbed7-1b78-4268-8b83-0756dccd4250","system_id":"levelo_inurba_marseille","lat":43.24951,"lon":5.40489,"is_reserved":false,"is_disabled":true,"rental_uris":{"android":"levelo://app?vid=5cbbbed7-1b78-4268-8b83-0756dccd4250","ios":"levelo://app?vid=5cbbbed7-1b78-4268-8b83-0756dccd4250"},"vehicle_type_id":"4","last_reported":1768825595,"current_range_meters":8400,"station_id":"st_d2ngiaodas8pm72gd1h0","pricing_plan_id":"cebpf4jnsgd1na2vs0mg"},{"bike_id":"edb47192-26c7-485b-89de-275a9ab62b81","system_id":"levelo_inurba_marseille","lat":43.303,"lon":5.39215,"is_reserved":false,"is_disabled":false,"rental_uris":{"android":"levelo://app?vid=edb47192-26c7-485b-89de-275a9ab62b81","ios":"levelo://app?vid=edb47192-26c7-485b-89de-275a9ab62b81"},"vehicle_type_id":"4","last_reported":1768825595,"current_range_meters":8400,"station_id":"ce4bgkh2rcd13ifvqbk0","pricing_plan_id":"cebpf4jnsgd1na2vs0mg"},{"bike_id":"fc7f4ac5-c043-433a-a8a5-7c04f75b6e03","system_id":"levelo_inurba_marseille","lat":43.23153,"lon":5.43724,"is_reserved":false,"is_disabled":false,"rental_uris":{"android":"levelo://app?vid=fc7f4ac5-c043-433a-a8a5-7c04f75b6e03","ios":"levelo://app?vid=fc7f4ac5-c043-433a-a8a5-7c04f75b6e03"},"vehicle_type_id":"4","last_reported":1768825595,"current_range_meters":8400,"station_id":"ce4bhmp2rcd13ifvqgog","pricing_plan_id":"cebpf4jnsgd1na2vs0mg"},{"bike_id":"2d7efe21-47b1-4bf3-a4fd-2dff75e156c5","system_id":"levelo_inurba_marseille","lat":43.217387,"lon":5.346013,"is_reserved":false,"is_disabled":false,"rental_uris":{"android":"levelo://app?vid=2d7efe21-47b1-4bf3-a4fd-2dff75e156c5","ios":"levelo://app?vid=2d7efe21-47b1-4bf3-a4fd-2dff75e156c5"},"vehicle_type_id":"4","last_reported":1768825595,"current_range_meters":8400,"station_id":"st_cvj6r9ubvosntc0bgbag","pricing_plan_id":"cebpf4jnsgd1na2vs0mg"},{"bike_id":"e2ef0d85-7e9e-4699-945b-3bd5ff257a37","system_id":"levelo_inurba_marseille","lat":43.31144,"lon":5.37972,"is_reserved":false,"is_disabled":false,"rental_uris":{"android":"levelo://app?vid=e2ef0d85-7e9e-4699-945b-3bd5ff257a37","ios":"levelo://app?vid=e2ef0d85-7e9e-4699-945b-3bd5ff257a37"},"vehicle_type_id":"4","last_reported":1768825595,"current_range_meters":8400,"station_id":"","pricing_plan_id":"cebpf4jnsgd1na2vs0mg"},{"bike_id":"8d4295b1-2c45-4f72-bf59-745897d4e69d","system_id":"levelo_inurba_marseille","lat":43.23155,"lon":5.4372,"is_reserved":false,"is_disabled":false,"rental_uris":{"android":"levelo://app?vid=8d4295b1-2c45-4f72-bf59-745897d4e69d","ios":"levelo://app?vid=8d4295b1-2c45-4f72-bf59-745897d4e69d"},"vehicle_type_id":"4","last_reported":1768825595,"current_range_meters":8400,"station_id":"ce4bhmp2rcd13ifvqgog","pricing_plan_id":"cebpf4jnsgd1na2vs0mg"},{"bike_id":"24fc7106-ed98-4e6e-a0e1-42e8ae0c7579","system_id":"levelo_inurba_marseille","lat":43.26567,"lon":5.39046,"is_reserved":false,"is_disabled":false,"rental_uris":{"android":"levelo://app?vid=24fc7106-ed98-4e6e-a0e1-42e8ae0c7579","ios":"levelo://app?vid=24fc7106-ed98-4e6e-a0e1-42e8ae0c7579"},"vehicle_type_id":"4","last_reported":1768825595,"current_range_meters":8400,"station_id":"ce4bhe12rcd13ifvqf30","pricing_plan_id":"cebpf4jnsgd1na2vs0mg"},{"bike_id":"4669e403-d9cf-49ec-b297-5d415adc82d2","system_id":"levelo_inurba_marseille","lat":43.26781,"lon":5.39427,"is_reserved":false,"is_disabled":false,"rental_uris":{"android":"levelo://app?vid=4669e403-d9cf-49ec-b297-5d415adc82d2","ios":"levelo://app?vid=4669e403-d9cf-49ec-b297-5d415adc82d2"},"vehicle_type_id":"4","last_reported":1768825595,"current_range_meters":8800,"station_id":"ce4bhh12rcd13ifvqfg0","pricing_plan_id":"cebpf4jnsgd1na2vs0mg"},{"bike_id":"f160e180-7371-42ab-89ce-4e358678b78d","system_id":"levelo_inurba_marseille","lat":43.26509,"lon":5.39551,"is_reserved":false,"is_disabled":false,"rental_uris":{"android":"levelo://app?vid=f160e180-7371-42ab-89ce-4e358678b78d","ios":"levelo://app?vid=f160e180-7371-42ab-89ce-4e358678b78d"},"vehicle_type_id":"4","last_reported":1768825595,"current_range_meters":8800,"station_id":"ce4bhi12rcd13ifvqfq0","pricing_plan_id":"cebpf4jnsgd1na2vs0mg"},{"bike_id":"e1093d92-684f-463f-9907-089eedd95fa6","system_id":"levelo_inurba_marseille","lat":43.24177,"lon":5.39731,"is_reserved":false,"is_disabled":false,"rental_uris":{"android":"levelo://app?vid=e1093d92-684f-463f-9907-089eedd95fa6","ios":"levelo://app?vid=e1093d92-684f-463f-9907-089eedd95fa6"},"vehicle_type_id":"4","last_reported":1768825595,"current_range_meters":8800,"station_id":"ce4bhn12rcd13ifvqgpg","pricing_plan_id":"cebpf4jnsgd1na2vs0mg"},{"bike_id":"7c6df23a-2034-4556-a426-ef6f0d837e29","system_id":"levelo_inurba_marseille","lat":43.29767,"lon":5.42784,"is_reserved":false,"is_disabled":false,"rental_uris":{"android":"levelo://app?vid=7c6df23a-2034-4556-a426-ef6f0d837e29","ios":"levelo://app?vid=7c6df23a-2034-4556-a426-ef6f0d837e29"},"vehicle_type_id":"4","last_reported":1768825595,"current_range_meters":8800,"station_id":"st_d3md5207bmas73dh9klg","pricing_plan_id":"cebpf4jnsgd1na2vs0mg"},{"bike_id":"484705cd-b20d-4716-8e33-beec169a25e2","system_id":"levelo_inurba_marseille","lat":43.29059,"lon":5.37555,"is_reserved":false,"is_disabled":false,"rental_uris":{"android":"levelo://app?vid=484705cd-b20d-4716-8e33-beec169a25e2","ios":"levelo://app?vid=484705cd-b20d-4716-8e33-beec169a25e2"},"vehicle_type_id":"4","last_reported":1768825595,"current_range_meters":8800,"station_id":"ce4bh692rcd13ifvqe90","pricing_plan_id":"cebpf4jnsgd1na2vs0mg"},{"bike_id":"f16c3018-0696-42bd-814e-c9b12bce6464","system_id":"levelo_inurba_marseille","lat":43.24988,"lon":5.38945,"is_reserved":false,"is_disabled":false,"rental_uris":{"android":"levelo://app?vid=f16c3018-0696-42bd-814e-c9b12bce6464","ios":"levelo://app?vid=f16c3018-0696-42bd-814e-c9b12bce6464"},"vehicle_type_id":"4","last_reported":1768825595,"current_range_meters":8800,"station_id":"ce4bhgp2rcd13ifvqfd0","pricing_plan_id":"cebpf4jnsgd1na2vs0mg"},{"bike_id":"0ce10287-7e22-4888-ba07-d145d0f55b6f","system_id":"levelo_inurba_marseille","lat":43.30184,"lon":5.36609,"is_reserved":false,"is_disabled":false,"rental_uris":{"android":"levelo://app?vid=0ce10287-7e22-4888-ba07-d145d0f55b6f","ios":"levelo://app?vid=0ce10287-7e22-4888-ba07-d145d0f55b6f"},"vehicle_type_id":"4","last_reported":1768825595,"current_range_meters":8800,"station_id":"ce4bgrh2rcd13ifvqc8g","pricing_plan_id":"cebpf4jnsgd1na2vs0mg"},{"bike_id":"f15b1f46-8371-48f1-8aa3-d6a3ebdd2129","system_id":"levelo_inurba_marseille","lat":43.25818,"lon":5.39442,"is_reserved":false,"is_disabled":false,"rental_uris":{"android":"levelo://app?vid=f15b1f46-8371-48f1-8aa3-d6a3ebdd2129","ios":"levelo://app?vid=f15b1f46-8371-48f1-8aa3-d6a3ebdd2129"},"vehicle_type_id":"4","last_reported":1768825595,"current_range_meters":8800,"station_id":"ce4bhip2rcd13ifvqft0","pricing_plan_id":"cebpf4jnsgd1na2vs0mg"},{"bike_id":"816bb8a8-f8c1-4c2c-800a-b75b4245f3eb","system_id":"levelo_inurba_marseille","lat":43.26911,"lon":5.39537,"is_reserved":false,"is_disabled":false,"rental_uris":{"android":"levelo://app?vid=816bb8a8-f8c1-4c2c-800a-b75b4245f3eb","ios":"levelo://app?vid=816bb8a8-f8c1-4c2c-800a-b75b4245f3eb"},"vehicle_type_id":"4","last_reported":1768825595,"current_range_meters":8800,"station_id":"","pricing_plan_id":"cebpf4jnsgd1na2vs0mg"},{"bike_id":"6dbd3745-ce81-4e97-a7a0-fa0184775e48","system_id":"levelo_inurba_marseille","lat":43.24471,"lon":5.42576,"is_reserved":false,"is_disabled":false,"rental_uris":{"android":"levelo://app?vid=6dbd3745-ce81-4e97-a7a0-fa0184775e48","ios":"levelo://app?vid=6dbd3745-ce81-4e97-a7a0-fa0184775e48"},"vehicle_type_id":"4","last_reported":1768825595,"current_range_meters":8800,"station_id":"st_d4a3vfp97mjs738cd8kg","pricing_plan_id":"cebpf4jnsgd1na2vs0mg"},{"bike_id":"10f99d68-7903-413b-9603-6b566054a04b","system_id":"levelo_inurba_marseille","lat":43.31194,"lon":5.36858,"is_reserved":false,"is_disabled":false,"rental_uris":{"android":"levelo://app?vid=10f99d68-7903-413b-9603-6b566054a04b","ios":"levelo://app?vid=10f99d68-7903-413b-9603-6b566054a04b"},"vehicle_type_id":"4","last_reported":1768825595,"current_range_meters":8800,"station_id":"ce4bgl92rcd13ifvqbq0","pricing_plan_id":"cebpf4jnsgd1na2vs0mg"},{"bike_id":"269e6a88-5c12-4bfe-9037-dc1ecec3395b","system_id":"levelo_inurba_marseille","lat":43.25025,"lon":5.38922,"is_reserved":false,"is_disabled":false,"rental_uris":{"android":"levelo://app?vid=269e6a88-5c12-4bfe-9037-dc1ecec3395b","ios":"levelo://app?vid=269e6a88-5c12-4bfe-9037-dc1ecec3395b"},"vehicle_type_id":"4","last_reported":1768825595,"current_range_meters":8800,"station_id":"ce4bhgp2rcd13ifvqfd0","pricing_plan_id":"cebpf4jnsgd1na2vs0mg"},{"bike_id":"c578439e-9109-42d3-8a05-9688893825d6","system_id":"levelo_inurba_marseille","lat":43.31225,"lon":5.36847,"is_reserved":false,"is_disabled":false,"rental_uris":{"android":"levelo://app?vid=c578439e-9109-42d3-8a05-9688893825d6","ios":"levelo://app?vid=c578439e-9109-42d3-8a05-9688893825d6"},"vehicle_type_id":"4","last_reported":1768825595,"current_range_meters":8800,"station_id":"ce4bgl92rcd13ifvqbq0","pricing_plan_id":"cebpf4jnsgd1na2vs0mg"},{"bike_id":"80b5b6ec-0d84-4f18-8da8-d8ab913ec870","system_id":"levelo_inurba_marseille","lat":43.27896,"lon":5.37409,"is_reserved":false,"is_disabled":false,"rental_uris":{"android":"levelo://app?vid=80b5b6ec-0d84-4f18-8da8-d8ab913ec870","ios":"levelo://app?vid=80b5b6ec-0d84-4f18-8da8-d8ab913ec870"},"vehicle_type_id":"4","last_reported":1768825595,"current_range_meters":8800,"station_id":"","pricing_plan_id":"cebpf4jnsgd1na2vs0mg"},{"bike_id":"0f3a19af-39a2-4082-bd8e-26d337f54773","system_id":"levelo_inurba_marseille","lat":43.2888,"lon":5.42516,"is_reserved":false,"is_disabled":false,"rental_uris":{"android":"levelo://app?vid=0f3a19af-39a2-4082-bd8e-26d337f54773","ios":"levelo://app?vid=0f3a19af-39a2-4082-bd8e-26d337f54773"},"vehicle_type_id":"4","last_reported":1768825595,"current_range_meters":8800,"station_id":"st_d3b462108ojc7389ooeg","pricing_plan_id":"cebpf4jnsgd1na2vs0mg"},{"bike_id":"f5642a80-18f7-4f21-aeff-656a7f27169e","system_id":"levelo_inurba_marseille","lat":43.23138,"lon":5.43739,"is_reserved":false,"is_disabled":false,"rental_uris":{"android":"levelo://app?vid=f5642a80-18f7-4f21-aeff-656a7f27169e","ios":"levelo://app?vid=f5642a80-18f7-4f21-aeff-656a7f27169e"},"vehicle_type_id":"4","last_reported":1768825595,"current_range_meters":8800,"station_id":"ce4bhmp2rcd13ifvqgog","pricing_plan_id":"cebpf4jnsgd1na2vs0mg"},{"bike_id":"dfa72997-bdba-48f4-a1d1-63ff5130518c","system_id":"levelo_inurba_marseille","lat":43.323496,"lon":5.367318,"is_reserved":false,"is_disabled":false,"rental_uris":{"android":"levelo://app?vid=dfa72997-bdba-48f4-a1d1-63ff5130518c","ios":"levelo://app?vid=dfa72997-bdba-48f4-a1d1-63ff5130518c"},"vehicle_type_id":"4","last_reported":1768825595,"current_range_meters":9200,"station_id":"ce4bhsh2rcd13ifvqi2g","pricing_plan_id":"cebpf4jnsgd1na2vs0mg"},{"bike_id":"760dca37-a904-42a9-b08c-dcd355cb4e4d","system_id":"levelo_inurba_marseille","lat":43.27994,"lon":5.40019,"is_reserved":false,"is_disabled":false,"rental_uris":{"android":"levelo://app?vid=760dca37-a904-42a9-b08c-dcd355cb4e4d","ios":"levelo://app?vid=760dca37-a904-42a9-b08c-dcd355cb4e4d"},"vehicle_type_id":"4","last_reported":1768825595,"current_range_meters":9200,"station_id":"ce4bho92rcd13ifvqh4g","pricing_plan_id":"cebpf4jnsgd1na2vs0mg"},{"bike_id":"f9dc3e16-2a68-4cd6-a051-94f73f8c584d","system_id":"levelo_inurba_marseille","lat":43.27795,"lon":5.407253,"is_reserved":false,"is_disabled":false,"rental_uris":{"android":"levelo://app?vid=f9dc3e16-2a68-4cd6-a051-94f73f8c584d","ios":"levelo://app?vid=f9dc3e16-2a68-4cd6-a051-94f73f8c584d"},"vehicle_type_id":"4","last_reported":1768825595,"current_range_meters":9200,"station_id":"ce4bhnh2rcd13ifvqgtg","pricing_plan_id":"cebpf4jnsgd1na2vs0mg"},{"bike_id":"784bf8ae-0097-45a5-89e6-e9987ffc4672","system_id":"levelo_inurba_marseille","lat":43.24171,"lon":5.39729,"is_reserved":false,"is_disabled":false,"rental_uris":{"android":"levelo://app?vid=784bf8ae-0097-45a5-89e6-e9987ffc4672","ios":"levelo://app?vid=784bf8ae-0097-45a5-89e6-e9987ffc4672"},"vehicle_type_id":"4","last_reported":1768825595,"current_range_meters":9200,"station_id":"ce4bhn12rcd13ifvqgpg","pricing_plan_id":"cebpf4jnsgd1na2vs0mg"},{"bike_id":"98b7c4bc-df41-4591-92d4-d03ff0b10e8b","system_id":"levelo_inurba_marseille","lat":43.30132,"lon":5.43134,"is_reserved":false,"is_disabled":false,"rental_uris":{"android":"levelo://app?vid=98b7c4bc-df41-4591-92d4-d03ff0b10e8b","ios":"levelo://app?vid=98b7c4bc-df41-4591-92d4-d03ff0b10e8b"},"vehicle_type_id":"4","last_reported":1768825595,"current_range_meters":9200,"station_id":"st_d3js3co5814s73ftftug","pricing_plan_id":"cebpf4jnsgd1na2vs0mg"},{"bike_id":"da374a68-90e5-477e-a817-f1fe29574ea6","system_id":"levelo_inurba_marseille","lat":43.30187,"lon":5.37399,"is_reserved":false,"is_disabled":false,"rental_uris":{"android":"levelo://app?vid=da374a68-90e5-477e-a817-f1fe29574ea6","ios":"levelo://app?vid=da374a68-90e5-477e-a817-f1fe29574ea6"},"vehicle_type_id":"4","last_reported":1768825595,"current_range_meters":9200,"station_id":"","pricing_plan_id":"cebpf4jnsgd1na2vs0mg"},{"bike_id":"0491a144-6979-47a0-a547-6080fe459d41","system_id":"levelo_inurba_marseille","lat":43.21197,"lon":5.35075,"is_reserved":false,"is_disabled":false,"rental_uris":{"android":"levelo://app?vid=0491a144-6979-47a0-a547-6080fe459d41","ios":"levelo://app?vid=0491a144-6979-47a0-a547-6080fe459d41"},"vehicle_type_id":"4","last_reported":1768825595,"current_range_meters":9200,"station_id":"","pricing_plan_id":"cebpf4jnsgd1na2vs0mg"},{"bike_id":"a18875b2-7fec-46fb-be96-0954e45585f5","system_id":"levelo_inurba_marseille","lat":43.27948,"lon":5.41051,"is_reserved":false,"is_disabled":false,"rental_uris":{"android":"levelo://app?vid=a18875b2-7fec-46fb-be96-0954e45585f5","ios":"levelo://app?vid=a18875b2-7fec-46fb-be96-0954e45585f5"},"vehicle_type_id":"4","last_reported":1768825595,"current_range_meters":9200,"station_id":"ce4bhnp2rcd13ifvqh0g","pricing_plan_id":"cebpf4jnsgd1na2vs0mg"},{"bike_id":"257237c4-ad17-4c5c-bd8c-33a3d3f05dc6","system_id":"levelo_inurba_marseille","lat":43.285338,"lon":5.440969,"is_reserved":false,"is_disabled":false,"rental_uris":{"android":"levelo://app?vid=257237c4-ad17-4c5c-bd8c-33a3d3f05dc6","ios":"levelo://app?vid=257237c4-ad17-4c5c-bd8c-33a3d3f05dc6"},"vehicle_type_id":"4","last_reported":1768825595,"current_range_meters":9200,"station_id":"st_d3j3df2ikq2c7380ej80","pricing_plan_id":"cebpf4jnsgd1na2vs0mg"},{"bike_id":"87a54c48-d7ac-433a-ae3b-f1377c77482d","system_id":"levelo_inurba_marseille","lat":43.31578,"lon":5.38023,"is_reserved":false,"is_disabled":false,"rental_uris":{"android":"levelo://app?vid=87a54c48-d7ac-433a-ae3b-f1377c77482d","ios":"levelo://app?vid=87a54c48-d7ac-433a-ae3b-f1377c77482d"},"vehicle_type_id":"4","last_reported":1768825595,"current_range_meters":9200,"station_id":"","pricing_plan_id":"cebpf4jnsgd1na2vs0mg"},{"bike_id":"1c7626d3-2854-43dc-850f-324eda7ab09a","system_id":"levelo_inurba_marseille","lat":43.22571,"lon":5.41665,"is_reserved":false,"is_disabled":false,"rental_uris":{"android":"levelo://app?vid=1c7626d3-2854-43dc-850f-324eda7ab09a","ios":"levelo://app?vid=1c7626d3-2854-43dc-850f-324eda7ab09a"},"vehicle_type_id":"4","last_reported":1768825595,"current_range_meters":9200,"station_id":"st_d2o4gvlbi1j2169b742g","pricing_plan_id":"cebpf4jnsgd1na2vs0mg"},{"bike_id":"d9529985-dc5f-4882-9cea-4552ed402475","system_id":"levelo_inurba_marseille","lat":43.23786,"lon":5.36635,"is_reserved":false,"is_disabled":false,"rental_uris":{"android":"levelo://app?vid=d9529985-dc5f-4882-9cea-4552ed402475","ios":"levelo://app?vid=d9529985-dc5f-4882-9cea-4552ed402475"},"vehicle_type_id":"4","last_reported":1768825595,"current_range_meters":9200,"station_id":"st_d3nk18o9ro0c73en2l3g","pricing_plan_id":"cebpf4jnsgd1na2vs0mg"},{"bike_id":"4d9e78c9-2d9e-4ad2-be3d-e51ac487701b","system_id":"levelo_inurba_marseille","lat":43.26205,"lon":5.41549,"is_reserved":false,"is_disabled":false,"rental_uris":{"android":"levelo://app?vid=4d9e78c9-2d9e-4ad2-be3d-e51ac487701b","ios":"levelo://app?vid=4d9e78c9-2d9e-4ad2-be3d-e51ac487701b"},"vehicle_type_id":"4","last_reported":1768825595,"current_range_meters":9200,"station_id":"","pricing_plan_id":"cebpf4jnsgd1na2vs0mg"},{"bike_id":"5e47478e-2bb2-4617-945e-678ef1fb8faf","system_id":"levelo_inurba_marseille","lat":43.29762,"lon":5.42778,"is_reserved":false,"is_disabled":false,"rental_uris":{"android":"levelo://app?vid=5e47478e-2bb2-4617-945e-678ef1fb8faf","ios":"levelo://app?vid=5e47478e-2bb2-4617-945e-678ef1fb8faf"},"vehicle_type_id":"4","last_reported":1768825595,"current_range_meters":9200,"station_id":"st_d3md5207bmas73dh9klg","pricing_plan_id":"cebpf4jnsgd1na2vs0mg"},{"bike_id":"6f5082db-97aa-4eeb-b501-7f621ba849a3","system_id":"levelo_inurba_marseille","lat":43.27378,"lon":5.36255,"is_reserved":false,"is_disabled":false,"rental_uris":{"android":"levelo://app?vid=6f5082db-97aa-4eeb-b501-7f621ba849a3","ios":"levelo://app?vid=6f5082db-97aa-4eeb-b501-7f621ba849a3"},"vehicle_type_id":"4","last_reported":1768825595,"current_range_meters":9200,"station_id":"ce4bhbh2rcd13ifvqeo0","pricing_plan_id":"cebpf4jnsgd1na2vs0mg"},{"bike_id":"8cedf3bb-bac3-4cb9-98b5-eff08a6d74c2","system_id":"levelo_inurba_marseille","lat":43.292647,"lon":5.384355,"is_reserved":false,"is_disabled":false,"rental_uris":{"android":"levelo://app?vid=8cedf3bb-bac3-4cb9-98b5-eff08a6d74c2","ios":"levelo://app?vid=8cedf3bb-bac3-4cb9-98b5-eff08a6d74c2"},"vehicle_type_id":"4","last_reported":1768825595,"current_range_meters":9200,"station_id":"ce4bh692rcd13ifvqea0","pricing_plan_id":"cebpf4jnsgd1na2vs0mg"},{"bike_id":"74410b7c-20f3-464f-b084-77cf6745e281","system_id":"levelo_inurba_marseille","lat":43.297571,"lon":5.427867,"is_reserved":false,"is_disabled":false,"rental_uris":{"android":"levelo://app?vid=74410b7c-20f3-464f-b084-77cf6745e281","ios":"levelo://app?vid=74410b7c-20f3-464f-b084-77cf6745e281"},"vehicle_type_id":"4","last_reported":1768825595,"current_range_meters":9600,"station_id":"st_d3md5207bmas73dh9klg","pricing_plan_id":"cebpf4jnsgd1na2vs0mg"},{"bike_id":"cc75d74f-edcb-4d0c-834e-ebf6d03d0901","system_id":"levelo_inurba_marseille","lat":43.27944,"lon":5.41051,"is_reserved":false,"is_disabled":false,"rental_uris":{"android":"levelo://app?vid=cc75d74f-edcb-4d0c-834e-ebf6d03d0901","ios":"levelo://app?vid=cc75d74f-edcb-4d0c-834e-ebf6d03d0901"},"vehicle_type_id":"4","last_reported":1768825595,"current_range_meters":9600,"station_id":"ce4bhnp2rcd13ifvqh0g","pricing_plan_id":"cebpf4jnsgd1na2vs0mg"},{"bike_id":"9731fe98-eff6-423c-9230-04d49ef1e664","system_id":"levelo_inurba_marseille","lat":43.24462,"lon":5.42529,"is_reserved":false,"is_disabled":false,"rental_uris":{"android":"levelo://app?vid=9731fe98-eff6-423c-9230-04d49ef1e664","ios":"levelo://app?vid=9731fe98-eff6-423c-9230-04d49ef1e664"},"vehicle_type_id":"4","last_reported":1768825595,"current_range_meters":9600,"station_id":"st_d4a3vfp97mjs738cd8kg","pricing_plan_id":"cebpf4jnsgd1na2vs0mg"},{"bike_id":"22d78b3e-4569-408f-af36-d2bb74d1e4d0","system_id":"levelo_inurba_marseille","lat":43.29198,"lon":5.39313,"is_reserved":false,"is_disabled":false,"rental_uris":{"android":"levelo://app?vid=22d78b3e-4569-408f-af36-d2bb74d1e4d0","ios":"levelo://app?vid=22d78b3e-4569-408f-af36-d2bb74d1e4d0"},"vehicle_type_id":"4","last_reported":1768825595,"current_range_meters":9600,"station_id":"ce4bh192rcd13ifvqdd0","pricing_plan_id":"cebpf4jnsgd1na2vs0mg"},{"bike_id":"266e48ea-908e-4dc8-855a-c7fc287a6fac","system_id":"levelo_inurba_marseille","lat":43.30289,"lon":5.3769,"is_reserved":false,"is_disabled":false,"rental_uris":{"android":"levelo://app?vid=266e48ea-908e-4dc8-855a-c7fc287a6fac","ios":"levelo://app?vid=266e48ea-908e-4dc8-855a-c7fc287a6fac"},"vehicle_type_id":"4","last_reported":1768825595,"current_range_meters":9600,"station_id":"ce4bguh2rcd13ifvqcj0","pricing_plan_id":"cebpf4jnsgd1na2vs0mg"},{"bike_id":"fe068e4e-5726-4387-b759-602413089295","system_id":"levelo_inurba_marseille","lat":43.26061,"lon":5.39392,"is_reserved":false,"is_disabled":false,"rental_uris":{"android":"levelo://app?vid=fe068e4e-5726-4387-b759-602413089295","ios":"levelo://app?vid=fe068e4e-5726-4387-b759-602413089295"},"vehicle_type_id":"4","last_reported":1768825595,"current_range_meters":9600,"station_id":"ce4bhh92rcd13ifvqfj0","pricing_plan_id":"cebpf4jnsgd1na2vs0mg"},{"bike_id":"405bacf0-7d07-4ec7-aad7-72e1c5147c0f","system_id":"levelo_inurba_marseille","lat":43.30175,"lon":5.3738,"is_reserved":false,"is_disabled":false,"rental_uris":{"android":"levelo://app?vid=405bacf0-7d07-4ec7-aad7-72e1c5147c0f","ios":"levelo://app?vid=405bacf0-7d07-4ec7-aad7-72e1c5147c0f"},"vehicle_type_id":"4","last_reported":1768825595,"current_range_meters":9600,"station_id":"ce4bgs92rcd13ifvqcc0","pricing_plan_id":"cebpf4jnsgd1na2vs0mg"},{"bike_id":"15fa7938-6e9d-4ff0-8c10-f0e05689a462","system_id":"levelo_inurba_marseille","lat":43.33159,"lon":5.37702,"is_reserved":false,"is_disabled":false,"rental_uris":{"android":"levelo://app?vid=15fa7938-6e9d-4ff0-8c10-f0e05689a462","ios":"levelo://app?vid=15fa7938-6e9d-4ff0-8c10-f0e05689a462"},"vehicle_type_id":"4","last_reported":1768825595,"current_range_meters":9600,"station_id":"st_d46cu089ee8s73dldbu0","pricing_plan_id":"cebpf4jnsgd1na2vs0mg"},{"bike_id":"87f35a5d-485c-42c0-a0d6-d17c180ada41","system_id":"levelo_inurba_marseille","lat":43.24173,"lon":5.36403,"is_reserved":false,"is_disabled":false,"rental_uris":{"android":"levelo://app?vid=87f35a5d-485c-42c0-a0d6-d17c180ada41","ios":"levelo://app?vid=87f35a5d-485c-42c0-a0d6-d17c180ada41"},"vehicle_type_id":"4","last_reported":1768825595,"current_range_meters":9600,"station_id":"cpo36qri1sfpv3e86is0","pricing_plan_id":"cebpf4jnsgd1na2vs0mg"},{"bike_id":"897afa57-164c-4cfc-901d-614d477f19fd","system_id":"levelo_inurba_marseille","lat":43.29738,"lon":5.37344,"is_reserved":false,"is_disabled":false,"rental_uris":{"android":"levelo://app?vid=897afa57-164c-4cfc-901d-614d477f19fd","ios":"levelo://app?vid=897afa57-164c-4cfc-901d-614d477f19fd"},"vehicle_type_id":"4","last_reported":1768825595,"current_range_meters":9600,"station_id":"","pricing_plan_id":"cebpf4jnsgd1na2vs0mg"},{"bike_id":"f02a6d56-5cc6-441d-b096-ec037e71ba0d","system_id":"levelo_inurba_marseille","lat":43.2911,"lon":5.38912,"is_reserved":false,"is_disabled":false,"rental_uris":{"android":"levelo://app?vid=f02a6d56-5cc6-441d-b096-ec037e71ba0d","ios":"levelo://app?vid=f02a6d56-5cc6-441d-b096-ec037e71ba0d"},"vehicle_type_id":"4","last_reported":1768825595,"current_range_meters":9600,"station_id":"","pricing_plan_id":"cebpf4jnsgd1na2vs0mg"},{"bike_id":"09fa8cbf-b8a0-400d-b675-de66e347c7c3","system_id":"levelo_inurba_marseille","lat":43.28624,"lon":5.39878,"is_reserved":false,"is_disabled":false,"rental_uris":{"android":"levelo://app?vid=09fa8cbf-b8a0-400d-b675-de66e347c7c3","ios":"levelo://app?vid=09fa8cbf-b8a0-400d-b675-de66e347c7c3"},"vehicle_type_id":"4","last_reported":1768825595,"current_range_meters":9600,"station_id":"st_d4a7ka997mjs738ck50g","pricing_plan_id":"cebpf4jnsgd1na2vs0mg"},{"bike_id":"d37fbd57-975a-458d-86c1-4646adc5d0a1","system_id":"levelo_inurba_marseille","lat":43.26025,"lon":5.41737,"is_reserved":false,"is_disabled":false,"rental_uris":{"android":"levelo://app?vid=d37fbd57-975a-458d-86c1-4646adc5d0a1","ios":"levelo://app?vid=d37fbd57-975a-458d-86c1-4646adc5d0a1"},"vehicle_type_id":"4","last_reported":1768825595,"current_range_meters":9600,"station_id":"","pricing_plan_id":"cebpf4jnsgd1na2vs0mg"},{"bike_id":"ecdfdb16-a032-4570-add5-bea84541c980","system_id":"levelo_inurba_marseille","lat":43.28432,"lon":5.39196,"is_reserved":false,"is_disabled":false,"rental_uris":{"android":"levelo://app?vid=ecdfdb16-a032-4570-add5-bea84541c980","ios":"levelo://app?vid=ecdfdb16-a032-4570-add5-bea84541c980"},"vehicle_type_id":"4","last_reported":1768825595,"current_range_meters":9600,"station_id":"ce4bhoh2rcd13ifvqh5g","pricing_plan_id":"cebpf4jnsgd1na2vs0mg"},{"bike_id":"71b26d98-50ca-47e8-8326-478fe4b69695","system_id":"levelo_inurba_marseille","lat":43.29308,"lon":5.37173,"is_reserved":false,"is_disabled":false,"rental_uris":{"android":"levelo://app?vid=71b26d98-50ca-47e8-8326-478fe4b69695","ios":"levelo://app?vid=71b26d98-50ca-47e8-8326-478fe4b69695"},"vehicle_type_id":"4","last_reported":1768825595,"current_range_meters":9600,"station_id":"ce4bgh92rcd13ifvqb40","pricing_plan_id":"cebpf4jnsgd1na2vs0mg"},{"bike_id":"fad9e831-5859-4a86-9327-0ae27b8a1f04","system_id":"levelo_inurba_marseille","lat":43.30543,"lon":5.36553,"is_reserved":false,"is_disabled":false,"rental_uris":{"android":"levelo://app?vid=fad9e831-5859-4a86-9327-0ae27b8a1f04","ios":"levelo://app?vid=fad9e831-5859-4a86-9327-0ae27b8a1f04"},"vehicle_type_id":"4","last_reported":1768825595,"current_range_meters":9600,"station_id":"ce4bgs12rcd13ifvqcag","pricing_plan_id":"cebpf4jnsgd1na2vs0mg"},{"bike_id":"a230c296-8f76-4461-85f3-cef961a68cae","system_id":"levelo_inurba_marseille","lat":43.28153,"lon":5.43151,"is_reserved":false,"is_disabled":false,"rental_uris":{"android":"levelo://app?vid=a230c296-8f76-4461-85f3-cef961a68cae","ios":"levelo://app?vid=a230c296-8f76-4461-85f3-cef961a68cae"},"vehicle_type_id":"4","last_reported":1768825595,"current_range_meters":9600,"station_id":"","pricing_plan_id":"cebpf4jnsgd1na2vs0mg"},{"bike_id":"6bbadf6c-8015-4f56-b9a7-49931e981533","system_id":"levelo_inurba_marseille","lat":43.30544,"lon":5.36707,"is_reserved":false,"is_disabled":false,"rental_uris":{"android":"levelo://app?vid=6bbadf6c-8015-4f56-b9a7-49931e981533","ios":"levelo://app?vid=6bbadf6c-8015-4f56-b9a7-49931e981533"},"vehicle_type_id":"4","last_reported":1768825595,"current_range_meters":9600,"station_id":"ce4bgrp2rcd13ifvqc9g","pricing_plan_id":"cebpf4jnsgd1na2vs0mg"},{"bike_id":"289c4030-5ccc-4696-99db-11899f84ed21","system_id":"levelo_inurba_marseille","lat":43.23143,"lon":5.4372,"is_reserved":false,"is_disabled":false,"rental_uris":{"android":"levelo://app?vid=289c4030-5ccc-4696-99db-11899f84ed21","ios":"levelo://app?vid=289c4030-5ccc-4696-99db-11899f84ed21"},"vehicle_type_id":"4","last_reported":1768825595,"current_range_meters":9600,"station_id":"ce4bhmp2rcd13ifvqgog","pricing_plan_id":"cebpf4jnsgd1na2vs0mg"},{"bike_id":"ea64526a-5533-47b9-9c09-5171f3da77ab","system_id":"levelo_inurba_marseille","lat":43.28893,"lon":5.42961,"is_reserved":false,"is_disabled":false,"rental_uris":{"android":"levelo://app?vid=ea64526a-5533-47b9-9c09-5171f3da77ab","ios":"levelo://app?vid=ea64526a-5533-47b9-9c09-5171f3da77ab"},"vehicle_type_id":"4","last_reported":1768825595,"current_range_meters":9600,"station_id":"","pricing_plan_id":"cebpf4jnsgd1na2vs0mg"},{"bike_id":"56e385ce-3f8c-4732-b9b0-4ab42132f101","system_id":"levelo_inurba_marseille","lat":43.28007,"lon":5.41667,"is_reserved":false,"is_disabled":false,"rental_uris":{"android":"levelo://app?vid=56e385ce-3f8c-4732-b9b0-4ab42132f101","ios":"levelo://app?vid=56e385ce-3f8c-4732-b9b0-4ab42132f101"},"vehicle_type_id":"4","last_reported":1768825595,"current_range_meters":9600,"station_id":"ce4bho12rcd13ifvqh1g","pricing_plan_id":"cebpf4jnsgd1na2vs0mg"},{"bike_id":"614d3f27-8373-4fc7-a4ab-61247e39736b","system_id":"levelo_inurba_marseille","lat":43.26564,"lon":5.39077,"is_reserved":false,"is_disabled":false,"rental_uris":{"android":"levelo://app?vid=614d3f27-8373-4fc7-a4ab-61247e39736b","ios":"levelo://app?vid=614d3f27-8373-4fc7-a4ab-61247e39736b"},"vehicle_type_id":"4","last_reported":1768825595,"current_range_meters":10000,"station_id":"ce4bhe12rcd13ifvqf30","pricing_plan_id":"cebpf4jnsgd1na2vs0mg"},{"bike_id":"2754e82f-4036-4992-bd65-d11cd290c0f7","system_id":"levelo_inurba_marseille","lat":43.28006,"lon":5.40005,"is_reserved":false,"is_disabled":false,"rental_uris":{"android":"levelo://app?vid=2754e82f-4036-4992-bd65-d11cd290c0f7","ios":"levelo://app?vid=2754e82f-4036-4992-bd65-d11cd290c0f7"},"vehicle_type_id":"4","last_reported":1768825595,"current_range_meters":10000,"station_id":"ce4bho92rcd13ifvqh4g","pricing_plan_id":"cebpf4jnsgd1na2vs0mg"},{"bike_id":"4de7eada-ebfb-486f-a002-9955ab70b8a8","system_id":"levelo_inurba_marseille","lat":43.31274,"lon":5.40175,"is_reserved":false,"is_disabled":false,"rental_uris":{"android":"levelo://app?vid=4de7eada-ebfb-486f-a002-9955ab70b8a8","ios":"levelo://app?vid=4de7eada-ebfb-486f-a002-9955ab70b8a8"},"vehicle_type_id":"4","last_reported":1768825595,"current_range_meters":10000,"station_id":"ce4bh092rcd13ifvqd30","pricing_plan_id":"cebpf4jnsgd1na2vs0mg"},{"bike_id":"361494c3-cd3d-450c-9015-a2ad0304dbbd","system_id":"levelo_inurba_marseille","lat":43.27982,"lon":5.41651,"is_reserved":false,"is_disabled":false,"rental_uris":{"android":"levelo://app?vid=361494c3-cd3d-450c-9015-a2ad0304dbbd","ios":"levelo://app?vid=361494c3-cd3d-450c-9015-a2ad0304dbbd"},"vehicle_type_id":"4","last_reported":1768825595,"current_range_meters":10000,"station_id":"ce4bho12rcd13ifvqh1g","pricing_plan_id":"cebpf4jnsgd1na2vs0mg"},{"bike_id":"8bc5911e-e7fc-49e5-87c3-fd8fb417263b","system_id":"levelo_inurba_marseille","lat":43.30696,"lon":5.36534,"is_reserved":false,"is_disabled":false,"rental_uris":{"android":"levelo://app?vid=8bc5911e-e7fc-49e5-87c3-fd8fb417263b","ios":"levelo://app?vid=8bc5911e-e7fc-49e5-87c3-fd8fb417263b"},"vehicle_type_id":"4","last_reported":1768825595,"current_range_meters":10000,"station_id":"","pricing_plan_id":"cebpf4jnsgd1na2vs0mg"},{"bike_id":"4d5a34c4-5f2e-4ef5-bb82-35f550258ee1","system_id":"levelo_inurba_marseille","lat":43.2607,"lon":5.39402,"is_reserved":false,"is_disabled":false,"rental_uris":{"android":"levelo://app?vid=4d5a34c4-5f2e-4ef5-bb82-35f550258ee1","ios":"levelo://app?vid=4d5a34c4-5f2e-4ef5-bb82-35f550258ee1"},"vehicle_type_id":"4","last_reported":1768825595,"current_range_meters":10000,"station_id":"ce4bhh92rcd13ifvqfj0","pricing_plan_id":"cebpf4jnsgd1na2vs0mg"},{"bike_id":"a7e26b29-c956-4237-bce9-1e8140f6ff32","system_id":"levelo_inurba_marseille","lat":43.28282,"lon":5.35072,"is_reserved":false,"is_disabled":false,"rental_uris":{"android":"levelo://app?vid=a7e26b29-c956-4237-bce9-1e8140f6ff32","ios":"levelo://app?vid=a7e26b29-c956-4237-bce9-1e8140f6ff32"},"vehicle_type_id":"4","last_reported":1768825595,"current_range_meters":10000,"station_id":"ce4bhbp2rcd13ifvqerg","pricing_plan_id":"cebpf4jnsgd1na2vs0mg"},{"bike_id":"4fa3edc5-5736-4185-b67a-9c469436760d","system_id":"levelo_inurba_marseille","lat":43.30266,"lon":5.43429,"is_reserved":false,"is_disabled":false,"rental_uris":{"android":"levelo://app?vid=4fa3edc5-5736-4185-b67a-9c469436760d","ios":"levelo://app?vid=4fa3edc5-5736-4185-b67a-9c469436760d"},"vehicle_type_id":"4","last_reported":1768825595,"current_range_meters":10000,"station_id":"","pricing_plan_id":"cebpf4jnsgd1na2vs0mg"},{"bike_id":"695f1d25-b2ac-4cf9-9b6a-3d1734d6191b","system_id":"levelo_inurba_marseille","lat":43.262284,"lon":5.404516,"is_reserved":false,"is_disabled":true,"rental_uris":{"android":"levelo://app?vid=695f1d25-b2ac-4cf9-9b6a-3d1734d6191b","ios":"levelo://app?vid=695f1d25-b2ac-4cf9-9b6a-3d1734d6191b"},"vehicle_type_id":"4","last_reported":1768825595,"current_range_meters":10000,"station_id":"ce4bhmh2rcd13ifvqgmg","pricing_plan_id":"cebpf4jnsgd1na2vs0mg"},{"bike_id":"aad2f2a1-05d5-483b-af83-ed9a3138acee","system_id":"levelo_inurba_marseille","lat":43.24139,"lon":5.39714,"is_reserved":false,"is_disabled":false,"rental_uris":{"android":"levelo://app?vid=aad2f2a1-05d5-483b-af83-ed9a3138acee","ios":"levelo://app?vid=aad2f2a1-05d5-483b-af83-ed9a3138acee"},"vehicle_type_id":"4","last_reported":1768825595,"current_range_meters":10000,"station_id":"ce4bhn12rcd13ifvqgpg","pricing_plan_id":"cebpf4jnsgd1na2vs0mg"},{"bike_id":"09bf29bb-9947-410d-b147-6d57ddc8d476","system_id":"levelo_inurba_marseille","lat":43.33155,"lon":5.37691,"is_reserved":false,"is_disabled":false,"rental_uris":{"android":"levelo://app?vid=09bf29bb-9947-410d-b147-6d57ddc8d476","ios":"levelo://app?vid=09bf29bb-9947-410d-b147-6d57ddc8d476"},"vehicle_type_id":"4","last_reported":1768825595,"current_range_meters":10000,"station_id":"st_d46cu089ee8s73dldbu0","pricing_plan_id":"cebpf4jnsgd1na2vs0mg"},