{"last_updated":1730236131,"ttl":60,"version":"2.2","data":{"bikes":[{"bike_id":"e0594c9b-1912-4f09-958a-91f8a4561c29","system_id":"levelo_inurba_marseille","lat":43.24389,"lon":5.37049,"is_reserved":false,"is_disabled":false,"rental_uris":{"android":"levelo://app?vid=e0594c9b-1912-4f09-958a-91f8a4561c29","ios":"levelo://app?vid=e0594c9b-1912-4f09-958a-91f8a4561c29"},"vehicle_type_id":"4","last_reported":1730236131,"current_range_meters":25600,"station_id":"ce4bhhh2rcd13ifvqfk0","pricing_plan_id":"cebpf4jnsgd1na2vs0mg"},{"bike_id":"4a1ad7a9-5fc5-41fc-85fc-6b5f353092b1","system_id":"levelo_inurba_marseille","lat":43.27497,"lon":5.42447,"is_reserved":false,"is_disabled":false,"rental_uris":{"android":"levelo://app?vid=4a1ad7a9-5fc5-41fc-85fc-6b5f353092b1","ios":"levelo://app?vid=4a1ad7a9-5fc5-41fc-85fc-6b5f353092b1"},"vehicle_type_id":"4","last_reported":1730236131,"current_range_meters":36800,"station_id":"ce4bhn92rcd13ifvqgrg","pricing_plan_id":"cebpf4jnsgd1na2vs0mg"},{"bike_id":"6daefb7d-890b-4927-bca4-1e9b57c2727d","system_id":"levelo_inurba_marseille","lat":43.27186,"lon":5.40993,"is_reserved":false,"is_disabled":false,"rental_uris":{"android":"levelo://app?vid=6daefb7d-890b-4927-bca4-1e9b57c2727d","ios":"levelo://app?vid=6daefb7d-890b-4927-bca4-1e9b57c2727d"},"vehicle_type_id":"4","last_reported":1730236131,"current_range_meters":5600,"station_id":"ce4bhl12rcd13ifvqgf0","pricing_plan_id":"cebpf4jnsgd1na2vs0mg"},{"bike_id":"e1d18b81-986d-4e87-b61a-22535be9c7fe","system_id":"levelo_inurba_marseille","lat":43.27068,"lon":5.42274,"is_reserved":false,"is_disabled":false,"rental_uris":{"android":"levelo://app?vid=e1d18b81-986d-4e87-b61a-22535be9c7fe","ios":"levelo://app?vid=e1d18b81-986d-4e87-b61a-22535be9c7fe"},"vehicle_type_id":"4","last_reported":1730236131,"current_range_meters":18800,"station_id":"ce4bhk92rcd13ifvqgb0","pricing_plan_id":"cebpf4jnsgd1na2vs0mg"},{"bike_id":"1a5154eb-f122-438b-b30e-b16adba008c7","system_id":"levelo_inurba_marseille","lat":43.303446,"lon":5.393921,"is_reserved":false,"is_disabled":false,"rental_uris":{"android":"levelo://app?vid=1a5154eb-f122-438b-b30e-b16adba008c7","ios":"levelo://app?vid=1a5154eb-f122-438b-b30e-b16adba008c7"},"vehicle_type_id":"4","last_reported":1730236131,"current_range_meters":16400,"station_id":"ce4bgt12rcd13ifvqcd0","pricing_plan_id":"cebpf4jnsgd1na2vs0mg"},{"bike_id":"e69003c5-61d9-410c-8600-03d60dc443c9","system_id":"levelo_inurba_marseille","lat":43.32489,"lon":5.36581,"is_reserved":false,"is_disabled":false,"rental_uris":{"android":"levelo://app?vid=e69003c5-61d9-410c-8600-03d60dc443c9","ios":"levelo://app?vid=e69003c5-61d9-410c-8600-03d60dc443c9"},"vehicle_type_id":"4","last_reported":1730236131,"current_range_meters":33200,"station_id":"ce4bhs12rcd13ifvqhvg","pricing_plan_id":"cebpf4jnsgd1na2vs0mg"},{"bike_id":"9cd28ed1-51d4-469f-80b1-db1aa7224fd9","system_id":"levelo_inurba_marseille","lat":43.31898,"lon":5.40735,"is_reserved":false,"is_disabled":false,"rental_uris":{"android":"levelo://app?vid=9cd28ed1-51d4-469f-80b1-db1aa7224fd9","ios":"levelo://app?vid=9cd28ed1-51d4-469f-80b1-db1aa7224fd9"},"vehicle_type_id":"4","last_reported":1730236131,"current_range_meters":32800,"station_id":"ce4bhq12rcd13ifvqhig","pricing_plan_id":"cebpf4jnsgd1na2vs0mg"},{"bike_id":"00408809-526a-4e3b-bd4d-a27fc6e05da8","system_id":"levelo_inurba_marseille","lat":43.24807,"lon":5.37462,"is_reserved":false,"is_disabled":false,"rental_uris":{"android":"levelo://app?vid=00408809-526a-4e3b-bd4d-a27fc6e05da8","ios":"levelo://app?vid=00408809-526a-4e3b-bd4d-a27fc6e05da8"},"vehicle_type_id":"4","last_reported":1730236131,"current_range_meters":38800,"station_id":"ce4bhgh2rcd13ifvqfb0","pricing_plan_id":"cebpf4jnsgd1na2vs0mg"},{"bike_id":"515e3cda-ebf4-4224-a67b-bc5f9d833f60","system_id":"levelo_inurba_marseille","lat":43.24544,"lon":5.39519,"is_reserved":false,"is_disabled":false,"rental_uris":{"android":"levelo://app?vid=515e3cda-ebf4-4224-a67b-bc5f9d833f60","ios":"levelo://app?vid=515e3cda-ebf4-4224-a67b-bc5f9d833f60"},"vehicle_type_id":"4","last_reported":1730236131,"current_range_meters":6800,"station_id":"ce4bhlp2rcd13ifvqgjg","pricing_plan_id":"cebpf4jnsgd1na2vs0mg"},{"bike_id":"a0f5d9ec-bdca-49ed-9410-eea9bb121fec","system_id":"levelo_inurba_marseille","lat":43.32661,"lon":5.40989,"is_reserved":false,"is_disabled":false,"rental_uris":{"android":"levelo://app?vid=a0f5d9ec-bdca-49ed-9410-eea9bb121fec","ios":"levelo://app?vid=a0f5d9ec-bdca-49ed-9410-eea9bb121fec"},"vehicle_type_id":"4","last_reported":1730236131,"current_range_meters":11200,"station_id":"ce4bhpp2rcd13ifvqhgg","pricing_plan_id":"cebpf4jnsgd1na2vs0mg"},{"bike_id":"073dbcf2-5747-4fae-be57-146f4420dbaf","system_id":"levelo_inurba_marseille","lat":43.29418,"lon":5.38622,"is_reserved":false,"is_disabled":false,"rental_uris":{"android":"levelo://app?vid=073dbcf2-5747-4fae-be57-146f4420dbaf","ios":"levelo://app?vid=073dbcf2-5747-4fae-be57-146f4420dbaf"},"vehicle_type_id":"4","last_reported":1730236131,"current_range_meters":18800,"station_id":"ce4bh2h2rcd13ifvqdh0","pricing_plan_id":"cebpf4jnsgd1na2vs0mg"},{"bike_id":"66a04495-273a-47df-ac95-d7c1740f1ef3","system_id":"levelo_inurba_marseille","lat":43.278245,"lon":5.406905,"is_reserved":false,"is_disabled":false,"rental_uris":{"android":"levelo://app?vid=66a04495-273a-47df-ac95-d7c1740f1ef3","ios":"levelo://app?vid=66a04495-273a-47df-ac95-d7c1740f1ef3"},"vehicle_type_id":"4","last_reported":1730236131,"current_range_meters":26000,"station_id":"ce4bhnh2rcd13ifvqgtg","pricing_plan_id":"cebpf4jnsgd1na2vs0mg"},{"bike_id":"0174c7e8-4ee9-4204-bc3c-79421f65417d","system_id":"levelo_inurba_marseille","lat":43.26557,"lon":5.37291,"is_reserved":false,"is_disabled":false,"rental_uris":{"android":"levelo://app?vid=0174c7e8-4ee9-4204-bc3c-79421f65417d","ios":"levelo://app?vid=0174c7e8-4ee9-4204-bc3c-79421f65417d"},"vehicle_type_id":"4","last_reported":1730236131,"current_range_meters":38800,"station_id":"ce4bhg12rcd13ifvqf70","pricing_plan_id":"cebpf4jnsgd1na2vs0mg"},{"bike_id":"c35448b9-cc2f-40e5-b9a8-99e3d90dc779","system_id":"levelo_inurba_marseille","lat":43.2871,"lon":5.37386,"is_reserved":false,"is_disabled":false,"rental_uris":{"android":"levelo://app?vid=c35448b9-cc2f-40e5-b9a8-99e3d90dc779","ios":"levelo://app?vid=c35448b9-cc2f-40e5-b9a8-99e3d90dc779"},"vehicle_type_id":"4","last_reported":1730236131,"current_range_meters":19200,"station_id":"ce4bh3p2rcd13ifvqdq0","pricing_plan_id":"cebpf4jnsgd1na2vs0mg"},{"bike_id":"df2c1248-9b14-4528-a030-1bf0e7434fbb","system_id":"levelo_inurba_marseille","lat":43.30461,"lon":5.37909,"is_reserved":false,"is_disabled":false,"rental_uris":{"android":"levelo://app?vid=df2c1248-9b14-4528-a030-1bf0e7434fbb","ios":"levelo://app?vid=df2c1248-9b14-4528-a030-1bf0e7434fbb"},"vehicle_type_id":"4","last_reported":1730236131,"current_range_meters":31200,"station_id":"ce4bgup2rcd13ifvqcn0","pricing_plan_id":"cebpf4jnsgd1na2vs0mg"},{"bike_id":"9f536bbb-1184-45c8-b6cd-9f3efa3b0c88","system_id":"levelo_inurba_marseille","lat":43.32368,"lon":5.3888,"is_reserved":false,"is_disabled":false,"rental_uris":{"android":"levelo://app?vid=9f536bbb-1184-45c8-b6cd-9f3efa3b0c88","ios":"levelo://app?vid=9f536bbb-1184-45c8-b6cd-9f3efa3b0c88"},"vehicle_type_id":"4","last_reported":1730236131,"current_range_meters":38800,"station_id":"ce4bhqp2rcd13ifvqhog","pricing_plan_id":"cebpf4jnsgd1na2vs0mg"},{"bike_id":"6b17b8c2-e4c3-4a48-b5ea-96c0e708e870","system_id":"levelo_inurba_marseille","lat":43.31324,"lon":5.39688,"is_reserved":false,"is_disabled":false,"rental_uris":{"android":"levelo://app?vid=6b17b8c2-e4c3-4a48-b5ea-96c0e708e870","ios":"levelo://app?vid=6b17b8c2-e4c3-4a48-b5ea-96c0e708e870"},"vehicle_type_id":"4","last_reported":1730236131,"current_range_meters":16800,"station_id":"ce4bgvp2rcd13ifvqcu0","pricing_plan_id":"cebpf4jnsgd1na2vs0mg"},{"bike_id":"3ae0e234-f644-425e-972c-39315909af14","system_id":"levelo_inurba_marseille","lat":43.30126,"lon":5.39856,"is_reserved":false,"is_disabled":false,"rental_uris":{"android":"levelo://app?vid=3ae0e234-f644-425e-972c-39315909af14","ios":"levelo://app?vid=3ae0e234-f644-425e-972c-39315909af14"},"vehicle_type_id":"4","last_reported":1730236131,"current_range_meters":1200,"station_id":"ce4bh0h2rcd13ifvqd40","pricing_plan_id":"cebpf4jnsgd1na2vs0mg"},{"bike_id":"3713ca50-eced-45b1-bf48-4c2e0879cc91","system_id":"levelo_inurba_marseille","lat":43.24542,"lon":5.39523,"is_reserved":false,"is_disabled":false,"rental_uris":{"android":"levelo://app?vid=3713ca50-eced-45b1-bf48-4c2e0879cc91","ios":"levelo://app?vid=3713ca50-eced-45b1-bf48-4c2e0879cc91"},"vehicle_type_id":"4","last_reported":1730236131,"current_range_meters":16800,"station_id":"ce4bhlp2rcd13ifvqgjg","pricing_plan_id":"cebpf4jnsgd1na2vs0mg"},{"bike_id":"7e1dac73-d14a-4cac-9a8f-3d04b3161b4c","system_id":"levelo_inurba_marseille","lat":43.26544,"lon":5.37291,"is_reserved":false,"is_disabled":false,"rental_uris":{"android":"levelo://app?vid=7e1dac73-d14a-4cac-9a8f-3d04b3161b4c","ios":"levelo://app?vid=7e1dac73-d14a-4cac-9a8f-3d04b3161b4c"},"vehicle_type_id":"4","last_reported":1730236131,"current_range_meters":38800,"station_id":"ce4bhg12rcd13ifvqf70","pricing_plan_id":"cebpf4jnsgd1na2vs0mg"},{"bike_id":"44452cab-0ed3-46c5-ae89-8653a35bc3ed","system_id":"levelo_inurba_marseille","lat":43.29257,"lon":5.40903,"is_reserved":false,"is_disabled":false,"rental_uris":{"android":"levelo://app?vid=44452cab-0ed3-46c5-ae89-8653a35bc3ed","ios":"levelo://app?vid=44452cab-0ed3-46c5-ae89-8653a35bc3ed"},"vehicle_type_id":"4","last_reported":1730236131,"current_range_meters":21600,"station_id":"ce4bh192rcd13ifvqdc0","pricing_plan_id":"cebpf4jnsgd1na2vs0mg"},{"bike_id":"caf349c8-ed3b-4304-909b-160d602b00a5","system_id":"levelo_inurba_marseille","lat":43.31708,"lon":5.37751,"is_reserved":false,"is_disabled":false,"rental_uris":{"android":"levelo://app?vid=caf349c8-ed3b-4304-909b-160d602b00a5","ios":"levelo://app?vid=caf349c8-ed3b-4304-909b-160d602b00a5"},"vehicle_type_id":"4","last_reported":1730236131,"current_range_meters":8000,"station_id":"ce4bgth2rcd13ifvqch0","pricing_plan_id":"cebpf4jnsgd1na2vs0mg"},{"bike_id":"f806c707-4ddf-44ce-9465-396ac5def657","system_id":"levelo_inurba_marseille","lat":43.24802,"lon":5.37453,"is_reserved":false,"is_disabled":false,"rental_uris":{"android":"levelo://app?vid=f806c707-4ddf-44ce-9465-396ac5def657","ios":"levelo://app?vid=f806c707-4ddf-44ce-9465-396ac5def657"},"vehicle_type_id":"4","last_reported":1730236131,"current_range_meters":19200,"station_id":"ce4bhgh2rcd13ifvqfb0","pricing_plan_id":"cebpf4jnsgd1na2vs0mg"},{"bike_id":"090b0103-6fe8-4d35-be25-0aad52c901f1","system_id":"levelo_inurba_marseille","lat":43.29429,"lon":5.39867,"is_reserved":false,"is_disabled":false,"rental_uris":{"android":"levelo://app?vid=090b0103-6fe8-4d35-be25-0aad52c901f1","ios":"levelo://app?vid=090b0103-6fe8-4d35-be25-0aad52c901f1"},"vehicle_type_id":"4","last_reported":1730236131,"current_range_meters":7200,"station_id":"","pricing_plan_id":"cebpf4jnsgd1na2vs0mg"},{"bike_id":"1a56afbf-9f44-48f9-96a2-13f754373b82","system_id":"levelo_inurba_marseille","lat":43.29035,"lon":5.39962,"is_reserved":false,"is_disabled":false,"rental_uris":{"android":"levelo://app?vid=1a56afbf-9f44-48f9-96a2-13f754373b82","ios":"levelo://app?vid=1a56afbf-9f44-48f9-96a2-13f754373b82"},"vehicle_type_id":"4","last_reported":1730236131,"current_range_meters":17200,"station_id":"ce4bh392rcd13ifvqdm0","pricing_plan_id":"cebpf4jnsgd1na2vs0mg"},{"bike_id":"fdbf8da8-463f-4534-83e9-3249915cc64b","system_id":"levelo_inurba_marseille","lat":43.31074,"lon":5.38361,"is_reserved":false,"is_disabled":false,"rental_uris":{"android":"levelo://app?vid=fdbf8da8-463f-4534-83e9-3249915cc64b","ios":"levelo://app?vid=fdbf8da8-463f-4534-83e9-3249915cc64b"},"vehicle_type_id":"4","last_reported":1730236131,"current_range_meters":38000,"station_id":"ce4bgv92rcd13ifvqcr0","pricing_plan_id":"cebpf4jnsgd1na2vs0mg"},{"bike_id":"79753c44-2696-48d8-8503-a28f55e7f2ea","system_id":"levelo_inurba_marseille","lat":43.31332,"lon":5.39697,"is_reserved":false,"is_disabled":false,"rental_uris":{"android":"levelo://app?vid=79753c44-2696-48d8-8503-a28f55e7f2ea","ios":"levelo://app?vid=79753c44-2696-48d8-8503-a28f55e7f2ea"},"vehicle_type_id":"4","last_reported":1730236131,"current_range_meters":30800,"station_id":"ce4bgvp2rcd13ifvqcu0","pricing_plan_id":"cebpf4jnsgd1na2vs0mg"},{"bike_id":"209691fb-0077-46b7-911d-62fe9fe8ea46","system_id":"levelo_inurba_marseille","lat":43.2799,"lon":5.39999,"is_reserved":false,"is_disabled":false,"rental_uris":{"android":"levelo://app?vid=209691fb-0077-46b7-911d-62fe9fe8ea46","ios":"levelo://app?vid=209691fb-0077-46b7-911d-62fe9fe8ea46"},"vehicle_type_id":"4","last_reported":1730236131,"current_range_meters":26000,"station_id":"ce4bho92rcd13ifvqh4g","pricing_plan_id":"cebpf4jnsgd1na2vs0mg"},{"bike_id":"77ef2a38-e3ef-4510-81b3-93939981e4f1","system_id":"levelo_inurba_marseille","lat":43.30586,"lon":5.39357,"is_reserved":false,"is_disabled":false,"rental_uris":{"android":"levelo://app?vid=77ef2a38-e3ef-4510-81b3-93939981e4f1","ios":"levelo://app?vid=77ef2a38-e3ef-4510-81b3-93939981e4f1"},"vehicle_type_id":"4","last_reported":1730236131,"current_range_meters":9200,"station_id":"ce4bh0p2rcd13ifvqd80","pricing_plan_id":"cebpf4jnsgd1na2vs0mg"},{"bike_id":"04074040-bacb-4d8e-9554-b6d48202d7e9","system_id":"levelo_inurba_marseille","lat":43.27921,"lon":5.39577,"is_reserved":false,"is_disabled":false,"rental_uris":{"android":"levelo://app?vid=04074040-bacb-4d8e-9554-b6d48202d7e9","ios":"levelo://app?vid=04074040-bacb-4d8e-9554-b6d48202d7e9"},"vehicle_type_id":"4","last_reported":1730236131,"current_range_meters":38000,"station_id":"ce4bhf92rcd13ifvqf40","pricing_plan_id":"cebpf4jnsgd1na2vs0mg"},{"bike_id":"e9db3b7a-8c23-4ef5-a372-9ad490f0f78e","system_id":"levelo_inurba_marseille","lat":43.2953,"lon":5.3854,"is_reserved":false,"is_disabled":false,"rental_uris":{"android":"levelo://app?vid=e9db3b7a-8c23-4ef5-a372-9ad490f0f78e","ios":"levelo://app?vid=e9db3b7a-8c23-4ef5-a372-9ad490f0f78e"},"vehicle_type_id":"4","last_reported":1730236131,"current_range_meters":36800,"station_id":"ce4bgih2rcd13ifvqba0","pricing_plan_id":"cebpf4jnsgd1na2vs0mg"},{"bike_id":"cf02be3f-3203-4769-91c3-144c68a30c9d","system_id":"levelo_inurba_marseille","lat":43.31362,"lon":5.3849,"is_reserved":false,"is_disabled":false,"rental_uris":{"android":"levelo://app?vid=cf02be3f-3203-4769-91c3-144c68a30c9d","ios":"levelo://app?vid=cf02be3f-3203-4769-91c3-144c68a30c9d"},"vehicle_type_id":"4","last_reported":1730236131,"current_range_meters":34000,"station_id":"ce4bgt92rcd13ifvqcf0","pricing_plan_id":"cebpf4jnsgd1na2vs0mg"},{"bike_id":"c5ab8f86-3c93-447c-b767-f885bdebd2ff","system_id":"levelo_inurba_marseille","lat":43.27073,"lon":5.42272,"is_reserved":false,"is_disabled":false,"rental_uris":{"android":"levelo://app?vid=c5ab8f86-3c93-447c-b767-f885bdebd2ff","ios":"levelo://app?vid=c5ab8f86-3c93-447c-b767-f885bdebd2ff"},"vehicle_type_id":"4","last_reported":1730236131,"current_range_meters":39200,"station_id":"ce4bhk92rcd13ifvqgb0","pricing_plan_id":"cebpf4jnsgd1na2vs0mg"},{"bike_id":"6bfb62a6-63c3-4bd5-8676-7b2f3dd6580d","system_id":"levelo_inurba_marseille","lat":43.28153,"lon":5.42645,"is_reserved":false,"is_disabled":false,"rental_uris":{"android":"levelo://app?vid=6bfb62a6-63c3-4bd5-8676-7b2f3dd6580d","ios":"levelo://app?vid=6bfb62a6-63c3-4bd5-8676-7b2f3dd6580d"},"vehicle_type_id":"4","last_reported":1730236131,"current_range_meters":17200,"station_id":"ce4bhnh2rcd13ifvqgug","pricing_plan_id":"cebpf4jnsgd1na2vs0mg"},{"bike_id":"70bb78fe-4bef-4d56-a833-affc0bdfc9f3","system_id":"levelo_inurba_marseille","lat":43.23193,"lon":5.35558,"is_reserved":false,"is_disabled":false,"rental_uris":{"android":"levelo://app?vid=70bb78fe-4bef-4d56-a833-affc0bdfc9f3","ios":"levelo://app?vid=70bb78fe-4bef-4d56-a833-affc0bdfc9f3"},"vehicle_type_id":"4","last_reported":1730236131,"current_range_meters":38800,"station_id":"ce4bhu92rcd13ifvqi70","pricing_plan_id":"cebpf4jnsgd1na2vs0mg"},{"bike_id":"296d1ed8-f229-48e4-ac59-fe25b08d7434","system_id":"levelo_inurba_marseille","lat":43.29571,"lon":5.39977,"is_reserved":false,"is_disabled":false,"rental_uris":{"android":"levelo://app?vid=296d1ed8-f229-48e4-ac59-fe25b08d7434","ios":"levelo://app?vid=296d1ed8-f229-48e4-ac59-fe25b08d7434"},"vehicle_type_id":"4","last_reported":1730236131,"current_range_meters":38800,"station_id":"ce4bh312rcd13ifvqdj0","pricing_plan_id":"cebpf4jnsgd1na2vs0mg"},{"bike_id":"1a23e5a8-eaa2-49bf-921e-448b5e886ed3","system_id":"levelo_inurba_marseille","lat":43.28104,"lon":5.37828,"is_reserved":false,"is_disabled":false,"rental_uris":{"android":"levelo://app?vid=1a23e5a8-eaa2-49bf-921e-448b5e886ed3","ios":"levelo://app?vid=1a23e5a8-eaa2-49bf-921e-448b5e886ed3"},"vehicle_type_id":"4","last_reported":1730236131,"current_range_meters":24400,"station_id":"ce4bha12rcd13ifvqee0","pricing_plan_id":"cebpf4jnsgd1na2vs0mg"},{"bike_id":"5c244c3d-8fd7-4c95-b825-2f7fe2f15994","system_id":"levelo_inurba_marseille","lat":43.23194,"lon":5.35551,"is_reserved":false,"is_disabled":false,"rental_uris":{"android":"levelo://app?vid=5c244c3d-8fd7-4c95-b825-2f7fe2f15994","ios":"levelo://app?vid=5c244c3d-8fd7-4c95-b825-2f7fe2f15994"},"vehicle_type_id":"4","last_reported":1730236131,"current_range_meters":38800,"station_id":"ce4bhu92rcd13ifvqi70","pricing_plan_id":"cebpf4jnsgd1na2vs0mg"},{"bike_id":"2f0387da-ca2b-4df1-98f3-13a59e4d1f37","system_id":"levelo_inurba_marseille","lat":43.298737,"lon":5.397776,"is_reserved":false,"is_disabled":false,"rental_uris":{"android":"levelo://app?vid=2f0387da-ca2b-4df1-98f3-13a59e4d1f37","ios":"levelo://app?vid=2f0387da-ca2b-4df1-98f3-13a59e4d1f37"},"vehicle_type_id":"4","last_reported":1730236131,"current_range_meters":27600,"station_id":"ce4bh0h2rcd13ifvqd50","pricing_plan_id":"cebpf4jnsgd1na2vs0mg"},{"bike_id":"a55cec75-7211-434d-8bb2-95f2a4066741","system_id":"levelo_inurba_marseille","lat":43.24805,"lon":5.37458,"is_reserved":false,"is_disabled":false,"rental_uris":{"android":"levelo://app?vid=a55cec75-7211-434d-8bb2-95f2a4066741","ios":"levelo://app?vid=a55cec75-7211-434d-8bb2-95f2a4066741"},"vehicle_type_id":"4","last_reported":1730236131,"current_range_meters":6800,"station_id":"ce4bhgh2rcd13ifvqfb0","pricing_plan_id":"cebpf4jnsgd1na2vs0mg"},{"bike_id":"b09b87bc-8444-4d11-bf47-8b0e6fca0110","system_id":"levelo_inurba_marseille","lat":43.28616,"lon":5.35101,"is_reserved":false,"is_disabled":false,"rental_uris":{"android":"levelo://app?vid=b09b87bc-8444-4d11-bf47-8b0e6fca0110","ios":"levelo://app?vid=b09b87bc-8444-4d11-bf47-8b0e6fca0110"},"vehicle_type_id":"4","last_reported":1730236131,"current_range_meters":38000,"station_id":"ce4bhch2rcd13ifvqeug","pricing_plan_id":"cebpf4jnsgd1na2vs0mg"},{"bike_id":"d1438f67-e0c7-4079-8b03-735e5ece0a47","system_id":"levelo_inurba_marseille","lat":43.30908,"lon":5.36844,"is_reserved":false,"is_disabled":false,"rental_uris":{"android":"levelo://app?vid=d1438f67-e0c7-4079-8b03-735e5ece0a47","ios":"levelo://app?vid=d1438f67-e0c7-4079-8b03-735e5ece0a47"},"vehicle_type_id":"4","last_reported":1730236131,"current_range_meters":26000,"station_id":"ce4bgn92rcd13ifvqbvg","pricing_plan_id":"cebpf4jnsgd1na2vs0mg"},{"bike_id":"8fe952c7-d1f5-486e-a32b-0e7b70cce917","system_id":"levelo_inurba_marseille","lat":43.32368,"lon":5.3889,"is_reserved":false,"is_disabled":false,"rental_uris":{"android":"levelo://app?vid=8fe952c7-d1f5-486e-a32b-0e7b70cce917","ios":"levelo://app?vid=8fe952c7-d1f5-486e-a32b-0e7b70cce917"},"vehicle_type_id":"4","last_reported":1730236131,"current_range_meters":33200,"station_id":"ce4bhqp2rcd13ifvqhog","pricing_plan_id":"cebpf4jnsgd1na2vs0mg"},{"bike_id":"f5091baa-79f3-43a0-aebf-8e619aefa02a","system_id":"levelo_inurba_marseille","lat":43.24076,"lon":5.3776,"is_reserved":false,"is_disabled":false,"rental_uris":{"android":"levelo://app?vid=f5091baa-79f3-43a0-aebf-8e619aefa02a","ios":"levelo://app?vid=f5091baa-79f3-43a0-aebf-8e619aefa02a"},"vehicle_type_id":"4","last_reported":1730236131,"current_range_meters":22000,"station_id":"ce4bhnp2rcd13ifvqgvg","pricing_plan_id":"cebpf4jnsgd1na2vs0mg"},{"bike_id":"c6472a4b-15fb-475c-a800-9db188055ce2","system_id":"levelo_inurba_marseille","lat":43.25829,"lon":5.39435,"is_reserved":false,"is_disabled":false,"rental_uris":{"android":"levelo://app?vid=c6472a4b-15fb-475c-a800-9db188055ce2","ios":"levelo://app?vid=c6472a4b-15fb-475c-a800-9db188055ce2"},"vehicle_type_id":"4","last_reported":1730236131,"current_range_meters":16800,"station_id":"ce4bhip2rcd13ifvqft0","pricing_plan_id":"cebpf4jnsgd1na2vs0mg"},{"bike_id":"1001b789-5a01-41df-8dd4-852d1e877df9","system_id":"levelo_inurba_marseille","lat":43.28004,"lon":5.40003,"is_reserved":false,"is_disabled":false,"rental_uris":{"android":"levelo://app?vid=1001b789-5a01-41df-8dd4-852d1e877df9","ios":"levelo://app?vid=1001b789-5a01-41df-8dd4-852d1e877df9"},"vehicle_type_id":"4","last_reported":1730236131,"current_range_meters":35200,"station_id":"ce4bho92rcd13ifvqh4g","pricing_plan_id":"cebpf4jnsgd1na2vs0mg"},{"bike_id":"56dc04b7-06b7-4e88-ac29-730a7abdd49b","system_id":"levelo_inurba_marseille","lat":43.31364,"lon":5.38494,"is_reserved":false,"is_disabled":false,"rental_uris":{"android":"levelo://app?vid=56dc04b7-06b7-4e88-ac29-730a7abdd49b","ios":"levelo://app?vid=56dc04b7-06b7-4e88-ac29-730a7abdd49b"},"vehicle_type_id":"4","last_reported":1730236131,"current_range_meters":38800,"station_id":"ce4bgt92rcd13ifvqcf0","pricing_plan_id":"cebpf4jnsgd1na2vs0mg"},{"bike_id":"156c2210-aea2-4135-866b-b586ed1cc85b","system_id":"levelo_inurba_marseille","lat":43.28152,"lon":5.42648,"is_reserved":false,"is_disabled":false,"rental_uris":{"android":"levelo://app?vid=156c2210-aea2-4135-866b-b586ed1cc85b","ios":"levelo://app?vid=156c2210-aea2-4135-866b-b586ed1cc85b"},"vehicle_type_id":"4","last_reported":1730236131,"current_range_meters":22400,"station_id":"ce4bhnh2rcd13ifvqgug","pricing_plan_id":"cebpf4jnsgd1na2vs0mg"},{"bike_id":"92adf987-4779-4b78-ad9c-8e29ab9175f3","system_id":"levelo_inurba_marseille","lat":43.23197,"lon":5.35554,"is_reserved":false,"is_disabled":false,"rental_uris":{"android":"levelo://app?vid=92adf987-4779-4b78-ad9c-8e29ab9175f3","ios":"levelo://app?vid=92adf987-4779-4b78-ad9c-8e29ab9175f3"},"vehicle_type_id":"4","last_reported":1730236131,"current_range_meters":17200,"station_id":"ce4bhu92rcd13ifvqi70","pricing_plan_id":"cebpf4jnsgd1na2vs0mg"},{"bike_id":"6ccddc45-787b-4e0a-8482-1abb83f99cfc","system_id":"levelo_inurba_marseille","lat":43.28466,"lon":5.35893,"is_reserved":false,"is_disabled":false,"rental_uris":{"android":"levelo://app?vid=6ccddc45-787b-4e0a-8482-1abb83f99cfc","ios":"levelo://app?vid=6ccddc45-787b-4e0a-8482-1abb83f99cfc"},"vehicle_type_id":"4","last_reported":1730236131,"current_range_meters":12800,"station_id":"ce4bhah2rcd13ifvqei0","pricing_plan_id":"cebpf4jnsgd1na2vs0mg"},{"bike_id":"f4ffaf51-ca49-4b2c-b8d8-625627fc8f65","system_id":"levelo_inurba_marseille","lat":43.28151,"lon":5.42641,"is_reserved":false,"is_disabled":false,"rental_uris":{"android":"levelo://app?vid=f4ffaf51-ca49-4b2c-b8d8-625627fc8f65","ios":"levelo://app?vid=f4ffaf51-ca49-4b2c-b8d8-625627fc8f65"},"vehicle_type_id":"4","last_reported":1730236131,"current_range_meters":4400,"station_id":"ce4bhnh2rcd13ifvqgug","pricing_plan_id":"cebpf4jnsgd1na2vs0mg"},{"bike_id":"c03f3456-93bb-418a-8ce0-ca351e254b4e","system_id":"levelo_inurba_marseille","lat":43.31757,"lon":5.39014,"is_reserved":false,"is_disabled":false,"rental_uris":{"android":"levelo://app?vid=c03f3456-93bb-418a-8ce0-ca351e254b4e","ios":"levelo://app?vid=c03f3456-93bb-418a-8ce0-ca351e254b4e"},"vehicle_type_id":"4","last_reported":1730236131,"current_range_meters":38800,"station_id":"ce4bhqp2rcd13ifvqhng","pricing_plan_id":"cebpf4jnsgd1na2vs0mg"},{"bike_id":"37cb0773-ba21-47be-9d4f-f925cfb4f6e7","system_id":"levelo_inurba_marseille","lat":43.29054,"lon":5.3772,"is_reserved":false,"is_disabled":false,"rental_uris":{"android":"levelo://app?vid=37cb0773-ba21-47be-9d4f-f925cfb4f6e7","ios":"levelo://app?vid=37cb0773-ba21-47be-9d4f-f925cfb4f6e7"},"vehicle_type_id":"4","last_reported":1730236131,"current_range_meters":31200,"station_id":"","pricing_plan_id":"cebpf4jnsgd1na2vs0mg"},{"bike_id":"09a43412-c2d4-4f58-9983-2f58ced22692","system_id":"levelo_inurba_marseille","lat":43.29516,"lon":5.39405,"is_reserved":false,"is_disabled":false,"rental_uris":{"android":"levelo://app?vid=09a43412-c2d4-4f58-9983-2f58ced22692","ios":"levelo://app?vid=09a43412-c2d4-4f58-9983-2f58ced22692"},"vehicle_type_id":"4","last_reported":1730236131,"current_range_meters":38800,"station_id":"ce4bh292rcd13ifvqdf0","pricing_plan_id":"cebpf4jnsgd1na2vs0mg"},{"bike_id":"3eacef56-e200-4054-9b0c-156c6ef1c7f9","system_id":"levelo_inurba_marseille","lat":43.32405,"lon":5.36993,"is_reserved":false,"is_disabled":false,"rental_uris":{"android":"levelo://app?vid=3eacef56-e200-4054-9b0c-156c6ef1c7f9","ios":"levelo://app?vid=3eacef56-e200-4054-9b0c-156c6ef1c7f9"},"vehicle_type_id":"4","last_reported":1730236131,"current_range_meters":35200,"station_id":"","pricing_plan_id":"cebpf4jnsgd1na2vs0mg"},{"bike_id":"3928d2b2-5322-4bfc-935c-f02931565366","system_id":"levelo_inurba_marseille","lat":43.27993,"lon":5.41657,"is_reserved":false,"is_disabled":false,"rental_uris":{"android":"levelo://app?vid=3928d2b2-5322-4bfc-935c-f02931565366","ios":"levelo://app?vid=3928d2b2-5322-4bfc-935c-f02931565366"},"vehicle_type_id":"4","last_reported":1730236131,"current_range_meters":14800,"station_id":"ce4bho12rcd13ifvqh1g","pricing_plan_id":"cebpf4jnsgd1na2vs0mg"},{"bike_id":"669541bb-ec23-44c5-bb83-c3650de83fee","system_id":"levelo_inurba_marseille","lat":43.279959,"lon":5.416614,"is_reserved":false,"is_disabled":false,"rental_uris":{"android":"levelo://app?vid=669541bb-ec23-44c5-bb83-c3650de83fee","ios":"levelo://app?vid=669541bb-ec23-44c5-bb83-c3650de83fee"},"vehicle_type_id":"4","last_reported":1730236131,"current_range_meters":4000,"station_id":"ce4bho12rcd13ifvqh1g","pricing_plan_id":"cebpf4jnsgd1na2vs0mg"},{"bike_id":"27a09c7c-d5c5-423a-a504-d508c0dc9582","system_id":"levelo_inurba_marseille","lat":43.29052,"lon":5.35913,"is_reserved":false,"is_disabled":false,"rental_uris":{"android":"levelo://app?vid=27a09c7c-d5c5-423a-a504-d508c0dc9582","ios":"levelo://app?vid=27a09c7c-d5c5-423a-a504-d508c0dc9582"},"vehicle_type_id":"4","last_reported":1730236131,"current_range_meters":28400,"station_id":"ce4bha92rcd13ifvqeg0","pricing_plan_id":"cebpf4jnsgd1na2vs0mg"},{"bike_id":"00cf5808-4c37-4398-b2a6-d799d5f336a7","system_id":"levelo_inurba_marseille","lat":43.29301,"lon":5.37168,"is_reserved":false,"is_disabled":false,"rental_uris":{"android":"levelo://app?vid=00cf5808-4c37-4398-b2a6-d799d5f336a7","ios":"levelo://app?vid=00cf5808-4c37-4398-b2a6-d799d5f336a7"},"vehicle_type_id":"4","last_reported":1730236131,"current_range_meters":38800,"station_id":"ce4bgh92rcd13ifvqb40","pricing_plan_id":"cebpf4jnsgd1na2vs0mg"},{"bike_id":"e3bfaa78-9ac6-44ac-939d-83a965291944","system_id":"levelo_inurba_marseille","lat":43.29032,"lon":5.38644,"is_reserved":false,"is_disabled":false,"rental_uris":{"android":"levelo://app?vid=e3bfaa78-9ac6-44ac-939d-83a965291944","ios":"levelo://app?vid=e3bfaa78-9ac6-44ac-939d-83a965291944"},"vehicle_type_id":"4","last_reported":1730236131,"current_range_meters":25200,"station_id":"ce4bh4p2rcd13ifvqe0g","pricing_plan_id":"cebpf4jnsgd1na2vs0mg"},{"bike_id":"05bc172d-0922-4771-b6d4-b15711a07f86","system_id":"levelo_inurba_marseille","lat":43.293042,"lon":5.371796,"is_reserved":false,"is_disabled":false,"rental_uris":{"android":"levelo://app?vid=05bc172d-0922-4771-b6d4-b15711a07f86","ios":"levelo://app?vid=05bc172d-0922-4771-b6d4-b15711a07f86"},"vehicle_type_id":"4","last_reported":1730236131,"current_range_meters":38800,"station_id":"ce4bgh92rcd13ifvqb40","pricing_plan_id":"cebpf4jnsgd1na2vs0mg"},{"bike_id":"2b8094c9-b86b-40cd-828f-5b450e6cd053","system_id":"levelo_inurba_marseille","lat":43.29537,"lon":5.38534,"is_reserved":false,"is_disabled":false,"rental_uris":{"android":"levelo://app?vid=2b8094c9-b86b-40cd-828f-5b450e6cd053","ios":"levelo://app?vid=2b8094c9-b86b-40cd-828f-5b450e6cd053"},"vehicle_type_id":"4","last_reported":1730236131,"current_range_meters":37600,"station_id":"ce4bgih2rcd13ifvqba0","pricing_plan_id":"cebpf4jnsgd1na2vs0mg"},{"bike_id":"e92cc0d8-600c-46ae-b1df-056a200ba27c","system_id":"levelo_inurba_marseille","lat":43.30543,"lon":5.36701,"is_reserved":false,"is_disabled":false,"rental_uris":{"android":"levelo://app?vid=e92cc0d8-600c-46ae-b1df-056a200ba27c","ios":"levelo://app?vid=e92cc0d8-600c-46ae-b1df-056a200ba27c"},"vehicle_type_id":"4","last_reported":1730236131,"current_range_meters":16800,"station_id":"ce4bgrp2rcd13ifvqc9g","pricing_plan_id":"cebpf4jnsgd1na2vs0mg"},{"bike_id":"98068fff-0ea9-402a-83fe-c96429d47f95","system_id":"levelo_inurba_marseille","lat":43.30428,"lon":5.38883,"is_reserved":false,"is_disabled":false,"rental_uris":{"android":"levelo://app?vid=98068fff-0ea9-402a-83fe-c96429d47f95","ios":"levelo://app?vid=98068fff-0ea9-402a-83fe-c96429d47f95"},"vehicle_type_id":"4","last_reported":1730236131,"current_range_meters":13600,"station_id":"ce4bgk12rcd13ifvqbi0","pricing_plan_id":"cebpf4jnsgd1na2vs0mg"},{"bike_id":"99a3f4d5-9ad7-4614-a88f-03f2ed75ead3","system_id":"levelo_inurba_marseille","lat":43.31698,"lon":5.37732,"is_reserved":false,"is_disabled":false,"rental_uris":{"android":"levelo://app?vid=99a3f4d5-9ad7-4614-a88f-03f2ed75ead3","ios":"levelo://app?vid=99a3f4d5-9ad7-4614-a88f-03f2ed75ead3"},"vehicle_type_id":"4","last_reported":1730236131,"current_range_meters":6800,"station_id":"ce4bgth2rcd13ifvqch0","pricing_plan_id":"cebpf4jnsgd1na2vs0mg"},{"bike_id":"5867dd38-1697-41f0-976b-2886f1b58d27","system_id":"levelo_inurba_marseille","lat":43.28433,"lon":5.39186,"is_reserved":false,"is_disabled":false,"rental_uris":{"android":"levelo://app?vid=5867dd38-1697-41f0-976b-2886f1b58d27","ios":"levelo://app?vid=5867dd38-1697-41f0-976b-2886f1b58d27"},"vehicle_type_id":"4","last_reported":1730236131,"current_range_meters":38800,"station_id":"ce4bhoh2rcd13ifvqh5g","pricing_plan_id":"cebpf4jnsgd1na2vs0mg"},{"bike_id":"a499e673-4f57-4342-9063-be4db69af0ba","system_id":"levelo_inurba_marseille","lat":43.31485,"lon":5.3731,"is_reserved":false,"is_disabled":false,"rental_uris":{"android":"levelo://app?vid=a499e673-4f57-4342-9063-be4db69af0ba","ios":"levelo://app?vid=a499e673-4f57-4342-9063-be4db69af0ba"},"vehicle_type_id":"4","last_reported":1730236131,"current_range_meters":38800,"station_id":"ce4bgt12rcd13ifvqcd0","pricing_plan_id":"cebpf4jnsgd1na2vs0mg"},{"bike_id":"54454bef-56f4-4fd7-9cf7-c57a75a8c623","system_id":"levelo_inurba_marseille","lat":43.31705,"lon":5.37753,"is_reserved":false,"is_disabled":false,"rental_uris":{"android":"levelo://app?vid=54454bef-56f4-4fd7-9cf7-c57a75a8c623","ios":"levelo://app?vid=54454bef-56f4-4fd7-9cf7-c57a75a8c623"},"vehicle_type_id":"4","last_reported":1730236131,"current_range_meters":38800,"station_id":"ce4bgth2rcd13ifvqch0","pricing_plan_id":"cebpf4jnsgd1na2vs0mg"},{"bike_id":"48a7f9a7-5997-4a71-93c4-4bd439cd730f","system_id":"levelo_inurba_marseille","lat":43.29516,"lon":5.37505,"is_reserved":false,"is_disabled":false,"rental_uris":{"android":"levelo://app?vid=48a7f9a7-5997-4a71-93c4-4bd439cd730f","ios":"levelo://app?vid=48a7f9a7-5997-4a71-93c4-4bd439cd730f"},"vehicle_type_id":"4","last_reported":1730236131,"current_range_meters":38800,"station_id":"ce4bgkp2rcd13ifvqbmg","pricing_plan_id":"cebpf4jnsgd1na2vs0mg"},{"bike_id":"5373ffcc-0b02-41dc-81cc-6ed5b3d356c1","system_id":"levelo_inurba_marseille","lat":43.28458,"lon":5.35881,"is_reserved":false,"is_disabled":false,"rental_uris":{"android":"levelo://app?vid=5373ffcc-0b02-41dc-81cc-6ed5b3d356c1","ios":"levelo://app?vid=5373ffcc-0b02-41dc-81cc-6ed5b3d356c1"},"vehicle_type_id":"4","last_reported":1730236131,"current_range_meters":24400,"station_id":"ce4bhah2rcd13ifvqei0","pricing_plan_id":"cebpf4jnsgd1na2vs0mg"},{"bike_id":"1b7c0da6-aeef-41a8-83ca-3f8e0b976156","system_id":"levelo_inurba_marseille","lat":43.269955,"lon":5.387771,"is_reserved":false,"is_disabled":false,"rental_uris":{"android":"levelo://app?vid=1b7c0da6-aeef-41a8-83ca-3f8e0b976156","ios":"levelo://app?vid=1b7c0da6-aeef-41a8-83ca-3f8e0b976156"},"vehicle_type_id":"4","last_reported":1730236131,"current_range_meters":38800,"station_id":"ce4bhhh2rcd13ifvqfl0","pricing_plan_id":"cebpf4jnsgd1na2vs0mg"},{"bike_id":"2bbe4ba3-28a7-466c-a1aa-9a203e58ce42","system_id":"levelo_inurba_marseille","lat":43.30295,"lon":5.39217,"is_reserved":false,"is_disabled":false,"rental_uris":{"android":"levelo://app?vid=2bbe4ba3-28a7-466c-a1aa-9a203e58ce42","ios":"levelo://app?vid=2bbe4ba3-28a7-466c-a1aa-9a203e58ce42"},"vehicle_type_id":"4","last_reported":1730236131,"current_range_meters":10800,"station_id":"ce4bgkh2rcd13ifvqbk0","pricing_plan_id":"cebpf4jnsgd1na2vs0mg"},{"bike_id":"538c6c97-8738-4e40-afde-1ced2fc6b778","system_id":"levelo_inurba_marseille","lat":43.33719,"lon":5.39183,"is_reserved":false,"is_disabled":false,"rental_uris":{"android":"levelo://app?vid=538c6c97-8738-4e40-afde-1ced2fc6b778","ios":"levelo://app?vid=538c6c97-8738-4e40-afde-1ced2fc6b778"},"vehicle_type_id":"4","last_reported":1730236131,"current_range_meters":38800,"station_id":"ce4bhr92rcd13ifvqhsg","pricing_plan_id":"cebpf4jnsgd1na2vs0mg"},{"bike_id":"b17d831e-9fa3-4c76-993c-3485bc5641c6","system_id":"levelo_inurba_marseille","lat":43.30799,"lon":5.4352,"is_reserved":false,"is_disabled":false,"rental_uris":{"android":"levelo://app?vid=b17d831e-9fa3-4c76-993c-3485bc5641c6","ios":"levelo://app?vid=b17d831e-9fa3-4c76-993c-3485bc5641c6"},"vehicle_type_id":"4","last_reported":1730236131,"current_range_meters":3200,"station_id":"ce4bhph2rcd13ifvqheg","pricing_plan_id":"cebpf4jnsgd1na2vs0mg"},{"bike_id":"1d54f9a9-581d-4e82-b989-fb7dda0e194b","system_id":"levelo_inurba_marseille","lat":43.26569,"lon":5.38993,"is_reserved":false,"is_disabled":false,"rental_uris":{"android":"levelo://app?vid=1d54f9a9-581d-4e82-b989-fb7dda0e194b","ios":"levelo://app?vid=1d54f9a9-581d-4e82-b989-fb7dda0e194b"},"vehicle_type_id":"4","last_reported":1730236131,"current_range_meters":12800,"station_id":"ce4bhe12rcd13ifvqf30","pricing_plan_id":"cebpf4jnsgd1na2vs0mg"},{"bike_id":"03e26363-1adc-494c-8098-91070571fba5","system_id":"levelo_inurba_marseille","lat":43.23193,"lon":5.35547,"is_reserved":false,"is_disabled":false,"rental_uris":{"android":"levelo://app?vid=03e26363-1adc-494c-8098-91070571fba5","ios":"levelo://app?vid=03e26363-1adc-494c-8098-91070571fba5"},"vehicle_type_id":"4","last_reported":1730236131,"current_range_meters":34800,"station_id":"ce4bhu92rcd13ifvqi70","pricing_plan_id":"cebpf4jnsgd1na2vs0mg"},{"bike_id":"c497513d-9d1d-4320-a1e3-875a8b21d4c5","system_id":"levelo_inurba_marseille","lat":43.2718,"lon":5.40994,"is_reserved":false,"is_disabled":false,"rental_uris":{"android":"levelo://app?vid=c497513d-9d1d-4320-a1e3-875a8b21d4c5","ios":"levelo://app?vid=c497513d-9d1d-4320-a1e3-875a8b21d4c5"},"vehicle_type_id":"4","last_reported":1730236131,"current_range_meters":36000,"station_id":"ce4bhl12rcd13ifvqgf0","pricing_plan_id":"cebpf4jnsgd1na2vs0mg"},{"bike_id":"3f296890-19ce-46b6-884b-d2e34dba8783","system_id":"levelo_inurba_marseille","lat":43.24811,"lon":5.3746,"is_reserved":false,"is_disabled":false,"rental_uris":{"android":"levelo://app?vid=3f296890-19ce-46b6-884b-d2e34dba8783","ios":"levelo://app?vid=3f296890-19ce-46b6-884b-d2e34dba8783"},"vehicle_type_id":"4","last_reported":1730236131,"current_range_meters":38800,"station_id":"ce4bhgh2rcd13ifvqfb0","pricing_plan_id":"cebpf4jnsgd1na2vs0mg"},{"bike_id":"e0fe10b0-ce38-4f4b-aa95-0e43ac241740","system_id":"levelo_inurba_marseille","lat":43.32366,"lon":5.38886,"is_reserved":false,"is_disabled":false,"rental_uris":{"android":"levelo://app?vid=e0fe10b0-ce38-4f4b-aa95-0e43ac241740","ios":"levelo://app?vid=e0fe10b0-ce38-4f4b-aa95-0e43ac241740"},"vehicle_type_id":"4","last_reported":1730236131,"current_range_meters":32000,"station_id":"ce4bhqp2rcd13ifvqhog","pricing_plan_id":"cebpf4jnsgd1na2vs0mg"},{"bike_id":"b888f11d-4cca-4019-9c0c-d6d69a667f3e","system_id":"levelo_inurba_marseille","lat":43.27569,"lon":5.38429,"is_reserved":false,"is_disabled":false,"rental_uris":{"android":"levelo://app?vid=b888f11d-4cca-4019-9c0c-d6d69a667f3e","ios":"levelo://app?vid=b888f11d-4cca-4019-9c0c-d6d69a667f3e"},"vehicle_type_id":"4","last_reported":1730236131,"current_range_meters":38800,"station_id":"ce4bhh92rcd13ifvqfi0","pricing_plan_id":"cebpf4jnsgd1na2vs0mg"},{"bike_id":"e1b8f9fb-e491-40ed-a82e-b7180152c511","system_id":"levelo_inurba_marseille","lat":43.23959,"lon":5.36638,"is_reserved":false,"is_disabled":false,"rental_uris":{"android":"levelo://app?vid=e1b8f9fb-e491-40ed-a82e-b7180152c511","ios":"levelo://app?vid=e1b8f9fb-e491-40ed-a82e-b7180152c511"},"vehicle_type_id":"4","last_reported":1730236131,"current_range_meters":36000,"station_id":"ce4bhi12rcd13ifvqfp0","pricing_plan_id":"cebpf4jnsgd1na2vs0mg"},{"bike_id":"8fc8f69f-228e-4754-8013-e3713d197b92","system_id":"levelo_inurba_marseille","lat":43.24664,"lon":5.38165,"is_reserved":false,"is_disabled":false,"rental_uris":{"android":"levelo://app?vid=8fc8f69f-228e-4754-8013-e3713d197b92","ios":"levelo://app?vid=8fc8f69f-228e-4754-8013-e3713d197b92"},"vehicle_type_id":"4","last_reported":1730236131,"current_range_meters":3600,"station_id":"ce4bhih2rcd13ifvqfr0","pricing_plan_id":"cebpf4jnsgd1na2vs0mg"},{"bike_id":"6b778970-7ca1-4912-8b3b-f071e3ca997e","system_id":"levelo_inurba_marseille","lat":43.31271,"lon":5.40174,"is_reserved":false,"is_disabled":false,"rental_uris":{"android":"levelo://app?vid=6b778970-7ca1-4912-8b3b-f071e3ca997e","ios":"levelo://app?vid=6b778970-7ca1-4912-8b3b-f071e3ca997e"},"vehicle_type_id":"4","last_reported":1730236131,"current_range_meters":38000,"station_id":"","pricing_plan_id":"cebpf4jnsgd1na2vs0mg"},{"bike_id":"a306c469-7544-4489-af82-e9fb1e9b4215","system_id":"levelo_inurba_marseille","lat":43.23187,"lon":5.39974,"is_reserved":false,"is_disabled":false,"rental_uris":{"android":"levelo://app?vid=a306c469-7544-4489-af82-e9fb1e9b4215","ios":"levelo://app?vid=a306c469-7544-4489-af82-e9fb1e9b4215"},"vehicle_type_id":"4","last_reported":1730236131,"current_range_meters":25200,"station_id":"ce4bhn12rcd13ifvqgqg","pricing_plan_id":"cebpf4jnsgd1na2vs0mg"},{"bike_id":"670dd631-18b7-4713-a903-23b5a1df838c","system_id":"levelo_inurba_marseille","lat":43.28568,"lon":5.395,"is_reserved":false,"is_disabled":false,"rental_uris":{"android":"levelo://app?vid=670dd631-18b7-4713-a903-23b5a1df838c","ios":"levelo://app?vid=670dd631-18b7-4713-a903-23b5a1df838c"},"vehicle_type_id":"4","last_reported":1730236131,"current_range_meters":38000,"station_id":"ce4bh292rcd13ifvqdg0","pricing_plan_id":"cebpf4jnsgd1na2vs0mg"},{"bike_id":"c8b0ddcb-9c74-47bf-bfe0-29fe3f9c6036","system_id":"levelo_inurba_marseille","lat":43.30593,"lon":5.3935,"is_reserved":false,"is_disabled":false,"rental_uris":{"android":"levelo://app?vid=c8b0ddcb-9c74-47bf-bfe0-29fe3f9c6036","ios":"levelo://app?vid=c8b0ddcb-9c74-47bf-bfe0-29fe3f9c6036"},"vehicle_type_id":"4","last_reported":1730236131,"current_range_meters":39200,"station_id":"ce4bh0p2rcd13ifvqd80","pricing_plan_id":"cebpf4jnsgd1na2vs0mg"},{"bike_id":"54a5c660-0697-4f90-958c-80c8ac286835","system_id":"levelo_inurba_marseille","lat":43.28613,"lon":5.35106,"is_reserved":false,"is_disabled":false,"rental_uris":{"android":"levelo://app?vid=54a5c660-0697-4f90-958c-80c8ac286835","ios":"levelo://app?vid=54a5c660-0697-4f90-958c-80c8ac286835"},"vehicle_type_id":"4","last_reported":1730236131,"current_range_meters":4800,"station_id":"ce4bhch2rcd13ifvqeug","pricing_plan_id":"cebpf4jnsgd1na2vs0mg"},{"bike_id":"95ce8da4-47fe-462b-a370-38ca4912fb9f","system_id":"levelo_inurba_marseille","lat":43.30099,"lon":5.39064,"is_reserved":false,"is_disabled":false,"rental_uris":{"android":"levelo://app?vid=95ce8da4-47fe-462b-a370-38ca4912fb9f","ios":"levelo://app?vid=95ce8da4-47fe-462b-a370-38ca4912fb9f"},"vehicle_type_id":"4","last_reported":1730236131,"current_range_meters":38800,"station_id":"ce4bh192rcd13ifvqdb0","pricing_plan_id":"cebpf4jnsgd1na2vs0mg"},{"bike_id":"025d079b-cbaf-4865-808b-d0a75535846a","system_id":"levelo_inurba_marseille","lat":43.25724,"lon":5.41108,"is_reserved":false,"is_disabled":false,"rental_uris":{"android":"levelo://app?vid=025d079b-cbaf-4865-808b-d0a75535846a","ios":"levelo://app?vid=025d079b-cbaf-4865-808b-d0a75535846a"},"vehicle_type_id":"4","last_reported":1730236131,"current_range_meters":16800,"station_id":"ce4bhkp2rcd13ifvqgd0","pricing_plan_id":"cebpf4jnsgd1na2vs0mg"},{"bike_id":"ad8fd308-ff6f-45fc-9b50-3e03cbf09dc0","system_id":"levelo_inurba_marseille","lat":43.29781,"lon":5.38074,"is_reserved":false,"is_disabled":false,"rental_uris":{"android":"levelo://app?vid=ad8fd308-ff6f-45fc-9b50-3e03cbf09dc0","ios":"levelo://app?vid=ad8fd308-ff6f-45fc-9b50-3e03cbf09dc0"},"vehicle_type_id":"4","last_reported":1730236131,"current_range_meters":27200,"station_id":"ce4bgip2rcd13ifvqbb0","pricing_plan_id":"cebpf4jnsgd1na2vs0mg"},{"bike_id":"65ebd49a-94e0-4731-b170-9f1ac0fc0675","system_id":"levelo_inurba_marseille","lat":43.31539,"lon":5.38027,"is_reserved":false,"is_disabled":false,"rental_uris":{"android":"levelo://app?vid=65ebd49a-94e0-4731-b170-9f1ac0fc0675","ios":"levelo://app?vid=65ebd49a-94e0-4731-b170-9f1ac0fc0675"},"vehicle_type_id":"4","last_reported":1730236131,"current_range_meters":27200,"station_id":"ce4bhsp2rcd13ifvqi50","pricing_plan_id":"cebpf4jnsgd1na2vs0mg"},{"bike_id":"041ec194-3f5c-487a-9756-9961793b5622","system_id":"levelo_inurba_marseille","lat":43.27993,"lon":5.40012,"is_reserved":false,"is_disabled":false,"rental_uris":{"android":"levelo://app?vid=041ec194-3f5c-487a-9756-9961793b5622","ios":"levelo://app?vid=041ec194-3f5c-487a-9756-9961793b5622"},"vehicle_type_id":"4","last_reported":1730236131,"current_range_meters":20400,"station_id":"ce4bho92rcd13ifvqh4g","pricing_plan_id":"cebpf4jnsgd1na2vs0mg"},{"bike_id":"ec06eb51-e6dd-407e-90ef-bd6841b0a5f2","system_id":"levelo_inurba_marseille","lat":43.29284,"lon":5.40116,"is_reserved":false,"is_disabled":false,"rental_uris":{"android":"levelo://app?vid=ec06eb51-e6dd-407e-90ef-bd6841b0a5f2","ios":"levelo://app?vid=ec06eb51-e6dd-407e-90ef-bd6841b0a5f2"},"vehicle_type_id":"4","last_reported":1730236131,"current_range_meters":38800,"station_id":"ce4bh312rcd13ifvqdk0","pricing_plan_id":"cebpf4jnsgd1na2vs0mg"},{"bike_id":"89c5b7f2-f893-4671-96cb-1270981b81a6","system_id":"levelo_inurba_marseille","lat":43.27954,"lon":5.3871,"is_reserved":false,"is_disabled":false,"rental_uris":{"android":"levelo://app?vid=89c5b7f2-f893-4671-96cb-1270981b81a6","ios":"levelo://app?vid=89c5b7f2-f893-4671-96cb-1270981b81a6"},"vehicle_type_id":"4","last_reported":1730236131,"current_range_meters":38800,"station_id":"ce4bhg12rcd13ifvqf80","pricing_plan_id":"cebpf4jnsgd1na2vs0mg"},{"bike_id":"60d8ea4c-a707-440f-9b73-c70e3a871214","system_id":"levelo_inurba_marseille","lat":43.28858,"lon":5.39318,"is_reserved":false,"is_disabled":false,"rental_uris":{"android":"levelo://app?vid=60d8ea4c-a707-440f-9b73-c70e3a871214","ios":"levelo://app?vid=60d8ea4c-a707-440f-9b73-c70e3a871214"},"vehicle_type_id":"4","last_reported":1730236131,"current_range_meters":38400,"station_id":"ce4bh2p2rcd13ifvqdi0","pricing_plan_id":"cebpf4jnsgd1na2vs0mg"},{"bike_id":"50a524bd-cb9d-4577-85ff-28358100b8a7","system_id":"levelo_inurba_marseille","lat":43.29566,"lon":5.3997,"is_reserved":false,"is_disabled":false,"rental_uris":{"android":"levelo://app?vid=50a524bd-cb9d-4577-85ff-28358100b8a7","ios":"levelo://app?vid=50a524bd-cb9d-4577-85ff-28358100b8a7"},"vehicle_type_id":"4","last_reported":1730236131,"current_range_meters":10000,"station_id":"ce4bh312rcd13ifvqdj0","pricing_plan_id":"cebpf4jnsgd1na2vs0mg"},{"bike_id":"6cddfcd3-8c25-494e-b3bc-2b688952c40f","system_id":"levelo_inurba_marseille","lat":43.2942,"lon":5.38631,"is_reserved":false,"is_disabled":false,"rental_uris":{"android":"levelo://app?vid=6cddfcd3-8c25-494e-b3bc-2b688952c40f","ios":"levelo://app?vid=6cddfcd3-8c25-494e-b3bc-2b688952c40f"},"vehicle_type_id":"4","last_reported":1730236131,"current_range_meters":8000,"station_id":"ce4bh2h2rcd13ifvqdh0","pricing_plan_id":"cebpf4jnsgd1na2vs0mg"},{"bike_id":"20dfae4b-0d18-410b-9f7f-08675354fd6a","system_id":"levelo_inurba_marseille","lat":43.30431,"lon":5.38886,"is_reserved":false,"is_disabled":false,"rental_uris":{"android":"levelo://app?vid=20dfae4b-0d18-410b-9f7f-08675354fd6a","ios":"levelo://app?vid=20dfae4b-0d18-410b-9f7f-08675354fd6a"},"vehicle_type_id":"4","last_reported":1730236131,"current_range_meters":20000,"station_id":"ce4bgk12rcd13ifvqbi0","pricing_plan_id":"cebpf4jnsgd1na2vs0mg"},{"bike_id":"71386a70-93fb-4328-bcf4-ce864fb65d75","system_id":"levelo_inurba_marseille","lat":43.28414,"lon":5.34981,"is_reserved":false,"is_disabled":false,"rental_uris":{"android":"levelo://app?vid=71386a70-93fb-4328-bcf4-ce864fb65d75","ios":"levelo://app?vid=71386a70-93fb-4328-bcf4-ce864fb65d75"},"vehicle_type_id":"4","last_reported":1730236131,"current_range_meters":16000,"station_id":"ce4bhbh2rcd13ifvqepg","pricing_plan_id":"cebpf4jnsgd1na2vs0mg"},{"bike_id":"f58f03d1-9e6f-45be-983e-90f0e7108f6a","system_id":"levelo_inurba_marseille","lat":43.29533,"lon":5.38537,"is_reserved":false,"is_disabled":false,"rental_uris":{"android":"levelo://app?vid=f58f03d1-9e6f-45be-983e-90f0e7108f6a","ios":"levelo://app?vid=f58f03d1-9e6f-45be-983e-90f0e7108f6a"},"vehicle_type_id":"4","last_reported":1730236131,"current_range_meters":27600,"station_id":"ce4bgih2rcd13ifvqba0","pricing_plan_id":"cebpf4jnsgd1na2vs0mg"},{"bike_id":"9d46e0b2-b7a2-490a-aca2-06a1d5481623","system_id":"levelo_inurba_marseille","lat":43.28064,"lon":5.42111,"is_reserved":false,"is_disabled":false,"rental_uris":{"android":"levelo://app?vid=9d46e0b2-b7a2-490a-aca2-06a1d5481623","ios":"levelo://app?vid=9d46e0b2-b7a2-490a-aca2-06a1d5481623"},"vehicle_type_id":"4","last_reported":1730236131,"current_range_meters":15200,"station_id":"","pricing_plan_id":"cebpf4jnsgd1na2vs0mg"},{"bike_id":"fe2904da-4ac6-42de-b232-dbec16338c49","system_id":"levelo_inurba_marseille","lat":43.33688,"lon":5.35751,"is_reserved":false,"is_disabled":false,"rental_uris":{"android":"levelo://app?vid=fe2904da-4ac6-42de-b232-dbec16338c49","ios":"levelo://app?vid=fe2904da-4ac6-42de-b232-dbec16338c49"},"vehicle_type_id":"4","last_reported":1730236131,"current_range_meters":27600,"station_id":"","pricing_plan_id":"cebpf4jnsgd1na2vs0mg"},{"bike_id":"b262cfeb-626e-4bda-ad49-fd734da053d7","system_id":"levelo_inurba_marseille","lat":43.30213,"lon":5.39462,"is_reserved":false,"is_disabled":false,"rental_uris":{"android":"levelo://app?vid=b262cfeb-626e-4bda-ad49-fd734da053d7","ios":"levelo://app?vid=b262cfeb-626e-4bda-ad49-fd734da053d7"},"vehicle_type_id":"4","last_reported":1730236131,"current_range_meters":38800,"station_id":"ce4bh0p2rcd13ifvqd70","pricing_plan_id":"cebpf4jnsgd1na2vs0mg"},{"bike_id":"8c21361d-0a09-4a9b-b3f9-d4801ad13bf9","system_id":"levelo_inurba_marseille","lat":43.29804,"lon":5.40401,"is_reserved":false,"is_disabled":false,"rental_uris":{"android":"levelo://app?vid=8c21361d-0a09-4a9b-b3f9-d4801ad13bf9","ios":"levelo://app?vid=8c21361d-0a09-4a9b-b3f9-d4801ad13bf9"},"vehicle_type_id":"4","last_reported":1730236131,"current_range_meters":32000,"station_id":"ce4bh112rcd13ifvqd90","pricing_plan_id":"cebpf4jnsgd1na2vs0mg"},{"bike_id":"2993c697-6133-453e-a19f-f16b7888e84b","system_id":"levelo_inurba_marseille","lat":43.31116,"lon":5.37772,"is_reserved":false,"is_disabled":false,"rental_uris":{"android":"levelo://app?vid=2993c697-6133-453e-a19f-f16b7888e84b","ios":"levelo://app?vid=2993c697-6133-453e-a19f-f16b7888e84b"},"vehicle_type_id":"4","last_reported":1730236131,"current_range_meters":38800,"station_id":"ce4bgt92rcd13ifvqcg0","pricing_plan_id":"cebpf4jnsgd1na2vs0mg"},{"bike_id":"56e7cf53-9329-4857-afd0-bf9c5007df45","system_id":"levelo_inurba_marseille","lat":43.25823,"lon":5.39431,"is_reserved":false,"is_disabled":false,"rental_uris":{"android":"levelo://app?vid=56e7cf53-9329-4857-afd0-bf9c5007df45","ios":"levelo://app?vid=56e7cf53-9329-4857-afd0-bf9c5007df45"},"vehicle_type_id":"4","last_reported":1730236131,"current_range_meters":28800,"station_id":"ce4bhip2rcd13ifvqft0","pricing_plan_id":"cebpf4jnsgd1na2vs0mg"},{"bike_id":"929fd36a-b9f6-4c7f-b391-f23b6a1f32b4","system_id":"levelo_inurba_marseille","lat":43.3125,"lon":5.37074,"is_reserved":false,"is_disabled":false,"rental_uris":{"android":"levelo://app?vid=929fd36a-b9f6-4c7f-b391-f23b6a1f32b4","ios":"levelo://app?vid=929fd36a-b9f6-4c7f-b391-f23b6a1f32b4"},"vehicle_type_id":"4","last_reported":1730236131,"current_range_meters":32000,"station_id":"","pricing_plan_id":"cebpf4jnsgd1na2vs0mg"},{"bike_id":"679dca57-da96-4bee-8ea5-7e5fca4614c3","system_id":"levelo_inurba_marseille","lat":43.28106,"lon":5.37842,"is_reserved":false,"is_disabled":false,"rental_uris":{"android":"levelo://app?vid=679dca57-da96-4bee-8ea5-7e5fca4614c3","ios":"levelo://app?vid=679dca57-da96-4bee-8ea5-7e5fca4614c3"},"vehicle_type_id":"4","last_reported":1730236131,"current_range_meters":16000,"station_id":"ce4bha12rcd13ifvqee0","pricing_plan_id":"cebpf4jnsgd1na2vs0mg"},{"bike_id":"273eda43-a923-4aa8-a82f-1c7c3a464cf2","system_id":"levelo_inurba_marseille","lat":43.29417,"lon":5.38626,"is_reserved":false,"is_disabled":false,"rental_uris":{"android":"levelo://app?vid=273eda43-a923-4aa8-a82f-1c7c3a464cf2","ios":"levelo://app?vid=273eda43-a923-4aa8-a82f-1c7c3a464cf2"},"vehicle_type_id":"4","last_reported":1730236131,"current_range_meters":7200,"station_id":"ce4bh2h2rcd13ifvqdh0","pricing_plan_id":"cebpf4jnsgd1na2vs0mg"},{"bike_id":"25e90825-819c-494a-9a04-12bbb0c56b6b","system_id":"levelo_inurba_marseille","lat":43.31536,"lon":5.3803,"is_reserved":false,"is_disabled":false,"rental_uris":{"android":"levelo://app?vid=25e90825-819c-494a-9a04-12bbb0c56b6b","ios":"levelo://app?vid=25e90825-819c-494a-9a04-12bbb0c56b6b"},"vehicle_type_id":"4","last_reported":1730236131,"current_range_meters":30400,"station_id":"ce4bhsp2rcd13ifvqi50","pricing_plan_id":"cebpf4jnsgd1na2vs0mg"},{"bike_id":"fe0d64c0-ec38-4c5f-97fd-73683173eb6e","system_id":"levelo_inurba_marseille","lat":43.27994,"lon":5.40014,"is_reserved":false,"is_disabled":false,"rental_uris":{"android":"levelo://app?vid=fe0d64c0-ec38-4c5f-97fd-73683173eb6e","ios":"levelo://app?vid=fe0d64c0-ec38-4c5f-97fd-73683173eb6e"},"vehicle_type_id":"4","last_reported":1730236131,"current_range_meters":37600,"station_id":"ce4bho92rcd13ifvqh4g","pricing_plan_id":"cebpf4jnsgd1na2vs0mg"},{"bike_id":"a8e7d07b-6931-4533-bc70-51aecce152a4","system_id":"levelo_inurba_marseille","lat":43.25818,"lon":5.39426,"is_reserved":false,"is_disabled":false,"rental_uris":{"android":"levelo://app?vid=a8e7d07b-6931-4533-bc70-51aecce152a4","ios":"levelo://app?vid=a8e7d07b-6931-4533-bc70-51aecce152a4"},"vehicle_type_id":"4","last_reported":1730236131,"current_range_meters":36000,"station_id":"ce4bhip2rcd13ifvqft0","pricing_plan_id":"cebpf4jnsgd1na2vs0mg"},{"bike_id":"28cbcf23-5ad0-4746-be8b-7a028cbebf33","system_id":"levelo_inurba_marseille","lat":43.3265,"lon":5.38866,"is_reserved":false,"is_disabled":false,"rental_uris":{"android":"levelo://app?vid=28cbcf23-5ad0-4746-be8b-7a028cbebf33","ios":"levelo://app?vid=28cbcf23-5ad0-4746-be8b-7a028cbebf33"},"vehicle_type_id":"4","last_reported":1730236131,"current_range_meters":32000,"station_id":"","pricing_plan_id":"cebpf4jnsgd1na2vs0mg"},{"bike_id":"f1b39d68-8ebd-4024-a59f-097526725f93","system_id":"levelo_inurba_marseille","lat":43.29277,"lon":5.40112,"is_reserved":false,"is_disabled":false,"rental_uris":{"android":"levelo://app?vid=f1b39d68-8ebd-4024-a59f-097526725f93","ios":"levelo://app?vid=f1b39d68-8ebd-4024-a59f-097526725f93"},"vehicle_type_id":"4","last_reported":1730236131,"current_range_meters":10800,"station_id":"ce4bh312rcd13ifvqdk0","pricing_plan_id":"cebpf4jnsgd1na2vs0mg"},{"bike_id":"6c55372d-3929-4cf2-b4ea-30149f454df3","system_id":"levelo_inurba_marseille","lat":43.28001,"lon":5.3999,"is_reserved":false,"is_disabled":false,"rental_uris":{"android":"levelo://app?vid=6c55372d-3929-4cf2-b4ea-30149f454df3","ios":"levelo://app?vid=6c55372d-3929-4cf2-b4ea-30149f454df3"},"vehicle_type_id":"4","last_reported":1730236131,"current_range_meters":30000,"station_id":"ce4bho92rcd13ifvqh4g","pricing_plan_id":"cebpf4jnsgd1na2vs0mg"},{"bike_id":"a37d3a5d-d5f1-4765-a473-29fdd132fa14","system_id":"levelo_inurba_marseille","lat":43.2781,"lon":5.40706,"is_reserved":false,"is_disabled":false,"rental_uris":{"android":"levelo://app?vid=a37d3a5d-d5f1-4765-a473-29fdd132fa14","ios":"levelo://app?vid=a37d3a5d-d5f1-4765-a473-29fdd132fa14"},"vehicle_type_id":"4","last_reported":1730236131,"current_range_meters":26000,"station_id":"ce4bhnh2rcd13ifvqgtg","pricing_plan_id":"cebpf4jnsgd1na2vs0mg"},{"bike_id":"ffb0b1ae-5a7c-4775-bcce-95b890558e6d","system_id":"levelo_inurba_marseille","lat":43.29416,"lon":5.38624,"is_reserved":false,"is_disabled":false,"rental_uris":{"android":"levelo://app?vid=ffb0b1ae-5a7c-4775-bcce-95b890558e6d","ios":"levelo://app?vid=ffb0b1ae-5a7c-4775-bcce-95b890558e6d"},"vehicle_type_id":"4","last_reported":1730236131,"current_range_meters":38800,"station_id":"ce4bh2h2rcd13ifvqdh0","pricing_plan_id":"cebpf4jnsgd1na2vs0mg"},{"bike_id":"de26d2e3-435f-4444-a71a-85f92f4cf820","system_id":"levelo_inurba_marseille","lat":43.29528,"lon":5.3904,"is_reserved":false,"is_disabled":false,"rental_uris":{"android":"levelo://app?vid=de26d2e3-435f-4444-a71a-85f92f4cf820","ios":"levelo://app?vid=de26d2e3-435f-4444-a71a-85f92f4cf820"},"vehicle_type_id":"4","last_reported":1730236131,"current_range_meters":26000,"station_id":"ce4bh3p2rcd13ifvqdp0","pricing_plan_id":"cebpf4jnsgd1na2vs0mg"},{"bike_id":"fe831fe5-8016-4099-a869-a23caf4d36e2","system_id":"levelo_inurba_marseille","lat":43.28002,"lon":5.40018,"is_reserved":false,"is_disabled":false,"rental_uris":{"android":"levelo://app?vid=fe831fe5-8016-4099-a869-a23caf4d36e2","ios":"levelo://app?vid=fe831fe5-8016-4099-a869-a23caf4d36e2"},"vehicle_type_id":"4","last_reported":1730236131,"current_range_meters":16400,"station_id":"ce4bho92rcd13ifvqh4g","pricing_plan_id":"cebpf4jnsgd1na2vs0mg"},{"bike_id":"03486306-1054-4a4e-94ec-39bd77e6ae84","system_id":"levelo_inurba_marseille","lat":43.29415,"lon":5.38626,"is_reserved":false,"is_disabled":false,"rental_uris":{"android":"levelo://app?vid=03486306-1054-4a4e-94ec-39bd77e6ae84","ios":"levelo://app?vid=03486306-1054-4a4e-94ec-39bd77e6ae84"},"vehicle_type_id":"4","last_reported":1730236131,"current_range_meters":36000,"station_id":"ce4bh2h2rcd13ifvqdh0","pricing_plan_id":"cebpf4jnsgd1na2vs0mg"},{"bike_id":"2d198377-2c19-4e5f-b7b9-5acc4795c543","system_id":"levelo_inurba_marseille","lat":43.31757,"lon":5.39015,"is_reserved":false,"is_disabled":false,"rental_uris":{"android":"levelo://app?vid=2d198377-2c19-4e5f-b7b9-5acc4795c543","ios":"levelo://app?vid=2d198377-2c19-4e5f-b7b9-5acc4795c543"},"vehicle_type_id":"4","last_reported":1730236131,"current_range_meters":12000,"station_id":"ce4bhqp2rcd13ifvqhng","pricing_plan_id":"cebpf4jnsgd1na2vs0mg"},{"bike_id":"5da84c8a-0785-4f55-b177-f17040c2e314","system_id":"levelo_inurba_marseille","lat":43.31883,"lon":5.40733,"is_reserved":false,"is_disabled":false,"rental_uris":{"android":"levelo://app?vid=5da84c8a-0785-4f55-b177-f17040c2e314","ios":"levelo://app?vid=5da84c8a-0785-4f55-b177-f17040c2e314"},"vehicle_type_id":"4","last_reported":1730236131,"current_range_meters":16800,"station_id":"ce4bhq12rcd13ifvqhig","pricing_plan_id":"cebpf4jnsgd1na2vs0mg"},{"bike_id":"09d492e2-2ee7-4c84-8fee-714f6057eee0","system_id":"levelo_inurba_marseille","lat":43.29318,"lon":5.37181,"is_reserved":false,"is_disabled":false,"rental_uris":{"android":"levelo://app?vid=09d492e2-2ee7-4c84-8fee-714f6057eee0","ios":"levelo://app?vid=09d492e2-2ee7-4c84-8fee-714f6057eee0"},"vehicle_type_id":"4","last_reported":1730236131,"current_range_meters":12400,"station_id":"ce4bgh92rcd13ifvqb40","pricing_plan_id":"cebpf4jnsgd1na2vs0mg"},{"bike_id":"27008629-77ea-4b6c-a735-e44b58489269","system_id":"levelo_inurba_marseille","lat":43.30212,"lon":5.39464,"is_reserved":false,"is_disabled":false,"rental_uris":{"android":"levelo://app?vid=27008629-77ea-4b6c-a735-e44b58489269","ios":"levelo://app?vid=27008629-77ea-4b6c-a735-e44b58489269"},"vehicle_type_id":"4","last_reported":1730236131,"current_range_meters":39200,"station_id":"ce4bh0p2rcd13ifvqd70","pricing_plan_id":"cebpf4jnsgd1na2vs0mg"},{"bike_id":"f547fca8-aa5f-43c5-8951-d00cad1c45c2","system_id":"levelo_inurba_marseille","lat":43.25105,"lon":5.40322,"is_reserved":false,"is_disabled":false,"rental_uris":{"android":"levelo://app?vid=f547fca8-aa5f-43c5-8951-d00cad1c45c2","ios":"levelo://app?vid=f547fca8-aa5f-43c5-8951-d00cad1c45c2"},"vehicle_type_id":"4","last_reported":1730236131,"current_range_meters":38800,"station_id":"ce4bhlh2rcd13ifvqgig","pricing_plan_id":"cebpf4jnsgd1na2vs0mg"},{"bike_id":"a1f83bf3-eed6-45ed-a98a-d29a1a4fe512","system_id":"levelo_inurba_marseille","lat":43.2994,"lon":5.41319,"is_reserved":false,"is_disabled":false,"rental_uris":{"android":"levelo://app?vid=a1f83bf3-eed6-45ed-a98a-d29a1a4fe512","ios":"levelo://app?vid=a1f83bf3-eed6-45ed-a98a-d29a1a4fe512"},"vehicle_type_id":"4","last_reported":1730236131,"current_range_meters":26800,"station_id":"ce4bhp12rcd13ifvqh9g","pricing_plan_id":"cebpf4jnsgd1na2vs0mg"},{"bike_id":"8c663904-263f-4f11-a08c-ef85e2b66331","system_id":"levelo_inurba_marseille","lat":43.30538,"lon":5.38416,"is_reserved":false,"is_disabled":false,"rental_uris":{"android":"levelo://app?vid=8c663904-263f-4f11-a08c-ef85e2b66331","ios":"levelo://app?vid=8c663904-263f-4f11-a08c-ef85e2b66331"},"vehicle_type_id":"4","last_reported":1730236131,"current_range_meters":11600,"station_id":"ce4bgg92rcd13ifvqb30","pricing_plan_id":"cebpf4jnsgd1na2vs0mg"},{"bike_id":"347bff64-ab95-471b-8234-be618711ef95","system_id":"levelo_inurba_marseille","lat":43.30904,"lon":5.37179,"is_reserved":false,"is_disabled":false,"rental_uris":{"android":"levelo://app?vid=347bff64-ab95-471b-8234-be618711ef95","ios":"levelo://app?vid=347bff64-ab95-471b-8234-be618711ef95"},"vehicle_type_id":"4","last_reported":1730236131,"current_range_meters":38400,"station_id":"ce4bguh2rcd13ifvqckg","pricing_plan_id":"cebpf4jnsgd1na2vs0mg"},{"bike_id":"84ab4192-78ed-432b-9976-1559aadfc733","system_id":"levelo_inurba_marseille","lat":43.28099,"lon":5.37834,"is_reserved":false,"is_disabled":false,"rental_uris":{"android":"levelo://app?vid=84ab4192-78ed-432b-9976-1559aadfc733","ios":"levelo://app?vid=84ab4192-78ed-432b-9976-1559aadfc733"},"vehicle_type_id":"4","last_reported":1730236131,"current_range_meters":6800,"station_id":"ce4bha12rcd13ifvqee0","pricing_plan_id":"cebpf4jnsgd1na2vs0mg"},{"bike_id":"b1c67828-9aad-4850-8399-2bbe8cd09f0b","system_id":"levelo_inurba_marseille","lat":43.27371,"lon":5.36252,"is_reserved":false,"is_disabled":false,"rental_uris":{"android":"levelo://app?vid=b1c67828-9aad-4850-8399-2bbe8cd09f0b","ios":"levelo://app?vid=b1c67828-9aad-4850-8399-2bbe8cd09f0b"},"vehicle_type_id":"4","last_reported":1730236131,"current_range_meters":38800,"station_id":"ce4bhbh2rcd13ifvqeo0","pricing_plan_id":"cebpf4jnsgd1na2vs0mg"},{"bike_id":"074dde76-011d-4814-a0ca-ea37cd171c68","system_id":"levelo_inurba_marseille","lat":43.28487,"lon":5.38546,"is_reserved":false,"is_disabled":false,"rental_uris":{"android":"levelo://app?vid=074dde76-011d-4814-a0ca-ea37cd171c68","ios":"levelo://app?vid=074dde76-011d-4814-a0ca-ea37cd171c68"},"vehicle_type_id":"4","last_reported":1730236131,"current_range_meters":23200,"station_id":"ce4bh8p2rcd13ifvqeb0","pricing_plan_id":"cebpf4jnsgd1na2vs0mg"},{"bike_id":"766801a5-7dbd-464a-bc56-398e14b9cf78","system_id":"levelo_inurba_marseille","lat":43.29805,"lon":5.37136,"is_reserved":false,"is_disabled":false,"rental_uris":{"android":"levelo://app?vid=766801a5-7dbd-464a-bc56-398e14b9cf78","ios":"levelo://app?vid=766801a5-7dbd-464a-bc56-398e14b9cf78"},"vehicle_type_id":"4","last_reported":1730236131,"current_range_meters":9200,"station_id":"","pricing_plan_id":"cebpf4jnsgd1na2vs0mg"},{"bike_id":"afc8a59e-718c-432c-b226-d6be0903e5fb","system_id":"levelo_inurba_marseille","lat":43.24386,"lon":5.3706,"is_reserved":false,"is_disabled":false,"rental_uris":{"android":"levelo://app?vid=afc8a59e-718c-432c-b226-d6be0903e5fb","ios":"levelo://app?vid=afc8a59e-718c-432c-b226-d6be0903e5fb"},"vehicle_type_id":"4","last_reported":1730236131,"current_range_meters":36400,"station_id":"ce4bhhh2rcd13ifvqfk0","pricing_plan_id":"cebpf4jnsgd1na2vs0mg"},{"bike_id":"05a3978c-ae8f-4c2d-81da-9a71e84d639d","system_id":"levelo_inurba_marseille","lat":43.29415,"lon":5.38626,"is_reserved":false,"is_disabled":false,"rental_uris":{"android":"levelo://app?vid=05a3978c-ae8f-4c2d-81da-9a71e84d639d","ios":"levelo://app?vid=05a3978c-ae8f-4c2d-81da-9a71e84d639d"},"vehicle_type_id":"4","last_reported":1730236131,"current_range_meters":38800,"station_id":"ce4bh2h2rcd13ifvqdh0","pricing_plan_id":"cebpf4jnsgd1na2vs0mg"},{"bike_id":"11251c6c-600b-4fea-b096-d4aec94ae7b7","system_id":"levelo_inurba_marseille","lat":43.30934,"lon":5.40141,"is_reserved":false,"is_disabled":false,"rental_uris":{"android":"levelo://app?vid=11251c6c-600b-4fea-b096-d4aec94ae7b7","ios":"levelo://app?vid=11251c6c-600b-4fea-b096-d4aec94ae7b7"},"vehicle_type_id":"4","last_reported":1730236131,"current_range_meters":38800,"station_id":"ce4bgvp2rcd13ifvqct0","pricing_plan_id":"cebpf4jnsgd1na2vs0mg"},{"bike_id":"f70c948d-188a-4845-9596-725c49994275","system_id":"levelo_inurba_marseille","lat":43.2985,"lon":5.36282,"is_reserved":false,"is_disabled":false,"rental_uris":{"android":"levelo://app?vid=f70c948d-188a-4845-9596-725c49994275","ios":"levelo://app?vid=f70c948d-188a-4845-9596-725c49994275"},"vehicle_type_id":"4","last_reported":1730236131,"current_range_meters":25200,"station_id":"ce4bgpp2rcd13ifvqc3g","pricing_plan_id":"cebpf4jnsgd1na2vs0mg"},{"bike_id":"77dc0b08-ea4e-4b2d-b82f-fcf9cdff2fbe","system_id":"levelo_inurba_marseille","lat":43.28662,"lon":5.36349,"is_reserved":false,"is_disabled":false,"rental_uris":{"android":"levelo://app?vid=77dc0b08-ea4e-4b2d-b82f-fcf9cdff2fbe","ios":"levelo://app?vid=77dc0b08-ea4e-4b2d-b82f-fcf9cdff2fbe"},"vehicle_type_id":"4","last_reported":1730236131,"current_range_meters":38800,"station_id":"ce4bhah2rcd13ifvqej0","pricing_plan_id":"cebpf4jnsgd1na2vs0mg"},{"bike_id":"84a34f64-d710-4f7b-8f16-f367a9f930e0","system_id":"levelo_inurba_marseille","lat":43.26071,"lon":5.39396,"is_reserved":false,"is_disabled":false,"rental_uris":{"android":"levelo://app?vid=84a34f64-d710-4f7b-8f16-f367a9f930e0","ios":"levelo://app?vid=84a34f64-d710-4f7b-8f16-f367a9f930e0"},"vehicle_type_id":"4","last_reported":1730236131,"current_range_meters":28400,"station_id":"ce4bhh92rcd13ifvqfj0","pricing_plan_id":"cebpf4jnsgd1na2vs0mg"},{"bike_id":"a1a6c8b4-85d6-4f26-805f-292d516d4f6e","system_id":"levelo_inurba_marseille","lat":43.30417,"lon":5.41282,"is_reserved":false,"is_disabled":false,"rental_uris":{"android":"levelo://app?vid=a1a6c8b4-85d6-4f26-805f-292d516d4f6e","ios":"levelo://app?vid=a1a6c8b4-85d6-4f26-805f-292d516d4f6e"},"vehicle_type_id":"4","last_reported":1730236131,"current_range_meters":9600,"station_id":"ce4bhop2rcd13ifvqh8g","pricing_plan_id":"cebpf4jnsgd1na2vs0mg"},{"bike_id":"cb064066-78cc-46a4-8914-cf6b29079875","system_id":"levelo_inurba_marseille","lat":43.28462,"lon":5.35875,"is_reserved":false,"is_disabled":false,"rental_uris":{"android":"levelo://app?vid=cb064066-78cc-46a4-8914-cf6b29079875","ios":"levelo://app?vid=cb064066-78cc-46a4-8914-cf6b29079875"},"vehicle_type_id":"4","last_reported":1730236131,"current_range_meters":33200,"station_id":"ce4bhah2rcd13ifvqei0","pricing_plan_id":"cebpf4jnsgd1na2vs0mg"},{"bike_id":"b3aee190-30d4-43a7-b0cd-f0b8cd9e9c75","system_id":"levelo_inurba_marseille","lat":43.29265,"lon":5.38436,"is_reserved":false,"is_disabled":false,"rental_uris":{"android":"levelo://app?vid=b3aee190-30d4-43a7-b0cd-f0b8cd9e9c75","ios":"levelo://app?vid=b3aee190-30d4-43a7-b0cd-f0b8cd9e9c75"},"vehicle_type_id":"4","last_reported":1730236131,"current_range_meters":8800,"station_id":"ce4bh692rcd13ifvqea0","pricing_plan_id":"cebpf4jnsgd1na2vs0mg"},{"bike_id":"2966780b-0f60-40f9-a892-727c73084b14","system_id":"levelo_inurba_marseille","lat":43.29298,"lon":5.37157,"is_reserved":false,"is_disabled":false,"rental_uris":{"android":"levelo://app?vid=2966780b-0f60-40f9-a892-727c73084b14","ios":"levelo://app?vid=2966780b-0f60-40f9-a892-727c73084b14"},"vehicle_type_id":"4","last_reported":1730236131,"current_range_meters":38800,"station_id":"ce4bgh92rcd13ifvqb40","pricing_plan_id":"cebpf4jnsgd1na2vs0mg"},{"bike_id":"c4fb2b63-d869-4f37-ac85-13c077f4f6fb","system_id":"levelo_inurba_marseille","lat":43.29309,"lon":5.37171,"is_reserved":false,"is_disabled":false,"rental_uris":{"android":"levelo://app?vid=c4fb2b63-d869-4f37-ac85-13c077f4f6fb","ios":"levelo://app?vid=c4fb2b63-d869-4f37-ac85-13c077f4f6fb"},"vehicle_type_id":"4","last_reported":1730236131,"current_range_meters":32800,"station_id":"ce4bgh92rcd13ifvqb40","pricing_plan_id":"cebpf4jnsgd1na2vs0mg"},{"bike_id":"b6548595-0140-4e44-a88a-0c6255596315","system_id":"levelo_inurba_marseille","lat":43.29629,"lon":5.40592,"is_reserved":false,"is_disabled":false,"rental_uris":{"android":"levelo://app?vid=b6548595-0140-4e44-a88a-0c6255596315","ios":"levelo://app?vid=b6548595-0140-4e44-a88a-0c6255596315"},"vehicle_type_id":"4","last_reported":1730236131,"current_range_meters":36000,"station_id":"ce4bh0h2rcd13ifvqd60","pricing_plan_id":"cebpf4jnsgd1na2vs0mg"},{"bike_id":"2372c5d2-97af-446e-b56b-a226889e1485","system_id":"levelo_inurba_marseille","lat":43.32487,"lon":5.36559,"is_reserved":false,"is_disabled":false,"rental_uris":{"android":"levelo://app?vid=2372c5d2-97af-446e-b56b-a226889e1485","ios":"levelo://app?vid=2372c5d2-97af-446e-b56b-a226889e1485"},"vehicle_type_id":"4","last_reported":1730236131,"current_range_meters":36400,"station_id":"ce4bhs12rcd13ifvqhvg","pricing_plan_id":"cebpf4jnsgd1na2vs0mg"},{"bike_id":"63eeab84-de0e-4e4e-8979-ad0b23453e88","system_id":"levelo_inurba_marseille","lat":43.31531,"lon":5.38034,"is_reserved":false,"is_disabled":false,"rental_uris":{"android":"levelo://app?vid=63eeab84-de0e-4e4e-8979-ad0b23453e88","ios":"levelo://app?vid=63eeab84-de0e-4e4e-8979-ad0b23453e88"},"vehicle_type_id":"4","last_reported":1730236131,"current_range_meters":29600,"station_id":"ce4bhsp2rcd13ifvqi50","pricing_plan_id":"cebpf4jnsgd1na2vs0mg"},{"bike_id":"f0b90e8d-5a51-4c94-9d64-b125714c6e82","system_id":"levelo_inurba_marseille","lat":43.30007,"lon":5.38251,"is_reserved":false,"is_disabled":false,"rental_uris":{"android":"levelo://app?vid=f0b90e8d-5a51-4c94-9d64-b125714c6e82","ios":"levelo://app?vid=f0b90e8d-5a51-4c94-9d64-b125714c6e82"},"vehicle_type_id":"4","last_reported":1730236131,"current_range_meters":30400,"station_id":"","pricing_plan_id":"cebpf4jnsgd1na2vs0mg"},{"bike_id":"a06aaa3a-469c-4c08-9a71-0d7e5c362262","system_id":"levelo_inurba_marseille","lat":43.33723,"lon":5.39184,"is_reserved":false,"is_disabled":false,"rental_uris":{"android":"levelo://app?vid=a06aaa3a-469c-4c08-9a71-0d7e5c362262","ios":"levelo://app?vid=a06aaa3a-469c-4c08-9a71-0d7e5c362262"},"vehicle_type_id":"4","last_reported":1730236131,"current_range_meters":30400,"station_id":"ce4bhr92rcd13ifvqhsg","pricing_plan_id":"cebpf4jnsgd1na2vs0mg"},{"bike_id":"656cfb95-3be1-4fc8-a44a-1d5bcd9ba12a","system_id":"levelo_inurba_marseille","lat":43.26788,"lon":5.39409,"is_reserved":false,"is_disabled":false,"rental_uris":{"android":"levelo://app?vid=656cfb95-3be1-4fc8-a44a-1d5bcd9ba12a","ios":"levelo://app?vid=656cfb95-3be1-4fc8-a44a-1d5bcd9ba12a"},"vehicle_type_id":"4","last_reported":1730236131,"current_range_meters":39200,"station_id":"ce4bhh12rcd13ifvqfg0","pricing_plan_id":"cebpf4jnsgd1na2vs0mg"},{"bike_id":"9db6af96-1243-48a7-88ae-d2f63cb9cb8a","system_id":"levelo_inurba_marseille","lat":43.32332,"lon":5.40621,"is_reserved":false,"is_disabled":false,"rental_uris":{"android":"levelo://app?vid=9db6af96-1243-48a7-88ae-d2f63cb9cb8a","ios":"levelo://app?vid=9db6af96-1243-48a7-88ae-d2f63cb9cb8a"},"vehicle_type_id":"4","last_reported":1730236131,"current_range_meters":16400,"station_id":"ce4bhq92rcd13ifvqhjg","pricing_plan_id":"cebpf4jnsgd1na2vs0mg"},{"bike_id":"1d1594d6-46b0-4025-89ff-d9977b3ba4c5","system_id":"levelo_inurba_marseille","lat":43.27567,"lon":5.38404,"is_reserved":false,"is_disabled":false,"rental_uris":{"android":"levelo://app?vid=1d1594d6-46b0-4025-89ff-d9977b3ba4c5","ios":"levelo://app?vid=1d1594d6-46b0-4025-89ff-d9977b3ba4c5"},"vehicle_type_id":"4","last_reported":1730236131,"current_range_meters":24000,"station_id":"ce4bhh92rcd13ifvqfi0","pricing_plan_id":"cebpf4jnsgd1na2vs0mg"},{"bike_id":"e6011b99-38ff-409a-9dfc-e5eaed959b39","system_id":"levelo_inurba_marseille","lat":43.290289,"lon":5.386503,"is_reserved":false,"is_disabled":false,"rental_uris":{"android":"levelo://app?vid=e6011b99-38ff-409a-9dfc-e5eaed959b39","ios":"levelo://app?vid=e6011b99-38ff-409a-9dfc-e5eaed959b39"},"vehicle_type_id":"4","last_reported":1730236131,"current_range_meters":22000,"station_id":"ce4bh4p2rcd13ifvqe0g","pricing_plan_id":"cebpf4jnsgd1na2vs0mg"},{"bike_id":"a2033bb2-eadb-4f5c-9bc3-d71843cbff93","system_id":"levelo_inurba_marseille","lat":43.29022,"lon":5.38133,"is_reserved":false,"is_disabled":false,"rental_uris":{"android":"levelo://app?vid=a2033bb2-eadb-4f5c-9bc3-d71843cbff93","ios":"levelo://app?vid=a2033bb2-eadb-4f5c-9bc3-d71843cbff93"},"vehicle_type_id":"4","last_reported":1730236131,"current_range_meters":32400,"station_id":"ce4bh4p2rcd13ifvqe1g","pricing_plan_id":"cebpf4jnsgd1na2vs0mg"},{"bike_id":"43592e83-736f-49dc-ac79-7ac23346077e","system_id":"levelo_inurba_marseille","lat":43.302173,"lon":5.394751,"is_reserved":false,"is_disabled":false,"rental_uris":{"android":"levelo://app?vid=43592e83-736f-49dc-ac79-7ac23346077e","ios":"levelo://app?vid=43592e83-736f-49dc-ac79-7ac23346077e"},"vehicle_type_id":"4","last_reported":1730236131,"current_range_meters":38800,"station_id":"ce4bh0p2rcd13ifvqd70","pricing_plan_id":"cebpf4jnsgd1na2vs0mg"},{"bike_id":"d5d14dc0-8891-4fd5-9b82-0a5d52f52385","system_id":"levelo_inurba_marseille","lat":43.29264,"lon":5.38434,"is_reserved":false,"is_disabled":false,"rental_uris":{"android":"levelo://app?vid=d5d14dc0-8891-4fd5-9b82-0a5d52f52385","ios":"levelo://app?vid=d5d14dc0-8891-4fd5-9b82-0a5d52f52385"},"vehicle_type_id":"4","last_reported":1730236131,"current_range_meters":16000,"station_id":"ce4bh692rcd13ifvqea0","pricing_plan_id":"cebpf4jnsgd1na2vs0mg"},{"bike_id":"13c85d59-c7cb-409d-b7e2-9aa757f7035f","system_id":"levelo_inurba_marseille","lat":43.32658,"lon":5.40995,"is_reserved":false,"is_disabled":false,"rental_uris":{"android":"levelo://app?vid=13c85d59-c7cb-409d-b7e2-9aa757f7035f","ios":"levelo://app?vid=13c85d59-c7cb-409d-b7e2-9aa757f7035f"},"vehicle_type_id":"4","last_reported":1730236131,"current_range_meters":9200,"station_id":"ce4bhpp2rcd13ifvqhgg","pricing_plan_id":"cebpf4jnsgd1na2vs0mg"},{"bike_id":"99d2b6c3-4379-4a9a-933b-2d5a9480f4f1","system_id":"levelo_inurba_marseille","lat":43.31539,"lon":5.38036,"is_reserved":false,"is_disabled":false,"rental_uris":{"android":"levelo://app?vid=99d2b6c3-4379-4a9a-933b-2d5a9480f4f1","ios":"levelo://app?vid=99d2b6c3-4379-4a9a-933b-2d5a9480f4f1"},"vehicle_type_id":"4","last_reported":1730236131,"current_range_meters":38800,"station_id":"ce4bhsp2rcd13ifvqi50","pricing_plan_id":"cebpf4jnsgd1na2vs0mg"},{"bike_id":"47832e39-2d4e-4b96-b109-6ccdf85ac365","system_id":"levelo_inurba_marseille","lat":43.317,"lon":5.37753,"is_reserved":false,"is_disabled":false,"rental_uris":{"android":"levelo://app?vid=47832e39-2d4e-4b96-b109-6ccdf85ac365","ios":"levelo://app?vid=47832e39-2d4e-4b96-b109-6ccdf85ac365"},"vehicle_type_id":"4","last_reported":1730236131,"current_range_meters":24000,"station_id":"ce4bgth2rcd13ifvqch0","pricing_plan_id":"cebpf4jnsgd1na2vs0mg"},{"bike_id":"5ea475d8-fbf3-460f-872c-01c8b0273f69","system_id":"levelo_inurba_marseille","lat":43.2305,"lon":5.35495,"is_reserved":false,"is_disabled":false,"rental_uris":{"android":"levelo://app?vid=5ea475d8-fbf3-460f-872c-01c8b0273f69","ios":"levelo://app?vid=5ea475d8-fbf3-460f-872c-01c8b0273f69"},"vehicle_type_id":"4","last_reported":1730236131,"current_range_meters":11600,"station_id":"cpo3342slgdg3j2ifvpg","pricing_plan_id":"cebpf4jnsgd1na2vs0mg"},{"bike_id":"2be9bc22-5c5c-4737-9da1-744ca95ac8b4","system_id":"levelo_inurba_marseille","lat":43.32659,"lon":5.40997,"is_reserved":false,"is_disabled":false,"rental_uris":{"android":"levelo://app?vid=2be9bc22-5c5c-4737-9da1-744ca95ac8b4","ios":"levelo://app?vid=2be9bc22-5c5c-4737-9da1-744ca95ac8b4"},"vehicle_type_id":"4","last_reported":1730236131,"current_range_meters":8000,"station_id":"ce4bhpp2rcd13ifvqhgg","pricing_plan_id":"cebpf4jnsgd1na2vs0mg"},{"bike_id":"dd0972d2-2bf5-4c36-9c89-550a52989c38","system_id":"levelo_inurba_marseille","lat":43.2407,"lon":5.37756,"is_reserved":false,"is_disabled":false,"rental_uris":{"android":"levelo://app?vid=dd0972d2-2bf5-4c36-9c89-550a52989c38","ios":"levelo://app?vid=dd0972d2-2bf5-4c36-9c89-550a52989c38"},"vehicle_type_id":"4","last_reported":1730236131,"current_range_meters":9600,"station_id":"ce4bhnp2rcd13ifvqgvg","pricing_plan_id":"cebpf4jnsgd1na2vs0mg"},{"bike_id":"319628af-6ed0-4c6b-85da-8e8cbc64e217","system_id":"levelo_inurba_marseille","lat":43.24393,"lon":5.37058,"is_reserved":false,"is_disabled":false,"rental_uris":{"android":"levelo://app?vid=319628af-6ed0-4c6b-85da-8e8cbc64e217","ios":"levelo://app?vid=319628af-6ed0-4c6b-85da-8e8cbc64e217"},"vehicle_type_id":"4","last_reported":1730236131,"current_range_meters":38800,"station_id":"ce4bhhh2rcd13ifvqfk0","pricing_plan_id":"cebpf4jnsgd1na2vs0mg"},{"bike_id":"5c77d39d-11aa-429c-98b6-75adc29345da","system_id":"levelo_inurba_marseille","lat":43.28408,"lon":5.37507,"is_reserved":false,"is_disabled":false,"rental_uris":{"android":"levelo://app?vid=5c77d39d-11aa-429c-98b6-75adc29345da","ios":"levelo://app?vid=5c77d39d-11aa-429c-98b6-75adc29345da"},"vehicle_type_id":"4","last_reported":1730236131,"current_range_meters":38800,"station_id":"ce4bh412rcd13ifvqds0","pricing_plan_id":"cebpf4jnsgd1na2vs0mg"},{"bike_id":"5aecf52a-143c-4328-8118-c219e78a16dc","system_id":"levelo_inurba_marseille","lat":43.24804,"lon":5.37454,"is_reserved":false,"is_disabled":false,"rental_uris":{"android":"levelo://app?vid=5aecf52a-143c-4328-8118-c219e78a16dc","ios":"levelo://app?vid=5aecf52a-143c-4328-8118-c219e78a16dc"},"vehicle_type_id":"4","last_reported":1730236131,"current_range_meters":35200,"station_id":"ce4bhgh2rcd13ifvqfb0","pricing_plan_id":"cebpf4jnsgd1na2vs0mg"},{"bike_id":"9582f19d-4375-4f71-8445-ded897086cb3","system_id":"levelo_inurba_marseille","lat":43.2979,"lon":5.39351,"is_reserved":false,"is_disabled":false,"rental_uris":{"android":"levelo://app?vid=9582f19d-4375-4f71-8445-ded897086cb3","ios":"levelo://app?vid=9582f19d-4375-4f71-8445-ded897086cb3"},"vehicle_type_id":"4","last_reported":1730236131,"current_range_meters":17200,"station_id":"chh1huq6cuj3fo74tm60","pricing_plan_id":"cebpf4jnsgd1na2vs0mg"},{"bike_id":"843bf457-956f-4404-85fa-ddcfd83ca154","system_id":"levelo_inurba_marseille","lat":43.29514,"lon":5.39036,"is_reserved":false,"is_disabled":false,"rental_uris":{"android":"levelo://app?vid=843bf457-956f-4404-85fa-ddcfd83ca154","ios":"levelo://app?vid=843bf457-956f-4404-85fa-ddcfd83ca154"},"vehicle_type_id":"4","last_reported":1730236131,"current_range_meters":26800,"station_id":"ce4bh3p2rcd13ifvqdp0","pricing_plan_id":"cebpf4jnsgd1na2vs0mg"},{"bike_id":"b032dfcf-4e26-4322-bd52-698311f945e5","system_id":"levelo_inurba_marseille","lat":43.31165,"lon":5.38712,"is_reserved":false,"is_disabled":false,"rental_uris":{"android":"levelo://app?vid=b032dfcf-4e26-4322-bd52-698311f945e5","ios":"levelo://app?vid=b032dfcf-4e26-4322-bd52-698311f945e5"},"vehicle_type_id":"4","last_reported":1730236131,"current_range_meters":38800,"station_id":"ce4bgv12rcd13ifvqcp0","pricing_plan_id":"cebpf4jnsgd1na2vs0mg"},{"bike_id":"5a0a6089-a30b-4bc3-acd2-1a625f83eeb8","system_id":"levelo_inurba_marseille","lat":43.31894,"lon":5.40731,"is_reserved":false,"is_disabled":false,"rental_uris":{"android":"levelo://app?vid=5a0a6089-a30b-4bc3-acd2-1a625f83eeb8","ios":"levelo://app?vid=5a0a6089-a30b-4bc3-acd2-1a625f83eeb8"},"vehicle_type_id":"4","last_reported":1730236131,"current_range_meters":28000,"station_id":"ce4bhq12rcd13ifvqhig","pricing_plan_id":"cebpf4jnsgd1na2vs0mg"},{"bike_id":"804a3165-8f3c-4486-82de-90909af6e07a","system_id":"levelo_inurba_marseille","lat":43.29978,"lon":5.3718,"is_reserved":false,"is_disabled":false,"rental_uris":{"android":"levelo://app?vid=804a3165-8f3c-4486-82de-90909af6e07a","ios":"levelo://app?vid=804a3165-8f3c-4486-82de-90909af6e07a"},"vehicle_type_id":"4","last_reported":1730236131,"current_range_meters":36800,"station_id":"ce4bgr92rcd13ifvqc7g","pricing_plan_id":"cebpf4jnsgd1na2vs0mg"},{"bike_id":"6e4502cc-6a5c-42e8-b654-9b5d1b374830","system_id":"levelo_inurba_marseille","lat":43.3078,"lon":5.37645,"is_reserved":false,"is_disabled":false,"rental_uris":{"android":"levelo://app?vid=6e4502cc-6a5c-42e8-b654-9b5d1b374830","ios":"levelo://app?vid=6e4502cc-6a5c-42e8-b654-9b5d1b374830"},"vehicle_type_id":"4","last_reported":1730236131,"current_range_meters":38800,"station_id":"ce4bgv92rcd13ifvqcq0","pricing_plan_id":"cebpf4jnsgd1na2vs0mg"},{"bike_id":"11020be5-5e68-48a3-917f-f538ed3d5207","system_id":"levelo_inurba_marseille","lat":43.29032,"lon":5.38115,"is_reserved":false,"is_disabled":false,"rental_uris":{"android":"levelo://app?vid=11020be5-5e68-48a3-917f-f538ed3d5207","ios":"levelo://app?vid=11020be5-5e68-48a3-917f-f538ed3d5207"},"vehicle_type_id":"4","last_reported":1730236131,"current_range_meters":36800,"station_id":"ce4bh4p2rcd13ifvqe1g","pricing_plan_id":"cebpf4jnsgd1na2vs0mg"},{"bike_id":"80333497-1bc3-4cba-adbc-20f8b45cb3a1","system_id":"levelo_inurba_marseille","lat":43.25088,"lon":5.39515,"is_reserved":false,"is_disabled":false,"rental_uris":{"android":"levelo://app?vid=80333497-1bc3-4cba-adbc-20f8b45cb3a1","ios":"levelo://app?vid=80333497-1bc3-4cba-adbc-20f8b45cb3a1"},"vehicle_type_id":"4","last_reported":1730236131,"current_range_meters":35600,"station_id":"ce4bhm12rcd13ifvqgkg","pricing_plan_id":"cebpf4jnsgd1na2vs0mg"},{"bike_id":"74a24eac-91b3-47f2-8f8d-1db517d144bf","system_id":"levelo_inurba_marseille","lat":43.29263,"lon":5.38436,"is_reserved":false,"is_disabled":false,"rental_uris":{"android":"levelo://app?vid=74a24eac-91b3-47f2-8f8d-1db517d144bf","ios":"levelo://app?vid=74a24eac-91b3-47f2-8f8d-1db517d144bf"},"vehicle_type_id":"4","last_reported":1730236131,"current_range_meters":8400,"station_id":"ce4bh692rcd13ifvqea0","pricing_plan_id":"cebpf4jnsgd1na2vs0mg"},{"bike_id":"28af1b8f-4d76-4463-aa72-b0d4b3ed8936","system_id":"levelo_inurba_marseille","lat":43.28,"lon":5.40022,"is_reserved":false,"is_disabled":false,"rental_uris":{"android":"levelo://app?vid=28af1b8f-4d76-4463-aa72-b0d4b3ed8936","ios":"levelo://app?vid=28af1b8f-4d76-4463-aa72-b0d4b3ed8936"},"vehicle_type_id":"4","last_reported":1730236131,"current_range_meters":27200,"station_id":"ce4bho92rcd13ifvqh4g","pricing_plan_id":"cebpf4jnsgd1na2vs0mg"},{"bike_id":"977b269d-22d8-4b1e-88e8-a2a02784183e","system_id":"levelo_inurba_marseille","lat":43.27993,"lon":5.40011,"is_reserved":false,"is_disabled":false,"rental_uris":{"android":"levelo://app?vid=977b269d-22d8-4b1e-88e8-a2a02784183e","ios":"levelo://app?vid=977b269d-22d8-4b1e-88e8-a2a02784183e"},"vehicle_type_id":"4","last_reported":1730236131,"current_range_meters":27200,"station_id":"ce4bho92rcd13ifvqh4g","pricing_plan_id":"cebpf4jnsgd1na2vs0mg"},{"bike_id":"c8ef3d06-424b-4084-a839-d037aab9cd63","system_id":"levelo_inurba_marseille","lat":43.313528,"lon":5.385076,"is_reserved":false,"is_disabled":false,"rental_uris":{"android":"levelo://app?vid=c8ef3d06-424b-4084-a839-d037aab9cd63","ios":"levelo://app?vid=c8ef3d06-424b-4084-a839-d037aab9cd63"},"vehicle_type_id":"4","last_reported":1730236131,"current_range_meters":16800,"station_id":"ce4bgt92rcd13ifvqcf0","pricing_plan_id":"cebpf4jnsgd1na2vs0mg"},{"bike_id":"8d6ee0a5-a130-4d51-9d86-482e1de1a708","system_id":"levelo_inurba_marseille","lat":43.2952,"lon":5.3904,"is_reserved":false,"is_disabled":false,"rental_uris":{"android":"levelo://app?vid=8d6ee0a5-a130-4d51-9d86-482e1de1a708","ios":"levelo://app?vid=8d6ee0a5-a130-4d51-9d86-482e1de1a708"},"vehicle_type_id":"4","last_reported":1730236131,"current_range_meters":34000,"station_id":"ce4bh3p2rcd13ifvqdp0","pricing_plan_id":"cebpf4jnsgd1na2vs0mg"},{"bike_id":"55acca0f-e468-4790-9279-9a520809013d","system_id":"levelo_inurba_marseille","lat":43.2861,"lon":5.37066,"is_reserved":false,"is_disabled":false,"rental_uris":{"android":"levelo://app?vid=55acca0f-e468-4790-9279-9a520809013d","ios":"levelo://app?vid=55acca0f-e468-4790-9279-9a520809013d"},"vehicle_type_id":"4","last_reported":1730236131,"current_range_meters":38800,"station_id":"ce4bht12rcd13ifvqi60","pricing_plan_id":"cebpf4jnsgd1na2vs0mg"},{"bike_id":"d4c87a5e-8e0d-4458-bf88-20b8bfaca958","system_id":"levelo_inurba_marseille","lat":43.29773,"lon":5.37098,"is_reserved":false,"is_disabled":false,"rental_uris":{"android":"levelo://app?vid=d4c87a5e-8e0d-4458-bf88-20b8bfaca958","ios":"levelo://app?vid=d4c87a5e-8e0d-4458-bf88-20b8bfaca958"},"vehicle_type_id":"4","last_reported":1730236131,"current_range_meters":38800,"station_id":"ce4bgop2rcd13ifvqc1g","pricing_plan_id":"cebpf4jnsgd1na2vs0mg"},{"bike_id":"d330032c-578a-40e3-99e4-e077b38f5f89","system_id":"levelo_inurba_marseille","lat":43.30887,"lon":5.39645,"is_reserved":false,"is_disabled":false,"rental_uris":{"android":"levelo://app?vid=d330032c-578a-40e3-99e4-e077b38f5f89","ios":"levelo://app?vid=d330032c-578a-40e3-99e4-e077b38f5f89"},"vehicle_type_id":"4","last_reported":1730236131,"current_range_meters":38800,"station_id":"ce4bh012rcd13ifvqcv0","pricing_plan_id":"cebpf4jnsgd1na2vs0mg"},{"bike_id":"4d726455-c8ed-4820-8860-ef21dfba6218","system_id":"levelo_inurba_marseille","lat":43.28654,"lon":5.36261,"is_reserved":false,"is_disabled":false,"rental_uris":{"android":"levelo://app?vid=4d726455-c8ed-4820-8860-ef21dfba6218","ios":"levelo://app?vid=4d726455-c8ed-4820-8860-ef21dfba6218"},"vehicle_type_id":"4","last_reported":1730236131,"current_range_meters":33200,"station_id":"","pricing_plan_id":"cebpf4jnsgd1na2vs0mg"},{"bike_id":"47758897-4c4e-4b74-b8ec-020585699be3","system_id":"levelo_inurba_marseille","lat":43.2843,"lon":5.35006,"is_reserved":false,"is_disabled":false,"rental_uris":{"android":"levelo://app?vid=47758897-4c4e-4b74-b8ec-020585699be3","ios":"levelo://app?vid=47758897-4c4e-4b74-b8ec-020585699be3"},"vehicle_type_id":"4","last_reported":1730236131,"current_range_meters":36800,"station_id":"ce4bhbh2rcd13ifvqepg","pricing_plan_id":"cebpf4jnsgd1na2vs0mg"},{"bike_id":"d9d37fee-d572-4131-914e-98690801d460","system_id":"levelo_inurba_marseille","lat":43.27809,"lon":5.40709,"is_reserved":false,"is_disabled":false,"rental_uris":{"android":"levelo://app?vid=d9d37fee-d572-4131-914e-98690801d460","ios":"levelo://app?vid=d9d37fee-d572-4131-914e-98690801d460"},"vehicle_type_id":"4","last_reported":1730236131,"current_range_meters":17600,"station_id":"ce4bhnh2rcd13ifvqgtg","pricing_plan_id":"cebpf4jnsgd1na2vs0mg"},{"bike_id":"160c3125-d109-49e3-a687-ede78b99dea2","system_id":"levelo_inurba_marseille","lat":43.23191,"lon":5.35536,"is_reserved":false,"is_disabled":false,"rental_uris":{"android":"levelo://app?vid=160c3125-d109-49e3-a687-ede78b99dea2","ios":"levelo://app?vid=160c3125-d109-49e3-a687-ede78b99dea2"},"vehicle_type_id":"4","last_reported":1730236131,"current_range_meters":14400,"station_id":"ce4bhu92rcd13ifvqi70","pricing_plan_id":"cebpf4jnsgd1na2vs0mg"},{"bike_id":"8328c8fc-a79f-412a-9d79-4300f3ae2de3","system_id":"levelo_inurba_marseille","lat":43.29268,"lon":5.38446,"is_reserved":false,"is_disabled":false,"rental_uris":{"android":"levelo://app?vid=8328c8fc-a79f-412a-9d79-4300f3ae2de3","ios":"levelo://app?vid=8328c8fc-a79f-412a-9d79-4300f3ae2de3"},"vehicle_type_id":"4","last_reported":1730236131,"current_range_meters":39200,"station_id":"ce4bh692rcd13ifvqea0","pricing_plan_id":"cebpf4jnsgd1na2vs0mg"},{"bike_id":"7a3f60d6-5589-44b2-bea7-8a929e9b6b4e","system_id":"levelo_inurba_marseille","lat":43.29899,"lon":5.43667,"is_reserved":false,"is_disabled":false,"rental_uris":{"android":"levelo://app?vid=7a3f60d6-5589-44b2-bea7-8a929e9b6b4e","ios":"levelo://app?vid=7a3f60d6-5589-44b2-bea7-8a929e9b6b4e"},"vehicle_type_id":"4","last_reported":1730236131,"current_range_meters":16000,"station_id":"ce4bhpp2rcd13ifvqhfg","pricing_plan_id":"cebpf4jnsgd1na2vs0mg"},{"bike_id":"79bf9c97-a5ea-4f15-9e63-9d99560507ff","system_id":"levelo_inurba_marseille","lat":43.29794,"lon":5.39344,"is_reserved":false,"is_disabled":false,"rental_uris":{"android":"levelo://app?vid=79bf9c97-a5ea-4f15-9e63-9d99560507ff","ios":"levelo://app?vid=79bf9c97-a5ea-4f15-9e63-9d99560507ff"},"vehicle_type_id":"4","last_reported":1730236131,"current_range_meters":24400,"station_id":"chh1huq6cuj3fo74tm60","pricing_plan_id":"cebpf4jnsgd1na2vs0mg"},{"bike_id":"e65d5375-a248-4c7f-9a1f-f0852a5f2f7d","system_id":"levelo_inurba_marseille","lat":43.2952,"lon":5.39413,"is_reserved":false,"is_disabled":false,"rental_uris":{"android":"levelo://app?vid=e65d5375-a248-4c7f-9a1f-f0852a5f2f7d","ios":"levelo://app?vid=e65d5375-a248-4c7f-9a1f-f0852a5f2f7d"},"vehicle_type_id":"4","last_reported":1730236131,"current_range_meters":8800,"station_id":"ce4bh292rcd13ifvqdf0","pricing_plan_id":"cebpf4jnsgd1na2vs0mg"},{"bike_id":"4a6deb5a-70ee-4f67-8ac5-8fc3989659f3","system_id":"levelo_inurba_marseille","lat":43.31161,"lon":5.3871,"is_reserved":false,"is_disabled":false,"rental_uris":{"android":"levelo://app?vid=4a6deb5a-70ee-4f67-8ac5-8fc3989659f3","ios":"levelo://app?vid=4a6deb5a-70ee-4f67-8ac5-8fc3989659f3"},"vehicle_type_id":"4","last_reported":1730236131,"current_range_meters":33200,"station_id":"ce4bgv12rcd13ifvqcp0","pricing_plan_id":"cebpf4jnsgd1na2vs0mg"},{"bike_id":"c97a0cb6-65e4-4d04-aa15-7a7a715355ed","system_id":"levelo_inurba_marseille","lat":43.29529,"lon":5.38536,"is_reserved":false,"is_disabled":false,"rental_uris":{"android":"levelo://app?vid=c97a0cb6-65e4-4d04-aa15-7a7a715355ed","ios":"levelo://app?vid=c97a0cb6-65e4-4d04-aa15-7a7a715355ed"},"vehicle_type_id":"4","last_reported":1730236131,"current_range_meters":20400,"station_id":"ce4bgih2rcd13ifvqba0","pricing_plan_id":"cebpf4jnsgd1na2vs0mg"},{"bike_id":"182fb0b7-dba1-41ba-a358-c87eff55f06a","system_id":"levelo_inurba_marseille","lat":43.28456,"lon":5.3587,"is_reserved":false,"is_disabled":false,"rental_uris":{"android":"levelo://app?vid=182fb0b7-dba1-41ba-a358-c87eff55f06a","ios":"levelo://app?vid=182fb0b7-dba1-41ba-a358-c87eff55f06a"},"vehicle_type_id":"4","last_reported":1730236131,"current_range_meters":14800,"station_id":"ce4bhah2rcd13ifvqei0","pricing_plan_id":"cebpf4jnsgd1na2vs0mg"},{"bike_id":"436067c3-32c1-46bc-894e-d7be2d545a26","system_id":"levelo_inurba_marseille","lat":43.3266,"lon":5.40992,"is_reserved":false,"is_disabled":false,"rental_uris":{"android":"levelo://app?vid=436067c3-32c1-46bc-894e-d7be2d545a26","ios":"levelo://app?vid=436067c3-32c1-46bc-894e-d7be2d545a26"},"vehicle_type_id":"4","last_reported":1730236131,"current_range_meters":22000,"station_id":"ce4bhpp2rcd13ifvqhgg","pricing_plan_id":"cebpf4jnsgd1na2vs0mg"},{"bike_id":"e6f775ed-7e4f-4942-9f94-dca2cf0052d4","system_id":"levelo_inurba_marseille","lat":43.29254,"lon":5.38429,"is_reserved":false,"is_disabled":false,"rental_uris":{"android":"levelo://app?vid=e6f775ed-7e4f-4942-9f94-dca2cf0052d4","ios":"levelo://app?vid=e6f775ed-7e4f-4942-9f94-dca2cf0052d4"},"vehicle_type_id":"4","last_reported":1730236131,"current_range_meters":14400,"station_id":"ce4bh692rcd13ifvqea0","pricing_plan_id":"cebpf4jnsgd1na2vs0mg"},{"bike_id":"f2c1121c-5c92-4221-a002-33aa3e39f748","system_id":"levelo_inurba_marseille","lat":43.33603,"lon":5.41013,"is_reserved":false,"is_disabled":false,"rental_uris":{"android":"levelo://app?vid=f2c1121c-5c92-4221-a002-33aa3e39f748","ios":"levelo://app?vid=f2c1121c-5c92-4221-a002-33aa3e39f748"},"vehicle_type_id":"4","last_reported":1730236131,"current_range_meters":16000,"station_id":"ce4bhqh2rcd13ifvqhmg","pricing_plan_id":"cebpf4jnsgd1na2vs0mg"},{"bike_id":"06c5c745-450e-4ab8-9611-5c33dd63d6c9","system_id":"levelo_inurba_marseille","lat":43.27941,"lon":5.41047,"is_reserved":false,"is_disabled":false,"rental_uris":{"android":"levelo://app?vid=06c5c745-450e-4ab8-9611-5c33dd63d6c9","ios":"levelo://app?vid=06c5c745-450e-4ab8-9611-5c33dd63d6c9"},"vehicle_type_id":"4","last_reported":1730236131,"current_range_meters":30000,"station_id":"ce4bhnp2rcd13ifvqh0g","pricing_plan_id":"cebpf4jnsgd1na2vs0mg"},{"bike_id":"5e4f6765-da37-49fc-ac06-3ff1e28be050","system_id":"levelo_inurba_marseille","lat":43.30105,"lon":5.39073,"is_reserved":false,"is_disabled":false,"rental_uris":{"android":"levelo://app?vid=5e4f6765-da37-49fc-ac06-3ff1e28be050","ios":"levelo://app?vid=5e4f6765-da37-49fc-ac06-3ff1e28be050"},"vehicle_type_id":"4","last_reported":1730236131,"current_range_meters":38800,"station_id":"ce4bh192rcd13ifvqdb0","pricing_plan_id":"cebpf4jnsgd1na2vs0mg"},{"bike_id":"22130903-efd0-47d8-a535-6de35c0911ec","system_id":"levelo_inurba_marseille","lat":43.276184,"lon":5.383726,"is_reserved":false,"is_disabled":false,"rental_uris":{"android":"levelo://app?vid=22130903-efd0-47d8-a535-6de35c0911ec","ios":"levelo://app?vid=22130903-efd0-47d8-a535-6de35c0911ec"},"vehicle_type_id":"4","last_reported":1730236131,"current_range_meters":37600,"station_id":"ce4bha92rcd13ifvqeh0","pricing_plan_id":"cebpf4jnsgd1na2vs0mg"},{"bike_id":"dca48d36-6abc-429f-9a3e-728755736572","system_id":"levelo_inurba_marseille","lat":43.26942,"lon":5.40248,"is_reserved":false,"is_disabled":false,"rental_uris":{"android":"levelo://app?vid=dca48d36-6abc-429f-9a3e-728755736572","ios":"levelo://app?vid=dca48d36-6abc-429f-9a3e-728755736572"},"vehicle_type_id":"4","last_reported":1730236131,"current_range_meters":14000,"station_id":"cjm6bp8fraef2m0cb0m0","pricing_plan_id":"cebpf4jnsgd1na2vs0mg"},{"bike_id":"f793c0ab-64cd-4f7d-816d-e95d724f8dcb","system_id":"levelo_inurba_marseille","lat":43.31331,"lon":5.39699,"is_reserved":false,"is_disabled":false,"rental_uris":{"android":"levelo://app?vid=f793c0ab-64cd-4f7d-816d-e95d724f8dcb","ios":"levelo://app?vid=f793c0ab-64cd-4f7d-816d-e95d724f8dcb"},"vehicle_type_id":"4","last_reported":1730236131,"current_range_meters":27600,"station_id":"ce4bgvp2rcd13ifvqcu0","pricing_plan_id":"cebpf4jnsgd1na2vs0mg"},{"bike_id":"2bc253a6-b529-475e-b719-77af0dc4716f","system_id":"levelo_inurba_marseille","lat":43.27917,"lon":5.39583,"is_reserved":false,"is_disabled":false,"rental_uris":{"android":"levelo://app?vid=2bc253a6-b529-475e-b719-77af0dc4716f","ios":"levelo://app?vid=2bc253a6-b529-475e-b719-77af0dc4716f"},"vehicle_type_id":"4","last_reported":1730236131,"current_range_meters":30400,"station_id":"ce4bhf92rcd13ifvqf40","pricing_plan_id":"cebpf4jnsgd1na2vs0mg"},{"bike_id":"7fe808d7-7107-4052-8697-164dcac0d476","system_id":"levelo_inurba_marseille","lat":43.29417,"lon":5.38609,"is_reserved":false,"is_disabled":false,"rental_uris":{"android":"levelo://app?vid=7fe808d7-7107-4052-8697-164dcac0d476","ios":"levelo://app?vid=7fe808d7-7107-4052-8697-164dcac0d476"},"vehicle_type_id":"4","last_reported":1730236131,"current_range_meters":38000,"station_id":"ce4bh2h2rcd13ifvqdh0","pricing_plan_id":"cebpf4jnsgd1na2vs0mg"},{"bike_id":"25ca5979-254a-4a9f-bddf-c23d0c5a7979","system_id":"levelo_inurba_marseille","lat":43.29269,"lon":5.38437,"is_reserved":false,"is_disabled":false,"rental_uris":{"android":"levelo://app?vid=25ca5979-254a-4a9f-bddf-c23d0c5a7979","ios":"levelo://app?vid=25ca5979-254a-4a9f-bddf-c23d0c5a7979"},"vehicle_type_id":"4","last_reported":1730236131,"current_range_meters":25600,"station_id":"ce4bh692rcd13ifvqea0","pricing_plan_id":"cebpf4jnsgd1na2vs0mg"},{"bike_id":"e621245d-2fc9-40b8-b411-45bbf88d48dd","system_id":"levelo_inurba_marseille","lat":43.27995,"lon":5.40017,"is_reserved":false,"is_disabled":false,"rental_uris":{"android":"levelo://app?vid=e621245d-2fc9-40b8-b411-45bbf88d48dd","ios":"levelo://app?vid=e621245d-2fc9-40b8-b411-45bbf88d48dd"},"vehicle_type_id":"4","last_reported":1730236131,"current_range_meters":10800,"station_id":"ce4bho92rcd13ifvqh4g","pricing_plan_id":"cebpf4jnsgd1na2vs0mg"},{"bike_id":"7b2eb177-c758-4d7b-9c02-4b8390ada1a8","system_id":"levelo_inurba_marseille","lat":43.29573,"lon":5.39966,"is_reserved":false,"is_disabled":false,"rental_uris":{"android":"levelo://app?vid=7b2eb177-c758-4d7b-9c02-4b8390ada1a8","ios":"levelo://app?vid=7b2eb177-c758-4d7b-9c02-4b8390ada1a8"},"vehicle_type_id":"4","last_reported":1730236131,"current_range_meters":38800,"station_id":"ce4bh312rcd13ifvqdj0","pricing_plan_id":"cebpf4jnsgd1na2vs0mg"},{"bike_id":"75168341-d123-4cb7-a372-884806b41aa2","system_id":"levelo_inurba_marseille","lat":43.29539,"lon":5.38542,"is_reserved":false,"is_disabled":false,"rental_uris":{"android":"levelo://app?vid=75168341-d123-4cb7-a372-884806b41aa2","ios":"levelo://app?vid=75168341-d123-4cb7-a372-884806b41aa2"},"vehicle_type_id":"4","last_reported":1730236131,"current_range_meters":24400,"station_id":"ce4bgih2rcd13ifvqba0","pricing_plan_id":"cebpf4jnsgd1na2vs0mg"},{"bike_id":"e38edc50-380e-4fd3-af2b-805c09bfdba0","system_id":"levelo_inurba_marseille","lat":43.30535,"lon":5.38404,"is_reserved":false,"is_disabled":false,"rental_uris":{"android":"levelo://app?vid=e38edc50-380e-4fd3-af2b-805c09bfdba0","ios":"levelo://app?vid=e38edc50-380e-4fd3-af2b-805c09bfdba0"},"vehicle_type_id":"4","last_reported":1730236131,"current_range_meters":39200,"station_id":"ce4bgg92rcd13ifvqb30","pricing_plan_id":"cebpf4jnsgd1na2vs0mg"},{"bike_id":"bfe06d91-bd4b-468b-acba-4a2c7d7565bc","system_id":"levelo_inurba_marseille","lat":43.2942,"lon":5.38622,"is_reserved":false,"is_disabled":false,"rental_uris":{"android":"levelo://app?vid=bfe06d91-bd4b-468b-acba-4a2c7d7565bc","ios":"levelo://app?vid=bfe06d91-bd4b-468b-acba-4a2c7d7565bc"},"vehicle_type_id":"4","last_reported":1730236131,"current_range_meters":6800,"station_id":"ce4bh2h2rcd13ifvqdh0","pricing_plan_id":"cebpf4jnsgd1na2vs0mg"},{"bike_id":"9a79c046-ffbd-430c-9b08-0a56da8292f5","system_id":"levelo_inurba_marseille","lat":43.23179,"lon":5.39985,"is_reserved":false,"is_disabled":false,"rental_uris":{"android":"levelo://app?vid=9a79c046-ffbd-430c-9b08-0a56da8292f5","ios":"levelo://app?vid=9a79c046-ffbd-430c-9b08-0a56da8292f5"},"vehicle_type_id":"4","last_reported":1730236131,"current_range_meters":10800,"station_id":"ce4bhn12rcd13ifvqgqg","pricing_plan_id":"cebpf4jnsgd1na2vs0mg"},{"bike_id":"bdb1c629-3025-4bbf-be66-5f717b258963","system_id":"levelo_inurba_marseille","lat":43.239661,"lon":5.366198,"is_reserved":false,"is_disabled":false,"rental_uris":{"android":"levelo://app?vid=bdb1c629-3025-4bbf-be66-5f717b258963","ios":"levelo://app?vid=bdb1c629-3025-4bbf-be66-5f717b258963"},"vehicle_type_id":"4","last_reported":1730236131,"current_range_meters":38800,"station_id":"ce4bhi12rcd13ifvqfp0","pricing_plan_id":"cebpf4jnsgd1na2vs0mg"},{"bike_id":"22df8697-ca80-42c4-a813-332b1f481e01","system_id":"levelo_inurba_marseille","lat":43.28702,"lon":5.37394,"is_reserved":false,"is_disabled":false,"rental_uris":{"android":"levelo://app?vid=22df8697-ca80-42c4-a813-332b1f481e01","ios":"levelo://app?vid=22df8697-ca80-42c4-a813-332b1f481e01"},"vehicle_type_id":"4","last_reported":1730236131,"current_range_meters":22000,"station_id":"ce4bh3p2rcd13ifvqdq0","pricing_plan_id":"cebpf4jnsgd1na2vs0mg"},{"bike_id":"ef188248-5a3e-446d-be68-607e8f4f9800","system_id":"levelo_inurba_marseille","lat":43.25492,"lon":5.37647,"is_reserved":false,"is_disabled":false,"rental_uris":{"android":"levelo://app?vid=ef188248-5a3e-446d-be68-607e8f4f9800","ios":"levelo://app?vid=ef188248-5a3e-446d-be68-607e8f4f9800"},"vehicle_type_id":"4","last_reported":1730236131,"current_range_meters":38800,"station_id":"ce4bhh12rcd13ifvqff0","pricing_plan_id":"cebpf4jnsgd1na2vs0mg"},{"bike_id":"896899c2-2aeb-4d70-bae3-10028bd629b3","system_id":"levelo_inurba_marseille","lat":43.29763,"lon":5.37103,"is_reserved":false,"is_disabled":false,"rental_uris":{"android":"levelo://app?vid=896899c2-2aeb-4d70-bae3-10028bd629b3","ios":"levelo://app?vid=896899c2-2aeb-4d70-bae3-10028bd629b3"},"vehicle_type_id":"4","last_reported":1730236131,"current_range_meters":36400,"station_id":"ce4bgop2rcd13ifvqc1g","pricing_plan_id":"cebpf4jnsgd1na2vs0mg"},{"bike_id":"35465695-28fd-4a70-8346-00caa27e9092","system_id":"levelo_inurba_marseille","lat":43.29851,"lon":5.3628,"is_reserved":false,"is_disabled":false,"rental_uris":{"android":"levelo://app?vid=35465695-28fd-4a70-8346-00caa27e9092","ios":"levelo://app?vid=35465695-28fd-4a70-8346-00caa27e9092"},"vehicle_type_id":"4","last_reported":1730236131,"current_range_meters":36800,"station_id":"ce4bgpp2rcd13ifvqc3g","pricing_plan_id":"cebpf4jnsgd1na2vs0mg"},{"bike_id":"b797d2ac-1673-4498-a948-244636f83f66","system_id":"levelo_inurba_marseille","lat":43.29421,"lon":5.38619,"is_reserved":false,"is_disabled":false,"rental_uris":{"android":"levelo://app?vid=b797d2ac-1673-4498-a948-244636f83f66","ios":"levelo://app?vid=b797d2ac-1673-4498-a948-244636f83f66"},"vehicle_type_id":"4","last_reported":1730236131,"current_range_meters":3600,"station_id":"ce4bh2h2rcd13ifvqdh0","pricing_plan_id":"cebpf4jnsgd1na2vs0mg"},{"bike_id":"3ad229b2-210f-4b0b-95af-f3c6c9e6b25f","system_id":"levelo_inurba_marseille","lat":43.3035,"lon":5.41875,"is_reserved":false,"is_disabled":false,"rental_uris":{"android":"levelo://app?vid=3ad229b2-210f-4b0b-95af-f3c6c9e6b25f","ios":"levelo://app?vid=3ad229b2-210f-4b0b-95af-f3c6c9e6b25f"},"vehicle_type_id":"4","last_reported":1730236131,"current_range_meters":23200,"station_id":"ce4bhop2rcd13ifvqh7g","pricing_plan_id":"cebpf4jnsgd1na2vs0mg"},{"bike_id":"b6781193-98d6-43ce-b93e-daef61a6ed5b","system_id":"levelo_inurba_marseille","lat":43.3106,"lon":5.38339,"is_reserved":false,"is_disabled":false,"rental_uris":{"android":"levelo://app?vid=b6781193-98d6-43ce-b93e-daef61a6ed5b","ios":"levelo://app?vid=b6781193-98d6-43ce-b93e-daef61a6ed5b"},"vehicle_type_id":"4","last_reported":1730236131,"current_range_meters":38800,"station_id":"ce4bgv92rcd13ifvqcr0","pricing_plan_id":"cebpf4jnsgd1na2vs0mg"},{"bike_id":"52cd4322-da47-43f1-b749-147e77e1a70f","system_id":"levelo_inurba_marseille","lat":43.2407,"lon":5.37759,"is_reserved":false,"is_disabled":false,"rental_uris":{"android":"levelo://app?vid=52cd4322-da47-43f1-b749-147e77e1a70f","ios":"levelo://app?vid=52cd4322-da47-43f1-b749-147e77e1a70f"},"vehicle_type_id":"4","last_reported":1730236131,"current_range_meters":2800,"station_id":"ce4bhnp2rcd13ifvqgvg","pricing_plan_id":"cebpf4jnsgd1na2vs0mg"},{"bike_id":"4d80f1ff-c4a7-47eb-a5dc-c11c71a17dc6","system_id":"levelo_inurba_marseille","lat":43.27376,"lon":5.36257,"is_reserved":false,"is_disabled":false,"rental_uris":{"android":"levelo://app?vid=4d80f1ff-c4a7-47eb-a5dc-c11c71a17dc6","ios":"levelo://app?vid=4d80f1ff-c4a7-47eb-a5dc-c11c71a17dc6"},"vehicle_type_id":"4","last_reported":1730236131,"current_range_meters":25600,"station_id":"ce4bhbh2rcd13ifvqeo0","pricing_plan_id":"cebpf4jnsgd1na2vs0mg"},{"bike_id":"12e7aa6d-e66c-4ef9-b31a-5c7e92effced","system_id":"levelo_inurba_marseille","lat":43.31686,"lon":5.40481,"is_reserved":false,"is_disabled":false,"rental_uris":{"android":"levelo://app?vid=12e7aa6d-e66c-4ef9-b31a-5c7e92effced","ios":"levelo://app?vid=12e7aa6d-e66c-4ef9-b31a-5c7e92effced"},"vehicle_type_id":"4","last_reported":1730236131,"current_range_meters":22800,"station_id":"ce4bh012rcd13ifvqd00","pricing_plan_id":"cebpf4jnsgd1na2vs0mg"},