{"last_updated":1726754902,"ttl":30,"version":"2.2","data":{"bikes":[{"bike_id":"da197540-7474-48bd-8111-bd86b2ab271e","system_id":"levelo_inurba_marseille","lat":43.337444,"lon":5.374475,"is_reserved":false,"is_disabled":false,"rental_uris":{"android":"levelo://app?vid=da197540-7474-48bd-8111-bd86b2ab271e","ios":"levelo://app?vid=da197540-7474-48bd-8111-bd86b2ab271e"},"vehicle_type_id":"4","last_reported":1726754902,"current_range_meters":39200,"station_id":"ce4bhq92rcd13ifvqhkg","pricing_plan_id":"cebpf4jnsgd1na2vs0mg"},{"bike_id":"a978b35a-39d2-417e-8095-f3be60dd0fbb","system_id":"levelo_inurba_marseille","lat":43.29562,"lon":5.42299,"is_reserved":false,"is_disabled":false,"rental_uris":{"android":"levelo://app?vid=a978b35a-39d2-417e-8095-f3be60dd0fbb","ios":"levelo://app?vid=a978b35a-39d2-417e-8095-f3be60dd0fbb"},"vehicle_type_id":"4","last_reported":1726754902,"current_range_meters":34800,"station_id":"ce4bhph2rcd13ifvqhdg","pricing_plan_id":"cebpf4jnsgd1na2vs0mg"},{"bike_id":"f033ebcd-3a04-433a-9c72-e52a73113446","system_id":"levelo_inurba_marseille","lat":43.26061,"lon":5.39398,"is_reserved":false,"is_disabled":false,"rental_uris":{"android":"levelo://app?vid=f033ebcd-3a04-433a-9c72-e52a73113446","ios":"levelo://app?vid=f033ebcd-3a04-433a-9c72-e52a73113446"},"vehicle_type_id":"4","last_reported":1726754902,"current_range_meters":16000,"station_id":"ce4bhh92rcd13ifvqfj0","pricing_plan_id":"cebpf4jnsgd1na2vs0mg"},{"bike_id":"88b24784-edff-4e37-9b59-8c6a79c16a1b","system_id":"levelo_inurba_marseille","lat":43.29263,"lon":5.38436,"is_reserved":false,"is_disabled":false,"rental_uris":{"android":"levelo://app?vid=88b24784-edff-4e37-9b59-8c6a79c16a1b","ios":"levelo://app?vid=88b24784-edff-4e37-9b59-8c6a79c16a1b"},"vehicle_type_id":"4","last_reported":1726754902,"current_range_meters":30400,"station_id":"ce4bh692rcd13ifvqea0","pricing_plan_id":"cebpf4jnsgd1na2vs0mg"},{"bike_id":"4030ad33-7d9b-4230-8d99-01eabf0a0575","system_id":"levelo_inurba_marseille","lat":43.27499,"lon":5.42451,"is_reserved":false,"is_disabled":false,"rental_uris":{"android":"levelo://app?vid=4030ad33-7d9b-4230-8d99-01eabf0a0575","ios":"levelo://app?vid=4030ad33-7d9b-4230-8d99-01eabf0a0575"},"vehicle_type_id":"4","last_reported":1726754902,"current_range_meters":5600,"station_id":"ce4bhn92rcd13ifvqgrg","pricing_plan_id":"cebpf4jnsgd1na2vs0mg"},{"bike_id":"e532fd53-ad12-4848-82ea-70ac934c1c37","system_id":"levelo_inurba_marseille","lat":43.3375,"lon":5.37446,"is_reserved":false,"is_disabled":false,"rental_uris":{"android":"levelo://app?vid=e532fd53-ad12-4848-82ea-70ac934c1c37","ios":"levelo://app?vid=e532fd53-ad12-4848-82ea-70ac934c1c37"},"vehicle_type_id":"4","last_reported":1726754902,"current_range_meters":37600,"station_id":"","pricing_plan_id":"cebpf4jnsgd1na2vs0mg"},{"bike_id":"5ee10d77-f4fa-4596-a9ec-7eb45b618b18","system_id":"levelo_inurba_marseille","lat":43.29974,"lon":5.38496,"is_reserved":false,"is_disabled":false,"rental_uris":{"android":"levelo://app?vid=5ee10d77-f4fa-4596-a9ec-7eb45b618b18","ios":"levelo://app?vid=5ee10d77-f4fa-4596-a9ec-7eb45b618b18"},"vehicle_type_id":"4","last_reported":1726754902,"current_range_meters":32800,"station_id":"ce4bgj92rcd13ifvqbd0","pricing_plan_id":"cebpf4jnsgd1na2vs0mg"},{"bike_id":"b2afe532-60b2-4926-b7d1-975616aa7125","system_id":"levelo_inurba_marseille","lat":43.30425,"lon":5.3975,"is_reserved":false,"is_disabled":false,"rental_uris":{"android":"levelo://app?vid=b2afe532-60b2-4926-b7d1-975616aa7125","ios":"levelo://app?vid=b2afe532-60b2-4926-b7d1-975616aa7125"},"vehicle_type_id":"4","last_reported":1726754902,"current_range_meters":16000,"station_id":"ce4bh092rcd13ifvqd20","pricing_plan_id":"cebpf4jnsgd1na2vs0mg"},{"bike_id":"9a7bef7e-aa27-4b3e-b3a0-16082888faf1","system_id":"levelo_inurba_marseille","lat":43.25935,"lon":5.40907,"is_reserved":false,"is_disabled":false,"rental_uris":{"android":"levelo://app?vid=9a7bef7e-aa27-4b3e-b3a0-16082888faf1","ios":"levelo://app?vid=9a7bef7e-aa27-4b3e-b3a0-16082888faf1"},"vehicle_type_id":"4","last_reported":1726754902,"current_range_meters":34000,"station_id":"ce4bhm92rcd13ifvqglg","pricing_plan_id":"cebpf4jnsgd1na2vs0mg"},{"bike_id":"ab49ffc8-bda7-43e3-a323-1908ffc14ce5","system_id":"levelo_inurba_marseille","lat":43.27998,"lon":5.41655,"is_reserved":false,"is_disabled":false,"rental_uris":{"android":"levelo://app?vid=ab49ffc8-bda7-43e3-a323-1908ffc14ce5","ios":"levelo://app?vid=ab49ffc8-bda7-43e3-a323-1908ffc14ce5"},"vehicle_type_id":"4","last_reported":1726754902,"current_range_meters":18800,"station_id":"ce4bho12rcd13ifvqh1g","pricing_plan_id":"cebpf4jnsgd1na2vs0mg"},{"bike_id":"19f8ea7f-d6dc-4aa1-b796-6b13dc615431","system_id":"levelo_inurba_marseille","lat":43.290701,"lon":5.358637,"is_reserved":false,"is_disabled":false,"rental_uris":{"android":"levelo://app?vid=19f8ea7f-d6dc-4aa1-b796-6b13dc615431","ios":"levelo://app?vid=19f8ea7f-d6dc-4aa1-b796-6b13dc615431"},"vehicle_type_id":"4","last_reported":1726754902,"current_range_meters":38800,"station_id":"ce4bha92rcd13ifvqeg0","pricing_plan_id":"cebpf4jnsgd1na2vs0mg"},{"bike_id":"108573da-c24a-438a-b2f7-17657d029314","system_id":"levelo_inurba_marseille","lat":43.29956,"lon":5.41326,"is_reserved":false,"is_disabled":false,"rental_uris":{"android":"levelo://app?vid=108573da-c24a-438a-b2f7-17657d029314","ios":"levelo://app?vid=108573da-c24a-438a-b2f7-17657d029314"},"vehicle_type_id":"4","last_reported":1726754902,"current_range_meters":22000,"station_id":"ce4bhp12rcd13ifvqh9g","pricing_plan_id":"cebpf4jnsgd1na2vs0mg"},{"bike_id":"5820fe83-ad5f-4557-a1a9-e1814307abd9","system_id":"levelo_inurba_marseille","lat":43.31889,"lon":5.40732,"is_reserved":false,"is_disabled":false,"rental_uris":{"android":"levelo://app?vid=5820fe83-ad5f-4557-a1a9-e1814307abd9","ios":"levelo://app?vid=5820fe83-ad5f-4557-a1a9-e1814307abd9"},"vehicle_type_id":"4","last_reported":1726754902,"current_range_meters":36400,"station_id":"ce4bhq12rcd13ifvqhig","pricing_plan_id":"cebpf4jnsgd1na2vs0mg"},{"bike_id":"371721f5-c84b-4ce1-9152-1691286ac576","system_id":"levelo_inurba_marseille","lat":43.3078,"lon":5.37657,"is_reserved":false,"is_disabled":false,"rental_uris":{"android":"levelo://app?vid=371721f5-c84b-4ce1-9152-1691286ac576","ios":"levelo://app?vid=371721f5-c84b-4ce1-9152-1691286ac576"},"vehicle_type_id":"4","last_reported":1726754902,"current_range_meters":19600,"station_id":"ce4bgv92rcd13ifvqcq0","pricing_plan_id":"cebpf4jnsgd1na2vs0mg"},{"bike_id":"4af403ff-232e-437f-a15e-03f83dae4a86","system_id":"levelo_inurba_marseille","lat":43.30538,"lon":5.3653,"is_reserved":false,"is_disabled":false,"rental_uris":{"android":"levelo://app?vid=4af403ff-232e-437f-a15e-03f83dae4a86","ios":"levelo://app?vid=4af403ff-232e-437f-a15e-03f83dae4a86"},"vehicle_type_id":"4","last_reported":1726754902,"current_range_meters":24400,"station_id":"ce4bgs12rcd13ifvqcag","pricing_plan_id":"cebpf4jnsgd1na2vs0mg"},{"bike_id":"21e451be-69bf-4b6a-89d1-1f9a4007e774","system_id":"levelo_inurba_marseille","lat":43.337444,"lon":5.374475,"is_reserved":false,"is_disabled":false,"rental_uris":{"android":"levelo://app?vid=21e451be-69bf-4b6a-89d1-1f9a4007e774","ios":"levelo://app?vid=21e451be-69bf-4b6a-89d1-1f9a4007e774"},"vehicle_type_id":"4","last_reported":1726754902,"current_range_meters":25600,"station_id":"","pricing_plan_id":"cebpf4jnsgd1na2vs0mg"},{"bike_id":"64b8db7b-e020-426b-bc67-cc08026eaa92","system_id":"levelo_inurba_marseille","lat":43.29841,"lon":5.36261,"is_reserved":false,"is_disabled":false,"rental_uris":{"android":"levelo://app?vid=64b8db7b-e020-426b-bc67-cc08026eaa92","ios":"levelo://app?vid=64b8db7b-e020-426b-bc67-cc08026eaa92"},"vehicle_type_id":"4","last_reported":1726754902,"current_range_meters":38800,"station_id":"ce4bgpp2rcd13ifvqc3g","pricing_plan_id":"cebpf4jnsgd1na2vs0mg"},{"bike_id":"55713e99-cca3-4568-be64-6ed78b625689","system_id":"levelo_inurba_marseille","lat":43.298014,"lon":5.381249,"is_reserved":false,"is_disabled":false,"rental_uris":{"android":"levelo://app?vid=55713e99-cca3-4568-be64-6ed78b625689","ios":"levelo://app?vid=55713e99-cca3-4568-be64-6ed78b625689"},"vehicle_type_id":"4","last_reported":1726754902,"current_range_meters":36000,"station_id":"ce4bgip2rcd13ifvqbb0","pricing_plan_id":"cebpf4jnsgd1na2vs0mg"},{"bike_id":"beee4afc-53f8-41f2-9e6c-65e668f46cc2","system_id":"levelo_inurba_marseille","lat":43.337444,"lon":5.374475,"is_reserved":false,"is_disabled":false,"rental_uris":{"android":"levelo://app?vid=beee4afc-53f8-41f2-9e6c-65e668f46cc2","ios":"levelo://app?vid=beee4afc-53f8-41f2-9e6c-65e668f46cc2"},"vehicle_type_id":"4","last_reported":1726754902,"current_range_meters":23200,"station_id":"","pricing_plan_id":"cebpf4jnsgd1na2vs0mg"},{"bike_id":"84a5067c-fc6a-4369-a073-79995df1a7e5","system_id":"levelo_inurba_marseille","lat":43.29009,"lon":5.35607,"is_reserved":false,"is_disabled":false,"rental_uris":{"android":"levelo://app?vid=84a5067c-fc6a-4369-a073-79995df1a7e5","ios":"levelo://app?vid=84a5067c-fc6a-4369-a073-79995df1a7e5"},"vehicle_type_id":"4","last_reported":1726754902,"current_range_meters":33600,"station_id":"ce4bhb92rcd13ifvqen0","pricing_plan_id":"cebpf4jnsgd1na2vs0mg"},{"bike_id":"e83ad325-ea41-47ee-a4b6-fb8a4d9f312a","system_id":"levelo_inurba_marseille","lat":43.261749,"lon":5.374566,"is_reserved":false,"is_disabled":false,"rental_uris":{"android":"levelo://app?vid=e83ad325-ea41-47ee-a4b6-fb8a4d9f312a","ios":"levelo://app?vid=e83ad325-ea41-47ee-a4b6-fb8a4d9f312a"},"vehicle_type_id":"4","last_reported":1726754902,"current_range_meters":4000,"station_id":"ce4bhgp2rcd13ifvqfc0","pricing_plan_id":"cebpf4jnsgd1na2vs0mg"},{"bike_id":"1f38c5e5-09a9-4ae7-8f54-ff418ef86142","system_id":"levelo_inurba_marseille","lat":43.309326,"lon":5.401391,"is_reserved":false,"is_disabled":false,"rental_uris":{"android":"levelo://app?vid=1f38c5e5-09a9-4ae7-8f54-ff418ef86142","ios":"levelo://app?vid=1f38c5e5-09a9-4ae7-8f54-ff418ef86142"},"vehicle_type_id":"4","last_reported":1726754902,"current_range_meters":26000,"station_id":"","pricing_plan_id":"cebpf4jnsgd1na2vs0mg"},{"bike_id":"8b0512f9-b1a5-45ee-b5e4-21c278356666","system_id":"levelo_inurba_marseille","lat":43.29799,"lon":5.38093,"is_reserved":false,"is_disabled":false,"rental_uris":{"android":"levelo://app?vid=8b0512f9-b1a5-45ee-b5e4-21c278356666","ios":"levelo://app?vid=8b0512f9-b1a5-45ee-b5e4-21c278356666"},"vehicle_type_id":"4","last_reported":1726754902,"current_range_meters":38800,"station_id":"ce4bgip2rcd13ifvqbb0","pricing_plan_id":"cebpf4jnsgd1na2vs0mg"},{"bike_id":"2bc21d36-e9c1-4ac7-aae9-a800945214f5","system_id":"levelo_inurba_marseille","lat":43.30141,"lon":5.37405,"is_reserved":false,"is_disabled":false,"rental_uris":{"android":"levelo://app?vid=2bc21d36-e9c1-4ac7-aae9-a800945214f5","ios":"levelo://app?vid=2bc21d36-e9c1-4ac7-aae9-a800945214f5"},"vehicle_type_id":"4","last_reported":1726754902,"current_range_meters":25600,"station_id":"ce4bgs92rcd13ifvqcc0","pricing_plan_id":"cebpf4jnsgd1na2vs0mg"},{"bike_id":"d37048cb-f1f0-4af7-9d9a-c5c55f6df734","system_id":"levelo_inurba_marseille","lat":43.29923,"lon":5.38136,"is_reserved":false,"is_disabled":false,"rental_uris":{"android":"levelo://app?vid=d37048cb-f1f0-4af7-9d9a-c5c55f6df734","ios":"levelo://app?vid=d37048cb-f1f0-4af7-9d9a-c5c55f6df734"},"vehicle_type_id":"4","last_reported":1726754902,"current_range_meters":22000,"station_id":"ce4bgj12rcd13ifvqbc0","pricing_plan_id":"cebpf4jnsgd1na2vs0mg"},{"bike_id":"6f7464c7-3e4e-4443-b0a9-cabc2fc99d65","system_id":"levelo_inurba_marseille","lat":43.26795,"lon":5.4027,"is_reserved":false,"is_disabled":false,"rental_uris":{"android":"levelo://app?vid=6f7464c7-3e4e-4443-b0a9-cabc2fc99d65","ios":"levelo://app?vid=6f7464c7-3e4e-4443-b0a9-cabc2fc99d65"},"vehicle_type_id":"4","last_reported":1726754902,"current_range_meters":27200,"station_id":"ce501612rcd8frsf0b60","pricing_plan_id":"cebpf4jnsgd1na2vs0mg"},{"bike_id":"3a61b23b-54b2-42f2-9893-2bb57f686349","system_id":"levelo_inurba_marseille","lat":43.27411,"lon":5.39025,"is_reserved":false,"is_disabled":false,"rental_uris":{"android":"levelo://app?vid=3a61b23b-54b2-42f2-9893-2bb57f686349","ios":"levelo://app?vid=3a61b23b-54b2-42f2-9893-2bb57f686349"},"vehicle_type_id":"4","last_reported":1726754902,"current_range_meters":17600,"station_id":"","pricing_plan_id":"cebpf4jnsgd1na2vs0mg"},{"bike_id":"55ea2630-e9e2-4094-894f-7d7ae5e103fe","system_id":"levelo_inurba_marseille","lat":43.27997,"lon":5.41664,"is_reserved":false,"is_disabled":false,"rental_uris":{"android":"levelo://app?vid=55ea2630-e9e2-4094-894f-7d7ae5e103fe","ios":"levelo://app?vid=55ea2630-e9e2-4094-894f-7d7ae5e103fe"},"vehicle_type_id":"4","last_reported":1726754902,"current_range_meters":9200,"station_id":"ce4bho12rcd13ifvqh1g","pricing_plan_id":"cebpf4jnsgd1na2vs0mg"},{"bike_id":"b8f5ee80-729d-4859-96d6-7b16b0b07cbb","system_id":"levelo_inurba_marseille","lat":43.29707,"lon":5.36605,"is_reserved":false,"is_disabled":false,"rental_uris":{"android":"levelo://app?vid=b8f5ee80-729d-4859-96d6-7b16b0b07cbb","ios":"levelo://app?vid=b8f5ee80-729d-4859-96d6-7b16b0b07cbb"},"vehicle_type_id":"4","last_reported":1726754902,"current_range_meters":35200,"station_id":"ce4bgn12rcd13ifvqbt0","pricing_plan_id":"cebpf4jnsgd1na2vs0mg"},{"bike_id":"5ee72852-9360-467f-8628-81c7887b89c6","system_id":"levelo_inurba_marseille","lat":43.29007,"lon":5.35609,"is_reserved":false,"is_disabled":false,"rental_uris":{"android":"levelo://app?vid=5ee72852-9360-467f-8628-81c7887b89c6","ios":"levelo://app?vid=5ee72852-9360-467f-8628-81c7887b89c6"},"vehicle_type_id":"4","last_reported":1726754902,"current_range_meters":14800,"station_id":"ce4bhb92rcd13ifvqen0","pricing_plan_id":"cebpf4jnsgd1na2vs0mg"},{"bike_id":"3ddc290e-5a67-453f-a356-251b8cb031fe","system_id":"levelo_inurba_marseille","lat":43.32478,"lon":5.36574,"is_reserved":false,"is_disabled":false,"rental_uris":{"android":"levelo://app?vid=3ddc290e-5a67-453f-a356-251b8cb031fe","ios":"levelo://app?vid=3ddc290e-5a67-453f-a356-251b8cb031fe"},"vehicle_type_id":"4","last_reported":1726754902,"current_range_meters":4000,"station_id":"ce4bhs12rcd13ifvqhvg","pricing_plan_id":"cebpf4jnsgd1na2vs0mg"},{"bike_id":"08afdbb3-ba14-4c90-9b65-f1e5b19693b4","system_id":"levelo_inurba_marseille","lat":43.295572,"lon":5.42294,"is_reserved":false,"is_disabled":false,"rental_uris":{"android":"levelo://app?vid=08afdbb3-ba14-4c90-9b65-f1e5b19693b4","ios":"levelo://app?vid=08afdbb3-ba14-4c90-9b65-f1e5b19693b4"},"vehicle_type_id":"4","last_reported":1726754902,"current_range_meters":38400,"station_id":"ce4bhph2rcd13ifvqhdg","pricing_plan_id":"cebpf4jnsgd1na2vs0mg"},{"bike_id":"04394a73-34a5-4d88-bac1-80c0695aafe5","system_id":"levelo_inurba_marseille","lat":43.337444,"lon":5.374475,"is_reserved":false,"is_disabled":false,"rental_uris":{"android":"levelo://app?vid=04394a73-34a5-4d88-bac1-80c0695aafe5","ios":"levelo://app?vid=04394a73-34a5-4d88-bac1-80c0695aafe5"},"vehicle_type_id":"4","last_reported":1726754902,"current_range_meters":24400,"station_id":"","pricing_plan_id":"cebpf4jnsgd1na2vs0mg"},{"bike_id":"d34e9410-738d-4495-be3c-d6a3f7391f8f","system_id":"levelo_inurba_marseille","lat":43.23057,"lon":5.35493,"is_reserved":false,"is_disabled":false,"rental_uris":{"android":"levelo://app?vid=d34e9410-738d-4495-be3c-d6a3f7391f8f","ios":"levelo://app?vid=d34e9410-738d-4495-be3c-d6a3f7391f8f"},"vehicle_type_id":"4","last_reported":1726754902,"current_range_meters":21600,"station_id":"cpo3342slgdg3j2ifvpg","pricing_plan_id":"cebpf4jnsgd1na2vs0mg"},{"bike_id":"036ab25f-0c34-4c45-8e88-1fc9200da6fd","system_id":"levelo_inurba_marseille","lat":43.27178,"lon":5.42712,"is_reserved":false,"is_disabled":false,"rental_uris":{"android":"levelo://app?vid=036ab25f-0c34-4c45-8e88-1fc9200da6fd","ios":"levelo://app?vid=036ab25f-0c34-4c45-8e88-1fc9200da6fd"},"vehicle_type_id":"4","last_reported":1726754902,"current_range_meters":30000,"station_id":"","pricing_plan_id":"cebpf4jnsgd1na2vs0mg"},{"bike_id":"54715bb1-b582-4b18-bc18-f13b59f16ab3","system_id":"levelo_inurba_marseille","lat":43.29007,"lon":5.35617,"is_reserved":false,"is_disabled":false,"rental_uris":{"android":"levelo://app?vid=54715bb1-b582-4b18-bc18-f13b59f16ab3","ios":"levelo://app?vid=54715bb1-b582-4b18-bc18-f13b59f16ab3"},"vehicle_type_id":"4","last_reported":1726754902,"current_range_meters":19200,"station_id":"ce4bhb92rcd13ifvqen0","pricing_plan_id":"cebpf4jnsgd1na2vs0mg"},{"bike_id":"298ac1dc-024a-45f9-bee5-67e6e0d001f8","system_id":"levelo_inurba_marseille","lat":43.32293,"lon":5.38259,"is_reserved":false,"is_disabled":false,"rental_uris":{"android":"levelo://app?vid=298ac1dc-024a-45f9-bee5-67e6e0d001f8","ios":"levelo://app?vid=298ac1dc-024a-45f9-bee5-67e6e0d001f8"},"vehicle_type_id":"4","last_reported":1726754902,"current_range_meters":32400,"station_id":"ce4bhr12rcd13ifvqhqg","pricing_plan_id":"cebpf4jnsgd1na2vs0mg"},{"bike_id":"dbdbe30c-8f45-414a-9931-81a2fc52e26a","system_id":"levelo_inurba_marseille","lat":43.2657,"lon":5.39013,"is_reserved":false,"is_disabled":false,"rental_uris":{"android":"levelo://app?vid=dbdbe30c-8f45-414a-9931-81a2fc52e26a","ios":"levelo://app?vid=dbdbe30c-8f45-414a-9931-81a2fc52e26a"},"vehicle_type_id":"4","last_reported":1726754902,"current_range_meters":22400,"station_id":"ce4bhe12rcd13ifvqf30","pricing_plan_id":"cebpf4jnsgd1na2vs0mg"},{"bike_id":"aa4b1a9c-75a6-4f1c-b96d-303cd8b269bf","system_id":"levelo_inurba_marseille","lat":43.29572,"lon":5.39956,"is_reserved":false,"is_disabled":false,"rental_uris":{"android":"levelo://app?vid=aa4b1a9c-75a6-4f1c-b96d-303cd8b269bf","ios":"levelo://app?vid=aa4b1a9c-75a6-4f1c-b96d-303cd8b269bf"},"vehicle_type_id":"4","last_reported":1726754902,"current_range_meters":17200,"station_id":"ce4bh312rcd13ifvqdj0","pricing_plan_id":"cebpf4jnsgd1na2vs0mg"},{"bike_id":"1754b523-78d9-4b75-81a9-1d96c9e8d944","system_id":"levelo_inurba_marseille","lat":43.29931,"lon":5.36537,"is_reserved":false,"is_disabled":false,"rental_uris":{"android":"levelo://app?vid=1754b523-78d9-4b75-81a9-1d96c9e8d944","ios":"levelo://app?vid=1754b523-78d9-4b75-81a9-1d96c9e8d944"},"vehicle_type_id":"4","last_reported":1726754902,"current_range_meters":34000,"station_id":"ce4bgm92rcd13ifvqbr0","pricing_plan_id":"cebpf4jnsgd1na2vs0mg"},{"bike_id":"5cc53505-f644-47f4-8faa-c9e23f5803f2","system_id":"levelo_inurba_marseille","lat":43.24544,"lon":5.39526,"is_reserved":false,"is_disabled":false,"rental_uris":{"android":"levelo://app?vid=5cc53505-f644-47f4-8faa-c9e23f5803f2","ios":"levelo://app?vid=5cc53505-f644-47f4-8faa-c9e23f5803f2"},"vehicle_type_id":"4","last_reported":1726754902,"current_range_meters":38800,"station_id":"ce4bhlp2rcd13ifvqgjg","pricing_plan_id":"cebpf4jnsgd1na2vs0mg"},{"bike_id":"6625e386-af1b-4b78-83cd-f7b479ae79fb","system_id":"levelo_inurba_marseille","lat":43.296356,"lon":5.406006,"is_reserved":false,"is_disabled":false,"rental_uris":{"android":"levelo://app?vid=6625e386-af1b-4b78-83cd-f7b479ae79fb","ios":"levelo://app?vid=6625e386-af1b-4b78-83cd-f7b479ae79fb"},"vehicle_type_id":"4","last_reported":1726754902,"current_range_meters":39200,"station_id":"chh1huq6cuj3fo74tm60","pricing_plan_id":"cebpf4jnsgd1na2vs0mg"},{"bike_id":"031d10e7-b441-4e5c-8cb4-f98c7fc2f6a3","system_id":"levelo_inurba_marseille","lat":43.30615,"lon":5.37226,"is_reserved":false,"is_disabled":false,"rental_uris":{"android":"levelo://app?vid=031d10e7-b441-4e5c-8cb4-f98c7fc2f6a3","ios":"levelo://app?vid=031d10e7-b441-4e5c-8cb4-f98c7fc2f6a3"},"vehicle_type_id":"4","last_reported":1726754902,"current_range_meters":38800,"station_id":"ce4bgqh2rcd13ifvqc4g","pricing_plan_id":"cebpf4jnsgd1na2vs0mg"},{"bike_id":"b66de52d-4254-4409-b14d-ea04c76cb1c6","system_id":"levelo_inurba_marseille","lat":43.29715,"lon":5.36607,"is_reserved":false,"is_disabled":false,"rental_uris":{"android":"levelo://app?vid=b66de52d-4254-4409-b14d-ea04c76cb1c6","ios":"levelo://app?vid=b66de52d-4254-4409-b14d-ea04c76cb1c6"},"vehicle_type_id":"4","last_reported":1726754902,"current_range_meters":39200,"station_id":"ce4bgn12rcd13ifvqbt0","pricing_plan_id":"cebpf4jnsgd1na2vs0mg"},{"bike_id":"ecc3cfd1-25f3-47e9-9e71-a2fbfda6c49e","system_id":"levelo_inurba_marseille","lat":43.302867,"lon":5.376859,"is_reserved":false,"is_disabled":false,"rental_uris":{"android":"levelo://app?vid=ecc3cfd1-25f3-47e9-9e71-a2fbfda6c49e","ios":"levelo://app?vid=ecc3cfd1-25f3-47e9-9e71-a2fbfda6c49e"},"vehicle_type_id":"4","last_reported":1726754902,"current_range_meters":24400,"station_id":"ce4bguh2rcd13ifvqcj0","pricing_plan_id":"cebpf4jnsgd1na2vs0mg"},{"bike_id":"af347d57-2fcb-432c-8f52-b8bed3140665","system_id":"levelo_inurba_marseille","lat":43.24176,"lon":5.39724,"is_reserved":false,"is_disabled":false,"rental_uris":{"android":"levelo://app?vid=af347d57-2fcb-432c-8f52-b8bed3140665","ios":"levelo://app?vid=af347d57-2fcb-432c-8f52-b8bed3140665"},"vehicle_type_id":"4","last_reported":1726754902,"current_range_meters":33600,"station_id":"ce4bhn12rcd13ifvqgpg","pricing_plan_id":"cebpf4jnsgd1na2vs0mg"},{"bike_id":"4a0a9232-5937-4ad1-9f11-8278a3fa5d0a","system_id":"levelo_inurba_marseille","lat":43.29702,"lon":5.36611,"is_reserved":false,"is_disabled":false,"rental_uris":{"android":"levelo://app?vid=4a0a9232-5937-4ad1-9f11-8278a3fa5d0a","ios":"levelo://app?vid=4a0a9232-5937-4ad1-9f11-8278a3fa5d0a"},"vehicle_type_id":"4","last_reported":1726754902,"current_range_meters":6000,"station_id":"ce4bgn12rcd13ifvqbt0","pricing_plan_id":"cebpf4jnsgd1na2vs0mg"},{"bike_id":"f0951c0b-fe0f-4006-8865-532ffd6a2283","system_id":"levelo_inurba_marseille","lat":43.30892,"lon":5.37189,"is_reserved":false,"is_disabled":false,"rental_uris":{"android":"levelo://app?vid=f0951c0b-fe0f-4006-8865-532ffd6a2283","ios":"levelo://app?vid=f0951c0b-fe0f-4006-8865-532ffd6a2283"},"vehicle_type_id":"4","last_reported":1726754902,"current_range_meters":23200,"station_id":"ce4bguh2rcd13ifvqckg","pricing_plan_id":"cebpf4jnsgd1na2vs0mg"},{"bike_id":"5cfc875d-46af-4508-96fb-d1c9b2c192c1","system_id":"levelo_inurba_marseille","lat":43.320464,"lon":5.41553,"is_reserved":false,"is_disabled":false,"rental_uris":{"android":"levelo://app?vid=5cfc875d-46af-4508-96fb-d1c9b2c192c1","ios":"levelo://app?vid=5cfc875d-46af-4508-96fb-d1c9b2c192c1"},"vehicle_type_id":"4","last_reported":1726754902,"current_range_meters":17200,"station_id":"ce4bhq92rcd13ifvqhkg","pricing_plan_id":"cebpf4jnsgd1na2vs0mg"},{"bike_id":"749218c8-7687-4ed0-b533-2a837921fe72","system_id":"levelo_inurba_marseille","lat":43.337444,"lon":5.374475,"is_reserved":false,"is_disabled":false,"rental_uris":{"android":"levelo://app?vid=749218c8-7687-4ed0-b533-2a837921fe72","ios":"levelo://app?vid=749218c8-7687-4ed0-b533-2a837921fe72"},"vehicle_type_id":"4","last_reported":1726754902,"current_range_meters":35600,"station_id":"ce4bhq92rcd13ifvqhkg","pricing_plan_id":"cebpf4jnsgd1na2vs0mg"},{"bike_id":"4f42d43e-c75b-4fc4-873a-0a4d26d10804","system_id":"levelo_inurba_marseille","lat":43.3171,"lon":5.43703,"is_reserved":false,"is_disabled":false,"rental_uris":{"android":"levelo://app?vid=4f42d43e-c75b-4fc4-873a-0a4d26d10804","ios":"levelo://app?vid=4f42d43e-c75b-4fc4-873a-0a4d26d10804"},"vehicle_type_id":"4","last_reported":1726754902,"current_range_meters":30000,"station_id":"ce4bhp92rcd13ifvqhcg","pricing_plan_id":"cebpf4jnsgd1na2vs0mg"},{"bike_id":"2b67caa3-7267-414b-867b-e9cc4161cb69","system_id":"levelo_inurba_marseille","lat":43.29048,"lon":5.3592,"is_reserved":false,"is_disabled":false,"rental_uris":{"android":"levelo://app?vid=2b67caa3-7267-414b-867b-e9cc4161cb69","ios":"levelo://app?vid=2b67caa3-7267-414b-867b-e9cc4161cb69"},"vehicle_type_id":"4","last_reported":1726754902,"current_range_meters":36400,"station_id":"ce4bha92rcd13ifvqeg0","pricing_plan_id":"cebpf4jnsgd1na2vs0mg"},{"bike_id":"84474994-5e52-432b-89ae-d8295970d6bf","system_id":"levelo_inurba_marseille","lat":43.312592,"lon":5.401567,"is_reserved":false,"is_disabled":false,"rental_uris":{"android":"levelo://app?vid=84474994-5e52-432b-89ae-d8295970d6bf","ios":"levelo://app?vid=84474994-5e52-432b-89ae-d8295970d6bf"},"vehicle_type_id":"4","last_reported":1726754902,"current_range_meters":22400,"station_id":"ce4bh092rcd13ifvqd30","pricing_plan_id":"cebpf4jnsgd1na2vs0mg"},{"bike_id":"dfc27f58-aefb-4174-9a55-8f9571bd3c89","system_id":"levelo_inurba_marseille","lat":43.24177,"lon":5.3973,"is_reserved":false,"is_disabled":false,"rental_uris":{"android":"levelo://app?vid=dfc27f58-aefb-4174-9a55-8f9571bd3c89","ios":"levelo://app?vid=dfc27f58-aefb-4174-9a55-8f9571bd3c89"},"vehicle_type_id":"4","last_reported":1726754902,"current_range_meters":27600,"station_id":"ce4bhn12rcd13ifvqgpg","pricing_plan_id":"cebpf4jnsgd1na2vs0mg"},{"bike_id":"a6450748-9019-4209-b747-f0adda4a4fd4","system_id":"levelo_inurba_marseille","lat":43.29901,"lon":5.38145,"is_reserved":false,"is_disabled":false,"rental_uris":{"android":"levelo://app?vid=a6450748-9019-4209-b747-f0adda4a4fd4","ios":"levelo://app?vid=a6450748-9019-4209-b747-f0adda4a4fd4"},"vehicle_type_id":"4","last_reported":1726754902,"current_range_meters":38800,"station_id":"ce4bgj12rcd13ifvqbc0","pricing_plan_id":"cebpf4jnsgd1na2vs0mg"},{"bike_id":"f3ea201b-58ad-4d7b-b23c-b785c9aad8ee","system_id":"levelo_inurba_marseille","lat":43.265,"lon":5.39543,"is_reserved":false,"is_disabled":false,"rental_uris":{"android":"levelo://app?vid=f3ea201b-58ad-4d7b-b23c-b785c9aad8ee","ios":"levelo://app?vid=f3ea201b-58ad-4d7b-b23c-b785c9aad8ee"},"vehicle_type_id":"4","last_reported":1726754902,"current_range_meters":30800,"station_id":"ce4bhi12rcd13ifvqfq0","pricing_plan_id":"cebpf4jnsgd1na2vs0mg"},{"bike_id":"1d5b1bdc-6dca-4a31-a66b-8f0ad41b0aa1","system_id":"levelo_inurba_marseille","lat":43.245697,"lon":5.380477,"is_reserved":false,"is_disabled":false,"rental_uris":{"android":"levelo://app?vid=1d5b1bdc-6dca-4a31-a66b-8f0ad41b0aa1","ios":"levelo://app?vid=1d5b1bdc-6dca-4a31-a66b-8f0ad41b0aa1"},"vehicle_type_id":"4","last_reported":1726754902,"current_range_meters":25600,"station_id":"ce4bhih2rcd13ifvqfr0","pricing_plan_id":"cebpf4jnsgd1na2vs0mg"},{"bike_id":"282d8c94-3959-466f-bf01-d3670e5313fa","system_id":"levelo_inurba_marseille","lat":43.3055,"lon":5.36525,"is_reserved":false,"is_disabled":false,"rental_uris":{"android":"levelo://app?vid=282d8c94-3959-466f-bf01-d3670e5313fa","ios":"levelo://app?vid=282d8c94-3959-466f-bf01-d3670e5313fa"},"vehicle_type_id":"4","last_reported":1726754902,"current_range_meters":24000,"station_id":"ce4bgs12rcd13ifvqcag","pricing_plan_id":"cebpf4jnsgd1na2vs0mg"},{"bike_id":"43356356-1ebf-41d4-a9de-4fa2973940ef","system_id":"levelo_inurba_marseille","lat":43.29963,"lon":5.41329,"is_reserved":false,"is_disabled":false,"rental_uris":{"android":"levelo://app?vid=43356356-1ebf-41d4-a9de-4fa2973940ef","ios":"levelo://app?vid=43356356-1ebf-41d4-a9de-4fa2973940ef"},"vehicle_type_id":"4","last_reported":1726754902,"current_range_meters":36400,"station_id":"ce4bhp12rcd13ifvqh9g","pricing_plan_id":"cebpf4jnsgd1na2vs0mg"},{"bike_id":"090af28d-4b58-4403-a4fa-64c8a96fc47c","system_id":"levelo_inurba_marseille","lat":43.28,"lon":5.40015,"is_reserved":false,"is_disabled":false,"rental_uris":{"android":"levelo://app?vid=090af28d-4b58-4403-a4fa-64c8a96fc47c","ios":"levelo://app?vid=090af28d-4b58-4403-a4fa-64c8a96fc47c"},"vehicle_type_id":"4","last_reported":1726754902,"current_range_meters":7200,"station_id":"ce4bho92rcd13ifvqh4g","pricing_plan_id":"cebpf4jnsgd1na2vs0mg"},{"bike_id":"a0ea4c20-eeae-4054-a4b5-699b69c4c176","system_id":"levelo_inurba_marseille","lat":43.29557,"lon":5.42282,"is_reserved":false,"is_disabled":false,"rental_uris":{"android":"levelo://app?vid=a0ea4c20-eeae-4054-a4b5-699b69c4c176","ios":"levelo://app?vid=a0ea4c20-eeae-4054-a4b5-699b69c4c176"},"vehicle_type_id":"4","last_reported":1726754902,"current_range_meters":13600,"station_id":"ce4bhph2rcd13ifvqhdg","pricing_plan_id":"cebpf4jnsgd1na2vs0mg"},{"bike_id":"da464fb3-65fc-40e7-90a3-834ec33908b3","system_id":"levelo_inurba_marseille","lat":43.26683,"lon":5.38272,"is_reserved":false,"is_disabled":false,"rental_uris":{"android":"levelo://app?vid=da464fb3-65fc-40e7-90a3-834ec33908b3","ios":"levelo://app?vid=da464fb3-65fc-40e7-90a3-834ec33908b3"},"vehicle_type_id":"4","last_reported":1726754902,"current_range_meters":22800,"station_id":"ce4bhg92rcd13ifvqf90","pricing_plan_id":"cebpf4jnsgd1na2vs0mg"},{"bike_id":"edf171b0-2d54-409d-a330-4dcc2b4c165d","system_id":"levelo_inurba_marseille","lat":43.30806,"lon":5.43525,"is_reserved":false,"is_disabled":false,"rental_uris":{"android":"levelo://app?vid=edf171b0-2d54-409d-a330-4dcc2b4c165d","ios":"levelo://app?vid=edf171b0-2d54-409d-a330-4dcc2b4c165d"},"vehicle_type_id":"4","last_reported":1726754902,"current_range_meters":21600,"station_id":"ce4bhph2rcd13ifvqheg","pricing_plan_id":"cebpf4jnsgd1na2vs0mg"},{"bike_id":"309e1d83-dfdd-4727-8e23-3ad8e2d60153","system_id":"levelo_inurba_marseille","lat":43.23156,"lon":5.43707,"is_reserved":false,"is_disabled":false,"rental_uris":{"android":"levelo://app?vid=309e1d83-dfdd-4727-8e23-3ad8e2d60153","ios":"levelo://app?vid=309e1d83-dfdd-4727-8e23-3ad8e2d60153"},"vehicle_type_id":"4","last_reported":1726754902,"current_range_meters":15200,"station_id":"ce4bhmp2rcd13ifvqgog","pricing_plan_id":"cebpf4jnsgd1na2vs0mg"},{"bike_id":"99a7dc90-2d6f-44d5-8363-3b98e8384430","system_id":"levelo_inurba_marseille","lat":43.26559,"lon":5.37283,"is_reserved":false,"is_disabled":false,"rental_uris":{"android":"levelo://app?vid=99a7dc90-2d6f-44d5-8363-3b98e8384430","ios":"levelo://app?vid=99a7dc90-2d6f-44d5-8363-3b98e8384430"},"vehicle_type_id":"4","last_reported":1726754902,"current_range_meters":21600,"station_id":"ce4bhg12rcd13ifvqf70","pricing_plan_id":"cebpf4jnsgd1na2vs0mg"},{"bike_id":"3c1e2fe8-50b9-4d89-acfa-881e0423911f","system_id":"levelo_inurba_marseille","lat":43.320365,"lon":5.415524,"is_reserved":false,"is_disabled":false,"rental_uris":{"android":"levelo://app?vid=3c1e2fe8-50b9-4d89-acfa-881e0423911f","ios":"levelo://app?vid=3c1e2fe8-50b9-4d89-acfa-881e0423911f"},"vehicle_type_id":"4","last_reported":1726754902,"current_range_meters":18000,"station_id":"ce4bhq92rcd13ifvqhkg","pricing_plan_id":"cebpf4jnsgd1na2vs0mg"},{"bike_id":"86d2fbbc-c469-4ea8-9619-326d1c533696","system_id":"levelo_inurba_marseille","lat":43.25488,"lon":5.37648,"is_reserved":false,"is_disabled":false,"rental_uris":{"android":"levelo://app?vid=86d2fbbc-c469-4ea8-9619-326d1c533696","ios":"levelo://app?vid=86d2fbbc-c469-4ea8-9619-326d1c533696"},"vehicle_type_id":"4","last_reported":1726754902,"current_range_meters":36000,"station_id":"ce4bhh12rcd13ifvqff0","pricing_plan_id":"cebpf4jnsgd1na2vs0mg"},{"bike_id":"8cecc3cf-935e-4c80-b0e4-bac37587dcdf","system_id":"levelo_inurba_marseille","lat":43.231537,"lon":5.437062,"is_reserved":false,"is_disabled":false,"rental_uris":{"android":"levelo://app?vid=8cecc3cf-935e-4c80-b0e4-bac37587dcdf","ios":"levelo://app?vid=8cecc3cf-935e-4c80-b0e4-bac37587dcdf"},"vehicle_type_id":"4","last_reported":1726754902,"current_range_meters":6800,"station_id":"ce4bhmp2rcd13ifvqgog","pricing_plan_id":"cebpf4jnsgd1na2vs0mg"},{"bike_id":"ae8b6df9-f8da-4e6b-8056-c172fcbd0ef0","system_id":"levelo_inurba_marseille","lat":43.337444,"lon":5.374475,"is_reserved":false,"is_disabled":false,"rental_uris":{"android":"levelo://app?vid=ae8b6df9-f8da-4e6b-8056-c172fcbd0ef0","ios":"levelo://app?vid=ae8b6df9-f8da-4e6b-8056-c172fcbd0ef0"},"vehicle_type_id":"4","last_reported":1726754902,"current_range_meters":12400,"station_id":"","pricing_plan_id":"cebpf4jnsgd1na2vs0mg"},{"bike_id":"12bf6397-9e93-4fb6-beb9-0a54bf330a1e","system_id":"levelo_inurba_marseille","lat":43.30143,"lon":5.37404,"is_reserved":false,"is_disabled":false,"rental_uris":{"android":"levelo://app?vid=12bf6397-9e93-4fb6-beb9-0a54bf330a1e","ios":"levelo://app?vid=12bf6397-9e93-4fb6-beb9-0a54bf330a1e"},"vehicle_type_id":"4","last_reported":1726754902,"current_range_meters":39200,"station_id":"ce4bgs92rcd13ifvqcc0","pricing_plan_id":"cebpf4jnsgd1na2vs0mg"},{"bike_id":"5307e4c9-4272-45ae-bba6-675e51033a09","system_id":"levelo_inurba_marseille","lat":43.30312,"lon":5.36889,"is_reserved":false,"is_disabled":false,"rental_uris":{"android":"levelo://app?vid=5307e4c9-4272-45ae-bba6-675e51033a09","ios":"levelo://app?vid=5307e4c9-4272-45ae-bba6-675e51033a09"},"vehicle_type_id":"4","last_reported":1726754902,"current_range_meters":37600,"station_id":"ce4bgqh2rcd13ifvqc5g","pricing_plan_id":"cebpf4jnsgd1na2vs0mg"},{"bike_id":"021fdfce-bdf3-4d66-b87f-b9342c204949","system_id":"levelo_inurba_marseille","lat":43.29096,"lon":5.38151,"is_reserved":false,"is_disabled":false,"rental_uris":{"android":"levelo://app?vid=021fdfce-bdf3-4d66-b87f-b9342c204949","ios":"levelo://app?vid=021fdfce-bdf3-4d66-b87f-b9342c204949"},"vehicle_type_id":"4","last_reported":1726754902,"current_range_meters":25600,"station_id":"ce4bh512rcd13ifvqe2g","pricing_plan_id":"cebpf4jnsgd1na2vs0mg"},{"bike_id":"c58a09e0-e27d-474f-b410-f612c6647346","system_id":"levelo_inurba_marseille","lat":43.30545,"lon":5.3669,"is_reserved":false,"is_disabled":false,"rental_uris":{"android":"levelo://app?vid=c58a09e0-e27d-474f-b410-f612c6647346","ios":"levelo://app?vid=c58a09e0-e27d-474f-b410-f612c6647346"},"vehicle_type_id":"4","last_reported":1726754902,"current_range_meters":27200,"station_id":"ce4bgrp2rcd13ifvqc9g","pricing_plan_id":"cebpf4jnsgd1na2vs0mg"},{"bike_id":"8269b944-fc1d-43dd-b1f0-cbd13897d9f4","system_id":"levelo_inurba_marseille","lat":43.298799,"lon":5.388999,"is_reserved":false,"is_disabled":false,"rental_uris":{"android":"levelo://app?vid=8269b944-fc1d-43dd-b1f0-cbd13897d9f4","ios":"levelo://app?vid=8269b944-fc1d-43dd-b1f0-cbd13897d9f4"},"vehicle_type_id":"4","last_reported":1726754902,"current_range_meters":36000,"station_id":"ce4bh392rcd13ifvqdl0","pricing_plan_id":"cebpf4jnsgd1na2vs0mg"},{"bike_id":"e5bdffd7-fc91-42cf-a288-27f8e8f46385","system_id":"levelo_inurba_marseille","lat":43.28268,"lon":5.35056,"is_reserved":false,"is_disabled":false,"rental_uris":{"android":"levelo://app?vid=e5bdffd7-fc91-42cf-a288-27f8e8f46385","ios":"levelo://app?vid=e5bdffd7-fc91-42cf-a288-27f8e8f46385"},"vehicle_type_id":"4","last_reported":1726754902,"current_range_meters":27600,"station_id":"ce4bhbp2rcd13ifvqerg","pricing_plan_id":"cebpf4jnsgd1na2vs0mg"},{"bike_id":"a01a4a21-dbb1-4a02-b900-30af3a75c27a","system_id":"levelo_inurba_marseille","lat":43.24652,"lon":5.38893,"is_reserved":false,"is_disabled":false,"rental_uris":{"android":"levelo://app?vid=a01a4a21-dbb1-4a02-b900-30af3a75c27a","ios":"levelo://app?vid=a01a4a21-dbb1-4a02-b900-30af3a75c27a"},"vehicle_type_id":"4","last_reported":1726754902,"current_range_meters":8800,"station_id":"ce4bhg12rcd13ifvqf60","pricing_plan_id":"cebpf4jnsgd1na2vs0mg"},{"bike_id":"7296939a-e07b-445c-bd52-40cde8ccbba2","system_id":"levelo_inurba_marseille","lat":43.2602,"lon":5.37556,"is_reserved":false,"is_disabled":false,"rental_uris":{"android":"levelo://app?vid=7296939a-e07b-445c-bd52-40cde8ccbba2","ios":"levelo://app?vid=7296939a-e07b-445c-bd52-40cde8ccbba2"},"vehicle_type_id":"4","last_reported":1726754902,"current_range_meters":37600,"station_id":"ce4bhgh2rcd13ifvqfa0","pricing_plan_id":"cebpf4jnsgd1na2vs0mg"},{"bike_id":"a98ac186-b378-4aea-88f9-0361333d19ad","system_id":"levelo_inurba_marseille","lat":43.31237,"lon":5.36855,"is_reserved":false,"is_disabled":false,"rental_uris":{"android":"levelo://app?vid=a98ac186-b378-4aea-88f9-0361333d19ad","ios":"levelo://app?vid=a98ac186-b378-4aea-88f9-0361333d19ad"},"vehicle_type_id":"4","last_reported":1726754902,"current_range_meters":14800,"station_id":"ce4bgl92rcd13ifvqbq0","pricing_plan_id":"cebpf4jnsgd1na2vs0mg"},{"bike_id":"e669bd6c-abbe-4921-ba26-9fc661d40bbb","system_id":"levelo_inurba_marseille","lat":43.30544,"lon":5.36532,"is_reserved":false,"is_disabled":false,"rental_uris":{"android":"levelo://app?vid=e669bd6c-abbe-4921-ba26-9fc661d40bbb","ios":"levelo://app?vid=e669bd6c-abbe-4921-ba26-9fc661d40bbb"},"vehicle_type_id":"4","last_reported":1726754902,"current_range_meters":35200,"station_id":"ce4bgs12rcd13ifvqcag","pricing_plan_id":"cebpf4jnsgd1na2vs0mg"},{"bike_id":"78189870-b114-4146-b75a-b46bf65a6561","system_id":"levelo_inurba_marseille","lat":43.27374,"lon":5.36256,"is_reserved":false,"is_disabled":false,"rental_uris":{"android":"levelo://app?vid=78189870-b114-4146-b75a-b46bf65a6561","ios":"levelo://app?vid=78189870-b114-4146-b75a-b46bf65a6561"},"vehicle_type_id":"4","last_reported":1726754902,"current_range_meters":26800,"station_id":"ce4bhbh2rcd13ifvqeo0","pricing_plan_id":"cebpf4jnsgd1na2vs0mg"},{"bike_id":"f2fb56ea-037c-4ad8-8f8c-ad6c611f3003","system_id":"levelo_inurba_marseille","lat":43.31546,"lon":5.38041,"is_reserved":false,"is_disabled":false,"rental_uris":{"android":"levelo://app?vid=f2fb56ea-037c-4ad8-8f8c-ad6c611f3003","ios":"levelo://app?vid=f2fb56ea-037c-4ad8-8f8c-ad6c611f3003"},"vehicle_type_id":"4","last_reported":1726754902,"current_range_meters":28000,"station_id":"ce4bhsp2rcd13ifvqi50","pricing_plan_id":"cebpf4jnsgd1na2vs0mg"},{"bike_id":"bfd94ede-ffd4-41e1-9597-6db7792ea908","system_id":"levelo_inurba_marseille","lat":43.29635,"lon":5.40592,"is_reserved":false,"is_disabled":false,"rental_uris":{"android":"levelo://app?vid=bfd94ede-ffd4-41e1-9597-6db7792ea908","ios":"levelo://app?vid=bfd94ede-ffd4-41e1-9597-6db7792ea908"},"vehicle_type_id":"4","last_reported":1726754902,"current_range_meters":19200,"station_id":"ce4bh0h2rcd13ifvqd60","pricing_plan_id":"cebpf4jnsgd1na2vs0mg"},{"bike_id":"873af327-3207-4b84-bf04-cd233a62f1b3","system_id":"levelo_inurba_marseille","lat":43.30554,"lon":5.36699,"is_reserved":false,"is_disabled":false,"rental_uris":{"android":"levelo://app?vid=873af327-3207-4b84-bf04-cd233a62f1b3","ios":"levelo://app?vid=873af327-3207-4b84-bf04-cd233a62f1b3"},"vehicle_type_id":"4","last_reported":1726754902,"current_range_meters":36000,"station_id":"ce4bgrp2rcd13ifvqc9g","pricing_plan_id":"cebpf4jnsgd1na2vs0mg"},{"bike_id":"fb24808e-3cb1-4168-bff7-af5400702ebb","system_id":"levelo_inurba_marseille","lat":43.27618,"lon":5.36107,"is_reserved":false,"is_disabled":false,"rental_uris":{"android":"levelo://app?vid=fb24808e-3cb1-4168-bff7-af5400702ebb","ios":"levelo://app?vid=fb24808e-3cb1-4168-bff7-af5400702ebb"},"vehicle_type_id":"4","last_reported":1726754902,"current_range_meters":38000,"station_id":"ce4bgj92rcd13ifvqbe0","pricing_plan_id":"cebpf4jnsgd1na2vs0mg"},{"bike_id":"c32dc568-f10c-4010-ad55-d5f360cf461f","system_id":"levelo_inurba_marseille","lat":43.30528,"lon":5.36528,"is_reserved":false,"is_disabled":false,"rental_uris":{"android":"levelo://app?vid=c32dc568-f10c-4010-ad55-d5f360cf461f","ios":"levelo://app?vid=c32dc568-f10c-4010-ad55-d5f360cf461f"},"vehicle_type_id":"4","last_reported":1726754902,"current_range_meters":38800,"station_id":"ce4bgs12rcd13ifvqcag","pricing_plan_id":"cebpf4jnsgd1na2vs0mg"},{"bike_id":"aaeae615-2194-47c5-84e0-363507d6e824","system_id":"levelo_inurba_marseille","lat":43.32289,"lon":5.38267,"is_reserved":false,"is_disabled":false,"rental_uris":{"android":"levelo://app?vid=aaeae615-2194-47c5-84e0-363507d6e824","ios":"levelo://app?vid=aaeae615-2194-47c5-84e0-363507d6e824"},"vehicle_type_id":"4","last_reported":1726754902,"current_range_meters":24400,"station_id":"ce4bhr12rcd13ifvqhqg","pricing_plan_id":"cebpf4jnsgd1na2vs0mg"},{"bike_id":"73f058f6-4a1a-407a-9137-aa0018967656","system_id":"levelo_inurba_marseille","lat":43.24807,"lon":5.37455,"is_reserved":false,"is_disabled":false,"rental_uris":{"android":"levelo://app?vid=73f058f6-4a1a-407a-9137-aa0018967656","ios":"levelo://app?vid=73f058f6-4a1a-407a-9137-aa0018967656"},"vehicle_type_id":"4","last_reported":1726754902,"current_range_meters":6000,"station_id":"ce4bhgh2rcd13ifvqfb0","pricing_plan_id":"cebpf4jnsgd1na2vs0mg"},{"bike_id":"205016f8-0b38-49b0-965e-55410bbd929e","system_id":"levelo_inurba_marseille","lat":43.29261,"lon":5.38428,"is_reserved":false,"is_disabled":false,"rental_uris":{"android":"levelo://app?vid=205016f8-0b38-49b0-965e-55410bbd929e","ios":"levelo://app?vid=205016f8-0b38-49b0-965e-55410bbd929e"},"vehicle_type_id":"4","last_reported":1726754902,"current_range_meters":8000,"station_id":"ce4bhr92rcd13ifvqhrg","pricing_plan_id":"cebpf4jnsgd1na2vs0mg"},{"bike_id":"cca817f5-602a-49a1-afb5-fc1ba8a924dd","system_id":"levelo_inurba_marseille","lat":43.30543,"lon":5.36557,"is_reserved":false,"is_disabled":false,"rental_uris":{"android":"levelo://app?vid=cca817f5-602a-49a1-afb5-fc1ba8a924dd","ios":"levelo://app?vid=cca817f5-602a-49a1-afb5-fc1ba8a924dd"},"vehicle_type_id":"4","last_reported":1726754902,"current_range_meters":38000,"station_id":"ce4bgs12rcd13ifvqcag","pricing_plan_id":"cebpf4jnsgd1na2vs0mg"},{"bike_id":"9be94feb-a495-4651-8693-da9a946157ae","system_id":"levelo_inurba_marseille","lat":43.25008,"lon":5.38919,"is_reserved":false,"is_disabled":false,"rental_uris":{"android":"levelo://app?vid=9be94feb-a495-4651-8693-da9a946157ae","ios":"levelo://app?vid=9be94feb-a495-4651-8693-da9a946157ae"},"vehicle_type_id":"4","last_reported":1726754902,"current_range_meters":14800,"station_id":"ce4bhgp2rcd13ifvqfd0","pricing_plan_id":"cebpf4jnsgd1na2vs0mg"},{"bike_id":"ca55f550-7c2c-4d22-8f9a-2ae1e9bc0aa4","system_id":"levelo_inurba_marseille","lat":43.283752,"lon":5.386392,"is_reserved":false,"is_disabled":false,"rental_uris":{"android":"levelo://app?vid=ca55f550-7c2c-4d22-8f9a-2ae1e9bc0aa4","ios":"levelo://app?vid=ca55f550-7c2c-4d22-8f9a-2ae1e9bc0aa4"},"vehicle_type_id":"4","last_reported":1726754902,"current_range_meters":27200,"station_id":"ce4bgkh2rcd13ifvqbl0","pricing_plan_id":"cebpf4jnsgd1na2vs0mg"},{"bike_id":"5853071a-a7de-43ad-87c8-982495d79fa0","system_id":"levelo_inurba_marseille","lat":43.25009,"lon":5.38916,"is_reserved":false,"is_disabled":false,"rental_uris":{"android":"levelo://app?vid=5853071a-a7de-43ad-87c8-982495d79fa0","ios":"levelo://app?vid=5853071a-a7de-43ad-87c8-982495d79fa0"},"vehicle_type_id":"4","last_reported":1726754902,"current_range_meters":34800,"station_id":"ce4bhgp2rcd13ifvqfd0","pricing_plan_id":"cebpf4jnsgd1na2vs0mg"},{"bike_id":"9b4a4749-10a4-40b9-9935-90a919cd5fdc","system_id":"levelo_inurba_marseille","lat":43.26211,"lon":5.37441,"is_reserved":false,"is_disabled":false,"rental_uris":{"android":"levelo://app?vid=9b4a4749-10a4-40b9-9935-90a919cd5fdc","ios":"levelo://app?vid=9b4a4749-10a4-40b9-9935-90a919cd5fdc"},"vehicle_type_id":"4","last_reported":1726754902,"current_range_meters":36400,"station_id":"ce4bhgp2rcd13ifvqfc0","pricing_plan_id":"cebpf4jnsgd1na2vs0mg"},{"bike_id":"77b15268-12b9-4417-858b-14ff46b3743e","system_id":"levelo_inurba_marseille","lat":43.31485,"lon":5.37296,"is_reserved":false,"is_disabled":false,"rental_uris":{"android":"levelo://app?vid=77b15268-12b9-4417-858b-14ff46b3743e","ios":"levelo://app?vid=77b15268-12b9-4417-858b-14ff46b3743e"},"vehicle_type_id":"4","last_reported":1726754902,"current_range_meters":38800,"station_id":"ce4bgt12rcd13ifvqcd0","pricing_plan_id":"cebpf4jnsgd1na2vs0mg"},{"bike_id":"f3460561-3768-43a2-ae14-76e009ac82c4","system_id":"levelo_inurba_marseille","lat":43.337444,"lon":5.374475,"is_reserved":false,"is_disabled":false,"rental_uris":{"android":"levelo://app?vid=f3460561-3768-43a2-ae14-76e009ac82c4","ios":"levelo://app?vid=f3460561-3768-43a2-ae14-76e009ac82c4"},"vehicle_type_id":"4","last_reported":1726754902,"current_range_meters":30000,"station_id":"ce4bhq92rcd13ifvqhkg","pricing_plan_id":"cebpf4jnsgd1na2vs0mg"},{"bike_id":"31e454cb-9d59-4375-ab64-1fbf39c22a43","system_id":"levelo_inurba_marseille","lat":43.28457,"lon":5.3589,"is_reserved":false,"is_disabled":false,"rental_uris":{"android":"levelo://app?vid=31e454cb-9d59-4375-ab64-1fbf39c22a43","ios":"levelo://app?vid=31e454cb-9d59-4375-ab64-1fbf39c22a43"},"vehicle_type_id":"4","last_reported":1726754902,"current_range_meters":26000,"station_id":"ce4bhah2rcd13ifvqei0","pricing_plan_id":"cebpf4jnsgd1na2vs0mg"},{"bike_id":"1d3b47bd-fee8-492b-9454-cfd096b53b68","system_id":"levelo_inurba_marseille","lat":43.30539,"lon":5.36539,"is_reserved":false,"is_disabled":false,"rental_uris":{"android":"levelo://app?vid=1d3b47bd-fee8-492b-9454-cfd096b53b68","ios":"levelo://app?vid=1d3b47bd-fee8-492b-9454-cfd096b53b68"},"vehicle_type_id":"4","last_reported":1726754902,"current_range_meters":32400,"station_id":"ce4bgs12rcd13ifvqcag","pricing_plan_id":"cebpf4jnsgd1na2vs0mg"},{"bike_id":"21b005ed-1eb5-47c4-9460-d627196b52cd","system_id":"levelo_inurba_marseille","lat":43.26569,"lon":5.39009,"is_reserved":false,"is_disabled":false,"rental_uris":{"android":"levelo://app?vid=21b005ed-1eb5-47c4-9460-d627196b52cd","ios":"levelo://app?vid=21b005ed-1eb5-47c4-9460-d627196b52cd"},"vehicle_type_id":"4","last_reported":1726754902,"current_range_meters":9600,"station_id":"ce4bhe12rcd13ifvqf30","pricing_plan_id":"cebpf4jnsgd1na2vs0mg"},{"bike_id":"92706b24-1d9c-413f-a3c6-1aeb8dcbf369","system_id":"levelo_inurba_marseille","lat":43.26206,"lon":5.37928,"is_reserved":false,"is_disabled":false,"rental_uris":{"android":"levelo://app?vid=92706b24-1d9c-413f-a3c6-1aeb8dcbf369","ios":"levelo://app?vid=92706b24-1d9c-413f-a3c6-1aeb8dcbf369"},"vehicle_type_id":"4","last_reported":1726754902,"current_range_meters":35200,"station_id":"ce4bhjp2rcd13ifvqg90","pricing_plan_id":"cebpf4jnsgd1na2vs0mg"},{"bike_id":"13e8bd9c-658c-4cad-85f4-dbc9bf699d78","system_id":"levelo_inurba_marseille","lat":43.29884,"lon":5.38909,"is_reserved":false,"is_disabled":false,"rental_uris":{"android":"levelo://app?vid=13e8bd9c-658c-4cad-85f4-dbc9bf699d78","ios":"levelo://app?vid=13e8bd9c-658c-4cad-85f4-dbc9bf699d78"},"vehicle_type_id":"4","last_reported":1726754902,"current_range_meters":39200,"station_id":"ce4bh392rcd13ifvqdl0","pricing_plan_id":"cebpf4jnsgd1na2vs0mg"},{"bike_id":"64df45f6-da35-448a-b0c7-d3461b56ca6b","system_id":"levelo_inurba_marseille","lat":43.257288,"lon":5.411132,"is_reserved":false,"is_disabled":false,"rental_uris":{"android":"levelo://app?vid=64df45f6-da35-448a-b0c7-d3461b56ca6b","ios":"levelo://app?vid=64df45f6-da35-448a-b0c7-d3461b56ca6b"},"vehicle_type_id":"4","last_reported":1726754902,"current_range_meters":35200,"station_id":"ce4bhkp2rcd13ifvqgd0","pricing_plan_id":"cebpf4jnsgd1na2vs0mg"},{"bike_id":"e0924bbc-960e-4922-86ab-869bd1c036fe","system_id":"levelo_inurba_marseille","lat":43.29414,"lon":5.38618,"is_reserved":false,"is_disabled":false,"rental_uris":{"android":"levelo://app?vid=e0924bbc-960e-4922-86ab-869bd1c036fe","ios":"levelo://app?vid=e0924bbc-960e-4922-86ab-869bd1c036fe"},"vehicle_type_id":"4","last_reported":1726754902,"current_range_meters":4000,"station_id":"ce4bh2h2rcd13ifvqdh0","pricing_plan_id":"cebpf4jnsgd1na2vs0mg"},{"bike_id":"71b8d024-7c7f-41e2-92db-62aae15762a9","system_id":"levelo_inurba_marseille","lat":43.3032,"lon":5.36903,"is_reserved":false,"is_disabled":false,"rental_uris":{"android":"levelo://app?vid=71b8d024-7c7f-41e2-92db-62aae15762a9","ios":"levelo://app?vid=71b8d024-7c7f-41e2-92db-62aae15762a9"},"vehicle_type_id":"4","last_reported":1726754902,"current_range_meters":30000,"station_id":"ce4bgqh2rcd13ifvqc5g","pricing_plan_id":"cebpf4jnsgd1na2vs0mg"},{"bike_id":"55fed244-caf4-46e6-99fc-fcd916ddb5b7","system_id":"levelo_inurba_marseille","lat":43.23193,"lon":5.35541,"is_reserved":false,"is_disabled":false,"rental_uris":{"android":"levelo://app?vid=55fed244-caf4-46e6-99fc-fcd916ddb5b7","ios":"levelo://app?vid=55fed244-caf4-46e6-99fc-fcd916ddb5b7"},"vehicle_type_id":"4","last_reported":1726754902,"current_range_meters":18000,"station_id":"ce4bhu92rcd13ifvqi70","pricing_plan_id":"cebpf4jnsgd1na2vs0mg"},{"bike_id":"19e30bd3-24f3-4b97-8379-240cbc6fa219","system_id":"levelo_inurba_marseille","lat":43.30558,"lon":5.36517,"is_reserved":false,"is_disabled":false,"rental_uris":{"android":"levelo://app?vid=19e30bd3-24f3-4b97-8379-240cbc6fa219","ios":"levelo://app?vid=19e30bd3-24f3-4b97-8379-240cbc6fa219"},"vehicle_type_id":"4","last_reported":1726754902,"current_range_meters":39200,"station_id":"ce4bgs12rcd13ifvqcag","pricing_plan_id":"cebpf4jnsgd1na2vs0mg"},{"bike_id":"fcd868b4-ba82-4e13-932e-0f4118808294","system_id":"levelo_inurba_marseille","lat":43.23197,"lon":5.35554,"is_reserved":false,"is_disabled":false,"rental_uris":{"android":"levelo://app?vid=fcd868b4-ba82-4e13-932e-0f4118808294","ios":"levelo://app?vid=fcd868b4-ba82-4e13-932e-0f4118808294"},"vehicle_type_id":"4","last_reported":1726754902,"current_range_meters":4800,"station_id":"ce4bhu92rcd13ifvqi70","pricing_plan_id":"cebpf4jnsgd1na2vs0mg"},{"bike_id":"3447f118-b917-4b2e-880d-0087d1e429eb","system_id":"levelo_inurba_marseille","lat":43.306427,"lon":5.401096,"is_reserved":false,"is_disabled":false,"rental_uris":{"android":"levelo://app?vid=3447f118-b917-4b2e-880d-0087d1e429eb","ios":"levelo://app?vid=3447f118-b917-4b2e-880d-0087d1e429eb"},"vehicle_type_id":"4","last_reported":1726754902,"current_range_meters":3600,"station_id":"ce4bhb12rcd13ifvqem0","pricing_plan_id":"cebpf4jnsgd1na2vs0mg"},{"bike_id":"30d84394-0398-4ab6-99f8-8eeae71a3069","system_id":"levelo_inurba_marseille","lat":43.28438,"lon":5.39182,"is_reserved":false,"is_disabled":false,"rental_uris":{"android":"levelo://app?vid=30d84394-0398-4ab6-99f8-8eeae71a3069","ios":"levelo://app?vid=30d84394-0398-4ab6-99f8-8eeae71a3069"},"vehicle_type_id":"4","last_reported":1726754902,"current_range_meters":24000,"station_id":"ce4bhoh2rcd13ifvqh5g","pricing_plan_id":"cebpf4jnsgd1na2vs0mg"},{"bike_id":"5d8b7f7d-de27-4dc7-99fe-55a7fc5cf2c0","system_id":"levelo_inurba_marseille","lat":43.243774,"lon":5.370536,"is_reserved":false,"is_disabled":false,"rental_uris":{"android":"levelo://app?vid=5d8b7f7d-de27-4dc7-99fe-55a7fc5cf2c0","ios":"levelo://app?vid=5d8b7f7d-de27-4dc7-99fe-55a7fc5cf2c0"},"vehicle_type_id":"4","last_reported":1726754902,"current_range_meters":9600,"station_id":"ce4bhhh2rcd13ifvqfk0","pricing_plan_id":"cebpf4jnsgd1na2vs0mg"},{"bike_id":"b14b5cd6-5407-4249-b6d8-aec0c8d680e1","system_id":"levelo_inurba_marseille","lat":43.33724,"lon":5.39186,"is_reserved":false,"is_disabled":false,"rental_uris":{"android":"levelo://app?vid=b14b5cd6-5407-4249-b6d8-aec0c8d680e1","ios":"levelo://app?vid=b14b5cd6-5407-4249-b6d8-aec0c8d680e1"},"vehicle_type_id":"4","last_reported":1726754902,"current_range_meters":8400,"station_id":"ce4bhr92rcd13ifvqhsg","pricing_plan_id":"cebpf4jnsgd1na2vs0mg"},{"bike_id":"bb84d119-edcd-41c0-91e8-a062977a7329","system_id":"levelo_inurba_marseille","lat":43.31719,"lon":5.42396,"is_reserved":false,"is_disabled":false,"rental_uris":{"android":"levelo://app?vid=bb84d119-edcd-41c0-91e8-a062977a7329","ios":"levelo://app?vid=bb84d119-edcd-41c0-91e8-a062977a7329"},"vehicle_type_id":"4","last_reported":1726754902,"current_range_meters":17600,"station_id":"ce4bhp92rcd13ifvqhbg","pricing_plan_id":"cebpf4jnsgd1na2vs0mg"},{"bike_id":"d96a5f88-f566-437a-9fae-ae09284bbbde","system_id":"levelo_inurba_marseille","lat":43.29093,"lon":5.38141,"is_reserved":false,"is_disabled":false,"rental_uris":{"android":"levelo://app?vid=d96a5f88-f566-437a-9fae-ae09284bbbde","ios":"levelo://app?vid=d96a5f88-f566-437a-9fae-ae09284bbbde"},"vehicle_type_id":"4","last_reported":1726754902,"current_range_meters":12000,"station_id":"ce4bh512rcd13ifvqe2g","pricing_plan_id":"cebpf4jnsgd1na2vs0mg"},{"bike_id":"b035849e-9158-48ab-afae-15dac66a915f","system_id":"levelo_inurba_marseille","lat":43.33757,"lon":5.37447,"is_reserved":false,"is_disabled":false,"rental_uris":{"android":"levelo://app?vid=b035849e-9158-48ab-afae-15dac66a915f","ios":"levelo://app?vid=b035849e-9158-48ab-afae-15dac66a915f"},"vehicle_type_id":"4","last_reported":1726754902,"current_range_meters":18000,"station_id":"","pricing_plan_id":"cebpf4jnsgd1na2vs0mg"},{"bike_id":"e9c12d1b-6da0-4cc3-83bb-95bd5eb4adbb","system_id":"levelo_inurba_marseille","lat":43.30141,"lon":5.37419,"is_reserved":false,"is_disabled":false,"rental_uris":{"android":"levelo://app?vid=e9c12d1b-6da0-4cc3-83bb-95bd5eb4adbb","ios":"levelo://app?vid=e9c12d1b-6da0-4cc3-83bb-95bd5eb4adbb"},"vehicle_type_id":"4","last_reported":1726754902,"current_range_meters":38800,"station_id":"ce4bgs92rcd13ifvqcc0","pricing_plan_id":"cebpf4jnsgd1na2vs0mg"},{"bike_id":"1ccb1831-a5dc-464b-838b-dae4f6eb38cc","system_id":"levelo_inurba_marseille","lat":43.311096,"lon":5.4243,"is_reserved":false,"is_disabled":false,"rental_uris":{"android":"levelo://app?vid=1ccb1831-a5dc-464b-838b-dae4f6eb38cc","ios":"levelo://app?vid=1ccb1831-a5dc-464b-838b-dae4f6eb38cc"},"vehicle_type_id":"4","last_reported":1726754902,"current_range_meters":26000,"station_id":"ce4bhp92rcd13ifvqhag","pricing_plan_id":"cebpf4jnsgd1na2vs0mg"},{"bike_id":"4fa0ca0d-342c-4cd6-990b-f5e4ae40db2b","system_id":"levelo_inurba_marseille","lat":43.29957,"lon":5.41329,"is_reserved":false,"is_disabled":false,"rental_uris":{"android":"levelo://app?vid=4fa0ca0d-342c-4cd6-990b-f5e4ae40db2b","ios":"levelo://app?vid=4fa0ca0d-342c-4cd6-990b-f5e4ae40db2b"},"vehicle_type_id":"4","last_reported":1726754902,"current_range_meters":38800,"station_id":"ce4bhp12rcd13ifvqh9g","pricing_plan_id":"cebpf4jnsgd1na2vs0mg"},{"bike_id":"1f582c6d-9a91-4e18-aec3-69785c604dfe","system_id":"levelo_inurba_marseille","lat":43.31498,"lon":5.373,"is_reserved":false,"is_disabled":false,"rental_uris":{"android":"levelo://app?vid=1f582c6d-9a91-4e18-aec3-69785c604dfe","ios":"levelo://app?vid=1f582c6d-9a91-4e18-aec3-69785c604dfe"},"vehicle_type_id":"4","last_reported":1726754902,"current_range_meters":24400,"station_id":"ce4bgt12rcd13ifvqcd0","pricing_plan_id":"cebpf4jnsgd1na2vs0mg"},{"bike_id":"92df7abb-e3e4-400c-911a-8bde9de695f9","system_id":"levelo_inurba_marseille","lat":43.23965,"lon":5.36623,"is_reserved":false,"is_disabled":false,"rental_uris":{"android":"levelo://app?vid=92df7abb-e3e4-400c-911a-8bde9de695f9","ios":"levelo://app?vid=92df7abb-e3e4-400c-911a-8bde9de695f9"},"vehicle_type_id":"4","last_reported":1726754902,"current_range_meters":24000,"station_id":"ce4bhi12rcd13ifvqfp0","pricing_plan_id":"cebpf4jnsgd1na2vs0mg"},{"bike_id":"60a6f6c2-c23b-4cfd-a0cb-c3d4101e03a6","system_id":"levelo_inurba_marseille","lat":43.29847,"lon":5.36271,"is_reserved":false,"is_disabled":false,"rental_uris":{"android":"levelo://app?vid=60a6f6c2-c23b-4cfd-a0cb-c3d4101e03a6","ios":"levelo://app?vid=60a6f6c2-c23b-4cfd-a0cb-c3d4101e03a6"},"vehicle_type_id":"4","last_reported":1726754902,"current_range_meters":38800,"station_id":"ce4bgpp2rcd13ifvqc3g","pricing_plan_id":"cebpf4jnsgd1na2vs0mg"},{"bike_id":"30ff1179-4238-4ae8-90c7-a31243941a03","system_id":"levelo_inurba_marseille","lat":43.29252,"lon":5.38428,"is_reserved":false,"is_disabled":false,"rental_uris":{"android":"levelo://app?vid=30ff1179-4238-4ae8-90c7-a31243941a03","ios":"levelo://app?vid=30ff1179-4238-4ae8-90c7-a31243941a03"},"vehicle_type_id":"4","last_reported":1726754902,"current_range_meters":4400,"station_id":"ce4bh692rcd13ifvqea0","pricing_plan_id":"cebpf4jnsgd1na2vs0mg"},{"bike_id":"8a56d611-95ce-4a5f-b757-65e9e4f7d55b","system_id":"levelo_inurba_marseille","lat":43.3254,"lon":5.41422,"is_reserved":false,"is_disabled":false,"rental_uris":{"android":"levelo://app?vid=8a56d611-95ce-4a5f-b757-65e9e4f7d55b","ios":"levelo://app?vid=8a56d611-95ce-4a5f-b757-65e9e4f7d55b"},"vehicle_type_id":"4","last_reported":1726754902,"current_range_meters":20400,"station_id":"ce4bhq12rcd13ifvqhhg","pricing_plan_id":"cebpf4jnsgd1na2vs0mg"},{"bike_id":"d502ca91-2d93-4ad0-bbd9-d48bfac3ea90","system_id":"levelo_inurba_marseille","lat":43.25722,"lon":5.41111,"is_reserved":false,"is_disabled":false,"rental_uris":{"android":"levelo://app?vid=d502ca91-2d93-4ad0-bbd9-d48bfac3ea90","ios":"levelo://app?vid=d502ca91-2d93-4ad0-bbd9-d48bfac3ea90"},"vehicle_type_id":"4","last_reported":1726754902,"current_range_meters":28400,"station_id":"ce4bhkp2rcd13ifvqgd0","pricing_plan_id":"cebpf4jnsgd1na2vs0mg"},{"bike_id":"463ca9f4-b379-4cd4-a07e-9d60e4e7f35b","system_id":"levelo_inurba_marseille","lat":43.29225,"lon":5.38528,"is_reserved":false,"is_disabled":false,"rental_uris":{"android":"levelo://app?vid=463ca9f4-b379-4cd4-a07e-9d60e4e7f35b","ios":"levelo://app?vid=463ca9f4-b379-4cd4-a07e-9d60e4e7f35b"},"vehicle_type_id":"4","last_reported":1726754902,"current_range_meters":2800,"station_id":"ce4bh692rcd13ifvqea0","pricing_plan_id":"cebpf4jnsgd1na2vs0mg"},{"bike_id":"52fffaf1-dd98-4e0a-a39d-48011512624f","system_id":"levelo_inurba_marseille","lat":43.25498,"lon":5.3765,"is_reserved":false,"is_disabled":false,"rental_uris":{"android":"levelo://app?vid=52fffaf1-dd98-4e0a-a39d-48011512624f","ios":"levelo://app?vid=52fffaf1-dd98-4e0a-a39d-48011512624f"},"vehicle_type_id":"4","last_reported":1726754902,"current_range_meters":28800,"station_id":"ce4bhh12rcd13ifvqff0","pricing_plan_id":"cebpf4jnsgd1na2vs0mg"},{"bike_id":"7a7ec394-a522-4875-b4fb-dd040df3cf3a","system_id":"levelo_inurba_marseille","lat":43.294025,"lon":5.386552,"is_reserved":false,"is_disabled":false,"rental_uris":{"android":"levelo://app?vid=7a7ec394-a522-4875-b4fb-dd040df3cf3a","ios":"levelo://app?vid=7a7ec394-a522-4875-b4fb-dd040df3cf3a"},"vehicle_type_id":"4","last_reported":1726754902,"current_range_meters":32000,"station_id":"ce4bh2h2rcd13ifvqdh0","pricing_plan_id":"cebpf4jnsgd1na2vs0mg"},{"bike_id":"7449b6ff-44b6-41a2-9acb-6895d59fb852","system_id":"levelo_inurba_marseille","lat":43.292023,"lon":5.358062,"is_reserved":false,"is_disabled":false,"rental_uris":{"android":"levelo://app?vid=7449b6ff-44b6-41a2-9acb-6895d59fb852","ios":"levelo://app?vid=7449b6ff-44b6-41a2-9acb-6895d59fb852"},"vehicle_type_id":"4","last_reported":1726754902,"current_range_meters":19600,"station_id":"ce4bhb12rcd13ifvqel0","pricing_plan_id":"cebpf4jnsgd1na2vs0mg"},{"bike_id":"3c3a8215-44df-42f2-9d6b-da84f5894ccd","system_id":"levelo_inurba_marseille","lat":43.25001,"lon":5.38922,"is_reserved":false,"is_disabled":false,"rental_uris":{"android":"levelo://app?vid=3c3a8215-44df-42f2-9d6b-da84f5894ccd","ios":"levelo://app?vid=3c3a8215-44df-42f2-9d6b-da84f5894ccd"},"vehicle_type_id":"4","last_reported":1726754902,"current_range_meters":38800,"station_id":"ce4bhgp2rcd13ifvqfd0","pricing_plan_id":"cebpf4jnsgd1na2vs0mg"},{"bike_id":"c5407118-42fb-4c2f-9d29-65aa8ba85e47","system_id":"levelo_inurba_marseille","lat":43.337444,"lon":5.374475,"is_reserved":false,"is_disabled":false,"rental_uris":{"android":"levelo://app?vid=c5407118-42fb-4c2f-9d29-65aa8ba85e47","ios":"levelo://app?vid=c5407118-42fb-4c2f-9d29-65aa8ba85e47"},"vehicle_type_id":"4","last_reported":1726754902,"current_range_meters":33200,"station_id":"ce4bh0h2rcd13ifvqd50","pricing_plan_id":"cebpf4jnsgd1na2vs0mg"},{"bike_id":"7e9f7f6d-7091-40f8-be59-170566e4739e","system_id":"levelo_inurba_marseille","lat":43.28476,"lon":5.38416,"is_reserved":false,"is_disabled":false,"rental_uris":{"android":"levelo://app?vid=7e9f7f6d-7091-40f8-be59-170566e4739e","ios":"levelo://app?vid=7e9f7f6d-7091-40f8-be59-170566e4739e"},"vehicle_type_id":"4","last_reported":1726754902,"current_range_meters":32000,"station_id":"ce4bh512rcd13ifvqe3g","pricing_plan_id":"cebpf4jnsgd1na2vs0mg"},{"bike_id":"3450e49a-3810-4469-8f17-4407126f60e1","system_id":"levelo_inurba_marseille","lat":43.27533,"lon":5.42627,"is_reserved":false,"is_disabled":false,"rental_uris":{"android":"levelo://app?vid=3450e49a-3810-4469-8f17-4407126f60e1","ios":"levelo://app?vid=3450e49a-3810-4469-8f17-4407126f60e1"},"vehicle_type_id":"4","last_reported":1726754902,"current_range_meters":3600,"station_id":"","pricing_plan_id":"cebpf4jnsgd1na2vs0mg"},{"bike_id":"7b9dd459-340b-4978-bfb0-6c163a5263e8","system_id":"levelo_inurba_marseille","lat":43.23195,"lon":5.35547,"is_reserved":false,"is_disabled":false,"rental_uris":{"android":"levelo://app?vid=7b9dd459-340b-4978-bfb0-6c163a5263e8","ios":"levelo://app?vid=7b9dd459-340b-4978-bfb0-6c163a5263e8"},"vehicle_type_id":"4","last_reported":1726754902,"current_range_meters":38800,"station_id":"ce4bhu92rcd13ifvqi70","pricing_plan_id":"cebpf4jnsgd1na2vs0mg"},{"bike_id":"396ba37e-88b0-4568-8a14-731de662ee27","system_id":"levelo_inurba_marseille","lat":43.31995,"lon":5.38142,"is_reserved":false,"is_disabled":false,"rental_uris":{"android":"levelo://app?vid=396ba37e-88b0-4568-8a14-731de662ee27","ios":"levelo://app?vid=396ba37e-88b0-4568-8a14-731de662ee27"},"vehicle_type_id":"4","last_reported":1726754902,"current_range_meters":32000,"station_id":"ce4bhr12rcd13ifvqhpg","pricing_plan_id":"cebpf4jnsgd1na2vs0mg"},{"bike_id":"59a08fd8-1e48-42c3-ba44-311e58b9541b","system_id":"levelo_inurba_marseille","lat":43.27816,"lon":5.40705,"is_reserved":false,"is_disabled":false,"rental_uris":{"android":"levelo://app?vid=59a08fd8-1e48-42c3-ba44-311e58b9541b","ios":"levelo://app?vid=59a08fd8-1e48-42c3-ba44-311e58b9541b"},"vehicle_type_id":"4","last_reported":1726754902,"current_range_meters":13600,"station_id":"ce4bhnh2rcd13ifvqgtg","pricing_plan_id":"cebpf4jnsgd1na2vs0mg"},{"bike_id":"ee5b51b2-81bc-41f3-a8b6-ee3b6fb51f2a","system_id":"levelo_inurba_marseille","lat":43.27366,"lon":5.36248,"is_reserved":false,"is_disabled":false,"rental_uris":{"android":"levelo://app?vid=ee5b51b2-81bc-41f3-a8b6-ee3b6fb51f2a","ios":"levelo://app?vid=ee5b51b2-81bc-41f3-a8b6-ee3b6fb51f2a"},"vehicle_type_id":"4","last_reported":1726754902,"current_range_meters":38800,"station_id":"ce4bhbh2rcd13ifvqeo0","pricing_plan_id":"cebpf4jnsgd1na2vs0mg"},{"bike_id":"eb5b6141-f2ef-4264-8af8-c572fb42a48d","system_id":"levelo_inurba_marseille","lat":43.3079,"lon":5.37645,"is_reserved":false,"is_disabled":false,"rental_uris":{"android":"levelo://app?vid=eb5b6141-f2ef-4264-8af8-c572fb42a48d","ios":"levelo://app?vid=eb5b6141-f2ef-4264-8af8-c572fb42a48d"},"vehicle_type_id":"4","last_reported":1726754902,"current_range_meters":27200,"station_id":"ce4bgv92rcd13ifvqcq0","pricing_plan_id":"cebpf4jnsgd1na2vs0mg"},{"bike_id":"36a0dfe2-6af1-46d1-b4ea-8f45ccafa9e3","system_id":"levelo_inurba_marseille","lat":43.29907,"lon":5.38135,"is_reserved":false,"is_disabled":false,"rental_uris":{"android":"levelo://app?vid=36a0dfe2-6af1-46d1-b4ea-8f45ccafa9e3","ios":"levelo://app?vid=36a0dfe2-6af1-46d1-b4ea-8f45ccafa9e3"},"vehicle_type_id":"4","last_reported":1726754902,"current_range_meters":12000,"station_id":"ce4bgj12rcd13ifvqbc0","pricing_plan_id":"cebpf4jnsgd1na2vs0mg"},{"bike_id":"52cb08ed-9346-44a5-9fd4-17c2ca78b86d","system_id":"levelo_inurba_marseille","lat":43.33762,"lon":5.3746,"is_reserved":false,"is_disabled":false,"rental_uris":{"android":"levelo://app?vid=52cb08ed-9346-44a5-9fd4-17c2ca78b86d","ios":"levelo://app?vid=52cb08ed-9346-44a5-9fd4-17c2ca78b86d"},"vehicle_type_id":"4","last_reported":1726754902,"current_range_meters":22000,"station_id":"","pricing_plan_id":"cebpf4jnsgd1na2vs0mg"},{"bike_id":"6abd6ed8-e9da-4163-9975-ae064d953b07","system_id":"levelo_inurba_marseille","lat":43.25935,"lon":5.40915,"is_reserved":false,"is_disabled":false,"rental_uris":{"android":"levelo://app?vid=6abd6ed8-e9da-4163-9975-ae064d953b07","ios":"levelo://app?vid=6abd6ed8-e9da-4163-9975-ae064d953b07"},"vehicle_type_id":"4","last_reported":1726754902,"current_range_meters":30400,"station_id":"ce4bhm92rcd13ifvqglg","pricing_plan_id":"cebpf4jnsgd1na2vs0mg"},{"bike_id":"87483675-10ba-4b90-9ed9-a62636228fd3","system_id":"levelo_inurba_marseille","lat":43.25938,"lon":5.40898,"is_reserved":false,"is_disabled":false,"rental_uris":{"android":"levelo://app?vid=87483675-10ba-4b90-9ed9-a62636228fd3","ios":"levelo://app?vid=87483675-10ba-4b90-9ed9-a62636228fd3"},"vehicle_type_id":"4","last_reported":1726754902,"current_range_meters":32400,"station_id":"ce4bhm92rcd13ifvqglg","pricing_plan_id":"cebpf4jnsgd1na2vs0mg"},{"bike_id":"890180cd-fef7-4d96-9227-4c9174ffff9d","system_id":"levelo_inurba_marseille","lat":43.30601,"lon":5.37238,"is_reserved":false,"is_disabled":false,"rental_uris":{"android":"levelo://app?vid=890180cd-fef7-4d96-9227-4c9174ffff9d","ios":"levelo://app?vid=890180cd-fef7-4d96-9227-4c9174ffff9d"},"vehicle_type_id":"4","last_reported":1726754902,"current_range_meters":5600,"station_id":"ce4bgqh2rcd13ifvqc4g","pricing_plan_id":"cebpf4jnsgd1na2vs0mg"},{"bike_id":"9886fcf8-a9ef-4ea0-aa5b-0c0669dc3293","system_id":"levelo_inurba_marseille","lat":43.26574,"lon":5.39018,"is_reserved":false,"is_disabled":false,"rental_uris":{"android":"levelo://app?vid=9886fcf8-a9ef-4ea0-aa5b-0c0669dc3293","ios":"levelo://app?vid=9886fcf8-a9ef-4ea0-aa5b-0c0669dc3293"},"vehicle_type_id":"4","last_reported":1726754902,"current_range_meters":24000,"station_id":"ce4bhe12rcd13ifvqf30","pricing_plan_id":"cebpf4jnsgd1na2vs0mg"},{"bike_id":"97817893-3d68-4e99-acf6-afc3ad685a10","system_id":"levelo_inurba_marseille","lat":43.26575,"lon":5.39001,"is_reserved":false,"is_disabled":false,"rental_uris":{"android":"levelo://app?vid=97817893-3d68-4e99-acf6-afc3ad685a10","ios":"levelo://app?vid=97817893-3d68-4e99-acf6-afc3ad685a10"},"vehicle_type_id":"4","last_reported":1726754902,"current_range_meters":11600,"station_id":"ce4bhe12rcd13ifvqf30","pricing_plan_id":"cebpf4jnsgd1na2vs0mg"},{"bike_id":"7f4fda24-2430-4ac1-a252-e8343500407c","system_id":"levelo_inurba_marseille","lat":43.25939,"lon":5.409,"is_reserved":false,"is_disabled":false,"rental_uris":{"android":"levelo://app?vid=7f4fda24-2430-4ac1-a252-e8343500407c","ios":"levelo://app?vid=7f4fda24-2430-4ac1-a252-e8343500407c"},"vehicle_type_id":"4","last_reported":1726754902,"current_range_meters":22000,"station_id":"ce4bhm92rcd13ifvqglg","pricing_plan_id":"cebpf4jnsgd1na2vs0mg"},{"bike_id":"bf81f4bc-2ae5-48cc-bd52-20fb0c924ced","system_id":"levelo_inurba_marseille","lat":43.30539,"lon":5.3669,"is_reserved":false,"is_disabled":false,"rental_uris":{"android":"levelo://app?vid=bf81f4bc-2ae5-48cc-bd52-20fb0c924ced","ios":"levelo://app?vid=bf81f4bc-2ae5-48cc-bd52-20fb0c924ced"},"vehicle_type_id":"4","last_reported":1726754902,"current_range_meters":26800,"station_id":"ce4bgrp2rcd13ifvqc9g","pricing_plan_id":"cebpf4jnsgd1na2vs0mg"},{"bike_id":"069ed29e-6b4c-481c-965e-fcff70716769","system_id":"levelo_inurba_marseille","lat":43.25115,"lon":5.40321,"is_reserved":false,"is_disabled":false,"rental_uris":{"android":"levelo://app?vid=069ed29e-6b4c-481c-965e-fcff70716769","ios":"levelo://app?vid=069ed29e-6b4c-481c-965e-fcff70716769"},"vehicle_type_id":"4","last_reported":1726754902,"current_range_meters":8800,"station_id":"ce4bhlh2rcd13ifvqgig","pricing_plan_id":"cebpf4jnsgd1na2vs0mg"},{"bike_id":"b0154446-30b1-4374-bfef-f6974c90099e","system_id":"levelo_inurba_marseille","lat":43.30548,"lon":5.36704,"is_reserved":false,"is_disabled":false,"rental_uris":{"android":"levelo://app?vid=b0154446-30b1-4374-bfef-f6974c90099e","ios":"levelo://app?vid=b0154446-30b1-4374-bfef-f6974c90099e"},"vehicle_type_id":"4","last_reported":1726754902,"current_range_meters":38800,"station_id":"ce4bgrp2rcd13ifvqc9g","pricing_plan_id":"cebpf4jnsgd1na2vs0mg"},{"bike_id":"3054afe6-4c88-4656-9a5d-c31a1a4a065f","system_id":"levelo_inurba_marseille","lat":43.32474,"lon":5.36556,"is_reserved":false,"is_disabled":false,"rental_uris":{"android":"levelo://app?vid=3054afe6-4c88-4656-9a5d-c31a1a4a065f","ios":"levelo://app?vid=3054afe6-4c88-4656-9a5d-c31a1a4a065f"},"vehicle_type_id":"4","last_reported":1726754902,"current_range_meters":32800,"station_id":"ce4bhs12rcd13ifvqhvg","pricing_plan_id":"cebpf4jnsgd1na2vs0mg"},{"bike_id":"e14c7e19-5fef-4ed1-bd5d-27b7909f9258","system_id":"levelo_inurba_marseille","lat":43.337444,"lon":5.374475,"is_reserved":false,"is_disabled":false,"rental_uris":{"android":"levelo://app?vid=e14c7e19-5fef-4ed1-bd5d-27b7909f9258","ios":"levelo://app?vid=e14c7e19-5fef-4ed1-bd5d-27b7909f9258"},"vehicle_type_id":"4","last_reported":1726754902,"current_range_meters":22400,"station_id":"ce4bgj12rcd13ifvqbc0","pricing_plan_id":"cebpf4jnsgd1na2vs0mg"},{"bike_id":"d337aa6e-99c4-4fd9-8fa4-659439870c81","system_id":"levelo_inurba_marseille","lat":43.32366,"lon":5.38882,"is_reserved":false,"is_disabled":false,"rental_uris":{"android":"levelo://app?vid=d337aa6e-99c4-4fd9-8fa4-659439870c81","ios":"levelo://app?vid=d337aa6e-99c4-4fd9-8fa4-659439870c81"},"vehicle_type_id":"4","last_reported":1726754902,"current_range_meters":10800,"station_id":"ce4bhqp2rcd13ifvqhog","pricing_plan_id":"cebpf4jnsgd1na2vs0mg"},{"bike_id":"6d5cbd2e-3ab7-491d-a944-8cfd37cbcb61","system_id":"levelo_inurba_marseille","lat":43.26212,"lon":5.37444,"is_reserved":false,"is_disabled":false,"rental_uris":{"android":"levelo://app?vid=6d5cbd2e-3ab7-491d-a944-8cfd37cbcb61","ios":"levelo://app?vid=6d5cbd2e-3ab7-491d-a944-8cfd37cbcb61"},"vehicle_type_id":"4","last_reported":1726754902,"current_range_meters":9600,"station_id":"ce4bhgp2rcd13ifvqfc0","pricing_plan_id":"cebpf4jnsgd1na2vs0mg"},{"bike_id":"d702706d-cdf6-4cf9-9f3f-96ababd7ca5e","system_id":"levelo_inurba_marseille","lat":43.31226,"lon":5.3685,"is_reserved":false,"is_disabled":false,"rental_uris":{"android":"levelo://app?vid=d702706d-cdf6-4cf9-9f3f-96ababd7ca5e","ios":"levelo://app?vid=d702706d-cdf6-4cf9-9f3f-96ababd7ca5e"},"vehicle_type_id":"4","last_reported":1726754902,"current_range_meters":36400,"station_id":"ce4bgl92rcd13ifvqbq0","pricing_plan_id":"cebpf4jnsgd1na2vs0mg"},{"bike_id":"902190e7-1fe9-4270-9546-498dac581307","system_id":"levelo_inurba_marseille","lat":43.28013,"lon":5.40592,"is_reserved":false,"is_disabled":false,"rental_uris":{"android":"levelo://app?vid=902190e7-1fe9-4270-9546-498dac581307","ios":"levelo://app?vid=902190e7-1fe9-4270-9546-498dac581307"},"vehicle_type_id":"4","last_reported":1726754902,"current_range_meters":36000,"station_id":"","pricing_plan_id":"cebpf4jnsgd1na2vs0mg"},{"bike_id":"321e2cca-9fe6-4f11-8a27-f0cbdabf2cf2","system_id":"levelo_inurba_marseille","lat":43.30651,"lon":5.40105,"is_reserved":false,"is_disabled":false,"rental_uris":{"android":"levelo://app?vid=321e2cca-9fe6-4f11-8a27-f0cbdabf2cf2","ios":"levelo://app?vid=321e2cca-9fe6-4f11-8a27-f0cbdabf2cf2"},"vehicle_type_id":"4","last_reported":1726754902,"current_range_meters":30000,"station_id":"ce4bh112rcd13ifvqda0","pricing_plan_id":"cebpf4jnsgd1na2vs0mg"},{"bike_id":"c2e88f02-b2fe-4e6e-83dc-4d0f6ec96e1d","system_id":"levelo_inurba_marseille","lat":43.30209,"lon":5.39459,"is_reserved":false,"is_disabled":false,"rental_uris":{"android":"levelo://app?vid=c2e88f02-b2fe-4e6e-83dc-4d0f6ec96e1d","ios":"levelo://app?vid=c2e88f02-b2fe-4e6e-83dc-4d0f6ec96e1d"},"vehicle_type_id":"4","last_reported":1726754902,"current_range_meters":8800,"station_id":"ce4bh0p2rcd13ifvqd70","pricing_plan_id":"cebpf4jnsgd1na2vs0mg"},{"bike_id":"b9a4e042-e213-478c-bd8e-35e8a9cfb2c9","system_id":"levelo_inurba_marseille","lat":43.26796,"lon":5.39411,"is_reserved":false,"is_disabled":false,"rental_uris":{"android":"levelo://app?vid=b9a4e042-e213-478c-bd8e-35e8a9cfb2c9","ios":"levelo://app?vid=b9a4e042-e213-478c-bd8e-35e8a9cfb2c9"},"vehicle_type_id":"4","last_reported":1726754902,"current_range_meters":27200,"station_id":"ce4bhh12rcd13ifvqfg0","pricing_plan_id":"cebpf4jnsgd1na2vs0mg"},{"bike_id":"29affaf3-d71e-45cb-aab6-43585a820bd5","system_id":"levelo_inurba_marseille","lat":43.29852,"lon":5.36287,"is_reserved":false,"is_disabled":false,"rental_uris":{"android":"levelo://app?vid=29affaf3-d71e-45cb-aab6-43585a820bd5","ios":"levelo://app?vid=29affaf3-d71e-45cb-aab6-43585a820bd5"},"vehicle_type_id":"4","last_reported":1726754902,"current_range_meters":38800,"station_id":"ce4bgpp2rcd13ifvqc3g","pricing_plan_id":"cebpf4jnsgd1na2vs0mg"},{"bike_id":"a71112dc-041e-4cc9-ba25-dd2c42550f00","system_id":"levelo_inurba_marseille","lat":43.337444,"lon":5.374475,"is_reserved":false,"is_disabled":false,"rental_uris":{"android":"levelo://app?vid=a71112dc-041e-4cc9-ba25-dd2c42550f00","ios":"levelo://app?vid=a71112dc-041e-4cc9-ba25-dd2c42550f00"},"vehicle_type_id":"4","last_reported":1726754902,"current_range_meters":36400,"station_id":"","pricing_plan_id":"cebpf4jnsgd1na2vs0mg"},{"bike_id":"7ed6941b-afc4-460f-8af3-ab9c555ffb27","system_id":"levelo_inurba_marseille","lat":43.30534,"lon":5.36695,"is_reserved":false,"is_disabled":false,"rental_uris":{"android":"levelo://app?vid=7ed6941b-afc4-460f-8af3-ab9c555ffb27","ios":"levelo://app?vid=7ed6941b-afc4-460f-8af3-ab9c555ffb27"},"vehicle_type_id":"4","last_reported":1726754902,"current_range_meters":39200,"station_id":"ce4bgrp2rcd13ifvqc9g","pricing_plan_id":"cebpf4jnsgd1na2vs0mg"},{"bike_id":"66979b52-14f7-44b1-a286-4b115afc35a7","system_id":"levelo_inurba_marseille","lat":43.25001,"lon":5.38925,"is_reserved":false,"is_disabled":false,"rental_uris":{"android":"levelo://app?vid=66979b52-14f7-44b1-a286-4b115afc35a7","ios":"levelo://app?vid=66979b52-14f7-44b1-a286-4b115afc35a7"},"vehicle_type_id":"4","last_reported":1726754902,"current_range_meters":27200,"station_id":"ce4bhgp2rcd13ifvqfd0","pricing_plan_id":"cebpf4jnsgd1na2vs0mg"},{"bike_id":"db5bed51-afb9-4548-98e9-7b7ae226c501","system_id":"levelo_inurba_marseille","lat":43.33756,"lon":5.37453,"is_reserved":false,"is_disabled":false,"rental_uris":{"android":"levelo://app?vid=db5bed51-afb9-4548-98e9-7b7ae226c501","ios":"levelo://app?vid=db5bed51-afb9-4548-98e9-7b7ae226c501"},"vehicle_type_id":"4","last_reported":1726754902,"current_range_meters":21600,"station_id":"","pricing_plan_id":"cebpf4jnsgd1na2vs0mg"},{"bike_id":"41aaf861-e172-46ce-8d04-12c7ab09469a","system_id":"levelo_inurba_marseille","lat":43.29624,"lon":5.3717,"is_reserved":false,"is_disabled":false,"rental_uris":{"android":"levelo://app?vid=41aaf861-e172-46ce-8d04-12c7ab09469a","ios":"levelo://app?vid=41aaf861-e172-46ce-8d04-12c7ab09469a"},"vehicle_type_id":"4","last_reported":1726754902,"current_range_meters":28400,"station_id":"ce4bgnh2rcd13ifvqc0g","pricing_plan_id":"cebpf4jnsgd1na2vs0mg"},{"bike_id":"26ddec16-7638-44dd-bc32-ccda042b6c90","system_id":"levelo_inurba_marseille","lat":43.27499,"lon":5.42449,"is_reserved":false,"is_disabled":false,"rental_uris":{"android":"levelo://app?vid=26ddec16-7638-44dd-bc32-ccda042b6c90","ios":"levelo://app?vid=26ddec16-7638-44dd-bc32-ccda042b6c90"},"vehicle_type_id":"4","last_reported":1726754902,"current_range_meters":6000,"station_id":"ce4bhn92rcd13ifvqgrg","pricing_plan_id":"cebpf4jnsgd1na2vs0mg"},{"bike_id":"6cf059ba-48d8-41dc-a666-720897302c25","system_id":"levelo_inurba_marseille","lat":43.29908,"lon":5.38139,"is_reserved":false,"is_disabled":false,"rental_uris":{"android":"levelo://app?vid=6cf059ba-48d8-41dc-a666-720897302c25","ios":"levelo://app?vid=6cf059ba-48d8-41dc-a666-720897302c25"},"vehicle_type_id":"4","last_reported":1726754902,"current_range_meters":38800,"station_id":"ce4bgj12rcd13ifvqbc0","pricing_plan_id":"cebpf4jnsgd1na2vs0mg"},{"bike_id":"f1925469-9217-450d-9259-fc5ba656a5ff","system_id":"levelo_inurba_marseille","lat":43.25924,"lon":5.40913,"is_reserved":false,"is_disabled":false,"rental_uris":{"android":"levelo://app?vid=f1925469-9217-450d-9259-fc5ba656a5ff","ios":"levelo://app?vid=f1925469-9217-450d-9259-fc5ba656a5ff"},"vehicle_type_id":"4","last_reported":1726754902,"current_range_meters":37600,"station_id":"ce4bhm92rcd13ifvqglg","pricing_plan_id":"cebpf4jnsgd1na2vs0mg"},{"bike_id":"0da92d75-1c03-4d3f-b5da-65ba356cc691","system_id":"levelo_inurba_marseille","lat":43.29725,"lon":5.37703,"is_reserved":false,"is_disabled":false,"rental_uris":{"android":"levelo://app?vid=0da92d75-1c03-4d3f-b5da-65ba356cc691","ios":"levelo://app?vid=0da92d75-1c03-4d3f-b5da-65ba356cc691"},"vehicle_type_id":"4","last_reported":1726754902,"current_range_meters":18800,"station_id":"ce4bgkh2rcd13ifvqbl0","pricing_plan_id":"cebpf4jnsgd1na2vs0mg"},{"bike_id":"69399783-5eae-4af9-ae4b-1495b2d249b1","system_id":"levelo_inurba_marseille","lat":43.24166,"lon":5.36391,"is_reserved":false,"is_disabled":false,"rental_uris":{"android":"levelo://app?vid=69399783-5eae-4af9-ae4b-1495b2d249b1","ios":"levelo://app?vid=69399783-5eae-4af9-ae4b-1495b2d249b1"},"vehicle_type_id":"4","last_reported":1726754902,"current_range_meters":32800,"station_id":"cpo36qri1sfpv3e86is0","pricing_plan_id":"cebpf4jnsgd1na2vs0mg"},{"bike_id":"7346d883-9242-4063-b3fc-655314f1034d","system_id":"levelo_inurba_marseille","lat":43.289782,"lon":5.378465,"is_reserved":false,"is_disabled":false,"rental_uris":{"android":"levelo://app?vid=7346d883-9242-4063-b3fc-655314f1034d","ios":"levelo://app?vid=7346d883-9242-4063-b3fc-655314f1034d"},"vehicle_type_id":"4","last_reported":1726754902,"current_range_meters":16000,"station_id":"ce4bh9p2rcd13ifvqed0","pricing_plan_id":"cebpf4jnsgd1na2vs0mg"},{"bike_id":"d51d7ec4-2995-47cb-8324-79987738b7ac","system_id":"levelo_inurba_marseille","lat":43.29633,"lon":5.40604,"is_reserved":false,"is_disabled":false,"rental_uris":{"android":"levelo://app?vid=d51d7ec4-2995-47cb-8324-79987738b7ac","ios":"levelo://app?vid=d51d7ec4-2995-47cb-8324-79987738b7ac"},"vehicle_type_id":"4","last_reported":1726754902,"current_range_meters":16400,"station_id":"ce4bh0h2rcd13ifvqd60","pricing_plan_id":"cebpf4jnsgd1na2vs0mg"},{"bike_id":"c07f4740-ebab-4d5c-b22e-deddf1ddd7da","system_id":"levelo_inurba_marseille","lat":43.2984,"lon":5.36265,"is_reserved":false,"is_disabled":false,"rental_uris":{"android":"levelo://app?vid=c07f4740-ebab-4d5c-b22e-deddf1ddd7da","ios":"levelo://app?vid=c07f4740-ebab-4d5c-b22e-deddf1ddd7da"},"vehicle_type_id":"4","last_reported":1726754902,"current_range_meters":38800,"station_id":"ce4bgpp2rcd13ifvqc3g","pricing_plan_id":"cebpf4jnsgd1na2vs0mg"},{"bike_id":"0f8c02a5-bfff-4492-8d9e-b636cf5488ea","system_id":"levelo_inurba_marseille","lat":43.337444,"lon":5.374475,"is_reserved":false,"is_disabled":false,"rental_uris":{"android":"levelo://app?vid=0f8c02a5-bfff-4492-8d9e-b636cf5488ea","ios":"levelo://app?vid=0f8c02a5-bfff-4492-8d9e-b636cf5488ea"},"vehicle_type_id":"4","last_reported":1726754902,"current_range_meters":38000,"station_id":"","pricing_plan_id":"cebpf4jnsgd1na2vs0mg"},{"bike_id":"94d4b6a0-0dd0-43db-8825-ebe5f3cbd6bb","system_id":"levelo_inurba_marseille","lat":43.26559,"lon":5.37284,"is_reserved":false,"is_disabled":false,"rental_uris":{"android":"levelo://app?vid=94d4b6a0-0dd0-43db-8825-ebe5f3cbd6bb","ios":"levelo://app?vid=94d4b6a0-0dd0-43db-8825-ebe5f3cbd6bb"},"vehicle_type_id":"4","last_reported":1726754902,"current_range_meters":25600,"station_id":"ce4bhg12rcd13ifvqf70","pricing_plan_id":"cebpf4jnsgd1na2vs0mg"},{"bike_id":"1fd89a8d-f64a-47f4-884f-f2892f85c821","system_id":"levelo_inurba_marseille","lat":43.25581,"lon":5.38233,"is_reserved":false,"is_disabled":false,"rental_uris":{"android":"levelo://app?vid=1fd89a8d-f64a-47f4-884f-f2892f85c821","ios":"levelo://app?vid=1fd89a8d-f64a-47f4-884f-f2892f85c821"},"vehicle_type_id":"4","last_reported":1726754902,"current_range_meters":16400,"station_id":"ce4bhih2rcd13ifvqfs0","pricing_plan_id":"cebpf4jnsgd1na2vs0mg"},{"bike_id":"884b4613-2a72-46e8-b1fd-814e1222921b","system_id":"levelo_inurba_marseille","lat":43.30543,"lon":5.36689,"is_reserved":false,"is_disabled":false,"rental_uris":{"android":"levelo://app?vid=884b4613-2a72-46e8-b1fd-814e1222921b","ios":"levelo://app?vid=884b4613-2a72-46e8-b1fd-814e1222921b"},"vehicle_type_id":"4","last_reported":1726754902,"current_range_meters":37600,"station_id":"ce4bgrp2rcd13ifvqc9g","pricing_plan_id":"cebpf4jnsgd1na2vs0mg"},{"bike_id":"96010521-6df8-4499-9193-686a24ef9ec2","system_id":"levelo_inurba_marseille","lat":43.30189,"lon":5.36929,"is_reserved":false,"is_disabled":false,"rental_uris":{"android":"levelo://app?vid=96010521-6df8-4499-9193-686a24ef9ec2","ios":"levelo://app?vid=96010521-6df8-4499-9193-686a24ef9ec2"},"vehicle_type_id":"4","last_reported":1726754902,"current_range_meters":17200,"station_id":"","pricing_plan_id":"cebpf4jnsgd1na2vs0mg"},{"bike_id":"58014cc6-4f39-4119-a8a0-cdc0e2507820","system_id":"levelo_inurba_marseille","lat":43.32284,"lon":5.3828,"is_reserved":false,"is_disabled":false,"rental_uris":{"android":"levelo://app?vid=58014cc6-4f39-4119-a8a0-cdc0e2507820","ios":"levelo://app?vid=58014cc6-4f39-4119-a8a0-cdc0e2507820"},"vehicle_type_id":"4","last_reported":1726754902,"current_range_meters":38800,"station_id":"ce4bhr12rcd13ifvqhqg","pricing_plan_id":"cebpf4jnsgd1na2vs0mg"},{"bike_id":"60e70aa2-dd79-4602-99f6-f359d57cfbe8","system_id":"levelo_inurba_marseille","lat":43.337444,"lon":5.374475,"is_reserved":false,"is_disabled":false,"rental_uris":{"android":"levelo://app?vid=60e70aa2-dd79-4602-99f6-f359d57cfbe8","ios":"levelo://app?vid=60e70aa2-dd79-4602-99f6-f359d57cfbe8"},"vehicle_type_id":"4","last_reported":1726754902,"current_range_meters":36000,"station_id":"","pricing_plan_id":"cebpf4jnsgd1na2vs0mg"},{"bike_id":"008ab8ff-e578-4b46-8d61-c471e8546bbf","system_id":"levelo_inurba_marseille","lat":43.337444,"lon":5.374475,"is_reserved":false,"is_disabled":false,"rental_uris":{"android":"levelo://app?vid=008ab8ff-e578-4b46-8d61-c471e8546bbf","ios":"levelo://app?vid=008ab8ff-e578-4b46-8d61-c471e8546bbf"},"vehicle_type_id":"4","last_reported":1726754902,"current_range_meters":22800,"station_id":"","pricing_plan_id":"cebpf4jnsgd1na2vs0mg"},{"bike_id":"cca37e3e-c17b-4384-8cfa-0cf71d91b7ae","system_id":"levelo_inurba_marseille","lat":43.29869,"lon":5.39744,"is_reserved":false,"is_disabled":false,"rental_uris":{"android":"levelo://app?vid=cca37e3e-c17b-4384-8cfa-0cf71d91b7ae","ios":"levelo://app?vid=cca37e3e-c17b-4384-8cfa-0cf71d91b7ae"},"vehicle_type_id":"4","last_reported":1726754902,"current_range_meters":38400,"station_id":"ce4bh0h2rcd13ifvqd50","pricing_plan_id":"cebpf4jnsgd1na2vs0mg"},{"bike_id":"9555958d-2195-4aa5-82bd-f703b815487c","system_id":"levelo_inurba_marseille","lat":43.28676,"lon":5.3866,"is_reserved":false,"is_disabled":false,"rental_uris":{"android":"levelo://app?vid=9555958d-2195-4aa5-82bd-f703b815487c","ios":"levelo://app?vid=9555958d-2195-4aa5-82bd-f703b815487c"},"vehicle_type_id":"4","last_reported":1726754902,"current_range_meters":30800,"station_id":"ce4bh492rcd13ifvqdug","pricing_plan_id":"cebpf4jnsgd1na2vs0mg"},{"bike_id":"888819e6-99da-403c-89a4-ecf16654524c","system_id":"levelo_inurba_marseille","lat":43.31928,"lon":5.40792,"is_reserved":false,"is_disabled":false,"rental_uris":{"android":"levelo://app?vid=888819e6-99da-403c-89a4-ecf16654524c","ios":"levelo://app?vid=888819e6-99da-403c-89a4-ecf16654524c"},"vehicle_type_id":"4","last_reported":1726754902,"current_range_meters":34000,"station_id":"ce4bhq12rcd13ifvqhig","pricing_plan_id":"cebpf4jnsgd1na2vs0mg"},{"bike_id":"9942a47b-d751-4701-8db6-fd3aae6ec433","system_id":"levelo_inurba_marseille","lat":43.27495,"lon":5.42456,"is_reserved":false,"is_disabled":false,"rental_uris":{"android":"levelo://app?vid=9942a47b-d751-4701-8db6-fd3aae6ec433","ios":"levelo://app?vid=9942a47b-d751-4701-8db6-fd3aae6ec433"},"vehicle_type_id":"4","last_reported":1726754902,"current_range_meters":30000,"station_id":"ce4bhn92rcd13ifvqgrg","pricing_plan_id":"cebpf4jnsgd1na2vs0mg"},{"bike_id":"bce83964-771d-421d-a795-c2b376c5b9dc","system_id":"levelo_inurba_marseille","lat":43.231975,"lon":5.355566,"is_reserved":false,"is_disabled":false,"rental_uris":{"android":"levelo://app?vid=bce83964-771d-421d-a795-c2b376c5b9dc","ios":"levelo://app?vid=bce83964-771d-421d-a795-c2b376c5b9dc"},"vehicle_type_id":"4","last_reported":1726754902,"current_range_meters":19600,"station_id":"ce4bhu92rcd13ifvqi70","pricing_plan_id":"cebpf4jnsgd1na2vs0mg"},{"bike_id":"c6e814fd-e15c-4039-bb57-190e90be8dce","system_id":"levelo_inurba_marseille","lat":43.28001,"lon":5.40007,"is_reserved":false,"is_disabled":false,"rental_uris":{"android":"levelo://app?vid=c6e814fd-e15c-4039-bb57-190e90be8dce","ios":"levelo://app?vid=c6e814fd-e15c-4039-bb57-190e90be8dce"},"vehicle_type_id":"4","last_reported":1726754902,"current_range_meters":9200,"station_id":"ce4bho92rcd13ifvqh4g","pricing_plan_id":"cebpf4jnsgd1na2vs0mg"},{"bike_id":"dd43885e-d83c-4b4d-a68a-67d0c1ce5f82","system_id":"levelo_inurba_marseille","lat":43.294886,"lon":5.361927,"is_reserved":false,"is_disabled":false,"rental_uris":{"android":"levelo://app?vid=dd43885e-d83c-4b4d-a68a-67d0c1ce5f82","ios":"levelo://app?vid=dd43885e-d83c-4b4d-a68a-67d0c1ce5f82"},"vehicle_type_id":"4","last_reported":1726754902,"current_range_meters":16000,"station_id":"","pricing_plan_id":"cebpf4jnsgd1na2vs0mg"},{"bike_id":"d2531e38-710a-4f4e-8fe6-fa4a8a95557e","system_id":"levelo_inurba_marseille","lat":43.33748,"lon":5.37437,"is_reserved":false,"is_disabled":false,"rental_uris":{"android":"levelo://app?vid=d2531e38-710a-4f4e-8fe6-fa4a8a95557e","ios":"levelo://app?vid=d2531e38-710a-4f4e-8fe6-fa4a8a95557e"},"vehicle_type_id":"4","last_reported":1726754902,"current_range_meters":37600,"station_id":"","pricing_plan_id":"cebpf4jnsgd1na2vs0mg"},{"bike_id":"f88655fb-8466-486f-9041-31878b0e6353","system_id":"levelo_inurba_marseille","lat":43.28271,"lon":5.35073,"is_reserved":false,"is_disabled":false,"rental_uris":{"android":"levelo://app?vid=f88655fb-8466-486f-9041-31878b0e6353","ios":"levelo://app?vid=f88655fb-8466-486f-9041-31878b0e6353"},"vehicle_type_id":"4","last_reported":1726754902,"current_range_meters":38800,"station_id":"ce4bhbp2rcd13ifvqerg","pricing_plan_id":"cebpf4jnsgd1na2vs0mg"},{"bike_id":"f7cbb25a-4844-4c93-85ef-dcacc64050e9","system_id":"levelo_inurba_marseille","lat":43.26193,"lon":5.37445,"is_reserved":false,"is_disabled":false,"rental_uris":{"android":"levelo://app?vid=f7cbb25a-4844-4c93-85ef-dcacc64050e9","ios":"levelo://app?vid=f7cbb25a-4844-4c93-85ef-dcacc64050e9"},"vehicle_type_id":"4","last_reported":1726754902,"current_range_meters":27200,"station_id":"ce4bhgp2rcd13ifvqfc0","pricing_plan_id":"cebpf4jnsgd1na2vs0mg"},{"bike_id":"bdc68c86-bbd4-4a45-8abb-e53505150a77","system_id":"levelo_inurba_marseille","lat":43.302765,"lon":5.377083,"is_reserved":false,"is_disabled":false,"rental_uris":{"android":"levelo://app?vid=bdc68c86-bbd4-4a45-8abb-e53505150a77","ios":"levelo://app?vid=bdc68c86-bbd4-4a45-8abb-e53505150a77"},"vehicle_type_id":"4","last_reported":1726754902,"current_range_meters":39200,"station_id":"ce4bguh2rcd13ifvqcj0","pricing_plan_id":"cebpf4jnsgd1na2vs0mg"},{"bike_id":"be92f24c-101f-4f27-8707-dd6c3a0c8ea1","system_id":"levelo_inurba_marseille","lat":43.28268,"lon":5.3506,"is_reserved":false,"is_disabled":false,"rental_uris":{"android":"levelo://app?vid=be92f24c-101f-4f27-8707-dd6c3a0c8ea1","ios":"levelo://app?vid=be92f24c-101f-4f27-8707-dd6c3a0c8ea1"},"vehicle_type_id":"4","last_reported":1726754902,"current_range_meters":4400,"station_id":"ce4bhbp2rcd13ifvqerg","pricing_plan_id":"cebpf4jnsgd1na2vs0mg"},{"bike_id":"b1ab4565-119f-404e-ac17-99dfc9fc3b01","system_id":"levelo_inurba_marseille","lat":43.33879,"lon":5.3916,"is_reserved":false,"is_disabled":false,"rental_uris":{"android":"levelo://app?vid=b1ab4565-119f-404e-ac17-99dfc9fc3b01","ios":"levelo://app?vid=b1ab4565-119f-404e-ac17-99dfc9fc3b01"},"vehicle_type_id":"4","last_reported":1726754902,"current_range_meters":4000,"station_id":"","pricing_plan_id":"cebpf4jnsgd1na2vs0mg"},{"bike_id":"d35e91d4-ad63-4588-88fd-2191fa14e75d","system_id":"levelo_inurba_marseille","lat":43.302818,"lon":5.376999,"is_reserved":false,"is_disabled":false,"rental_uris":{"android":"levelo://app?vid=d35e91d4-ad63-4588-88fd-2191fa14e75d","ios":"levelo://app?vid=d35e91d4-ad63-4588-88fd-2191fa14e75d"},"vehicle_type_id":"4","last_reported":1726754902,"current_range_meters":36400,"station_id":"ce4bguh2rcd13ifvqcj0","pricing_plan_id":"cebpf4jnsgd1na2vs0mg"},{"bike_id":"a90a8355-c86e-4630-b9ce-4f3d4253bdbb","system_id":"levelo_inurba_marseille","lat":43.31693,"lon":5.40474,"is_reserved":false,"is_disabled":false,"rental_uris":{"android":"levelo://app?vid=a90a8355-c86e-4630-b9ce-4f3d4253bdbb","ios":"levelo://app?vid=a90a8355-c86e-4630-b9ce-4f3d4253bdbb"},"vehicle_type_id":"4","last_reported":1726754902,"current_range_meters":38800,"station_id":"ce4bh012rcd13ifvqd00","pricing_plan_id":"cebpf4jnsgd1na2vs0mg"},{"bike_id":"91e43d3a-4da6-42ae-bdf6-79e681fe76f3","system_id":"levelo_inurba_marseille","lat":43.302765,"lon":5.377043,"is_reserved":false,"is_disabled":false,"rental_uris":{"android":"levelo://app?vid=91e43d3a-4da6-42ae-bdf6-79e681fe76f3","ios":"levelo://app?vid=91e43d3a-4da6-42ae-bdf6-79e681fe76f3"},"vehicle_type_id":"4","last_reported":1726754902,"current_range_meters":28000,"station_id":"ce4bguh2rcd13ifvqcj0","pricing_plan_id":"cebpf4jnsgd1na2vs0mg"},{"bike_id":"6b6c4fab-0bd1-4725-a1b7-466b87a727bc","system_id":"levelo_inurba_marseille","lat":43.30533,"lon":5.36546,"is_reserved":false,"is_disabled":false,"rental_uris":{"android":"levelo://app?vid=6b6c4fab-0bd1-4725-a1b7-466b87a727bc","ios":"levelo://app?vid=6b6c4fab-0bd1-4725-a1b7-466b87a727bc"},"vehicle_type_id":"4","last_reported":1726754902,"current_range_meters":25200,"station_id":"ce4bgs12rcd13ifvqcag","pricing_plan_id":"cebpf4jnsgd1na2vs0mg"},{"bike_id":"d2b9dafb-27d8-444a-96c2-350fd0bbbd3c","system_id":"levelo_inurba_marseille","lat":43.30546,"lon":5.36539,"is_reserved":false,"is_disabled":false,"rental_uris":{"android":"levelo://app?vid=d2b9dafb-27d8-444a-96c2-350fd0bbbd3c","ios":"levelo://app?vid=d2b9dafb-27d8-444a-96c2-350fd0bbbd3c"},"vehicle_type_id":"4","last_reported":1726754902,"current_range_meters":8400,"station_id":"ce4bgs12rcd13ifvqcag","pricing_plan_id":"cebpf4jnsgd1na2vs0mg"},{"bike_id":"b58c164b-fb98-4cbb-90ed-c96f4092383a","system_id":"levelo_inurba_marseille","lat":43.274902,"lon":5.424648,"is_reserved":false,"is_disabled":false,"rental_uris":{"android":"levelo://app?vid=b58c164b-fb98-4cbb-90ed-c96f4092383a","ios":"levelo://app?vid=b58c164b-fb98-4cbb-90ed-c96f4092383a"},"vehicle_type_id":"4","last_reported":1726754902,"current_range_meters":33200,"station_id":"ce4bhk92rcd13ifvqgb0","pricing_plan_id":"cebpf4jnsgd1na2vs0mg"},{"bike_id":"1ac23373-1d9e-469d-b9c9-0fa13157db30","system_id":"levelo_inurba_marseille","lat":43.22926,"lon":5.35372,"is_reserved":false,"is_disabled":false,"rental_uris":{"android":"levelo://app?vid=1ac23373-1d9e-469d-b9c9-0fa13157db30","ios":"levelo://app?vid=1ac23373-1d9e-469d-b9c9-0fa13157db30"},"vehicle_type_id":"4","last_reported":1726754902,"current_range_meters":3200,"station_id":"cpo3532slgdg3j2ikp40","pricing_plan_id":"cebpf4jnsgd1na2vs0mg"},{"bike_id":"d5d282a5-7e6a-46e0-82ae-0c9645169fa9","system_id":"levelo_inurba_marseille","lat":43.30546,"lon":5.36718,"is_reserved":false,"is_disabled":false,"rental_uris":{"android":"levelo://app?vid=d5d282a5-7e6a-46e0-82ae-0c9645169fa9","ios":"levelo://app?vid=d5d282a5-7e6a-46e0-82ae-0c9645169fa9"},"vehicle_type_id":"4","last_reported":1726754902,"current_range_meters":27600,"station_id":"ce4bgrp2rcd13ifvqc9g","pricing_plan_id":"cebpf4jnsgd1na2vs0mg"},{"bike_id":"fa2e946d-01fe-4bb4-a2b0-55af60a0bcec","system_id":"levelo_inurba_marseille","lat":43.33724,"lon":5.39188,"is_reserved":false,"is_disabled":false,"rental_uris":{"android":"levelo://app?vid=fa2e946d-01fe-4bb4-a2b0-55af60a0bcec","ios":"levelo://app?vid=fa2e946d-01fe-4bb4-a2b0-55af60a0bcec"},"vehicle_type_id":"4","last_reported":1726754902,"current_range_meters":38000,"station_id":"ce4bhr92rcd13ifvqhsg","pricing_plan_id":"cebpf4jnsgd1na2vs0mg"},{"bike_id":"45c82b3a-4c16-43e9-986f-0b4e671b0fce","system_id":"levelo_inurba_marseille","lat":43.29266,"lon":5.38453,"is_reserved":false,"is_disabled":false,"rental_uris":{"android":"levelo://app?vid=45c82b3a-4c16-43e9-986f-0b4e671b0fce","ios":"levelo://app?vid=45c82b3a-4c16-43e9-986f-0b4e671b0fce"},"vehicle_type_id":"4","last_reported":1726754902,"current_range_meters":11200,"station_id":"ce4bh692rcd13ifvqea0","pricing_plan_id":"cebpf4jnsgd1na2vs0mg"},{"bike_id":"57882f24-e220-4092-8775-8741a5444cb4","system_id":"levelo_inurba_marseille","lat":43.31493,"lon":5.37309,"is_reserved":false,"is_disabled":false,"rental_uris":{"android":"levelo://app?vid=57882f24-e220-4092-8775-8741a5444cb4","ios":"levelo://app?vid=57882f24-e220-4092-8775-8741a5444cb4"},"vehicle_type_id":"4","last_reported":1726754902,"current_range_meters":27600,"station_id":"ce4bgt12rcd13ifvqcd0","pricing_plan_id":"cebpf4jnsgd1na2vs0mg"},{"bike_id":"d2e97006-5cb6-4956-9b42-e081fa479573","system_id":"levelo_inurba_marseille","lat":43.281571,"lon":5.426436,"is_reserved":false,"is_disabled":false,"rental_uris":{"android":"levelo://app?vid=d2e97006-5cb6-4956-9b42-e081fa479573","ios":"levelo://app?vid=d2e97006-5cb6-4956-9b42-e081fa479573"},"vehicle_type_id":"4","last_reported":1726754902,"current_range_meters":24400,"station_id":"ce4bhnh2rcd13ifvqgug","pricing_plan_id":"cebpf4jnsgd1na2vs0mg"},{"bike_id":"412f3c29-f455-490b-92c6-12f36a4e1c51","system_id":"levelo_inurba_marseille","lat":43.299194,"lon":5.374762,"is_reserved":false,"is_disabled":false,"rental_uris":{"android":"levelo://app?vid=412f3c29-f455-490b-92c6-12f36a4e1c51","ios":"levelo://app?vid=412f3c29-f455-490b-92c6-12f36a4e1c51"},"vehicle_type_id":"4","last_reported":1726754902,"current_range_meters":13600,"station_id":"ce4bgup2rcd13ifvqco0","pricing_plan_id":"cebpf4jnsgd1na2vs0mg"},{"bike_id":"328d45f9-980e-4811-97c0-47d761861509","system_id":"levelo_inurba_marseille","lat":43.29847,"lon":5.37836,"is_reserved":false,"is_disabled":false,"rental_uris":{"android":"levelo://app?vid=328d45f9-980e-4811-97c0-47d761861509","ios":"levelo://app?vid=328d45f9-980e-4811-97c0-47d761861509"},"vehicle_type_id":"4","last_reported":1726754902,"current_range_meters":6400,"station_id":"","pricing_plan_id":"cebpf4jnsgd1na2vs0mg"},{"bike_id":"da50de05-06b5-4a07-88c7-4ca4c5d20549","system_id":"levelo_inurba_marseille","lat":43.292633,"lon":5.384147,"is_reserved":false,"is_disabled":false,"rental_uris":{"android":"levelo://app?vid=da50de05-06b5-4a07-88c7-4ca4c5d20549","ios":"levelo://app?vid=da50de05-06b5-4a07-88c7-4ca4c5d20549"},"vehicle_type_id":"4","last_reported":1726754902,"current_range_meters":38400,"station_id":"ce4bh692rcd13ifvqea0","pricing_plan_id":"cebpf4jnsgd1na2vs0mg"},{"bike_id":"01cd51da-b961-4bd0-adee-b192b3b29a9f","system_id":"levelo_inurba_marseille","lat":43.27501,"lon":5.4245,"is_reserved":false,"is_disabled":false,"rental_uris":{"android":"levelo://app?vid=01cd51da-b961-4bd0-adee-b192b3b29a9f","ios":"levelo://app?vid=01cd51da-b961-4bd0-adee-b192b3b29a9f"},"vehicle_type_id":"4","last_reported":1726754902,"current_range_meters":30400,"station_id":"ce4bhn92rcd13ifvqgrg","pricing_plan_id":"cebpf4jnsgd1na2vs0mg"},{"bike_id":"43538189-8040-4d11-9929-6468105c2aae","system_id":"levelo_inurba_marseille","lat":43.28848,"lon":5.3932,"is_reserved":false,"is_disabled":false,"rental_uris":{"android":"levelo://app?vid=43538189-8040-4d11-9929-6468105c2aae","ios":"levelo://app?vid=43538189-8040-4d11-9929-6468105c2aae"},"vehicle_type_id":"4","last_reported":1726754902,"current_range_meters":3200,"station_id":"ce4bh2p2rcd13ifvqdi0","pricing_plan_id":"cebpf4jnsgd1na2vs0mg"},{"bike_id":"7f74fc9e-b0a4-43d0-8b3e-945d61ceba2b","system_id":"levelo_inurba_marseille","lat":43.33024,"lon":5.39035,"is_reserved":false,"is_disabled":false,"rental_uris":{"android":"levelo://app?vid=7f74fc9e-b0a4-43d0-8b3e-945d61ceba2b","ios":"levelo://app?vid=7f74fc9e-b0a4-43d0-8b3e-945d61ceba2b"},"vehicle_type_id":"4","last_reported":1726754902,"current_range_meters":30000,"station_id":"ce4bhr92rcd13ifvqhrg","pricing_plan_id":"cebpf4jnsgd1na2vs0mg"},{"bike_id":"723e35c6-87e3-44d1-b60c-a76c8ef33687","system_id":"levelo_inurba_marseille","lat":43.297828,"lon":5.370994,"is_reserved":false,"is_disabled":false,"rental_uris":{"android":"levelo://app?vid=723e35c6-87e3-44d1-b60c-a76c8ef33687","ios":"levelo://app?vid=723e35c6-87e3-44d1-b60c-a76c8ef33687"},"vehicle_type_id":"4","last_reported":1726754902,"current_range_meters":24000,"station_id":"ce4bgop2rcd13ifvqc1g","pricing_plan_id":"cebpf4jnsgd1na2vs0mg"},{"bike_id":"fa690805-233a-4a70-a9f3-33f1b67cdb1f","system_id":"levelo_inurba_marseille","lat":43.32282,"lon":5.38263,"is_reserved":false,"is_disabled":false,"rental_uris":{"android":"levelo://app?vid=fa690805-233a-4a70-a9f3-33f1b67cdb1f","ios":"levelo://app?vid=fa690805-233a-4a70-a9f3-33f1b67cdb1f"},"vehicle_type_id":"4","last_reported":1726754902,"current_range_meters":24000,"station_id":"ce4bhr12rcd13ifvqhqg","pricing_plan_id":"cebpf4jnsgd1na2vs0mg"},{"bike_id":"7cffb35d-f0a8-45c3-974d-b91b5ea43831","system_id":"levelo_inurba_marseille","lat":43.29626,"lon":5.40597,"is_reserved":false,"is_disabled":false,"rental_uris":{"android":"levelo://app?vid=7cffb35d-f0a8-45c3-974d-b91b5ea43831","ios":"levelo://app?vid=7cffb35d-f0a8-45c3-974d-b91b5ea43831"},"vehicle_type_id":"4","last_reported":1726754902,"current_range_meters":24000,"station_id":"ce4bh0h2rcd13ifvqd60","pricing_plan_id":"cebpf4jnsgd1na2vs0mg"},{"bike_id":"b5aaf55d-317f-46e0-913d-5437f8a74d17","system_id":"levelo_inurba_marseille","lat":43.31714,"lon":5.43708,"is_reserved":false,"is_disabled":false,"rental_uris":{"android":"levelo://app?vid=b5aaf55d-317f-46e0-913d-5437f8a74d17","ios":"levelo://app?vid=b5aaf55d-317f-46e0-913d-5437f8a74d17"},"vehicle_type_id":"4","last_reported":1726754902,"current_range_meters":19600,"station_id":"ce4bhp92rcd13ifvqhcg","pricing_plan_id":"cebpf4jnsgd1na2vs0mg"},{"bike_id":"d2e95585-14ad-4c95-8c37-3c0a346b8e66","system_id":"levelo_inurba_marseille","lat":43.29529,"lon":5.39032,"is_reserved":false,"is_disabled":false,"rental_uris":{"android":"levelo://app?vid=d2e95585-14ad-4c95-8c37-3c0a346b8e66","ios":"levelo://app?vid=d2e95585-14ad-4c95-8c37-3c0a346b8e66"},"vehicle_type_id":"4","last_reported":1726754902,"current_range_meters":38400,"station_id":"ce4bh3p2rcd13ifvqdp0","pricing_plan_id":"cebpf4jnsgd1na2vs0mg"},{"bike_id":"8c438ef6-2237-4aa0-b561-ea637b88b045","system_id":"levelo_inurba_marseille","lat":43.29788,"lon":5.39339,"is_reserved":false,"is_disabled":false,"rental_uris":{"android":"levelo://app?vid=8c438ef6-2237-4aa0-b561-ea637b88b045","ios":"levelo://app?vid=8c438ef6-2237-4aa0-b561-ea637b88b045"},"vehicle_type_id":"4","last_reported":1726754902,"current_range_meters":17600,"station_id":"chh1huq6cuj3fo74tm60","pricing_plan_id":"cebpf4jnsgd1na2vs0mg"},{"bike_id":"215a84f1-8640-4c33-ac11-24ef8061fd8f","system_id":"levelo_inurba_marseille","lat":43.27489,"lon":5.42453,"is_reserved":false,"is_disabled":false,"rental_uris":{"android":"levelo://app?vid=215a84f1-8640-4c33-ac11-24ef8061fd8f","ios":"levelo://app?vid=215a84f1-8640-4c33-ac11-24ef8061fd8f"},"vehicle_type_id":"4","last_reported":1726754902,"current_range_meters":25600,"station_id":"ce4bhn92rcd13ifvqgrg","pricing_plan_id":"cebpf4jnsgd1na2vs0mg"},{"bike_id":"50f00b78-5d6e-4e28-a14c-b6f0671aea65","system_id":"levelo_inurba_marseille","lat":43.30543,"lon":5.36529,"is_reserved":false,"is_disabled":false,"rental_uris":{"android":"levelo://app?vid=50f00b78-5d6e-4e28-a14c-b6f0671aea65","ios":"levelo://app?vid=50f00b78-5d6e-4e28-a14c-b6f0671aea65"},"vehicle_type_id":"4","last_reported":1726754902,"current_range_meters":23200,"station_id":"ce4bgs12rcd13ifvqcag","pricing_plan_id":"cebpf4jnsgd1na2vs0mg"},{"bike_id":"b2763354-ec6c-4733-8de6-6c4493759ae9","system_id":"levelo_inurba_marseille","lat":43.29084,"lon":5.40211,"is_reserved":false,"is_disabled":false,"rental_uris":{"android":"levelo://app?vid=b2763354-ec6c-4733-8de6-6c4493759ae9","ios":"levelo://app?vid=b2763354-ec6c-4733-8de6-6c4493759ae9"},"vehicle_type_id":"4","last_reported":1726754902,"current_range_meters":26000,"station_id":"","pricing_plan_id":"cebpf4jnsgd1na2vs0mg"},{"bike_id":"47784658-0d98-4e17-ac5d-e08cb5f83ce8","system_id":"levelo_inurba_marseille","lat":43.30141,"lon":5.38066,"is_reserved":false,"is_disabled":false,"rental_uris":{"android":"levelo://app?vid=47784658-0d98-4e17-ac5d-e08cb5f83ce8","ios":"levelo://app?vid=47784658-0d98-4e17-ac5d-e08cb5f83ce8"},"vehicle_type_id":"4","last_reported":1726754902,"current_range_meters":8400,"station_id":"ce4bgjp2rcd13ifvqbh0","pricing_plan_id":"cebpf4jnsgd1na2vs0mg"},{"bike_id":"190afb13-fc25-42e3-ba7b-e4fb430dc103","system_id":"levelo_inurba_marseille","lat":43.27492,"lon":5.42448,"is_reserved":false,"is_disabled":false,"rental_uris":{"android":"levelo://app?vid=190afb13-fc25-42e3-ba7b-e4fb430dc103","ios":"levelo://app?vid=190afb13-fc25-42e3-ba7b-e4fb430dc103"},"vehicle_type_id":"4","last_reported":1726754902,"current_range_meters":18000,"station_id":"ce4bhn92rcd13ifvqgrg","pricing_plan_id":"cebpf4jnsgd1na2vs0mg"},