{"last_updated":1740067899,"ttl":60,"version":"2.2","data":{"bikes":[{"bike_id":"b086081d-9f99-4c4c-975a-634e1c8ee997","system_id":"levelo_inurba_marseille","lat":43.27204,"lon":5.39183,"is_reserved":false,"is_disabled":false,"rental_uris":{"android":"levelo://app?vid=b086081d-9f99-4c4c-975a-634e1c8ee997","ios":"levelo://app?vid=b086081d-9f99-4c4c-975a-634e1c8ee997"},"vehicle_type_id":"4","last_reported":1740067899,"current_range_meters":2800,"station_id":"ce4bhhp2rcd13ifvqfm0","pricing_plan_id":"cebpf4jnsgd1na2vs0mg"},{"bike_id":"1cf38a55-ebca-43bb-8f3d-9915836e928c","system_id":"levelo_inurba_marseille","lat":43.30854,"lon":5.38898,"is_reserved":false,"is_disabled":false,"rental_uris":{"android":"levelo://app?vid=1cf38a55-ebca-43bb-8f3d-9915836e928c","ios":"levelo://app?vid=1cf38a55-ebca-43bb-8f3d-9915836e928c"},"vehicle_type_id":"4","last_reported":1740067899,"current_range_meters":2800,"station_id":"ce4bgup2rcd13ifvqco0","pricing_plan_id":"cebpf4jnsgd1na2vs0mg"},{"bike_id":"1b813d69-07c5-4c5a-8cbf-34f55cd3e0b7","system_id":"levelo_inurba_marseille","lat":43.28675,"lon":5.38658,"is_reserved":false,"is_disabled":false,"rental_uris":{"android":"levelo://app?vid=1b813d69-07c5-4c5a-8cbf-34f55cd3e0b7","ios":"levelo://app?vid=1b813d69-07c5-4c5a-8cbf-34f55cd3e0b7"},"vehicle_type_id":"4","last_reported":1740067899,"current_range_meters":3200,"station_id":"ce4bh492rcd13ifvqdug","pricing_plan_id":"cebpf4jnsgd1na2vs0mg"},{"bike_id":"341a7694-dc5a-4ba1-aca7-d0f2eb11064e","system_id":"levelo_inurba_marseille","lat":43.27995,"lon":5.40011,"is_reserved":false,"is_disabled":false,"rental_uris":{"android":"levelo://app?vid=341a7694-dc5a-4ba1-aca7-d0f2eb11064e","ios":"levelo://app?vid=341a7694-dc5a-4ba1-aca7-d0f2eb11064e"},"vehicle_type_id":"4","last_reported":1740067899,"current_range_meters":3200,"station_id":"","pricing_plan_id":"cebpf4jnsgd1na2vs0mg"},{"bike_id":"a5749487-feaf-4858-84fc-2f78acc16f64","system_id":"levelo_inurba_marseille","lat":43.2847,"lon":5.38415,"is_reserved":false,"is_disabled":false,"rental_uris":{"android":"levelo://app?vid=a5749487-feaf-4858-84fc-2f78acc16f64","ios":"levelo://app?vid=a5749487-feaf-4858-84fc-2f78acc16f64"},"vehicle_type_id":"4","last_reported":1740067899,"current_range_meters":3200,"station_id":"ce4bh512rcd13ifvqe3g","pricing_plan_id":"cebpf4jnsgd1na2vs0mg"},{"bike_id":"adb3d6df-7149-4295-84c9-8f4cb47f9c0e","system_id":"levelo_inurba_marseille","lat":43.273,"lon":5.40707,"is_reserved":false,"is_disabled":true,"rental_uris":{"android":"levelo://app?vid=adb3d6df-7149-4295-84c9-8f4cb47f9c0e","ios":"levelo://app?vid=adb3d6df-7149-4295-84c9-8f4cb47f9c0e"},"vehicle_type_id":"4","last_reported":1740067899,"current_range_meters":3600,"station_id":"","pricing_plan_id":"cebpf4jnsgd1na2vs0mg"},{"bike_id":"87b29ecc-8eac-4c25-959a-f91054aa0e2c","system_id":"levelo_inurba_marseille","lat":43.25867,"lon":5.39894,"is_reserved":false,"is_disabled":false,"rental_uris":{"android":"levelo://app?vid=87b29ecc-8eac-4c25-959a-f91054aa0e2c","ios":"levelo://app?vid=87b29ecc-8eac-4c25-959a-f91054aa0e2c"},"vehicle_type_id":"4","last_reported":1740067899,"current_range_meters":4400,"station_id":"ce4bhl92rcd13ifvqghg","pricing_plan_id":"cebpf4jnsgd1na2vs0mg"},{"bike_id":"ec2a2a80-692c-4e61-b758-ee418e5968e4","system_id":"levelo_inurba_marseille","lat":43.23967,"lon":5.36638,"is_reserved":false,"is_disabled":false,"rental_uris":{"android":"levelo://app?vid=ec2a2a80-692c-4e61-b758-ee418e5968e4","ios":"levelo://app?vid=ec2a2a80-692c-4e61-b758-ee418e5968e4"},"vehicle_type_id":"4","last_reported":1740067899,"current_range_meters":4400,"station_id":"ce4bhi12rcd13ifvqfp0","pricing_plan_id":"cebpf4jnsgd1na2vs0mg"},{"bike_id":"01896865-2ec6-4c0b-ad0e-47bf0d554669","system_id":"levelo_inurba_marseille","lat":43.32645,"lon":5.40907,"is_reserved":false,"is_disabled":false,"rental_uris":{"android":"levelo://app?vid=01896865-2ec6-4c0b-ad0e-47bf0d554669","ios":"levelo://app?vid=01896865-2ec6-4c0b-ad0e-47bf0d554669"},"vehicle_type_id":"4","last_reported":1740067899,"current_range_meters":4800,"station_id":"ce4bhpp2rcd13ifvqhgg","pricing_plan_id":"cebpf4jnsgd1na2vs0mg"},{"bike_id":"da3eb134-fa14-463b-8a97-58e1195f7017","system_id":"levelo_inurba_marseille","lat":43.28146,"lon":5.42631,"is_reserved":false,"is_disabled":false,"rental_uris":{"android":"levelo://app?vid=da3eb134-fa14-463b-8a97-58e1195f7017","ios":"levelo://app?vid=da3eb134-fa14-463b-8a97-58e1195f7017"},"vehicle_type_id":"4","last_reported":1740067899,"current_range_meters":4800,"station_id":"ce4bhnh2rcd13ifvqgug","pricing_plan_id":"cebpf4jnsgd1na2vs0mg"},{"bike_id":"ac9da93b-14fd-42e2-bd64-a209f6088a9b","system_id":"levelo_inurba_marseille","lat":43.26573,"lon":5.39001,"is_reserved":false,"is_disabled":false,"rental_uris":{"android":"levelo://app?vid=ac9da93b-14fd-42e2-bd64-a209f6088a9b","ios":"levelo://app?vid=ac9da93b-14fd-42e2-bd64-a209f6088a9b"},"vehicle_type_id":"4","last_reported":1740067899,"current_range_meters":4800,"station_id":"ce4bhe12rcd13ifvqf30","pricing_plan_id":"cebpf4jnsgd1na2vs0mg"},{"bike_id":"1821cf5a-24bc-4763-9753-11df4acc4f4c","system_id":"levelo_inurba_marseille","lat":43.24158,"lon":5.36396,"is_reserved":false,"is_disabled":false,"rental_uris":{"android":"levelo://app?vid=1821cf5a-24bc-4763-9753-11df4acc4f4c","ios":"levelo://app?vid=1821cf5a-24bc-4763-9753-11df4acc4f4c"},"vehicle_type_id":"4","last_reported":1740067899,"current_range_meters":5600,"station_id":"cpo36qri1sfpv3e86is0","pricing_plan_id":"cebpf4jnsgd1na2vs0mg"},{"bike_id":"f10ca6dc-ac5e-4b09-a000-a4457af3ded7","system_id":"levelo_inurba_marseille","lat":43.27375,"lon":5.36255,"is_reserved":false,"is_disabled":false,"rental_uris":{"android":"levelo://app?vid=f10ca6dc-ac5e-4b09-a000-a4457af3ded7","ios":"levelo://app?vid=f10ca6dc-ac5e-4b09-a000-a4457af3ded7"},"vehicle_type_id":"4","last_reported":1740067899,"current_range_meters":5600,"station_id":"ce4bhbh2rcd13ifvqeo0","pricing_plan_id":"cebpf4jnsgd1na2vs0mg"},{"bike_id":"9198c6ef-bd5b-45d9-bd7b-e058d791d44b","system_id":"levelo_inurba_marseille","lat":43.24817,"lon":5.37461,"is_reserved":false,"is_disabled":true,"rental_uris":{"android":"levelo://app?vid=9198c6ef-bd5b-45d9-bd7b-e058d791d44b","ios":"levelo://app?vid=9198c6ef-bd5b-45d9-bd7b-e058d791d44b"},"vehicle_type_id":"4","last_reported":1740067899,"current_range_meters":5600,"station_id":"","pricing_plan_id":"cebpf4jnsgd1na2vs0mg"},{"bike_id":"fde88e60-06df-44f1-9168-61675e77d9b8","system_id":"levelo_inurba_marseille","lat":43.23148,"lon":5.43714,"is_reserved":false,"is_disabled":false,"rental_uris":{"android":"levelo://app?vid=fde88e60-06df-44f1-9168-61675e77d9b8","ios":"levelo://app?vid=fde88e60-06df-44f1-9168-61675e77d9b8"},"vehicle_type_id":"4","last_reported":1740067899,"current_range_meters":6000,"station_id":"ce4bhmp2rcd13ifvqgog","pricing_plan_id":"cebpf4jnsgd1na2vs0mg"},{"bike_id":"b8c2e490-c354-4667-8596-7eaa232ce392","system_id":"levelo_inurba_marseille","lat":43.29742,"lon":5.3772,"is_reserved":false,"is_disabled":false,"rental_uris":{"android":"levelo://app?vid=b8c2e490-c354-4667-8596-7eaa232ce392","ios":"levelo://app?vid=b8c2e490-c354-4667-8596-7eaa232ce392"},"vehicle_type_id":"4","last_reported":1740067899,"current_range_meters":6000,"station_id":"","pricing_plan_id":"cebpf4jnsgd1na2vs0mg"},{"bike_id":"72d05d74-09c6-4720-b1f3-3876af8f6ad1","system_id":"levelo_inurba_marseille","lat":43.24653,"lon":5.38893,"is_reserved":false,"is_disabled":false,"rental_uris":{"android":"levelo://app?vid=72d05d74-09c6-4720-b1f3-3876af8f6ad1","ios":"levelo://app?vid=72d05d74-09c6-4720-b1f3-3876af8f6ad1"},"vehicle_type_id":"4","last_reported":1740067899,"current_range_meters":5600,"station_id":"ce4bhg12rcd13ifvqf60","pricing_plan_id":"cebpf4jnsgd1na2vs0mg"},{"bike_id":"39644f4c-7452-4653-8df7-9c7cef84e13d","system_id":"levelo_inurba_marseille","lat":43.25644,"lon":5.39402,"is_reserved":false,"is_disabled":true,"rental_uris":{"android":"levelo://app?vid=39644f4c-7452-4653-8df7-9c7cef84e13d","ios":"levelo://app?vid=39644f4c-7452-4653-8df7-9c7cef84e13d"},"vehicle_type_id":"4","last_reported":1740067899,"current_range_meters":6400,"station_id":"ce4bhh92rcd13ifvqfj0","pricing_plan_id":"cebpf4jnsgd1na2vs0mg"},{"bike_id":"aff593d8-aa69-4091-b075-b6f12001a4ba","system_id":"levelo_inurba_marseille","lat":43.29515,"lon":5.39035,"is_reserved":false,"is_disabled":false,"rental_uris":{"android":"levelo://app?vid=aff593d8-aa69-4091-b075-b6f12001a4ba","ios":"levelo://app?vid=aff593d8-aa69-4091-b075-b6f12001a4ba"},"vehicle_type_id":"4","last_reported":1740067899,"current_range_meters":6800,"station_id":"ce4bh3p2rcd13ifvqdp0","pricing_plan_id":"cebpf4jnsgd1na2vs0mg"},{"bike_id":"6138fb29-b28a-445f-b082-5ce15cae3872","system_id":"levelo_inurba_marseille","lat":43.27961,"lon":5.38732,"is_reserved":false,"is_disabled":false,"rental_uris":{"android":"levelo://app?vid=6138fb29-b28a-445f-b082-5ce15cae3872","ios":"levelo://app?vid=6138fb29-b28a-445f-b082-5ce15cae3872"},"vehicle_type_id":"4","last_reported":1740067899,"current_range_meters":6400,"station_id":"ce4bhg12rcd13ifvqf80","pricing_plan_id":"cebpf4jnsgd1na2vs0mg"},{"bike_id":"05e57666-efd9-4238-b420-de209546a796","system_id":"levelo_inurba_marseille","lat":43.27067,"lon":5.42282,"is_reserved":false,"is_disabled":false,"rental_uris":{"android":"levelo://app?vid=05e57666-efd9-4238-b420-de209546a796","ios":"levelo://app?vid=05e57666-efd9-4238-b420-de209546a796"},"vehicle_type_id":"4","last_reported":1740067899,"current_range_meters":7200,"station_id":"ce4bhk92rcd13ifvqgb0","pricing_plan_id":"cebpf4jnsgd1na2vs0mg"},{"bike_id":"7efefbc5-94e2-4478-889d-1c07a98fbc40","system_id":"levelo_inurba_marseille","lat":43.24179,"lon":5.39719,"is_reserved":false,"is_disabled":false,"rental_uris":{"android":"levelo://app?vid=7efefbc5-94e2-4478-889d-1c07a98fbc40","ios":"levelo://app?vid=7efefbc5-94e2-4478-889d-1c07a98fbc40"},"vehicle_type_id":"4","last_reported":1740067899,"current_range_meters":7200,"station_id":"ce4bhn12rcd13ifvqgpg","pricing_plan_id":"cebpf4jnsgd1na2vs0mg"},{"bike_id":"f027fe38-3f5d-42fa-b16a-68ca60104c09","system_id":"levelo_inurba_marseille","lat":43.24164,"lon":5.36409,"is_reserved":false,"is_disabled":false,"rental_uris":{"android":"levelo://app?vid=f027fe38-3f5d-42fa-b16a-68ca60104c09","ios":"levelo://app?vid=f027fe38-3f5d-42fa-b16a-68ca60104c09"},"vehicle_type_id":"4","last_reported":1740067899,"current_range_meters":7200,"station_id":"","pricing_plan_id":"cebpf4jnsgd1na2vs0mg"},{"bike_id":"7c61f358-2986-4345-a12c-6d76f6405e6f","system_id":"levelo_inurba_marseille","lat":43.26588,"lon":5.39097,"is_reserved":false,"is_disabled":false,"rental_uris":{"android":"levelo://app?vid=7c61f358-2986-4345-a12c-6d76f6405e6f","ios":"levelo://app?vid=7c61f358-2986-4345-a12c-6d76f6405e6f"},"vehicle_type_id":"4","last_reported":1740067899,"current_range_meters":7200,"station_id":"ce4bhe12rcd13ifvqf30","pricing_plan_id":"cebpf4jnsgd1na2vs0mg"},{"bike_id":"816e3e7b-b107-4001-b79f-e380ada67102","system_id":"levelo_inurba_marseille","lat":43.24143,"lon":5.36435,"is_reserved":false,"is_disabled":false,"rental_uris":{"android":"levelo://app?vid=816e3e7b-b107-4001-b79f-e380ada67102","ios":"levelo://app?vid=816e3e7b-b107-4001-b79f-e380ada67102"},"vehicle_type_id":"4","last_reported":1740067899,"current_range_meters":7200,"station_id":"cpo36qri1sfpv3e86is0","pricing_plan_id":"cebpf4jnsgd1na2vs0mg"},{"bike_id":"3633587c-dafb-4b6e-b4ae-308eb791df81","system_id":"levelo_inurba_marseille","lat":43.270516,"lon":5.402615,"is_reserved":false,"is_disabled":false,"rental_uris":{"android":"levelo://app?vid=3633587c-dafb-4b6e-b4ae-308eb791df81","ios":"levelo://app?vid=3633587c-dafb-4b6e-b4ae-308eb791df81"},"vehicle_type_id":"4","last_reported":1740067899,"current_range_meters":7200,"station_id":"","pricing_plan_id":"cebpf4jnsgd1na2vs0mg"},{"bike_id":"f8a1eefe-5190-4327-95c3-8138f343fe57","system_id":"levelo_inurba_marseille","lat":43.31176,"lon":5.39331,"is_reserved":false,"is_disabled":false,"rental_uris":{"android":"levelo://app?vid=f8a1eefe-5190-4327-95c3-8138f343fe57","ios":"levelo://app?vid=f8a1eefe-5190-4327-95c3-8138f343fe57"},"vehicle_type_id":"4","last_reported":1740067899,"current_range_meters":7200,"station_id":"ce4bgqh2rcd13ifvqc4g","pricing_plan_id":"cebpf4jnsgd1na2vs0mg"},{"bike_id":"4768c0a7-f84b-48a0-9b7d-4b82d915559f","system_id":"levelo_inurba_marseille","lat":43.2468,"lon":5.38172,"is_reserved":false,"is_disabled":false,"rental_uris":{"android":"levelo://app?vid=4768c0a7-f84b-48a0-9b7d-4b82d915559f","ios":"levelo://app?vid=4768c0a7-f84b-48a0-9b7d-4b82d915559f"},"vehicle_type_id":"4","last_reported":1740067899,"current_range_meters":7200,"station_id":"","pricing_plan_id":"cebpf4jnsgd1na2vs0mg"},{"bike_id":"1fc91a4d-91d4-4e49-bdd1-c24348e811e8","system_id":"levelo_inurba_marseille","lat":43.27061,"lon":5.4227,"is_reserved":false,"is_disabled":false,"rental_uris":{"android":"levelo://app?vid=1fc91a4d-91d4-4e49-bdd1-c24348e811e8","ios":"levelo://app?vid=1fc91a4d-91d4-4e49-bdd1-c24348e811e8"},"vehicle_type_id":"4","last_reported":1740067899,"current_range_meters":7200,"station_id":"ce4bhk92rcd13ifvqgb0","pricing_plan_id":"cebpf4jnsgd1na2vs0mg"},{"bike_id":"a785767d-3278-4db8-8933-1f8eb2edc4a9","system_id":"levelo_inurba_marseille","lat":43.29839,"lon":5.36271,"is_reserved":false,"is_disabled":false,"rental_uris":{"android":"levelo://app?vid=a785767d-3278-4db8-8933-1f8eb2edc4a9","ios":"levelo://app?vid=a785767d-3278-4db8-8933-1f8eb2edc4a9"},"vehicle_type_id":"4","last_reported":1740067899,"current_range_meters":8000,"station_id":"ce4bgpp2rcd13ifvqc3g","pricing_plan_id":"cebpf4jnsgd1na2vs0mg"},{"bike_id":"d5173bbe-86f4-4afc-a8e0-76d62e3a8b83","system_id":"levelo_inurba_marseille","lat":43.23962,"lon":5.36639,"is_reserved":false,"is_disabled":false,"rental_uris":{"android":"levelo://app?vid=d5173bbe-86f4-4afc-a8e0-76d62e3a8b83","ios":"levelo://app?vid=d5173bbe-86f4-4afc-a8e0-76d62e3a8b83"},"vehicle_type_id":"4","last_reported":1740067899,"current_range_meters":8000,"station_id":"ce4bhi12rcd13ifvqfp0","pricing_plan_id":"cebpf4jnsgd1na2vs0mg"},{"bike_id":"093d36c4-f304-46a9-8792-5d9e19e468fc","system_id":"levelo_inurba_marseille","lat":43.29905,"lon":5.43661,"is_reserved":false,"is_disabled":false,"rental_uris":{"android":"levelo://app?vid=093d36c4-f304-46a9-8792-5d9e19e468fc","ios":"levelo://app?vid=093d36c4-f304-46a9-8792-5d9e19e468fc"},"vehicle_type_id":"4","last_reported":1740067899,"current_range_meters":8000,"station_id":"ce4bhpp2rcd13ifvqhfg","pricing_plan_id":"cebpf4jnsgd1na2vs0mg"},{"bike_id":"3fa131c8-d3bf-4fb9-b400-1daf371dcaa7","system_id":"levelo_inurba_marseille","lat":43.27189,"lon":5.40991,"is_reserved":false,"is_disabled":false,"rental_uris":{"android":"levelo://app?vid=3fa131c8-d3bf-4fb9-b400-1daf371dcaa7","ios":"levelo://app?vid=3fa131c8-d3bf-4fb9-b400-1daf371dcaa7"},"vehicle_type_id":"4","last_reported":1740067899,"current_range_meters":8000,"station_id":"ce4bhl12rcd13ifvqgf0","pricing_plan_id":"cebpf4jnsgd1na2vs0mg"},{"bike_id":"63c4cf47-dbff-4d5e-a88a-080b99df99de","system_id":"levelo_inurba_marseille","lat":43.29518,"lon":5.38909,"is_reserved":false,"is_disabled":true,"rental_uris":{"android":"levelo://app?vid=63c4cf47-dbff-4d5e-a88a-080b99df99de","ios":"levelo://app?vid=63c4cf47-dbff-4d5e-a88a-080b99df99de"},"vehicle_type_id":"4","last_reported":1740067899,"current_range_meters":8000,"station_id":"","pricing_plan_id":"cebpf4jnsgd1na2vs0mg"},{"bike_id":"2826bd3a-1cb4-4f89-8df5-68cba8cf3e95","system_id":"levelo_inurba_marseille","lat":43.255042,"lon":5.376538,"is_reserved":false,"is_disabled":false,"rental_uris":{"android":"levelo://app?vid=2826bd3a-1cb4-4f89-8df5-68cba8cf3e95","ios":"levelo://app?vid=2826bd3a-1cb4-4f89-8df5-68cba8cf3e95"},"vehicle_type_id":"4","last_reported":1740067899,"current_range_meters":8000,"station_id":"ce4bgh92rcd13ifvqb50","pricing_plan_id":"cebpf4jnsgd1na2vs0mg"},{"bike_id":"34d14ec0-9a1d-4d07-8158-52ff5d0c0371","system_id":"levelo_inurba_marseille","lat":43.29437,"lon":5.38042,"is_reserved":false,"is_disabled":false,"rental_uris":{"android":"levelo://app?vid=34d14ec0-9a1d-4d07-8158-52ff5d0c0371","ios":"levelo://app?vid=34d14ec0-9a1d-4d07-8158-52ff5d0c0371"},"vehicle_type_id":"4","last_reported":1740067899,"current_range_meters":8000,"station_id":"","pricing_plan_id":"cebpf4jnsgd1na2vs0mg"},{"bike_id":"3cc0cab6-d1c7-48ed-9b49-ff43fead2ab7","system_id":"levelo_inurba_marseille","lat":43.29017,"lon":5.38122,"is_reserved":false,"is_disabled":false,"rental_uris":{"android":"levelo://app?vid=3cc0cab6-d1c7-48ed-9b49-ff43fead2ab7","ios":"levelo://app?vid=3cc0cab6-d1c7-48ed-9b49-ff43fead2ab7"},"vehicle_type_id":"4","last_reported":1740067899,"current_range_meters":8000,"station_id":"ce4bh4p2rcd13ifvqe1g","pricing_plan_id":"cebpf4jnsgd1na2vs0mg"},{"bike_id":"407061d8-6ccd-411e-8d78-08f5ad643857","system_id":"levelo_inurba_marseille","lat":43.33726,"lon":5.39185,"is_reserved":false,"is_disabled":false,"rental_uris":{"android":"levelo://app?vid=407061d8-6ccd-411e-8d78-08f5ad643857","ios":"levelo://app?vid=407061d8-6ccd-411e-8d78-08f5ad643857"},"vehicle_type_id":"4","last_reported":1740067899,"current_range_meters":8000,"station_id":"ce4bhr92rcd13ifvqhsg","pricing_plan_id":"cebpf4jnsgd1na2vs0mg"},{"bike_id":"42471415-3b85-4185-b5a1-1667b19fd149","system_id":"levelo_inurba_marseille","lat":43.30467,"lon":5.37915,"is_reserved":false,"is_disabled":false,"rental_uris":{"android":"levelo://app?vid=42471415-3b85-4185-b5a1-1667b19fd149","ios":"levelo://app?vid=42471415-3b85-4185-b5a1-1667b19fd149"},"vehicle_type_id":"4","last_reported":1740067899,"current_range_meters":8000,"station_id":"ce4bgup2rcd13ifvqcn0","pricing_plan_id":"cebpf4jnsgd1na2vs0mg"},{"bike_id":"b64778c2-2434-4409-b125-e965a1fd469a","system_id":"levelo_inurba_marseille","lat":43.30317,"lon":5.36684,"is_reserved":false,"is_disabled":false,"rental_uris":{"android":"levelo://app?vid=b64778c2-2434-4409-b125-e965a1fd469a","ios":"levelo://app?vid=b64778c2-2434-4409-b125-e965a1fd469a"},"vehicle_type_id":"4","last_reported":1740067899,"current_range_meters":8000,"station_id":"ce4bgs12rcd13ifvqcag","pricing_plan_id":"cebpf4jnsgd1na2vs0mg"},{"bike_id":"844d97b7-2382-4ebf-b3db-1536653af4f6","system_id":"levelo_inurba_marseille","lat":43.2804,"lon":5.36946,"is_reserved":false,"is_disabled":false,"rental_uris":{"android":"levelo://app?vid=844d97b7-2382-4ebf-b3db-1536653af4f6","ios":"levelo://app?vid=844d97b7-2382-4ebf-b3db-1536653af4f6"},"vehicle_type_id":"4","last_reported":1740067899,"current_range_meters":8400,"station_id":"ce4bha12rcd13ifvqef0","pricing_plan_id":"cebpf4jnsgd1na2vs0mg"},{"bike_id":"720d4b03-287a-493b-b590-9cab685ceb6c","system_id":"levelo_inurba_marseille","lat":43.31686,"lon":5.40476,"is_reserved":false,"is_disabled":false,"rental_uris":{"android":"levelo://app?vid=720d4b03-287a-493b-b590-9cab685ceb6c","ios":"levelo://app?vid=720d4b03-287a-493b-b590-9cab685ceb6c"},"vehicle_type_id":"4","last_reported":1740067899,"current_range_meters":8400,"station_id":"ce4bh012rcd13ifvqd00","pricing_plan_id":"cebpf4jnsgd1na2vs0mg"},{"bike_id":"a00fb5cd-e0d2-4f96-befb-5275c0df0c87","system_id":"levelo_inurba_marseille","lat":43.28004,"lon":5.41667,"is_reserved":false,"is_disabled":false,"rental_uris":{"android":"levelo://app?vid=a00fb5cd-e0d2-4f96-befb-5275c0df0c87","ios":"levelo://app?vid=a00fb5cd-e0d2-4f96-befb-5275c0df0c87"},"vehicle_type_id":"4","last_reported":1740067899,"current_range_meters":8400,"station_id":"ce4bho12rcd13ifvqh1g","pricing_plan_id":"cebpf4jnsgd1na2vs0mg"},{"bike_id":"e085094b-5303-43b7-9179-0c0ea19a3987","system_id":"levelo_inurba_marseille","lat":43.25108,"lon":5.4033,"is_reserved":false,"is_disabled":false,"rental_uris":{"android":"levelo://app?vid=e085094b-5303-43b7-9179-0c0ea19a3987","ios":"levelo://app?vid=e085094b-5303-43b7-9179-0c0ea19a3987"},"vehicle_type_id":"4","last_reported":1740067899,"current_range_meters":8400,"station_id":"ce4bhlh2rcd13ifvqgig","pricing_plan_id":"cebpf4jnsgd1na2vs0mg"},{"bike_id":"fc971b16-bef3-4b6d-813c-ffc8ffa48842","system_id":"levelo_inurba_marseille","lat":43.2841,"lon":5.34986,"is_reserved":false,"is_disabled":true,"rental_uris":{"android":"levelo://app?vid=fc971b16-bef3-4b6d-813c-ffc8ffa48842","ios":"levelo://app?vid=fc971b16-bef3-4b6d-813c-ffc8ffa48842"},"vehicle_type_id":"4","last_reported":1740067899,"current_range_meters":8400,"station_id":"","pricing_plan_id":"cebpf4jnsgd1na2vs0mg"},{"bike_id":"104b15c6-bf74-407c-9a34-de8a1be58e4f","system_id":"levelo_inurba_marseille","lat":43.29201,"lon":5.37304,"is_reserved":false,"is_disabled":false,"rental_uris":{"android":"levelo://app?vid=104b15c6-bf74-407c-9a34-de8a1be58e4f","ios":"levelo://app?vid=104b15c6-bf74-407c-9a34-de8a1be58e4f"},"vehicle_type_id":"4","last_reported":1740067899,"current_range_meters":8400,"station_id":"","pricing_plan_id":"cebpf4jnsgd1na2vs0mg"},{"bike_id":"c000902f-c5f9-4784-8f8c-254f920ace9e","system_id":"levelo_inurba_marseille","lat":43.3375,"lon":5.39204,"is_reserved":false,"is_disabled":false,"rental_uris":{"android":"levelo://app?vid=c000902f-c5f9-4784-8f8c-254f920ace9e","ios":"levelo://app?vid=c000902f-c5f9-4784-8f8c-254f920ace9e"},"vehicle_type_id":"4","last_reported":1740067899,"current_range_meters":8400,"station_id":"ce4bhr92rcd13ifvqhsg","pricing_plan_id":"cebpf4jnsgd1na2vs0mg"},{"bike_id":"5180f318-4948-4085-aaf1-5f3160b57dbe","system_id":"levelo_inurba_marseille","lat":43.276179,"lon":5.361058,"is_reserved":false,"is_disabled":false,"rental_uris":{"android":"levelo://app?vid=5180f318-4948-4085-aaf1-5f3160b57dbe","ios":"levelo://app?vid=5180f318-4948-4085-aaf1-5f3160b57dbe"},"vehicle_type_id":"4","last_reported":1740067899,"current_range_meters":8400,"station_id":"","pricing_plan_id":"cebpf4jnsgd1na2vs0mg"},{"bike_id":"c597ac19-c5e2-4123-a10b-6f256d623658","system_id":"levelo_inurba_marseille","lat":43.33026,"lon":5.39034,"is_reserved":false,"is_disabled":false,"rental_uris":{"android":"levelo://app?vid=c597ac19-c5e2-4123-a10b-6f256d623658","ios":"levelo://app?vid=c597ac19-c5e2-4123-a10b-6f256d623658"},"vehicle_type_id":"4","last_reported":1740067899,"current_range_meters":8800,"station_id":"ce4bhr92rcd13ifvqhrg","pricing_plan_id":"cebpf4jnsgd1na2vs0mg"},{"bike_id":"80726f64-1124-4c13-89e8-665af0055a53","system_id":"levelo_inurba_marseille","lat":43.29028,"lon":5.3693,"is_reserved":false,"is_disabled":false,"rental_uris":{"android":"levelo://app?vid=80726f64-1124-4c13-89e8-665af0055a53","ios":"levelo://app?vid=80726f64-1124-4c13-89e8-665af0055a53"},"vehicle_type_id":"4","last_reported":1740067899,"current_range_meters":8800,"station_id":"ce4bhb12rcd13ifvqem0","pricing_plan_id":"cebpf4jnsgd1na2vs0mg"},{"bike_id":"d9b05039-0972-4c69-a5c1-23da6a00ce53","system_id":"levelo_inurba_marseille","lat":43.248,"lon":5.37451,"is_reserved":false,"is_disabled":false,"rental_uris":{"android":"levelo://app?vid=d9b05039-0972-4c69-a5c1-23da6a00ce53","ios":"levelo://app?vid=d9b05039-0972-4c69-a5c1-23da6a00ce53"},"vehicle_type_id":"4","last_reported":1740067899,"current_range_meters":8800,"station_id":"","pricing_plan_id":"cebpf4jnsgd1na2vs0mg"},{"bike_id":"30373a9f-4fc7-45a1-8ae5-65060b7c5711","system_id":"levelo_inurba_marseille","lat":43.24553,"lon":5.39523,"is_reserved":false,"is_disabled":false,"rental_uris":{"android":"levelo://app?vid=30373a9f-4fc7-45a1-8ae5-65060b7c5711","ios":"levelo://app?vid=30373a9f-4fc7-45a1-8ae5-65060b7c5711"},"vehicle_type_id":"4","last_reported":1740067899,"current_range_meters":8800,"station_id":"","pricing_plan_id":"cebpf4jnsgd1na2vs0mg"},{"bike_id":"c344789d-c362-498c-aa9b-aa2e440bfbf0","system_id":"levelo_inurba_marseille","lat":43.32359,"lon":5.36749,"is_reserved":false,"is_disabled":false,"rental_uris":{"android":"levelo://app?vid=c344789d-c362-498c-aa9b-aa2e440bfbf0","ios":"levelo://app?vid=c344789d-c362-498c-aa9b-aa2e440bfbf0"},"vehicle_type_id":"4","last_reported":1740067899,"current_range_meters":8800,"station_id":"ce4bhsh2rcd13ifvqi2g","pricing_plan_id":"cebpf4jnsgd1na2vs0mg"},{"bike_id":"201ed5b5-4e38-439e-91de-f0932d416864","system_id":"levelo_inurba_marseille","lat":43.27889,"lon":5.37986,"is_reserved":false,"is_disabled":false,"rental_uris":{"android":"levelo://app?vid=201ed5b5-4e38-439e-91de-f0932d416864","ios":"levelo://app?vid=201ed5b5-4e38-439e-91de-f0932d416864"},"vehicle_type_id":"4","last_reported":1740067899,"current_range_meters":8800,"station_id":"","pricing_plan_id":"cebpf4jnsgd1na2vs0mg"},{"bike_id":"a4a8ab7f-c8bc-4d59-86b4-be5b1f9c1e5d","system_id":"levelo_inurba_marseille","lat":43.26955,"lon":5.38644,"is_reserved":false,"is_disabled":false,"rental_uris":{"android":"levelo://app?vid=a4a8ab7f-c8bc-4d59-86b4-be5b1f9c1e5d","ios":"levelo://app?vid=a4a8ab7f-c8bc-4d59-86b4-be5b1f9c1e5d"},"vehicle_type_id":"4","last_reported":1740067899,"current_range_meters":8800,"station_id":"ce4bhh92rcd13ifvqfh0","pricing_plan_id":"cebpf4jnsgd1na2vs0mg"},{"bike_id":"46eab976-e0b2-4f3c-8037-c9dd7c1011ea","system_id":"levelo_inurba_marseille","lat":43.30262,"lon":5.40082,"is_reserved":false,"is_disabled":false,"rental_uris":{"android":"levelo://app?vid=46eab976-e0b2-4f3c-8037-c9dd7c1011ea","ios":"levelo://app?vid=46eab976-e0b2-4f3c-8037-c9dd7c1011ea"},"vehicle_type_id":"4","last_reported":1740067899,"current_range_meters":9200,"station_id":"ce4bgvh2rcd13ifvqcs0","pricing_plan_id":"cebpf4jnsgd1na2vs0mg"},{"bike_id":"cea5e88c-c467-4100-b0da-e152ac5a03c1","system_id":"levelo_inurba_marseille","lat":43.27902,"lon":5.38004,"is_reserved":false,"is_disabled":false,"rental_uris":{"android":"levelo://app?vid=cea5e88c-c467-4100-b0da-e152ac5a03c1","ios":"levelo://app?vid=cea5e88c-c467-4100-b0da-e152ac5a03c1"},"vehicle_type_id":"4","last_reported":1740067899,"current_range_meters":9200,"station_id":"","pricing_plan_id":"cebpf4jnsgd1na2vs0mg"},{"bike_id":"26779595-c177-40e8-a988-d5570ab1009d","system_id":"levelo_inurba_marseille","lat":43.29212,"lon":5.398,"is_reserved":false,"is_disabled":false,"rental_uris":{"android":"levelo://app?vid=26779595-c177-40e8-a988-d5570ab1009d","ios":"levelo://app?vid=26779595-c177-40e8-a988-d5570ab1009d"},"vehicle_type_id":"4","last_reported":1740067899,"current_range_meters":9200,"station_id":"","pricing_plan_id":"cebpf4jnsgd1na2vs0mg"},{"bike_id":"0686e433-82b6-4ced-b364-39b66b6a0983","system_id":"levelo_inurba_marseille","lat":43.255799,"lon":5.382359,"is_reserved":false,"is_disabled":false,"rental_uris":{"android":"levelo://app?vid=0686e433-82b6-4ced-b364-39b66b6a0983","ios":"levelo://app?vid=0686e433-82b6-4ced-b364-39b66b6a0983"},"vehicle_type_id":"4","last_reported":1740067899,"current_range_meters":9200,"station_id":"ce4bhih2rcd13ifvqfs0","pricing_plan_id":"cebpf4jnsgd1na2vs0mg"},{"bike_id":"6ad6b0e0-df82-4410-a34c-7ece8c793cb8","system_id":"levelo_inurba_marseille","lat":43.2977,"lon":5.37104,"is_reserved":false,"is_disabled":false,"rental_uris":{"android":"levelo://app?vid=6ad6b0e0-df82-4410-a34c-7ece8c793cb8","ios":"levelo://app?vid=6ad6b0e0-df82-4410-a34c-7ece8c793cb8"},"vehicle_type_id":"4","last_reported":1740067899,"current_range_meters":9200,"station_id":"ce4bgop2rcd13ifvqc1g","pricing_plan_id":"cebpf4jnsgd1na2vs0mg"},{"bike_id":"058213af-b61b-486b-8e0a-0a8fd78595de","system_id":"levelo_inurba_marseille","lat":43.25096,"lon":5.39519,"is_reserved":false,"is_disabled":false,"rental_uris":{"android":"levelo://app?vid=058213af-b61b-486b-8e0a-0a8fd78595de","ios":"levelo://app?vid=058213af-b61b-486b-8e0a-0a8fd78595de"},"vehicle_type_id":"4","last_reported":1740067899,"current_range_meters":9200,"station_id":"ce4bhm12rcd13ifvqgkg","pricing_plan_id":"cebpf4jnsgd1na2vs0mg"},{"bike_id":"5428c4a6-2268-45c5-aff9-a5f8e308d92b","system_id":"levelo_inurba_marseille","lat":43.3092,"lon":5.37254,"is_reserved":false,"is_disabled":false,"rental_uris":{"android":"levelo://app?vid=5428c4a6-2268-45c5-aff9-a5f8e308d92b","ios":"levelo://app?vid=5428c4a6-2268-45c5-aff9-a5f8e308d92b"},"vehicle_type_id":"4","last_reported":1740067899,"current_range_meters":9600,"station_id":"ce4bguh2rcd13ifvqckg","pricing_plan_id":"cebpf4jnsgd1na2vs0mg"},{"bike_id":"5f9ede52-c720-4107-a864-980fb2608395","system_id":"levelo_inurba_marseille","lat":43.24091,"lon":5.38655,"is_reserved":false,"is_disabled":false,"rental_uris":{"android":"levelo://app?vid=5f9ede52-c720-4107-a864-980fb2608395","ios":"levelo://app?vid=5f9ede52-c720-4107-a864-980fb2608395"},"vehicle_type_id":"4","last_reported":1740067899,"current_range_meters":9600,"station_id":"ce4bhb92rcd13ifvqen0","pricing_plan_id":"cebpf4jnsgd1na2vs0mg"},{"bike_id":"9861dac5-3e83-4d9b-8fe4-bc47d20ae84c","system_id":"levelo_inurba_marseille","lat":43.3248,"lon":5.36578,"is_reserved":false,"is_disabled":false,"rental_uris":{"android":"levelo://app?vid=9861dac5-3e83-4d9b-8fe4-bc47d20ae84c","ios":"levelo://app?vid=9861dac5-3e83-4d9b-8fe4-bc47d20ae84c"},"vehicle_type_id":"4","last_reported":1740067899,"current_range_meters":9600,"station_id":"","pricing_plan_id":"cebpf4jnsgd1na2vs0mg"},{"bike_id":"3dd82fda-5140-4de0-994f-bd2b925594bb","system_id":"levelo_inurba_marseille","lat":43.26571,"lon":5.39015,"is_reserved":false,"is_disabled":false,"rental_uris":{"android":"levelo://app?vid=3dd82fda-5140-4de0-994f-bd2b925594bb","ios":"levelo://app?vid=3dd82fda-5140-4de0-994f-bd2b925594bb"},"vehicle_type_id":"4","last_reported":1740067899,"current_range_meters":9600,"station_id":"ce4bhe12rcd13ifvqf30","pricing_plan_id":"cebpf4jnsgd1na2vs0mg"},{"bike_id":"0d34eb8c-c749-410b-a515-4800435ee933","system_id":"levelo_inurba_marseille","lat":43.241688,"lon":5.363949,"is_reserved":false,"is_disabled":false,"rental_uris":{"android":"levelo://app?vid=0d34eb8c-c749-410b-a515-4800435ee933","ios":"levelo://app?vid=0d34eb8c-c749-410b-a515-4800435ee933"},"vehicle_type_id":"4","last_reported":1740067899,"current_range_meters":9600,"station_id":"cpo36qri1sfpv3e86is0","pricing_plan_id":"cebpf4jnsgd1na2vs0mg"},{"bike_id":"70f75342-bbe7-4b39-9ecc-593d07eb0ca5","system_id":"levelo_inurba_marseille","lat":43.26962,"lon":5.38643,"is_reserved":false,"is_disabled":false,"rental_uris":{"android":"levelo://app?vid=70f75342-bbe7-4b39-9ecc-593d07eb0ca5","ios":"levelo://app?vid=70f75342-bbe7-4b39-9ecc-593d07eb0ca5"},"vehicle_type_id":"4","last_reported":1740067899,"current_range_meters":9600,"station_id":"ce4bhh92rcd13ifvqfh0","pricing_plan_id":"cebpf4jnsgd1na2vs0mg"},{"bike_id":"d078d9e7-1854-4ad6-a4cc-af7788d393db","system_id":"levelo_inurba_marseille","lat":43.27064,"lon":5.40271,"is_reserved":false,"is_disabled":false,"rental_uris":{"android":"levelo://app?vid=d078d9e7-1854-4ad6-a4cc-af7788d393db","ios":"levelo://app?vid=d078d9e7-1854-4ad6-a4cc-af7788d393db"},"vehicle_type_id":"4","last_reported":1740067899,"current_range_meters":9600,"station_id":"ce4bhk92rcd13ifvqgc0","pricing_plan_id":"cebpf4jnsgd1na2vs0mg"},{"bike_id":"8e2fc4b0-4b02-4454-8dd9-29ceb66f5665","system_id":"levelo_inurba_marseille","lat":43.2907,"lon":5.35586,"is_reserved":false,"is_disabled":false,"rental_uris":{"android":"levelo://app?vid=8e2fc4b0-4b02-4454-8dd9-29ceb66f5665","ios":"levelo://app?vid=8e2fc4b0-4b02-4454-8dd9-29ceb66f5665"},"vehicle_type_id":"4","last_reported":1740067899,"current_range_meters":9600,"station_id":"ce4bgs12rcd13ifvqcag","pricing_plan_id":"cebpf4jnsgd1na2vs0mg"},{"bike_id":"2c9010bb-64fb-4c2b-9636-18c18da531ab","system_id":"levelo_inurba_marseille","lat":43.29199,"lon":5.39333,"is_reserved":false,"is_disabled":false,"rental_uris":{"android":"levelo://app?vid=2c9010bb-64fb-4c2b-9636-18c18da531ab","ios":"levelo://app?vid=2c9010bb-64fb-4c2b-9636-18c18da531ab"},"vehicle_type_id":"4","last_reported":1740067899,"current_range_meters":9600,"station_id":"ce4bh192rcd13ifvqdd0","pricing_plan_id":"cebpf4jnsgd1na2vs0mg"},{"bike_id":"4131ed30-1f43-4452-84c1-9ce618cb7cc0","system_id":"levelo_inurba_marseille","lat":43.27217,"lon":5.39164,"is_reserved":false,"is_disabled":false,"rental_uris":{"android":"levelo://app?vid=4131ed30-1f43-4452-84c1-9ce618cb7cc0","ios":"levelo://app?vid=4131ed30-1f43-4452-84c1-9ce618cb7cc0"},"vehicle_type_id":"4","last_reported":1740067899,"current_range_meters":9600,"station_id":"ce4bhhp2rcd13ifvqfm0","pricing_plan_id":"cebpf4jnsgd1na2vs0mg"},{"bike_id":"77ac049b-6848-4db1-94df-a16d6879e316","system_id":"levelo_inurba_marseille","lat":43.23197,"lon":5.35559,"is_reserved":false,"is_disabled":false,"rental_uris":{"android":"levelo://app?vid=77ac049b-6848-4db1-94df-a16d6879e316","ios":"levelo://app?vid=77ac049b-6848-4db1-94df-a16d6879e316"},"vehicle_type_id":"4","last_reported":1740067899,"current_range_meters":10000,"station_id":"","pricing_plan_id":"cebpf4jnsgd1na2vs0mg"},{"bike_id":"6d3a1bc9-0168-46a0-8d06-2b755db45b0a","system_id":"levelo_inurba_marseille","lat":43.23061,"lon":5.3549,"is_reserved":false,"is_disabled":false,"rental_uris":{"android":"levelo://app?vid=6d3a1bc9-0168-46a0-8d06-2b755db45b0a","ios":"levelo://app?vid=6d3a1bc9-0168-46a0-8d06-2b755db45b0a"},"vehicle_type_id":"4","last_reported":1740067899,"current_range_meters":10000,"station_id":"cpo3342slgdg3j2ifvpg","pricing_plan_id":"cebpf4jnsgd1na2vs0mg"},{"bike_id":"fb32c5b6-8451-439f-821a-c1f393e3c428","system_id":"levelo_inurba_marseille","lat":43.32111,"lon":5.36799,"is_reserved":false,"is_disabled":false,"rental_uris":{"android":"levelo://app?vid=fb32c5b6-8451-439f-821a-c1f393e3c428","ios":"levelo://app?vid=fb32c5b6-8451-439f-821a-c1f393e3c428"},"vehicle_type_id":"4","last_reported":1740067899,"current_range_meters":10000,"station_id":"ce4bhrh2rcd13ifvqhug","pricing_plan_id":"cebpf4jnsgd1na2vs0mg"},{"bike_id":"08c2373e-c071-4629-a751-c9171099bb35","system_id":"levelo_inurba_marseille","lat":43.28409,"lon":5.37514,"is_reserved":false,"is_disabled":false,"rental_uris":{"android":"levelo://app?vid=08c2373e-c071-4629-a751-c9171099bb35","ios":"levelo://app?vid=08c2373e-c071-4629-a751-c9171099bb35"},"vehicle_type_id":"4","last_reported":1740067899,"current_range_meters":10000,"station_id":"ce4bh412rcd13ifvqds0","pricing_plan_id":"cebpf4jnsgd1na2vs0mg"},{"bike_id":"1152b781-bf34-4466-8630-eaecbeeb70ef","system_id":"levelo_inurba_marseille","lat":43.29291,"lon":5.37444,"is_reserved":false,"is_disabled":false,"rental_uris":{"android":"levelo://app?vid=1152b781-bf34-4466-8630-eaecbeeb70ef","ios":"levelo://app?vid=1152b781-bf34-4466-8630-eaecbeeb70ef"},"vehicle_type_id":"4","last_reported":1740067899,"current_range_meters":9600,"station_id":"ce4bgi12rcd13ifvqb70","pricing_plan_id":"cebpf4jnsgd1na2vs0mg"},{"bike_id":"4da6cc22-4d46-4a7c-8914-7b17d72dd95a","system_id":"levelo_inurba_marseille","lat":43.27175,"lon":5.4099,"is_reserved":false,"is_disabled":false,"rental_uris":{"android":"levelo://app?vid=4da6cc22-4d46-4a7c-8914-7b17d72dd95a","ios":"levelo://app?vid=4da6cc22-4d46-4a7c-8914-7b17d72dd95a"},"vehicle_type_id":"4","last_reported":1740067899,"current_range_meters":10000,"station_id":"ce4bhl12rcd13ifvqgf0","pricing_plan_id":"cebpf4jnsgd1na2vs0mg"},{"bike_id":"0ec45345-6bd8-4c72-a759-54e3176f3847","system_id":"levelo_inurba_marseille","lat":43.320905,"lon":5.432658,"is_reserved":false,"is_disabled":false,"rental_uris":{"android":"levelo://app?vid=0ec45345-6bd8-4c72-a759-54e3176f3847","ios":"levelo://app?vid=0ec45345-6bd8-4c72-a759-54e3176f3847"},"vehicle_type_id":"4","last_reported":1740067899,"current_range_meters":10800,"station_id":"ce4bhp92rcd13ifvqhcg","pricing_plan_id":"cebpf4jnsgd1na2vs0mg"},{"bike_id":"5ecab379-21be-418e-a071-e762dbab1202","system_id":"levelo_inurba_marseille","lat":43.30311,"lon":5.36904,"is_reserved":false,"is_disabled":false,"rental_uris":{"android":"levelo://app?vid=5ecab379-21be-418e-a071-e762dbab1202","ios":"levelo://app?vid=5ecab379-21be-418e-a071-e762dbab1202"},"vehicle_type_id":"4","last_reported":1740067899,"current_range_meters":10800,"station_id":"ce4bgqh2rcd13ifvqc5g","pricing_plan_id":"cebpf4jnsgd1na2vs0mg"},{"bike_id":"2e1493aa-10ef-4501-87ec-463ff3fcd69b","system_id":"levelo_inurba_marseille","lat":43.290529,"lon":5.381028,"is_reserved":false,"is_disabled":false,"rental_uris":{"android":"levelo://app?vid=2e1493aa-10ef-4501-87ec-463ff3fcd69b","ios":"levelo://app?vid=2e1493aa-10ef-4501-87ec-463ff3fcd69b"},"vehicle_type_id":"4","last_reported":1740067899,"current_range_meters":10000,"station_id":"ce4bh4p2rcd13ifvqe1g","pricing_plan_id":"cebpf4jnsgd1na2vs0mg"},{"bike_id":"341bae22-75f3-4766-8fd7-413e8c4a7fee","system_id":"levelo_inurba_marseille","lat":43.26818,"lon":5.40211,"is_reserved":false,"is_disabled":false,"rental_uris":{"android":"levelo://app?vid=341bae22-75f3-4766-8fd7-413e8c4a7fee","ios":"levelo://app?vid=341bae22-75f3-4766-8fd7-413e8c4a7fee"},"vehicle_type_id":"4","last_reported":1740067899,"current_range_meters":10800,"station_id":"ce501612rcd8frsf0b60","pricing_plan_id":"cebpf4jnsgd1na2vs0mg"},{"bike_id":"7b19744e-f24f-4b7d-94e9-2a8fd4a78d0d","system_id":"levelo_inurba_marseille","lat":43.23189,"lon":5.3557,"is_reserved":false,"is_disabled":false,"rental_uris":{"android":"levelo://app?vid=7b19744e-f24f-4b7d-94e9-2a8fd4a78d0d","ios":"levelo://app?vid=7b19744e-f24f-4b7d-94e9-2a8fd4a78d0d"},"vehicle_type_id":"4","last_reported":1740067899,"current_range_meters":10800,"station_id":"","pricing_plan_id":"cebpf4jnsgd1na2vs0mg"},{"bike_id":"30f781b4-0c37-4f06-8146-403e76b61b21","system_id":"levelo_inurba_marseille","lat":43.29732,"lon":5.37717,"is_reserved":false,"is_disabled":false,"rental_uris":{"android":"levelo://app?vid=30f781b4-0c37-4f06-8146-403e76b61b21","ios":"levelo://app?vid=30f781b4-0c37-4f06-8146-403e76b61b21"},"vehicle_type_id":"4","last_reported":1740067899,"current_range_meters":10800,"station_id":"","pricing_plan_id":"cebpf4jnsgd1na2vs0mg"},{"bike_id":"3dc24e05-a7f1-4a22-9da9-85b121fcd970","system_id":"levelo_inurba_marseille","lat":43.29905,"lon":5.43652,"is_reserved":false,"is_disabled":false,"rental_uris":{"android":"levelo://app?vid=3dc24e05-a7f1-4a22-9da9-85b121fcd970","ios":"levelo://app?vid=3dc24e05-a7f1-4a22-9da9-85b121fcd970"},"vehicle_type_id":"4","last_reported":1740067899,"current_range_meters":10800,"station_id":"ce4bhpp2rcd13ifvqhfg","pricing_plan_id":"cebpf4jnsgd1na2vs0mg"},{"bike_id":"68e05bf4-ad1e-4c28-b192-dd1b64ffb89b","system_id":"levelo_inurba_marseille","lat":43.29576,"lon":5.37511,"is_reserved":false,"is_disabled":false,"rental_uris":{"android":"levelo://app?vid=68e05bf4-ad1e-4c28-b192-dd1b64ffb89b","ios":"levelo://app?vid=68e05bf4-ad1e-4c28-b192-dd1b64ffb89b"},"vehicle_type_id":"4","last_reported":1740067899,"current_range_meters":10800,"station_id":"ce4bgh92rcd13ifvqb50","pricing_plan_id":"cebpf4jnsgd1na2vs0mg"},{"bike_id":"f152876e-10d3-40a1-b605-6256952294f4","system_id":"levelo_inurba_marseille","lat":43.25862,"lon":5.39903,"is_reserved":false,"is_disabled":false,"rental_uris":{"android":"levelo://app?vid=f152876e-10d3-40a1-b605-6256952294f4","ios":"levelo://app?vid=f152876e-10d3-40a1-b605-6256952294f4"},"vehicle_type_id":"4","last_reported":1740067899,"current_range_meters":11200,"station_id":"ce4bhl92rcd13ifvqghg","pricing_plan_id":"cebpf4jnsgd1na2vs0mg"},{"bike_id":"79e2bc00-14c4-4a61-bbea-1f5be256d9a2","system_id":"levelo_inurba_marseille","lat":43.29275,"lon":5.3685,"is_reserved":false,"is_disabled":false,"rental_uris":{"android":"levelo://app?vid=79e2bc00-14c4-4a61-bbea-1f5be256d9a2","ios":"levelo://app?vid=79e2bc00-14c4-4a61-bbea-1f5be256d9a2"},"vehicle_type_id":"4","last_reported":1740067899,"current_range_meters":11200,"station_id":"ce4bhbp2rcd13ifvqesg","pricing_plan_id":"cebpf4jnsgd1na2vs0mg"},{"bike_id":"f930b33f-4121-4f0c-9bf9-6a2ae5ef135b","system_id":"levelo_inurba_marseille","lat":43.27923,"lon":5.39574,"is_reserved":false,"is_disabled":false,"rental_uris":{"android":"levelo://app?vid=f930b33f-4121-4f0c-9bf9-6a2ae5ef135b","ios":"levelo://app?vid=f930b33f-4121-4f0c-9bf9-6a2ae5ef135b"},"vehicle_type_id":"4","last_reported":1740067899,"current_range_meters":11200,"station_id":"ce4bhf92rcd13ifvqf40","pricing_plan_id":"cebpf4jnsgd1na2vs0mg"},{"bike_id":"2c642cf3-a2f0-4593-b1c2-d4719498916b","system_id":"levelo_inurba_marseille","lat":43.25123,"lon":5.40328,"is_reserved":false,"is_disabled":false,"rental_uris":{"android":"levelo://app?vid=2c642cf3-a2f0-4593-b1c2-d4719498916b","ios":"levelo://app?vid=2c642cf3-a2f0-4593-b1c2-d4719498916b"},"vehicle_type_id":"4","last_reported":1740067899,"current_range_meters":11200,"station_id":"","pricing_plan_id":"cebpf4jnsgd1na2vs0mg"},{"bike_id":"3ebc1cd9-4c66-4f45-b886-8b491b059d05","system_id":"levelo_inurba_marseille","lat":43.29943,"lon":5.36553,"is_reserved":false,"is_disabled":false,"rental_uris":{"android":"levelo://app?vid=3ebc1cd9-4c66-4f45-b886-8b491b059d05","ios":"levelo://app?vid=3ebc1cd9-4c66-4f45-b886-8b491b059d05"},"vehicle_type_id":"4","last_reported":1740067899,"current_range_meters":11600,"station_id":"ce4bgm92rcd13ifvqbr0","pricing_plan_id":"cebpf4jnsgd1na2vs0mg"},{"bike_id":"d1ddb665-d583-4eb7-9f5b-eab137dbbcd0","system_id":"levelo_inurba_marseille","lat":43.30891,"lon":5.37209,"is_reserved":false,"is_disabled":false,"rental_uris":{"android":"levelo://app?vid=d1ddb665-d583-4eb7-9f5b-eab137dbbcd0","ios":"levelo://app?vid=d1ddb665-d583-4eb7-9f5b-eab137dbbcd0"},"vehicle_type_id":"4","last_reported":1740067899,"current_range_meters":11600,"station_id":"ce4bguh2rcd13ifvqckg","pricing_plan_id":"cebpf4jnsgd1na2vs0mg"},{"bike_id":"9d66bbe9-0c18-4a7a-b79e-6926d511d6fe","system_id":"levelo_inurba_marseille","lat":43.30548,"lon":5.36553,"is_reserved":false,"is_disabled":false,"rental_uris":{"android":"levelo://app?vid=9d66bbe9-0c18-4a7a-b79e-6926d511d6fe","ios":"levelo://app?vid=9d66bbe9-0c18-4a7a-b79e-6926d511d6fe"},"vehicle_type_id":"4","last_reported":1740067899,"current_range_meters":11600,"station_id":"ce4bgs12rcd13ifvqcag","pricing_plan_id":"cebpf4jnsgd1na2vs0mg"},{"bike_id":"b0f6e4be-9ba7-40e1-8b1f-6ebcea1eab49","system_id":"levelo_inurba_marseille","lat":43.2954,"lon":5.38534,"is_reserved":false,"is_disabled":false,"rental_uris":{"android":"levelo://app?vid=b0f6e4be-9ba7-40e1-8b1f-6ebcea1eab49","ios":"levelo://app?vid=b0f6e4be-9ba7-40e1-8b1f-6ebcea1eab49"},"vehicle_type_id":"4","last_reported":1740067899,"current_range_meters":11600,"station_id":"ce4bgih2rcd13ifvqba0","pricing_plan_id":"cebpf4jnsgd1na2vs0mg"},{"bike_id":"d8dc2332-214f-488b-8389-0e429277c9f8","system_id":"levelo_inurba_marseille","lat":43.26193,"lon":5.37452,"is_reserved":false,"is_disabled":false,"rental_uris":{"android":"levelo://app?vid=d8dc2332-214f-488b-8389-0e429277c9f8","ios":"levelo://app?vid=d8dc2332-214f-488b-8389-0e429277c9f8"},"vehicle_type_id":"4","last_reported":1740067899,"current_range_meters":11600,"station_id":"ce4bhgp2rcd13ifvqfc0","pricing_plan_id":"cebpf4jnsgd1na2vs0mg"},{"bike_id":"a70af82e-abb1-4052-a908-3f6d7385acd1","system_id":"levelo_inurba_marseille","lat":43.28608,"lon":5.3706,"is_reserved":false,"is_disabled":false,"rental_uris":{"android":"levelo://app?vid=a70af82e-abb1-4052-a908-3f6d7385acd1","ios":"levelo://app?vid=a70af82e-abb1-4052-a908-3f6d7385acd1"},"vehicle_type_id":"4","last_reported":1740067899,"current_range_meters":11600,"station_id":"ce4bht12rcd13ifvqi60","pricing_plan_id":"cebpf4jnsgd1na2vs0mg"},{"bike_id":"635050f9-a2c9-4910-8267-ff5a32e2982d","system_id":"levelo_inurba_marseille","lat":43.24819,"lon":5.37463,"is_reserved":false,"is_disabled":true,"rental_uris":{"android":"levelo://app?vid=635050f9-a2c9-4910-8267-ff5a32e2982d","ios":"levelo://app?vid=635050f9-a2c9-4910-8267-ff5a32e2982d"},"vehicle_type_id":"4","last_reported":1740067899,"current_range_meters":11600,"station_id":"","pricing_plan_id":"cebpf4jnsgd1na2vs0mg"},{"bike_id":"1bf8dc71-d8fc-4e23-8706-3e060c4f9a93","system_id":"levelo_inurba_marseille","lat":43.26628,"lon":5.39133,"is_reserved":false,"is_disabled":false,"rental_uris":{"android":"levelo://app?vid=1bf8dc71-d8fc-4e23-8706-3e060c4f9a93","ios":"levelo://app?vid=1bf8dc71-d8fc-4e23-8706-3e060c4f9a93"},"vehicle_type_id":"4","last_reported":1740067899,"current_range_meters":12000,"station_id":"ce4bhe12rcd13ifvqf30","pricing_plan_id":"cebpf4jnsgd1na2vs0mg"},{"bike_id":"081ec137-d34d-435d-b2ea-959f4f59d4aa","system_id":"levelo_inurba_marseille","lat":43.29025,"lon":5.38653,"is_reserved":false,"is_disabled":false,"rental_uris":{"android":"levelo://app?vid=081ec137-d34d-435d-b2ea-959f4f59d4aa","ios":"levelo://app?vid=081ec137-d34d-435d-b2ea-959f4f59d4aa"},"vehicle_type_id":"4","last_reported":1740067899,"current_range_meters":11600,"station_id":"ce4bh4p2rcd13ifvqe0g","pricing_plan_id":"cebpf4jnsgd1na2vs0mg"},{"bike_id":"ffccc8b3-1568-4590-8f55-6e9582007066","system_id":"levelo_inurba_marseille","lat":43.297883,"lon":5.393423,"is_reserved":false,"is_disabled":false,"rental_uris":{"android":"levelo://app?vid=ffccc8b3-1568-4590-8f55-6e9582007066","ios":"levelo://app?vid=ffccc8b3-1568-4590-8f55-6e9582007066"},"vehicle_type_id":"4","last_reported":1740067899,"current_range_meters":12000,"station_id":"chh1huq6cuj3fo74tm60","pricing_plan_id":"cebpf4jnsgd1na2vs0mg"},{"bike_id":"ad47c7e9-f91e-4c76-a821-e7d2287689bf","system_id":"levelo_inurba_marseille","lat":43.27954,"lon":5.41046,"is_reserved":false,"is_disabled":false,"rental_uris":{"android":"levelo://app?vid=ad47c7e9-f91e-4c76-a821-e7d2287689bf","ios":"levelo://app?vid=ad47c7e9-f91e-4c76-a821-e7d2287689bf"},"vehicle_type_id":"4","last_reported":1740067899,"current_range_meters":12000,"station_id":"ce4bhnp2rcd13ifvqh0g","pricing_plan_id":"cebpf4jnsgd1na2vs0mg"},{"bike_id":"7525668b-69fd-4942-8b9d-038c2eaf15c8","system_id":"levelo_inurba_marseille","lat":43.28689,"lon":5.38674,"is_reserved":false,"is_disabled":false,"rental_uris":{"android":"levelo://app?vid=7525668b-69fd-4942-8b9d-038c2eaf15c8","ios":"levelo://app?vid=7525668b-69fd-4942-8b9d-038c2eaf15c8"},"vehicle_type_id":"4","last_reported":1740067899,"current_range_meters":12000,"station_id":"ce4bh492rcd13ifvqdug","pricing_plan_id":"cebpf4jnsgd1na2vs0mg"},{"bike_id":"5088c225-2a2d-4dc7-b756-739b2f037683","system_id":"levelo_inurba_marseille","lat":43.26678,"lon":5.38266,"is_reserved":false,"is_disabled":false,"rental_uris":{"android":"levelo://app?vid=5088c225-2a2d-4dc7-b756-739b2f037683","ios":"levelo://app?vid=5088c225-2a2d-4dc7-b756-739b2f037683"},"vehicle_type_id":"4","last_reported":1740067899,"current_range_meters":12000,"station_id":"ce4bhg92rcd13ifvqf90","pricing_plan_id":"cebpf4jnsgd1na2vs0mg"},{"bike_id":"e5e4ca29-b0fa-438a-aa30-80e434472dbb","system_id":"levelo_inurba_marseille","lat":43.27996,"lon":5.40026,"is_reserved":false,"is_disabled":false,"rental_uris":{"android":"levelo://app?vid=e5e4ca29-b0fa-438a-aa30-80e434472dbb","ios":"levelo://app?vid=e5e4ca29-b0fa-438a-aa30-80e434472dbb"},"vehicle_type_id":"4","last_reported":1740067899,"current_range_meters":12000,"station_id":"","pricing_plan_id":"cebpf4jnsgd1na2vs0mg"},{"bike_id":"9aef2b50-02ae-4a6d-aa26-821348658263","system_id":"levelo_inurba_marseille","lat":43.28178,"lon":5.42628,"is_reserved":false,"is_disabled":false,"rental_uris":{"android":"levelo://app?vid=9aef2b50-02ae-4a6d-aa26-821348658263","ios":"levelo://app?vid=9aef2b50-02ae-4a6d-aa26-821348658263"},"vehicle_type_id":"4","last_reported":1740067899,"current_range_meters":12400,"station_id":"ce4bhnh2rcd13ifvqgug","pricing_plan_id":"cebpf4jnsgd1na2vs0mg"},{"bike_id":"e31e5bd2-e5f2-405e-b7df-c0f87889aa48","system_id":"levelo_inurba_marseille","lat":43.3133,"lon":5.39695,"is_reserved":false,"is_disabled":false,"rental_uris":{"android":"levelo://app?vid=e31e5bd2-e5f2-405e-b7df-c0f87889aa48","ios":"levelo://app?vid=e31e5bd2-e5f2-405e-b7df-c0f87889aa48"},"vehicle_type_id":"4","last_reported":1740067899,"current_range_meters":12400,"station_id":"ce4bgvp2rcd13ifvqcu0","pricing_plan_id":"cebpf4jnsgd1na2vs0mg"},{"bike_id":"d1ddb665-d583-4eb7-9f5b-eab137dbbcd0","system_id":"levelo_inurba_marseille","lat":43.30891,"lon":5.37209,"is_reserved":false,"is_disabled":false,"rental_uris":{"android":"levelo://app?vid=d1ddb665-d583-4eb7-9f5b-eab137dbbcd0","ios":"levelo://app?vid=d1ddb665-d583-4eb7-9f5b-eab137dbbcd0"},"vehicle_type_id":"4","last_reported":1740067899,"current_range_meters":11600,"station_id":"ce4bguh2rcd13ifvqckg","pricing_plan_id":"cebpf4jnsgd1na2vs0mg"},{"bike_id":"884506ac-6cb5-44d9-ba83-7e6bddbad94b","system_id":"levelo_inurba_marseille","lat":43.26232,"lon":5.40486,"is_reserved":false,"is_disabled":false,"rental_uris":{"android":"levelo://app?vid=884506ac-6cb5-44d9-ba83-7e6bddbad94b","ios":"levelo://app?vid=884506ac-6cb5-44d9-ba83-7e6bddbad94b"},"vehicle_type_id":"4","last_reported":1740067899,"current_range_meters":12400,"station_id":"ce4bhmh2rcd13ifvqgmg","pricing_plan_id":"cebpf4jnsgd1na2vs0mg"},{"bike_id":"bfa1afdd-6221-4a91-82bd-d18819a67e02","system_id":"levelo_inurba_marseille","lat":43.244238,"lon":5.370237,"is_reserved":false,"is_disabled":false,"rental_uris":{"android":"levelo://app?vid=bfa1afdd-6221-4a91-82bd-d18819a67e02","ios":"levelo://app?vid=bfa1afdd-6221-4a91-82bd-d18819a67e02"},"vehicle_type_id":"4","last_reported":1740067899,"current_range_meters":12400,"station_id":"ce4bhnp2rcd13ifvqgvg","pricing_plan_id":"cebpf4jnsgd1na2vs0mg"},{"bike_id":"edacb173-58b3-4d34-9723-33a1f416958a","system_id":"levelo_inurba_marseille","lat":43.29709,"lon":5.37713,"is_reserved":false,"is_disabled":false,"rental_uris":{"android":"levelo://app?vid=edacb173-58b3-4d34-9723-33a1f416958a","ios":"levelo://app?vid=edacb173-58b3-4d34-9723-33a1f416958a"},"vehicle_type_id":"4","last_reported":1740067899,"current_range_meters":12400,"station_id":"","pricing_plan_id":"cebpf4jnsgd1na2vs0mg"},{"bike_id":"601afe4a-25bf-4b56-a5ec-02075de1ee82","system_id":"levelo_inurba_marseille","lat":43.23051,"lon":5.35489,"is_reserved":false,"is_disabled":false,"rental_uris":{"android":"levelo://app?vid=601afe4a-25bf-4b56-a5ec-02075de1ee82","ios":"levelo://app?vid=601afe4a-25bf-4b56-a5ec-02075de1ee82"},"vehicle_type_id":"4","last_reported":1740067899,"current_range_meters":12400,"station_id":"cpo3342slgdg3j2ifvpg","pricing_plan_id":"cebpf4jnsgd1na2vs0mg"},{"bike_id":"74118f9e-5fd9-4784-9c04-eb719a43b810","system_id":"levelo_inurba_marseille","lat":43.29867,"lon":5.3973,"is_reserved":false,"is_disabled":false,"rental_uris":{"android":"levelo://app?vid=74118f9e-5fd9-4784-9c04-eb719a43b810","ios":"levelo://app?vid=74118f9e-5fd9-4784-9c04-eb719a43b810"},"vehicle_type_id":"4","last_reported":1740067899,"current_range_meters":12400,"station_id":"ce4bh0h2rcd13ifvqd50","pricing_plan_id":"cebpf4jnsgd1na2vs0mg"},{"bike_id":"fc4644e7-1bdb-4d8d-8938-61bf673ce984","system_id":"levelo_inurba_marseille","lat":43.30535,"lon":5.36542,"is_reserved":false,"is_disabled":false,"rental_uris":{"android":"levelo://app?vid=fc4644e7-1bdb-4d8d-8938-61bf673ce984","ios":"levelo://app?vid=fc4644e7-1bdb-4d8d-8938-61bf673ce984"},"vehicle_type_id":"4","last_reported":1740067899,"current_range_meters":12400,"station_id":"ce4bgs12rcd13ifvqcag","pricing_plan_id":"cebpf4jnsgd1na2vs0mg"},{"bike_id":"8becd64c-893d-4a08-8876-b1598e031c70","system_id":"levelo_inurba_marseille","lat":43.27963,"lon":5.38691,"is_reserved":false,"is_disabled":true,"rental_uris":{"android":"levelo://app?vid=8becd64c-893d-4a08-8876-b1598e031c70","ios":"levelo://app?vid=8becd64c-893d-4a08-8876-b1598e031c70"},"vehicle_type_id":"4","last_reported":1740067899,"current_range_meters":12800,"station_id":"","pricing_plan_id":"cebpf4jnsgd1na2vs0mg"},{"bike_id":"9baed21c-9e9c-47b2-b4a1-b05d895dfdb0","system_id":"levelo_inurba_marseille","lat":43.301636,"lon":5.388868,"is_reserved":false,"is_disabled":false,"rental_uris":{"android":"levelo://app?vid=9baed21c-9e9c-47b2-b4a1-b05d895dfdb0","ios":"levelo://app?vid=9baed21c-9e9c-47b2-b4a1-b05d895dfdb0"},"vehicle_type_id":"4","last_reported":1740067899,"current_range_meters":11200,"station_id":"","pricing_plan_id":"cebpf4jnsgd1na2vs0mg"},{"bike_id":"2ef0fbee-8aef-4ab3-a8a9-99c13c10bac6","system_id":"levelo_inurba_marseille","lat":43.28629,"lon":5.35103,"is_reserved":false,"is_disabled":false,"rental_uris":{"android":"levelo://app?vid=2ef0fbee-8aef-4ab3-a8a9-99c13c10bac6","ios":"levelo://app?vid=2ef0fbee-8aef-4ab3-a8a9-99c13c10bac6"},"vehicle_type_id":"4","last_reported":1740067899,"current_range_meters":13600,"station_id":"ce4bhch2rcd13ifvqeug","pricing_plan_id":"cebpf4jnsgd1na2vs0mg"},{"bike_id":"ec096e5a-129c-4339-8961-ac62b7bd4ad5","system_id":"levelo_inurba_marseille","lat":43.30151,"lon":5.38097,"is_reserved":false,"is_disabled":false,"rental_uris":{"android":"levelo://app?vid=ec096e5a-129c-4339-8961-ac62b7bd4ad5","ios":"levelo://app?vid=ec096e5a-129c-4339-8961-ac62b7bd4ad5"},"vehicle_type_id":"4","last_reported":1740067899,"current_range_meters":13600,"station_id":"ce4bgjp2rcd13ifvqbh0","pricing_plan_id":"cebpf4jnsgd1na2vs0mg"},{"bike_id":"efd8f178-3aa8-4bb2-bdf2-d32321812f0c","system_id":"levelo_inurba_marseille","lat":43.27945,"lon":5.41047,"is_reserved":false,"is_disabled":false,"rental_uris":{"android":"levelo://app?vid=efd8f178-3aa8-4bb2-bdf2-d32321812f0c","ios":"levelo://app?vid=efd8f178-3aa8-4bb2-bdf2-d32321812f0c"},"vehicle_type_id":"4","last_reported":1740067899,"current_range_meters":13600,"station_id":"ce4bhnp2rcd13ifvqh0g","pricing_plan_id":"cebpf4jnsgd1na2vs0mg"},{"bike_id":"6c01187d-a499-45e1-a0b0-4ccb6eb76196","system_id":"levelo_inurba_marseille","lat":43.29986,"lon":5.38519,"is_reserved":false,"is_disabled":false,"rental_uris":{"android":"levelo://app?vid=6c01187d-a499-45e1-a0b0-4ccb6eb76196","ios":"levelo://app?vid=6c01187d-a499-45e1-a0b0-4ccb6eb76196"},"vehicle_type_id":"4","last_reported":1740067899,"current_range_meters":14000,"station_id":"ce4bgj92rcd13ifvqbd0","pricing_plan_id":"cebpf4jnsgd1na2vs0mg"},{"bike_id":"2248a686-da6b-4ef8-880e-8db6a1c23aab","system_id":"levelo_inurba_marseille","lat":43.27374,"lon":5.36251,"is_reserved":false,"is_disabled":false,"rental_uris":{"android":"levelo://app?vid=2248a686-da6b-4ef8-880e-8db6a1c23aab","ios":"levelo://app?vid=2248a686-da6b-4ef8-880e-8db6a1c23aab"},"vehicle_type_id":"4","last_reported":1740067899,"current_range_meters":14000,"station_id":"","pricing_plan_id":"cebpf4jnsgd1na2vs0mg"},{"bike_id":"e53b91c8-67fd-4f40-acea-7f7adf31cf25","system_id":"levelo_inurba_marseille","lat":43.29762,"lon":5.38097,"is_reserved":false,"is_disabled":false,"rental_uris":{"android":"levelo://app?vid=e53b91c8-67fd-4f40-acea-7f7adf31cf25","ios":"levelo://app?vid=e53b91c8-67fd-4f40-acea-7f7adf31cf25"},"vehicle_type_id":"4","last_reported":1740067899,"current_range_meters":14000,"station_id":"","pricing_plan_id":"cebpf4jnsgd1na2vs0mg"},{"bike_id":"149d8985-eade-45fb-8852-dcf993418135","system_id":"levelo_inurba_marseille","lat":43.29556,"lon":5.42288,"is_reserved":false,"is_disabled":false,"rental_uris":{"android":"levelo://app?vid=149d8985-eade-45fb-8852-dcf993418135","ios":"levelo://app?vid=149d8985-eade-45fb-8852-dcf993418135"},"vehicle_type_id":"4","last_reported":1740067899,"current_range_meters":14400,"station_id":"","pricing_plan_id":"cebpf4jnsgd1na2vs0mg"},{"bike_id":"3447e7b6-f8ed-4872-a45f-cf3cd80ed8ad","system_id":"levelo_inurba_marseille","lat":43.29729,"lon":5.37922,"is_reserved":false,"is_disabled":false,"rental_uris":{"android":"levelo://app?vid=3447e7b6-f8ed-4872-a45f-cf3cd80ed8ad","ios":"levelo://app?vid=3447e7b6-f8ed-4872-a45f-cf3cd80ed8ad"},"vehicle_type_id":"4","last_reported":1740067899,"current_range_meters":14400,"station_id":"ce4bguh2rcd13ifvqckg","pricing_plan_id":"cebpf4jnsgd1na2vs0mg"},{"bike_id":"cbad4999-2a73-4367-a722-0f70542a05ef","system_id":"levelo_inurba_marseille","lat":43.30265,"lon":5.37716,"is_reserved":false,"is_disabled":false,"rental_uris":{"android":"levelo://app?vid=cbad4999-2a73-4367-a722-0f70542a05ef","ios":"levelo://app?vid=cbad4999-2a73-4367-a722-0f70542a05ef"},"vehicle_type_id":"4","last_reported":1740067899,"current_range_meters":14800,"station_id":"ce4bguh2rcd13ifvqcj0","pricing_plan_id":"cebpf4jnsgd1na2vs0mg"},{"bike_id":"4806791b-ee1b-41f0-b51b-acd58bdd592e","system_id":"levelo_inurba_marseille","lat":43.28158,"lon":5.42657,"is_reserved":false,"is_disabled":false,"rental_uris":{"android":"levelo://app?vid=4806791b-ee1b-41f0-b51b-acd58bdd592e","ios":"levelo://app?vid=4806791b-ee1b-41f0-b51b-acd58bdd592e"},"vehicle_type_id":"4","last_reported":1740067899,"current_range_meters":14800,"station_id":"","pricing_plan_id":"cebpf4jnsgd1na2vs0mg"},{"bike_id":"19d7e49a-b263-4ac5-806e-4d869f75bfd0","system_id":"levelo_inurba_marseille","lat":43.29178,"lon":5.37184,"is_reserved":false,"is_disabled":false,"rental_uris":{"android":"levelo://app?vid=19d7e49a-b263-4ac5-806e-4d869f75bfd0","ios":"levelo://app?vid=19d7e49a-b263-4ac5-806e-4d869f75bfd0"},"vehicle_type_id":"4","last_reported":1740067899,"current_range_meters":14800,"station_id":"ce4bha92rcd13ifvqeh0","pricing_plan_id":"cebpf4jnsgd1na2vs0mg"},{"bike_id":"7fd6ae63-e7b3-4553-8ba2-57f135372ad7","system_id":"levelo_inurba_marseille","lat":43.25089,"lon":5.39511,"is_reserved":false,"is_disabled":false,"rental_uris":{"android":"levelo://app?vid=7fd6ae63-e7b3-4553-8ba2-57f135372ad7","ios":"levelo://app?vid=7fd6ae63-e7b3-4553-8ba2-57f135372ad7"},"vehicle_type_id":"4","last_reported":1740067899,"current_range_meters":15200,"station_id":"ce4bhm12rcd13ifvqgkg","pricing_plan_id":"cebpf4jnsgd1na2vs0mg"},{"bike_id":"0b7f18f8-7b0e-4b8b-81eb-cfe3a208ae1b","system_id":"levelo_inurba_marseille","lat":43.30309,"lon":5.36905,"is_reserved":false,"is_disabled":false,"rental_uris":{"android":"levelo://app?vid=0b7f18f8-7b0e-4b8b-81eb-cfe3a208ae1b","ios":"levelo://app?vid=0b7f18f8-7b0e-4b8b-81eb-cfe3a208ae1b"},"vehicle_type_id":"4","last_reported":1740067899,"current_range_meters":15200,"station_id":"ce4bgqh2rcd13ifvqc5g","pricing_plan_id":"cebpf4jnsgd1na2vs0mg"},{"bike_id":"0a56f9d1-0a16-443d-8e0e-b767591ef2e6","system_id":"levelo_inurba_marseille","lat":43.26801,"lon":5.40273,"is_reserved":false,"is_disabled":false,"rental_uris":{"android":"levelo://app?vid=0a56f9d1-0a16-443d-8e0e-b767591ef2e6","ios":"levelo://app?vid=0a56f9d1-0a16-443d-8e0e-b767591ef2e6"},"vehicle_type_id":"4","last_reported":1740067899,"current_range_meters":15200,"station_id":"ce501612rcd8frsf0b60","pricing_plan_id":"cebpf4jnsgd1na2vs0mg"},{"bike_id":"ce0caea6-6d1c-48ef-b0eb-fae6199eb4e1","system_id":"levelo_inurba_marseille","lat":43.23066,"lon":5.35508,"is_reserved":false,"is_disabled":false,"rental_uris":{"android":"levelo://app?vid=ce0caea6-6d1c-48ef-b0eb-fae6199eb4e1","ios":"levelo://app?vid=ce0caea6-6d1c-48ef-b0eb-fae6199eb4e1"},"vehicle_type_id":"4","last_reported":1740067899,"current_range_meters":15200,"station_id":"cpo3342slgdg3j2ifvpg","pricing_plan_id":"cebpf4jnsgd1na2vs0mg"},{"bike_id":"62847bb9-3ba1-4cd0-9767-b73868eed646","system_id":"levelo_inurba_marseille","lat":43.29185,"lon":5.39317,"is_reserved":false,"is_disabled":false,"rental_uris":{"android":"levelo://app?vid=62847bb9-3ba1-4cd0-9767-b73868eed646","ios":"levelo://app?vid=62847bb9-3ba1-4cd0-9767-b73868eed646"},"vehicle_type_id":"4","last_reported":1740067899,"current_range_meters":15200,"station_id":"ce4bh192rcd13ifvqdd0","pricing_plan_id":"cebpf4jnsgd1na2vs0mg"},{"bike_id":"78770267-4d60-4343-a4f7-0b50a7ff0e4e","system_id":"levelo_inurba_marseille","lat":43.26566,"lon":5.39004,"is_reserved":false,"is_disabled":false,"rental_uris":{"android":"levelo://app?vid=78770267-4d60-4343-a4f7-0b50a7ff0e4e","ios":"levelo://app?vid=78770267-4d60-4343-a4f7-0b50a7ff0e4e"},"vehicle_type_id":"4","last_reported":1740067899,"current_range_meters":15200,"station_id":"ce4bhe12rcd13ifvqf30","pricing_plan_id":"cebpf4jnsgd1na2vs0mg"},{"bike_id":"c72fcdb0-826e-424c-ade7-557f9c84df0a","system_id":"levelo_inurba_marseille","lat":43.27218,"lon":5.39182,"is_reserved":false,"is_disabled":false,"rental_uris":{"android":"levelo://app?vid=c72fcdb0-826e-424c-ade7-557f9c84df0a","ios":"levelo://app?vid=c72fcdb0-826e-424c-ade7-557f9c84df0a"},"vehicle_type_id":"4","last_reported":1740067899,"current_range_meters":16000,"station_id":"ce4bhhp2rcd13ifvqfm0","pricing_plan_id":"cebpf4jnsgd1na2vs0mg"},{"bike_id":"be52af33-7b30-4a79-add1-18b2b5c09674","system_id":"levelo_inurba_marseille","lat":43.29607,"lon":5.38086,"is_reserved":false,"is_disabled":false,"rental_uris":{"android":"levelo://app?vid=be52af33-7b30-4a79-add1-18b2b5c09674","ios":"levelo://app?vid=be52af33-7b30-4a79-add1-18b2b5c09674"},"vehicle_type_id":"4","last_reported":1740067899,"current_range_meters":16000,"station_id":"ce4bgl12rcd13ifvqbo0","pricing_plan_id":"cebpf4jnsgd1na2vs0mg"},{"bike_id":"2da9ec1d-d3ba-4bc9-9c1b-5cdcbef461b0","system_id":"levelo_inurba_marseille","lat":43.27172,"lon":5.40989,"is_reserved":false,"is_disabled":false,"rental_uris":{"android":"levelo://app?vid=2da9ec1d-d3ba-4bc9-9c1b-5cdcbef461b0","ios":"levelo://app?vid=2da9ec1d-d3ba-4bc9-9c1b-5cdcbef461b0"},"vehicle_type_id":"4","last_reported":1740067899,"current_range_meters":16000,"station_id":"","pricing_plan_id":"cebpf4jnsgd1na2vs0mg"},{"bike_id":"de838e9f-a7d5-4318-9612-b43c54b7646d","system_id":"levelo_inurba_marseille","lat":43.30887,"lon":5.39641,"is_reserved":false,"is_disabled":false,"rental_uris":{"android":"levelo://app?vid=de838e9f-a7d5-4318-9612-b43c54b7646d","ios":"levelo://app?vid=de838e9f-a7d5-4318-9612-b43c54b7646d"},"vehicle_type_id":"4","last_reported":1740067899,"current_range_meters":16000,"station_id":"ce4bh012rcd13ifvqcv0","pricing_plan_id":"cebpf4jnsgd1na2vs0mg"},{"bike_id":"3159d832-7142-4f2a-9dd4-6b1d855d23bd","system_id":"levelo_inurba_marseille","lat":43.26559,"lon":5.37296,"is_reserved":false,"is_disabled":false,"rental_uris":{"android":"levelo://app?vid=3159d832-7142-4f2a-9dd4-6b1d855d23bd","ios":"levelo://app?vid=3159d832-7142-4f2a-9dd4-6b1d855d23bd"},"vehicle_type_id":"4","last_reported":1740067899,"current_range_meters":16000,"station_id":"ce4bhg12rcd13ifvqf70","pricing_plan_id":"cebpf4jnsgd1na2vs0mg"},{"bike_id":"6106393f-3645-48aa-b132-3d2def6b4674","system_id":"levelo_inurba_marseille","lat":43.30443,"lon":5.38085,"is_reserved":false,"is_disabled":false,"rental_uris":{"android":"levelo://app?vid=6106393f-3645-48aa-b132-3d2def6b4674","ios":"levelo://app?vid=6106393f-3645-48aa-b132-3d2def6b4674"},"vehicle_type_id":"4","last_reported":1740067899,"current_range_meters":16000,"station_id":"ce4bgv92rcd13ifvqcq0","pricing_plan_id":"cebpf4jnsgd1na2vs0mg"},{"bike_id":"76a1d742-84f2-439e-8b87-72eb73bf6cb6","system_id":"levelo_inurba_marseille","lat":43.26201,"lon":5.37433,"is_reserved":false,"is_disabled":false,"rental_uris":{"android":"levelo://app?vid=76a1d742-84f2-439e-8b87-72eb73bf6cb6","ios":"levelo://app?vid=76a1d742-84f2-439e-8b87-72eb73bf6cb6"},"vehicle_type_id":"4","last_reported":1740067899,"current_range_meters":16000,"station_id":"ce4bhgp2rcd13ifvqfc0","pricing_plan_id":"cebpf4jnsgd1na2vs0mg"},{"bike_id":"d4558eb3-035d-4c70-8916-3cd4e4e685c2","system_id":"levelo_inurba_marseille","lat":43.30326,"lon":5.40437,"is_reserved":false,"is_disabled":false,"rental_uris":{"android":"levelo://app?vid=d4558eb3-035d-4c70-8916-3cd4e4e685c2","ios":"levelo://app?vid=d4558eb3-035d-4c70-8916-3cd4e4e685c2"},"vehicle_type_id":"4","last_reported":1740067899,"current_range_meters":16400,"station_id":"ce4bh012rcd13ifvqd10","pricing_plan_id":"cebpf4jnsgd1na2vs0mg"},{"bike_id":"b057d0fa-33b6-477d-bbb3-30b06e8791c4","system_id":"levelo_inurba_marseille","lat":43.28417,"lon":5.37498,"is_reserved":false,"is_disabled":false,"rental_uris":{"android":"levelo://app?vid=b057d0fa-33b6-477d-bbb3-30b06e8791c4","ios":"levelo://app?vid=b057d0fa-33b6-477d-bbb3-30b06e8791c4"},"vehicle_type_id":"4","last_reported":1740067899,"current_range_meters":16400,"station_id":"ce4bh412rcd13ifvqds0","pricing_plan_id":"cebpf4jnsgd1na2vs0mg"},{"bike_id":"b2b8bb44-4c5b-4d3d-9e10-f9bd4bb74b1e","system_id":"levelo_inurba_marseille","lat":43.25856,"lon":5.39902,"is_reserved":false,"is_disabled":false,"rental_uris":{"android":"levelo://app?vid=b2b8bb44-4c5b-4d3d-9e10-f9bd4bb74b1e","ios":"levelo://app?vid=b2b8bb44-4c5b-4d3d-9e10-f9bd4bb74b1e"},"vehicle_type_id":"4","last_reported":1740067899,"current_range_meters":16400,"station_id":"ce4bhl92rcd13ifvqghg","pricing_plan_id":"cebpf4jnsgd1na2vs0mg"},{"bike_id":"b78e3ff0-5e14-4604-a0ad-749f65c2c94c","system_id":"levelo_inurba_marseille","lat":43.27947,"lon":5.41048,"is_reserved":false,"is_disabled":false,"rental_uris":{"android":"levelo://app?vid=b78e3ff0-5e14-4604-a0ad-749f65c2c94c","ios":"levelo://app?vid=b78e3ff0-5e14-4604-a0ad-749f65c2c94c"},"vehicle_type_id":"4","last_reported":1740067899,"current_range_meters":16400,"station_id":"ce4bhnp2rcd13ifvqh0g","pricing_plan_id":"cebpf4jnsgd1na2vs0mg"},{"bike_id":"1736bdf7-065e-458a-8be8-137efe82e48a","system_id":"levelo_inurba_marseille","lat":43.33097,"lon":5.39055,"is_reserved":false,"is_disabled":false,"rental_uris":{"android":"levelo://app?vid=1736bdf7-065e-458a-8be8-137efe82e48a","ios":"levelo://app?vid=1736bdf7-065e-458a-8be8-137efe82e48a"},"vehicle_type_id":"4","last_reported":1740067899,"current_range_meters":16400,"station_id":"ce4bhqp2rcd13ifvqhog","pricing_plan_id":"cebpf4jnsgd1na2vs0mg"},{"bike_id":"5c979825-5eb1-42ff-ac54-c61e39783a0e","system_id":"levelo_inurba_marseille","lat":43.29816,"lon":5.38082,"is_reserved":false,"is_disabled":false,"rental_uris":{"android":"levelo://app?vid=5c979825-5eb1-42ff-ac54-c61e39783a0e","ios":"levelo://app?vid=5c979825-5eb1-42ff-ac54-c61e39783a0e"},"vehicle_type_id":"4","last_reported":1740067899,"current_range_meters":16400,"station_id":"ce4bgip2rcd13ifvqbb0","pricing_plan_id":"cebpf4jnsgd1na2vs0mg"},{"bike_id":"b0e1e2f0-9fad-449a-805d-ceba596fda04","system_id":"levelo_inurba_marseille","lat":43.27829,"lon":5.40727,"is_reserved":false,"is_disabled":false,"rental_uris":{"android":"levelo://app?vid=b0e1e2f0-9fad-449a-805d-ceba596fda04","ios":"levelo://app?vid=b0e1e2f0-9fad-449a-805d-ceba596fda04"},"vehicle_type_id":"4","last_reported":1740067899,"current_range_meters":16400,"station_id":"ce4bhnh2rcd13ifvqgtg","pricing_plan_id":"cebpf4jnsgd1na2vs0mg"},{"bike_id":"d0f02e94-846c-4347-a153-91f934c7855a","system_id":"levelo_inurba_marseille","lat":43.30462,"lon":5.37905,"is_reserved":false,"is_disabled":false,"rental_uris":{"android":"levelo://app?vid=d0f02e94-846c-4347-a153-91f934c7855a","ios":"levelo://app?vid=d0f02e94-846c-4347-a153-91f934c7855a"},"vehicle_type_id":"4","last_reported":1740067899,"current_range_meters":16000,"station_id":"ce4bgup2rcd13ifvqcn0","pricing_plan_id":"cebpf4jnsgd1na2vs0mg"},{"bike_id":"b253065d-1074-4a51-bc2b-4e15dba86004","system_id":"levelo_inurba_marseille","lat":43.2307,"lon":5.35483,"is_reserved":false,"is_disabled":false,"rental_uris":{"android":"levelo://app?vid=b253065d-1074-4a51-bc2b-4e15dba86004","ios":"levelo://app?vid=b253065d-1074-4a51-bc2b-4e15dba86004"},"vehicle_type_id":"4","last_reported":1740067899,"current_range_meters":16400,"station_id":"cpo3342slgdg3j2ifvpg","pricing_plan_id":"cebpf4jnsgd1na2vs0mg"},{"bike_id":"2367a867-8455-4466-8173-b97d43fb9e1f","system_id":"levelo_inurba_marseille","lat":43.27201,"lon":5.39185,"is_reserved":false,"is_disabled":false,"rental_uris":{"android":"levelo://app?vid=2367a867-8455-4466-8173-b97d43fb9e1f","ios":"levelo://app?vid=2367a867-8455-4466-8173-b97d43fb9e1f"},"vehicle_type_id":"4","last_reported":1740067899,"current_range_meters":16800,"station_id":"","pricing_plan_id":"cebpf4jnsgd1na2vs0mg"},{"bike_id":"0c6dfc2a-5d46-4b56-a56c-62302e24179b","system_id":"levelo_inurba_marseille","lat":43.29845,"lon":5.36291,"is_reserved":false,"is_disabled":false,"rental_uris":{"android":"levelo://app?vid=0c6dfc2a-5d46-4b56-a56c-62302e24179b","ios":"levelo://app?vid=0c6dfc2a-5d46-4b56-a56c-62302e24179b"},"vehicle_type_id":"4","last_reported":1740067899,"current_range_meters":16800,"station_id":"ce4bgpp2rcd13ifvqc3g","pricing_plan_id":"cebpf4jnsgd1na2vs0mg"},{"bike_id":"f1991f4c-dccd-4692-af3c-8f7306eb9dbc","system_id":"levelo_inurba_marseille","lat":43.29535,"lon":5.39411,"is_reserved":false,"is_disabled":false,"rental_uris":{"android":"levelo://app?vid=f1991f4c-dccd-4692-af3c-8f7306eb9dbc","ios":"levelo://app?vid=f1991f4c-dccd-4692-af3c-8f7306eb9dbc"},"vehicle_type_id":"4","last_reported":1740067899,"current_range_meters":16800,"station_id":"ce4bh292rcd13ifvqdf0","pricing_plan_id":"cebpf4jnsgd1na2vs0mg"},{"bike_id":"150929a7-b4c8-49c1-a93e-f1f6bffc6890","system_id":"levelo_inurba_marseille","lat":43.28156,"lon":5.42649,"is_reserved":false,"is_disabled":false,"rental_uris":{"android":"levelo://app?vid=150929a7-b4c8-49c1-a93e-f1f6bffc6890","ios":"levelo://app?vid=150929a7-b4c8-49c1-a93e-f1f6bffc6890"},"vehicle_type_id":"4","last_reported":1740067899,"current_range_meters":16800,"station_id":"","pricing_plan_id":"cebpf4jnsgd1na2vs0mg"},{"bike_id":"fce6ae32-8c4d-4702-aca1-1e2fefaefc6a","system_id":"levelo_inurba_marseille","lat":43.28415,"lon":5.34987,"is_reserved":false,"is_disabled":false,"rental_uris":{"android":"levelo://app?vid=fce6ae32-8c4d-4702-aca1-1e2fefaefc6a","ios":"levelo://app?vid=fce6ae32-8c4d-4702-aca1-1e2fefaefc6a"},"vehicle_type_id":"4","last_reported":1740067899,"current_range_meters":16800,"station_id":"ce4bhbh2rcd13ifvqepg","pricing_plan_id":"cebpf4jnsgd1na2vs0mg"},{"bike_id":"87891dce-3352-4418-9015-a26c990ecd6e","system_id":"levelo_inurba_marseille","lat":43.23065,"lon":5.35503,"is_reserved":false,"is_disabled":false,"rental_uris":{"android":"levelo://app?vid=87891dce-3352-4418-9015-a26c990ecd6e","ios":"levelo://app?vid=87891dce-3352-4418-9015-a26c990ecd6e"},"vehicle_type_id":"4","last_reported":1740067899,"current_range_meters":16800,"station_id":"cpo3342slgdg3j2ifvpg","pricing_plan_id":"cebpf4jnsgd1na2vs0mg"},{"bike_id":"790b0ff7-55c5-4c35-9f2a-78c4076d7d17","system_id":"levelo_inurba_marseille","lat":43.27964,"lon":5.38537,"is_reserved":false,"is_disabled":false,"rental_uris":{"android":"levelo://app?vid=790b0ff7-55c5-4c35-9f2a-78c4076d7d17","ios":"levelo://app?vid=790b0ff7-55c5-4c35-9f2a-78c4076d7d17"},"vehicle_type_id":"4","last_reported":1740067899,"current_range_meters":16800,"station_id":"","pricing_plan_id":"cebpf4jnsgd1na2vs0mg"},{"bike_id":"4347ac42-d6bd-4898-bb54-db9da5fa21c6","system_id":"levelo_inurba_marseille","lat":43.26808,"lon":5.40261,"is_reserved":false,"is_disabled":false,"rental_uris":{"android":"levelo://app?vid=4347ac42-d6bd-4898-bb54-db9da5fa21c6","ios":"levelo://app?vid=4347ac42-d6bd-4898-bb54-db9da5fa21c6"},"vehicle_type_id":"4","last_reported":1740067899,"current_range_meters":16800,"station_id":"ce501612rcd8frsf0b60","pricing_plan_id":"cebpf4jnsgd1na2vs0mg"},{"bike_id":"ed0fdbfe-ca54-437d-b9aa-1a7e4434bbfe","system_id":"levelo_inurba_marseille","lat":43.33612,"lon":5.41023,"is_reserved":false,"is_disabled":false,"rental_uris":{"android":"levelo://app?vid=ed0fdbfe-ca54-437d-b9aa-1a7e4434bbfe","ios":"levelo://app?vid=ed0fdbfe-ca54-437d-b9aa-1a7e4434bbfe"},"vehicle_type_id":"4","last_reported":1740067899,"current_range_meters":16800,"station_id":"ce4bhqh2rcd13ifvqhmg","pricing_plan_id":"cebpf4jnsgd1na2vs0mg"},{"bike_id":"4e11b30d-0226-4b04-813f-4404772688cd","system_id":"levelo_inurba_marseille","lat":43.29022,"lon":5.37141,"is_reserved":false,"is_disabled":false,"rental_uris":{"android":"levelo://app?vid=4e11b30d-0226-4b04-813f-4404772688cd","ios":"levelo://app?vid=4e11b30d-0226-4b04-813f-4404772688cd"},"vehicle_type_id":"4","last_reported":1740067899,"current_range_meters":16800,"station_id":"","pricing_plan_id":"cebpf4jnsgd1na2vs0mg"},{"bike_id":"7f77d183-c231-456a-93e4-32a63d975eb6","system_id":"levelo_inurba_marseille","lat":43.25087,"lon":5.39525,"is_reserved":false,"is_disabled":false,"rental_uris":{"android":"levelo://app?vid=7f77d183-c231-456a-93e4-32a63d975eb6","ios":"levelo://app?vid=7f77d183-c231-456a-93e4-32a63d975eb6"},"vehicle_type_id":"4","last_reported":1740067899,"current_range_meters":17200,"station_id":"ce4bhm12rcd13ifvqgkg","pricing_plan_id":"cebpf4jnsgd1na2vs0mg"},{"bike_id":"0f9b09d5-96c5-46f8-a357-5f2b259626e5","system_id":"levelo_inurba_marseille","lat":43.29749,"lon":5.37714,"is_reserved":false,"is_disabled":false,"rental_uris":{"android":"levelo://app?vid=0f9b09d5-96c5-46f8-a357-5f2b259626e5","ios":"levelo://app?vid=0f9b09d5-96c5-46f8-a357-5f2b259626e5"},"vehicle_type_id":"4","last_reported":1740067899,"current_range_meters":17200,"station_id":"","pricing_plan_id":"cebpf4jnsgd1na2vs0mg"},{"bike_id":"cc63eb62-9489-4527-a815-ddeda37f2bbb","system_id":"levelo_inurba_marseille","lat":43.31751,"lon":5.39016,"is_reserved":false,"is_disabled":false,"rental_uris":{"android":"levelo://app?vid=cc63eb62-9489-4527-a815-ddeda37f2bbb","ios":"levelo://app?vid=cc63eb62-9489-4527-a815-ddeda37f2bbb"},"vehicle_type_id":"4","last_reported":1740067899,"current_range_meters":17200,"station_id":"ce4bhqp2rcd13ifvqhng","pricing_plan_id":"cebpf4jnsgd1na2vs0mg"},{"bike_id":"4e7409be-d25e-46fe-a31e-79fb6c1b4bbf","system_id":"levelo_inurba_marseille","lat":43.2844,"lon":5.39195,"is_reserved":false,"is_disabled":false,"rental_uris":{"android":"levelo://app?vid=4e7409be-d25e-46fe-a31e-79fb6c1b4bbf","ios":"levelo://app?vid=4e7409be-d25e-46fe-a31e-79fb6c1b4bbf"},"vehicle_type_id":"4","last_reported":1740067899,"current_range_meters":17200,"station_id":"ce4bhoh2rcd13ifvqh5g","pricing_plan_id":"cebpf4jnsgd1na2vs0mg"},{"bike_id":"99a82238-f8f7-4e36-9bf0-1a5175d4582c","system_id":"levelo_inurba_marseille","lat":43.2655,"lon":5.37287,"is_reserved":false,"is_disabled":false,"rental_uris":{"android":"levelo://app?vid=99a82238-f8f7-4e36-9bf0-1a5175d4582c","ios":"levelo://app?vid=99a82238-f8f7-4e36-9bf0-1a5175d4582c"},"vehicle_type_id":"4","last_reported":1740067899,"current_range_meters":17200,"station_id":"ce4bhg12rcd13ifvqf70","pricing_plan_id":"cebpf4jnsgd1na2vs0mg"},{"bike_id":"3a18a060-43b3-487c-bb23-8493264d5ba4","system_id":"levelo_inurba_marseille","lat":43.2418,"lon":5.36407,"is_reserved":false,"is_disabled":true,"rental_uris":{"android":"levelo://app?vid=3a18a060-43b3-487c-bb23-8493264d5ba4","ios":"levelo://app?vid=3a18a060-43b3-487c-bb23-8493264d5ba4"},"vehicle_type_id":"4","last_reported":1740067899,"current_range_meters":17200,"station_id":"","pricing_plan_id":"cebpf4jnsgd1na2vs0mg"},{"bike_id":"99c320af-36c2-439c-9dce-6023452e9b95","system_id":"levelo_inurba_marseille","lat":43.26212,"lon":5.37926,"is_reserved":false,"is_disabled":false,"rental_uris":{"android":"levelo://app?vid=99c320af-36c2-439c-9dce-6023452e9b95","ios":"levelo://app?vid=99c320af-36c2-439c-9dce-6023452e9b95"},"vehicle_type_id":"4","last_reported":1740067899,"current_range_meters":17200,"station_id":"ce4bhjp2rcd13ifvqg90","pricing_plan_id":"cebpf4jnsgd1na2vs0mg"},{"bike_id":"726a1ccd-39c1-4a86-b934-277293cd3928","system_id":"levelo_inurba_marseille","lat":43.31534,"lon":5.38032,"is_reserved":false,"is_disabled":false,"rental_uris":{"android":"levelo://app?vid=726a1ccd-39c1-4a86-b934-277293cd3928","ios":"levelo://app?vid=726a1ccd-39c1-4a86-b934-277293cd3928"},"vehicle_type_id":"4","last_reported":1740067899,"current_range_meters":17200,"station_id":"ce4bhsp2rcd13ifvqi50","pricing_plan_id":"cebpf4jnsgd1na2vs0mg"},{"bike_id":"6e7bc9e4-4f1a-4318-93da-1bc3ecd960b8","system_id":"levelo_inurba_marseille","lat":43.27001,"lon":5.40159,"is_reserved":false,"is_disabled":false,"rental_uris":{"android":"levelo://app?vid=6e7bc9e4-4f1a-4318-93da-1bc3ecd960b8","ios":"levelo://app?vid=6e7bc9e4-4f1a-4318-93da-1bc3ecd960b8"},"vehicle_type_id":"4","last_reported":1740067899,"current_range_meters":17600,"station_id":"cjm6bp8fraef2m0cb0m0","pricing_plan_id":"cebpf4jnsgd1na2vs0mg"},{"bike_id":"9bcee05f-b9ce-4dfb-adbf-db79cb65deff","system_id":"levelo_inurba_marseille","lat":43.30781,"lon":5.38149,"is_reserved":false,"is_disabled":false,"rental_uris":{"android":"levelo://app?vid=9bcee05f-b9ce-4dfb-adbf-db79cb65deff","ios":"levelo://app?vid=9bcee05f-b9ce-4dfb-adbf-db79cb65deff"},"vehicle_type_id":"4","last_reported":1740067899,"current_range_meters":17600,"station_id":"ce4bgt12rcd13ifvqce0","pricing_plan_id":"cebpf4jnsgd1na2vs0mg"},{"bike_id":"f800bf4a-a88e-43ea-b4b8-11875d2f53c7","system_id":"levelo_inurba_marseille","lat":43.24818,"lon":5.37465,"is_reserved":false,"is_disabled":true,"rental_uris":{"android":"levelo://app?vid=f800bf4a-a88e-43ea-b4b8-11875d2f53c7","ios":"levelo://app?vid=f800bf4a-a88e-43ea-b4b8-11875d2f53c7"},"vehicle_type_id":"4","last_reported":1740067899,"current_range_meters":17600,"station_id":"","pricing_plan_id":"cebpf4jnsgd1na2vs0mg"},{"bike_id":"1b1407ef-1e42-45b0-8806-62144d2891cf","system_id":"levelo_inurba_marseille","lat":43.28331,"lon":5.38675,"is_reserved":false,"is_disabled":false,"rental_uris":{"android":"levelo://app?vid=1b1407ef-1e42-45b0-8806-62144d2891cf","ios":"levelo://app?vid=1b1407ef-1e42-45b0-8806-62144d2891cf"},"vehicle_type_id":"4","last_reported":1740067899,"current_range_meters":17600,"station_id":"","pricing_plan_id":"cebpf4jnsgd1na2vs0mg"},{"bike_id":"44e45a0d-80e4-4777-b789-c9ff84761c0c","system_id":"levelo_inurba_marseille","lat":43.29263,"lon":5.39443,"is_reserved":false,"is_disabled":false,"rental_uris":{"android":"levelo://app?vid=44e45a0d-80e4-4777-b789-c9ff84761c0c","ios":"levelo://app?vid=44e45a0d-80e4-4777-b789-c9ff84761c0c"},"vehicle_type_id":"4","last_reported":1740067899,"current_range_meters":17600,"station_id":"","pricing_plan_id":"cebpf4jnsgd1na2vs0mg"},{"bike_id":"6a41d4d5-6ce6-4940-8b60-f1b1f72587c0","system_id":"levelo_inurba_marseille","lat":43.23072,"lon":5.35475,"is_reserved":false,"is_disabled":false,"rental_uris":{"android":"levelo://app?vid=6a41d4d5-6ce6-4940-8b60-f1b1f72587c0","ios":"levelo://app?vid=6a41d4d5-6ce6-4940-8b60-f1b1f72587c0"},"vehicle_type_id":"4","last_reported":1740067899,"current_range_meters":17600,"station_id":"cpo3342slgdg3j2ifvpg","pricing_plan_id":"cebpf4jnsgd1na2vs0mg"},{"bike_id":"39911775-b352-437f-a831-cbaa657f922a","system_id":"levelo_inurba_marseille","lat":43.28694,"lon":5.37358,"is_reserved":false,"is_disabled":false,"rental_uris":{"android":"levelo://app?vid=39911775-b352-437f-a831-cbaa657f922a","ios":"levelo://app?vid=39911775-b352-437f-a831-cbaa657f922a"},"vehicle_type_id":"4","last_reported":1740067899,"current_range_meters":17600,"station_id":"ce4bh3p2rcd13ifvqdq0","pricing_plan_id":"cebpf4jnsgd1na2vs0mg"},{"bike_id":"1a7b0aed-e717-4a46-ac0b-fbee4f08fddc","system_id":"levelo_inurba_marseille","lat":43.3014,"lon":5.3742,"is_reserved":false,"is_disabled":false,"rental_uris":{"android":"levelo://app?vid=1a7b0aed-e717-4a46-ac0b-fbee4f08fddc","ios":"levelo://app?vid=1a7b0aed-e717-4a46-ac0b-fbee4f08fddc"},"vehicle_type_id":"4","last_reported":1740067899,"current_range_meters":17200,"station_id":"ce4bgs92rcd13ifvqcc0","pricing_plan_id":"cebpf4jnsgd1na2vs0mg"},{"bike_id":"5e496fa1-5660-4ab9-9ef2-42838072ab58","system_id":"levelo_inurba_marseille","lat":43.30092,"lon":5.390756,"is_reserved":false,"is_disabled":false,"rental_uris":{"android":"levelo://app?vid=5e496fa1-5660-4ab9-9ef2-42838072ab58","ios":"levelo://app?vid=5e496fa1-5660-4ab9-9ef2-42838072ab58"},"vehicle_type_id":"4","last_reported":1740067899,"current_range_meters":18000,"station_id":"ce4bh092rcd13ifvqd30","pricing_plan_id":"cebpf4jnsgd1na2vs0mg"},{"bike_id":"da0d8a57-dc35-4cad-a584-68768284fc4a","system_id":"levelo_inurba_marseille","lat":43.29586,"lon":5.37507,"is_reserved":false,"is_disabled":false,"rental_uris":{"android":"levelo://app?vid=da0d8a57-dc35-4cad-a584-68768284fc4a","ios":"levelo://app?vid=da0d8a57-dc35-4cad-a584-68768284fc4a"},"vehicle_type_id":"4","last_reported":1740067899,"current_range_meters":18000,"station_id":"","pricing_plan_id":"cebpf4jnsgd1na2vs0mg"},{"bike_id":"432a81c3-f0bc-4108-885e-8c666913cc71","system_id":"levelo_inurba_marseille","lat":43.26568,"lon":5.39008,"is_reserved":false,"is_disabled":false,"rental_uris":{"android":"levelo://app?vid=432a81c3-f0bc-4108-885e-8c666913cc71","ios":"levelo://app?vid=432a81c3-f0bc-4108-885e-8c666913cc71"},"vehicle_type_id":"4","last_reported":1740067899,"current_range_meters":18000,"station_id":"ce4bhe12rcd13ifvqf30","pricing_plan_id":"cebpf4jnsgd1na2vs0mg"},{"bike_id":"89fb68ec-1aa9-4c97-8b89-632e005ea687","system_id":"levelo_inurba_marseille","lat":43.337444,"lon":5.374475,"is_reserved":false,"is_disabled":true,"rental_uris":{"android":"levelo://app?vid=89fb68ec-1aa9-4c97-8b89-632e005ea687","ios":"levelo://app?vid=89fb68ec-1aa9-4c97-8b89-632e005ea687"},"vehicle_type_id":"4","last_reported":1740067899,"current_range_meters":18000,"station_id":"","pricing_plan_id":"cebpf4jnsgd1na2vs0mg"},{"bike_id":"eda29762-c6dc-49a0-a5cf-e5339fe492a5","system_id":"levelo_inurba_marseille","lat":43.27059,"lon":5.40266,"is_reserved":false,"is_disabled":false,"rental_uris":{"android":"levelo://app?vid=eda29762-c6dc-49a0-a5cf-e5339fe492a5","ios":"levelo://app?vid=eda29762-c6dc-49a0-a5cf-e5339fe492a5"},"vehicle_type_id":"4","last_reported":1740067899,"current_range_meters":18000,"station_id":"ce4bhk92rcd13ifvqgc0","pricing_plan_id":"cebpf4jnsgd1na2vs0mg"},{"bike_id":"c3cd1bef-97c7-4b60-ab47-c671257ecf82","system_id":"levelo_inurba_marseille","lat":43.27993,"lon":5.40029,"is_reserved":false,"is_disabled":false,"rental_uris":{"android":"levelo://app?vid=c3cd1bef-97c7-4b60-ab47-c671257ecf82","ios":"levelo://app?vid=c3cd1bef-97c7-4b60-ab47-c671257ecf82"},"vehicle_type_id":"4","last_reported":1740067899,"current_range_meters":18800,"station_id":"ce4bho92rcd13ifvqh4g","pricing_plan_id":"cebpf4jnsgd1na2vs0mg"},{"bike_id":"1d10b93f-1796-4182-a6ea-656485aaf3d2","system_id":"levelo_inurba_marseille","lat":43.26573,"lon":5.39011,"is_reserved":false,"is_disabled":false,"rental_uris":{"android":"levelo://app?vid=1d10b93f-1796-4182-a6ea-656485aaf3d2","ios":"levelo://app?vid=1d10b93f-1796-4182-a6ea-656485aaf3d2"},"vehicle_type_id":"4","last_reported":1740067899,"current_range_meters":18800,"station_id":"ce4bhe12rcd13ifvqf30","pricing_plan_id":"cebpf4jnsgd1na2vs0mg"},{"bike_id":"4425d015-adec-4c1e-bd9b-0894e4035698","system_id":"levelo_inurba_marseille","lat":43.25006,"lon":5.38923,"is_reserved":false,"is_disabled":false,"rental_uris":{"android":"levelo://app?vid=4425d015-adec-4c1e-bd9b-0894e4035698","ios":"levelo://app?vid=4425d015-adec-4c1e-bd9b-0894e4035698"},"vehicle_type_id":"4","last_reported":1740067899,"current_range_meters":18800,"station_id":"ce4bhgp2rcd13ifvqfd0","pricing_plan_id":"cebpf4jnsgd1na2vs0mg"},{"bike_id":"54765dc8-8b00-4abd-ad25-8d8fb811d88e","system_id":"levelo_inurba_marseille","lat":43.26571,"lon":5.39008,"is_reserved":false,"is_disabled":false,"rental_uris":{"android":"levelo://app?vid=54765dc8-8b00-4abd-ad25-8d8fb811d88e","ios":"levelo://app?vid=54765dc8-8b00-4abd-ad25-8d8fb811d88e"},"vehicle_type_id":"4","last_reported":1740067899,"current_range_meters":18800,"station_id":"ce4bhe12rcd13ifvqf30","pricing_plan_id":"cebpf4jnsgd1na2vs0mg"},{"bike_id":"c9762c1f-dc79-48ca-b78e-2d34b83fe752","system_id":"levelo_inurba_marseille","lat":43.29092,"lon":5.38145,"is_reserved":false,"is_disabled":false,"rental_uris":{"android":"levelo://app?vid=c9762c1f-dc79-48ca-b78e-2d34b83fe752","ios":"levelo://app?vid=c9762c1f-dc79-48ca-b78e-2d34b83fe752"},"vehicle_type_id":"4","last_reported":1740067899,"current_range_meters":18000,"station_id":"ce4bh512rcd13ifvqe2g","pricing_plan_id":"cebpf4jnsgd1na2vs0mg"},{"bike_id":"79809e01-be49-4339-9a80-1200e10051d5","system_id":"levelo_inurba_marseille","lat":43.2732,"lon":5.39094,"is_reserved":false,"is_disabled":false,"rental_uris":{"android":"levelo://app?vid=79809e01-be49-4339-9a80-1200e10051d5","ios":"levelo://app?vid=79809e01-be49-4339-9a80-1200e10051d5"},"vehicle_type_id":"4","last_reported":1740067899,"current_range_meters":19200,"station_id":"ce4bhgp2rcd13ifvqfe0","pricing_plan_id":"cebpf4jnsgd1na2vs0mg"},{"bike_id":"599a5baf-a766-44f9-adfa-662d369a8182","system_id":"levelo_inurba_marseille","lat":43.28244,"lon":5.38598,"is_reserved":false,"is_disabled":false,"rental_uris":{"android":"levelo://app?vid=599a5baf-a766-44f9-adfa-662d369a8182","ios":"levelo://app?vid=599a5baf-a766-44f9-adfa-662d369a8182"},"vehicle_type_id":"4","last_reported":1740067899,"current_range_meters":19200,"station_id":"ce4bh492rcd13ifvqdvg","pricing_plan_id":"cebpf4jnsgd1na2vs0mg"},{"bike_id":"cb54d5f7-8a07-45bd-818d-90efeb1b8325","system_id":"levelo_inurba_marseille","lat":43.30313,"lon":5.39186,"is_reserved":false,"is_disabled":false,"rental_uris":{"android":"levelo://app?vid=cb54d5f7-8a07-45bd-818d-90efeb1b8325","ios":"levelo://app?vid=cb54d5f7-8a07-45bd-818d-90efeb1b8325"},"vehicle_type_id":"4","last_reported":1740067899,"current_range_meters":19200,"station_id":"ce4bgkh2rcd13ifvqbk0","pricing_plan_id":"cebpf4jnsgd1na2vs0mg"},{"bike_id":"ebe8f273-5739-4753-ba61-e13e57e5e3ea","system_id":"levelo_inurba_marseille","lat":43.265747,"lon":5.390208,"is_reserved":false,"is_disabled":true,"rental_uris":{"android":"levelo://app?vid=ebe8f273-5739-4753-ba61-e13e57e5e3ea","ios":"levelo://app?vid=ebe8f273-5739-4753-ba61-e13e57e5e3ea"},"vehicle_type_id":"4","last_reported":1740067899,"current_range_meters":19200,"station_id":"","pricing_plan_id":"cebpf4jnsgd1na2vs0mg"},{"bike_id":"869b0bee-3ae9-40a5-8b90-97e99d7da129","system_id":"levelo_inurba_marseille","lat":43.2998,"lon":5.38503,"is_reserved":false,"is_disabled":false,"rental_uris":{"android":"levelo://app?vid=869b0bee-3ae9-40a5-8b90-97e99d7da129","ios":"levelo://app?vid=869b0bee-3ae9-40a5-8b90-97e99d7da129"},"vehicle_type_id":"4","last_reported":1740067899,"current_range_meters":19200,"station_id":"ce4bgj92rcd13ifvqbd0","pricing_plan_id":"cebpf4jnsgd1na2vs0mg"},{"bike_id":"958fae96-519b-4f7e-80d0-1d9be06fbb3a","system_id":"levelo_inurba_marseille","lat":43.23958,"lon":5.36643,"is_reserved":false,"is_disabled":false,"rental_uris":{"android":"levelo://app?vid=958fae96-519b-4f7e-80d0-1d9be06fbb3a","ios":"levelo://app?vid=958fae96-519b-4f7e-80d0-1d9be06fbb3a"},"vehicle_type_id":"4","last_reported":1740067899,"current_range_meters":19200,"station_id":"ce4bhi12rcd13ifvqfp0","pricing_plan_id":"cebpf4jnsgd1na2vs0mg"},{"bike_id":"a52691eb-ac5a-47b3-8054-328e596df931","system_id":"levelo_inurba_marseille","lat":43.28348,"lon":5.3811,"is_reserved":false,"is_disabled":false,"rental_uris":{"android":"levelo://app?vid=a52691eb-ac5a-47b3-8054-328e596df931","ios":"levelo://app?vid=a52691eb-ac5a-47b3-8054-328e596df931"},"vehicle_type_id":"4","last_reported":1740067899,"current_range_meters":18800,"station_id":"ce4bh412rcd13ifvqdr0","pricing_plan_id":"cebpf4jnsgd1na2vs0mg"},{"bike_id":"afe6a143-e98b-4136-94ff-d9ca00681ae1","system_id":"levelo_inurba_marseille","lat":43.30539,"lon":5.36545,"is_reserved":false,"is_disabled":false,"rental_uris":{"android":"levelo://app?vid=afe6a143-e98b-4136-94ff-d9ca00681ae1","ios":"levelo://app?vid=afe6a143-e98b-4136-94ff-d9ca00681ae1"},"vehicle_type_id":"4","last_reported":1740067899,"current_range_meters":19200,"station_id":"ce4bgs12rcd13ifvqcag","pricing_plan_id":"cebpf4jnsgd1na2vs0mg"},{"bike_id":"6e7e43ed-a5d3-42e4-95ff-eae1110c839f","system_id":"levelo_inurba_marseille","lat":43.27074,"lon":5.40247,"is_reserved":false,"is_disabled":false,"rental_uris":{"android":"levelo://app?vid=6e7e43ed-a5d3-42e4-95ff-eae1110c839f","ios":"levelo://app?vid=6e7e43ed-a5d3-42e4-95ff-eae1110c839f"},"vehicle_type_id":"4","last_reported":1740067899,"current_range_meters":19200,"station_id":"ce4bhk92rcd13ifvqgc0","pricing_plan_id":"cebpf4jnsgd1na2vs0mg"},{"bike_id":"65523888-bb8e-45d6-b187-0df3e7c705aa","system_id":"levelo_inurba_marseille","lat":43.27812,"lon":5.40714,"is_reserved":false,"is_disabled":false,"rental_uris":{"android":"levelo://app?vid=65523888-bb8e-45d6-b187-0df3e7c705aa","ios":"levelo://app?vid=65523888-bb8e-45d6-b187-0df3e7c705aa"},"vehicle_type_id":"4","last_reported":1740067899,"current_range_meters":18800,"station_id":"ce4bhnh2rcd13ifvqgtg","pricing_plan_id":"cebpf4jnsgd1na2vs0mg"},{"bike_id":"bd5f8a85-a515-4efd-921f-9416fb59e27b","system_id":"levelo_inurba_marseille","lat":43.27496,"lon":5.42454,"is_reserved":false,"is_disabled":false,"rental_uris":{"android":"levelo://app?vid=bd5f8a85-a515-4efd-921f-9416fb59e27b","ios":"levelo://app?vid=bd5f8a85-a515-4efd-921f-9416fb59e27b"},"vehicle_type_id":"4","last_reported":1740067899,"current_range_meters":19200,"station_id":"ce4bhn92rcd13ifvqgrg","pricing_plan_id":"cebpf4jnsgd1na2vs0mg"},{"bike_id":"75b5f4fb-0c49-422f-9831-059225f51683","system_id":"levelo_inurba_marseille","lat":43.29604,"lon":5.37756,"is_reserved":false,"is_disabled":false,"rental_uris":{"android":"levelo://app?vid=75b5f4fb-0c49-422f-9831-059225f51683","ios":"levelo://app?vid=75b5f4fb-0c49-422f-9831-059225f51683"},"vehicle_type_id":"4","last_reported":1740067899,"current_range_meters":19200,"station_id":"","pricing_plan_id":"cebpf4jnsgd1na2vs0mg"},{"bike_id":"7bc4157c-81f8-4937-ab66-9136416d9d0c","system_id":"levelo_inurba_marseille","lat":43.30255,"lon":5.40087,"is_reserved":false,"is_disabled":false,"rental_uris":{"android":"levelo://app?vid=7bc4157c-81f8-4937-ab66-9136416d9d0c","ios":"levelo://app?vid=7bc4157c-81f8-4937-ab66-9136416d9d0c"},"vehicle_type_id":"4","last_reported":1740067899,"current_range_meters":19200,"station_id":"ce4bgvh2rcd13ifvqcs0","pricing_plan_id":"cebpf4jnsgd1na2vs0mg"},{"bike_id":"5b74693e-5eeb-4822-9064-d81be43bf589","system_id":"levelo_inurba_marseille","lat":43.28843,"lon":5.35861,"is_reserved":false,"is_disabled":false,"rental_uris":{"android":"levelo://app?vid=5b74693e-5eeb-4822-9064-d81be43bf589","ios":"levelo://app?vid=5b74693e-5eeb-4822-9064-d81be43bf589"},"vehicle_type_id":"4","last_reported":1740067899,"current_range_meters":19600,"station_id":"ce4bhb12rcd13ifvqem0","pricing_plan_id":"cebpf4jnsgd1na2vs0mg"},{"bike_id":"44dd3547-1418-47d1-b20c-7aa0ffdae3bd","system_id":"levelo_inurba_marseille","lat":43.2511,"lon":5.40322,"is_reserved":false,"is_disabled":false,"rental_uris":{"android":"levelo://app?vid=44dd3547-1418-47d1-b20c-7aa0ffdae3bd","ios":"levelo://app?vid=44dd3547-1418-47d1-b20c-7aa0ffdae3bd"},"vehicle_type_id":"4","last_reported":1740067899,"current_range_meters":19600,"station_id":"ce4bhlh2rcd13ifvqgig","pricing_plan_id":"cebpf4jnsgd1na2vs0mg"},{"bike_id":"038f8860-2d40-4f6d-9756-5ebc6641683e","system_id":"levelo_inurba_marseille","lat":43.27996,"lon":5.41663,"is_reserved":false,"is_disabled":false,"rental_uris":{"android":"levelo://app?vid=038f8860-2d40-4f6d-9756-5ebc6641683e","ios":"levelo://app?vid=038f8860-2d40-4f6d-9756-5ebc6641683e"},"vehicle_type_id":"4","last_reported":1740067899,"current_range_meters":19600,"station_id":"ce4bho12rcd13ifvqh1g","pricing_plan_id":"cebpf4jnsgd1na2vs0mg"},{"bike_id":"15645e3d-5dd6-4bfa-9b38-2475ddfc1093","system_id":"levelo_inurba_marseille","lat":43.2781,"lon":5.40693,"is_reserved":false,"is_disabled":false,"rental_uris":{"android":"levelo://app?vid=15645e3d-5dd6-4bfa-9b38-2475ddfc1093","ios":"levelo://app?vid=15645e3d-5dd6-4bfa-9b38-2475ddfc1093"},"vehicle_type_id":"4","last_reported":1740067899,"current_range_meters":19600,"station_id":"ce4bhnh2rcd13ifvqgtg","pricing_plan_id":"cebpf4jnsgd1na2vs0mg"},{"bike_id":"8b2dff7e-d9a0-44ae-a6b6-45d486932737","system_id":"levelo_inurba_marseille","lat":43.26027,"lon":5.37557,"is_reserved":false,"is_disabled":false,"rental_uris":{"android":"levelo://app?vid=8b2dff7e-d9a0-44ae-a6b6-45d486932737","ios":"levelo://app?vid=8b2dff7e-d9a0-44ae-a6b6-45d486932737"},"vehicle_type_id":"4","last_reported":1740067899,"current_range_meters":19600,"station_id":"ce4bhgh2rcd13ifvqfa0","pricing_plan_id":"cebpf4jnsgd1na2vs0mg"},{"bike_id":"daf980d5-cb59-4f36-8b0f-be6a69e29f5b","system_id":"levelo_inurba_marseille","lat":43.28717,"lon":5.379307,"is_reserved":false,"is_disabled":false,"rental_uris":{"android":"levelo://app?vid=daf980d5-cb59-4f36-8b0f-be6a69e29f5b","ios":"levelo://app?vid=daf980d5-cb59-4f36-8b0f-be6a69e29f5b"},"vehicle_type_id":"4","last_reported":1740067899,"current_range_meters":19600,"station_id":"ce4bh9p2rcd13ifvqec0","pricing_plan_id":"cebpf4jnsgd1na2vs0mg"},{"bike_id":"c62faafb-5ec8-4ebd-a3d9-569880fbe329","system_id":"levelo_inurba_marseille","lat":43.31111,"lon":5.37773,"is_reserved":false,"is_disabled":false,"rental_uris":{"android":"levelo://app?vid=c62faafb-5ec8-4ebd-a3d9-569880fbe329","ios":"levelo://app?vid=c62faafb-5ec8-4ebd-a3d9-569880fbe329"},"vehicle_type_id":"4","last_reported":1740067899,"current_range_meters":19600,"station_id":"ce4bgt92rcd13ifvqcg0","pricing_plan_id":"cebpf4jnsgd1na2vs0mg"},{"bike_id":"2d384a3d-3470-4297-8479-5e9f7e4f1d4c","system_id":"levelo_inurba_marseille","lat":43.29207,"lon":5.39325,"is_reserved":false,"is_disabled":false,"rental_uris":{"android":"levelo://app?vid=2d384a3d-3470-4297-8479-5e9f7e4f1d4c","ios":"levelo://app?vid=2d384a3d-3470-4297-8479-5e9f7e4f1d4c"},"vehicle_type_id":"4","last_reported":1740067899,"current_range_meters":19600,"station_id":"ce4bh192rcd13ifvqdd0","pricing_plan_id":"cebpf4jnsgd1na2vs0mg"},{"bike_id":"3daa770b-5216-455c-9dda-7849b1581511","system_id":"levelo_inurba_marseille","lat":43.2842,"lon":5.34994,"is_reserved":false,"is_disabled":false,"rental_uris":{"android":"levelo://app?vid=3daa770b-5216-455c-9dda-7849b1581511","ios":"levelo://app?vid=3daa770b-5216-455c-9dda-7849b1581511"},"vehicle_type_id":"4","last_reported":1740067899,"current_range_meters":19600,"station_id":"ce4bhbh2rcd13ifvqepg","pricing_plan_id":"cebpf4jnsgd1na2vs0mg"},{"bike_id":"62e119ab-76b1-4f91-b32b-f00a9b20b20b","system_id":"levelo_inurba_marseille","lat":43.30208,"lon":5.39463,"is_reserved":false,"is_disabled":false,"rental_uris":{"android":"levelo://app?vid=62e119ab-76b1-4f91-b32b-f00a9b20b20b","ios":"levelo://app?vid=62e119ab-76b1-4f91-b32b-f00a9b20b20b"},"vehicle_type_id":"4","last_reported":1740067899,"current_range_meters":20000,"station_id":"ce4bh0p2rcd13ifvqd70","pricing_plan_id":"cebpf4jnsgd1na2vs0mg"},{"bike_id":"8a5c3929-3427-4346-87b6-b571152928f3","system_id":"levelo_inurba_marseille","lat":43.291656,"lon":5.371529,"is_reserved":false,"is_disabled":false,"rental_uris":{"android":"levelo://app?vid=8a5c3929-3427-4346-87b6-b571152928f3","ios":"levelo://app?vid=8a5c3929-3427-4346-87b6-b571152928f3"},"vehicle_type_id":"4","last_reported":1740067899,"current_range_meters":20000,"station_id":"ce4bha92rcd13ifvqeh0","pricing_plan_id":"cebpf4jnsgd1na2vs0mg"},{"bike_id":"17d49994-81fd-4ba3-903c-e4c7abd2aea3","system_id":"levelo_inurba_marseille","lat":43.27071,"lon":5.42269,"is_reserved":false,"is_disabled":false,"rental_uris":{"android":"levelo://app?vid=17d49994-81fd-4ba3-903c-e4c7abd2aea3","ios":"levelo://app?vid=17d49994-81fd-4ba3-903c-e4c7abd2aea3"},"vehicle_type_id":"4","last_reported":1740067899,"current_range_meters":20000,"station_id":"ce4bhk92rcd13ifvqgb0","pricing_plan_id":"cebpf4jnsgd1na2vs0mg"},{"bike_id":"9a2f7508-67b3-4a79-bfcb-9b2361ab84e5","system_id":"levelo_inurba_marseille","lat":43.32104,"lon":5.36801,"is_reserved":false,"is_disabled":false,"rental_uris":{"android":"levelo://app?vid=9a2f7508-67b3-4a79-bfcb-9b2361ab84e5","ios":"levelo://app?vid=9a2f7508-67b3-4a79-bfcb-9b2361ab84e5"},"vehicle_type_id":"4","last_reported":1740067899,"current_range_meters":20000,"station_id":"ce4bhrh2rcd13ifvqhug","pricing_plan_id":"cebpf4jnsgd1na2vs0mg"},{"bike_id":"3f206e3d-9792-415c-b880-498e213a93b0","system_id":"levelo_inurba_marseille","lat":43.29927,"lon":5.37484,"is_reserved":false,"is_disabled":false,"rental_uris":{"android":"levelo://app?vid=3f206e3d-9792-415c-b880-498e213a93b0","ios":"levelo://app?vid=3f206e3d-9792-415c-b880-498e213a93b0"},"vehicle_type_id":"4","last_reported":1740067899,"current_range_meters":20000,"station_id":"ce4bgjh2rcd13ifvqbg0","pricing_plan_id":"cebpf4jnsgd1na2vs0mg"},{"bike_id":"4156c3f4-1c00-4687-a78e-ff2dbdb866e0","system_id":"levelo_inurba_marseille","lat":43.2737,"lon":5.36243,"is_reserved":false,"is_disabled":false,"rental_uris":{"android":"levelo://app?vid=4156c3f4-1c00-4687-a78e-ff2dbdb866e0","ios":"levelo://app?vid=4156c3f4-1c00-4687-a78e-ff2dbdb866e0"},"vehicle_type_id":"4","last_reported":1740067899,"current_range_meters":20000,"station_id":"","pricing_plan_id":"cebpf4jnsgd1na2vs0mg"},{"bike_id":"85c2f6ba-46a7-4ec8-bcff-671dd92739f1","system_id":"levelo_inurba_marseille","lat":43.299134,"lon":5.381399,"is_reserved":false,"is_disabled":true,"rental_uris":{"android":"levelo://app?vid=85c2f6ba-46a7-4ec8-bcff-671dd92739f1","ios":"levelo://app?vid=85c2f6ba-46a7-4ec8-bcff-671dd92739f1"},"vehicle_type_id":"4","last_reported":1740067899,"current_range_meters":20000,"station_id":"","pricing_plan_id":"cebpf4jnsgd1na2vs0mg"},{"bike_id":"da35e427-426d-41ca-859b-7c63f22da96e","system_id":"levelo_inurba_marseille","lat":43.27988,"lon":5.41658,"is_reserved":false,"is_disabled":false,"rental_uris":{"android":"levelo://app?vid=da35e427-426d-41ca-859b-7c63f22da96e","ios":"levelo://app?vid=da35e427-426d-41ca-859b-7c63f22da96e"},"vehicle_type_id":"4","last_reported":1740067899,"current_range_meters":20000,"station_id":"ce4bho12rcd13ifvqh1g","pricing_plan_id":"cebpf4jnsgd1na2vs0mg"},{"bike_id":"4308b594-0428-4733-9e47-926f71974d70","system_id":"levelo_inurba_marseille","lat":43.2953,"lon":5.38535,"is_reserved":false,"is_disabled":false,"rental_uris":{"android":"levelo://app?vid=4308b594-0428-4733-9e47-926f71974d70","ios":"levelo://app?vid=4308b594-0428-4733-9e47-926f71974d70"},"vehicle_type_id":"4","last_reported":1740067899,"current_range_meters":20000,"station_id":"ce4bgih2rcd13ifvqba0","pricing_plan_id":"cebpf4jnsgd1na2vs0mg"},{"bike_id":"dde5f145-89c6-4c2b-88b2-9825dd82c5c8","system_id":"levelo_inurba_marseille","lat":43.295008,"lon":5.376089,"is_reserved":false,"is_disabled":false,"rental_uris":{"android":"levelo://app?vid=dde5f145-89c6-4c2b-88b2-9825dd82c5c8","ios":"levelo://app?vid=dde5f145-89c6-4c2b-88b2-9825dd82c5c8"},"vehicle_type_id":"4","last_reported":1740067899,"current_range_meters":20000,"station_id":"ce4bgph2rcd13ifvqc2g","pricing_plan_id":"cebpf4jnsgd1na2vs0mg"},{"bike_id":"c14320bb-a3d1-48f3-b3cd-09ca46b41d34","system_id":"levelo_inurba_marseille","lat":43.27373,"lon":5.36254,"is_reserved":false,"is_disabled":false,"rental_uris":{"android":"levelo://app?vid=c14320bb-a3d1-48f3-b3cd-09ca46b41d34","ios":"levelo://app?vid=c14320bb-a3d1-48f3-b3cd-09ca46b41d34"},"vehicle_type_id":"4","last_reported":1740067899,"current_range_meters":20000,"station_id":"ce4bhbh2rcd13ifvqeo0","pricing_plan_id":"cebpf4jnsgd1na2vs0mg"},{"bike_id":"ffc5cb83-37c8-4cb3-8ac7-16d26bac68d6","system_id":"levelo_inurba_marseille","lat":43.27944,"lon":5.41043,"is_reserved":false,"is_disabled":false,"rental_uris":{"android":"levelo://app?vid=ffc5cb83-37c8-4cb3-8ac7-16d26bac68d6","ios":"levelo://app?vid=ffc5cb83-37c8-4cb3-8ac7-16d26bac68d6"},"vehicle_type_id":"4","last_reported":1740067899,"current_range_meters":20400,"station_id":"ce4bhnp2rcd13ifvqh0g","pricing_plan_id":"cebpf4jnsgd1na2vs0mg"},{"bike_id":"cf64b7cd-4626-4d79-afac-2611db88ce28","system_id":"levelo_inurba_marseille","lat":43.27991,"lon":5.4166,"is_reserved":false,"is_disabled":false,"rental_uris":{"android":"levelo://app?vid=cf64b7cd-4626-4d79-afac-2611db88ce28","ios":"levelo://app?vid=cf64b7cd-4626-4d79-afac-2611db88ce28"},"vehicle_type_id":"4","last_reported":1740067899,"current_range_meters":20000,"station_id":"ce4bho12rcd13ifvqh1g","pricing_plan_id":"cebpf4jnsgd1na2vs0mg"},{"bike_id":"fbaea280-58d1-483f-a26d-c689f30c49fb","system_id":"levelo_inurba_marseille","lat":43.33727,"lon":5.39178,"is_reserved":false,"is_disabled":false,"rental_uris":{"android":"levelo://app?vid=fbaea280-58d1-483f-a26d-c689f30c49fb","ios":"levelo://app?vid=fbaea280-58d1-483f-a26d-c689f30c49fb"},"vehicle_type_id":"4","last_reported":1740067899,"current_range_meters":20400,"station_id":"ce4bhr92rcd13ifvqhsg","pricing_plan_id":"cebpf4jnsgd1na2vs0mg"},{"bike_id":"e0dc3f66-a3d1-4810-850b-48b270469f22","system_id":"levelo_inurba_marseille","lat":43.3043,"lon":5.36784,"is_reserved":false,"is_disabled":false,"rental_uris":{"android":"levelo://app?vid=e0dc3f66-a3d1-4810-850b-48b270469f22","ios":"levelo://app?vid=e0dc3f66-a3d1-4810-850b-48b270469f22"},"vehicle_type_id":"4","last_reported":1740067899,"current_range_meters":20400,"station_id":"ce4bh112rcd13ifvqda0","pricing_plan_id":"cebpf4jnsgd1na2vs0mg"},{"bike_id":"2d629d50-c6c8-4d3f-be38-273bcb9dcad2","system_id":"levelo_inurba_marseille","lat":43.32369,"lon":5.38883,"is_reserved":false,"is_disabled":false,"rental_uris":{"android":"levelo://app?vid=2d629d50-c6c8-4d3f-be38-273bcb9dcad2","ios":"levelo://app?vid=2d629d50-c6c8-4d3f-be38-273bcb9dcad2"},