{"last_updated":1745392393,"ttl":60,"version":"2.2","data":{"bikes":[{"bike_id":"7a54c2e2-2088-43a5-9525-f3401261ebc6","system_id":"levelo_inurba_marseille","lat":43.29299,"lon":5.37457,"is_reserved":false,"is_disabled":false,"rental_uris":{"android":"levelo://app?vid=7a54c2e2-2088-43a5-9525-f3401261ebc6","ios":"levelo://app?vid=7a54c2e2-2088-43a5-9525-f3401261ebc6"},"vehicle_type_id":"4","last_reported":1745392393,"current_range_meters":2000,"station_id":"ce4bgi12rcd13ifvqb70","pricing_plan_id":"cebpf4jnsgd1na2vs0mg"},{"bike_id":"8c1149b8-5a0b-45fe-be9b-2b7274a80081","system_id":"levelo_inurba_marseille","lat":43.30316,"lon":5.36891,"is_reserved":false,"is_disabled":false,"rental_uris":{"android":"levelo://app?vid=8c1149b8-5a0b-45fe-be9b-2b7274a80081","ios":"levelo://app?vid=8c1149b8-5a0b-45fe-be9b-2b7274a80081"},"vehicle_type_id":"4","last_reported":1745392393,"current_range_meters":3200,"station_id":"ce4bgqh2rcd13ifvqc5g","pricing_plan_id":"cebpf4jnsgd1na2vs0mg"},{"bike_id":"607ced6d-db80-400a-88dc-4b4bbaf4953a","system_id":"levelo_inurba_marseille","lat":43.29188,"lon":5.382984,"is_reserved":false,"is_disabled":false,"rental_uris":{"android":"levelo://app?vid=607ced6d-db80-400a-88dc-4b4bbaf4953a","ios":"levelo://app?vid=607ced6d-db80-400a-88dc-4b4bbaf4953a"},"vehicle_type_id":"4","last_reported":1745392393,"current_range_meters":2800,"station_id":"ce4bh692rcd13ifvqea0","pricing_plan_id":"cebpf4jnsgd1na2vs0mg"},{"bike_id":"015f3c1f-7b0c-4499-b4f2-c158ed079f11","system_id":"levelo_inurba_marseille","lat":43.30433,"lon":5.38899,"is_reserved":false,"is_disabled":false,"rental_uris":{"android":"levelo://app?vid=015f3c1f-7b0c-4499-b4f2-c158ed079f11","ios":"levelo://app?vid=015f3c1f-7b0c-4499-b4f2-c158ed079f11"},"vehicle_type_id":"4","last_reported":1745392393,"current_range_meters":3200,"station_id":"ce4bgk12rcd13ifvqbi0","pricing_plan_id":"cebpf4jnsgd1na2vs0mg"},{"bike_id":"17b7a9d0-1d02-45c7-97a9-f01361d6d989","system_id":"levelo_inurba_marseille","lat":43.30943,"lon":5.39037,"is_reserved":false,"is_disabled":false,"rental_uris":{"android":"levelo://app?vid=17b7a9d0-1d02-45c7-97a9-f01361d6d989","ios":"levelo://app?vid=17b7a9d0-1d02-45c7-97a9-f01361d6d989"},"vehicle_type_id":"4","last_reported":1745392393,"current_range_meters":3200,"station_id":"ce4bgup2rcd13ifvqco0","pricing_plan_id":"cebpf4jnsgd1na2vs0mg"},{"bike_id":"8184a669-7cb2-461e-b17e-0676c978c49d","system_id":"levelo_inurba_marseille","lat":43.31359,"lon":5.38488,"is_reserved":false,"is_disabled":false,"rental_uris":{"android":"levelo://app?vid=8184a669-7cb2-461e-b17e-0676c978c49d","ios":"levelo://app?vid=8184a669-7cb2-461e-b17e-0676c978c49d"},"vehicle_type_id":"4","last_reported":1745392393,"current_range_meters":3200,"station_id":"ce4bgt92rcd13ifvqcf0","pricing_plan_id":"cebpf4jnsgd1na2vs0mg"},{"bike_id":"91f6efee-1c2a-49e3-be41-7582867cbfec","system_id":"levelo_inurba_marseille","lat":43.32348,"lon":5.42105,"is_reserved":false,"is_disabled":false,"rental_uris":{"android":"levelo://app?vid=91f6efee-1c2a-49e3-be41-7582867cbfec","ios":"levelo://app?vid=91f6efee-1c2a-49e3-be41-7582867cbfec"},"vehicle_type_id":"4","last_reported":1745392393,"current_range_meters":3200,"station_id":"","pricing_plan_id":"cebpf4jnsgd1na2vs0mg"},{"bike_id":"d5619893-9ad4-46d0-94a8-738b7e8de40d","system_id":"levelo_inurba_marseille","lat":43.24182,"lon":5.39726,"is_reserved":false,"is_disabled":false,"rental_uris":{"android":"levelo://app?vid=d5619893-9ad4-46d0-94a8-738b7e8de40d","ios":"levelo://app?vid=d5619893-9ad4-46d0-94a8-738b7e8de40d"},"vehicle_type_id":"4","last_reported":1745392393,"current_range_meters":3200,"station_id":"ce4bhn12rcd13ifvqgpg","pricing_plan_id":"cebpf4jnsgd1na2vs0mg"},{"bike_id":"728b7169-2c34-494f-ac43-6fdd418034b4","system_id":"levelo_inurba_marseille","lat":43.2315,"lon":5.43729,"is_reserved":false,"is_disabled":false,"rental_uris":{"android":"levelo://app?vid=728b7169-2c34-494f-ac43-6fdd418034b4","ios":"levelo://app?vid=728b7169-2c34-494f-ac43-6fdd418034b4"},"vehicle_type_id":"4","last_reported":1745392393,"current_range_meters":4000,"station_id":"ce4bhmp2rcd13ifvqgog","pricing_plan_id":"cebpf4jnsgd1na2vs0mg"},{"bike_id":"4de92fcb-5cae-4f4e-a6fa-7c761de0b676","system_id":"levelo_inurba_marseille","lat":43.3001,"lon":5.36726,"is_reserved":false,"is_disabled":false,"rental_uris":{"android":"levelo://app?vid=4de92fcb-5cae-4f4e-a6fa-7c761de0b676","ios":"levelo://app?vid=4de92fcb-5cae-4f4e-a6fa-7c761de0b676"},"vehicle_type_id":"4","last_reported":1745392393,"current_range_meters":4400,"station_id":"","pricing_plan_id":"cebpf4jnsgd1na2vs0mg"},{"bike_id":"ebace216-a1c0-4839-ba3c-5a390b08c994","system_id":"levelo_inurba_marseille","lat":43.27216,"lon":5.3918,"is_reserved":false,"is_disabled":false,"rental_uris":{"android":"levelo://app?vid=ebace216-a1c0-4839-ba3c-5a390b08c994","ios":"levelo://app?vid=ebace216-a1c0-4839-ba3c-5a390b08c994"},"vehicle_type_id":"4","last_reported":1745392393,"current_range_meters":4000,"station_id":"ce4bhhp2rcd13ifvqfm0","pricing_plan_id":"cebpf4jnsgd1na2vs0mg"},{"bike_id":"46653d45-1103-4509-ac26-1170602d879f","system_id":"levelo_inurba_marseille","lat":43.24067,"lon":5.37767,"is_reserved":false,"is_disabled":false,"rental_uris":{"android":"levelo://app?vid=46653d45-1103-4509-ac26-1170602d879f","ios":"levelo://app?vid=46653d45-1103-4509-ac26-1170602d879f"},"vehicle_type_id":"4","last_reported":1745392393,"current_range_meters":4400,"station_id":"ce4bhnp2rcd13ifvqgvg","pricing_plan_id":"cebpf4jnsgd1na2vs0mg"},{"bike_id":"1c755526-7610-4241-9257-348acde561d3","system_id":"levelo_inurba_marseille","lat":43.2486,"lon":5.38204,"is_reserved":false,"is_disabled":false,"rental_uris":{"android":"levelo://app?vid=1c755526-7610-4241-9257-348acde561d3","ios":"levelo://app?vid=1c755526-7610-4241-9257-348acde561d3"},"vehicle_type_id":"4","last_reported":1745392393,"current_range_meters":4800,"station_id":"","pricing_plan_id":"cebpf4jnsgd1na2vs0mg"},{"bike_id":"d2a2dc66-78aa-4dd0-9a8e-c0a60c88865b","system_id":"levelo_inurba_marseille","lat":43.29682,"lon":5.37307,"is_reserved":false,"is_disabled":false,"rental_uris":{"android":"levelo://app?vid=d2a2dc66-78aa-4dd0-9a8e-c0a60c88865b","ios":"levelo://app?vid=d2a2dc66-78aa-4dd0-9a8e-c0a60c88865b"},"vehicle_type_id":"4","last_reported":1745392393,"current_range_meters":4400,"station_id":"ce4bgk12rcd13ifvqbj0","pricing_plan_id":"cebpf4jnsgd1na2vs0mg"},{"bike_id":"e5bbe511-e0d7-4f75-a494-97dcd1c8805a","system_id":"levelo_inurba_marseille","lat":43.29844,"lon":5.36266,"is_reserved":false,"is_disabled":false,"rental_uris":{"android":"levelo://app?vid=e5bbe511-e0d7-4f75-a494-97dcd1c8805a","ios":"levelo://app?vid=e5bbe511-e0d7-4f75-a494-97dcd1c8805a"},"vehicle_type_id":"4","last_reported":1745392393,"current_range_meters":4800,"station_id":"ce4bgpp2rcd13ifvqc3g","pricing_plan_id":"cebpf4jnsgd1na2vs0mg"},{"bike_id":"a69aab5a-697e-4765-85ac-e157ca120168","system_id":"levelo_inurba_marseille","lat":43.298512,"lon":5.362747,"is_reserved":false,"is_disabled":false,"rental_uris":{"android":"levelo://app?vid=a69aab5a-697e-4765-85ac-e157ca120168","ios":"levelo://app?vid=a69aab5a-697e-4765-85ac-e157ca120168"},"vehicle_type_id":"4","last_reported":1745392393,"current_range_meters":5600,"station_id":"ce4bgpp2rcd13ifvqc3g","pricing_plan_id":"cebpf4jnsgd1na2vs0mg"},{"bike_id":"49454987-63e1-48fb-8366-812d15a5c496","system_id":"levelo_inurba_marseille","lat":43.240658,"lon":5.377728,"is_reserved":false,"is_disabled":false,"rental_uris":{"android":"levelo://app?vid=49454987-63e1-48fb-8366-812d15a5c496","ios":"levelo://app?vid=49454987-63e1-48fb-8366-812d15a5c496"},"vehicle_type_id":"4","last_reported":1745392393,"current_range_meters":5600,"station_id":"ce4bhnp2rcd13ifvqgvg","pricing_plan_id":"cebpf4jnsgd1na2vs0mg"},{"bike_id":"0c666e08-bcf6-49fc-b712-f3ca6a6e0ba3","system_id":"levelo_inurba_marseille","lat":43.30438,"lon":5.38886,"is_reserved":false,"is_disabled":false,"rental_uris":{"android":"levelo://app?vid=0c666e08-bcf6-49fc-b712-f3ca6a6e0ba3","ios":"levelo://app?vid=0c666e08-bcf6-49fc-b712-f3ca6a6e0ba3"},"vehicle_type_id":"4","last_reported":1745392393,"current_range_meters":5600,"station_id":"ce4bgk12rcd13ifvqbi0","pricing_plan_id":"cebpf4jnsgd1na2vs0mg"},{"bike_id":"eb2d3d94-fffc-4be3-9ec3-b7896dcfbb90","system_id":"levelo_inurba_marseille","lat":43.30417,"lon":5.4128,"is_reserved":false,"is_disabled":false,"rental_uris":{"android":"levelo://app?vid=eb2d3d94-fffc-4be3-9ec3-b7896dcfbb90","ios":"levelo://app?vid=eb2d3d94-fffc-4be3-9ec3-b7896dcfbb90"},"vehicle_type_id":"4","last_reported":1745392393,"current_range_meters":6000,"station_id":"ce4bhop2rcd13ifvqh8g","pricing_plan_id":"cebpf4jnsgd1na2vs0mg"},{"bike_id":"2f59be3e-9234-4f82-9cf4-b2ffa9e9f3bd","system_id":"levelo_inurba_marseille","lat":43.23155,"lon":5.43706,"is_reserved":false,"is_disabled":false,"rental_uris":{"android":"levelo://app?vid=2f59be3e-9234-4f82-9cf4-b2ffa9e9f3bd","ios":"levelo://app?vid=2f59be3e-9234-4f82-9cf4-b2ffa9e9f3bd"},"vehicle_type_id":"4","last_reported":1745392393,"current_range_meters":6000,"station_id":"ce4bhmp2rcd13ifvqgog","pricing_plan_id":"cebpf4jnsgd1na2vs0mg"},{"bike_id":"87e13751-d480-4898-8670-bb2baa7c3011","system_id":"levelo_inurba_marseille","lat":43.30368,"lon":5.389183,"is_reserved":false,"is_disabled":false,"rental_uris":{"android":"levelo://app?vid=87e13751-d480-4898-8670-bb2baa7c3011","ios":"levelo://app?vid=87e13751-d480-4898-8670-bb2baa7c3011"},"vehicle_type_id":"4","last_reported":1745392393,"current_range_meters":6000,"station_id":"ce4bhi12rcd13ifvqfp0","pricing_plan_id":"cebpf4jnsgd1na2vs0mg"},{"bike_id":"3f4ce14a-b97c-45b4-8990-bafe9aac152d","system_id":"levelo_inurba_marseille","lat":43.30911,"lon":5.36846,"is_reserved":false,"is_disabled":false,"rental_uris":{"android":"levelo://app?vid=3f4ce14a-b97c-45b4-8990-bafe9aac152d","ios":"levelo://app?vid=3f4ce14a-b97c-45b4-8990-bafe9aac152d"},"vehicle_type_id":"4","last_reported":1745392393,"current_range_meters":6000,"station_id":"ce4bgn92rcd13ifvqbvg","pricing_plan_id":"cebpf4jnsgd1na2vs0mg"},{"bike_id":"5fc60d1a-104c-43d2-93b1-6fc87b57773d","system_id":"levelo_inurba_marseille","lat":43.31492,"lon":5.37311,"is_reserved":false,"is_disabled":false,"rental_uris":{"android":"levelo://app?vid=5fc60d1a-104c-43d2-93b1-6fc87b57773d","ios":"levelo://app?vid=5fc60d1a-104c-43d2-93b1-6fc87b57773d"},"vehicle_type_id":"4","last_reported":1745392393,"current_range_meters":6400,"station_id":"ce4bgt12rcd13ifvqcd0","pricing_plan_id":"cebpf4jnsgd1na2vs0mg"},{"bike_id":"05e6647f-43c4-4356-bf30-2979f9dbba39","system_id":"levelo_inurba_marseille","lat":43.31223,"lon":5.36861,"is_reserved":false,"is_disabled":false,"rental_uris":{"android":"levelo://app?vid=05e6647f-43c4-4356-bf30-2979f9dbba39","ios":"levelo://app?vid=05e6647f-43c4-4356-bf30-2979f9dbba39"},"vehicle_type_id":"4","last_reported":1745392393,"current_range_meters":6400,"station_id":"ce4bgl92rcd13ifvqbq0","pricing_plan_id":"cebpf4jnsgd1na2vs0mg"},{"bike_id":"812167a7-afd5-4edc-bf10-be9f547fc037","system_id":"levelo_inurba_marseille","lat":43.273206,"lon":5.390681,"is_reserved":false,"is_disabled":false,"rental_uris":{"android":"levelo://app?vid=812167a7-afd5-4edc-bf10-be9f547fc037","ios":"levelo://app?vid=812167a7-afd5-4edc-bf10-be9f547fc037"},"vehicle_type_id":"4","last_reported":1745392393,"current_range_meters":6400,"station_id":"","pricing_plan_id":"cebpf4jnsgd1na2vs0mg"},{"bike_id":"28dbeddd-838b-456e-82ff-c5881d62245f","system_id":"levelo_inurba_marseille","lat":43.22926,"lon":5.35375,"is_reserved":false,"is_disabled":false,"rental_uris":{"android":"levelo://app?vid=28dbeddd-838b-456e-82ff-c5881d62245f","ios":"levelo://app?vid=28dbeddd-838b-456e-82ff-c5881d62245f"},"vehicle_type_id":"4","last_reported":1745392393,"current_range_meters":6400,"station_id":"cpo3532slgdg3j2ikp40","pricing_plan_id":"cebpf4jnsgd1na2vs0mg"},{"bike_id":"feb23c94-7c1e-4b05-a58d-7d3f25fc2ea3","system_id":"levelo_inurba_marseille","lat":43.28495,"lon":5.39419,"is_reserved":false,"is_disabled":false,"rental_uris":{"android":"levelo://app?vid=feb23c94-7c1e-4b05-a58d-7d3f25fc2ea3","ios":"levelo://app?vid=feb23c94-7c1e-4b05-a58d-7d3f25fc2ea3"},"vehicle_type_id":"4","last_reported":1745392393,"current_range_meters":6400,"station_id":"","pricing_plan_id":"cebpf4jnsgd1na2vs0mg"},{"bike_id":"d6f119cb-fec4-4442-8fa4-6e6df5e2b671","system_id":"levelo_inurba_marseille","lat":43.30302,"lon":5.39206,"is_reserved":false,"is_disabled":false,"rental_uris":{"android":"levelo://app?vid=d6f119cb-fec4-4442-8fa4-6e6df5e2b671","ios":"levelo://app?vid=d6f119cb-fec4-4442-8fa4-6e6df5e2b671"},"vehicle_type_id":"4","last_reported":1745392393,"current_range_meters":6400,"station_id":"ce4bgkh2rcd13ifvqbk0","pricing_plan_id":"cebpf4jnsgd1na2vs0mg"},{"bike_id":"7b80e1e4-511e-4e6a-b783-829698b96c6a","system_id":"levelo_inurba_marseille","lat":43.274787,"lon":5.42461,"is_reserved":false,"is_disabled":false,"rental_uris":{"android":"levelo://app?vid=7b80e1e4-511e-4e6a-b783-829698b96c6a","ios":"levelo://app?vid=7b80e1e4-511e-4e6a-b783-829698b96c6a"},"vehicle_type_id":"4","last_reported":1745392393,"current_range_meters":6400,"station_id":"ce4bhn92rcd13ifvqgrg","pricing_plan_id":"cebpf4jnsgd1na2vs0mg"},{"bike_id":"811c61e7-4dbf-4666-968e-a8d6b7c0cacc","system_id":"levelo_inurba_marseille","lat":43.30911,"lon":5.36848,"is_reserved":false,"is_disabled":false,"rental_uris":{"android":"levelo://app?vid=811c61e7-4dbf-4666-968e-a8d6b7c0cacc","ios":"levelo://app?vid=811c61e7-4dbf-4666-968e-a8d6b7c0cacc"},"vehicle_type_id":"4","last_reported":1745392393,"current_range_meters":6000,"station_id":"ce4bgn92rcd13ifvqbvg","pricing_plan_id":"cebpf4jnsgd1na2vs0mg"},{"bike_id":"abde93d8-e174-4675-bdb0-dc6a72ab8ee8","system_id":"levelo_inurba_marseille","lat":43.31494,"lon":5.37306,"is_reserved":false,"is_disabled":false,"rental_uris":{"android":"levelo://app?vid=abde93d8-e174-4675-bdb0-dc6a72ab8ee8","ios":"levelo://app?vid=abde93d8-e174-4675-bdb0-dc6a72ab8ee8"},"vehicle_type_id":"4","last_reported":1745392393,"current_range_meters":6400,"station_id":"ce4bgt12rcd13ifvqcd0","pricing_plan_id":"cebpf4jnsgd1na2vs0mg"},{"bike_id":"ee9a2647-e4ee-4117-a8d6-a2811f0c8a0c","system_id":"levelo_inurba_marseille","lat":43.29005,"lon":5.35608,"is_reserved":false,"is_disabled":true,"rental_uris":{"android":"levelo://app?vid=ee9a2647-e4ee-4117-a8d6-a2811f0c8a0c","ios":"levelo://app?vid=ee9a2647-e4ee-4117-a8d6-a2811f0c8a0c"},"vehicle_type_id":"4","last_reported":1745392393,"current_range_meters":6400,"station_id":"ce4bhb92rcd13ifvqen0","pricing_plan_id":"cebpf4jnsgd1na2vs0mg"},{"bike_id":"2bb4dbbf-21b8-43cb-ab86-b7d00e702a08","system_id":"levelo_inurba_marseille","lat":43.32991,"lon":5.39054,"is_reserved":false,"is_disabled":false,"rental_uris":{"android":"levelo://app?vid=2bb4dbbf-21b8-43cb-ab86-b7d00e702a08","ios":"levelo://app?vid=2bb4dbbf-21b8-43cb-ab86-b7d00e702a08"},"vehicle_type_id":"4","last_reported":1745392393,"current_range_meters":6800,"station_id":"ce4bhr92rcd13ifvqhrg","pricing_plan_id":"cebpf4jnsgd1na2vs0mg"},{"bike_id":"fb4295a7-4e4f-4eb6-8442-338aafdcde0d","system_id":"levelo_inurba_marseille","lat":43.25941,"lon":5.40905,"is_reserved":false,"is_disabled":false,"rental_uris":{"android":"levelo://app?vid=fb4295a7-4e4f-4eb6-8442-338aafdcde0d","ios":"levelo://app?vid=fb4295a7-4e4f-4eb6-8442-338aafdcde0d"},"vehicle_type_id":"4","last_reported":1745392393,"current_range_meters":6800,"station_id":"ce4bhm92rcd13ifvqglg","pricing_plan_id":"cebpf4jnsgd1na2vs0mg"},{"bike_id":"38299ba6-02ad-47ac-8cde-e2f13f63dd8b","system_id":"levelo_inurba_marseille","lat":43.30543,"lon":5.36555,"is_reserved":false,"is_disabled":false,"rental_uris":{"android":"levelo://app?vid=38299ba6-02ad-47ac-8cde-e2f13f63dd8b","ios":"levelo://app?vid=38299ba6-02ad-47ac-8cde-e2f13f63dd8b"},"vehicle_type_id":"4","last_reported":1745392393,"current_range_meters":6800,"station_id":"ce4bgs12rcd13ifvqcag","pricing_plan_id":"cebpf4jnsgd1na2vs0mg"},{"bike_id":"0ae1a122-def5-4125-a091-4a5a5936670f","system_id":"levelo_inurba_marseille","lat":43.29272,"lon":5.37629,"is_reserved":false,"is_disabled":false,"rental_uris":{"android":"levelo://app?vid=0ae1a122-def5-4125-a091-4a5a5936670f","ios":"levelo://app?vid=0ae1a122-def5-4125-a091-4a5a5936670f"},"vehicle_type_id":"4","last_reported":1745392393,"current_range_meters":7200,"station_id":"ce4bgi12rcd13ifvqb80","pricing_plan_id":"cebpf4jnsgd1na2vs0mg"},{"bike_id":"2dc4e79a-33a8-48b0-bf03-f6328f1dc1f6","system_id":"levelo_inurba_marseille","lat":43.32365,"lon":5.38894,"is_reserved":false,"is_disabled":true,"rental_uris":{"android":"levelo://app?vid=2dc4e79a-33a8-48b0-bf03-f6328f1dc1f6","ios":"levelo://app?vid=2dc4e79a-33a8-48b0-bf03-f6328f1dc1f6"},"vehicle_type_id":"4","last_reported":1745392393,"current_range_meters":7200,"station_id":"ce4bhqp2rcd13ifvqhog","pricing_plan_id":"cebpf4jnsgd1na2vs0mg"},{"bike_id":"00f791b3-0448-4fb6-a61d-87ad238478b1","system_id":"levelo_inurba_marseille","lat":43.30927,"lon":5.36858,"is_reserved":false,"is_disabled":false,"rental_uris":{"android":"levelo://app?vid=00f791b3-0448-4fb6-a61d-87ad238478b1","ios":"levelo://app?vid=00f791b3-0448-4fb6-a61d-87ad238478b1"},"vehicle_type_id":"4","last_reported":1745392393,"current_range_meters":7200,"station_id":"ce4bgn92rcd13ifvqbvg","pricing_plan_id":"cebpf4jnsgd1na2vs0mg"},{"bike_id":"70671536-b2e1-456c-8bd8-7804b348f9fc","system_id":"levelo_inurba_marseille","lat":43.31201,"lon":5.41624,"is_reserved":false,"is_disabled":false,"rental_uris":{"android":"levelo://app?vid=70671536-b2e1-456c-8bd8-7804b348f9fc","ios":"levelo://app?vid=70671536-b2e1-456c-8bd8-7804b348f9fc"},"vehicle_type_id":"4","last_reported":1745392393,"current_range_meters":8000,"station_id":"","pricing_plan_id":"cebpf4jnsgd1na2vs0mg"},{"bike_id":"1f605da9-74b3-4f53-96b4-ea59ce51acfc","system_id":"levelo_inurba_marseille","lat":43.31193,"lon":5.41611,"is_reserved":false,"is_disabled":false,"rental_uris":{"android":"levelo://app?vid=1f605da9-74b3-4f53-96b4-ea59ce51acfc","ios":"levelo://app?vid=1f605da9-74b3-4f53-96b4-ea59ce51acfc"},"vehicle_type_id":"4","last_reported":1745392393,"current_range_meters":8000,"station_id":"","pricing_plan_id":"cebpf4jnsgd1na2vs0mg"},{"bike_id":"d8d27387-fb66-4c0a-90dc-eef7a69dc87d","system_id":"levelo_inurba_marseille","lat":43.21217,"lon":5.35075,"is_reserved":false,"is_disabled":false,"rental_uris":{"android":"levelo://app?vid=d8d27387-fb66-4c0a-90dc-eef7a69dc87d","ios":"levelo://app?vid=d8d27387-fb66-4c0a-90dc-eef7a69dc87d"},"vehicle_type_id":"4","last_reported":1745392393,"current_range_meters":8000,"station_id":"ce4bgh92rcd13ifvqb40","pricing_plan_id":"cebpf4jnsgd1na2vs0mg"},{"bike_id":"352b22fd-34ad-40b2-931e-af71fad0a0bf","system_id":"levelo_inurba_marseille","lat":43.309504,"lon":5.390347,"is_reserved":false,"is_disabled":false,"rental_uris":{"android":"levelo://app?vid=352b22fd-34ad-40b2-931e-af71fad0a0bf","ios":"levelo://app?vid=352b22fd-34ad-40b2-931e-af71fad0a0bf"},"vehicle_type_id":"4","last_reported":1745392393,"current_range_meters":8400,"station_id":"ce4bgup2rcd13ifvqco0","pricing_plan_id":"cebpf4jnsgd1na2vs0mg"},{"bike_id":"0d1ebedd-3512-4ce4-87fe-745c17edfd96","system_id":"levelo_inurba_marseille","lat":43.27895,"lon":5.35425,"is_reserved":false,"is_disabled":true,"rental_uris":{"android":"levelo://app?vid=0d1ebedd-3512-4ce4-87fe-745c17edfd96","ios":"levelo://app?vid=0d1ebedd-3512-4ce4-87fe-745c17edfd96"},"vehicle_type_id":"4","last_reported":1745392393,"current_range_meters":8400,"station_id":"","pricing_plan_id":"cebpf4jnsgd1na2vs0mg"},{"bike_id":"7b99710d-8323-4195-a5fe-19e4a02b11e8","system_id":"levelo_inurba_marseille","lat":43.31359,"lon":5.36723,"is_reserved":false,"is_disabled":false,"rental_uris":{"android":"levelo://app?vid=7b99710d-8323-4195-a5fe-19e4a02b11e8","ios":"levelo://app?vid=7b99710d-8323-4195-a5fe-19e4a02b11e8"},"vehicle_type_id":"4","last_reported":1745392393,"current_range_meters":8400,"station_id":"ce4bgr92rcd13ifvqc6g","pricing_plan_id":"cebpf4jnsgd1na2vs0mg"},{"bike_id":"6ee9ffdf-3f66-4df4-bfbe-df8fdfd87ac5","system_id":"levelo_inurba_marseille","lat":43.30305,"lon":5.36919,"is_reserved":false,"is_disabled":false,"rental_uris":{"android":"levelo://app?vid=6ee9ffdf-3f66-4df4-bfbe-df8fdfd87ac5","ios":"levelo://app?vid=6ee9ffdf-3f66-4df4-bfbe-df8fdfd87ac5"},"vehicle_type_id":"4","last_reported":1745392393,"current_range_meters":8400,"station_id":"ce4bgqh2rcd13ifvqc5g","pricing_plan_id":"cebpf4jnsgd1na2vs0mg"},{"bike_id":"0416ed41-a616-445a-a5ab-2ecd2c0439a2","system_id":"levelo_inurba_marseille","lat":43.24053,"lon":5.37724,"is_reserved":false,"is_disabled":false,"rental_uris":{"android":"levelo://app?vid=0416ed41-a616-445a-a5ab-2ecd2c0439a2","ios":"levelo://app?vid=0416ed41-a616-445a-a5ab-2ecd2c0439a2"},"vehicle_type_id":"4","last_reported":1745392393,"current_range_meters":8400,"station_id":"ce4bhnp2rcd13ifvqgvg","pricing_plan_id":"cebpf4jnsgd1na2vs0mg"},{"bike_id":"f1300840-291d-4ece-a09c-172514b0678c","system_id":"levelo_inurba_marseille","lat":43.2947,"lon":5.39751,"is_reserved":false,"is_disabled":true,"rental_uris":{"android":"levelo://app?vid=f1300840-291d-4ece-a09c-172514b0678c","ios":"levelo://app?vid=f1300840-291d-4ece-a09c-172514b0678c"},"vehicle_type_id":"4","last_reported":1745392393,"current_range_meters":8800,"station_id":"ce4bh3h2rcd13ifvqdo0","pricing_plan_id":"cebpf4jnsgd1na2vs0mg"},{"bike_id":"d7c7f3de-2edb-4bb8-b55d-02b182ab3eea","system_id":"levelo_inurba_marseille","lat":43.29366,"lon":5.37833,"is_reserved":false,"is_disabled":false,"rental_uris":{"android":"levelo://app?vid=d7c7f3de-2edb-4bb8-b55d-02b182ab3eea","ios":"levelo://app?vid=d7c7f3de-2edb-4bb8-b55d-02b182ab3eea"},"vehicle_type_id":"4","last_reported":1745392393,"current_range_meters":8800,"station_id":"ce4bgjh2rcd13ifvqbf0","pricing_plan_id":"cebpf4jnsgd1na2vs0mg"},{"bike_id":"8117564a-189c-496e-bbfa-617e380258a9","system_id":"levelo_inurba_marseille","lat":43.2669,"lon":5.38277,"is_reserved":false,"is_disabled":false,"rental_uris":{"android":"levelo://app?vid=8117564a-189c-496e-bbfa-617e380258a9","ios":"levelo://app?vid=8117564a-189c-496e-bbfa-617e380258a9"},"vehicle_type_id":"4","last_reported":1745392393,"current_range_meters":8400,"station_id":"ce4bhg92rcd13ifvqf90","pricing_plan_id":"cebpf4jnsgd1na2vs0mg"},{"bike_id":"f416d0ef-f853-49ab-9358-9525a7ed6c57","system_id":"levelo_inurba_marseille","lat":43.31995,"lon":5.38137,"is_reserved":false,"is_disabled":false,"rental_uris":{"android":"levelo://app?vid=f416d0ef-f853-49ab-9358-9525a7ed6c57","ios":"levelo://app?vid=f416d0ef-f853-49ab-9358-9525a7ed6c57"},"vehicle_type_id":"4","last_reported":1745392393,"current_range_meters":8800,"station_id":"ce4bhr12rcd13ifvqhpg","pricing_plan_id":"cebpf4jnsgd1na2vs0mg"},{"bike_id":"1c027472-b6de-4f65-b26a-64fe6b4e5dae","system_id":"levelo_inurba_marseille","lat":43.30146,"lon":5.38075,"is_reserved":false,"is_disabled":false,"rental_uris":{"android":"levelo://app?vid=1c027472-b6de-4f65-b26a-64fe6b4e5dae","ios":"levelo://app?vid=1c027472-b6de-4f65-b26a-64fe6b4e5dae"},"vehicle_type_id":"4","last_reported":1745392393,"current_range_meters":8800,"station_id":"ce4bgjp2rcd13ifvqbh0","pricing_plan_id":"cebpf4jnsgd1na2vs0mg"},{"bike_id":"b8cfef2f-049b-4f5b-9246-18214c8511f6","system_id":"levelo_inurba_marseille","lat":43.279935,"lon":5.400061,"is_reserved":false,"is_disabled":false,"rental_uris":{"android":"levelo://app?vid=b8cfef2f-049b-4f5b-9246-18214c8511f6","ios":"levelo://app?vid=b8cfef2f-049b-4f5b-9246-18214c8511f6"},"vehicle_type_id":"4","last_reported":1745392393,"current_range_meters":9200,"station_id":"ce4bho92rcd13ifvqh4g","pricing_plan_id":"cebpf4jnsgd1na2vs0mg"},{"bike_id":"cde58abb-e471-49a0-b5b1-fcfce4e67920","system_id":"levelo_inurba_marseille","lat":43.31986,"lon":5.38151,"is_reserved":false,"is_disabled":false,"rental_uris":{"android":"levelo://app?vid=cde58abb-e471-49a0-b5b1-fcfce4e67920","ios":"levelo://app?vid=cde58abb-e471-49a0-b5b1-fcfce4e67920"},"vehicle_type_id":"4","last_reported":1745392393,"current_range_meters":9200,"station_id":"ce4bhr12rcd13ifvqhpg","pricing_plan_id":"cebpf4jnsgd1na2vs0mg"},{"bike_id":"47768a28-4fff-4fc1-b4c4-b5ec8d452deb","system_id":"levelo_inurba_marseille","lat":43.29595,"lon":5.38096,"is_reserved":false,"is_disabled":true,"rental_uris":{"android":"levelo://app?vid=47768a28-4fff-4fc1-b4c4-b5ec8d452deb","ios":"levelo://app?vid=47768a28-4fff-4fc1-b4c4-b5ec8d452deb"},"vehicle_type_id":"4","last_reported":1745392393,"current_range_meters":9200,"station_id":"ce4bgl12rcd13ifvqbo0","pricing_plan_id":"cebpf4jnsgd1na2vs0mg"},{"bike_id":"aa8a8ebe-2b69-4d9b-901d-c66c0d51c9e7","system_id":"levelo_inurba_marseille","lat":43.29901,"lon":5.37481,"is_reserved":false,"is_disabled":false,"rental_uris":{"android":"levelo://app?vid=aa8a8ebe-2b69-4d9b-901d-c66c0d51c9e7","ios":"levelo://app?vid=aa8a8ebe-2b69-4d9b-901d-c66c0d51c9e7"},"vehicle_type_id":"4","last_reported":1745392393,"current_range_meters":9200,"station_id":"ce4bgjh2rcd13ifvqbg0","pricing_plan_id":"cebpf4jnsgd1na2vs0mg"},{"bike_id":"b0fb854f-cfb1-4545-9876-d85402727e9f","system_id":"levelo_inurba_marseille","lat":43.28447,"lon":5.39193,"is_reserved":false,"is_disabled":false,"rental_uris":{"android":"levelo://app?vid=b0fb854f-cfb1-4545-9876-d85402727e9f","ios":"levelo://app?vid=b0fb854f-cfb1-4545-9876-d85402727e9f"},"vehicle_type_id":"4","last_reported":1745392393,"current_range_meters":9600,"station_id":"ce4bhoh2rcd13ifvqh5g","pricing_plan_id":"cebpf4jnsgd1na2vs0mg"},{"bike_id":"8da45441-0f39-4665-ba43-cdfddf67fe67","system_id":"levelo_inurba_marseille","lat":43.32973,"lon":5.43859,"is_reserved":false,"is_disabled":false,"rental_uris":{"android":"levelo://app?vid=8da45441-0f39-4665-ba43-cdfddf67fe67","ios":"levelo://app?vid=8da45441-0f39-4665-ba43-cdfddf67fe67"},"vehicle_type_id":"4","last_reported":1745392393,"current_range_meters":9600,"station_id":"","pricing_plan_id":"cebpf4jnsgd1na2vs0mg"},{"bike_id":"3f18191e-7a45-404a-b52e-958003f19597","system_id":"levelo_inurba_marseille","lat":43.31288,"lon":5.36832,"is_reserved":false,"is_disabled":true,"rental_uris":{"android":"levelo://app?vid=3f18191e-7a45-404a-b52e-958003f19597","ios":"levelo://app?vid=3f18191e-7a45-404a-b52e-958003f19597"},"vehicle_type_id":"4","last_reported":1745392393,"current_range_meters":9600,"station_id":"ce4bgl92rcd13ifvqbq0","pricing_plan_id":"cebpf4jnsgd1na2vs0mg"},{"bike_id":"a756bae3-49c1-4d6c-89e8-fcb7b0e7d2e2","system_id":"levelo_inurba_marseille","lat":43.29017,"lon":5.35931,"is_reserved":false,"is_disabled":true,"rental_uris":{"android":"levelo://app?vid=a756bae3-49c1-4d6c-89e8-fcb7b0e7d2e2","ios":"levelo://app?vid=a756bae3-49c1-4d6c-89e8-fcb7b0e7d2e2"},"vehicle_type_id":"4","last_reported":1745392393,"current_range_meters":9600,"station_id":"ce4bha92rcd13ifvqeg0","pricing_plan_id":"cebpf4jnsgd1na2vs0mg"},{"bike_id":"d5fa6a7e-ae6f-48cd-8dc8-6ec1473fc099","system_id":"levelo_inurba_marseille","lat":43.31348,"lon":5.36721,"is_reserved":false,"is_disabled":false,"rental_uris":{"android":"levelo://app?vid=d5fa6a7e-ae6f-48cd-8dc8-6ec1473fc099","ios":"levelo://app?vid=d5fa6a7e-ae6f-48cd-8dc8-6ec1473fc099"},"vehicle_type_id":"4","last_reported":1745392393,"current_range_meters":9600,"station_id":"ce4bgr92rcd13ifvqc6g","pricing_plan_id":"cebpf4jnsgd1na2vs0mg"},{"bike_id":"be559e14-9ce2-4f4e-9db1-4335f84b15d8","system_id":"levelo_inurba_marseille","lat":43.24083,"lon":5.37777,"is_reserved":false,"is_disabled":false,"rental_uris":{"android":"levelo://app?vid=be559e14-9ce2-4f4e-9db1-4335f84b15d8","ios":"levelo://app?vid=be559e14-9ce2-4f4e-9db1-4335f84b15d8"},"vehicle_type_id":"4","last_reported":1745392393,"current_range_meters":9600,"station_id":"ce4bhnp2rcd13ifvqgvg","pricing_plan_id":"cebpf4jnsgd1na2vs0mg"},{"bike_id":"ae2462e3-d741-44b9-8175-77a134aeac56","system_id":"levelo_inurba_marseille","lat":43.27956,"lon":5.38676,"is_reserved":false,"is_disabled":true,"rental_uris":{"android":"levelo://app?vid=ae2462e3-d741-44b9-8175-77a134aeac56","ios":"levelo://app?vid=ae2462e3-d741-44b9-8175-77a134aeac56"},"vehicle_type_id":"4","last_reported":1745392393,"current_range_meters":10000,"station_id":"","pricing_plan_id":"cebpf4jnsgd1na2vs0mg"},{"bike_id":"62fee38d-4566-4994-ac46-8ef7c869c2ac","system_id":"levelo_inurba_marseille","lat":43.29054,"lon":5.37155,"is_reserved":false,"is_disabled":false,"rental_uris":{"android":"levelo://app?vid=62fee38d-4566-4994-ac46-8ef7c869c2ac","ios":"levelo://app?vid=62fee38d-4566-4994-ac46-8ef7c869c2ac"},"vehicle_type_id":"4","last_reported":1745392393,"current_range_meters":10000,"station_id":"ce4bh5p2rcd13ifvqe4g","pricing_plan_id":"cebpf4jnsgd1na2vs0mg"},{"bike_id":"b101f8a5-861d-41d6-abc7-c01955f8f9ff","system_id":"levelo_inurba_marseille","lat":43.26784,"lon":5.39416,"is_reserved":false,"is_disabled":false,"rental_uris":{"android":"levelo://app?vid=b101f8a5-861d-41d6-abc7-c01955f8f9ff","ios":"levelo://app?vid=b101f8a5-861d-41d6-abc7-c01955f8f9ff"},"vehicle_type_id":"4","last_reported":1745392393,"current_range_meters":10000,"station_id":"ce4bhh12rcd13ifvqfg0","pricing_plan_id":"cebpf4jnsgd1na2vs0mg"},{"bike_id":"49c0f902-eac7-4a79-adf0-d142aff51e11","system_id":"levelo_inurba_marseille","lat":43.24167,"lon":5.36397,"is_reserved":false,"is_disabled":false,"rental_uris":{"android":"levelo://app?vid=49c0f902-eac7-4a79-adf0-d142aff51e11","ios":"levelo://app?vid=49c0f902-eac7-4a79-adf0-d142aff51e11"},"vehicle_type_id":"4","last_reported":1745392393,"current_range_meters":10000,"station_id":"cpo36qri1sfpv3e86is0","pricing_plan_id":"cebpf4jnsgd1na2vs0mg"},{"bike_id":"6a61c871-3f4c-4055-b56d-265cec58f519","system_id":"levelo_inurba_marseille","lat":43.33026,"lon":5.39041,"is_reserved":false,"is_disabled":false,"rental_uris":{"android":"levelo://app?vid=6a61c871-3f4c-4055-b56d-265cec58f519","ios":"levelo://app?vid=6a61c871-3f4c-4055-b56d-265cec58f519"},"vehicle_type_id":"4","last_reported":1745392393,"current_range_meters":10000,"station_id":"ce4bhr92rcd13ifvqhrg","pricing_plan_id":"cebpf4jnsgd1na2vs0mg"},{"bike_id":"41221d19-bb46-48cf-a4b2-dbbe247b3d9e","system_id":"levelo_inurba_marseille","lat":43.27621,"lon":5.3611,"is_reserved":false,"is_disabled":false,"rental_uris":{"android":"levelo://app?vid=41221d19-bb46-48cf-a4b2-dbbe247b3d9e","ios":"levelo://app?vid=41221d19-bb46-48cf-a4b2-dbbe247b3d9e"},"vehicle_type_id":"4","last_reported":1745392393,"current_range_meters":10000,"station_id":"ce4bgj92rcd13ifvqbe0","pricing_plan_id":"cebpf4jnsgd1na2vs0mg"},{"bike_id":"85804566-32d6-4de5-bd67-1a2d8b6b5f81","system_id":"levelo_inurba_marseille","lat":43.24546,"lon":5.39524,"is_reserved":false,"is_disabled":false,"rental_uris":{"android":"levelo://app?vid=85804566-32d6-4de5-bd67-1a2d8b6b5f81","ios":"levelo://app?vid=85804566-32d6-4de5-bd67-1a2d8b6b5f81"},"vehicle_type_id":"4","last_reported":1745392393,"current_range_meters":10800,"station_id":"ce4bhlp2rcd13ifvqgjg","pricing_plan_id":"cebpf4jnsgd1na2vs0mg"},{"bike_id":"dd31578c-47b8-4582-b452-51463da43e97","system_id":"levelo_inurba_marseille","lat":43.24386,"lon":5.37053,"is_reserved":false,"is_disabled":true,"rental_uris":{"android":"levelo://app?vid=dd31578c-47b8-4582-b452-51463da43e97","ios":"levelo://app?vid=dd31578c-47b8-4582-b452-51463da43e97"},"vehicle_type_id":"4","last_reported":1745392393,"current_range_meters":10000,"station_id":"ce4bhhh2rcd13ifvqfk0","pricing_plan_id":"cebpf4jnsgd1na2vs0mg"},{"bike_id":"a2f407dc-7fa5-4d61-bbb5-5e7c2043ecfd","system_id":"levelo_inurba_marseille","lat":43.33613,"lon":5.41036,"is_reserved":false,"is_disabled":false,"rental_uris":{"android":"levelo://app?vid=a2f407dc-7fa5-4d61-bbb5-5e7c2043ecfd","ios":"levelo://app?vid=a2f407dc-7fa5-4d61-bbb5-5e7c2043ecfd"},"vehicle_type_id":"4","last_reported":1745392393,"current_range_meters":10800,"station_id":"ce4bhqh2rcd13ifvqhmg","pricing_plan_id":"cebpf4jnsgd1na2vs0mg"},{"bike_id":"476a9fe5-6154-4202-b562-28b0995b6b4c","system_id":"levelo_inurba_marseille","lat":43.2319,"lon":5.39985,"is_reserved":false,"is_disabled":false,"rental_uris":{"android":"levelo://app?vid=476a9fe5-6154-4202-b562-28b0995b6b4c","ios":"levelo://app?vid=476a9fe5-6154-4202-b562-28b0995b6b4c"},"vehicle_type_id":"4","last_reported":1745392393,"current_range_meters":10800,"station_id":"ce4bhn12rcd13ifvqgqg","pricing_plan_id":"cebpf4jnsgd1na2vs0mg"},{"bike_id":"ef7b4785-fa2b-49c3-8f9c-177a53d7e716","system_id":"levelo_inurba_marseille","lat":43.30325,"lon":5.3691,"is_reserved":false,"is_disabled":false,"rental_uris":{"android":"levelo://app?vid=ef7b4785-fa2b-49c3-8f9c-177a53d7e716","ios":"levelo://app?vid=ef7b4785-fa2b-49c3-8f9c-177a53d7e716"},"vehicle_type_id":"4","last_reported":1745392393,"current_range_meters":10800,"station_id":"ce4bgqh2rcd13ifvqc5g","pricing_plan_id":"cebpf4jnsgd1na2vs0mg"},{"bike_id":"caccf6b1-eff9-41fc-9278-5e6f421f5468","system_id":"levelo_inurba_marseille","lat":43.28416,"lon":5.3499,"is_reserved":false,"is_disabled":true,"rental_uris":{"android":"levelo://app?vid=caccf6b1-eff9-41fc-9278-5e6f421f5468","ios":"levelo://app?vid=caccf6b1-eff9-41fc-9278-5e6f421f5468"},"vehicle_type_id":"4","last_reported":1745392393,"current_range_meters":11200,"station_id":"ce4bhbh2rcd13ifvqepg","pricing_plan_id":"cebpf4jnsgd1na2vs0mg"},{"bike_id":"678d1ff2-b92f-437a-a478-0a2f054c08e9","system_id":"levelo_inurba_marseille","lat":43.30346,"lon":5.36869,"is_reserved":false,"is_disabled":false,"rental_uris":{"android":"levelo://app?vid=678d1ff2-b92f-437a-a478-0a2f054c08e9","ios":"levelo://app?vid=678d1ff2-b92f-437a-a478-0a2f054c08e9"},"vehicle_type_id":"4","last_reported":1745392393,"current_range_meters":11200,"station_id":"","pricing_plan_id":"cebpf4jnsgd1na2vs0mg"},{"bike_id":"3065a843-6c0d-41dc-b2da-42e990e5583b","system_id":"levelo_inurba_marseille","lat":43.33603,"lon":5.41035,"is_reserved":false,"is_disabled":false,"rental_uris":{"android":"levelo://app?vid=3065a843-6c0d-41dc-b2da-42e990e5583b","ios":"levelo://app?vid=3065a843-6c0d-41dc-b2da-42e990e5583b"},"vehicle_type_id":"4","last_reported":1745392393,"current_range_meters":11200,"station_id":"ce4bhqh2rcd13ifvqhmg","pricing_plan_id":"cebpf4jnsgd1na2vs0mg"},{"bike_id":"19898917-1f1e-4f64-b433-e7ccb2d7e358","system_id":"levelo_inurba_marseille","lat":43.27488,"lon":5.4246,"is_reserved":false,"is_disabled":false,"rental_uris":{"android":"levelo://app?vid=19898917-1f1e-4f64-b433-e7ccb2d7e358","ios":"levelo://app?vid=19898917-1f1e-4f64-b433-e7ccb2d7e358"},"vehicle_type_id":"4","last_reported":1745392393,"current_range_meters":11200,"station_id":"ce4bhn92rcd13ifvqgrg","pricing_plan_id":"cebpf4jnsgd1na2vs0mg"},{"bike_id":"97a3c613-4961-43c8-be1b-2f86b9a327e8","system_id":"levelo_inurba_marseille","lat":43.25942,"lon":5.40905,"is_reserved":false,"is_disabled":false,"rental_uris":{"android":"levelo://app?vid=97a3c613-4961-43c8-be1b-2f86b9a327e8","ios":"levelo://app?vid=97a3c613-4961-43c8-be1b-2f86b9a327e8"},"vehicle_type_id":"4","last_reported":1745392393,"current_range_meters":11200,"station_id":"ce4bhm92rcd13ifvqglg","pricing_plan_id":"cebpf4jnsgd1na2vs0mg"},{"bike_id":"16d6ec03-2ab2-43fe-bc1b-13db7425ee8e","system_id":"levelo_inurba_marseille","lat":43.27994,"lon":5.41672,"is_reserved":false,"is_disabled":false,"rental_uris":{"android":"levelo://app?vid=16d6ec03-2ab2-43fe-bc1b-13db7425ee8e","ios":"levelo://app?vid=16d6ec03-2ab2-43fe-bc1b-13db7425ee8e"},"vehicle_type_id":"4","last_reported":1745392393,"current_range_meters":11200,"station_id":"ce4bho12rcd13ifvqh1g","pricing_plan_id":"cebpf4jnsgd1na2vs0mg"},{"bike_id":"9e6f664d-d758-4b88-973b-a221371ef847","system_id":"levelo_inurba_marseille","lat":43.31336,"lon":5.36724,"is_reserved":false,"is_disabled":false,"rental_uris":{"android":"levelo://app?vid=9e6f664d-d758-4b88-973b-a221371ef847","ios":"levelo://app?vid=9e6f664d-d758-4b88-973b-a221371ef847"},"vehicle_type_id":"4","last_reported":1745392393,"current_range_meters":11200,"station_id":"ce4bgr92rcd13ifvqc6g","pricing_plan_id":"cebpf4jnsgd1na2vs0mg"},{"bike_id":"b0e8a2c8-af71-46b6-869f-03c9ce2ca907","system_id":"levelo_inurba_marseille","lat":43.25941,"lon":5.40899,"is_reserved":false,"is_disabled":false,"rental_uris":{"android":"levelo://app?vid=b0e8a2c8-af71-46b6-869f-03c9ce2ca907","ios":"levelo://app?vid=b0e8a2c8-af71-46b6-869f-03c9ce2ca907"},"vehicle_type_id":"4","last_reported":1745392393,"current_range_meters":11600,"station_id":"ce4bhm92rcd13ifvqglg","pricing_plan_id":"cebpf4jnsgd1na2vs0mg"},{"bike_id":"826a77b5-59be-4b17-8769-00337cb9d194","system_id":"levelo_inurba_marseille","lat":43.24089,"lon":5.37751,"is_reserved":false,"is_disabled":false,"rental_uris":{"android":"levelo://app?vid=826a77b5-59be-4b17-8769-00337cb9d194","ios":"levelo://app?vid=826a77b5-59be-4b17-8769-00337cb9d194"},"vehicle_type_id":"4","last_reported":1745392393,"current_range_meters":11600,"station_id":"ce4bhnp2rcd13ifvqgvg","pricing_plan_id":"cebpf4jnsgd1na2vs0mg"},{"bike_id":"685f8388-476a-4d71-b919-c5c2325dda0c","system_id":"levelo_inurba_marseille","lat":43.26677,"lon":5.38269,"is_reserved":false,"is_disabled":false,"rental_uris":{"android":"levelo://app?vid=685f8388-476a-4d71-b919-c5c2325dda0c","ios":"levelo://app?vid=685f8388-476a-4d71-b919-c5c2325dda0c"},"vehicle_type_id":"4","last_reported":1745392393,"current_range_meters":11600,"station_id":"ce4bhg92rcd13ifvqf90","pricing_plan_id":"cebpf4jnsgd1na2vs0mg"},{"bike_id":"3491c7a7-76ee-45fa-94fa-ae18f9247cc0","system_id":"levelo_inurba_marseille","lat":43.33605,"lon":5.41031,"is_reserved":false,"is_disabled":false,"rental_uris":{"android":"levelo://app?vid=3491c7a7-76ee-45fa-94fa-ae18f9247cc0","ios":"levelo://app?vid=3491c7a7-76ee-45fa-94fa-ae18f9247cc0"},"vehicle_type_id":"4","last_reported":1745392393,"current_range_meters":12000,"station_id":"ce4bhqh2rcd13ifvqhmg","pricing_plan_id":"cebpf4jnsgd1na2vs0mg"},{"bike_id":"761ae269-6b1f-4092-8e33-c55e4d5d8dff","system_id":"levelo_inurba_marseille","lat":43.22927,"lon":5.35373,"is_reserved":false,"is_disabled":false,"rental_uris":{"android":"levelo://app?vid=761ae269-6b1f-4092-8e33-c55e4d5d8dff","ios":"levelo://app?vid=761ae269-6b1f-4092-8e33-c55e4d5d8dff"},"vehicle_type_id":"4","last_reported":1745392393,"current_range_meters":12000,"station_id":"cpo3532slgdg3j2ikp40","pricing_plan_id":"cebpf4jnsgd1na2vs0mg"},{"bike_id":"29557cd6-e30c-4193-97f9-eb19785da0d9","system_id":"levelo_inurba_marseille","lat":43.309118,"lon":5.368476,"is_reserved":false,"is_disabled":false,"rental_uris":{"android":"levelo://app?vid=29557cd6-e30c-4193-97f9-eb19785da0d9","ios":"levelo://app?vid=29557cd6-e30c-4193-97f9-eb19785da0d9"},"vehicle_type_id":"4","last_reported":1745392393,"current_range_meters":12000,"station_id":"ce4bgn92rcd13ifvqbvg","pricing_plan_id":"cebpf4jnsgd1na2vs0mg"},{"bike_id":"8e09a13a-fcf6-407d-8b3b-c4009e053453","system_id":"levelo_inurba_marseille","lat":43.26683,"lon":5.38273,"is_reserved":false,"is_disabled":false,"rental_uris":{"android":"levelo://app?vid=8e09a13a-fcf6-407d-8b3b-c4009e053453","ios":"levelo://app?vid=8e09a13a-fcf6-407d-8b3b-c4009e053453"},"vehicle_type_id":"4","last_reported":1745392393,"current_range_meters":12000,"station_id":"ce4bhg92rcd13ifvqf90","pricing_plan_id":"cebpf4jnsgd1na2vs0mg"},{"bike_id":"9c55486b-8ed9-4da1-a480-712e8b31457b","system_id":"levelo_inurba_marseille","lat":43.3054,"lon":5.36551,"is_reserved":false,"is_disabled":false,"rental_uris":{"android":"levelo://app?vid=9c55486b-8ed9-4da1-a480-712e8b31457b","ios":"levelo://app?vid=9c55486b-8ed9-4da1-a480-712e8b31457b"},"vehicle_type_id":"4","last_reported":1745392393,"current_range_meters":12400,"station_id":"ce4bgs12rcd13ifvqcag","pricing_plan_id":"cebpf4jnsgd1na2vs0mg"},{"bike_id":"1b271eef-4592-4d78-9f0f-bc47ac8ecd1e","system_id":"levelo_inurba_marseille","lat":43.27499,"lon":5.42444,"is_reserved":false,"is_disabled":false,"rental_uris":{"android":"levelo://app?vid=1b271eef-4592-4d78-9f0f-bc47ac8ecd1e","ios":"levelo://app?vid=1b271eef-4592-4d78-9f0f-bc47ac8ecd1e"},"vehicle_type_id":"4","last_reported":1745392393,"current_range_meters":12400,"station_id":"ce4bhn92rcd13ifvqgrg","pricing_plan_id":"cebpf4jnsgd1na2vs0mg"},{"bike_id":"41386a75-315f-418f-b6c9-d56e48590a3e","system_id":"levelo_inurba_marseille","lat":43.33612,"lon":5.41037,"is_reserved":false,"is_disabled":false,"rental_uris":{"android":"levelo://app?vid=41386a75-315f-418f-b6c9-d56e48590a3e","ios":"levelo://app?vid=41386a75-315f-418f-b6c9-d56e48590a3e"},"vehicle_type_id":"4","last_reported":1745392393,"current_range_meters":12400,"station_id":"ce4bhqh2rcd13ifvqhmg","pricing_plan_id":"cebpf4jnsgd1na2vs0mg"},{"bike_id":"895e2774-83ed-45d3-ac91-c323553e326f","system_id":"levelo_inurba_marseille","lat":43.27487,"lon":5.42466,"is_reserved":false,"is_disabled":false,"rental_uris":{"android":"levelo://app?vid=895e2774-83ed-45d3-ac91-c323553e326f","ios":"levelo://app?vid=895e2774-83ed-45d3-ac91-c323553e326f"},"vehicle_type_id":"4","last_reported":1745392393,"current_range_meters":12400,"station_id":"ce4bhn92rcd13ifvqgrg","pricing_plan_id":"cebpf4jnsgd1na2vs0mg"},{"bike_id":"378d59fa-5c4d-475a-ab80-86c54755eb3c","system_id":"levelo_inurba_marseille","lat":43.30459,"lon":5.37916,"is_reserved":false,"is_disabled":false,"rental_uris":{"android":"levelo://app?vid=378d59fa-5c4d-475a-ab80-86c54755eb3c","ios":"levelo://app?vid=378d59fa-5c4d-475a-ab80-86c54755eb3c"},"vehicle_type_id":"4","last_reported":1745392393,"current_range_meters":12800,"station_id":"ce4bgup2rcd13ifvqcn0","pricing_plan_id":"cebpf4jnsgd1na2vs0mg"},{"bike_id":"753fb04a-6aa9-4fc6-9a10-ae190e3d7f77","system_id":"levelo_inurba_marseille","lat":43.2792,"lon":5.39581,"is_reserved":false,"is_disabled":false,"rental_uris":{"android":"levelo://app?vid=753fb04a-6aa9-4fc6-9a10-ae190e3d7f77","ios":"levelo://app?vid=753fb04a-6aa9-4fc6-9a10-ae190e3d7f77"},"vehicle_type_id":"4","last_reported":1745392393,"current_range_meters":12800,"station_id":"ce4bhf92rcd13ifvqf40","pricing_plan_id":"cebpf4jnsgd1na2vs0mg"},{"bike_id":"ea5124ab-9237-4816-8f91-28aee546fe60","system_id":"levelo_inurba_marseille","lat":43.299713,"lon":5.371828,"is_reserved":false,"is_disabled":false,"rental_uris":{"android":"levelo://app?vid=ea5124ab-9237-4816-8f91-28aee546fe60","ios":"levelo://app?vid=ea5124ab-9237-4816-8f91-28aee546fe60"},"vehicle_type_id":"4","last_reported":1745392393,"current_range_meters":12400,"station_id":"ce4bgr92rcd13ifvqc7g","pricing_plan_id":"cebpf4jnsgd1na2vs0mg"},{"bike_id":"df6ffc41-ed4d-4c2c-af47-12b33fc50735","system_id":"levelo_inurba_marseille","lat":43.25118,"lon":5.40315,"is_reserved":false,"is_disabled":false,"rental_uris":{"android":"levelo://app?vid=df6ffc41-ed4d-4c2c-af47-12b33fc50735","ios":"levelo://app?vid=df6ffc41-ed4d-4c2c-af47-12b33fc50735"},"vehicle_type_id":"4","last_reported":1745392393,"current_range_meters":12800,"station_id":"ce4bhlh2rcd13ifvqgig","pricing_plan_id":"cebpf4jnsgd1na2vs0mg"},{"bike_id":"f36d089e-788c-4bd3-9198-e8cacf91e002","system_id":"levelo_inurba_marseille","lat":43.31177,"lon":5.36896,"is_reserved":false,"is_disabled":false,"rental_uris":{"android":"levelo://app?vid=f36d089e-788c-4bd3-9198-e8cacf91e002","ios":"levelo://app?vid=f36d089e-788c-4bd3-9198-e8cacf91e002"},"vehicle_type_id":"4","last_reported":1745392393,"current_range_meters":12800,"station_id":"","pricing_plan_id":"cebpf4jnsgd1na2vs0mg"},{"bike_id":"87114a8b-8f5e-4419-aa0b-67d4aaa7b572","system_id":"levelo_inurba_marseille","lat":43.27921,"lon":5.39575,"is_reserved":false,"is_disabled":false,"rental_uris":{"android":"levelo://app?vid=87114a8b-8f5e-4419-aa0b-67d4aaa7b572","ios":"levelo://app?vid=87114a8b-8f5e-4419-aa0b-67d4aaa7b572"},"vehicle_type_id":"4","last_reported":1745392393,"current_range_meters":12800,"station_id":"ce4bhf92rcd13ifvqf40","pricing_plan_id":"cebpf4jnsgd1na2vs0mg"},{"bike_id":"abd226a8-d003-4133-b9d2-b7c952b7ead1","system_id":"levelo_inurba_marseille","lat":43.23066,"lon":5.35502,"is_reserved":false,"is_disabled":false,"rental_uris":{"android":"levelo://app?vid=abd226a8-d003-4133-b9d2-b7c952b7ead1","ios":"levelo://app?vid=abd226a8-d003-4133-b9d2-b7c952b7ead1"},"vehicle_type_id":"4","last_reported":1745392393,"current_range_meters":13600,"station_id":"cpo3342slgdg3j2ifvpg","pricing_plan_id":"cebpf4jnsgd1na2vs0mg"},{"bike_id":"7c110556-51f7-4ebc-a93b-d3e946a92a50","system_id":"levelo_inurba_marseille","lat":43.31703,"lon":5.43697,"is_reserved":false,"is_disabled":true,"rental_uris":{"android":"levelo://app?vid=7c110556-51f7-4ebc-a93b-d3e946a92a50","ios":"levelo://app?vid=7c110556-51f7-4ebc-a93b-d3e946a92a50"},"vehicle_type_id":"4","last_reported":1745392393,"current_range_meters":13600,"station_id":"ce4bhp92rcd13ifvqhcg","pricing_plan_id":"cebpf4jnsgd1na2vs0mg"},{"bike_id":"813f5dbf-3dde-449f-b2ef-eb7b3d44bcab","system_id":"levelo_inurba_marseille","lat":43.231926,"lon":5.355505,"is_reserved":false,"is_disabled":false,"rental_uris":{"android":"levelo://app?vid=813f5dbf-3dde-449f-b2ef-eb7b3d44bcab","ios":"levelo://app?vid=813f5dbf-3dde-449f-b2ef-eb7b3d44bcab"},"vehicle_type_id":"4","last_reported":1745392393,"current_range_meters":14000,"station_id":"ce4bhu92rcd13ifvqi70","pricing_plan_id":"cebpf4jnsgd1na2vs0mg"},{"bike_id":"bac72351-a88e-4107-b318-edd11bc8f783","system_id":"levelo_inurba_marseille","lat":43.25936,"lon":5.409,"is_reserved":false,"is_disabled":false,"rental_uris":{"android":"levelo://app?vid=bac72351-a88e-4107-b318-edd11bc8f783","ios":"levelo://app?vid=bac72351-a88e-4107-b318-edd11bc8f783"},"vehicle_type_id":"4","last_reported":1745392393,"current_range_meters":14000,"station_id":"ce4bhm92rcd13ifvqglg","pricing_plan_id":"cebpf4jnsgd1na2vs0mg"},{"bike_id":"1b903b38-38de-4714-9a2c-59836acfa168","system_id":"levelo_inurba_marseille","lat":43.31717,"lon":5.437,"is_reserved":false,"is_disabled":true,"rental_uris":{"android":"levelo://app?vid=1b903b38-38de-4714-9a2c-59836acfa168","ios":"levelo://app?vid=1b903b38-38de-4714-9a2c-59836acfa168"},"vehicle_type_id":"4","last_reported":1745392393,"current_range_meters":14000,"station_id":"ce4bhp92rcd13ifvqhcg","pricing_plan_id":"cebpf4jnsgd1na2vs0mg"},{"bike_id":"b217c7a4-92b6-4872-91fa-f2c2827250cc","system_id":"levelo_inurba_marseille","lat":43.240761,"lon":5.377579,"is_reserved":false,"is_disabled":true,"rental_uris":{"android":"levelo://app?vid=b217c7a4-92b6-4872-91fa-f2c2827250cc","ios":"levelo://app?vid=b217c7a4-92b6-4872-91fa-f2c2827250cc"},"vehicle_type_id":"4","last_reported":1745392393,"current_range_meters":14000,"station_id":"ce4bhnp2rcd13ifvqgvg","pricing_plan_id":"cebpf4jnsgd1na2vs0mg"},{"bike_id":"d56d6e6b-774a-410f-a9cf-3996ad5bbd64","system_id":"levelo_inurba_marseille","lat":43.25869,"lon":5.39895,"is_reserved":false,"is_disabled":false,"rental_uris":{"android":"levelo://app?vid=d56d6e6b-774a-410f-a9cf-3996ad5bbd64","ios":"levelo://app?vid=d56d6e6b-774a-410f-a9cf-3996ad5bbd64"},"vehicle_type_id":"4","last_reported":1745392393,"current_range_meters":14000,"station_id":"ce4bhl92rcd13ifvqghg","pricing_plan_id":"cebpf4jnsgd1na2vs0mg"},{"bike_id":"b96d48d5-fc65-423b-9a30-5d2c864e8939","system_id":"levelo_inurba_marseille","lat":43.22503,"lon":5.34817,"is_reserved":false,"is_disabled":true,"rental_uris":{"android":"levelo://app?vid=b96d48d5-fc65-423b-9a30-5d2c864e8939","ios":"levelo://app?vid=b96d48d5-fc65-423b-9a30-5d2c864e8939"},"vehicle_type_id":"4","last_reported":1745392393,"current_range_meters":14400,"station_id":"st_cvj5dfep6f1abm77gieg","pricing_plan_id":"cebpf4jnsgd1na2vs0mg"},{"bike_id":"9a003ef3-9ef6-4a1e-b60d-063043fea994","system_id":"levelo_inurba_marseille","lat":43.292616,"lon":5.376224,"is_reserved":false,"is_disabled":false,"rental_uris":{"android":"levelo://app?vid=9a003ef3-9ef6-4a1e-b60d-063043fea994","ios":"levelo://app?vid=9a003ef3-9ef6-4a1e-b60d-063043fea994"},"vehicle_type_id":"4","last_reported":1745392393,"current_range_meters":14400,"station_id":"","pricing_plan_id":"cebpf4jnsgd1na2vs0mg"},{"bike_id":"d8ef3988-002f-42dc-b706-ecebe9835e72","system_id":"levelo_inurba_marseille","lat":43.29892,"lon":5.436666,"is_reserved":false,"is_disabled":false,"rental_uris":{"android":"levelo://app?vid=d8ef3988-002f-42dc-b706-ecebe9835e72","ios":"levelo://app?vid=d8ef3988-002f-42dc-b706-ecebe9835e72"},"vehicle_type_id":"4","last_reported":1745392393,"current_range_meters":14800,"station_id":"ce4bhpp2rcd13ifvqhfg","pricing_plan_id":"cebpf4jnsgd1na2vs0mg"},{"bike_id":"38648778-ccfb-4863-93dc-e164eee52ba6","system_id":"levelo_inurba_marseille","lat":43.302795,"lon":5.37697,"is_reserved":false,"is_disabled":false,"rental_uris":{"android":"levelo://app?vid=38648778-ccfb-4863-93dc-e164eee52ba6","ios":"levelo://app?vid=38648778-ccfb-4863-93dc-e164eee52ba6"},"vehicle_type_id":"4","last_reported":1745392393,"current_range_meters":14800,"station_id":"","pricing_plan_id":"cebpf4jnsgd1na2vs0mg"},{"bike_id":"153544ce-04e1-41a3-af7d-f398163a9eef","system_id":"levelo_inurba_marseille","lat":43.30537,"lon":5.36548,"is_reserved":false,"is_disabled":false,"rental_uris":{"android":"levelo://app?vid=153544ce-04e1-41a3-af7d-f398163a9eef","ios":"levelo://app?vid=153544ce-04e1-41a3-af7d-f398163a9eef"},"vehicle_type_id":"4","last_reported":1745392393,"current_range_meters":14800,"station_id":"ce4bgs12rcd13ifvqcag","pricing_plan_id":"cebpf4jnsgd1na2vs0mg"},{"bike_id":"fbb8f412-e1ba-4bc5-86cd-a2d81228f66c","system_id":"levelo_inurba_marseille","lat":43.32542,"lon":5.41442,"is_reserved":false,"is_disabled":false,"rental_uris":{"android":"levelo://app?vid=fbb8f412-e1ba-4bc5-86cd-a2d81228f66c","ios":"levelo://app?vid=fbb8f412-e1ba-4bc5-86cd-a2d81228f66c"},"vehicle_type_id":"4","last_reported":1745392393,"current_range_meters":14800,"station_id":"ce4bhq12rcd13ifvqhhg","pricing_plan_id":"cebpf4jnsgd1na2vs0mg"},{"bike_id":"0a19e66b-6692-451e-b60a-94056cc8c1b1","system_id":"levelo_inurba_marseille","lat":43.30464,"lon":5.37907,"is_reserved":false,"is_disabled":false,"rental_uris":{"android":"levelo://app?vid=0a19e66b-6692-451e-b60a-94056cc8c1b1","ios":"levelo://app?vid=0a19e66b-6692-451e-b60a-94056cc8c1b1"},"vehicle_type_id":"4","last_reported":1745392393,"current_range_meters":14800,"station_id":"ce4bgup2rcd13ifvqcn0","pricing_plan_id":"cebpf4jnsgd1na2vs0mg"},{"bike_id":"1eed5e8b-4205-4712-acad-6c30ec776c94","system_id":"levelo_inurba_marseille","lat":43.289287,"lon":5.383901,"is_reserved":false,"is_disabled":false,"rental_uris":{"android":"levelo://app?vid=1eed5e8b-4205-4712-acad-6c30ec776c94","ios":"levelo://app?vid=1eed5e8b-4205-4712-acad-6c30ec776c94"},"vehicle_type_id":"4","last_reported":1745392393,"current_range_meters":14800,"station_id":"ce4bh612rcd13ifvqe6g","pricing_plan_id":"cebpf4jnsgd1na2vs0mg"},{"bike_id":"e8327bb3-a41d-46fa-b590-0aefbce7d595","system_id":"levelo_inurba_marseille","lat":43.27708,"lon":5.38887,"is_reserved":false,"is_disabled":false,"rental_uris":{"android":"levelo://app?vid=e8327bb3-a41d-46fa-b590-0aefbce7d595","ios":"levelo://app?vid=e8327bb3-a41d-46fa-b590-0aefbce7d595"},"vehicle_type_id":"4","last_reported":1745392393,"current_range_meters":15200,"station_id":"ce4bhi12rcd13ifvqfo0","pricing_plan_id":"cebpf4jnsgd1na2vs0mg"},{"bike_id":"548a676c-6329-4f1b-a15f-51e09f419043","system_id":"levelo_inurba_marseille","lat":43.26942,"lon":5.38659,"is_reserved":false,"is_disabled":true,"rental_uris":{"android":"levelo://app?vid=548a676c-6329-4f1b-a15f-51e09f419043","ios":"levelo://app?vid=548a676c-6329-4f1b-a15f-51e09f419043"},"vehicle_type_id":"4","last_reported":1745392393,"current_range_meters":14800,"station_id":"ce4bhh92rcd13ifvqfh0","pricing_plan_id":"cebpf4jnsgd1na2vs0mg"},{"bike_id":"2bdf03a8-003d-4fa3-a85d-33448ab28e22","system_id":"levelo_inurba_marseille","lat":43.31691,"lon":5.40418,"is_reserved":false,"is_disabled":false,"rental_uris":{"android":"levelo://app?vid=2bdf03a8-003d-4fa3-a85d-33448ab28e22","ios":"levelo://app?vid=2bdf03a8-003d-4fa3-a85d-33448ab28e22"},"vehicle_type_id":"4","last_reported":1745392393,"current_range_meters":15200,"station_id":"ce4bh012rcd13ifvqd00","pricing_plan_id":"cebpf4jnsgd1na2vs0mg"},{"bike_id":"a1835b16-9e05-4b53-baf5-10eeb04320bb","system_id":"levelo_inurba_marseille","lat":43.2871,"lon":5.37394,"is_reserved":false,"is_disabled":true,"rental_uris":{"android":"levelo://app?vid=a1835b16-9e05-4b53-baf5-10eeb04320bb","ios":"levelo://app?vid=a1835b16-9e05-4b53-baf5-10eeb04320bb"},"vehicle_type_id":"4","last_reported":1745392393,"current_range_meters":16000,"station_id":"ce4bh3p2rcd13ifvqdq0","pricing_plan_id":"cebpf4jnsgd1na2vs0mg"},{"bike_id":"c9fbd267-6461-49b6-bc49-a6bd29ccb0c5","system_id":"levelo_inurba_marseille","lat":43.31685,"lon":5.40474,"is_reserved":false,"is_disabled":true,"rental_uris":{"android":"levelo://app?vid=c9fbd267-6461-49b6-bc49-a6bd29ccb0c5","ios":"levelo://app?vid=c9fbd267-6461-49b6-bc49-a6bd29ccb0c5"},"vehicle_type_id":"4","last_reported":1745392393,"current_range_meters":16000,"station_id":"ce4bh012rcd13ifvqd00","pricing_plan_id":"cebpf4jnsgd1na2vs0mg"},{"bike_id":"afc41356-a2b6-4fcb-a539-c3caa81c24b2","system_id":"levelo_inurba_marseille","lat":43.27498,"lon":5.42457,"is_reserved":false,"is_disabled":false,"rental_uris":{"android":"levelo://app?vid=afc41356-a2b6-4fcb-a539-c3caa81c24b2","ios":"levelo://app?vid=afc41356-a2b6-4fcb-a539-c3caa81c24b2"},"vehicle_type_id":"4","last_reported":1745392393,"current_range_meters":16000,"station_id":"ce4bhn92rcd13ifvqgrg","pricing_plan_id":"cebpf4jnsgd1na2vs0mg"},{"bike_id":"3e8f0127-96fd-4fdd-97f2-be6e836f9523","system_id":"levelo_inurba_marseille","lat":43.33783,"lon":5.37425,"is_reserved":false,"is_disabled":false,"rental_uris":{"android":"levelo://app?vid=3e8f0127-96fd-4fdd-97f2-be6e836f9523","ios":"levelo://app?vid=3e8f0127-96fd-4fdd-97f2-be6e836f9523"},"vehicle_type_id":"4","last_reported":1745392393,"current_range_meters":16000,"station_id":"","pricing_plan_id":"cebpf4jnsgd1na2vs0mg"},{"bike_id":"a30461fe-cecb-4b3c-96c6-ee7a5cced3d0","system_id":"levelo_inurba_marseille","lat":43.29674,"lon":5.376841,"is_reserved":false,"is_disabled":false,"rental_uris":{"android":"levelo://app?vid=a30461fe-cecb-4b3c-96c6-ee7a5cced3d0","ios":"levelo://app?vid=a30461fe-cecb-4b3c-96c6-ee7a5cced3d0"},"vehicle_type_id":"4","last_reported":1745392393,"current_range_meters":16400,"station_id":"ce4bgkh2rcd13ifvqbl0","pricing_plan_id":"cebpf4jnsgd1na2vs0mg"},{"bike_id":"6e0b1c01-6a8d-44fd-a45a-7c53164ee423","system_id":"levelo_inurba_marseille","lat":43.241829,"lon":5.397293,"is_reserved":false,"is_disabled":false,"rental_uris":{"android":"levelo://app?vid=6e0b1c01-6a8d-44fd-a45a-7c53164ee423","ios":"levelo://app?vid=6e0b1c01-6a8d-44fd-a45a-7c53164ee423"},"vehicle_type_id":"4","last_reported":1745392393,"current_range_meters":16400,"station_id":"ce4bhn12rcd13ifvqgpg","pricing_plan_id":"cebpf4jnsgd1na2vs0mg"},{"bike_id":"34d18faf-fe69-46ed-a4a9-9e404cad30f2","system_id":"levelo_inurba_marseille","lat":43.30906,"lon":5.36846,"is_reserved":false,"is_disabled":false,"rental_uris":{"android":"levelo://app?vid=34d18faf-fe69-46ed-a4a9-9e404cad30f2","ios":"levelo://app?vid=34d18faf-fe69-46ed-a4a9-9e404cad30f2"},"vehicle_type_id":"4","last_reported":1745392393,"current_range_meters":16400,"station_id":"ce4bgn92rcd13ifvqbvg","pricing_plan_id":"cebpf4jnsgd1na2vs0mg"},{"bike_id":"bceb8cba-0252-464f-a7c9-f9b4548f7a27","system_id":"levelo_inurba_marseille","lat":43.28074,"lon":5.39653,"is_reserved":false,"is_disabled":true,"rental_uris":{"android":"levelo://app?vid=bceb8cba-0252-464f-a7c9-f9b4548f7a27","ios":"levelo://app?vid=bceb8cba-0252-464f-a7c9-f9b4548f7a27"},"vehicle_type_id":"4","last_reported":1745392393,"current_range_meters":16400,"station_id":"ce4bho12rcd13ifvqh2g","pricing_plan_id":"cebpf4jnsgd1na2vs0mg"},{"bike_id":"db6c3ea9-7917-44bd-958f-99f8a50fb72d","system_id":"levelo_inurba_marseille","lat":43.30906,"lon":5.36851,"is_reserved":false,"is_disabled":false,"rental_uris":{"android":"levelo://app?vid=db6c3ea9-7917-44bd-958f-99f8a50fb72d","ios":"levelo://app?vid=db6c3ea9-7917-44bd-958f-99f8a50fb72d"},"vehicle_type_id":"4","last_reported":1745392393,"current_range_meters":16400,"station_id":"ce4bgn92rcd13ifvqbvg","pricing_plan_id":"cebpf4jnsgd1na2vs0mg"},{"bike_id":"8c3cf1dd-f4c6-4ccd-b34d-a8078fffe119","system_id":"levelo_inurba_marseille","lat":43.290373,"lon":5.375506,"is_reserved":false,"is_disabled":true,"rental_uris":{"android":"levelo://app?vid=8c3cf1dd-f4c6-4ccd-b34d-a8078fffe119","ios":"levelo://app?vid=8c3cf1dd-f4c6-4ccd-b34d-a8078fffe119"},"vehicle_type_id":"4","last_reported":1745392393,"current_range_meters":16800,"station_id":"ce4bh692rcd13ifvqe90","pricing_plan_id":"cebpf4jnsgd1na2vs0mg"},{"bike_id":"b80022cb-a29e-4744-b1c0-16d659917ee2","system_id":"levelo_inurba_marseille","lat":43.29843,"lon":5.36269,"is_reserved":false,"is_disabled":false,"rental_uris":{"android":"levelo://app?vid=b80022cb-a29e-4744-b1c0-16d659917ee2","ios":"levelo://app?vid=b80022cb-a29e-4744-b1c0-16d659917ee2"},"vehicle_type_id":"4","last_reported":1745392393,"current_range_meters":16400,"station_id":"ce4bgpp2rcd13ifvqc3g","pricing_plan_id":"cebpf4jnsgd1na2vs0mg"},{"bike_id":"02a40b03-b567-43bf-a8de-5120621bb488","system_id":"levelo_inurba_marseille","lat":43.23066,"lon":5.3549,"is_reserved":false,"is_disabled":false,"rental_uris":{"android":"levelo://app?vid=02a40b03-b567-43bf-a8de-5120621bb488","ios":"levelo://app?vid=02a40b03-b567-43bf-a8de-5120621bb488"},"vehicle_type_id":"4","last_reported":1745392393,"current_range_meters":16800,"station_id":"cpo3342slgdg3j2ifvpg","pricing_plan_id":"cebpf4jnsgd1na2vs0mg"},{"bike_id":"2685848c-9b18-4d36-80b5-625cbafb53e0","system_id":"levelo_inurba_marseille","lat":43.3016,"lon":5.38082,"is_reserved":false,"is_disabled":false,"rental_uris":{"android":"levelo://app?vid=2685848c-9b18-4d36-80b5-625cbafb53e0","ios":"levelo://app?vid=2685848c-9b18-4d36-80b5-625cbafb53e0"},"vehicle_type_id":"4","last_reported":1745392393,"current_range_meters":16800,"station_id":"ce4bgjp2rcd13ifvqbh0","pricing_plan_id":"cebpf4jnsgd1na2vs0mg"},{"bike_id":"0fc45f9b-42c0-417a-adc3-1ca1da8782a7","system_id":"levelo_inurba_marseille","lat":43.33771,"lon":5.37484,"is_reserved":false,"is_disabled":false,"rental_uris":{"android":"levelo://app?vid=0fc45f9b-42c0-417a-adc3-1ca1da8782a7","ios":"levelo://app?vid=0fc45f9b-42c0-417a-adc3-1ca1da8782a7"},"vehicle_type_id":"4","last_reported":1745392393,"current_range_meters":17200,"station_id":"","pricing_plan_id":"cebpf4jnsgd1na2vs0mg"},{"bike_id":"b5d609bf-0c9b-49e3-9426-ce02cb8383b8","system_id":"levelo_inurba_marseille","lat":43.3415,"lon":5.40917,"is_reserved":false,"is_disabled":true,"rental_uris":{"android":"levelo://app?vid=b5d609bf-0c9b-49e3-9426-ce02cb8383b8","ios":"levelo://app?vid=b5d609bf-0c9b-49e3-9426-ce02cb8383b8"},"vehicle_type_id":"4","last_reported":1745392393,"current_range_meters":17200,"station_id":"ce4bhqh2rcd13ifvqhlg","pricing_plan_id":"cebpf4jnsgd1na2vs0mg"},{"bike_id":"996046b0-ff39-4ce4-8979-a60dca7b9bfc","system_id":"levelo_inurba_marseille","lat":43.31226,"lon":5.36874,"is_reserved":false,"is_disabled":false,"rental_uris":{"android":"levelo://app?vid=996046b0-ff39-4ce4-8979-a60dca7b9bfc","ios":"levelo://app?vid=996046b0-ff39-4ce4-8979-a60dca7b9bfc"},"vehicle_type_id":"4","last_reported":1745392393,"current_range_meters":17200,"station_id":"ce4bgl92rcd13ifvqbq0","pricing_plan_id":"cebpf4jnsgd1na2vs0mg"},{"bike_id":"a5588965-43f6-457c-a175-2d7ddf9f4595","system_id":"levelo_inurba_marseille","lat":43.32011,"lon":5.38147,"is_reserved":false,"is_disabled":true,"rental_uris":{"android":"levelo://app?vid=a5588965-43f6-457c-a175-2d7ddf9f4595","ios":"levelo://app?vid=a5588965-43f6-457c-a175-2d7ddf9f4595"},"vehicle_type_id":"4","last_reported":1745392393,"current_range_meters":17200,"station_id":"ce4bhr12rcd13ifvqhpg","pricing_plan_id":"cebpf4jnsgd1na2vs0mg"},{"bike_id":"46374c49-3adc-4c5a-8966-e00f056c0d57","system_id":"levelo_inurba_marseille","lat":43.27846,"lon":5.35442,"is_reserved":false,"is_disabled":false,"rental_uris":{"android":"levelo://app?vid=46374c49-3adc-4c5a-8966-e00f056c0d57","ios":"levelo://app?vid=46374c49-3adc-4c5a-8966-e00f056c0d57"},"vehicle_type_id":"4","last_reported":1745392393,"current_range_meters":17200,"station_id":"","pricing_plan_id":"cebpf4jnsgd1na2vs0mg"},{"bike_id":"ee6abf3a-de63-4f34-8c94-cc1d6db0ba2f","system_id":"levelo_inurba_marseille","lat":43.309,"lon":5.36844,"is_reserved":false,"is_disabled":true,"rental_uris":{"android":"levelo://app?vid=ee6abf3a-de63-4f34-8c94-cc1d6db0ba2f","ios":"levelo://app?vid=ee6abf3a-de63-4f34-8c94-cc1d6db0ba2f"},"vehicle_type_id":"4","last_reported":1745392393,"current_range_meters":17200,"station_id":"ce4bgn92rcd13ifvqbvg","pricing_plan_id":"cebpf4jnsgd1na2vs0mg"},{"bike_id":"9ba8f7bc-16fc-40e4-9c35-a8f152da382c","system_id":"levelo_inurba_marseille","lat":43.30539,"lon":5.36462,"is_reserved":false,"is_disabled":false,"rental_uris":{"android":"levelo://app?vid=9ba8f7bc-16fc-40e4-9c35-a8f152da382c","ios":"levelo://app?vid=9ba8f7bc-16fc-40e4-9c35-a8f152da382c"},"vehicle_type_id":"4","last_reported":1745392393,"current_range_meters":17200,"station_id":"ce4bgs12rcd13ifvqcag","pricing_plan_id":"cebpf4jnsgd1na2vs0mg"},{"bike_id":"f091d3e2-24bc-45c9-be56-c8d4b7bd7d6d","system_id":"levelo_inurba_marseille","lat":43.24076,"lon":5.37748,"is_reserved":false,"is_disabled":true,"rental_uris":{"android":"levelo://app?vid=f091d3e2-24bc-45c9-be56-c8d4b7bd7d6d","ios":"levelo://app?vid=f091d3e2-24bc-45c9-be56-c8d4b7bd7d6d"},"vehicle_type_id":"4","last_reported":1745392393,"current_range_meters":17200,"station_id":"ce4bhnp2rcd13ifvqgvg","pricing_plan_id":"cebpf4jnsgd1na2vs0mg"},{"bike_id":"993f60b1-3b47-455a-b4e8-ef04430cb758","system_id":"levelo_inurba_marseille","lat":43.29964,"lon":5.37184,"is_reserved":false,"is_disabled":false,"rental_uris":{"android":"levelo://app?vid=993f60b1-3b47-455a-b4e8-ef04430cb758","ios":"levelo://app?vid=993f60b1-3b47-455a-b4e8-ef04430cb758"},"vehicle_type_id":"4","last_reported":1745392393,"current_range_meters":17200,"station_id":"ce4bgr92rcd13ifvqc7g","pricing_plan_id":"cebpf4jnsgd1na2vs0mg"},{"bike_id":"96b0f47a-df73-4c76-a290-a8c86dfa6161","system_id":"levelo_inurba_marseille","lat":43.3252,"lon":5.41475,"is_reserved":false,"is_disabled":false,"rental_uris":{"android":"levelo://app?vid=96b0f47a-df73-4c76-a290-a8c86dfa6161","ios":"levelo://app?vid=96b0f47a-df73-4c76-a290-a8c86dfa6161"},"vehicle_type_id":"4","last_reported":1745392393,"current_range_meters":17600,"station_id":"ce4bhq12rcd13ifvqhhg","pricing_plan_id":"cebpf4jnsgd1na2vs0mg"},{"bike_id":"b0ce2799-7f00-4ef2-ab0e-b82d607b9a18","system_id":"levelo_inurba_marseille","lat":43.24078,"lon":5.37751,"is_reserved":false,"is_disabled":false,"rental_uris":{"android":"levelo://app?vid=b0ce2799-7f00-4ef2-ab0e-b82d607b9a18","ios":"levelo://app?vid=b0ce2799-7f00-4ef2-ab0e-b82d607b9a18"},"vehicle_type_id":"4","last_reported":1745392393,"current_range_meters":17600,"station_id":"ce4bhnp2rcd13ifvqgvg","pricing_plan_id":"cebpf4jnsgd1na2vs0mg"},{"bike_id":"5b944e3a-049f-4b5c-b668-2454af095ede","system_id":"levelo_inurba_marseille","lat":43.246611,"lon":5.381656,"is_reserved":false,"is_disabled":false,"rental_uris":{"android":"levelo://app?vid=5b944e3a-049f-4b5c-b668-2454af095ede","ios":"levelo://app?vid=5b944e3a-049f-4b5c-b668-2454af095ede"},"vehicle_type_id":"4","last_reported":1745392393,"current_range_meters":17600,"station_id":"ce4bhhp2rcd13ifvqfm0","pricing_plan_id":"cebpf4jnsgd1na2vs0mg"},{"bike_id":"b244cdd7-891e-41d3-bbdf-d6e3de24d190","system_id":"levelo_inurba_marseille","lat":43.29169,"lon":5.35796,"is_reserved":false,"is_disabled":true,"rental_uris":{"android":"levelo://app?vid=b244cdd7-891e-41d3-bbdf-d6e3de24d190","ios":"levelo://app?vid=b244cdd7-891e-41d3-bbdf-d6e3de24d190"},"vehicle_type_id":"4","last_reported":1745392393,"current_range_meters":18000,"station_id":"ce4bhb12rcd13ifvqel0","pricing_plan_id":"cebpf4jnsgd1na2vs0mg"},{"bike_id":"34092322-88d5-49d6-98c0-54da3aae8180","system_id":"levelo_inurba_marseille","lat":43.30371,"lon":5.42514,"is_reserved":false,"is_disabled":false,"rental_uris":{"android":"levelo://app?vid=34092322-88d5-49d6-98c0-54da3aae8180","ios":"levelo://app?vid=34092322-88d5-49d6-98c0-54da3aae8180"},"vehicle_type_id":"4","last_reported":1745392393,"current_range_meters":18000,"station_id":"ce4bhoh2rcd13ifvqh6g","pricing_plan_id":"cebpf4jnsgd1na2vs0mg"},{"bike_id":"54f8f3e5-2c12-44ca-af69-1f20e4bb77ae","system_id":"levelo_inurba_marseille","lat":43.26678,"lon":5.38274,"is_reserved":false,"is_disabled":false,"rental_uris":{"android":"levelo://app?vid=54f8f3e5-2c12-44ca-af69-1f20e4bb77ae","ios":"levelo://app?vid=54f8f3e5-2c12-44ca-af69-1f20e4bb77ae"},"vehicle_type_id":"4","last_reported":1745392393,"current_range_meters":18000,"station_id":"ce4bhg92rcd13ifvqf90","pricing_plan_id":"cebpf4jnsgd1na2vs0mg"},{"bike_id":"9966e2c4-c438-4020-9570-af75c54f7699","system_id":"levelo_inurba_marseille","lat":43.2514,"lon":5.40287,"is_reserved":false,"is_disabled":false,"rental_uris":{"android":"levelo://app?vid=9966e2c4-c438-4020-9570-af75c54f7699","ios":"levelo://app?vid=9966e2c4-c438-4020-9570-af75c54f7699"},"vehicle_type_id":"4","last_reported":1745392393,"current_range_meters":18000,"station_id":"","pricing_plan_id":"cebpf4jnsgd1na2vs0mg"},{"bike_id":"012877b6-e9c9-482d-997f-6a78ad0ac83b","system_id":"levelo_inurba_marseille","lat":43.30448,"lon":5.37917,"is_reserved":false,"is_disabled":false,"rental_uris":{"android":"levelo://app?vid=012877b6-e9c9-482d-997f-6a78ad0ac83b","ios":"levelo://app?vid=012877b6-e9c9-482d-997f-6a78ad0ac83b"},"vehicle_type_id":"4","last_reported":1745392393,"current_range_meters":18000,"station_id":"ce4bgup2rcd13ifvqcn0","pricing_plan_id":"cebpf4jnsgd1na2vs0mg"},{"bike_id":"5b69f3f7-7c84-4a11-807e-413e990bc4b9","system_id":"levelo_inurba_marseille","lat":43.286607,"lon":5.386681,"is_reserved":false,"is_disabled":false,"rental_uris":{"android":"levelo://app?vid=5b69f3f7-7c84-4a11-807e-413e990bc4b9","ios":"levelo://app?vid=5b69f3f7-7c84-4a11-807e-413e990bc4b9"},"vehicle_type_id":"4","last_reported":1745392393,"current_range_meters":18800,"station_id":"ce4bh492rcd13ifvqdug","pricing_plan_id":"cebpf4jnsgd1na2vs0mg"},{"bike_id":"c54120d8-8a96-4ca5-a3cf-5a8618347747","system_id":"levelo_inurba_marseille","lat":43.312781,"lon":5.401839,"is_reserved":false,"is_disabled":false,"rental_uris":{"android":"levelo://app?vid=c54120d8-8a96-4ca5-a3cf-5a8618347747","ios":"levelo://app?vid=c54120d8-8a96-4ca5-a3cf-5a8618347747"},"vehicle_type_id":"4","last_reported":1745392393,"current_range_meters":18800,"station_id":"ce4bh012rcd13ifvqd00","pricing_plan_id":"cebpf4jnsgd1na2vs0mg"},{"bike_id":"14a06041-5c54-446a-9cbf-931eea35999d","system_id":"levelo_inurba_marseille","lat":43.2679,"lon":5.39408,"is_reserved":false,"is_disabled":false,"rental_uris":{"android":"levelo://app?vid=14a06041-5c54-446a-9cbf-931eea35999d","ios":"levelo://app?vid=14a06041-5c54-446a-9cbf-931eea35999d"},"vehicle_type_id":"4","last_reported":1745392393,"current_range_meters":18800,"station_id":"ce4bhh12rcd13ifvqfg0","pricing_plan_id":"cebpf4jnsgd1na2vs0mg"},{"bike_id":"dc0a47a3-e95c-4b5c-91ea-602c9dce4fa5","system_id":"levelo_inurba_marseille","lat":43.23196,"lon":5.39985,"is_reserved":false,"is_disabled":false,"rental_uris":{"android":"levelo://app?vid=dc0a47a3-e95c-4b5c-91ea-602c9dce4fa5","ios":"levelo://app?vid=dc0a47a3-e95c-4b5c-91ea-602c9dce4fa5"},"vehicle_type_id":"4","last_reported":1745392393,"current_range_meters":18800,"station_id":"ce4bhn12rcd13ifvqgqg","pricing_plan_id":"cebpf4jnsgd1na2vs0mg"},{"bike_id":"320ec9d6-8c0f-4a3e-92d3-ff6071a886ea","system_id":"levelo_inurba_marseille","lat":43.284333,"lon":5.382381,"is_reserved":false,"is_disabled":true,"rental_uris":{"android":"levelo://app?vid=320ec9d6-8c0f-4a3e-92d3-ff6071a886ea","ios":"levelo://app?vid=320ec9d6-8c0f-4a3e-92d3-ff6071a886ea"},"vehicle_type_id":"4","last_reported":1745392393,"current_range_meters":18800,"station_id":"","pricing_plan_id":"cebpf4jnsgd1na2vs0mg"},{"bike_id":"2c210749-934e-4075-8f69-64b44da87771","system_id":"levelo_inurba_marseille","lat":43.30316,"lon":5.392,"is_reserved":false,"is_disabled":true,"rental_uris":{"android":"levelo://app?vid=2c210749-934e-4075-8f69-64b44da87771","ios":"levelo://app?vid=2c210749-934e-4075-8f69-64b44da87771"},"vehicle_type_id":"4","last_reported":1745392393,"current_range_meters":18800,"station_id":"ce4bgkh2rcd13ifvqbk0","pricing_plan_id":"cebpf4jnsgd1na2vs0mg"},{"bike_id":"f14e05df-6b48-48e9-a4b2-0a922790be98","system_id":"levelo_inurba_marseille","lat":43.29263,"lon":5.36851,"is_reserved":false,"is_disabled":true,"rental_uris":{"android":"levelo://app?vid=f14e05df-6b48-48e9-a4b2-0a922790be98","ios":"levelo://app?vid=f14e05df-6b48-48e9-a4b2-0a922790be98"},"vehicle_type_id":"4","last_reported":1745392393,"current_range_meters":18800,"station_id":"ce4bhbp2rcd13ifvqesg","pricing_plan_id":"cebpf4jnsgd1na2vs0mg"},{"bike_id":"eb400fa7-2d22-45f8-b10f-e0a923fe9d3b","system_id":"levelo_inurba_marseille","lat":43.30881,"lon":5.37201,"is_reserved":false,"is_disabled":false,"rental_uris":{"android":"levelo://app?vid=eb400fa7-2d22-45f8-b10f-e0a923fe9d3b","ios":"levelo://app?vid=eb400fa7-2d22-45f8-b10f-e0a923fe9d3b"},"vehicle_type_id":"4","last_reported":1745392393,"current_range_meters":18800,"station_id":"ce4bguh2rcd13ifvqckg","pricing_plan_id":"cebpf4jnsgd1na2vs0mg"},{"bike_id":"930f5135-5c9f-4791-b301-ad8260a53907","system_id":"levelo_inurba_marseille","lat":43.2408,"lon":5.37756,"is_reserved":false,"is_disabled":false,"rental_uris":{"android":"levelo://app?vid=930f5135-5c9f-4791-b301-ad8260a53907","ios":"levelo://app?vid=930f5135-5c9f-4791-b301-ad8260a53907"},"vehicle_type_id":"4","last_reported":1745392393,"current_range_meters":18800,"station_id":"ce4bhnp2rcd13ifvqgvg","pricing_plan_id":"cebpf4jnsgd1na2vs0mg"},{"bike_id":"6eefc99d-8db8-40d1-b867-e66893ab6dc0","system_id":"levelo_inurba_marseille","lat":43.31752,"lon":5.40427,"is_reserved":false,"is_disabled":false,"rental_uris":{"android":"levelo://app?vid=6eefc99d-8db8-40d1-b867-e66893ab6dc0","ios":"levelo://app?vid=6eefc99d-8db8-40d1-b867-e66893ab6dc0"},"vehicle_type_id":"4","last_reported":1745392393,"current_range_meters":18800,"station_id":"","pricing_plan_id":"cebpf4jnsgd1na2vs0mg"},{"bike_id":"0ea362ce-4354-4f0f-acc7-962b146816c7","system_id":"levelo_inurba_marseille","lat":43.25866,"lon":5.39916,"is_reserved":false,"is_disabled":true,"rental_uris":{"android":"levelo://app?vid=0ea362ce-4354-4f0f-acc7-962b146816c7","ios":"levelo://app?vid=0ea362ce-4354-4f0f-acc7-962b146816c7"},"vehicle_type_id":"4","last_reported":1745392393,"current_range_meters":19200,"station_id":"ce4bhl92rcd13ifvqghg","pricing_plan_id":"cebpf4jnsgd1na2vs0mg"},{"bike_id":"4fedfb49-83f3-4631-a649-95120b7062f4","system_id":"levelo_inurba_marseille","lat":43.2996,"lon":5.37184,"is_reserved":false,"is_disabled":false,"rental_uris":{"android":"levelo://app?vid=4fedfb49-83f3-4631-a649-95120b7062f4","ios":"levelo://app?vid=4fedfb49-83f3-4631-a649-95120b7062f4"},"vehicle_type_id":"4","last_reported":1745392393,"current_range_meters":19200,"station_id":"ce4bgr92rcd13ifvqc7g","pricing_plan_id":"cebpf4jnsgd1na2vs0mg"},{"bike_id":"b3e0bade-3510-47ea-8341-f007e09b081f","system_id":"levelo_inurba_marseille","lat":43.30558,"lon":5.36525,"is_reserved":false,"is_disabled":false,"rental_uris":{"android":"levelo://app?vid=b3e0bade-3510-47ea-8341-f007e09b081f","ios":"levelo://app?vid=b3e0bade-3510-47ea-8341-f007e09b081f"},"vehicle_type_id":"4","last_reported":1745392393,"current_range_meters":19200,"station_id":"ce4bgs12rcd13ifvqcag","pricing_plan_id":"cebpf4jnsgd1na2vs0mg"},{"bike_id":"685e0e3c-e8c7-47dc-9a5c-5435c3adb342","system_id":"levelo_inurba_marseille","lat":43.33607,"lon":5.41021,"is_reserved":false,"is_disabled":false,"rental_uris":{"android":"levelo://app?vid=685e0e3c-e8c7-47dc-9a5c-5435c3adb342","ios":"levelo://app?vid=685e0e3c-e8c7-47dc-9a5c-5435c3adb342"},"vehicle_type_id":"4","last_reported":1745392393,"current_range_meters":19200,"station_id":"ce4bhqh2rcd13ifvqhmg","pricing_plan_id":"cebpf4jnsgd1na2vs0mg"},{"bike_id":"376281fa-382e-412f-a72f-91bccca84266","system_id":"levelo_inurba_marseille","lat":43.30965,"lon":5.3905,"is_reserved":false,"is_disabled":false,"rental_uris":{"android":"levelo://app?vid=376281fa-382e-412f-a72f-91bccca84266","ios":"levelo://app?vid=376281fa-382e-412f-a72f-91bccca84266"},"vehicle_type_id":"4","last_reported":1745392393,"current_range_meters":19200,"station_id":"ce4bgup2rcd13ifvqco0","pricing_plan_id":"cebpf4jnsgd1na2vs0mg"},{"bike_id":"226e6333-fb0d-4627-90a8-ba0a8a90ba08","system_id":"levelo_inurba_marseille","lat":43.30458,"lon":5.37906,"is_reserved":false,"is_disabled":false,"rental_uris":{"android":"levelo://app?vid=226e6333-fb0d-4627-90a8-ba0a8a90ba08","ios":"levelo://app?vid=226e6333-fb0d-4627-90a8-ba0a8a90ba08"},"vehicle_type_id":"4","last_reported":1745392393,"current_range_meters":19200,"station_id":"ce4bgup2rcd13ifvqcn0","pricing_plan_id":"cebpf4jnsgd1na2vs0mg"},{"bike_id":"1f5ab074-1d30-4020-a5fc-8600877a1626","system_id":"levelo_inurba_marseille","lat":43.29603,"lon":5.37719,"is_reserved":false,"is_disabled":true,"rental_uris":{"android":"levelo://app?vid=1f5ab074-1d30-4020-a5fc-8600877a1626","ios":"levelo://app?vid=1f5ab074-1d30-4020-a5fc-8600877a1626"},"vehicle_type_id":"4","last_reported":1745392393,"current_range_meters":19600,"station_id":"ce4bgi92rcd13ifvqb90","pricing_plan_id":"cebpf4jnsgd1na2vs0mg"},{"bike_id":"f39a5ed8-2be4-4254-916e-d88677df50a0","system_id":"levelo_inurba_marseille","lat":43.27487,"lon":5.42465,"is_reserved":false,"is_disabled":false,"rental_uris":{"android":"levelo://app?vid=f39a5ed8-2be4-4254-916e-d88677df50a0","ios":"levelo://app?vid=f39a5ed8-2be4-4254-916e-d88677df50a0"},"vehicle_type_id":"4","last_reported":1745392393,"current_range_meters":19600,"station_id":"ce4bhn92rcd13ifvqgrg","pricing_plan_id":"cebpf4jnsgd1na2vs0mg"},{"bike_id":"2e7a06cd-adea-4c7d-926e-721cb1eb3eb7","system_id":"levelo_inurba_marseille","lat":43.26687,"lon":5.38273,"is_reserved":false,"is_disabled":false,"rental_uris":{"android":"levelo://app?vid=2e7a06cd-adea-4c7d-926e-721cb1eb3eb7","ios":"levelo://app?vid=2e7a06cd-adea-4c7d-926e-721cb1eb3eb7"},"vehicle_type_id":"4","last_reported":1745392393,"current_range_meters":19200,"station_id":"ce4bhg92rcd13ifvqf90","pricing_plan_id":"cebpf4jnsgd1na2vs0mg"},{"bike_id":"a50c0add-04db-4008-88e1-60ef015df2b9","system_id":"levelo_inurba_marseille","lat":43.33611,"lon":5.41029,"is_reserved":false,"is_disabled":false,"rental_uris":{"android":"levelo://app?vid=a50c0add-04db-4008-88e1-60ef015df2b9","ios":"levelo://app?vid=a50c0add-04db-4008-88e1-60ef015df2b9"},"vehicle_type_id":"4","last_reported":1745392393,"current_range_meters":19600,"station_id":"ce4bhqh2rcd13ifvqhmg","pricing_plan_id":"cebpf4jnsgd1na2vs0mg"},{"bike_id":"a5065d97-7279-4678-9afe-d34eef0cb689","system_id":"levelo_inurba_marseille","lat":43.26674,"lon":5.38268,"is_reserved":false,"is_disabled":true,"rental_uris":{"android":"levelo://app?vid=a5065d97-7279-4678-9afe-d34eef0cb689","ios":"levelo://app?vid=a5065d97-7279-4678-9afe-d34eef0cb689"},"vehicle_type_id":"4","last_reported":1745392393,"current_range_meters":19600,"station_id":"ce4bhg92rcd13ifvqf90","pricing_plan_id":"cebpf4jnsgd1na2vs0mg"},{"bike_id":"ddc049ae-54bf-499e-a9ee-0454fddc53b0","system_id":"levelo_inurba_marseille","lat":43.322876,"lon":5.382709,"is_reserved":false,"is_disabled":false,"rental_uris":{"android":"levelo://app?vid=ddc049ae-54bf-499e-a9ee-0454fddc53b0","ios":"levelo://app?vid=ddc049ae-54bf-499e-a9ee-0454fddc53b0"},"vehicle_type_id":"4","last_reported":1745392393,"current_range_meters":19600,"station_id":"ce4bhq12rcd13ifvqhhg","pricing_plan_id":"cebpf4jnsgd1na2vs0mg"},{"bike_id":"dbfff2e6-a14f-420e-b419-91ec50a81435","system_id":"levelo_inurba_marseille","lat":43.29851,"lon":5.3629,"is_reserved":false,"is_disabled":false,"rental_uris":{"android":"levelo://app?vid=dbfff2e6-a14f-420e-b419-91ec50a81435","ios":"levelo://app?vid=dbfff2e6-a14f-420e-b419-91ec50a81435"},"vehicle_type_id":"4","last_reported":1745392393,"current_range_meters":19200,"station_id":"ce4bgpp2rcd13ifvqc3g","pricing_plan_id":"cebpf4jnsgd1na2vs0mg"},{"bike_id":"ec823ba1-b633-407d-96e3-851a579ae1d9","system_id":"levelo_inurba_marseille","lat":43.24079,"lon":5.37753,"is_reserved":false,"is_disabled":false,"rental_uris":{"android":"levelo://app?vid=ec823ba1-b633-407d-96e3-851a579ae1d9","ios":"levelo://app?vid=ec823ba1-b633-407d-96e3-851a579ae1d9"},"vehicle_type_id":"4","last_reported":1745392393,"current_range_meters":19600,"station_id":"ce4bhnp2rcd13ifvqgvg","pricing_plan_id":"cebpf4jnsgd1na2vs0mg"},{"bike_id":"5b94ea54-20c4-4d7c-a801-63e423b7ca07","system_id":"levelo_inurba_marseille","lat":43.28147,"lon":5.42638,"is_reserved":false,"is_disabled":false,"rental_uris":{"android":"levelo://app?vid=5b94ea54-20c4-4d7c-a801-63e423b7ca07","ios":"levelo://app?vid=5b94ea54-20c4-4d7c-a801-63e423b7ca07"},"vehicle_type_id":"4","last_reported":1745392393,"current_range_meters":19600,"station_id":"ce4bhnh2rcd13ifvqgug","pricing_plan_id":"cebpf4jnsgd1na2vs0mg"},{"bike_id":"78075534-fafe-48a3-9cf7-265307059b78","system_id":"levelo_inurba_marseille","lat":43.29025,"lon":5.37574,"is_reserved":false,"is_disabled":false,"rental_uris":{"android":"levelo://app?vid=78075534-fafe-48a3-9cf7-265307059b78","ios":"levelo://app?vid=78075534-fafe-48a3-9cf7-265307059b78"},"vehicle_type_id":"4","last_reported":1745392393,"current_range_meters":19200,"station_id":"ce4bh692rcd13ifvqe90","pricing_plan_id":"cebpf4jnsgd1na2vs0mg"},{"bike_id":"c74c4806-b340-4b33-a8ef-ae1db8d6c100","system_id":"levelo_inurba_marseille","lat":43.24075,"lon":5.37762,"is_reserved":false,"is_disabled":false,"rental_uris":{"android":"levelo://app?vid=c74c4806-b340-4b33-a8ef-ae1db8d6c100","ios":"levelo://app?vid=c74c4806-b340-4b33-a8ef-ae1db8d6c100"},"vehicle_type_id":"4","last_reported":1745392393,"current_range_meters":20000,"station_id":"ce4bhnp2rcd13ifvqgvg","pricing_plan_id":"cebpf4jnsgd1na2vs0mg"},{"bike_id":"f9e03743-d133-4ab7-a384-4df5473e2e58","system_id":"levelo_inurba_marseille","lat":43.310565,"lon":5.369656,"is_reserved":false,"is_disabled":false,"rental_uris":{"android":"levelo://app?vid=f9e03743-d133-4ab7-a384-4df5473e2e58","ios":"levelo://app?vid=f9e03743-d133-4ab7-a384-4df5473e2e58"},"vehicle_type_id":"4","last_reported":1745392393,"current_range_meters":20000,"station_id":"ce4bgr92rcd13ifvqc6g","pricing_plan_id":"cebpf4jnsgd1na2vs0mg"},{"bike_id":"0dbd16cb-d623-476a-8eb6-78bf303e9d95","system_id":"levelo_inurba_marseille","lat":43.24076,"lon":5.3775,"is_reserved":false,"is_disabled":false,"rental_uris":{"android":"levelo://app?vid=0dbd16cb-d623-476a-8eb6-78bf303e9d95","ios":"levelo://app?vid=0dbd16cb-d623-476a-8eb6-78bf303e9d95"},"vehicle_type_id":"4","last_reported":1745392393,"current_range_meters":20000,"station_id":"ce4bhnp2rcd13ifvqgvg","pricing_plan_id":"cebpf4jnsgd1na2vs0mg"},{"bike_id":"8db79dc9-68ab-4962-8553-c4438607d41f","system_id":"levelo_inurba_marseille","lat":43.29314,"lon":5.3745,"is_reserved":false,"is_disabled":false,"rental_uris":{"android":"levelo://app?vid=8db79dc9-68ab-4962-8553-c4438607d41f","ios":"levelo://app?vid=8db79dc9-68ab-4962-8553-c4438607d41f"},"vehicle_type_id":"4","last_reported":1745392393,"current_range_meters":20000,"station_id":"ce4bgi12rcd13ifvqb70","pricing_plan_id":"cebpf4jnsgd1na2vs0mg"},{"bike_id":"03466a7d-f254-453b-a55b-65f25cff25fc","system_id":"levelo_inurba_marseille","lat":43.28077,"lon":5.3966,"is_reserved":false,"is_disabled":false,"rental_uris":{"android":"levelo://app?vid=03466a7d-f254-453b-a55b-65f25cff25fc","ios":"levelo://app?vid=03466a7d-f254-453b-a55b-65f25cff25fc"},"vehicle_type_id":"4","last_reported":1745392393,"current_range_meters":20000,"station_id":"ce4bho12rcd13ifvqh2g","pricing_plan_id":"cebpf4jnsgd1na2vs0mg"},{"bike_id":"a3deb391-d051-4d06-873b-d532574ef949","system_id":"levelo_inurba_marseille","lat":43.3094,"lon":5.39035,"is_reserved":false,"is_disabled":false,"rental_uris":{"android":"levelo://app?vid=a3deb391-d051-4d06-873b-d532574ef949","ios":"levelo://app?vid=a3deb391-d051-4d06-873b-d532574ef949"},"vehicle_type_id":"4","last_reported":1745392393,"current_range_meters":20000,"station_id":"ce4bhh12rcd13ifvqfg0","pricing_plan_id":"cebpf4jnsgd1na2vs0mg"},{"bike_id":"7f4c3b02-135e-4c8b-ae41-58f43c6a5eeb","system_id":"levelo_inurba_marseille","lat":43.32481,"lon":5.3656,"is_reserved":false,"is_disabled":false,"rental_uris":{"android":"levelo://app?vid=7f4c3b02-135e-4c8b-ae41-58f43c6a5eeb","ios":"levelo://app?vid=7f4c3b02-135e-4c8b-ae41-58f43c6a5eeb"},"vehicle_type_id":"4","last_reported":1745392393,"current_range_meters":20000,"station_id":"ce4bhs12rcd13ifvqhvg","pricing_plan_id":"cebpf4jnsgd1na2vs0mg"},{"bike_id":"0f622e9a-5b72-49cf-ab5f-2f242fb51644","system_id":"levelo_inurba_marseille","lat":43.3375,"lon":5.37475,"is_reserved":false,"is_disabled":false,"rental_uris":{"android":"levelo://app?vid=0f622e9a-5b72-49cf-ab5f-2f242fb51644","ios":"levelo://app?vid=0f622e9a-5b72-49cf-ab5f-2f242fb51644"},"vehicle_type_id":"4","last_reported":1745392393,"current_range_meters":20000,"station_id":"","pricing_plan_id":"cebpf4jnsgd1na2vs0mg"},{"bike_id":"99a764d9-c775-4ca6-a51a-b13cec54798f","system_id":"levelo_inurba_marseille","lat":43.30446,"lon":5.3791,"is_reserved":false,"is_disabled":false,"rental_uris":{"android":"levelo://app?vid=99a764d9-c775-4ca6-a51a-b13cec54798f","ios":"levelo://app?vid=99a764d9-c775-4ca6-a51a-b13cec54798f"},"vehicle_type_id":"4","last_reported":1745392393,"current_range_meters":20000,"station_id":"ce4bgup2rcd13ifvqcn0","pricing_plan_id":"cebpf4jnsgd1na2vs0mg"},{"bike_id":"b8fb165a-8bde-4bbe-a3eb-ad74c528b8d4","system_id":"levelo_inurba_marseille","lat":43.22929,"lon":5.35377,"is_reserved":false,"is_disabled":false,"rental_uris":{"android":"levelo://app?vid=b8fb165a-8bde-4bbe-a3eb-ad74c528b8d4","ios":"levelo://app?vid=b8fb165a-8bde-4bbe-a3eb-ad74c528b8d4"},"vehicle_type_id":"4","last_reported":1745392393,"current_range_meters":20000,"station_id":"cpo3532slgdg3j2ikp40","pricing_plan_id":"cebpf4jnsgd1na2vs0mg"},{"bike_id":"ea6a9e66-60b6-4c95-b7cc-3d5186cd1aa0","system_id":"levelo_inurba_marseille","lat":43.30959,"lon":5.39045,"is_reserved":false,"is_disabled":false,"rental_uris":{"android":"levelo://app?vid=ea6a9e66-60b6-4c95-b7cc-3d5186cd1aa0","ios":"levelo://app?vid=ea6a9e66-60b6-4c95-b7cc-3d5186cd1aa0"},"vehicle_type_id":"4","last_reported":1745392393,"current_range_meters":20000,"station_id":"ce4bgup2rcd13ifvqco0","pricing_plan_id":"cebpf4jnsgd1na2vs0mg"},{"bike_id":"29e979ef-9800-4cb9-87ac-63a3555cbb2c","system_id":"levelo_inurba_marseille","lat":43.30909,"lon":5.36847,"is_reserved":false,"is_disabled":false,"rental_uris":{"android":"levelo://app?vid=29e979ef-9800-4cb9-87ac-63a3555cbb2c","ios":"levelo://app?vid=29e979ef-9800-4cb9-87ac-63a3555cbb2c"},"vehicle_type_id":"4","last_reported":1745392393,"current_range_meters":20400,"station_id":"","pricing_plan_id":"cebpf4jnsgd1na2vs0mg"},{"bike_id":"a09d1f25-50a0-4a39-938f-8708b336d9f8","system_id":"levelo_inurba_marseille","lat":43.33719,"lon":5.39184,"is_reserved":false,"is_disabled":false,"rental_uris":{"android":"levelo://app?vid=a09d1f25-50a0-4a39-938f-8708b336d9f8","ios":"levelo://app?vid=a09d1f25-50a0-4a39-938f-8708b336d9f8"},"vehicle_type_id":"4","last_reported":1745392393,"current_range_meters":20400,"station_id":"ce4bhr92rcd13ifvqhsg","pricing_plan_id":"cebpf4jnsgd1na2vs0mg"},{"bike_id":"19a5e736-5fe5-4121-b3c9-245ae27e115c","system_id":"levelo_inurba_marseille","lat":43.28985,"lon":5.37839,"is_reserved":false,"is_disabled":true,"rental_uris":{"android":"levelo://app?vid=19a5e736-5fe5-4121-b3c9-245ae27e115c","ios":"levelo://app?vid=19a5e736-5fe5-4121-b3c9-245ae27e115c"},"vehicle_type_id":"4","last_reported":1745392393,"current_range_meters":20400,"station_id":"ce4bh9p2rcd13ifvqed0","pricing_plan_id":"cebpf4jnsgd1na2vs0mg"},{"bike_id":"3c1873a4-9e57-4613-8a83-980a19fe39b8","system_id":"levelo_inurba_marseille","lat":43.34141,"lon":5.40906,"is_reserved":false,"is_disabled":false,"rental_uris":{"android":"levelo://app?vid=3c1873a4-9e57-4613-8a83-980a19fe39b8","ios":"levelo://app?vid=3c1873a4-9e57-4613-8a83-980a19fe39b8"},"vehicle_type_id":"4","last_reported":1745392393,"current_range_meters":20000,"station_id":"ce4bhqh2rcd13ifvqhlg","pricing_plan_id":"cebpf4jnsgd1na2vs0mg"},{"bike_id":"1a90eb07-3eaf-45d0-ac60-04c379e0fb64","system_id":"levelo_inurba_marseille","lat":43.30313,"lon":5.36908,"is_reserved":false,"is_disabled":false,"rental_uris":{"android":"levelo://app?vid=1a90eb07-3eaf-45d0-ac60-04c379e0fb64","ios":"levelo://app?vid=1a90eb07-3eaf-45d0-ac60-04c379e0fb64"},"vehicle_type_id":"4","last_reported":1745392393,"current_range_meters":20800,"station_id":"ce4bgqh2rcd13ifvqc5g","pricing_plan_id":"cebpf4jnsgd1na2vs0mg"},{"bike_id":"eb434673-272a-4ac6-b385-1b4aa2bb2ef1","system_id":"levelo_inurba_marseille","lat":43.29618,"lon":5.37154,"is_reserved":false,"is_disabled":false,"rental_uris":{"android":"levelo://app?vid=eb434673-272a-4ac6-b385-1b4aa2bb2ef1","ios":"levelo://app?vid=eb434673-272a-4ac6-b385-1b4aa2bb2ef1"},"vehicle_type_id":"4","last_reported":1745392393,"current_range_meters":20400,"station_id":"ce4bgnh2rcd13ifvqc0g","pricing_plan_id":"cebpf4jnsgd1na2vs0mg"},{"bike_id":"aa633d40-03f3-4983-9bd2-48b27f513d6d","system_id":"levelo_inurba_marseille","lat":43.27362,"lon":5.42404,"is_reserved":false,"is_disabled":false,"rental_uris":{"android":"levelo://app?vid=aa633d40-03f3-4983-9bd2-48b27f513d6d","ios":"levelo://app?vid=aa633d40-03f3-4983-9bd2-48b27f513d6d"},"vehicle_type_id":"4","last_reported":1745392393,"current_range_meters":20800,"station_id":"","pricing_plan_id":"cebpf4jnsgd1na2vs0mg"},{"bike_id":"894b8530-885f-4d4d-a2ae-913958cbbe2f","system_id":"levelo_inurba_marseille","lat":43.25961,"lon":5.4089,"is_reserved":false,"is_disabled":true,"rental_uris":{"android":"levelo://app?vid=894b8530-885f-4d4d-a2ae-913958cbbe2f","ios":"levelo://app?vid=894b8530-885f-4d4d-a2ae-913958cbbe2f"},"vehicle_type_id":"4","last_reported":1745392393,"current_range_meters":20800,"station_id":"ce4bhm92rcd13ifvqglg","pricing_plan_id":"cebpf4jnsgd1na2vs0mg"},{"bike_id":"cbc290ac-de36-4d84-9161-332d2ee0e29c","system_id":"levelo_inurba_marseille","lat":43.28943,"lon":5.3665,"is_reserved":false,"is_disabled":false,"rental_uris":{"android":"levelo://app?vid=cbc290ac-de36-4d84-9161-332d2ee0e29c","ios":"levelo://app?vid=cbc290ac-de36-4d84-9161-332d2ee0e29c"},"vehicle_type_id":"4","last_reported":1745392393,"current_range_meters":20800,"station_id":"ce4bhap2rcd13ifvqek0","pricing_plan_id":"cebpf4jnsgd1na2vs0mg"},{"bike_id":"8b13a928-cf73-4379-a0db-2b466786b7d8","system_id":"levelo_inurba_marseille","lat":43.33787,"lon":5.37409,"is_reserved":false,"is_disabled":false,"rental_uris":{"android":"levelo://app?vid=8b13a928-cf73-4379-a0db-2b466786b7d8","ios":"levelo://app?vid=8b13a928-cf73-4379-a0db-2b466786b7d8"},"vehicle_type_id":"4","last_reported":1745392393,"current_range_meters":21600,"station_id":"","pricing_plan_id":"cebpf4jnsgd1na2vs0mg"},{"bike_id":"444b4f41-a56d-446a-a50e-4b3a4e06ff40","system_id":"levelo_inurba_marseille","lat":43.24182,"lon":5.39721,"is_reserved":false,"is_disabled":false,"rental_uris":{"android":"levelo://app?vid=444b4f41-a56d-446a-a50e-4b3a4e06ff40","ios":"levelo://app?vid=444b4f41-a56d-446a-a50e-4b3a4e06ff40"},"vehicle_type_id":"4","last_reported":1745392393,"current_range_meters":21600,"station_id":"ce4bhn12rcd13ifvqgpg","pricing_plan_id":"cebpf4jnsgd1na2vs0mg"},{"bike_id":"224b286b-7a8c-4b35-90e1-9f806e7bcdf8","system_id":"levelo_inurba_marseille","lat":43.30539,"lon":5.36709,"is_reserved":false,"is_disabled":true,"rental_uris":{"android":"levelo://app?vid=224b286b-7a8c-4b35-90e1-9f806e7bcdf8","ios":"levelo://app?vid=224b286b-7a8c-4b35-90e1-9f806e7bcdf8"},"vehicle_type_id":"4","last_reported":1745392393,"current_range_meters":21600,"station_id":"ce4bgrp2rcd13ifvqc9g","pricing_plan_id":"cebpf4jnsgd1na2vs0mg"},{"bike_id":"f66edcd1-aaff-4600-b09a-f7b31db50de9","system_id":"levelo_inurba_marseille","lat":43.30363,"lon":5.3681,"is_reserved":false,"is_disabled":true,"rental_uris":{"android":"levelo://app?vid=f66edcd1-aaff-4600-b09a-f7b31db50de9","ios":"levelo://app?vid=f66edcd1-aaff-4600-b09a-f7b31db50de9"},"vehicle_type_id":"4","last_reported":1745392393,"current_range_meters":21600,"station_id":"","pricing_plan_id":"cebpf4jnsgd1na2vs0mg"},{"bike_id":"53ac7e12-47ca-4599-9213-1b153bbab71b","system_id":"levelo_inurba_marseille","lat":43.24078,"lon":5.37757,"is_reserved":false,"is_disabled":false,"rental_uris":{"android":"levelo://app?vid=53ac7e12-47ca-4599-9213-1b153bbab71b","ios":"levelo://app?vid=53ac7e12-47ca-4599-9213-1b153bbab71b"},"vehicle_type_id":"4","last_reported":1745392393,"current_range_meters":21600,"station_id":"ce4bhnp2rcd13ifvqgvg","pricing_plan_id":"cebpf4jnsgd1na2vs0mg"},{"bike_id":"1d65771b-b7d7-418d-8759-ec745687e162","system_id":"levelo_inurba_marseille","lat":43.28562,"lon":5.39505,"is_reserved":false,"is_disabled":false,"rental_uris":{"android":"levelo://app?vid=1d65771b-b7d7-418d-8759-ec745687e162","ios":"levelo://app?vid=1d65771b-b7d7-418d-8759-ec745687e162"},"vehicle_type_id":"4","last_reported":1745392393,"current_range_meters":21600,"station_id":"ce4bh292rcd13ifvqdg0","pricing_plan_id":"cebpf4jnsgd1na2vs0mg"},{"bike_id":"fb5046f1-c321-4121-b53a-0d381702f091","system_id":"levelo_inurba_marseille","lat":43.32669,"lon":5.36722,"is_reserved":false,"is_disabled":false,"rental_uris":{"android":"levelo://app?vid=fb5046f1-c321-4121-b53a-0d381702f091","ios":"levelo://app?vid=fb5046f1-c321-4121-b53a-0d381702f091"},"vehicle_type_id":"4","last_reported":1745392393,"current_range_meters":21600,"station_id":"","pricing_plan_id":"cebpf4jnsgd1na2vs0mg"},{"bike_id":"f22eda7d-3646-407f-9b9a-5d016360cf86","system_id":"levelo_inurba_marseille","lat":43.24097,"lon":5.37751,"is_reserved":false,"is_disabled":false,"rental_uris":{"android":"levelo://app?vid=f22eda7d-3646-407f-9b9a-5d016360cf86","ios":"levelo://app?vid=f22eda7d-3646-407f-9b9a-5d016360cf86"},"vehicle_type_id":"4","last_reported":1745392393,"current_range_meters":21600,"station_id":"ce4bhnp2rcd13ifvqgvg","pricing_plan_id":"cebpf4jnsgd1na2vs0mg"},{"bike_id":"b872debc-f981-4b3b-88d7-7f829e75a9cc","system_id":"levelo_inurba_marseille","lat":43.31336,"lon":5.36729,"is_reserved":false,"is_disabled":false,"rental_uris":{"android":"levelo://app?vid=b872debc-f981-4b3b-88d7-7f829e75a9cc","ios":"levelo://app?vid=b872debc-f981-4b3b-88d7-7f829e75a9cc"},"vehicle_type_id":"4","last_reported":1745392393,"current_range_meters":21600,"station_id":"ce4bgr92rcd13ifvqc6g","pricing_plan_id":"cebpf4jnsgd1na2vs0mg"},{"bike_id":"9c2ce1ea-3e4d-469c-9bde-55fb8c3af06a","system_id":"levelo_inurba_marseille","lat":43.25,"lon":5.38933,"is_reserved":false,"is_disabled":false,"rental_uris":{"android":"levelo://app?vid=9c2ce1ea-3e4d-469c-9bde-55fb8c3af06a","ios":"levelo://app?vid=9c2ce1ea-3e4d-469c-9bde-55fb8c3af06a"},"vehicle_type_id":"4","last_reported":1745392393,"current_range_meters":22000,"station_id":"ce4bhgp2rcd13ifvqfd0","pricing_plan_id":"cebpf4jnsgd1na2vs0mg"},{"bike_id":"3af24586-68f9-4343-a68f-2453594f9de8","system_id":"levelo_inurba_marseille","lat":43.29842,"lon":5.36269,"is_reserved":false,"is_disabled":false,"rental_uris":{"android":"levelo://app?vid=3af24586-68f9-4343-a68f-2453594f9de8","ios":"levelo://app?vid=3af24586-68f9-4343-a68f-2453594f9de8"},"vehicle_type_id":"4","last_reported":1745392393,"current_range_meters":21600,"station_id":"ce4bgpp2rcd13ifvqc3g","pricing_plan_id":"cebpf4jnsgd1na2vs0mg"},{"bike_id":"8a716f10-6abe-4f80-94ce-4c02fac0f570","system_id":"levelo_inurba_marseille","lat":43.25009,"lon":5.38927,"is_reserved":false,"is_disabled":false,"rental_uris":{"android":"levelo://app?vid=8a716f10-6abe-4f80-94ce-4c02fac0f570","ios":"levelo://app?vid=8a716f10-6abe-4f80-94ce-4c02fac0f570"},"vehicle_type_id":"4","last_reported":1745392393,"current_range_meters":22000,"station_id":"ce4bhgp2rcd13ifvqfd0","pricing_plan_id":"cebpf4jnsgd1na2vs0mg"},{"bike_id":"dac806a9-b56d-4aab-a7c7-97c1821120c4","system_id":"levelo_inurba_marseille","lat":43.29762,"lon":5.37112,"is_reserved":false,"is_disabled":false,"rental_uris":{"android":"levelo://app?vid=dac806a9-b56d-4aab-a7c7-97c1821120c4","ios":"levelo://app?vid=dac806a9-b56d-4aab-a7c7-97c1821120c4"},"vehicle_type_id":"4","last_reported":1745392393,"current_range_meters":22000,"station_id":"ce4bgop2rcd13ifvqc1g","pricing_plan_id":"cebpf4jnsgd1na2vs0mg"},{"bike_id":"f67bdf4d-cd58-42a7-8720-8b6c2f09957a","system_id":"levelo_inurba_marseille","lat":43.30155,"lon":5.3809,"is_reserved":false,"is_disabled":false,"rental_uris":{"android":"levelo://app?vid=f67bdf4d-cd58-42a7-8720-8b6c2f09957a","ios":"levelo://app?vid=f67bdf4d-cd58-42a7-8720-8b6c2f09957a"},"vehicle_type_id":"4","last_reported":1745392393,"current_range_meters":22000,"station_id":"ce4bh012rcd13ifvqcv0","pricing_plan_id":"cebpf4jnsgd1na2vs0mg"},{"bike_id":"d4a652d5-1fcf-4e5a-859e-87eaf25e071e","system_id":"levelo_inurba_marseille","lat":43.30428,"lon":5.39751,"is_reserved":false,"is_disabled":false,"rental_uris":{"android":"levelo://app?vid=d4a652d5-1fcf-4e5a-859e-87eaf25e071e","ios":"levelo://app?vid=d4a652d5-1fcf-4e5a-859e-87eaf25e071e"},"vehicle_type_id":"4","last_reported":1745392393,"current_range_meters":21600,"station_id":"ce4bh092rcd13ifvqd20","pricing_plan_id":"cebpf4jnsgd1na2vs0mg"},{"bike_id":"11f4ee4a-7fa1-4c62-b378-a96e1722a902","system_id":"levelo_inurba_marseille","lat":43.30556,"lon":5.36725,"is_reserved":false,"is_disabled":true,"rental_uris":{"android":"levelo://app?vid=11f4ee4a-7fa1-4c62-b378-a96e1722a902","ios":"levelo://app?vid=11f4ee4a-7fa1-4c62-b378-a96e1722a902"},"vehicle_type_id":"4","last_reported":1745392393,"current_range_meters":22400,"station_id":"ce4bgrp2rcd13ifvqc9g","pricing_plan_id":"cebpf4jnsgd1na2vs0mg"},{"bike_id":"ec5df1ef-c4a2-40d6-947e-08f83bb0f0bd","system_id":"levelo_inurba_marseille","lat":43.24176,"lon":5.39738,"is_reserved":false,"is_disabled":false,"rental_uris":{"android":"levelo://app?vid=ec5df1ef-c4a2-40d6-947e-08f83bb0f0bd","ios":"levelo://app?vid=ec5df1ef-c4a2-40d6-947e-08f83bb0f0bd"},"vehicle_type_id":"4","last_reported":1745392393,"current_range_meters":22400,"station_id":"ce4bhn12rcd13ifvqgpg","pricing_plan_id":"cebpf4jnsgd1na2vs0mg"},{"bike_id":"214bbde7-aa65-480a-8046-2c18c1efb04d","system_id":"levelo_inurba_marseille","lat":43.29815,"lon":5.38084,"is_reserved":false,"is_disabled":true,"rental_uris":{"android":"levelo://app?vid=214bbde7-aa65-480a-8046-2c18c1efb04d","ios":"levelo://app?vid=214bbde7-aa65-480a-8046-2c18c1efb04d"},"vehicle_type_id":"4","last_reported":1745392393,"current_range_meters":22400,"station_id":"ce4bgip2rcd13ifvqbb0","pricing_plan_id":"cebpf4jnsgd1na2vs0mg"},{"bike_id":"315dff0b-f09c-4593-9a39-4e4fd8c1aa0f","system_id":"levelo_inurba_marseille","lat":43.31117,"lon":5.3778,"is_reserved":false,"is_disabled":false,"rental_uris":{"android":"levelo://app?vid=315dff0b-f09c-4593-9a39-4e4fd8c1aa0f","ios":"levelo://app?vid=315dff0b-f09c-4593-9a39-4e4fd8c1aa0f"},"vehicle_type_id":"4","last_reported":1745392393,"current_range_meters":22400,"station_id":"ce4bgt92rcd13ifvqcg0","pricing_plan_id":"cebpf4jnsgd1na2vs0mg"},{"bike_id":"9a458b1e-4130-49e7-92a4-607bd170d164","system_id":"levelo_inurba_marseille","lat":43.29906,"lon":5.37477,"is_reserved":false,"is_disabled":false,"rental_uris":{"android":"levelo://app?vid=9a458b1e-4130-49e7-92a4-607bd170d164","ios":"levelo://app?vid=9a458b1e-4130-49e7-92a4-607bd170d164"},"vehicle_type_id":"4","last_reported":1745392393,"current_range_meters":22400,"station_id":"ce4bgjh2rcd13ifvqbg0","pricing_plan_id":"cebpf4jnsgd1na2vs0mg"},{"bike_id":"8b43b1fb-5cab-4db8-ae05-f66514d8855e","system_id":"levelo_inurba_marseille","lat":43.31282,"lon":5.37334,"is_reserved":false,"is_disabled":false,"rental_uris":{"android":"levelo://app?vid=8b43b1fb-5cab-4db8-ae05-f66514d8855e","ios":"levelo://app?vid=8b43b1fb-5cab-4db8-ae05-f66514d8855e"},"vehicle_type_id":"4","last_reported":1745392393,"current_range_meters":22400,"station_id":"","pricing_plan_id":"cebpf4jnsgd1na2vs0mg"},{"bike_id":"ab8406b2-4f8d-4381-8821-3db52b0a4d4d","system_id":"levelo_inurba_marseille","lat":43.27357,"lon":5.37832,"is_reserved":false,"is_disabled":false,"rental_uris":{"android":"levelo://app?vid=ab8406b2-4f8d-4381-8821-3db52b0a4d4d","ios":"levelo://app?vid=ab8406b2-4f8d-4381-8821-3db52b0a4d4d"},"vehicle_type_id":"4","last_reported":1745392393,"current_range_meters":22400,"station_id":"","pricing_plan_id":"cebpf4jnsgd1na2vs0mg"},{"bike_id":"ff9806a9-773e-45de-b806-3fb316777ffb","system_id":"levelo_inurba_marseille","lat":43.30307,"lon":5.37707,"is_reserved":false,"is_disabled":false,"rental_uris":{"android":"levelo://app?vid=ff9806a9-773e-45de-b806-3fb316777ffb","ios":"levelo://app?vid=ff9806a9-773e-45de-b806-3fb316777ffb"},"vehicle_type_id":"4","last_reported":1745392393,"current_range_meters":22400,"station_id":"ce4bguh2rcd13ifvqcj0","pricing_plan_id":"cebpf4jnsgd1na2vs0mg"},{"bike_id":"1dd3abb0-2761-4e4b-83b9-8da3b3e3952f","system_id":"levelo_inurba_marseille","lat":43.24996,"lon":5.38938,"is_reserved":false,"is_disabled":false,"rental_uris":{"android":"levelo://app?vid=1dd3abb0-2761-4e4b-83b9-8da3b3e3952f","ios":"levelo://app?vid=1dd3abb0-2761-4e4b-83b9-8da3b3e3952f"},"vehicle_type_id":"4","last_reported":1745392393,"current_range_meters":22400,"station_id":"ce4bhgp2rcd13ifvqfd0","pricing_plan_id":"cebpf4jnsgd1na2vs0mg"},{"bike_id":"019a5a9a-ac10-464a-980a-01bc39d7012e","system_id":"levelo_inurba_marseille","lat":43.31692,"lon":5.37752,"is_reserved":false,"is_disabled":true,"rental_uris":{"android":"levelo://app?vid=019a5a9a-ac10-464a-980a-01bc39d7012e","ios":"levelo://app?vid=019a5a9a-ac10-464a-980a-01bc39d7012e"},"vehicle_type_id":"4","last_reported":1745392393,"current_range_meters":22800,"station_id":"ce4bgth2rcd13ifvqch0","pricing_plan_id":"cebpf4jnsgd1na2vs0mg"},{"bike_id":"a5856b95-9e19-4436-b973-344e5d5dcbd8","system_id":"levelo_inurba_marseille","lat":43.2415,"lon":5.36424,"is_reserved":false,"is_disabled":false,"rental_uris":{"android":"levelo://app?vid=a5856b95-9e19-4436-b973-344e5d5dcbd8","ios":"levelo://app?vid=a5856b95-9e19-4436-b973-344e5d5dcbd8"},"vehicle_type_id":"4","last_reported":1745392393,"current_range_meters":22800,"station_id":"cpo36qri1sfpv3e86is0","pricing_plan_id":"cebpf4jnsgd1na2vs0mg"},{"bike_id":"dfc424fb-3a80-47f5-acb6-71c55bf4dcf6","system_id":"levelo_inurba_marseille","lat":43.31502,"lon":5.3729,"is_reserved":false,"is_disabled":false,"rental_uris":{"android":"levelo://app?vid=dfc424fb-3a80-47f5-acb6-71c55bf4dcf6","ios":"levelo://app?vid=dfc424fb-3a80-47f5-acb6-71c55bf4dcf6"},"vehicle_type_id":"4","last_reported":1745392393,"current_range_meters":22800,"station_id":"ce4bgt12rcd13ifvqcd0","pricing_plan_id":"cebpf4jnsgd1na2vs0mg"},{"bike_id":"44487736-9745-4b77-8acf-36ad35a6fa24","system_id":"levelo_inurba_marseille","lat":43.27313,"lon":5.39131,"is_reserved":false,"is_disabled":false,"rental_uris":{"android":"levelo://app?vid=44487736-9745-4b77-8acf-36ad35a6fa24","ios":"levelo://app?vid=44487736-9745-4b77-8acf-36ad35a6fa24"},"vehicle_type_id":"4","last_reported":1745392393,"current_range_meters":22800,"station_id":"ce4bhgp2rcd13ifvqfe0","pricing_plan_id":"cebpf4jnsgd1na2vs0mg"},{"bike_id":"3bec0f97-cdae-4155-8541-e8662afd6254","system_id":"levelo_inurba_marseille","lat":43.31225,"lon":5.36858,"is_reserved":false,"is_disabled":false,"rental_uris":{"android":"levelo://app?vid=3bec0f97-cdae-4155-8541-e8662afd6254","ios":"levelo://app?vid=3bec0f97-cdae-4155-8541-e8662afd6254"},"vehicle_type_id":"4","last_reported":1745392393,"current_range_meters":22800,"station_id":"ce4bgl92rcd13ifvqbq0","pricing_plan_id":"cebpf4jnsgd1na2vs0mg"},{"bike_id":"accaeb10-87ab-47a4-934a-fad9a4475455","system_id":"levelo_inurba_marseille","lat":43.309052,"lon":5.36851,"is_reserved":false,"is_disabled":false,"rental_uris":{"android":"levelo://app?vid=accaeb10-87ab-47a4-934a-fad9a4475455","ios":"levelo://app?vid=accaeb10-87ab-47a4-934a-fad9a4475455"},"vehicle_type_id":"4","last_reported":1745392393,"current_range_meters":23200,"station_id":"ce4bhh92rcd13ifvqfj0","pricing_plan_id":"cebpf4jnsgd1na2vs0mg"},