{"last_updated":1748542483,"ttl":60,"version":"2.2","data":{"bikes":[{"bike_id":"55d42eeb-6b71-4987-a0f2-3d758b10d43e","system_id":"levelo_inurba_marseille","lat":43.33771,"lon":5.37424,"is_reserved":false,"is_disabled":true,"rental_uris":{"android":"levelo://app?vid=55d42eeb-6b71-4987-a0f2-3d758b10d43e","ios":"levelo://app?vid=55d42eeb-6b71-4987-a0f2-3d758b10d43e"},"vehicle_type_id":"4","last_reported":1748542483,"current_range_meters":0,"station_id":"","pricing_plan_id":"cebpf4jnsgd1na2vs0mg"},{"bike_id":"9a869239-5672-4a55-9235-38d7bbe8293b","system_id":"levelo_inurba_marseille","lat":43.32598,"lon":5.43078,"is_reserved":false,"is_disabled":false,"rental_uris":{"android":"levelo://app?vid=9a869239-5672-4a55-9235-38d7bbe8293b","ios":"levelo://app?vid=9a869239-5672-4a55-9235-38d7bbe8293b"},"vehicle_type_id":"4","last_reported":1748542483,"current_range_meters":0,"station_id":"","pricing_plan_id":"cebpf4jnsgd1na2vs0mg"},{"bike_id":"b7fe4621-b706-42f0-9085-4811142f84e8","system_id":"levelo_inurba_marseille","lat":43.337499,"lon":5.374469,"is_reserved":false,"is_disabled":true,"rental_uris":{"android":"levelo://app?vid=b7fe4621-b706-42f0-9085-4811142f84e8","ios":"levelo://app?vid=b7fe4621-b706-42f0-9085-4811142f84e8"},"vehicle_type_id":"4","last_reported":1748542483,"current_range_meters":0,"station_id":"","pricing_plan_id":"cebpf4jnsgd1na2vs0mg"},{"bike_id":"2a4c12b9-20f8-4a57-9dbe-920bc253b604","system_id":"levelo_inurba_marseille","lat":43.33007,"lon":5.38386,"is_reserved":false,"is_disabled":true,"rental_uris":{"android":"levelo://app?vid=2a4c12b9-20f8-4a57-9dbe-920bc253b604","ios":"levelo://app?vid=2a4c12b9-20f8-4a57-9dbe-920bc253b604"},"vehicle_type_id":"4","last_reported":1748542483,"current_range_meters":0,"station_id":"","pricing_plan_id":"cebpf4jnsgd1na2vs0mg"},{"bike_id":"ad402f0f-3192-410c-afac-8cf064a40c6d","system_id":"levelo_inurba_marseille","lat":43.337444,"lon":5.374475,"is_reserved":false,"is_disabled":true,"rental_uris":{"android":"levelo://app?vid=ad402f0f-3192-410c-afac-8cf064a40c6d","ios":"levelo://app?vid=ad402f0f-3192-410c-afac-8cf064a40c6d"},"vehicle_type_id":"4","last_reported":1748542483,"current_range_meters":0,"station_id":"","pricing_plan_id":"cebpf4jnsgd1na2vs0mg"},{"bike_id":"8c7291be-ed63-4533-9817-ac4e5bc6776f","system_id":"levelo_inurba_marseille","lat":43.29187,"lon":5.35578,"is_reserved":false,"is_disabled":true,"rental_uris":{"android":"levelo://app?vid=8c7291be-ed63-4533-9817-ac4e5bc6776f","ios":"levelo://app?vid=8c7291be-ed63-4533-9817-ac4e5bc6776f"},"vehicle_type_id":"4","last_reported":1748542483,"current_range_meters":0,"station_id":"","pricing_plan_id":"cebpf4jnsgd1na2vs0mg"},{"bike_id":"64fceeed-f4e8-40df-995a-9a2b05abc560","system_id":"levelo_inurba_marseille","lat":43.32549,"lon":5.42976,"is_reserved":false,"is_disabled":true,"rental_uris":{"android":"levelo://app?vid=64fceeed-f4e8-40df-995a-9a2b05abc560","ios":"levelo://app?vid=64fceeed-f4e8-40df-995a-9a2b05abc560"},"vehicle_type_id":"4","last_reported":1748542483,"current_range_meters":0,"station_id":"","pricing_plan_id":"cebpf4jnsgd1na2vs0mg"},{"bike_id":"06938951-e273-452e-94b8-4a2eaf56a0de","system_id":"levelo_inurba_marseille","lat":43.31972,"lon":5.37117,"is_reserved":false,"is_disabled":true,"rental_uris":{"android":"levelo://app?vid=06938951-e273-452e-94b8-4a2eaf56a0de","ios":"levelo://app?vid=06938951-e273-452e-94b8-4a2eaf56a0de"},"vehicle_type_id":"4","last_reported":1748542483,"current_range_meters":0,"station_id":"","pricing_plan_id":"cebpf4jnsgd1na2vs0mg"},{"bike_id":"80dc1064-d63f-4a22-ad21-d8abd70986c0","system_id":"levelo_inurba_marseille","lat":43.337461,"lon":5.374742,"is_reserved":false,"is_disabled":true,"rental_uris":{"android":"levelo://app?vid=80dc1064-d63f-4a22-ad21-d8abd70986c0","ios":"levelo://app?vid=80dc1064-d63f-4a22-ad21-d8abd70986c0"},"vehicle_type_id":"4","last_reported":1748542483,"current_range_meters":0,"station_id":"","pricing_plan_id":"cebpf4jnsgd1na2vs0mg"},{"bike_id":"2c08f058-11cb-4c96-b63a-5cf20fe05e84","system_id":"levelo_inurba_marseille","lat":43.301363,"lon":5.387826,"is_reserved":false,"is_disabled":true,"rental_uris":{"android":"levelo://app?vid=2c08f058-11cb-4c96-b63a-5cf20fe05e84","ios":"levelo://app?vid=2c08f058-11cb-4c96-b63a-5cf20fe05e84"},"vehicle_type_id":"4","last_reported":1748542483,"current_range_meters":0,"station_id":"","pricing_plan_id":"cebpf4jnsgd1na2vs0mg"},{"bike_id":"a38ef578-0451-40d2-8a33-ba55d46c86b4","system_id":"levelo_inurba_marseille","lat":43.293396,"lon":5.371296,"is_reserved":false,"is_disabled":true,"rental_uris":{"android":"levelo://app?vid=a38ef578-0451-40d2-8a33-ba55d46c86b4","ios":"levelo://app?vid=a38ef578-0451-40d2-8a33-ba55d46c86b4"},"vehicle_type_id":"4","last_reported":1748542483,"current_range_meters":0,"station_id":"","pricing_plan_id":"cebpf4jnsgd1na2vs0mg"},{"bike_id":"da5c0d7c-a0f7-4309-9147-7e75efd6f413","system_id":"levelo_inurba_marseille","lat":43.23832,"lon":5.36574,"is_reserved":false,"is_disabled":true,"rental_uris":{"android":"levelo://app?vid=da5c0d7c-a0f7-4309-9147-7e75efd6f413","ios":"levelo://app?vid=da5c0d7c-a0f7-4309-9147-7e75efd6f413"},"vehicle_type_id":"4","last_reported":1748542483,"current_range_meters":0,"station_id":"","pricing_plan_id":"cebpf4jnsgd1na2vs0mg"},{"bike_id":"7f9bdcaf-4217-4932-be91-52b5120d5ca8","system_id":"levelo_inurba_marseille","lat":43.26351,"lon":5.40104,"is_reserved":false,"is_disabled":true,"rental_uris":{"android":"levelo://app?vid=7f9bdcaf-4217-4932-be91-52b5120d5ca8","ios":"levelo://app?vid=7f9bdcaf-4217-4932-be91-52b5120d5ca8"},"vehicle_type_id":"4","last_reported":1748542483,"current_range_meters":0,"station_id":"","pricing_plan_id":"cebpf4jnsgd1na2vs0mg"},{"bike_id":"2fd7e160-685c-4858-b57b-dcaef27a8e94","system_id":"levelo_inurba_marseille","lat":43.230331,"lon":5.401847,"is_reserved":false,"is_disabled":true,"rental_uris":{"android":"levelo://app?vid=2fd7e160-685c-4858-b57b-dcaef27a8e94","ios":"levelo://app?vid=2fd7e160-685c-4858-b57b-dcaef27a8e94"},"vehicle_type_id":"4","last_reported":1748542483,"current_range_meters":0,"station_id":"","pricing_plan_id":"cebpf4jnsgd1na2vs0mg"},{"bike_id":"babb4fe5-ce54-47a1-a7f4-8007ecced8d7","system_id":"levelo_inurba_marseille","lat":43.298462,"lon":5.362947,"is_reserved":false,"is_disabled":true,"rental_uris":{"android":"levelo://app?vid=babb4fe5-ce54-47a1-a7f4-8007ecced8d7","ios":"levelo://app?vid=babb4fe5-ce54-47a1-a7f4-8007ecced8d7"},"vehicle_type_id":"4","last_reported":1748542483,"current_range_meters":0,"station_id":"ce4bgpp2rcd13ifvqc3g","pricing_plan_id":"cebpf4jnsgd1na2vs0mg"},{"bike_id":"0d99f46a-6a38-4188-bf12-6c583dd1b2d1","system_id":"levelo_inurba_marseille","lat":43.29019,"lon":5.38145,"is_reserved":false,"is_disabled":true,"rental_uris":{"android":"levelo://app?vid=0d99f46a-6a38-4188-bf12-6c583dd1b2d1","ios":"levelo://app?vid=0d99f46a-6a38-4188-bf12-6c583dd1b2d1"},"vehicle_type_id":"4","last_reported":1748542483,"current_range_meters":0,"station_id":"ce4bh4p2rcd13ifvqe1g","pricing_plan_id":"cebpf4jnsgd1na2vs0mg"},{"bike_id":"67105825-04cc-426d-96c0-bb62f80ee0ad","system_id":"levelo_inurba_marseille","lat":43.28491,"lon":5.38533,"is_reserved":false,"is_disabled":true,"rental_uris":{"android":"levelo://app?vid=67105825-04cc-426d-96c0-bb62f80ee0ad","ios":"levelo://app?vid=67105825-04cc-426d-96c0-bb62f80ee0ad"},"vehicle_type_id":"4","last_reported":1748542483,"current_range_meters":0,"station_id":"ce4bh8p2rcd13ifvqeb0","pricing_plan_id":"cebpf4jnsgd1na2vs0mg"},{"bike_id":"a22b739d-7c01-4a2c-a68f-0c5356a43ad1","system_id":"levelo_inurba_marseille","lat":43.28932,"lon":5.36622,"is_reserved":false,"is_disabled":true,"rental_uris":{"android":"levelo://app?vid=a22b739d-7c01-4a2c-a68f-0c5356a43ad1","ios":"levelo://app?vid=a22b739d-7c01-4a2c-a68f-0c5356a43ad1"},"vehicle_type_id":"4","last_reported":1748542483,"current_range_meters":0,"station_id":"ce4bhap2rcd13ifvqek0","pricing_plan_id":"cebpf4jnsgd1na2vs0mg"},{"bike_id":"c1e5c911-1f27-4c6b-8b5f-8fe78d4eb84d","system_id":"levelo_inurba_marseille","lat":43.28862,"lon":5.358457,"is_reserved":false,"is_disabled":true,"rental_uris":{"android":"levelo://app?vid=c1e5c911-1f27-4c6b-8b5f-8fe78d4eb84d","ios":"levelo://app?vid=c1e5c911-1f27-4c6b-8b5f-8fe78d4eb84d"},"vehicle_type_id":"4","last_reported":1748542483,"current_range_meters":0,"station_id":"ce4bhb12rcd13ifvqem0","pricing_plan_id":"cebpf4jnsgd1na2vs0mg"},{"bike_id":"dd1d0679-6e5b-4b67-9d88-5c8892eaaad3","system_id":"levelo_inurba_marseille","lat":43.28862,"lon":5.35843,"is_reserved":false,"is_disabled":true,"rental_uris":{"android":"levelo://app?vid=dd1d0679-6e5b-4b67-9d88-5c8892eaaad3","ios":"levelo://app?vid=dd1d0679-6e5b-4b67-9d88-5c8892eaaad3"},"vehicle_type_id":"4","last_reported":1748542483,"current_range_meters":0,"station_id":"ce4bhb12rcd13ifvqem0","pricing_plan_id":"cebpf4jnsgd1na2vs0mg"},{"bike_id":"358c1305-d190-4c74-973d-a16c432be847","system_id":"levelo_inurba_marseille","lat":43.28989,"lon":5.356,"is_reserved":false,"is_disabled":true,"rental_uris":{"android":"levelo://app?vid=358c1305-d190-4c74-973d-a16c432be847","ios":"levelo://app?vid=358c1305-d190-4c74-973d-a16c432be847"},"vehicle_type_id":"4","last_reported":1748542483,"current_range_meters":0,"station_id":"ce4bhb92rcd13ifvqen0","pricing_plan_id":"cebpf4jnsgd1na2vs0mg"},{"bike_id":"efd9bd48-b990-4965-97f0-813e2342fa5a","system_id":"levelo_inurba_marseille","lat":43.29008,"lon":5.35605,"is_reserved":false,"is_disabled":true,"rental_uris":{"android":"levelo://app?vid=efd9bd48-b990-4965-97f0-813e2342fa5a","ios":"levelo://app?vid=efd9bd48-b990-4965-97f0-813e2342fa5a"},"vehicle_type_id":"4","last_reported":1748542483,"current_range_meters":0,"station_id":"ce4bhb92rcd13ifvqen0","pricing_plan_id":"cebpf4jnsgd1na2vs0mg"},{"bike_id":"dd223ec6-43ad-4ee5-8d14-b1f41d98a2ac","system_id":"levelo_inurba_marseille","lat":43.27378,"lon":5.36256,"is_reserved":false,"is_disabled":true,"rental_uris":{"android":"levelo://app?vid=dd223ec6-43ad-4ee5-8d14-b1f41d98a2ac","ios":"levelo://app?vid=dd223ec6-43ad-4ee5-8d14-b1f41d98a2ac"},"vehicle_type_id":"4","last_reported":1748542483,"current_range_meters":0,"station_id":"ce4bhbh2rcd13ifvqeo0","pricing_plan_id":"cebpf4jnsgd1na2vs0mg"},{"bike_id":"c9e3a6c5-3992-40bd-ab37-a745fbf77971","system_id":"levelo_inurba_marseille","lat":43.27379,"lon":5.3626,"is_reserved":false,"is_disabled":true,"rental_uris":{"android":"levelo://app?vid=c9e3a6c5-3992-40bd-ab37-a745fbf77971","ios":"levelo://app?vid=c9e3a6c5-3992-40bd-ab37-a745fbf77971"},"vehicle_type_id":"4","last_reported":1748542483,"current_range_meters":0,"station_id":"ce4bhbh2rcd13ifvqeo0","pricing_plan_id":"cebpf4jnsgd1na2vs0mg"},{"bike_id":"10922916-3d65-45e6-aef3-7acf04097e6b","system_id":"levelo_inurba_marseille","lat":43.26565,"lon":5.39057,"is_reserved":false,"is_disabled":true,"rental_uris":{"android":"levelo://app?vid=10922916-3d65-45e6-aef3-7acf04097e6b","ios":"levelo://app?vid=10922916-3d65-45e6-aef3-7acf04097e6b"},"vehicle_type_id":"4","last_reported":1748542483,"current_range_meters":0,"station_id":"ce4bhe12rcd13ifvqf30","pricing_plan_id":"cebpf4jnsgd1na2vs0mg"},{"bike_id":"6b034230-07be-4415-bc8c-e4e649eda518","system_id":"levelo_inurba_marseille","lat":43.27917,"lon":5.39575,"is_reserved":false,"is_disabled":true,"rental_uris":{"android":"levelo://app?vid=6b034230-07be-4415-bc8c-e4e649eda518","ios":"levelo://app?vid=6b034230-07be-4415-bc8c-e4e649eda518"},"vehicle_type_id":"4","last_reported":1748542483,"current_range_meters":0,"station_id":"ce4bhf92rcd13ifvqf40","pricing_plan_id":"cebpf4jnsgd1na2vs0mg"},{"bike_id":"e43c1063-5c36-4b97-a802-b895378bbdf8","system_id":"levelo_inurba_marseille","lat":43.26037,"lon":5.37532,"is_reserved":false,"is_disabled":true,"rental_uris":{"android":"levelo://app?vid=e43c1063-5c36-4b97-a802-b895378bbdf8","ios":"levelo://app?vid=e43c1063-5c36-4b97-a802-b895378bbdf8"},"vehicle_type_id":"4","last_reported":1748542483,"current_range_meters":0,"station_id":"ce4bhgh2rcd13ifvqfa0","pricing_plan_id":"cebpf4jnsgd1na2vs0mg"},{"bike_id":"bc3f6325-0a92-42c2-b768-39532c4a7356","system_id":"levelo_inurba_marseille","lat":43.26199,"lon":5.3745,"is_reserved":false,"is_disabled":true,"rental_uris":{"android":"levelo://app?vid=bc3f6325-0a92-42c2-b768-39532c4a7356","ios":"levelo://app?vid=bc3f6325-0a92-42c2-b768-39532c4a7356"},"vehicle_type_id":"4","last_reported":1748542483,"current_range_meters":0,"station_id":"ce4bhgp2rcd13ifvqfc0","pricing_plan_id":"cebpf4jnsgd1na2vs0mg"},{"bike_id":"52d5fac3-b8b2-412f-9940-ac0c06f6478f","system_id":"levelo_inurba_marseille","lat":43.26209,"lon":5.37436,"is_reserved":false,"is_disabled":true,"rental_uris":{"android":"levelo://app?vid=52d5fac3-b8b2-412f-9940-ac0c06f6478f","ios":"levelo://app?vid=52d5fac3-b8b2-412f-9940-ac0c06f6478f"},"vehicle_type_id":"4","last_reported":1748542483,"current_range_meters":0,"station_id":"ce4bhgp2rcd13ifvqfc0","pricing_plan_id":"cebpf4jnsgd1na2vs0mg"},{"bike_id":"9d8f0f66-0ab3-488e-8479-d637afab928c","system_id":"levelo_inurba_marseille","lat":43.26213,"lon":5.3744,"is_reserved":false,"is_disabled":true,"rental_uris":{"android":"levelo://app?vid=9d8f0f66-0ab3-488e-8479-d637afab928c","ios":"levelo://app?vid=9d8f0f66-0ab3-488e-8479-d637afab928c"},"vehicle_type_id":"4","last_reported":1748542483,"current_range_meters":0,"station_id":"ce4bhgp2rcd13ifvqfc0","pricing_plan_id":"cebpf4jnsgd1na2vs0mg"},{"bike_id":"6ab9c10e-fc8d-4533-8fed-920d56796583","system_id":"levelo_inurba_marseille","lat":43.25508,"lon":5.37649,"is_reserved":false,"is_disabled":true,"rental_uris":{"android":"levelo://app?vid=6ab9c10e-fc8d-4533-8fed-920d56796583","ios":"levelo://app?vid=6ab9c10e-fc8d-4533-8fed-920d56796583"},"vehicle_type_id":"4","last_reported":1748542483,"current_range_meters":0,"station_id":"ce4bhh12rcd13ifvqff0","pricing_plan_id":"cebpf4jnsgd1na2vs0mg"},{"bike_id":"65a81118-47be-47e2-b26d-9baf54bf5e68","system_id":"levelo_inurba_marseille","lat":43.27204,"lon":5.39181,"is_reserved":false,"is_disabled":true,"rental_uris":{"android":"levelo://app?vid=65a81118-47be-47e2-b26d-9baf54bf5e68","ios":"levelo://app?vid=65a81118-47be-47e2-b26d-9baf54bf5e68"},"vehicle_type_id":"4","last_reported":1748542483,"current_range_meters":0,"station_id":"ce4bhhp2rcd13ifvqfm0","pricing_plan_id":"cebpf4jnsgd1na2vs0mg"},{"bike_id":"68fbca69-6c1d-434c-8546-5363b266d8c5","system_id":"levelo_inurba_marseille","lat":43.27783,"lon":5.38847,"is_reserved":false,"is_disabled":true,"rental_uris":{"android":"levelo://app?vid=68fbca69-6c1d-434c-8546-5363b266d8c5","ios":"levelo://app?vid=68fbca69-6c1d-434c-8546-5363b266d8c5"},"vehicle_type_id":"4","last_reported":1748542483,"current_range_meters":0,"station_id":"ce4bhi12rcd13ifvqfo0","pricing_plan_id":"cebpf4jnsgd1na2vs0mg"},{"bike_id":"7ef9bb47-8217-4993-a51e-c3315d592a05","system_id":"levelo_inurba_marseille","lat":43.25128,"lon":5.40318,"is_reserved":false,"is_disabled":true,"rental_uris":{"android":"levelo://app?vid=7ef9bb47-8217-4993-a51e-c3315d592a05","ios":"levelo://app?vid=7ef9bb47-8217-4993-a51e-c3315d592a05"},"vehicle_type_id":"4","last_reported":1748542483,"current_range_meters":0,"station_id":"ce4bhlh2rcd13ifvqgig","pricing_plan_id":"cebpf4jnsgd1na2vs0mg"},{"bike_id":"cd018a14-e83d-4d40-ac42-b66ab9d8e9cc","system_id":"levelo_inurba_marseille","lat":43.22486,"lon":5.34773,"is_reserved":false,"is_disabled":true,"rental_uris":{"android":"levelo://app?vid=cd018a14-e83d-4d40-ac42-b66ab9d8e9cc","ios":"levelo://app?vid=cd018a14-e83d-4d40-ac42-b66ab9d8e9cc"},"vehicle_type_id":"4","last_reported":1748542483,"current_range_meters":0,"station_id":"st_cvj5dfep6f1abm77gieg","pricing_plan_id":"cebpf4jnsgd1na2vs0mg"},{"bike_id":"026ed65d-07ee-4955-b98a-dcd4f8ac417e","system_id":"levelo_inurba_marseille","lat":43.2176,"lon":5.34584,"is_reserved":false,"is_disabled":true,"rental_uris":{"android":"levelo://app?vid=026ed65d-07ee-4955-b98a-dcd4f8ac417e","ios":"levelo://app?vid=026ed65d-07ee-4955-b98a-dcd4f8ac417e"},"vehicle_type_id":"4","last_reported":1748542483,"current_range_meters":0,"station_id":"st_cvj6r9ubvosntc0bgbag","pricing_plan_id":"cebpf4jnsgd1na2vs0mg"},{"bike_id":"9737f687-cd23-44db-bd47-eea6cff687e5","system_id":"levelo_inurba_marseille","lat":43.29955,"lon":5.36536,"is_reserved":false,"is_disabled":true,"rental_uris":{"android":"levelo://app?vid=9737f687-cd23-44db-bd47-eea6cff687e5","ios":"levelo://app?vid=9737f687-cd23-44db-bd47-eea6cff687e5"},"vehicle_type_id":"4","last_reported":1748542483,"current_range_meters":400,"station_id":"ce4bgm92rcd13ifvqbr0","pricing_plan_id":"cebpf4jnsgd1na2vs0mg"},{"bike_id":"65ac6af9-b280-465d-96c1-87c937a726dc","system_id":"levelo_inurba_marseille","lat":43.261907,"lon":5.374514,"is_reserved":false,"is_disabled":true,"rental_uris":{"android":"levelo://app?vid=65ac6af9-b280-465d-96c1-87c937a726dc","ios":"levelo://app?vid=65ac6af9-b280-465d-96c1-87c937a726dc"},"vehicle_type_id":"4","last_reported":1748542483,"current_range_meters":400,"station_id":"ce4bhgp2rcd13ifvqfc0","pricing_plan_id":"cebpf4jnsgd1na2vs0mg"},{"bike_id":"aa65ca4f-c082-4513-bd14-2e984aa1f5f9","system_id":"levelo_inurba_marseille","lat":43.25927,"lon":5.409151,"is_reserved":false,"is_disabled":true,"rental_uris":{"android":"levelo://app?vid=aa65ca4f-c082-4513-bd14-2e984aa1f5f9","ios":"levelo://app?vid=aa65ca4f-c082-4513-bd14-2e984aa1f5f9"},"vehicle_type_id":"4","last_reported":1748542483,"current_range_meters":400,"station_id":"ce4bhm92rcd13ifvqglg","pricing_plan_id":"cebpf4jnsgd1na2vs0mg"},{"bike_id":"2ba97bd5-e891-4535-a205-057f46c59787","system_id":"levelo_inurba_marseille","lat":43.28696,"lon":5.3999,"is_reserved":false,"is_disabled":true,"rental_uris":{"android":"levelo://app?vid=2ba97bd5-e891-4535-a205-057f46c59787","ios":"levelo://app?vid=2ba97bd5-e891-4535-a205-057f46c59787"},"vehicle_type_id":"4","last_reported":1748542483,"current_range_meters":400,"station_id":"ce4bho92rcd13ifvqh3g","pricing_plan_id":"cebpf4jnsgd1na2vs0mg"},{"bike_id":"f74a9c32-b52e-40f0-8405-54f8639dee7e","system_id":"levelo_inurba_marseille","lat":43.27998,"lon":5.40008,"is_reserved":false,"is_disabled":true,"rental_uris":{"android":"levelo://app?vid=f74a9c32-b52e-40f0-8405-54f8639dee7e","ios":"levelo://app?vid=f74a9c32-b52e-40f0-8405-54f8639dee7e"},"vehicle_type_id":"4","last_reported":1748542483,"current_range_meters":800,"station_id":"","pricing_plan_id":"cebpf4jnsgd1na2vs0mg"},{"bike_id":"432eef5d-9ab8-4992-85fa-7fefc1d24756","system_id":"levelo_inurba_marseille","lat":43.32509,"lon":5.42453,"is_reserved":false,"is_disabled":true,"rental_uris":{"android":"levelo://app?vid=432eef5d-9ab8-4992-85fa-7fefc1d24756","ios":"levelo://app?vid=432eef5d-9ab8-4992-85fa-7fefc1d24756"},"vehicle_type_id":"4","last_reported":1748542483,"current_range_meters":800,"station_id":"","pricing_plan_id":"cebpf4jnsgd1na2vs0mg"},{"bike_id":"7c38bac8-820a-4a37-9aec-596ccbdef7b7","system_id":"levelo_inurba_marseille","lat":43.295278,"lon":5.385468,"is_reserved":false,"is_disabled":true,"rental_uris":{"android":"levelo://app?vid=7c38bac8-820a-4a37-9aec-596ccbdef7b7","ios":"levelo://app?vid=7c38bac8-820a-4a37-9aec-596ccbdef7b7"},"vehicle_type_id":"4","last_reported":1748542483,"current_range_meters":800,"station_id":"ce4bgih2rcd13ifvqba0","pricing_plan_id":"cebpf4jnsgd1na2vs0mg"},{"bike_id":"b6b907a0-701b-414f-8e57-bd9586e17505","system_id":"levelo_inurba_marseille","lat":43.28482,"lon":5.38552,"is_reserved":false,"is_disabled":true,"rental_uris":{"android":"levelo://app?vid=b6b907a0-701b-414f-8e57-bd9586e17505","ios":"levelo://app?vid=b6b907a0-701b-414f-8e57-bd9586e17505"},"vehicle_type_id":"4","last_reported":1748542483,"current_range_meters":800,"station_id":"ce4bh8p2rcd13ifvqeb0","pricing_plan_id":"cebpf4jnsgd1na2vs0mg"},{"bike_id":"03dcf9f8-9968-4954-9542-f1673945be57","system_id":"levelo_inurba_marseille","lat":43.28263,"lon":5.35068,"is_reserved":false,"is_disabled":true,"rental_uris":{"android":"levelo://app?vid=03dcf9f8-9968-4954-9542-f1673945be57","ios":"levelo://app?vid=03dcf9f8-9968-4954-9542-f1673945be57"},"vehicle_type_id":"4","last_reported":1748542483,"current_range_meters":800,"station_id":"ce4bhbp2rcd13ifvqerg","pricing_plan_id":"cebpf4jnsgd1na2vs0mg"},{"bike_id":"90508595-1856-4329-ad58-fa760a1f30c8","system_id":"levelo_inurba_marseille","lat":43.27998,"lon":5.38738,"is_reserved":false,"is_disabled":true,"rental_uris":{"android":"levelo://app?vid=90508595-1856-4329-ad58-fa760a1f30c8","ios":"levelo://app?vid=90508595-1856-4329-ad58-fa760a1f30c8"},"vehicle_type_id":"4","last_reported":1748542483,"current_range_meters":800,"station_id":"ce4bhg12rcd13ifvqf80","pricing_plan_id":"cebpf4jnsgd1na2vs0mg"},{"bike_id":"1d2f60ca-6f68-425d-a8e5-81cad26e9b9f","system_id":"levelo_inurba_marseille","lat":43.27218,"lon":5.39179,"is_reserved":false,"is_disabled":true,"rental_uris":{"android":"levelo://app?vid=1d2f60ca-6f68-425d-a8e5-81cad26e9b9f","ios":"levelo://app?vid=1d2f60ca-6f68-425d-a8e5-81cad26e9b9f"},"vehicle_type_id":"4","last_reported":1748542483,"current_range_meters":800,"station_id":"ce4bhhp2rcd13ifvqfm0","pricing_plan_id":"cebpf4jnsgd1na2vs0mg"},{"bike_id":"5215640d-2fd5-4a51-af38-ba665e8ec76a","system_id":"levelo_inurba_marseille","lat":43.32586,"lon":5.43084,"is_reserved":false,"is_disabled":true,"rental_uris":{"android":"levelo://app?vid=5215640d-2fd5-4a51-af38-ba665e8ec76a","ios":"levelo://app?vid=5215640d-2fd5-4a51-af38-ba665e8ec76a"},"vehicle_type_id":"4","last_reported":1748542483,"current_range_meters":1200,"station_id":"","pricing_plan_id":"cebpf4jnsgd1na2vs0mg"},{"bike_id":"180e4da0-00a9-4461-bfd1-11630824fb3b","system_id":"levelo_inurba_marseille","lat":43.24327,"lon":5.40178,"is_reserved":false,"is_disabled":true,"rental_uris":{"android":"levelo://app?vid=180e4da0-00a9-4461-bfd1-11630824fb3b","ios":"levelo://app?vid=180e4da0-00a9-4461-bfd1-11630824fb3b"},"vehicle_type_id":"4","last_reported":1748542483,"current_range_meters":1200,"station_id":"","pricing_plan_id":"cebpf4jnsgd1na2vs0mg"},{"bike_id":"fdc64ac9-1344-4279-9e24-e9cac69648c7","system_id":"levelo_inurba_marseille","lat":43.26194,"lon":5.37448,"is_reserved":false,"is_disabled":true,"rental_uris":{"android":"levelo://app?vid=fdc64ac9-1344-4279-9e24-e9cac69648c7","ios":"levelo://app?vid=fdc64ac9-1344-4279-9e24-e9cac69648c7"},"vehicle_type_id":"4","last_reported":1748542483,"current_range_meters":1200,"station_id":"ce4bhgp2rcd13ifvqfc0","pricing_plan_id":"cebpf4jnsgd1na2vs0mg"},{"bike_id":"c53de56f-e91c-4b06-9f7a-665f5da07986","system_id":"levelo_inurba_marseille","lat":43.26213,"lon":5.37438,"is_reserved":false,"is_disabled":true,"rental_uris":{"android":"levelo://app?vid=c53de56f-e91c-4b06-9f7a-665f5da07986","ios":"levelo://app?vid=c53de56f-e91c-4b06-9f7a-665f5da07986"},"vehicle_type_id":"4","last_reported":1748542483,"current_range_meters":1200,"station_id":"ce4bhgp2rcd13ifvqfc0","pricing_plan_id":"cebpf4jnsgd1na2vs0mg"},{"bike_id":"14c930e3-a0d6-44be-8481-e47b9a614869","system_id":"levelo_inurba_marseille","lat":43.3032,"lon":5.36889,"is_reserved":false,"is_disabled":true,"rental_uris":{"android":"levelo://app?vid=14c930e3-a0d6-44be-8481-e47b9a614869","ios":"levelo://app?vid=14c930e3-a0d6-44be-8481-e47b9a614869"},"vehicle_type_id":"4","last_reported":1748542483,"current_range_meters":1600,"station_id":"ce4bgqh2rcd13ifvqc5g","pricing_plan_id":"cebpf4jnsgd1na2vs0mg"},{"bike_id":"a6f1b2b3-7ed2-4518-846f-76cad1f1c591","system_id":"levelo_inurba_marseille","lat":43.31358,"lon":5.38481,"is_reserved":false,"is_disabled":false,"rental_uris":{"android":"levelo://app?vid=a6f1b2b3-7ed2-4518-846f-76cad1f1c591","ios":"levelo://app?vid=a6f1b2b3-7ed2-4518-846f-76cad1f1c591"},"vehicle_type_id":"4","last_reported":1748542483,"current_range_meters":1600,"station_id":"ce4bgt92rcd13ifvqcf0","pricing_plan_id":"cebpf4jnsgd1na2vs0mg"},{"bike_id":"b066d6fa-d36b-449b-85f8-cbe05cc14996","system_id":"levelo_inurba_marseille","lat":43.26674,"lon":5.382692,"is_reserved":false,"is_disabled":true,"rental_uris":{"android":"levelo://app?vid=b066d6fa-d36b-449b-85f8-cbe05cc14996","ios":"levelo://app?vid=b066d6fa-d36b-449b-85f8-cbe05cc14996"},"vehicle_type_id":"4","last_reported":1748542483,"current_range_meters":1600,"station_id":"ce4bhg92rcd13ifvqf90","pricing_plan_id":"cebpf4jnsgd1na2vs0mg"},{"bike_id":"d3e40bb4-f29c-47b5-85a9-fabbee2f455b","system_id":"levelo_inurba_marseille","lat":43.24807,"lon":5.37456,"is_reserved":false,"is_disabled":true,"rental_uris":{"android":"levelo://app?vid=d3e40bb4-f29c-47b5-85a9-fabbee2f455b","ios":"levelo://app?vid=d3e40bb4-f29c-47b5-85a9-fabbee2f455b"},"vehicle_type_id":"4","last_reported":1748542483,"current_range_meters":1600,"station_id":"ce4bhgh2rcd13ifvqfb0","pricing_plan_id":"cebpf4jnsgd1na2vs0mg"},{"bike_id":"5a393222-f074-45f8-82a2-0302c0ba7fc0","system_id":"levelo_inurba_marseille","lat":43.30275,"lon":5.37722,"is_reserved":false,"is_disabled":false,"rental_uris":{"android":"levelo://app?vid=5a393222-f074-45f8-82a2-0302c0ba7fc0","ios":"levelo://app?vid=5a393222-f074-45f8-82a2-0302c0ba7fc0"},"vehicle_type_id":"4","last_reported":1748542483,"current_range_meters":2000,"station_id":"ce4bguh2rcd13ifvqcj0","pricing_plan_id":"cebpf4jnsgd1na2vs0mg"},{"bike_id":"95aa6be9-171e-4d5c-9902-09ca8cd6c55f","system_id":"levelo_inurba_marseille","lat":43.31337,"lon":5.39694,"is_reserved":false,"is_disabled":true,"rental_uris":{"android":"levelo://app?vid=95aa6be9-171e-4d5c-9902-09ca8cd6c55f","ios":"levelo://app?vid=95aa6be9-171e-4d5c-9902-09ca8cd6c55f"},"vehicle_type_id":"4","last_reported":1748542483,"current_range_meters":2000,"station_id":"ce4bgvp2rcd13ifvqcu0","pricing_plan_id":"cebpf4jnsgd1na2vs0mg"},{"bike_id":"0e65e3a4-5709-4177-a9c0-44bf637b7354","system_id":"levelo_inurba_marseille","lat":43.289987,"lon":5.355989,"is_reserved":false,"is_disabled":true,"rental_uris":{"android":"levelo://app?vid=0e65e3a4-5709-4177-a9c0-44bf637b7354","ios":"levelo://app?vid=0e65e3a4-5709-4177-a9c0-44bf637b7354"},"vehicle_type_id":"4","last_reported":1748542483,"current_range_meters":2000,"station_id":"ce4bhb92rcd13ifvqen0","pricing_plan_id":"cebpf4jnsgd1na2vs0mg"},{"bike_id":"b5808a68-3012-4157-a646-259431c964bf","system_id":"levelo_inurba_marseille","lat":43.290021,"lon":5.356058,"is_reserved":false,"is_disabled":true,"rental_uris":{"android":"levelo://app?vid=b5808a68-3012-4157-a646-259431c964bf","ios":"levelo://app?vid=b5808a68-3012-4157-a646-259431c964bf"},"vehicle_type_id":"4","last_reported":1748542483,"current_range_meters":2000,"station_id":"ce4bhb92rcd13ifvqen0","pricing_plan_id":"cebpf4jnsgd1na2vs0mg"},{"bike_id":"66f450a3-35bb-4dec-85be-3968f9f1cd22","system_id":"levelo_inurba_marseille","lat":43.26948,"lon":5.38642,"is_reserved":false,"is_disabled":true,"rental_uris":{"android":"levelo://app?vid=66f450a3-35bb-4dec-85be-3968f9f1cd22","ios":"levelo://app?vid=66f450a3-35bb-4dec-85be-3968f9f1cd22"},"vehicle_type_id":"4","last_reported":1748542483,"current_range_meters":2000,"station_id":"ce4bhh92rcd13ifvqfh0","pricing_plan_id":"cebpf4jnsgd1na2vs0mg"},{"bike_id":"ae1c2def-702a-4e8d-a15d-05b98fe2c84f","system_id":"levelo_inurba_marseille","lat":43.30889,"lon":5.39657,"is_reserved":false,"is_disabled":false,"rental_uris":{"android":"levelo://app?vid=ae1c2def-702a-4e8d-a15d-05b98fe2c84f","ios":"levelo://app?vid=ae1c2def-702a-4e8d-a15d-05b98fe2c84f"},"vehicle_type_id":"4","last_reported":1748542483,"current_range_meters":2800,"station_id":"ce4bh012rcd13ifvqcv0","pricing_plan_id":"cebpf4jnsgd1na2vs0mg"},{"bike_id":"10024969-9d5f-4d45-9c90-47ae24a30404","system_id":"levelo_inurba_marseille","lat":43.289358,"lon":5.363668,"is_reserved":false,"is_disabled":false,"rental_uris":{"android":"levelo://app?vid=10024969-9d5f-4d45-9c90-47ae24a30404","ios":"levelo://app?vid=10024969-9d5f-4d45-9c90-47ae24a30404"},"vehicle_type_id":"4","last_reported":1748542483,"current_range_meters":2800,"station_id":"ce4bhc92rcd13ifvqetg","pricing_plan_id":"cebpf4jnsgd1na2vs0mg"},{"bike_id":"e6df601f-59f9-4897-b3e3-267b4e45ac34","system_id":"levelo_inurba_marseille","lat":43.25591,"lon":5.38204,"is_reserved":false,"is_disabled":false,"rental_uris":{"android":"levelo://app?vid=e6df601f-59f9-4897-b3e3-267b4e45ac34","ios":"levelo://app?vid=e6df601f-59f9-4897-b3e3-267b4e45ac34"},"vehicle_type_id":"4","last_reported":1748542483,"current_range_meters":2800,"station_id":"ce4bhih2rcd13ifvqfs0","pricing_plan_id":"cebpf4jnsgd1na2vs0mg"},{"bike_id":"4502ba76-2eff-45d3-9f66-67ba4656f9bc","system_id":"levelo_inurba_marseille","lat":43.334301,"lon":5.410167,"is_reserved":false,"is_disabled":false,"rental_uris":{"android":"levelo://app?vid=4502ba76-2eff-45d3-9f66-67ba4656f9bc","ios":"levelo://app?vid=4502ba76-2eff-45d3-9f66-67ba4656f9bc"},"vehicle_type_id":"4","last_reported":1748542483,"current_range_meters":2800,"station_id":"ce4bhqh2rcd13ifvqhmg","pricing_plan_id":"cebpf4jnsgd1na2vs0mg"},{"bike_id":"7de7a3ab-b09c-468e-96b1-b681cac5a58d","system_id":"levelo_inurba_marseille","lat":43.24163,"lon":5.36397,"is_reserved":false,"is_disabled":false,"rental_uris":{"android":"levelo://app?vid=7de7a3ab-b09c-468e-96b1-b681cac5a58d","ios":"levelo://app?vid=7de7a3ab-b09c-468e-96b1-b681cac5a58d"},"vehicle_type_id":"4","last_reported":1748542483,"current_range_meters":2800,"station_id":"cpo36qri1sfpv3e86is0","pricing_plan_id":"cebpf4jnsgd1na2vs0mg"},{"bike_id":"d90baf97-e6b3-4c48-bcd2-63bc44243da4","system_id":"levelo_inurba_marseille","lat":43.21682,"lon":5.34324,"is_reserved":false,"is_disabled":false,"rental_uris":{"android":"levelo://app?vid=d90baf97-e6b3-4c48-bcd2-63bc44243da4","ios":"levelo://app?vid=d90baf97-e6b3-4c48-bcd2-63bc44243da4"},"vehicle_type_id":"4","last_reported":1748542483,"current_range_meters":3200,"station_id":"","pricing_plan_id":"cebpf4jnsgd1na2vs0mg"},{"bike_id":"f1196153-3169-48b4-880f-ee7cb42aa500","system_id":"levelo_inurba_marseille","lat":43.31159,"lon":5.38721,"is_reserved":false,"is_disabled":false,"rental_uris":{"android":"levelo://app?vid=f1196153-3169-48b4-880f-ee7cb42aa500","ios":"levelo://app?vid=f1196153-3169-48b4-880f-ee7cb42aa500"},"vehicle_type_id":"4","last_reported":1748542483,"current_range_meters":3200,"station_id":"ce4bgv12rcd13ifvqcp0","pricing_plan_id":"cebpf4jnsgd1na2vs0mg"},{"bike_id":"141081eb-70ea-454c-8697-f55dc105691d","system_id":"levelo_inurba_marseille","lat":43.2861,"lon":5.3706,"is_reserved":false,"is_disabled":false,"rental_uris":{"android":"levelo://app?vid=141081eb-70ea-454c-8697-f55dc105691d","ios":"levelo://app?vid=141081eb-70ea-454c-8697-f55dc105691d"},"vehicle_type_id":"4","last_reported":1748542483,"current_range_meters":3200,"station_id":"ce4bht12rcd13ifvqi60","pricing_plan_id":"cebpf4jnsgd1na2vs0mg"},{"bike_id":"0b7cc989-d94a-40b3-81ea-f37020314baa","system_id":"levelo_inurba_marseille","lat":43.31069,"lon":5.38353,"is_reserved":false,"is_disabled":false,"rental_uris":{"android":"levelo://app?vid=0b7cc989-d94a-40b3-81ea-f37020314baa","ios":"levelo://app?vid=0b7cc989-d94a-40b3-81ea-f37020314baa"},"vehicle_type_id":"4","last_reported":1748542483,"current_range_meters":3600,"station_id":"ce4bgv92rcd13ifvqcr0","pricing_plan_id":"cebpf4jnsgd1na2vs0mg"},{"bike_id":"080bcf12-72dd-4f89-a74f-0560387a867d","system_id":"levelo_inurba_marseille","lat":43.29198,"lon":5.35803,"is_reserved":false,"is_disabled":false,"rental_uris":{"android":"levelo://app?vid=080bcf12-72dd-4f89-a74f-0560387a867d","ios":"levelo://app?vid=080bcf12-72dd-4f89-a74f-0560387a867d"},"vehicle_type_id":"4","last_reported":1748542483,"current_range_meters":4000,"station_id":"ce4bhb12rcd13ifvqel0","pricing_plan_id":"cebpf4jnsgd1na2vs0mg"},{"bike_id":"b80ee325-09b2-4724-993d-4f8d3707c41c","system_id":"levelo_inurba_marseille","lat":43.25862,"lon":5.39902,"is_reserved":false,"is_disabled":false,"rental_uris":{"android":"levelo://app?vid=b80ee325-09b2-4724-993d-4f8d3707c41c","ios":"levelo://app?vid=b80ee325-09b2-4724-993d-4f8d3707c41c"},"vehicle_type_id":"4","last_reported":1748542483,"current_range_meters":4000,"station_id":"ce4bhl92rcd13ifvqghg","pricing_plan_id":"cebpf4jnsgd1na2vs0mg"},{"bike_id":"e4b3a1d7-c644-4ff6-9ad3-178d17614cce","system_id":"levelo_inurba_marseille","lat":43.292273,"lon":5.360757,"is_reserved":false,"is_disabled":false,"rental_uris":{"android":"levelo://app?vid=e4b3a1d7-c644-4ff6-9ad3-178d17614cce","ios":"levelo://app?vid=e4b3a1d7-c644-4ff6-9ad3-178d17614cce"},"vehicle_type_id":"4","last_reported":1748542483,"current_range_meters":4400,"station_id":"ce4bhbh2rcd13ifvqeqg","pricing_plan_id":"cebpf4jnsgd1na2vs0mg"},{"bike_id":"e1f6ce08-f5ae-4e1f-b91b-0b71d50af565","system_id":"levelo_inurba_marseille","lat":43.25004,"lon":5.38926,"is_reserved":false,"is_disabled":false,"rental_uris":{"android":"levelo://app?vid=e1f6ce08-f5ae-4e1f-b91b-0b71d50af565","ios":"levelo://app?vid=e1f6ce08-f5ae-4e1f-b91b-0b71d50af565"},"vehicle_type_id":"4","last_reported":1748542483,"current_range_meters":4400,"station_id":"ce4bhgp2rcd13ifvqfd0","pricing_plan_id":"cebpf4jnsgd1na2vs0mg"},{"bike_id":"b3fdaaa1-a386-45d3-9cb4-9cde34e988ac","system_id":"levelo_inurba_marseille","lat":43.27312,"lon":5.39091,"is_reserved":false,"is_disabled":false,"rental_uris":{"android":"levelo://app?vid=b3fdaaa1-a386-45d3-9cb4-9cde34e988ac","ios":"levelo://app?vid=b3fdaaa1-a386-45d3-9cb4-9cde34e988ac"},"vehicle_type_id":"4","last_reported":1748542483,"current_range_meters":4400,"station_id":"ce4bhgp2rcd13ifvqfe0","pricing_plan_id":"cebpf4jnsgd1na2vs0mg"},{"bike_id":"6d7cfdcd-f061-4eee-b4e5-78d9b6729328","system_id":"levelo_inurba_marseille","lat":43.32993,"lon":5.43867,"is_reserved":false,"is_disabled":false,"rental_uris":{"android":"levelo://app?vid=6d7cfdcd-f061-4eee-b4e5-78d9b6729328","ios":"levelo://app?vid=6d7cfdcd-f061-4eee-b4e5-78d9b6729328"},"vehicle_type_id":"4","last_reported":1748542483,"current_range_meters":4800,"station_id":"","pricing_plan_id":"cebpf4jnsgd1na2vs0mg"},{"bike_id":"d63cda25-10ed-4c82-a9fb-676ce353f2e3","system_id":"levelo_inurba_marseille","lat":43.308227,"lon":5.388322,"is_reserved":false,"is_disabled":false,"rental_uris":{"android":"levelo://app?vid=d63cda25-10ed-4c82-a9fb-676ce353f2e3","ios":"levelo://app?vid=d63cda25-10ed-4c82-a9fb-676ce353f2e3"},"vehicle_type_id":"4","last_reported":1748542483,"current_range_meters":4800,"station_id":"ce4bgup2rcd13ifvqco0","pricing_plan_id":"cebpf4jnsgd1na2vs0mg"},{"bike_id":"acb39181-852b-4d5a-932d-4aa58e19c750","system_id":"levelo_inurba_marseille","lat":43.29038,"lon":5.38643,"is_reserved":false,"is_disabled":false,"rental_uris":{"android":"levelo://app?vid=acb39181-852b-4d5a-932d-4aa58e19c750","ios":"levelo://app?vid=acb39181-852b-4d5a-932d-4aa58e19c750"},"vehicle_type_id":"4","last_reported":1748542483,"current_range_meters":4800,"station_id":"ce4bh4p2rcd13ifvqe0g","pricing_plan_id":"cebpf4jnsgd1na2vs0mg"},{"bike_id":"81ebe6f0-4c64-46bf-abdb-a142fcdf6d22","system_id":"levelo_inurba_marseille","lat":43.2904,"lon":5.38101,"is_reserved":false,"is_disabled":false,"rental_uris":{"android":"levelo://app?vid=81ebe6f0-4c64-46bf-abdb-a142fcdf6d22","ios":"levelo://app?vid=81ebe6f0-4c64-46bf-abdb-a142fcdf6d22"},"vehicle_type_id":"4","last_reported":1748542483,"current_range_meters":4800,"station_id":"ce4bh4p2rcd13ifvqe1g","pricing_plan_id":"cebpf4jnsgd1na2vs0mg"},{"bike_id":"9185ed5c-57ff-4536-92b5-542bb4a5fbd6","system_id":"levelo_inurba_marseille","lat":43.28158,"lon":5.42637,"is_reserved":false,"is_disabled":false,"rental_uris":{"android":"levelo://app?vid=9185ed5c-57ff-4536-92b5-542bb4a5fbd6","ios":"levelo://app?vid=9185ed5c-57ff-4536-92b5-542bb4a5fbd6"},"vehicle_type_id":"4","last_reported":1748542483,"current_range_meters":4800,"station_id":"ce4bhnh2rcd13ifvqgug","pricing_plan_id":"cebpf4jnsgd1na2vs0mg"},{"bike_id":"e7f59f38-311b-4ddc-b3ae-252cdbed8a83","system_id":"levelo_inurba_marseille","lat":43.286191,"lon":5.351076,"is_reserved":false,"is_disabled":false,"rental_uris":{"android":"levelo://app?vid=e7f59f38-311b-4ddc-b3ae-252cdbed8a83","ios":"levelo://app?vid=e7f59f38-311b-4ddc-b3ae-252cdbed8a83"},"vehicle_type_id":"4","last_reported":1748542483,"current_range_meters":5600,"station_id":"ce4bhch2rcd13ifvqeug","pricing_plan_id":"cebpf4jnsgd1na2vs0mg"},{"bike_id":"c0c5027f-c041-4b12-acfa-e6b17680071b","system_id":"levelo_inurba_marseille","lat":43.237999,"lon":5.435716,"is_reserved":false,"is_disabled":false,"rental_uris":{"android":"levelo://app?vid=c0c5027f-c041-4b12-acfa-e6b17680071b","ios":"levelo://app?vid=c0c5027f-c041-4b12-acfa-e6b17680071b"},"vehicle_type_id":"4","last_reported":1748542483,"current_range_meters":6000,"station_id":"","pricing_plan_id":"cebpf4jnsgd1na2vs0mg"},{"bike_id":"01a5b4ae-7bdd-4ba9-85fa-a4512f3eab19","system_id":"levelo_inurba_marseille","lat":43.309487,"lon":5.390193,"is_reserved":false,"is_disabled":false,"rental_uris":{"android":"levelo://app?vid=01a5b4ae-7bdd-4ba9-85fa-a4512f3eab19","ios":"levelo://app?vid=01a5b4ae-7bdd-4ba9-85fa-a4512f3eab19"},"vehicle_type_id":"4","last_reported":1748542483,"current_range_meters":6000,"station_id":"ce4bgup2rcd13ifvqco0","pricing_plan_id":"cebpf4jnsgd1na2vs0mg"},{"bike_id":"b54befd8-a875-4134-9d92-46ade5f4a781","system_id":"levelo_inurba_marseille","lat":43.30794,"lon":5.37657,"is_reserved":false,"is_disabled":false,"rental_uris":{"android":"levelo://app?vid=b54befd8-a875-4134-9d92-46ade5f4a781","ios":"levelo://app?vid=b54befd8-a875-4134-9d92-46ade5f4a781"},"vehicle_type_id":"4","last_reported":1748542483,"current_range_meters":6000,"station_id":"ce4bgv92rcd13ifvqcq0","pricing_plan_id":"cebpf4jnsgd1na2vs0mg"},{"bike_id":"77abfd72-e2f5-482e-a1d2-2d67dc8044ab","system_id":"levelo_inurba_marseille","lat":43.292606,"lon":5.384301,"is_reserved":false,"is_disabled":false,"rental_uris":{"android":"levelo://app?vid=77abfd72-e2f5-482e-a1d2-2d67dc8044ab","ios":"levelo://app?vid=77abfd72-e2f5-482e-a1d2-2d67dc8044ab"},"vehicle_type_id":"4","last_reported":1748542483,"current_range_meters":6000,"station_id":"ce4bh692rcd13ifvqea0","pricing_plan_id":"cebpf4jnsgd1na2vs0mg"},{"bike_id":"a917bc1a-c39f-40c2-9b87-ba18ce5d2a5c","system_id":"levelo_inurba_marseille","lat":43.28945,"lon":5.36634,"is_reserved":false,"is_disabled":false,"rental_uris":{"android":"levelo://app?vid=a917bc1a-c39f-40c2-9b87-ba18ce5d2a5c","ios":"levelo://app?vid=a917bc1a-c39f-40c2-9b87-ba18ce5d2a5c"},"vehicle_type_id":"4","last_reported":1748542483,"current_range_meters":6000,"station_id":"ce4bhap2rcd13ifvqek0","pricing_plan_id":"cebpf4jnsgd1na2vs0mg"},{"bike_id":"f6a47009-c675-4b06-8efe-f673cb9fe3e8","system_id":"levelo_inurba_marseille","lat":43.26555,"lon":5.37293,"is_reserved":false,"is_disabled":false,"rental_uris":{"android":"levelo://app?vid=f6a47009-c675-4b06-8efe-f673cb9fe3e8","ios":"levelo://app?vid=f6a47009-c675-4b06-8efe-f673cb9fe3e8"},"vehicle_type_id":"4","last_reported":1748542483,"current_range_meters":6000,"station_id":"ce4bhg12rcd13ifvqf70","pricing_plan_id":"cebpf4jnsgd1na2vs0mg"},{"bike_id":"d944e5e8-5fbf-48ad-ba83-e2354a21c8f8","system_id":"levelo_inurba_marseille","lat":43.24807,"lon":5.37452,"is_reserved":false,"is_disabled":false,"rental_uris":{"android":"levelo://app?vid=d944e5e8-5fbf-48ad-ba83-e2354a21c8f8","ios":"levelo://app?vid=d944e5e8-5fbf-48ad-ba83-e2354a21c8f8"},"vehicle_type_id":"4","last_reported":1748542483,"current_range_meters":6000,"station_id":"ce4bhgh2rcd13ifvqfb0","pricing_plan_id":"cebpf4jnsgd1na2vs0mg"},{"bike_id":"6cddb488-bc63-402f-9ae9-4b2b965663c6","system_id":"levelo_inurba_marseille","lat":43.28076,"lon":5.39657,"is_reserved":false,"is_disabled":false,"rental_uris":{"android":"levelo://app?vid=6cddb488-bc63-402f-9ae9-4b2b965663c6","ios":"levelo://app?vid=6cddb488-bc63-402f-9ae9-4b2b965663c6"},"vehicle_type_id":"4","last_reported":1748542483,"current_range_meters":6000,"station_id":"ce4bho12rcd13ifvqh2g","pricing_plan_id":"cebpf4jnsgd1na2vs0mg"},{"bike_id":"0087ae07-be25-4bbf-ac3e-2897ab540c79","system_id":"levelo_inurba_marseille","lat":43.30804,"lon":5.43523,"is_reserved":false,"is_disabled":false,"rental_uris":{"android":"levelo://app?vid=0087ae07-be25-4bbf-ac3e-2897ab540c79","ios":"levelo://app?vid=0087ae07-be25-4bbf-ac3e-2897ab540c79"},"vehicle_type_id":"4","last_reported":1748542483,"current_range_meters":6000,"station_id":"ce4bhph2rcd13ifvqheg","pricing_plan_id":"cebpf4jnsgd1na2vs0mg"},{"bike_id":"1eed49fb-ce64-4ebd-9903-7d87835a2ccf","system_id":"levelo_inurba_marseille","lat":43.29765,"lon":5.45983,"is_reserved":false,"is_disabled":false,"rental_uris":{"android":"levelo://app?vid=1eed49fb-ce64-4ebd-9903-7d87835a2ccf","ios":"levelo://app?vid=1eed49fb-ce64-4ebd-9903-7d87835a2ccf"},"vehicle_type_id":"4","last_reported":1748542483,"current_range_meters":6400,"station_id":"","pricing_plan_id":"cebpf4jnsgd1na2vs0mg"},{"bike_id":"e00febd4-e36c-41ef-bdf0-a44478a21171","system_id":"levelo_inurba_marseille","lat":43.29596,"lon":5.38104,"is_reserved":false,"is_disabled":false,"rental_uris":{"android":"levelo://app?vid=e00febd4-e36c-41ef-bdf0-a44478a21171","ios":"levelo://app?vid=e00febd4-e36c-41ef-bdf0-a44478a21171"},"vehicle_type_id":"4","last_reported":1748542483,"current_range_meters":6400,"station_id":"ce4bgl12rcd13ifvqbo0","pricing_plan_id":"cebpf4jnsgd1na2vs0mg"},{"bike_id":"cca0b30a-4412-47b2-896a-3f79f58b14d6","system_id":"levelo_inurba_marseille","lat":43.29435,"lon":5.39757,"is_reserved":false,"is_disabled":false,"rental_uris":{"android":"levelo://app?vid=cca0b30a-4412-47b2-896a-3f79f58b14d6","ios":"levelo://app?vid=cca0b30a-4412-47b2-896a-3f79f58b14d6"},"vehicle_type_id":"4","last_reported":1748542483,"current_range_meters":6400,"station_id":"ce4bh3h2rcd13ifvqdo0","pricing_plan_id":"cebpf4jnsgd1na2vs0mg"},{"bike_id":"43ae12cb-33b7-48ab-b133-539fd03cecf9","system_id":"levelo_inurba_marseille","lat":43.29216,"lon":5.36063,"is_reserved":false,"is_disabled":false,"rental_uris":{"android":"levelo://app?vid=43ae12cb-33b7-48ab-b133-539fd03cecf9","ios":"levelo://app?vid=43ae12cb-33b7-48ab-b133-539fd03cecf9"},"vehicle_type_id":"4","last_reported":1748542483,"current_range_meters":6400,"station_id":"ce4bhbh2rcd13ifvqeqg","pricing_plan_id":"cebpf4jnsgd1na2vs0mg"},{"bike_id":"516793b6-2a60-4cef-965c-183c34dd6376","system_id":"levelo_inurba_marseille","lat":43.27565,"lon":5.38416,"is_reserved":false,"is_disabled":false,"rental_uris":{"android":"levelo://app?vid=516793b6-2a60-4cef-965c-183c34dd6376","ios":"levelo://app?vid=516793b6-2a60-4cef-965c-183c34dd6376"},"vehicle_type_id":"4","last_reported":1748542483,"current_range_meters":6400,"station_id":"ce4bhh92rcd13ifvqfi0","pricing_plan_id":"cebpf4jnsgd1na2vs0mg"},{"bike_id":"1b26aedb-1ab0-48b9-b249-23aff3e2a4b9","system_id":"levelo_inurba_marseille","lat":43.29294,"lon":5.3717,"is_reserved":false,"is_disabled":false,"rental_uris":{"android":"levelo://app?vid=1b26aedb-1ab0-48b9-b249-23aff3e2a4b9","ios":"levelo://app?vid=1b26aedb-1ab0-48b9-b249-23aff3e2a4b9"},"vehicle_type_id":"4","last_reported":1748542483,"current_range_meters":6800,"station_id":"ce4bgh92rcd13ifvqb40","pricing_plan_id":"cebpf4jnsgd1na2vs0mg"},{"bike_id":"fdac5e2d-ec40-4623-8748-29838d6cc517","system_id":"levelo_inurba_marseille","lat":43.28922,"lon":5.36626,"is_reserved":false,"is_disabled":false,"rental_uris":{"android":"levelo://app?vid=fdac5e2d-ec40-4623-8748-29838d6cc517","ios":"levelo://app?vid=fdac5e2d-ec40-4623-8748-29838d6cc517"},"vehicle_type_id":"4","last_reported":1748542483,"current_range_meters":6800,"station_id":"ce4bhap2rcd13ifvqek0","pricing_plan_id":"cebpf4jnsgd1na2vs0mg"},{"bike_id":"bf106879-ecde-48b6-8ced-379454d46ddc","system_id":"levelo_inurba_marseille","lat":43.26557,"lon":5.37282,"is_reserved":false,"is_disabled":false,"rental_uris":{"android":"levelo://app?vid=bf106879-ecde-48b6-8ced-379454d46ddc","ios":"levelo://app?vid=bf106879-ecde-48b6-8ced-379454d46ddc"},"vehicle_type_id":"4","last_reported":1748542483,"current_range_meters":6800,"station_id":"ce4bhg12rcd13ifvqf70","pricing_plan_id":"cebpf4jnsgd1na2vs0mg"},{"bike_id":"337b4521-7b24-430d-8a4e-21238e462c60","system_id":"levelo_inurba_marseille","lat":43.26191,"lon":5.40436,"is_reserved":false,"is_disabled":false,"rental_uris":{"android":"levelo://app?vid=337b4521-7b24-430d-8a4e-21238e462c60","ios":"levelo://app?vid=337b4521-7b24-430d-8a4e-21238e462c60"},"vehicle_type_id":"4","last_reported":1748542483,"current_range_meters":6800,"station_id":"ce4bhmh2rcd13ifvqgmg","pricing_plan_id":"cebpf4jnsgd1na2vs0mg"},{"bike_id":"2f650bb1-6027-4191-83d2-16315820a0a7","system_id":"levelo_inurba_marseille","lat":43.299965,"lon":5.373487,"is_reserved":false,"is_disabled":false,"rental_uris":{"android":"levelo://app?vid=2f650bb1-6027-4191-83d2-16315820a0a7","ios":"levelo://app?vid=2f650bb1-6027-4191-83d2-16315820a0a7"},"vehicle_type_id":"4","last_reported":1748542483,"current_range_meters":7200,"station_id":"","pricing_plan_id":"cebpf4jnsgd1na2vs0mg"},{"bike_id":"1511eb57-51ed-46be-b8b3-31758c69e32f","system_id":"levelo_inurba_marseille","lat":43.28464,"lon":5.38409,"is_reserved":false,"is_disabled":false,"rental_uris":{"android":"levelo://app?vid=1511eb57-51ed-46be-b8b3-31758c69e32f","ios":"levelo://app?vid=1511eb57-51ed-46be-b8b3-31758c69e32f"},"vehicle_type_id":"4","last_reported":1748542483,"current_range_meters":7200,"station_id":"ce4bh512rcd13ifvqe3g","pricing_plan_id":"cebpf4jnsgd1na2vs0mg"},{"bike_id":"6fa74942-2579-4587-ab6e-71e7ea3908ec","system_id":"levelo_inurba_marseille","lat":43.26683,"lon":5.38262,"is_reserved":false,"is_disabled":false,"rental_uris":{"android":"levelo://app?vid=6fa74942-2579-4587-ab6e-71e7ea3908ec","ios":"levelo://app?vid=6fa74942-2579-4587-ab6e-71e7ea3908ec"},"vehicle_type_id":"4","last_reported":1748542483,"current_range_meters":7200,"station_id":"ce4bhg92rcd13ifvqf90","pricing_plan_id":"cebpf4jnsgd1na2vs0mg"},{"bike_id":"92ea9ae4-de38-48e1-88f2-c13da856b2e3","system_id":"levelo_inurba_marseille","lat":43.26218,"lon":5.37447,"is_reserved":false,"is_disabled":false,"rental_uris":{"android":"levelo://app?vid=92ea9ae4-de38-48e1-88f2-c13da856b2e3","ios":"levelo://app?vid=92ea9ae4-de38-48e1-88f2-c13da856b2e3"},"vehicle_type_id":"4","last_reported":1748542483,"current_range_meters":7200,"station_id":"ce4bhgp2rcd13ifvqfc0","pricing_plan_id":"cebpf4jnsgd1na2vs0mg"},{"bike_id":"e5e93fe9-9956-40a1-b2fa-bada315d8e19","system_id":"levelo_inurba_marseille","lat":43.33163,"lon":5.38156,"is_reserved":false,"is_disabled":false,"rental_uris":{"android":"levelo://app?vid=e5e93fe9-9956-40a1-b2fa-bada315d8e19","ios":"levelo://app?vid=e5e93fe9-9956-40a1-b2fa-bada315d8e19"},"vehicle_type_id":"4","last_reported":1748542483,"current_range_meters":8000,"station_id":"","pricing_plan_id":"cebpf4jnsgd1na2vs0mg"},{"bike_id":"528e54e0-df6b-40ef-9929-2e4f1ee5a533","system_id":"levelo_inurba_marseille","lat":43.296742,"lon":5.387101,"is_reserved":false,"is_disabled":false,"rental_uris":{"android":"levelo://app?vid=528e54e0-df6b-40ef-9929-2e4f1ee5a533","ios":"levelo://app?vid=528e54e0-df6b-40ef-9929-2e4f1ee5a533"},"vehicle_type_id":"4","last_reported":1748542483,"current_range_meters":8000,"station_id":"","pricing_plan_id":"cebpf4jnsgd1na2vs0mg"},{"bike_id":"1f43b985-685f-4a15-833f-16f32e785b3a","system_id":"levelo_inurba_marseille","lat":43.30471,"lon":5.3792,"is_reserved":false,"is_disabled":false,"rental_uris":{"android":"levelo://app?vid=1f43b985-685f-4a15-833f-16f32e785b3a","ios":"levelo://app?vid=1f43b985-685f-4a15-833f-16f32e785b3a"},"vehicle_type_id":"4","last_reported":1748542483,"current_range_meters":8000,"station_id":"ce4bgup2rcd13ifvqcn0","pricing_plan_id":"cebpf4jnsgd1na2vs0mg"},{"bike_id":"f95895cb-11ad-47e4-9c10-37170f08e299","system_id":"levelo_inurba_marseille","lat":43.28697,"lon":5.37391,"is_reserved":false,"is_disabled":false,"rental_uris":{"android":"levelo://app?vid=f95895cb-11ad-47e4-9c10-37170f08e299","ios":"levelo://app?vid=f95895cb-11ad-47e4-9c10-37170f08e299"},"vehicle_type_id":"4","last_reported":1748542483,"current_range_meters":8000,"station_id":"ce4bh3p2rcd13ifvqdq0","pricing_plan_id":"cebpf4jnsgd1na2vs0mg"},{"bike_id":"70366404-dfb9-4107-8d90-91a0f7720d64","system_id":"levelo_inurba_marseille","lat":43.28378,"lon":5.38635,"is_reserved":false,"is_disabled":false,"rental_uris":{"android":"levelo://app?vid=70366404-dfb9-4107-8d90-91a0f7720d64","ios":"levelo://app?vid=70366404-dfb9-4107-8d90-91a0f7720d64"},"vehicle_type_id":"4","last_reported":1748542483,"current_range_meters":8000,"station_id":"ce4bh492rcd13ifvqdvg","pricing_plan_id":"cebpf4jnsgd1na2vs0mg"},{"bike_id":"482b8933-c337-455a-979f-0e37c2c58687","system_id":"levelo_inurba_marseille","lat":43.29019,"lon":5.38648,"is_reserved":false,"is_disabled":false,"rental_uris":{"android":"levelo://app?vid=482b8933-c337-455a-979f-0e37c2c58687","ios":"levelo://app?vid=482b8933-c337-455a-979f-0e37c2c58687"},"vehicle_type_id":"4","last_reported":1748542483,"current_range_meters":8000,"station_id":"ce4bh4p2rcd13ifvqe0g","pricing_plan_id":"cebpf4jnsgd1na2vs0mg"},{"bike_id":"9a06f3a0-5f0f-4303-bee7-745cc1bf7838","system_id":"levelo_inurba_marseille","lat":43.28481,"lon":5.38418,"is_reserved":false,"is_disabled":false,"rental_uris":{"android":"levelo://app?vid=9a06f3a0-5f0f-4303-bee7-745cc1bf7838","ios":"levelo://app?vid=9a06f3a0-5f0f-4303-bee7-745cc1bf7838"},"vehicle_type_id":"4","last_reported":1748542483,"current_range_meters":8000,"station_id":"ce4bh512rcd13ifvqe3g","pricing_plan_id":"cebpf4jnsgd1na2vs0mg"},{"bike_id":"8f89950e-efa9-4d42-87e2-0f63c9dda7df","system_id":"levelo_inurba_marseille","lat":43.28939,"lon":5.38397,"is_reserved":false,"is_disabled":false,"rental_uris":{"android":"levelo://app?vid=8f89950e-efa9-4d42-87e2-0f63c9dda7df","ios":"levelo://app?vid=8f89950e-efa9-4d42-87e2-0f63c9dda7df"},"vehicle_type_id":"4","last_reported":1748542483,"current_range_meters":8000,"station_id":"ce4bh612rcd13ifvqe6g","pricing_plan_id":"cebpf4jnsgd1na2vs0mg"},{"bike_id":"bae85408-eec6-4110-983b-20569acb1947","system_id":"levelo_inurba_marseille","lat":43.24807,"lon":5.37456,"is_reserved":false,"is_disabled":false,"rental_uris":{"android":"levelo://app?vid=bae85408-eec6-4110-983b-20569acb1947","ios":"levelo://app?vid=bae85408-eec6-4110-983b-20569acb1947"},"vehicle_type_id":"4","last_reported":1748542483,"current_range_meters":8000,"station_id":"ce4bhgh2rcd13ifvqfb0","pricing_plan_id":"cebpf4jnsgd1na2vs0mg"},{"bike_id":"8472c6ba-4097-4b01-afcd-c81b98519f37","system_id":"levelo_inurba_marseille","lat":43.2499,"lon":5.38926,"is_reserved":false,"is_disabled":false,"rental_uris":{"android":"levelo://app?vid=8472c6ba-4097-4b01-afcd-c81b98519f37","ios":"levelo://app?vid=8472c6ba-4097-4b01-afcd-c81b98519f37"},"vehicle_type_id":"4","last_reported":1748542483,"current_range_meters":8000,"station_id":"ce4bhgp2rcd13ifvqfd0","pricing_plan_id":"cebpf4jnsgd1na2vs0mg"},{"bike_id":"e2b97027-4176-4d6b-83d4-6a7fd1f66994","system_id":"levelo_inurba_marseille","lat":43.25933,"lon":5.40909,"is_reserved":false,"is_disabled":false,"rental_uris":{"android":"levelo://app?vid=e2b97027-4176-4d6b-83d4-6a7fd1f66994","ios":"levelo://app?vid=e2b97027-4176-4d6b-83d4-6a7fd1f66994"},"vehicle_type_id":"4","last_reported":1748542483,"current_range_meters":8000,"station_id":"ce4bhm92rcd13ifvqglg","pricing_plan_id":"cebpf4jnsgd1na2vs0mg"},{"bike_id":"c3b75b50-f6c7-4ec3-84ab-441792304296","system_id":"levelo_inurba_marseille","lat":43.27945,"lon":5.41049,"is_reserved":false,"is_disabled":false,"rental_uris":{"android":"levelo://app?vid=c3b75b50-f6c7-4ec3-84ab-441792304296","ios":"levelo://app?vid=c3b75b50-f6c7-4ec3-84ab-441792304296"},"vehicle_type_id":"4","last_reported":1748542483,"current_range_meters":8000,"station_id":"ce4bhnp2rcd13ifvqh0g","pricing_plan_id":"cebpf4jnsgd1na2vs0mg"},{"bike_id":"84adab0f-96c1-4426-bc86-147d47e6151b","system_id":"levelo_inurba_marseille","lat":43.23166,"lon":5.3556,"is_reserved":false,"is_disabled":false,"rental_uris":{"android":"levelo://app?vid=84adab0f-96c1-4426-bc86-147d47e6151b","ios":"levelo://app?vid=84adab0f-96c1-4426-bc86-147d47e6151b"},"vehicle_type_id":"4","last_reported":1748542483,"current_range_meters":8000,"station_id":"ce4bhu92rcd13ifvqi70","pricing_plan_id":"cebpf4jnsgd1na2vs0mg"},{"bike_id":"86f11208-7f90-4009-a976-cc81e2c7825f","system_id":"levelo_inurba_marseille","lat":43.241691,"lon":5.364061,"is_reserved":false,"is_disabled":false,"rental_uris":{"android":"levelo://app?vid=86f11208-7f90-4009-a976-cc81e2c7825f","ios":"levelo://app?vid=86f11208-7f90-4009-a976-cc81e2c7825f"},"vehicle_type_id":"4","last_reported":1748542483,"current_range_meters":8000,"station_id":"cpo36qri1sfpv3e86is0","pricing_plan_id":"cebpf4jnsgd1na2vs0mg"},{"bike_id":"03703cbb-6e38-45e4-8c31-92a39bc63262","system_id":"levelo_inurba_marseille","lat":43.241746,"lon":5.363996,"is_reserved":false,"is_disabled":false,"rental_uris":{"android":"levelo://app?vid=03703cbb-6e38-45e4-8c31-92a39bc63262","ios":"levelo://app?vid=03703cbb-6e38-45e4-8c31-92a39bc63262"},"vehicle_type_id":"4","last_reported":1748542483,"current_range_meters":8000,"station_id":"cpo36qri1sfpv3e86is0","pricing_plan_id":"cebpf4jnsgd1na2vs0mg"},{"bike_id":"22771043-09b1-43eb-91e0-5c845144e1e3","system_id":"levelo_inurba_marseille","lat":43.276993,"lon":5.408674,"is_reserved":false,"is_disabled":false,"rental_uris":{"android":"levelo://app?vid=22771043-09b1-43eb-91e0-5c845144e1e3","ios":"levelo://app?vid=22771043-09b1-43eb-91e0-5c845144e1e3"},"vehicle_type_id":"4","last_reported":1748542483,"current_range_meters":8400,"station_id":"","pricing_plan_id":"cebpf4jnsgd1na2vs0mg"},{"bike_id":"7ad6fa5f-df46-4408-be3a-66a4244a5a34","system_id":"levelo_inurba_marseille","lat":43.2657,"lon":5.40319,"is_reserved":false,"is_disabled":false,"rental_uris":{"android":"levelo://app?vid=7ad6fa5f-df46-4408-be3a-66a4244a5a34","ios":"levelo://app?vid=7ad6fa5f-df46-4408-be3a-66a4244a5a34"},"vehicle_type_id":"4","last_reported":1748542483,"current_range_meters":8400,"station_id":"","pricing_plan_id":"cebpf4jnsgd1na2vs0mg"},{"bike_id":"f152d277-fcf3-4cc7-841c-9757ad79bcc2","system_id":"levelo_inurba_marseille","lat":43.294484,"lon":5.385853,"is_reserved":false,"is_disabled":false,"rental_uris":{"android":"levelo://app?vid=f152d277-fcf3-4cc7-841c-9757ad79bcc2","ios":"levelo://app?vid=f152d277-fcf3-4cc7-841c-9757ad79bcc2"},"vehicle_type_id":"4","last_reported":1748542483,"current_range_meters":8400,"station_id":"ce4bh2h2rcd13ifvqdh0","pricing_plan_id":"cebpf4jnsgd1na2vs0mg"},{"bike_id":"505275b3-a396-452e-b07b-e5024acbcab7","system_id":"levelo_inurba_marseille","lat":43.29276,"lon":5.40112,"is_reserved":false,"is_disabled":false,"rental_uris":{"android":"levelo://app?vid=505275b3-a396-452e-b07b-e5024acbcab7","ios":"levelo://app?vid=505275b3-a396-452e-b07b-e5024acbcab7"},"vehicle_type_id":"4","last_reported":1748542483,"current_range_meters":8400,"station_id":"ce4bh312rcd13ifvqdk0","pricing_plan_id":"cebpf4jnsgd1na2vs0mg"},{"bike_id":"0d61948e-614d-4423-a3de-7b08a3fff69a","system_id":"levelo_inurba_marseille","lat":43.28027,"lon":5.36949,"is_reserved":false,"is_disabled":false,"rental_uris":{"android":"levelo://app?vid=0d61948e-614d-4423-a3de-7b08a3fff69a","ios":"levelo://app?vid=0d61948e-614d-4423-a3de-7b08a3fff69a"},"vehicle_type_id":"4","last_reported":1748542483,"current_range_meters":8400,"station_id":"ce4bha12rcd13ifvqef0","pricing_plan_id":"cebpf4jnsgd1na2vs0mg"},{"bike_id":"58f21d09-b846-4b6e-ab68-4c5fc99795fb","system_id":"levelo_inurba_marseille","lat":43.29198,"lon":5.3581,"is_reserved":false,"is_disabled":false,"rental_uris":{"android":"levelo://app?vid=58f21d09-b846-4b6e-ab68-4c5fc99795fb","ios":"levelo://app?vid=58f21d09-b846-4b6e-ab68-4c5fc99795fb"},"vehicle_type_id":"4","last_reported":1748542483,"current_range_meters":8400,"station_id":"ce4bhb12rcd13ifvqel0","pricing_plan_id":"cebpf4jnsgd1na2vs0mg"},{"bike_id":"ec524146-4fc1-4240-88f6-47710a6eb63d","system_id":"levelo_inurba_marseille","lat":43.29196,"lon":5.35795,"is_reserved":false,"is_disabled":false,"rental_uris":{"android":"levelo://app?vid=ec524146-4fc1-4240-88f6-47710a6eb63d","ios":"levelo://app?vid=ec524146-4fc1-4240-88f6-47710a6eb63d"},"vehicle_type_id":"4","last_reported":1748542483,"current_range_meters":8400,"station_id":"ce4bhb12rcd13ifvqel0","pricing_plan_id":"cebpf4jnsgd1na2vs0mg"},{"bike_id":"a4968ed8-da6c-4733-bc0c-4ecf19300e7f","system_id":"levelo_inurba_marseille","lat":43.288621,"lon":5.358674,"is_reserved":false,"is_disabled":false,"rental_uris":{"android":"levelo://app?vid=a4968ed8-da6c-4733-bc0c-4ecf19300e7f","ios":"levelo://app?vid=a4968ed8-da6c-4733-bc0c-4ecf19300e7f"},"vehicle_type_id":"4","last_reported":1748542483,"current_range_meters":8400,"station_id":"ce4bhb12rcd13ifvqem0","pricing_plan_id":"cebpf4jnsgd1na2vs0mg"},{"bike_id":"7c6e48ab-b87e-4e89-9339-a1a2992e6797","system_id":"levelo_inurba_marseille","lat":43.26116,"lon":5.41481,"is_reserved":false,"is_disabled":false,"rental_uris":{"android":"levelo://app?vid=7c6e48ab-b87e-4e89-9339-a1a2992e6797","ios":"levelo://app?vid=7c6e48ab-b87e-4e89-9339-a1a2992e6797"},"vehicle_type_id":"4","last_reported":1748542483,"current_range_meters":8800,"station_id":"","pricing_plan_id":"cebpf4jnsgd1na2vs0mg"},{"bike_id":"24cd34e1-bb74-4352-90f7-805b9231f525","system_id":"levelo_inurba_marseille","lat":43.26392,"lon":5.41965,"is_reserved":false,"is_disabled":false,"rental_uris":{"android":"levelo://app?vid=24cd34e1-bb74-4352-90f7-805b9231f525","ios":"levelo://app?vid=24cd34e1-bb74-4352-90f7-805b9231f525"},"vehicle_type_id":"4","last_reported":1748542483,"current_range_meters":8800,"station_id":"","pricing_plan_id":"cebpf4jnsgd1na2vs0mg"},{"bike_id":"b9ae16bc-ec39-406e-9e42-55cba52b28fe","system_id":"levelo_inurba_marseille","lat":43.26029,"lon":5.41723,"is_reserved":false,"is_disabled":false,"rental_uris":{"android":"levelo://app?vid=b9ae16bc-ec39-406e-9e42-55cba52b28fe","ios":"levelo://app?vid=b9ae16bc-ec39-406e-9e42-55cba52b28fe"},"vehicle_type_id":"4","last_reported":1748542483,"current_range_meters":8800,"station_id":"","pricing_plan_id":"cebpf4jnsgd1na2vs0mg"},{"bike_id":"f492b0e7-1878-4832-a6b4-a2ee00063067","system_id":"levelo_inurba_marseille","lat":43.30885,"lon":5.39652,"is_reserved":false,"is_disabled":false,"rental_uris":{"android":"levelo://app?vid=f492b0e7-1878-4832-a6b4-a2ee00063067","ios":"levelo://app?vid=f492b0e7-1878-4832-a6b4-a2ee00063067"},"vehicle_type_id":"4","last_reported":1748542483,"current_range_meters":8800,"station_id":"ce4bh012rcd13ifvqcv0","pricing_plan_id":"cebpf4jnsgd1na2vs0mg"},{"bike_id":"4c9ee58c-238f-4eff-9a58-fe19cf1e080c","system_id":"levelo_inurba_marseille","lat":43.30596,"lon":5.39353,"is_reserved":false,"is_disabled":false,"rental_uris":{"android":"levelo://app?vid=4c9ee58c-238f-4eff-9a58-fe19cf1e080c","ios":"levelo://app?vid=4c9ee58c-238f-4eff-9a58-fe19cf1e080c"},"vehicle_type_id":"4","last_reported":1748542483,"current_range_meters":8800,"station_id":"ce4bh0p2rcd13ifvqd80","pricing_plan_id":"cebpf4jnsgd1na2vs0mg"},{"bike_id":"336ce5b5-29dd-424f-b6e5-74f6b6230919","system_id":"levelo_inurba_marseille","lat":43.29026,"lon":5.38132,"is_reserved":false,"is_disabled":false,"rental_uris":{"android":"levelo://app?vid=336ce5b5-29dd-424f-b6e5-74f6b6230919","ios":"levelo://app?vid=336ce5b5-29dd-424f-b6e5-74f6b6230919"},"vehicle_type_id":"4","last_reported":1748542483,"current_range_meters":8800,"station_id":"ce4bh4p2rcd13ifvqe1g","pricing_plan_id":"cebpf4jnsgd1na2vs0mg"},{"bike_id":"d66f3467-6486-4818-ad58-482d36968736","system_id":"levelo_inurba_marseille","lat":43.2848,"lon":5.38425,"is_reserved":false,"is_disabled":false,"rental_uris":{"android":"levelo://app?vid=d66f3467-6486-4818-ad58-482d36968736","ios":"levelo://app?vid=d66f3467-6486-4818-ad58-482d36968736"},"vehicle_type_id":"4","last_reported":1748542483,"current_range_meters":8800,"station_id":"ce4bh512rcd13ifvqe3g","pricing_plan_id":"cebpf4jnsgd1na2vs0mg"},{"bike_id":"b4418a6d-fea5-4143-8b36-9abb0f9db35c","system_id":"levelo_inurba_marseille","lat":43.24804,"lon":5.37454,"is_reserved":false,"is_disabled":false,"rental_uris":{"android":"levelo://app?vid=b4418a6d-fea5-4143-8b36-9abb0f9db35c","ios":"levelo://app?vid=b4418a6d-fea5-4143-8b36-9abb0f9db35c"},"vehicle_type_id":"4","last_reported":1748542483,"current_range_meters":8800,"station_id":"ce4bhgh2rcd13ifvqfb0","pricing_plan_id":"cebpf4jnsgd1na2vs0mg"},{"bike_id":"d6be0152-ba8c-4014-96e2-6fac538d2bbe","system_id":"levelo_inurba_marseille","lat":43.299781,"lon":5.384871,"is_reserved":false,"is_disabled":false,"rental_uris":{"android":"levelo://app?vid=d6be0152-ba8c-4014-96e2-6fac538d2bbe","ios":"levelo://app?vid=d6be0152-ba8c-4014-96e2-6fac538d2bbe"},"vehicle_type_id":"4","last_reported":1748542483,"current_range_meters":9200,"station_id":"ce4bgj92rcd13ifvqbd0","pricing_plan_id":"cebpf4jnsgd1na2vs0mg"},{"bike_id":"3c64e065-1c2a-4c58-b0c2-820b4bda4b2e","system_id":"levelo_inurba_marseille","lat":43.30816,"lon":5.38139,"is_reserved":false,"is_disabled":false,"rental_uris":{"android":"levelo://app?vid=3c64e065-1c2a-4c58-b0c2-820b4bda4b2e","ios":"levelo://app?vid=3c64e065-1c2a-4c58-b0c2-820b4bda4b2e"},"vehicle_type_id":"4","last_reported":1748542483,"current_range_meters":9200,"station_id":"ce4bgt12rcd13ifvqce0","pricing_plan_id":"cebpf4jnsgd1na2vs0mg"},{"bike_id":"33961e40-8a50-4785-a110-8aa986a12253","system_id":"levelo_inurba_marseille","lat":43.30951,"lon":5.39042,"is_reserved":false,"is_disabled":false,"rental_uris":{"android":"levelo://app?vid=33961e40-8a50-4785-a110-8aa986a12253","ios":"levelo://app?vid=33961e40-8a50-4785-a110-8aa986a12253"},"vehicle_type_id":"4","last_reported":1748542483,"current_range_meters":9200,"station_id":"ce4bgup2rcd13ifvqco0","pricing_plan_id":"cebpf4jnsgd1na2vs0mg"},{"bike_id":"3372052f-b9b8-4c17-b5b2-d5eeb7cec67a","system_id":"levelo_inurba_marseille","lat":43.28102,"lon":5.37836,"is_reserved":false,"is_disabled":false,"rental_uris":{"android":"levelo://app?vid=3372052f-b9b8-4c17-b5b2-d5eeb7cec67a","ios":"levelo://app?vid=3372052f-b9b8-4c17-b5b2-d5eeb7cec67a"},"vehicle_type_id":"4","last_reported":1748542483,"current_range_meters":9200,"station_id":"ce4bha12rcd13ifvqee0","pricing_plan_id":"cebpf4jnsgd1na2vs0mg"},{"bike_id":"cc866758-ea92-4f87-a09f-7ea0b322913b","system_id":"levelo_inurba_marseille","lat":43.28942,"lon":5.36394,"is_reserved":false,"is_disabled":false,"rental_uris":{"android":"levelo://app?vid=cc866758-ea92-4f87-a09f-7ea0b322913b","ios":"levelo://app?vid=cc866758-ea92-4f87-a09f-7ea0b322913b"},"vehicle_type_id":"4","last_reported":1748542483,"current_range_meters":9200,"station_id":"ce4bhc92rcd13ifvqetg","pricing_plan_id":"cebpf4jnsgd1na2vs0mg"},{"bike_id":"6af3c224-0761-4800-a562-e06feca0d455","system_id":"levelo_inurba_marseille","lat":43.250057,"lon":5.389317,"is_reserved":false,"is_disabled":false,"rental_uris":{"android":"levelo://app?vid=6af3c224-0761-4800-a562-e06feca0d455","ios":"levelo://app?vid=6af3c224-0761-4800-a562-e06feca0d455"},"vehicle_type_id":"4","last_reported":1748542483,"current_range_meters":9200,"station_id":"ce4bhgp2rcd13ifvqfd0","pricing_plan_id":"cebpf4jnsgd1na2vs0mg"},{"bike_id":"6c1af83b-8165-4ed5-8e72-64939ace1986","system_id":"levelo_inurba_marseille","lat":43.28002,"lon":5.4166,"is_reserved":false,"is_disabled":false,"rental_uris":{"android":"levelo://app?vid=6c1af83b-8165-4ed5-8e72-64939ace1986","ios":"levelo://app?vid=6c1af83b-8165-4ed5-8e72-64939ace1986"},"vehicle_type_id":"4","last_reported":1748542483,"current_range_meters":9200,"station_id":"ce4bho12rcd13ifvqh1g","pricing_plan_id":"cebpf4jnsgd1na2vs0mg"},{"bike_id":"31127409-2e31-45f2-adfd-a6e0fce99555","system_id":"levelo_inurba_marseille","lat":43.29227,"lon":5.38464,"is_reserved":false,"is_disabled":false,"rental_uris":{"android":"levelo://app?vid=31127409-2e31-45f2-adfd-a6e0fce99555","ios":"levelo://app?vid=31127409-2e31-45f2-adfd-a6e0fce99555"},"vehicle_type_id":"4","last_reported":1748542483,"current_range_meters":9600,"station_id":"","pricing_plan_id":"cebpf4jnsgd1na2vs0mg"},{"bike_id":"2acfcc79-d572-4bec-ab3f-63991dc428e5","system_id":"levelo_inurba_marseille","lat":43.31165,"lon":5.38718,"is_reserved":false,"is_disabled":false,"rental_uris":{"android":"levelo://app?vid=2acfcc79-d572-4bec-ab3f-63991dc428e5","ios":"levelo://app?vid=2acfcc79-d572-4bec-ab3f-63991dc428e5"},"vehicle_type_id":"4","last_reported":1748542483,"current_range_meters":9600,"station_id":"ce4bgv12rcd13ifvqcp0","pricing_plan_id":"cebpf4jnsgd1na2vs0mg"},{"bike_id":"a196b62c-4d9f-40de-964e-5e76cf7ab0bc","system_id":"levelo_inurba_marseille","lat":43.28405,"lon":5.37536,"is_reserved":false,"is_disabled":false,"rental_uris":{"android":"levelo://app?vid=a196b62c-4d9f-40de-964e-5e76cf7ab0bc","ios":"levelo://app?vid=a196b62c-4d9f-40de-964e-5e76cf7ab0bc"},"vehicle_type_id":"4","last_reported":1748542483,"current_range_meters":9600,"station_id":"ce4bh412rcd13ifvqds0","pricing_plan_id":"cebpf4jnsgd1na2vs0mg"},{"bike_id":"969b5530-3c19-4ddb-a18c-b5843748683e","system_id":"levelo_inurba_marseille","lat":43.28927,"lon":5.38411,"is_reserved":false,"is_disabled":false,"rental_uris":{"android":"levelo://app?vid=969b5530-3c19-4ddb-a18c-b5843748683e","ios":"levelo://app?vid=969b5530-3c19-4ddb-a18c-b5843748683e"},"vehicle_type_id":"4","last_reported":1748542483,"current_range_meters":9600,"station_id":"ce4bh612rcd13ifvqe6g","pricing_plan_id":"cebpf4jnsgd1na2vs0mg"},{"bike_id":"5727091e-b04c-4832-97e2-645509659490","system_id":"levelo_inurba_marseille","lat":43.29193,"lon":5.35805,"is_reserved":false,"is_disabled":false,"rental_uris":{"android":"levelo://app?vid=5727091e-b04c-4832-97e2-645509659490","ios":"levelo://app?vid=5727091e-b04c-4832-97e2-645509659490"},"vehicle_type_id":"4","last_reported":1748542483,"current_range_meters":9600,"station_id":"ce4bhb12rcd13ifvqel0","pricing_plan_id":"cebpf4jnsgd1na2vs0mg"},{"bike_id":"f293ba09-4b7e-4261-9c45-5e8e5f6ff81c","system_id":"levelo_inurba_marseille","lat":43.303897,"lon":5.424921,"is_reserved":false,"is_disabled":false,"rental_uris":{"android":"levelo://app?vid=f293ba09-4b7e-4261-9c45-5e8e5f6ff81c","ios":"levelo://app?vid=f293ba09-4b7e-4261-9c45-5e8e5f6ff81c"},"vehicle_type_id":"4","last_reported":1748542483,"current_range_meters":9600,"station_id":"ce4bhoh2rcd13ifvqh6g","pricing_plan_id":"cebpf4jnsgd1na2vs0mg"},{"bike_id":"8c9428fa-2d33-4463-9684-f117805ce597","system_id":"levelo_inurba_marseille","lat":43.31761,"lon":5.39018,"is_reserved":false,"is_disabled":false,"rental_uris":{"android":"levelo://app?vid=8c9428fa-2d33-4463-9684-f117805ce597","ios":"levelo://app?vid=8c9428fa-2d33-4463-9684-f117805ce597"},"vehicle_type_id":"4","last_reported":1748542483,"current_range_meters":9600,"station_id":"ce4bhqp2rcd13ifvqhng","pricing_plan_id":"cebpf4jnsgd1na2vs0mg"},{"bike_id":"48d689ba-1776-48e9-b9b8-2206a6b00fc7","system_id":"levelo_inurba_marseille","lat":43.28618,"lon":5.37058,"is_reserved":false,"is_disabled":false,"rental_uris":{"android":"levelo://app?vid=48d689ba-1776-48e9-b9b8-2206a6b00fc7","ios":"levelo://app?vid=48d689ba-1776-48e9-b9b8-2206a6b00fc7"},"vehicle_type_id":"4","last_reported":1748542483,"current_range_meters":9600,"station_id":"ce4bht12rcd13ifvqi60","pricing_plan_id":"cebpf4jnsgd1na2vs0mg"},{"bike_id":"a55b95e5-cdb2-4249-a5e1-7572952253ac","system_id":"levelo_inurba_marseille","lat":43.29535,"lon":5.38542,"is_reserved":false,"is_disabled":false,"rental_uris":{"android":"levelo://app?vid=a55b95e5-cdb2-4249-a5e1-7572952253ac","ios":"levelo://app?vid=a55b95e5-cdb2-4249-a5e1-7572952253ac"},"vehicle_type_id":"4","last_reported":1748542483,"current_range_meters":10000,"station_id":"ce4bgih2rcd13ifvqba0","pricing_plan_id":"cebpf4jnsgd1na2vs0mg"},{"bike_id":"eed8b5b1-ed5f-4e0a-b80d-89c06d2e02d1","system_id":"levelo_inurba_marseille","lat":43.29277,"lon":5.40125,"is_reserved":false,"is_disabled":false,"rental_uris":{"android":"levelo://app?vid=eed8b5b1-ed5f-4e0a-b80d-89c06d2e02d1","ios":"levelo://app?vid=eed8b5b1-ed5f-4e0a-b80d-89c06d2e02d1"},"vehicle_type_id":"4","last_reported":1748542483,"current_range_meters":10000,"station_id":"ce4bh312rcd13ifvqdk0","pricing_plan_id":"cebpf4jnsgd1na2vs0mg"},{"bike_id":"033bc839-f7e6-4b07-b34d-140eecfce297","system_id":"levelo_inurba_marseille","lat":43.28703,"lon":5.37392,"is_reserved":false,"is_disabled":false,"rental_uris":{"android":"levelo://app?vid=033bc839-f7e6-4b07-b34d-140eecfce297","ios":"levelo://app?vid=033bc839-f7e6-4b07-b34d-140eecfce297"},"vehicle_type_id":"4","last_reported":1748542483,"current_range_meters":10000,"station_id":"ce4bh3p2rcd13ifvqdq0","pricing_plan_id":"cebpf4jnsgd1na2vs0mg"},{"bike_id":"63ba5f7a-d088-48d9-8a7f-5af380af0aaa","system_id":"levelo_inurba_marseille","lat":43.28412,"lon":5.37517,"is_reserved":false,"is_disabled":false,"rental_uris":{"android":"levelo://app?vid=63ba5f7a-d088-48d9-8a7f-5af380af0aaa","ios":"levelo://app?vid=63ba5f7a-d088-48d9-8a7f-5af380af0aaa"},"vehicle_type_id":"4","last_reported":1748542483,"current_range_meters":10000,"station_id":"ce4bh412rcd13ifvqds0","pricing_plan_id":"cebpf4jnsgd1na2vs0mg"},{"bike_id":"781d1653-d781-48d9-a24e-93a705285c8b","system_id":"levelo_inurba_marseille","lat":43.29025,"lon":5.38649,"is_reserved":false,"is_disabled":false,"rental_uris":{"android":"levelo://app?vid=781d1653-d781-48d9-a24e-93a705285c8b","ios":"levelo://app?vid=781d1653-d781-48d9-a24e-93a705285c8b"},"vehicle_type_id":"4","last_reported":1748542483,"current_range_meters":10000,"station_id":"ce4bh4p2rcd13ifvqe0g","pricing_plan_id":"cebpf4jnsgd1na2vs0mg"},{"bike_id":"7b561f4e-b46d-4cee-840e-520331fd86d4","system_id":"levelo_inurba_marseille","lat":43.2902,"lon":5.38137,"is_reserved":false,"is_disabled":false,"rental_uris":{"android":"levelo://app?vid=7b561f4e-b46d-4cee-840e-520331fd86d4","ios":"levelo://app?vid=7b561f4e-b46d-4cee-840e-520331fd86d4"},"vehicle_type_id":"4","last_reported":1748542483,"current_range_meters":10000,"station_id":"ce4bh4p2rcd13ifvqe1g","pricing_plan_id":"cebpf4jnsgd1na2vs0mg"},{"bike_id":"39d84839-f3e2-40d8-b4b9-447e7386cff3","system_id":"levelo_inurba_marseille","lat":43.29251,"lon":5.38438,"is_reserved":false,"is_disabled":false,"rental_uris":{"android":"levelo://app?vid=39d84839-f3e2-40d8-b4b9-447e7386cff3","ios":"levelo://app?vid=39d84839-f3e2-40d8-b4b9-447e7386cff3"},"vehicle_type_id":"4","last_reported":1748542483,"current_range_meters":10000,"station_id":"ce4bh692rcd13ifvqea0","pricing_plan_id":"cebpf4jnsgd1na2vs0mg"},{"bike_id":"4f8225b5-c797-459e-b55a-6b2df80e7bdd","system_id":"levelo_inurba_marseille","lat":43.24669,"lon":5.38159,"is_reserved":false,"is_disabled":false,"rental_uris":{"android":"levelo://app?vid=4f8225b5-c797-459e-b55a-6b2df80e7bdd","ios":"levelo://app?vid=4f8225b5-c797-459e-b55a-6b2df80e7bdd"},"vehicle_type_id":"4","last_reported":1748542483,"current_range_meters":10000,"station_id":"ce4bhih2rcd13ifvqfr0","pricing_plan_id":"cebpf4jnsgd1na2vs0mg"},{"bike_id":"0e009545-9acc-491d-b143-22cbd0096db4","system_id":"levelo_inurba_marseille","lat":43.33835,"lon":5.39268,"is_reserved":false,"is_disabled":false,"rental_uris":{"android":"levelo://app?vid=0e009545-9acc-491d-b143-22cbd0096db4","ios":"levelo://app?vid=0e009545-9acc-491d-b143-22cbd0096db4"},"vehicle_type_id":"4","last_reported":1748542483,"current_range_meters":10800,"station_id":"","pricing_plan_id":"cebpf4jnsgd1na2vs0mg"},{"bike_id":"42dca157-bdb0-4361-8022-7979135f94aa","system_id":"levelo_inurba_marseille","lat":43.285679,"lon":5.365587,"is_reserved":false,"is_disabled":false,"rental_uris":{"android":"levelo://app?vid=42dca157-bdb0-4361-8022-7979135f94aa","ios":"levelo://app?vid=42dca157-bdb0-4361-8022-7979135f94aa"},"vehicle_type_id":"4","last_reported":1748542483,"current_range_meters":10800,"station_id":"","pricing_plan_id":"cebpf4jnsgd1na2vs0mg"},{"bike_id":"d3a21553-a0d6-49aa-9916-5ff10cad59aa","system_id":"levelo_inurba_marseille","lat":43.2989,"lon":5.3889,"is_reserved":false,"is_disabled":false,"rental_uris":{"android":"levelo://app?vid=d3a21553-a0d6-49aa-9916-5ff10cad59aa","ios":"levelo://app?vid=d3a21553-a0d6-49aa-9916-5ff10cad59aa"},"vehicle_type_id":"4","last_reported":1748542483,"current_range_meters":10800,"station_id":"ce4bh392rcd13ifvqdl0","pricing_plan_id":"cebpf4jnsgd1na2vs0mg"},{"bike_id":"621ad574-cf13-42e9-88fe-990f32a07f08","system_id":"levelo_inurba_marseille","lat":43.29028,"lon":5.37561,"is_reserved":false,"is_disabled":false,"rental_uris":{"android":"levelo://app?vid=621ad574-cf13-42e9-88fe-990f32a07f08","ios":"levelo://app?vid=621ad574-cf13-42e9-88fe-990f32a07f08"},"vehicle_type_id":"4","last_reported":1748542483,"current_range_meters":10800,"station_id":"ce4bh692rcd13ifvqe90","pricing_plan_id":"cebpf4jnsgd1na2vs0mg"},{"bike_id":"92baf979-8e69-4492-a1ea-776c2ee8ddd4","system_id":"levelo_inurba_marseille","lat":43.29267,"lon":5.38436,"is_reserved":false,"is_disabled":false,"rental_uris":{"android":"levelo://app?vid=92baf979-8e69-4492-a1ea-776c2ee8ddd4","ios":"levelo://app?vid=92baf979-8e69-4492-a1ea-776c2ee8ddd4"},"vehicle_type_id":"4","last_reported":1748542483,"current_range_meters":10800,"station_id":"ce4bh692rcd13ifvqea0","pricing_plan_id":"cebpf4jnsgd1na2vs0mg"},{"bike_id":"8275ed54-4e3f-4acd-87df-9189f84d4dba","system_id":"levelo_inurba_marseille","lat":43.29259,"lon":5.38448,"is_reserved":false,"is_disabled":false,"rental_uris":{"android":"levelo://app?vid=8275ed54-4e3f-4acd-87df-9189f84d4dba","ios":"levelo://app?vid=8275ed54-4e3f-4acd-87df-9189f84d4dba"},"vehicle_type_id":"4","last_reported":1748542483,"current_range_meters":10800,"station_id":"ce4bh692rcd13ifvqea0","pricing_plan_id":"cebpf4jnsgd1na2vs0mg"},{"bike_id":"c5619196-fd9e-4d96-8e05-a443aecfcfdd","system_id":"levelo_inurba_marseille","lat":43.25086,"lon":5.39525,"is_reserved":false,"is_disabled":false,"rental_uris":{"android":"levelo://app?vid=c5619196-fd9e-4d96-8e05-a443aecfcfdd","ios":"levelo://app?vid=c5619196-fd9e-4d96-8e05-a443aecfcfdd"},"vehicle_type_id":"4","last_reported":1748542483,"current_range_meters":10800,"station_id":"ce4bhm12rcd13ifvqgkg","pricing_plan_id":"cebpf4jnsgd1na2vs0mg"},{"bike_id":"59b93d3f-2a23-482c-a19e-9f06651720b8","system_id":"levelo_inurba_marseille","lat":43.27813,"lon":5.40709,"is_reserved":false,"is_disabled":false,"rental_uris":{"android":"levelo://app?vid=59b93d3f-2a23-482c-a19e-9f06651720b8","ios":"levelo://app?vid=59b93d3f-2a23-482c-a19e-9f06651720b8"},"vehicle_type_id":"4","last_reported":1748542483,"current_range_meters":10800,"station_id":"ce4bhnh2rcd13ifvqgtg","pricing_plan_id":"cebpf4jnsgd1na2vs0mg"},{"bike_id":"1cf73e50-3334-4e89-aefd-a8aadf304fce","system_id":"levelo_inurba_marseille","lat":43.30138,"lon":5.39875,"is_reserved":false,"is_disabled":false,"rental_uris":{"android":"levelo://app?vid=1cf73e50-3334-4e89-aefd-a8aadf304fce","ios":"levelo://app?vid=1cf73e50-3334-4e89-aefd-a8aadf304fce"},"vehicle_type_id":"4","last_reported":1748542483,"current_range_meters":11200,"station_id":"ce4bh0h2rcd13ifvqd40","pricing_plan_id":"cebpf4jnsgd1na2vs0mg"},{"bike_id":"45129574-87f4-4753-9407-afeee7214ab1","system_id":"levelo_inurba_marseille","lat":43.29205,"lon":5.3931,"is_reserved":false,"is_disabled":false,"rental_uris":{"android":"levelo://app?vid=45129574-87f4-4753-9407-afeee7214ab1","ios":"levelo://app?vid=45129574-87f4-4753-9407-afeee7214ab1"},"vehicle_type_id":"4","last_reported":1748542483,"current_range_meters":11200,"station_id":"ce4bh192rcd13ifvqdd0","pricing_plan_id":"cebpf4jnsgd1na2vs0mg"},{"bike_id":"5b575175-68ad-4ad8-846f-5ba52d0566d5","system_id":"levelo_inurba_marseille","lat":43.29517,"lon":5.39053,"is_reserved":false,"is_disabled":false,"rental_uris":{"android":"levelo://app?vid=5b575175-68ad-4ad8-846f-5ba52d0566d5","ios":"levelo://app?vid=5b575175-68ad-4ad8-846f-5ba52d0566d5"},"vehicle_type_id":"4","last_reported":1748542483,"current_range_meters":11200,"station_id":"ce4bh3p2rcd13ifvqdp0","pricing_plan_id":"cebpf4jnsgd1na2vs0mg"},{"bike_id":"de5cf318-1a36-4a98-a920-6d997a25c229","system_id":"levelo_inurba_marseille","lat":43.28941,"lon":5.36629,"is_reserved":false,"is_disabled":false,"rental_uris":{"android":"levelo://app?vid=de5cf318-1a36-4a98-a920-6d997a25c229","ios":"levelo://app?vid=de5cf318-1a36-4a98-a920-6d997a25c229"},"vehicle_type_id":"4","last_reported":1748542483,"current_range_meters":11200,"station_id":"ce4bhap2rcd13ifvqek0","pricing_plan_id":"cebpf4jnsgd1na2vs0mg"},{"bike_id":"522184cf-f0c5-4fc8-99bc-7daea548b561","system_id":"levelo_inurba_marseille","lat":43.28612,"lon":5.37057,"is_reserved":false,"is_disabled":false,"rental_uris":{"android":"levelo://app?vid=522184cf-f0c5-4fc8-99bc-7daea548b561","ios":"levelo://app?vid=522184cf-f0c5-4fc8-99bc-7daea548b561"},"vehicle_type_id":"4","last_reported":1748542483,"current_range_meters":11200,"station_id":"ce4bht12rcd13ifvqi60","pricing_plan_id":"cebpf4jnsgd1na2vs0mg"},{"bike_id":"d476b36a-9c5c-445d-adb1-ea097f131b5b","system_id":"levelo_inurba_marseille","lat":43.30958,"lon":5.39048,"is_reserved":false,"is_disabled":false,"rental_uris":{"android":"levelo://app?vid=d476b36a-9c5c-445d-adb1-ea097f131b5b","ios":"levelo://app?vid=d476b36a-9c5c-445d-adb1-ea097f131b5b"},"vehicle_type_id":"4","last_reported":1748542483,"current_range_meters":11600,"station_id":"ce4bgup2rcd13ifvqco0","pricing_plan_id":"cebpf4jnsgd1na2vs0mg"},{"bike_id":"a8230de5-34c0-444f-a9cb-eb048c8a377c","system_id":"levelo_inurba_marseille","lat":43.3107,"lon":5.38345,"is_reserved":false,"is_disabled":false,"rental_uris":{"android":"levelo://app?vid=a8230de5-34c0-444f-a9cb-eb048c8a377c","ios":"levelo://app?vid=a8230de5-34c0-444f-a9cb-eb048c8a377c"},"vehicle_type_id":"4","last_reported":1748542483,"current_range_meters":11600,"station_id":"ce4bgv92rcd13ifvqcr0","pricing_plan_id":"cebpf4jnsgd1na2vs0mg"},{"bike_id":"f88d8151-eca5-42d7-bea1-01582659a6d7","system_id":"levelo_inurba_marseille","lat":43.26684,"lon":5.38269,"is_reserved":false,"is_disabled":false,"rental_uris":{"android":"levelo://app?vid=f88d8151-eca5-42d7-bea1-01582659a6d7","ios":"levelo://app?vid=f88d8151-eca5-42d7-bea1-01582659a6d7"},"vehicle_type_id":"4","last_reported":1748542483,"current_range_meters":11600,"station_id":"ce4bhg92rcd13ifvqf90","pricing_plan_id":"cebpf4jnsgd1na2vs0mg"},{"bike_id":"8f81bcf0-43a4-4aea-bfd9-2ddf5b4cf17b","system_id":"levelo_inurba_marseille","lat":43.30385,"lon":5.41888,"is_reserved":false,"is_disabled":false,"rental_uris":{"android":"levelo://app?vid=8f81bcf0-43a4-4aea-bfd9-2ddf5b4cf17b","ios":"levelo://app?vid=8f81bcf0-43a4-4aea-bfd9-2ddf5b4cf17b"},"vehicle_type_id":"4","last_reported":1748542483,"current_range_meters":11600,"station_id":"ce4bhop2rcd13ifvqh7g","pricing_plan_id":"cebpf4jnsgd1na2vs0mg"},{"bike_id":"c2bb3999-2922-4abb-a3af-d8d423b6f73f","system_id":"levelo_inurba_marseille","lat":43.28714,"lon":5.36083,"is_reserved":false,"is_disabled":false,"rental_uris":{"android":"levelo://app?vid=c2bb3999-2922-4abb-a3af-d8d423b6f73f","ios":"levelo://app?vid=c2bb3999-2922-4abb-a3af-d8d423b6f73f"},"vehicle_type_id":"4","last_reported":1748542483,"current_range_meters":11600,"station_id":"cki0cbj6b192h4jlfktg","pricing_plan_id":"cebpf4jnsgd1na2vs0mg"},{"bike_id":"72bd7460-3e12-43d5-b91c-0edf6d22ac5e","system_id":"levelo_inurba_marseille","lat":43.26212,"lon":5.37443,"is_reserved":false,"is_disabled":false,"rental_uris":{"android":"levelo://app?vid=72bd7460-3e12-43d5-b91c-0edf6d22ac5e","ios":"levelo://app?vid=72bd7460-3e12-43d5-b91c-0edf6d22ac5e"},"vehicle_type_id":"4","last_reported":1748542483,"current_range_meters":12000,"station_id":"ce4bhgp2rcd13ifvqfc0","pricing_plan_id":"cebpf4jnsgd1na2vs0mg"},{"bike_id":"cef93761-81b7-44b8-b1db-0322c65cd6f5","system_id":"levelo_inurba_marseille","lat":43.26193,"lon":5.37448,"is_reserved":false,"is_disabled":false,"rental_uris":{"android":"levelo://app?vid=cef93761-81b7-44b8-b1db-0322c65cd6f5","ios":"levelo://app?vid=cef93761-81b7-44b8-b1db-0322c65cd6f5"},"vehicle_type_id":"4","last_reported":1748542483,"current_range_meters":12000,"station_id":"ce4bhgp2rcd13ifvqfc0","pricing_plan_id":"cebpf4jnsgd1na2vs0mg"},{"bike_id":"bb4e6285-e733-4966-a7de-1f14d10c4b3a","system_id":"levelo_inurba_marseille","lat":43.28612,"lon":5.3706,"is_reserved":false,"is_disabled":false,"rental_uris":{"android":"levelo://app?vid=bb4e6285-e733-4966-a7de-1f14d10c4b3a","ios":"levelo://app?vid=bb4e6285-e733-4966-a7de-1f14d10c4b3a"},"vehicle_type_id":"4","last_reported":1748542483,"current_range_meters":12000,"station_id":"ce4bht12rcd13ifvqi60","pricing_plan_id":"cebpf4jnsgd1na2vs0mg"},{"bike_id":"f5733814-9732-4748-bcc9-3b2fac8e1564","system_id":"levelo_inurba_marseille","lat":43.31256,"lon":5.37829,"is_reserved":false,"is_disabled":false,"rental_uris":{"android":"levelo://app?vid=f5733814-9732-4748-bcc9-3b2fac8e1564","ios":"levelo://app?vid=f5733814-9732-4748-bcc9-3b2fac8e1564"},"vehicle_type_id":"4","last_reported":1748542483,"current_range_meters":12400,"station_id":"","pricing_plan_id":"cebpf4jnsgd1na2vs0mg"},{"bike_id":"f32115e4-b156-46b5-ad28-a3ab76cdcb87","system_id":"levelo_inurba_marseille","lat":43.29194,"lon":5.39302,"is_reserved":false,"is_disabled":false,"rental_uris":{"android":"levelo://app?vid=f32115e4-b156-46b5-ad28-a3ab76cdcb87","ios":"levelo://app?vid=f32115e4-b156-46b5-ad28-a3ab76cdcb87"},"vehicle_type_id":"4","last_reported":1748542483,"current_range_meters":12400,"station_id":"ce4bh192rcd13ifvqdd0","pricing_plan_id":"cebpf4jnsgd1na2vs0mg"},{"bike_id":"fc91ba1a-e815-4b6d-891c-9c8f5db6db11","system_id":"levelo_inurba_marseille","lat":43.29007,"lon":5.3561,"is_reserved":false,"is_disabled":false,"rental_uris":{"android":"levelo://app?vid=fc91ba1a-e815-4b6d-891c-9c8f5db6db11","ios":"levelo://app?vid=fc91ba1a-e815-4b6d-891c-9c8f5db6db11"},"vehicle_type_id":"4","last_reported":1748542483,"current_range_meters":12400,"station_id":"ce4bhb92rcd13ifvqen0","pricing_plan_id":"cebpf4jnsgd1na2vs0mg"},{"bike_id":"f96d3350-c5bf-4b21-add4-93ecfdb5e9e5","system_id":"levelo_inurba_marseille","lat":43.26564,"lon":5.37272,"is_reserved":false,"is_disabled":false,"rental_uris":{"android":"levelo://app?vid=f96d3350-c5bf-4b21-add4-93ecfdb5e9e5","ios":"levelo://app?vid=f96d3350-c5bf-4b21-add4-93ecfdb5e9e5"},"vehicle_type_id":"4","last_reported":1748542483,"current_range_meters":12400,"station_id":"ce4bhg12rcd13ifvqf70","pricing_plan_id":"cebpf4jnsgd1na2vs0mg"},{"bike_id":"da279776-c099-4cdd-acd3-f802ffed4965","system_id":"levelo_inurba_marseille","lat":43.29561,"lon":5.42281,"is_reserved":false,"is_disabled":false,"rental_uris":{"android":"levelo://app?vid=da279776-c099-4cdd-acd3-f802ffed4965","ios":"levelo://app?vid=da279776-c099-4cdd-acd3-f802ffed4965"},"vehicle_type_id":"4","last_reported":1748542483,"current_range_meters":12400,"station_id":"ce4bhph2rcd13ifvqhdg","pricing_plan_id":"cebpf4jnsgd1na2vs0mg"},{"bike_id":"a426f99b-d34a-41bf-bbda-59f7dfd6939b","system_id":"levelo_inurba_marseille","lat":43.255796,"lon":5.382262,"is_reserved":false,"is_disabled":false,"rental_uris":{"android":"levelo://app?vid=a426f99b-d34a-41bf-bbda-59f7dfd6939b","ios":"levelo://app?vid=a426f99b-d34a-41bf-bbda-59f7dfd6939b"},"vehicle_type_id":"4","last_reported":1748542483,"current_range_meters":12400,"station_id":"ce501612rcd8frsf0b60","pricing_plan_id":"cebpf4jnsgd1na2vs0mg"},{"bike_id":"978e8fd3-01a7-4b79-b825-32f6f7ed896f","system_id":"levelo_inurba_marseille","lat":43.29607,"lon":5.37118,"is_reserved":false,"is_disabled":false,"rental_uris":{"android":"levelo://app?vid=978e8fd3-01a7-4b79-b825-32f6f7ed896f","ios":"levelo://app?vid=978e8fd3-01a7-4b79-b825-32f6f7ed896f"},"vehicle_type_id":"4","last_reported":1748542483,"current_range_meters":12800,"station_id":"","pricing_plan_id":"cebpf4jnsgd1na2vs0mg"},{"bike_id":"e9cda520-c6f4-465d-ad7f-8c059b3dc45a","system_id":"levelo_inurba_marseille","lat":43.313967,"lon":5.383993,"is_reserved":false,"is_disabled":false,"rental_uris":{"android":"levelo://app?vid=e9cda520-c6f4-465d-ad7f-8c059b3dc45a","ios":"levelo://app?vid=e9cda520-c6f4-465d-ad7f-8c059b3dc45a"},"vehicle_type_id":"4","last_reported":1748542483,"current_range_meters":12800,"station_id":"","pricing_plan_id":"cebpf4jnsgd1na2vs0mg"},{"bike_id":"9cdb8ba1-4718-427f-a91e-bb5ad8c6cac9","system_id":"levelo_inurba_marseille","lat":43.25502,"lon":5.40479,"is_reserved":false,"is_disabled":false,"rental_uris":{"android":"levelo://app?vid=9cdb8ba1-4718-427f-a91e-bb5ad8c6cac9","ios":"levelo://app?vid=9cdb8ba1-4718-427f-a91e-bb5ad8c6cac9"},"vehicle_type_id":"4","last_reported":1748542483,"current_range_meters":12800,"station_id":"","pricing_plan_id":"cebpf4jnsgd1na2vs0mg"},{"bike_id":"a99d43cf-1c33-4fdc-b5fe-f15578c7446f","system_id":"levelo_inurba_marseille","lat":43.30805,"lon":5.38151,"is_reserved":false,"is_disabled":false,"rental_uris":{"android":"levelo://app?vid=a99d43cf-1c33-4fdc-b5fe-f15578c7446f","ios":"levelo://app?vid=a99d43cf-1c33-4fdc-b5fe-f15578c7446f"},"vehicle_type_id":"4","last_reported":1748542483,"current_range_meters":12800,"station_id":"ce4bgt12rcd13ifvqce0","pricing_plan_id":"cebpf4jnsgd1na2vs0mg"},{"bike_id":"1f327582-625d-4b22-91f5-6885dcbcde33","system_id":"levelo_inurba_marseille","lat":43.24179,"lon":5.39729,"is_reserved":false,"is_disabled":false,"rental_uris":{"android":"levelo://app?vid=1f327582-625d-4b22-91f5-6885dcbcde33","ios":"levelo://app?vid=1f327582-625d-4b22-91f5-6885dcbcde33"},"vehicle_type_id":"4","last_reported":1748542483,"current_range_meters":12800,"station_id":"ce4bhn12rcd13ifvqgpg","pricing_plan_id":"cebpf4jnsgd1na2vs0mg"},{"bike_id":"edb3f92f-1d81-4f98-bddb-cea2921bbb6c","system_id":"levelo_inurba_marseille","lat":43.29414,"lon":5.38629,"is_reserved":false,"is_disabled":false,"rental_uris":{"android":"levelo://app?vid=edb3f92f-1d81-4f98-bddb-cea2921bbb6c","ios":"levelo://app?vid=edb3f92f-1d81-4f98-bddb-cea2921bbb6c"},"vehicle_type_id":"4","last_reported":1748542483,"current_range_meters":13600,"station_id":"ce4bh2h2rcd13ifvqdh0","pricing_plan_id":"cebpf4jnsgd1na2vs0mg"},{"bike_id":"bedaa44e-80df-45a8-900d-36339be0fcdd","system_id":"levelo_inurba_marseille","lat":43.28043,"lon":5.3696,"is_reserved":false,"is_disabled":false,"rental_uris":{"android":"levelo://app?vid=bedaa44e-80df-45a8-900d-36339be0fcdd","ios":"levelo://app?vid=bedaa44e-80df-45a8-900d-36339be0fcdd"},"vehicle_type_id":"4","last_reported":1748542483,"current_range_meters":13600,"station_id":"ce4bha12rcd13ifvqef0","pricing_plan_id":"cebpf4jnsgd1na2vs0mg"},{"bike_id":"2519fdc7-7b8f-4a79-8b5f-d02cf7658e64","system_id":"levelo_inurba_marseille","lat":43.28026,"lon":5.36939,"is_reserved":false,"is_disabled":false,"rental_uris":{"android":"levelo://app?vid=2519fdc7-7b8f-4a79-8b5f-d02cf7658e64","ios":"levelo://app?vid=2519fdc7-7b8f-4a79-8b5f-d02cf7658e64"},"vehicle_type_id":"4","last_reported":1748542483,"current_range_meters":13600,"station_id":"ce4bha12rcd13ifvqef0","pricing_plan_id":"cebpf4jnsgd1na2vs0mg"},{"bike_id":"243329ec-61f4-47d0-ac7f-0dbb82dc38af","system_id":"levelo_inurba_marseille","lat":43.26047,"lon":5.37541,"is_reserved":false,"is_disabled":false,"rental_uris":{"android":"levelo://app?vid=243329ec-61f4-47d0-ac7f-0dbb82dc38af","ios":"levelo://app?vid=243329ec-61f4-47d0-ac7f-0dbb82dc38af"},"vehicle_type_id":"4","last_reported":1748542483,"current_range_meters":13600,"station_id":"ce4bhgh2rcd13ifvqfa0","pricing_plan_id":"cebpf4jnsgd1na2vs0mg"},{"bike_id":"f09e27fe-9468-45cf-9944-29a3e961ab02","system_id":"levelo_inurba_marseille","lat":43.26501,"lon":5.39541,"is_reserved":false,"is_disabled":false,"rental_uris":{"android":"levelo://app?vid=f09e27fe-9468-45cf-9944-29a3e961ab02","ios":"levelo://app?vid=f09e27fe-9468-45cf-9944-29a3e961ab02"},"vehicle_type_id":"4","last_reported":1748542483,"current_range_meters":13600,"station_id":"ce4bhi12rcd13ifvqfq0","pricing_plan_id":"cebpf4jnsgd1na2vs0mg"},{"bike_id":"e072d125-b441-4b9b-b608-065b4ad893ba","system_id":"levelo_inurba_marseille","lat":43.30126,"lon":5.39858,"is_reserved":false,"is_disabled":false,"rental_uris":{"android":"levelo://app?vid=e072d125-b441-4b9b-b608-065b4ad893ba","ios":"levelo://app?vid=e072d125-b441-4b9b-b608-065b4ad893ba"},"vehicle_type_id":"4","last_reported":1748542483,"current_range_meters":14000,"station_id":"ce4bh0h2rcd13ifvqd40","pricing_plan_id":"cebpf4jnsgd1na2vs0mg"},{"bike_id":"3a05e60f-5f3c-4b34-9d82-fa9bc8a82789","system_id":"levelo_inurba_marseille","lat":43.29007,"lon":5.35612,"is_reserved":false,"is_disabled":false,"rental_uris":{"android":"levelo://app?vid=3a05e60f-5f3c-4b34-9d82-fa9bc8a82789","ios":"levelo://app?vid=3a05e60f-5f3c-4b34-9d82-fa9bc8a82789"},"vehicle_type_id":"4","last_reported":1748542483,"current_range_meters":14000,"station_id":"ce4bhb92rcd13ifvqen0","pricing_plan_id":"cebpf4jnsgd1na2vs0mg"},{"bike_id":"bb44d196-d9e0-4306-be2a-c6bc58dafccc","system_id":"levelo_inurba_marseille","lat":43.27042,"lon":5.40249,"is_reserved":false,"is_disabled":false,"rental_uris":{"android":"levelo://app?vid=bb44d196-d9e0-4306-be2a-c6bc58dafccc","ios":"levelo://app?vid=bb44d196-d9e0-4306-be2a-c6bc58dafccc"},"vehicle_type_id":"4","last_reported":1748542483,"current_range_meters":14000,"station_id":"ce4bhk92rcd13ifvqgc0","pricing_plan_id":"cebpf4jnsgd1na2vs0mg"},{"bike_id":"d2194095-52f0-44b2-9c32-a4332a95867e","system_id":"levelo_inurba_marseille","lat":43.27051,"lon":5.40259,"is_reserved":false,"is_disabled":false,"rental_uris":{"android":"levelo://app?vid=d2194095-52f0-44b2-9c32-a4332a95867e","ios":"levelo://app?vid=d2194095-52f0-44b2-9c32-a4332a95867e"},"vehicle_type_id":"4","last_reported":1748542483,"current_range_meters":14000,"station_id":"ce4bhk92rcd13ifvqgc0","pricing_plan_id":"cebpf4jnsgd1na2vs0mg"},{"bike_id":"747224c9-7e52-4c58-9390-d943c4f5446c","system_id":"levelo_inurba_marseille","lat":43.27185,"lon":5.40993,"is_reserved":false,"is_disabled":false,"rental_uris":{"android":"levelo://app?vid=747224c9-7e52-4c58-9390-d943c4f5446c","ios":"levelo://app?vid=747224c9-7e52-4c58-9390-d943c4f5446c"},"vehicle_type_id":"4","last_reported":1748542483,"current_range_meters":14000,"station_id":"ce4bhl12rcd13ifvqgf0","pricing_plan_id":"cebpf4jnsgd1na2vs0mg"},{"bike_id":"d34e8e6a-f0b2-4647-b1dc-ad15ee6e023f","system_id":"levelo_inurba_marseille","lat":43.32337,"lon":5.40626,"is_reserved":false,"is_disabled":false,"rental_uris":{"android":"levelo://app?vid=d34e8e6a-f0b2-4647-b1dc-ad15ee6e023f","ios":"levelo://app?vid=d34e8e6a-f0b2-4647-b1dc-ad15ee6e023f"},"vehicle_type_id":"4","last_reported":1748542483,"current_range_meters":14000,"station_id":"ce4bhq92rcd13ifvqhjg","pricing_plan_id":"cebpf4jnsgd1na2vs0mg"},{"bike_id":"0f2a3b18-a28e-4d98-b040-0a33a41b90ee","system_id":"levelo_inurba_marseille","lat":43.275665,"lon":5.360441,"is_reserved":false,"is_disabled":false,"rental_uris":{"android":"levelo://app?vid=0f2a3b18-a28e-4d98-b040-0a33a41b90ee","ios":"levelo://app?vid=0f2a3b18-a28e-4d98-b040-0a33a41b90ee"},"vehicle_type_id":"4","last_reported":1748542483,"current_range_meters":14400,"station_id":"","pricing_plan_id":"cebpf4jnsgd1na2vs0mg"},{"bike_id":"48e26ea8-1795-4299-a1c4-724bbc46d8d5","system_id":"levelo_inurba_marseille","lat":43.28949,"lon":5.36637,"is_reserved":false,"is_disabled":false,"rental_uris":{"android":"levelo://app?vid=48e26ea8-1795-4299-a1c4-724bbc46d8d5","ios":"levelo://app?vid=48e26ea8-1795-4299-a1c4-724bbc46d8d5"},"vehicle_type_id":"4","last_reported":1748542483,"current_range_meters":14400,"station_id":"ce4bhap2rcd13ifvqek0","pricing_plan_id":"cebpf4jnsgd1na2vs0mg"},{"bike_id":"1b907c8f-0f14-45ee-84f1-c82fff69e0f1","system_id":"levelo_inurba_marseille","lat":43.27995,"lon":5.40004,"is_reserved":false,"is_disabled":false,"rental_uris":{"android":"levelo://app?vid=1b907c8f-0f14-45ee-84f1-c82fff69e0f1","ios":"levelo://app?vid=1b907c8f-0f14-45ee-84f1-c82fff69e0f1"},"vehicle_type_id":"4","last_reported":1748542483,"current_range_meters":14400,"station_id":"ce4bho92rcd13ifvqh4g","pricing_plan_id":"cebpf4jnsgd1na2vs0mg"},{"bike_id":"adf47b28-7367-452c-95d1-898ae23ebc62","system_id":"levelo_inurba_marseille","lat":43.3234,"lon":5.4062,"is_reserved":false,"is_disabled":false,"rental_uris":{"android":"levelo://app?vid=adf47b28-7367-452c-95d1-898ae23ebc62","ios":"levelo://app?vid=adf47b28-7367-452c-95d1-898ae23ebc62"},"vehicle_type_id":"4","last_reported":1748542483,"current_range_meters":14400,"station_id":"ce4bhq92rcd13ifvqhjg","pricing_plan_id":"cebpf4jnsgd1na2vs0mg"},{"bike_id":"a318da6e-e459-4810-976f-b946ebbe491f","system_id":"levelo_inurba_marseille","lat":43.26948,"lon":5.40239,"is_reserved":false,"is_disabled":false,"rental_uris":{"android":"levelo://app?vid=a318da6e-e459-4810-976f-b946ebbe491f","ios":"levelo://app?vid=a318da6e-e459-4810-976f-b946ebbe491f"},"vehicle_type_id":"4","last_reported":1748542483,"current_range_meters":14400,"station_id":"cjm6bp8fraef2m0cb0m0","pricing_plan_id":"cebpf4jnsgd1na2vs0mg"},{"bike_id":"e044c9db-ce02-4ecf-bf86-8eaa46f9c414","system_id":"levelo_inurba_marseille","lat":43.25709,"lon":5.39156,"is_reserved":false,"is_disabled":false,"rental_uris":{"android":"levelo://app?vid=e044c9db-ce02-4ecf-bf86-8eaa46f9c414","ios":"levelo://app?vid=e044c9db-ce02-4ecf-bf86-8eaa46f9c414"},"vehicle_type_id":"4","last_reported":1748542483,"current_range_meters":14800,"station_id":"","pricing_plan_id":"cebpf4jnsgd1na2vs0mg"},{"bike_id":"236e68ca-056e-4340-8548-74085cb47347","system_id":"levelo_inurba_marseille","lat":43.296112,"lon":5.377193,"is_reserved":false,"is_disabled":false,"rental_uris":{"android":"levelo://app?vid=236e68ca-056e-4340-8548-74085cb47347","ios":"levelo://app?vid=236e68ca-056e-4340-8548-74085cb47347"},"vehicle_type_id":"4","last_reported":1748542483,"current_range_meters":14800,"station_id":"ce4bgi92rcd13ifvqb90","pricing_plan_id":"cebpf4jnsgd1na2vs0mg"},{"bike_id":"5ebcab2d-592d-446c-bba6-9706c8bc4b45","system_id":"levelo_inurba_marseille","lat":43.31348,"lon":5.36709,"is_reserved":false,"is_disabled":false,"rental_uris":{"android":"levelo://app?vid=5ebcab2d-592d-446c-bba6-9706c8bc4b45","ios":"levelo://app?vid=5ebcab2d-592d-446c-bba6-9706c8bc4b45"},"vehicle_type_id":"4","last_reported":1748542483,"current_range_meters":14800,"station_id":"ce4bgr92rcd13ifvqc6g","pricing_plan_id":"cebpf4jnsgd1na2vs0mg"},{"bike_id":"3879c20b-d3ee-41d9-86e2-c2f3981ad661","system_id":"levelo_inurba_marseille","lat":43.3095,"lon":5.39041,"is_reserved":false,"is_disabled":false,"rental_uris":{"android":"levelo://app?vid=3879c20b-d3ee-41d9-86e2-c2f3981ad661","ios":"levelo://app?vid=3879c20b-d3ee-41d9-86e2-c2f3981ad661"},"vehicle_type_id":"4","last_reported":1748542483,"current_range_meters":14800,"station_id":"ce4bgup2rcd13ifvqco0","pricing_plan_id":"cebpf4jnsgd1na2vs0mg"},{"bike_id":"89527f10-1804-4136-9f29-4b4553047a6c","system_id":"levelo_inurba_marseille","lat":43.310687,"lon":5.383476,"is_reserved":false,"is_disabled":false,"rental_uris":{"android":"levelo://app?vid=89527f10-1804-4136-9f29-4b4553047a6c","ios":"levelo://app?vid=89527f10-1804-4136-9f29-4b4553047a6c"},"vehicle_type_id":"4","last_reported":1748542483,"current_range_meters":14800,"station_id":"ce4bgv92rcd13ifvqcr0","pricing_plan_id":"cebpf4jnsgd1na2vs0mg"},{"bike_id":"d68d9a0d-3f4e-494c-ae18-10446914bce7","system_id":"levelo_inurba_marseille","lat":43.31698,"lon":5.4047,"is_reserved":false,"is_disabled":false,"rental_uris":{"android":"levelo://app?vid=d68d9a0d-3f4e-494c-ae18-10446914bce7","ios":"levelo://app?vid=d68d9a0d-3f4e-494c-ae18-10446914bce7"},"vehicle_type_id":"4","last_reported":1748542483,"current_range_meters":14800,"station_id":"ce4bh012rcd13ifvqd00","pricing_plan_id":"cebpf4jnsgd1na2vs0mg"},{"bike_id":"0c3f7e02-b482-413a-a39e-153c207a1247","system_id":"levelo_inurba_marseille","lat":43.294159,"lon":5.386256,"is_reserved":false,"is_disabled":false,"rental_uris":{"android":"levelo://app?vid=0c3f7e02-b482-413a-a39e-153c207a1247","ios":"levelo://app?vid=0c3f7e02-b482-413a-a39e-153c207a1247"},"vehicle_type_id":"4","last_reported":1748542483,"current_range_meters":14800,"station_id":"ce4bh2h2rcd13ifvqdh0","pricing_plan_id":"cebpf4jnsgd1na2vs0mg"},{"bike_id":"1a3bfc78-a7fb-4188-bf74-224057e3d99e","system_id":"levelo_inurba_marseille","lat":43.29101,"lon":5.38129,"is_reserved":false,"is_disabled":false,"rental_uris":{"android":"levelo://app?vid=1a3bfc78-a7fb-4188-bf74-224057e3d99e","ios":"levelo://app?vid=1a3bfc78-a7fb-4188-bf74-224057e3d99e"},"vehicle_type_id":"4","last_reported":1748542483,"current_range_meters":14800,"station_id":"ce4bh512rcd13ifvqe2g","pricing_plan_id":"cebpf4jnsgd1na2vs0mg"},{"bike_id":"12d71f9f-a636-4180-b1fc-1786dcd244be","system_id":"levelo_inurba_marseille","lat":43.29246,"lon":5.3845,"is_reserved":false,"is_disabled":false,"rental_uris":{"android":"levelo://app?vid=12d71f9f-a636-4180-b1fc-1786dcd244be","ios":"levelo://app?vid=12d71f9f-a636-4180-b1fc-1786dcd244be"},"vehicle_type_id":"4","last_reported":1748542483,"current_range_meters":14800,"station_id":"ce4bh692rcd13ifvqea0","pricing_plan_id":"cebpf4jnsgd1na2vs0mg"},{"bike_id":"ded345da-a84f-429c-9b24-c120067c846a","system_id":"levelo_inurba_marseille","lat":43.29004,"lon":5.35615,"is_reserved":false,"is_disabled":false,"rental_uris":{"android":"levelo://app?vid=ded345da-a84f-429c-9b24-c120067c846a","ios":"levelo://app?vid=ded345da-a84f-429c-9b24-c120067c846a"},"vehicle_type_id":"4","last_reported":1748542483,"current_range_meters":14800,"station_id":"ce4bhb92rcd13ifvqen0","pricing_plan_id":"cebpf4jnsgd1na2vs0mg"},{"bike_id":"9a86381f-51bc-4d54-858d-d27c0e51d901","system_id":"levelo_inurba_marseille","lat":43.30764,"lon":5.4244,"is_reserved":false,"is_disabled":false,"rental_uris":{"android":"levelo://app?vid=9a86381f-51bc-4d54-858d-d27c0e51d901","ios":"levelo://app?vid=9a86381f-51bc-4d54-858d-d27c0e51d901"},"vehicle_type_id":"4","last_reported":1748542483,"current_range_meters":14800,"station_id":"st_cvj6ca6bvosntc0bfgr0","pricing_plan_id":"cebpf4jnsgd1na2vs0mg"},{"bike_id":"3ec573a4-1bd7-4a84-8a75-e4b25d905a5a","system_id":"levelo_inurba_marseille","lat":43.28665,"lon":5.36359,"is_reserved":false,"is_disabled":false,"rental_uris":{"android":"levelo://app?vid=3ec573a4-1bd7-4a84-8a75-e4b25d905a5a","ios":"levelo://app?vid=3ec573a4-1bd7-4a84-8a75-e4b25d905a5a"},"vehicle_type_id":"4","last_reported":1748542483,"current_range_meters":15200,"station_id":"ce4bhah2rcd13ifvqej0","pricing_plan_id":"cebpf4jnsgd1na2vs0mg"},{"bike_id":"74758f7c-7fb3-42fd-876f-c1c845b72b87","system_id":"levelo_inurba_marseille","lat":43.26031,"lon":5.37548,"is_reserved":false,"is_disabled":false,"rental_uris":{"android":"levelo://app?vid=74758f7c-7fb3-42fd-876f-c1c845b72b87","ios":"levelo://app?vid=74758f7c-7fb3-42fd-876f-c1c845b72b87"},"vehicle_type_id":"4","last_reported":1748542483,"current_range_meters":15200,"station_id":"ce4bhgh2rcd13ifvqfa0","pricing_plan_id":"cebpf4jnsgd1na2vs0mg"},{"bike_id":"a214b301-3cf1-4c22-b283-5353a46fed6d","system_id":"levelo_inurba_marseille","lat":43.28346,"lon":5.38109,"is_reserved":false,"is_disabled":false,"rental_uris":{"android":"levelo://app?vid=a214b301-3cf1-4c22-b283-5353a46fed6d","ios":"levelo://app?vid=a214b301-3cf1-4c22-b283-5353a46fed6d"},"vehicle_type_id":"4","last_reported":1748542483,"current_range_meters":16000,"station_id":"ce4bh412rcd13ifvqdr0","pricing_plan_id":"cebpf4jnsgd1na2vs0mg"},{"bike_id":"8dbc9ebe-5649-416d-980f-20e7d1a64ee0","system_id":"levelo_inurba_marseille","lat":43.2619,"lon":5.3747,"is_reserved":false,"is_disabled":false,"rental_uris":{"android":"levelo://app?vid=8dbc9ebe-5649-416d-980f-20e7d1a64ee0","ios":"levelo://app?vid=8dbc9ebe-5649-416d-980f-20e7d1a64ee0"},"vehicle_type_id":"4","last_reported":1748542483,"current_range_meters":16000,"station_id":"ce4bhgp2rcd13ifvqfc0","pricing_plan_id":"cebpf4jnsgd1na2vs0mg"},{"bike_id":"7243d7c8-02f5-4392-89cf-8c360e846d55","system_id":"levelo_inurba_marseille","lat":43.2528,"lon":5.37825,"is_reserved":false,"is_disabled":false,"rental_uris":{"android":"levelo://app?vid=7243d7c8-02f5-4392-89cf-8c360e846d55","ios":"levelo://app?vid=7243d7c8-02f5-4392-89cf-8c360e846d55"},"vehicle_type_id":"4","last_reported":1748542483,"current_range_meters":16400,"station_id":"","pricing_plan_id":"cebpf4jnsgd1na2vs0mg"},{"bike_id":"8cc8c593-50c1-46bf-8aaf-61163c938ad9","system_id":"levelo_inurba_marseille","lat":43.29912,"lon":5.38129,"is_reserved":false,"is_disabled":false,"rental_uris":{"android":"levelo://app?vid=8cc8c593-50c1-46bf-8aaf-61163c938ad9","ios":"levelo://app?vid=8cc8c593-50c1-46bf-8aaf-61163c938ad9"},"vehicle_type_id":"4","last_reported":1748542483,"current_range_meters":16400,"station_id":"ce4bgj12rcd13ifvqbc0","pricing_plan_id":"cebpf4jnsgd1na2vs0mg"},