{"last_updated":1744380608,"ttl":60,"version":"2.2","data":{"bikes":[{"bike_id":"94f4ec36-42b5-414a-ab6c-ea0c2c8a7193","system_id":"levelo_inurba_marseille","lat":43.27205,"lon":5.39175,"is_reserved":false,"is_disabled":false,"rental_uris":{"android":"levelo://app?vid=94f4ec36-42b5-414a-ab6c-ea0c2c8a7193","ios":"levelo://app?vid=94f4ec36-42b5-414a-ab6c-ea0c2c8a7193"},"vehicle_type_id":"4","last_reported":1744380608,"current_range_meters":2000,"station_id":"ce4bhhp2rcd13ifvqfm0","pricing_plan_id":"cebpf4jnsgd1na2vs0mg"},{"bike_id":"f6870e62-1bd6-4a88-a72d-3e90bff45c8c","system_id":"levelo_inurba_marseille","lat":43.22502,"lon":5.3478,"is_reserved":false,"is_disabled":false,"rental_uris":{"android":"levelo://app?vid=f6870e62-1bd6-4a88-a72d-3e90bff45c8c","ios":"levelo://app?vid=f6870e62-1bd6-4a88-a72d-3e90bff45c8c"},"vehicle_type_id":"4","last_reported":1744380608,"current_range_meters":2800,"station_id":"st_cvj5dfep6f1abm77gieg","pricing_plan_id":"cebpf4jnsgd1na2vs0mg"},{"bike_id":"5f75c031-6d7d-43fd-a35c-0fc0cb83aeca","system_id":"levelo_inurba_marseille","lat":43.28618,"lon":5.35107,"is_reserved":false,"is_disabled":false,"rental_uris":{"android":"levelo://app?vid=5f75c031-6d7d-43fd-a35c-0fc0cb83aeca","ios":"levelo://app?vid=5f75c031-6d7d-43fd-a35c-0fc0cb83aeca"},"vehicle_type_id":"4","last_reported":1744380608,"current_range_meters":2800,"station_id":"ce4bhch2rcd13ifvqeug","pricing_plan_id":"cebpf4jnsgd1na2vs0mg"},{"bike_id":"a0ada95d-334f-42cd-bfdb-7a5b632c3f0f","system_id":"levelo_inurba_marseille","lat":43.24388,"lon":5.37063,"is_reserved":false,"is_disabled":false,"rental_uris":{"android":"levelo://app?vid=a0ada95d-334f-42cd-bfdb-7a5b632c3f0f","ios":"levelo://app?vid=a0ada95d-334f-42cd-bfdb-7a5b632c3f0f"},"vehicle_type_id":"4","last_reported":1744380608,"current_range_meters":2800,"station_id":"ce4bhhh2rcd13ifvqfk0","pricing_plan_id":"cebpf4jnsgd1na2vs0mg"},{"bike_id":"b1ba8ed3-4538-437b-bcd0-951e791dd525","system_id":"levelo_inurba_marseille","lat":43.28623,"lon":5.3511,"is_reserved":false,"is_disabled":false,"rental_uris":{"android":"levelo://app?vid=b1ba8ed3-4538-437b-bcd0-951e791dd525","ios":"levelo://app?vid=b1ba8ed3-4538-437b-bcd0-951e791dd525"},"vehicle_type_id":"4","last_reported":1744380608,"current_range_meters":3200,"station_id":"ce4bh0p2rcd13ifvqd70","pricing_plan_id":"cebpf4jnsgd1na2vs0mg"},{"bike_id":"f209bfef-c80b-480e-ac3c-ccf50eb9f9be","system_id":"levelo_inurba_marseille","lat":43.30093,"lon":5.39073,"is_reserved":false,"is_disabled":false,"rental_uris":{"android":"levelo://app?vid=f209bfef-c80b-480e-ac3c-ccf50eb9f9be","ios":"levelo://app?vid=f209bfef-c80b-480e-ac3c-ccf50eb9f9be"},"vehicle_type_id":"4","last_reported":1744380608,"current_range_meters":3200,"station_id":"ce4bh192rcd13ifvqdb0","pricing_plan_id":"cebpf4jnsgd1na2vs0mg"},{"bike_id":"31154945-feb0-454b-8d70-4ed4275b4f62","system_id":"levelo_inurba_marseille","lat":43.23192,"lon":5.35554,"is_reserved":false,"is_disabled":false,"rental_uris":{"android":"levelo://app?vid=31154945-feb0-454b-8d70-4ed4275b4f62","ios":"levelo://app?vid=31154945-feb0-454b-8d70-4ed4275b4f62"},"vehicle_type_id":"4","last_reported":1744380608,"current_range_meters":3600,"station_id":"ce4bhu92rcd13ifvqi70","pricing_plan_id":"cebpf4jnsgd1na2vs0mg"},{"bike_id":"5ad4fb38-2852-4532-858e-effab1ba3a8a","system_id":"levelo_inurba_marseille","lat":43.25493,"lon":5.3765,"is_reserved":false,"is_disabled":false,"rental_uris":{"android":"levelo://app?vid=5ad4fb38-2852-4532-858e-effab1ba3a8a","ios":"levelo://app?vid=5ad4fb38-2852-4532-858e-effab1ba3a8a"},"vehicle_type_id":"4","last_reported":1744380608,"current_range_meters":3600,"station_id":"ce4bhh12rcd13ifvqff0","pricing_plan_id":"cebpf4jnsgd1na2vs0mg"},{"bike_id":"dcc63f70-f24a-4395-8caa-31407617f0ad","system_id":"levelo_inurba_marseille","lat":43.26551,"lon":5.37284,"is_reserved":false,"is_disabled":false,"rental_uris":{"android":"levelo://app?vid=dcc63f70-f24a-4395-8caa-31407617f0ad","ios":"levelo://app?vid=dcc63f70-f24a-4395-8caa-31407617f0ad"},"vehicle_type_id":"4","last_reported":1744380608,"current_range_meters":3600,"station_id":"ce4bhg12rcd13ifvqf70","pricing_plan_id":"cebpf4jnsgd1na2vs0mg"},{"bike_id":"50b2e1a8-dc0b-4d6a-89d1-ab820c7f555a","system_id":"levelo_inurba_marseille","lat":43.27373,"lon":5.36247,"is_reserved":false,"is_disabled":false,"rental_uris":{"android":"levelo://app?vid=50b2e1a8-dc0b-4d6a-89d1-ab820c7f555a","ios":"levelo://app?vid=50b2e1a8-dc0b-4d6a-89d1-ab820c7f555a"},"vehicle_type_id":"4","last_reported":1744380608,"current_range_meters":3600,"station_id":"ce4bhbh2rcd13ifvqeo0","pricing_plan_id":"cebpf4jnsgd1na2vs0mg"},{"bike_id":"78807f9d-1b87-4f95-affa-2a4e21045df7","system_id":"levelo_inurba_marseille","lat":43.27912,"lon":5.39571,"is_reserved":false,"is_disabled":false,"rental_uris":{"android":"levelo://app?vid=78807f9d-1b87-4f95-affa-2a4e21045df7","ios":"levelo://app?vid=78807f9d-1b87-4f95-affa-2a4e21045df7"},"vehicle_type_id":"4","last_reported":1744380608,"current_range_meters":3600,"station_id":"ce4bhf92rcd13ifvqf40","pricing_plan_id":"cebpf4jnsgd1na2vs0mg"},{"bike_id":"6fa53e1a-613b-49e1-be67-632e2f65e6fb","system_id":"levelo_inurba_marseille","lat":43.28271,"lon":5.35065,"is_reserved":false,"is_disabled":true,"rental_uris":{"android":"levelo://app?vid=6fa53e1a-613b-49e1-be67-632e2f65e6fb","ios":"levelo://app?vid=6fa53e1a-613b-49e1-be67-632e2f65e6fb"},"vehicle_type_id":"4","last_reported":1744380608,"current_range_meters":3600,"station_id":"ce4bhbp2rcd13ifvqerg","pricing_plan_id":"cebpf4jnsgd1na2vs0mg"},{"bike_id":"052efa1d-60f1-4586-869e-dc4f762b4fa8","system_id":"levelo_inurba_marseille","lat":43.27363,"lon":5.3625,"is_reserved":false,"is_disabled":false,"rental_uris":{"android":"levelo://app?vid=052efa1d-60f1-4586-869e-dc4f762b4fa8","ios":"levelo://app?vid=052efa1d-60f1-4586-869e-dc4f762b4fa8"},"vehicle_type_id":"4","last_reported":1744380608,"current_range_meters":3600,"station_id":"ce4bhbh2rcd13ifvqeo0","pricing_plan_id":"cebpf4jnsgd1na2vs0mg"},{"bike_id":"4a18cc89-d183-41c6-b1f7-a2b1d5d5cbff","system_id":"levelo_inurba_marseille","lat":43.26554,"lon":5.37288,"is_reserved":false,"is_disabled":false,"rental_uris":{"android":"levelo://app?vid=4a18cc89-d183-41c6-b1f7-a2b1d5d5cbff","ios":"levelo://app?vid=4a18cc89-d183-41c6-b1f7-a2b1d5d5cbff"},"vehicle_type_id":"4","last_reported":1744380608,"current_range_meters":4000,"station_id":"ce4bhg12rcd13ifvqf70","pricing_plan_id":"cebpf4jnsgd1na2vs0mg"},{"bike_id":"6d9bbcd8-9e24-4084-a4e3-3fbf1e4f83e2","system_id":"levelo_inurba_marseille","lat":43.25503,"lon":5.37645,"is_reserved":false,"is_disabled":false,"rental_uris":{"android":"levelo://app?vid=6d9bbcd8-9e24-4084-a4e3-3fbf1e4f83e2","ios":"levelo://app?vid=6d9bbcd8-9e24-4084-a4e3-3fbf1e4f83e2"},"vehicle_type_id":"4","last_reported":1744380608,"current_range_meters":4000,"station_id":"ce4bhh12rcd13ifvqff0","pricing_plan_id":"cebpf4jnsgd1na2vs0mg"},{"bike_id":"c4a8118e-5658-4aad-9635-23a842fa71b9","system_id":"levelo_inurba_marseille","lat":43.21171,"lon":5.35071,"is_reserved":false,"is_disabled":false,"rental_uris":{"android":"levelo://app?vid=c4a8118e-5658-4aad-9635-23a842fa71b9","ios":"levelo://app?vid=c4a8118e-5658-4aad-9635-23a842fa71b9"},"vehicle_type_id":"4","last_reported":1744380608,"current_range_meters":4000,"station_id":"st_cvj6sg6p6f1abm77japg","pricing_plan_id":"cebpf4jnsgd1na2vs0mg"},{"bike_id":"e9b0f503-a318-45ec-a563-1dde3be19d8e","system_id":"levelo_inurba_marseille","lat":43.29193,"lon":5.35807,"is_reserved":false,"is_disabled":false,"rental_uris":{"android":"levelo://app?vid=e9b0f503-a318-45ec-a563-1dde3be19d8e","ios":"levelo://app?vid=e9b0f503-a318-45ec-a563-1dde3be19d8e"},"vehicle_type_id":"4","last_reported":1744380608,"current_range_meters":4000,"station_id":"ce4bhb12rcd13ifvqel0","pricing_plan_id":"cebpf4jnsgd1na2vs0mg"},{"bike_id":"83c132b1-a954-4d5a-a32d-9f99af4faa3c","system_id":"levelo_inurba_marseille","lat":43.30928,"lon":5.41522,"is_reserved":false,"is_disabled":false,"rental_uris":{"android":"levelo://app?vid=83c132b1-a954-4d5a-a32d-9f99af4faa3c","ios":"levelo://app?vid=83c132b1-a954-4d5a-a32d-9f99af4faa3c"},"vehicle_type_id":"4","last_reported":1744380608,"current_range_meters":4400,"station_id":"","pricing_plan_id":"cebpf4jnsgd1na2vs0mg"},{"bike_id":"ddfc50d8-2693-4583-beb3-f50c3544841c","system_id":"levelo_inurba_marseille","lat":43.28039,"lon":5.36943,"is_reserved":false,"is_disabled":false,"rental_uris":{"android":"levelo://app?vid=ddfc50d8-2693-4583-beb3-f50c3544841c","ios":"levelo://app?vid=ddfc50d8-2693-4583-beb3-f50c3544841c"},"vehicle_type_id":"4","last_reported":1744380608,"current_range_meters":4400,"station_id":"ce4bha12rcd13ifvqef0","pricing_plan_id":"cebpf4jnsgd1na2vs0mg"},{"bike_id":"d721ba29-01c6-44f0-8785-488c221c8c1c","system_id":"levelo_inurba_marseille","lat":43.2846,"lon":5.35893,"is_reserved":false,"is_disabled":false,"rental_uris":{"android":"levelo://app?vid=d721ba29-01c6-44f0-8785-488c221c8c1c","ios":"levelo://app?vid=d721ba29-01c6-44f0-8785-488c221c8c1c"},"vehicle_type_id":"4","last_reported":1744380608,"current_range_meters":4400,"station_id":"ce4bhah2rcd13ifvqei0","pricing_plan_id":"cebpf4jnsgd1na2vs0mg"},{"bike_id":"e4dd2cd5-ee4e-442a-ae66-ce9576e0565b","system_id":"levelo_inurba_marseille","lat":43.28345,"lon":5.381,"is_reserved":false,"is_disabled":false,"rental_uris":{"android":"levelo://app?vid=e4dd2cd5-ee4e-442a-ae66-ce9576e0565b","ios":"levelo://app?vid=e4dd2cd5-ee4e-442a-ae66-ce9576e0565b"},"vehicle_type_id":"4","last_reported":1744380608,"current_range_meters":4800,"station_id":"ce4bh412rcd13ifvqdr0","pricing_plan_id":"cebpf4jnsgd1na2vs0mg"},{"bike_id":"d7776283-fecb-4d5e-a3ae-aa110e48e94c","system_id":"levelo_inurba_marseille","lat":43.2679,"lon":5.39408,"is_reserved":false,"is_disabled":false,"rental_uris":{"android":"levelo://app?vid=d7776283-fecb-4d5e-a3ae-aa110e48e94c","ios":"levelo://app?vid=d7776283-fecb-4d5e-a3ae-aa110e48e94c"},"vehicle_type_id":"4","last_reported":1744380608,"current_range_meters":4800,"station_id":"ce4bhh12rcd13ifvqfg0","pricing_plan_id":"cebpf4jnsgd1na2vs0mg"},{"bike_id":"491f2651-b9a4-4c88-8f03-e735611d4f64","system_id":"levelo_inurba_marseille","lat":43.23146,"lon":5.43718,"is_reserved":false,"is_disabled":false,"rental_uris":{"android":"levelo://app?vid=491f2651-b9a4-4c88-8f03-e735611d4f64","ios":"levelo://app?vid=491f2651-b9a4-4c88-8f03-e735611d4f64"},"vehicle_type_id":"4","last_reported":1744380608,"current_range_meters":4800,"station_id":"ce4bhmp2rcd13ifvqgog","pricing_plan_id":"cebpf4jnsgd1na2vs0mg"},{"bike_id":"2abdfc3b-b5a0-4278-8ebd-34aafbcb54f4","system_id":"levelo_inurba_marseille","lat":43.27497,"lon":5.4245,"is_reserved":false,"is_disabled":false,"rental_uris":{"android":"levelo://app?vid=2abdfc3b-b5a0-4278-8ebd-34aafbcb54f4","ios":"levelo://app?vid=2abdfc3b-b5a0-4278-8ebd-34aafbcb54f4"},"vehicle_type_id":"4","last_reported":1744380608,"current_range_meters":5600,"station_id":"ce4bhn92rcd13ifvqgrg","pricing_plan_id":"cebpf4jnsgd1na2vs0mg"},{"bike_id":"6cb5f790-ced9-4143-b8b7-30ddcedc08e3","system_id":"levelo_inurba_marseille","lat":43.27495,"lon":5.42448,"is_reserved":false,"is_disabled":false,"rental_uris":{"android":"levelo://app?vid=6cb5f790-ced9-4143-b8b7-30ddcedc08e3","ios":"levelo://app?vid=6cb5f790-ced9-4143-b8b7-30ddcedc08e3"},"vehicle_type_id":"4","last_reported":1744380608,"current_range_meters":5600,"station_id":"ce4bhn92rcd13ifvqgrg","pricing_plan_id":"cebpf4jnsgd1na2vs0mg"},{"bike_id":"8e10c6cd-18e2-4470-aa99-bad9e980445c","system_id":"levelo_inurba_marseille","lat":43.337444,"lon":5.374475,"is_reserved":false,"is_disabled":false,"rental_uris":{"android":"levelo://app?vid=8e10c6cd-18e2-4470-aa99-bad9e980445c","ios":"levelo://app?vid=8e10c6cd-18e2-4470-aa99-bad9e980445c"},"vehicle_type_id":"4","last_reported":1744380608,"current_range_meters":5600,"station_id":"","pricing_plan_id":"cebpf4jnsgd1na2vs0mg"},{"bike_id":"9ec6fbe1-d60d-46d9-8c05-ebcf6643b374","system_id":"levelo_inurba_marseille","lat":43.283642,"lon":5.386317,"is_reserved":false,"is_disabled":false,"rental_uris":{"android":"levelo://app?vid=9ec6fbe1-d60d-46d9-8c05-ebcf6643b374","ios":"levelo://app?vid=9ec6fbe1-d60d-46d9-8c05-ebcf6643b374"},"vehicle_type_id":"4","last_reported":1744380608,"current_range_meters":5600,"station_id":"ce4bh492rcd13ifvqdvg","pricing_plan_id":"cebpf4jnsgd1na2vs0mg"},{"bike_id":"ea84a354-bfd3-42e0-a671-66fbcb61d873","system_id":"levelo_inurba_marseille","lat":43.27377,"lon":5.36251,"is_reserved":false,"is_disabled":false,"rental_uris":{"android":"levelo://app?vid=ea84a354-bfd3-42e0-a671-66fbcb61d873","ios":"levelo://app?vid=ea84a354-bfd3-42e0-a671-66fbcb61d873"},"vehicle_type_id":"4","last_reported":1744380608,"current_range_meters":5600,"station_id":"ce4bhbh2rcd13ifvqeo0","pricing_plan_id":"cebpf4jnsgd1na2vs0mg"},{"bike_id":"4931d550-7e6c-453d-8158-2d3efcfe84d6","system_id":"levelo_inurba_marseille","lat":43.22926,"lon":5.35383,"is_reserved":false,"is_disabled":false,"rental_uris":{"android":"levelo://app?vid=4931d550-7e6c-453d-8158-2d3efcfe84d6","ios":"levelo://app?vid=4931d550-7e6c-453d-8158-2d3efcfe84d6"},"vehicle_type_id":"4","last_reported":1744380608,"current_range_meters":5600,"station_id":"cpo3532slgdg3j2ikp40","pricing_plan_id":"cebpf4jnsgd1na2vs0mg"},{"bike_id":"1c2142fd-6c58-4e16-9cbf-e46db91c236d","system_id":"levelo_inurba_marseille","lat":43.29563,"lon":5.37517,"is_reserved":false,"is_disabled":false,"rental_uris":{"android":"levelo://app?vid=1c2142fd-6c58-4e16-9cbf-e46db91c236d","ios":"levelo://app?vid=1c2142fd-6c58-4e16-9cbf-e46db91c236d"},"vehicle_type_id":"4","last_reported":1744380608,"current_range_meters":5600,"station_id":"ce4bgh92rcd13ifvqb50","pricing_plan_id":"cebpf4jnsgd1na2vs0mg"},{"bike_id":"087eccc0-b928-47e3-9db6-316e2c524952","system_id":"levelo_inurba_marseille","lat":43.23153,"lon":5.43702,"is_reserved":false,"is_disabled":false,"rental_uris":{"android":"levelo://app?vid=087eccc0-b928-47e3-9db6-316e2c524952","ios":"levelo://app?vid=087eccc0-b928-47e3-9db6-316e2c524952"},"vehicle_type_id":"4","last_reported":1744380608,"current_range_meters":6000,"station_id":"ce4bhmp2rcd13ifvqgog","pricing_plan_id":"cebpf4jnsgd1na2vs0mg"},{"bike_id":"de7b87f5-7dce-4e83-8bf1-aeb4a0e822f8","system_id":"levelo_inurba_marseille","lat":43.27813,"lon":5.40711,"is_reserved":false,"is_disabled":false,"rental_uris":{"android":"levelo://app?vid=de7b87f5-7dce-4e83-8bf1-aeb4a0e822f8","ios":"levelo://app?vid=de7b87f5-7dce-4e83-8bf1-aeb4a0e822f8"},"vehicle_type_id":"4","last_reported":1744380608,"current_range_meters":5600,"station_id":"ce4bhnh2rcd13ifvqgtg","pricing_plan_id":"cebpf4jnsgd1na2vs0mg"},{"bike_id":"9b51769d-9362-47ef-acc9-0dd9e010c6fa","system_id":"levelo_inurba_marseille","lat":43.25719,"lon":5.41113,"is_reserved":false,"is_disabled":false,"rental_uris":{"android":"levelo://app?vid=9b51769d-9362-47ef-acc9-0dd9e010c6fa","ios":"levelo://app?vid=9b51769d-9362-47ef-acc9-0dd9e010c6fa"},"vehicle_type_id":"4","last_reported":1744380608,"current_range_meters":5600,"station_id":"ce4bhkp2rcd13ifvqgd0","pricing_plan_id":"cebpf4jnsgd1na2vs0mg"},{"bike_id":"4a3e0919-27c2-445a-a961-2bd3243a227d","system_id":"levelo_inurba_marseille","lat":43.316358,"lon":5.373227,"is_reserved":false,"is_disabled":false,"rental_uris":{"android":"levelo://app?vid=4a3e0919-27c2-445a-a961-2bd3243a227d","ios":"levelo://app?vid=4a3e0919-27c2-445a-a961-2bd3243a227d"},"vehicle_type_id":"4","last_reported":1744380608,"current_range_meters":6400,"station_id":"","pricing_plan_id":"cebpf4jnsgd1na2vs0mg"},{"bike_id":"dc559cc4-ec44-4979-b802-b716ff602467","system_id":"levelo_inurba_marseille","lat":43.28269,"lon":5.35055,"is_reserved":false,"is_disabled":false,"rental_uris":{"android":"levelo://app?vid=dc559cc4-ec44-4979-b802-b716ff602467","ios":"levelo://app?vid=dc559cc4-ec44-4979-b802-b716ff602467"},"vehicle_type_id":"4","last_reported":1744380608,"current_range_meters":6400,"station_id":"ce4bhbp2rcd13ifvqerg","pricing_plan_id":"cebpf4jnsgd1na2vs0mg"},{"bike_id":"ec5ff0d3-58a9-4ea1-8bfc-bb3478350a03","system_id":"levelo_inurba_marseille","lat":43.28346,"lon":5.3811,"is_reserved":false,"is_disabled":false,"rental_uris":{"android":"levelo://app?vid=ec5ff0d3-58a9-4ea1-8bfc-bb3478350a03","ios":"levelo://app?vid=ec5ff0d3-58a9-4ea1-8bfc-bb3478350a03"},"vehicle_type_id":"4","last_reported":1744380608,"current_range_meters":6400,"station_id":"ce4bh412rcd13ifvqdr0","pricing_plan_id":"cebpf4jnsgd1na2vs0mg"},{"bike_id":"036591e2-6584-4cf4-8bad-ddfc04cb273d","system_id":"levelo_inurba_marseille","lat":43.24163,"lon":5.36389,"is_reserved":false,"is_disabled":false,"rental_uris":{"android":"levelo://app?vid=036591e2-6584-4cf4-8bad-ddfc04cb273d","ios":"levelo://app?vid=036591e2-6584-4cf4-8bad-ddfc04cb273d"},"vehicle_type_id":"4","last_reported":1744380608,"current_range_meters":6400,"station_id":"cpo36qri1sfpv3e86is0","pricing_plan_id":"cebpf4jnsgd1na2vs0mg"},{"bike_id":"2ffd1fbe-d987-4cca-b226-f57bba3934bf","system_id":"levelo_inurba_marseille","lat":43.28616,"lon":5.35106,"is_reserved":false,"is_disabled":false,"rental_uris":{"android":"levelo://app?vid=2ffd1fbe-d987-4cca-b226-f57bba3934bf","ios":"levelo://app?vid=2ffd1fbe-d987-4cca-b226-f57bba3934bf"},"vehicle_type_id":"4","last_reported":1744380608,"current_range_meters":6800,"station_id":"ce4bhch2rcd13ifvqeug","pricing_plan_id":"cebpf4jnsgd1na2vs0mg"},{"bike_id":"8736806d-b298-4402-9c86-4cfaa20f473e","system_id":"levelo_inurba_marseille","lat":43.30325,"lon":5.40439,"is_reserved":false,"is_disabled":false,"rental_uris":{"android":"levelo://app?vid=8736806d-b298-4402-9c86-4cfaa20f473e","ios":"levelo://app?vid=8736806d-b298-4402-9c86-4cfaa20f473e"},"vehicle_type_id":"4","last_reported":1744380608,"current_range_meters":6800,"station_id":"ce4bh012rcd13ifvqd10","pricing_plan_id":"cebpf4jnsgd1na2vs0mg"},{"bike_id":"6f895c11-bc92-470a-a70a-84d719e68030","system_id":"levelo_inurba_marseille","lat":43.27916,"lon":5.39572,"is_reserved":false,"is_disabled":false,"rental_uris":{"android":"levelo://app?vid=6f895c11-bc92-470a-a70a-84d719e68030","ios":"levelo://app?vid=6f895c11-bc92-470a-a70a-84d719e68030"},"vehicle_type_id":"4","last_reported":1744380608,"current_range_meters":7200,"station_id":"ce4bhf92rcd13ifvqf40","pricing_plan_id":"cebpf4jnsgd1na2vs0mg"},{"bike_id":"08991ac5-b255-40b6-9d3d-f1d5c1ae468b","system_id":"levelo_inurba_marseille","lat":43.22929,"lon":5.35374,"is_reserved":false,"is_disabled":false,"rental_uris":{"android":"levelo://app?vid=08991ac5-b255-40b6-9d3d-f1d5c1ae468b","ios":"levelo://app?vid=08991ac5-b255-40b6-9d3d-f1d5c1ae468b"},"vehicle_type_id":"4","last_reported":1744380608,"current_range_meters":7200,"station_id":"cpo3532slgdg3j2ikp40","pricing_plan_id":"cebpf4jnsgd1na2vs0mg"},{"bike_id":"864b5108-a68a-48f0-a38f-03acb15ff84e","system_id":"levelo_inurba_marseille","lat":43.23967,"lon":5.36628,"is_reserved":false,"is_disabled":false,"rental_uris":{"android":"levelo://app?vid=864b5108-a68a-48f0-a38f-03acb15ff84e","ios":"levelo://app?vid=864b5108-a68a-48f0-a38f-03acb15ff84e"},"vehicle_type_id":"4","last_reported":1744380608,"current_range_meters":7200,"station_id":"ce4bhi12rcd13ifvqfp0","pricing_plan_id":"cebpf4jnsgd1na2vs0mg"},{"bike_id":"de42dcc3-81a1-446e-ba70-7b8462da9414","system_id":"levelo_inurba_marseille","lat":43.30232,"lon":5.40058,"is_reserved":false,"is_disabled":false,"rental_uris":{"android":"levelo://app?vid=de42dcc3-81a1-446e-ba70-7b8462da9414","ios":"levelo://app?vid=de42dcc3-81a1-446e-ba70-7b8462da9414"},"vehicle_type_id":"4","last_reported":1744380608,"current_range_meters":7200,"station_id":"","pricing_plan_id":"cebpf4jnsgd1na2vs0mg"},{"bike_id":"e7ecb14a-2db3-4d0b-b41f-70947fa65858","system_id":"levelo_inurba_marseille","lat":43.28415,"lon":5.34982,"is_reserved":false,"is_disabled":false,"rental_uris":{"android":"levelo://app?vid=e7ecb14a-2db3-4d0b-b41f-70947fa65858","ios":"levelo://app?vid=e7ecb14a-2db3-4d0b-b41f-70947fa65858"},"vehicle_type_id":"4","last_reported":1744380608,"current_range_meters":8000,"station_id":"ce4bhbh2rcd13ifvqepg","pricing_plan_id":"cebpf4jnsgd1na2vs0mg"},{"bike_id":"893ccd6e-2ced-4823-ae9b-a5b23d9f8df0","system_id":"levelo_inurba_marseille","lat":43.23166,"lon":5.43687,"is_reserved":false,"is_disabled":false,"rental_uris":{"android":"levelo://app?vid=893ccd6e-2ced-4823-ae9b-a5b23d9f8df0","ios":"levelo://app?vid=893ccd6e-2ced-4823-ae9b-a5b23d9f8df0"},"vehicle_type_id":"4","last_reported":1744380608,"current_range_meters":8000,"station_id":"ce4bhmp2rcd13ifvqgog","pricing_plan_id":"cebpf4jnsgd1na2vs0mg"},{"bike_id":"5b497f3e-9a15-48dc-8a52-2ef94ad2d519","system_id":"levelo_inurba_marseille","lat":43.30291,"lon":5.37694,"is_reserved":false,"is_disabled":false,"rental_uris":{"android":"levelo://app?vid=5b497f3e-9a15-48dc-8a52-2ef94ad2d519","ios":"levelo://app?vid=5b497f3e-9a15-48dc-8a52-2ef94ad2d519"},"vehicle_type_id":"4","last_reported":1744380608,"current_range_meters":8000,"station_id":"ce4bguh2rcd13ifvqcj0","pricing_plan_id":"cebpf4jnsgd1na2vs0mg"},{"bike_id":"a66f23c2-e4cc-4fa6-9917-6bcc0d6f9249","system_id":"levelo_inurba_marseille","lat":43.27573,"lon":5.3845,"is_reserved":false,"is_disabled":false,"rental_uris":{"android":"levelo://app?vid=a66f23c2-e4cc-4fa6-9917-6bcc0d6f9249","ios":"levelo://app?vid=a66f23c2-e4cc-4fa6-9917-6bcc0d6f9249"},"vehicle_type_id":"4","last_reported":1744380608,"current_range_meters":7200,"station_id":"ce4bhh92rcd13ifvqfi0","pricing_plan_id":"cebpf4jnsgd1na2vs0mg"},{"bike_id":"8fe71b77-79b4-42e2-880d-572274ac94b5","system_id":"levelo_inurba_marseille","lat":43.295275,"lon":5.385408,"is_reserved":false,"is_disabled":false,"rental_uris":{"android":"levelo://app?vid=8fe71b77-79b4-42e2-880d-572274ac94b5","ios":"levelo://app?vid=8fe71b77-79b4-42e2-880d-572274ac94b5"},"vehicle_type_id":"4","last_reported":1744380608,"current_range_meters":7200,"station_id":"ce4bh292rcd13ifvqdf0","pricing_plan_id":"cebpf4jnsgd1na2vs0mg"},{"bike_id":"a7347375-5ae1-4438-8ac6-a146ba63bb1b","system_id":"levelo_inurba_marseille","lat":43.22927,"lon":5.35377,"is_reserved":false,"is_disabled":false,"rental_uris":{"android":"levelo://app?vid=a7347375-5ae1-4438-8ac6-a146ba63bb1b","ios":"levelo://app?vid=a7347375-5ae1-4438-8ac6-a146ba63bb1b"},"vehicle_type_id":"4","last_reported":1744380608,"current_range_meters":8000,"station_id":"cpo3532slgdg3j2ikp40","pricing_plan_id":"cebpf4jnsgd1na2vs0mg"},{"bike_id":"d5f3238c-f7e4-4ddc-9563-5071511b0215","system_id":"levelo_inurba_marseille","lat":43.29259,"lon":5.37638,"is_reserved":false,"is_disabled":false,"rental_uris":{"android":"levelo://app?vid=d5f3238c-f7e4-4ddc-9563-5071511b0215","ios":"levelo://app?vid=d5f3238c-f7e4-4ddc-9563-5071511b0215"},"vehicle_type_id":"4","last_reported":1744380608,"current_range_meters":8400,"station_id":"ce4bgi12rcd13ifvqb80","pricing_plan_id":"cebpf4jnsgd1na2vs0mg"},{"bike_id":"7b521754-de2d-4893-845b-69ac7841b48a","system_id":"levelo_inurba_marseille","lat":43.23159,"lon":5.43696,"is_reserved":false,"is_disabled":false,"rental_uris":{"android":"levelo://app?vid=7b521754-de2d-4893-845b-69ac7841b48a","ios":"levelo://app?vid=7b521754-de2d-4893-845b-69ac7841b48a"},"vehicle_type_id":"4","last_reported":1744380608,"current_range_meters":8400,"station_id":"ce4bhmp2rcd13ifvqgog","pricing_plan_id":"cebpf4jnsgd1na2vs0mg"},{"bike_id":"f94f664d-0ae1-48ef-ad09-db7166c14978","system_id":"levelo_inurba_marseille","lat":43.23962,"lon":5.36639,"is_reserved":false,"is_disabled":false,"rental_uris":{"android":"levelo://app?vid=f94f664d-0ae1-48ef-ad09-db7166c14978","ios":"levelo://app?vid=f94f664d-0ae1-48ef-ad09-db7166c14978"},"vehicle_type_id":"4","last_reported":1744380608,"current_range_meters":8400,"station_id":"ce4bhi12rcd13ifvqfp0","pricing_plan_id":"cebpf4jnsgd1na2vs0mg"},{"bike_id":"3fa938ff-b983-4fd0-928e-da749d7eb233","system_id":"levelo_inurba_marseille","lat":43.273788,"lon":5.362528,"is_reserved":false,"is_disabled":false,"rental_uris":{"android":"levelo://app?vid=3fa938ff-b983-4fd0-928e-da749d7eb233","ios":"levelo://app?vid=3fa938ff-b983-4fd0-928e-da749d7eb233"},"vehicle_type_id":"4","last_reported":1744380608,"current_range_meters":8400,"station_id":"ce4bhbh2rcd13ifvqeo0","pricing_plan_id":"cebpf4jnsgd1na2vs0mg"},{"bike_id":"0d216689-a1b1-4479-940b-7dc6beebdf41","system_id":"levelo_inurba_marseille","lat":43.29545,"lon":5.37495,"is_reserved":false,"is_disabled":false,"rental_uris":{"android":"levelo://app?vid=0d216689-a1b1-4479-940b-7dc6beebdf41","ios":"levelo://app?vid=0d216689-a1b1-4479-940b-7dc6beebdf41"},"vehicle_type_id":"4","last_reported":1744380608,"current_range_meters":8400,"station_id":"ce4bgkp2rcd13ifvqbmg","pricing_plan_id":"cebpf4jnsgd1na2vs0mg"},{"bike_id":"3bc7c9ae-f927-4f6a-a09a-6cfc7f761bcb","system_id":"levelo_inurba_marseille","lat":43.27808,"lon":5.40721,"is_reserved":false,"is_disabled":false,"rental_uris":{"android":"levelo://app?vid=3bc7c9ae-f927-4f6a-a09a-6cfc7f761bcb","ios":"levelo://app?vid=3bc7c9ae-f927-4f6a-a09a-6cfc7f761bcb"},"vehicle_type_id":"4","last_reported":1744380608,"current_range_meters":8400,"station_id":"ce4bhnh2rcd13ifvqgtg","pricing_plan_id":"cebpf4jnsgd1na2vs0mg"},{"bike_id":"d1de0d02-cad5-473e-84fe-71385aa8dc4b","system_id":"levelo_inurba_marseille","lat":43.27379,"lon":5.36249,"is_reserved":false,"is_disabled":false,"rental_uris":{"android":"levelo://app?vid=d1de0d02-cad5-473e-84fe-71385aa8dc4b","ios":"levelo://app?vid=d1de0d02-cad5-473e-84fe-71385aa8dc4b"},"vehicle_type_id":"4","last_reported":1744380608,"current_range_meters":8800,"station_id":"ce4bhbh2rcd13ifvqeo0","pricing_plan_id":"cebpf4jnsgd1na2vs0mg"},{"bike_id":"bdae112c-94ab-4d0b-b0cc-691e4a37008d","system_id":"levelo_inurba_marseille","lat":43.24548,"lon":5.39529,"is_reserved":false,"is_disabled":false,"rental_uris":{"android":"levelo://app?vid=bdae112c-94ab-4d0b-b0cc-691e4a37008d","ios":"levelo://app?vid=bdae112c-94ab-4d0b-b0cc-691e4a37008d"},"vehicle_type_id":"4","last_reported":1744380608,"current_range_meters":8800,"station_id":"ce4bhlp2rcd13ifvqgjg","pricing_plan_id":"cebpf4jnsgd1na2vs0mg"},{"bike_id":"942af45f-74e3-4fc4-b115-a5c817c3c857","system_id":"levelo_inurba_marseille","lat":43.30553,"lon":5.38427,"is_reserved":false,"is_disabled":false,"rental_uris":{"android":"levelo://app?vid=942af45f-74e3-4fc4-b115-a5c817c3c857","ios":"levelo://app?vid=942af45f-74e3-4fc4-b115-a5c817c3c857"},"vehicle_type_id":"4","last_reported":1744380608,"current_range_meters":8800,"station_id":"ce4bgg92rcd13ifvqb30","pricing_plan_id":"cebpf4jnsgd1na2vs0mg"},{"bike_id":"6585f910-1e98-43a6-babf-cbdde703d84a","system_id":"levelo_inurba_marseille","lat":43.28618,"lon":5.35109,"is_reserved":false,"is_disabled":false,"rental_uris":{"android":"levelo://app?vid=6585f910-1e98-43a6-babf-cbdde703d84a","ios":"levelo://app?vid=6585f910-1e98-43a6-babf-cbdde703d84a"},"vehicle_type_id":"4","last_reported":1744380608,"current_range_meters":8800,"station_id":"ce4bhch2rcd13ifvqeug","pricing_plan_id":"cebpf4jnsgd1na2vs0mg"},{"bike_id":"8600d699-29dd-40d4-b39c-00301a3c93d7","system_id":"levelo_inurba_marseille","lat":43.30946,"lon":5.40154,"is_reserved":false,"is_disabled":false,"rental_uris":{"android":"levelo://app?vid=8600d699-29dd-40d4-b39c-00301a3c93d7","ios":"levelo://app?vid=8600d699-29dd-40d4-b39c-00301a3c93d7"},"vehicle_type_id":"4","last_reported":1744380608,"current_range_meters":8800,"station_id":"ce4bgvp2rcd13ifvqct0","pricing_plan_id":"cebpf4jnsgd1na2vs0mg"},{"bike_id":"30e7be75-b0d9-4a9d-a98a-5c23f42adae2","system_id":"levelo_inurba_marseille","lat":43.23152,"lon":5.43697,"is_reserved":false,"is_disabled":false,"rental_uris":{"android":"levelo://app?vid=30e7be75-b0d9-4a9d-a98a-5c23f42adae2","ios":"levelo://app?vid=30e7be75-b0d9-4a9d-a98a-5c23f42adae2"},"vehicle_type_id":"4","last_reported":1744380608,"current_range_meters":8800,"station_id":"ce4bhmp2rcd13ifvqgog","pricing_plan_id":"cebpf4jnsgd1na2vs0mg"},{"bike_id":"00056412-f7d0-40d2-8c70-ddd96f23efc7","system_id":"levelo_inurba_marseille","lat":43.28418,"lon":5.34993,"is_reserved":false,"is_disabled":false,"rental_uris":{"android":"levelo://app?vid=00056412-f7d0-40d2-8c70-ddd96f23efc7","ios":"levelo://app?vid=00056412-f7d0-40d2-8c70-ddd96f23efc7"},"vehicle_type_id":"4","last_reported":1744380608,"current_range_meters":8800,"station_id":"ce4bhbh2rcd13ifvqepg","pricing_plan_id":"cebpf4jnsgd1na2vs0mg"},{"bike_id":"f2383232-08ad-467d-8d39-86ee1fefe659","system_id":"levelo_inurba_marseille","lat":43.2971,"lon":5.36604,"is_reserved":false,"is_disabled":false,"rental_uris":{"android":"levelo://app?vid=f2383232-08ad-467d-8d39-86ee1fefe659","ios":"levelo://app?vid=f2383232-08ad-467d-8d39-86ee1fefe659"},"vehicle_type_id":"4","last_reported":1744380608,"current_range_meters":8800,"station_id":"ce4bgn12rcd13ifvqbt0","pricing_plan_id":"cebpf4jnsgd1na2vs0mg"},{"bike_id":"6987fce8-70e5-4338-b467-660591301472","system_id":"levelo_inurba_marseille","lat":43.31329,"lon":5.39695,"is_reserved":false,"is_disabled":false,"rental_uris":{"android":"levelo://app?vid=6987fce8-70e5-4338-b467-660591301472","ios":"levelo://app?vid=6987fce8-70e5-4338-b467-660591301472"},"vehicle_type_id":"4","last_reported":1744380608,"current_range_meters":9200,"station_id":"ce4bgvp2rcd13ifvqcu0","pricing_plan_id":"cebpf4jnsgd1na2vs0mg"},{"bike_id":"06f02d7c-c7e8-4c51-bc79-fcc31a3eb7c5","system_id":"levelo_inurba_marseille","lat":43.24543,"lon":5.39526,"is_reserved":false,"is_disabled":false,"rental_uris":{"android":"levelo://app?vid=06f02d7c-c7e8-4c51-bc79-fcc31a3eb7c5","ios":"levelo://app?vid=06f02d7c-c7e8-4c51-bc79-fcc31a3eb7c5"},"vehicle_type_id":"4","last_reported":1744380608,"current_range_meters":9200,"station_id":"ce4bhlp2rcd13ifvqgjg","pricing_plan_id":"cebpf4jnsgd1na2vs0mg"},{"bike_id":"1c23ccd0-1859-4655-95ef-d8d1dacc4ad2","system_id":"levelo_inurba_marseille","lat":43.29299,"lon":5.37164,"is_reserved":false,"is_disabled":false,"rental_uris":{"android":"levelo://app?vid=1c23ccd0-1859-4655-95ef-d8d1dacc4ad2","ios":"levelo://app?vid=1c23ccd0-1859-4655-95ef-d8d1dacc4ad2"},"vehicle_type_id":"4","last_reported":1744380608,"current_range_meters":9200,"station_id":"ce4bgh92rcd13ifvqb40","pricing_plan_id":"cebpf4jnsgd1na2vs0mg"},{"bike_id":"1b5726c3-259c-4107-812b-7f4278221e66","system_id":"levelo_inurba_marseille","lat":43.26567,"lon":5.38998,"is_reserved":false,"is_disabled":false,"rental_uris":{"android":"levelo://app?vid=1b5726c3-259c-4107-812b-7f4278221e66","ios":"levelo://app?vid=1b5726c3-259c-4107-812b-7f4278221e66"},"vehicle_type_id":"4","last_reported":1744380608,"current_range_meters":9200,"station_id":"ce4bhe12rcd13ifvqf30","pricing_plan_id":"cebpf4jnsgd1na2vs0mg"},{"bike_id":"eb4c813d-f8bd-41d6-abd8-b2b1dab6da62","system_id":"levelo_inurba_marseille","lat":43.28424,"lon":5.34984,"is_reserved":false,"is_disabled":false,"rental_uris":{"android":"levelo://app?vid=eb4c813d-f8bd-41d6-abd8-b2b1dab6da62","ios":"levelo://app?vid=eb4c813d-f8bd-41d6-abd8-b2b1dab6da62"},"vehicle_type_id":"4","last_reported":1744380608,"current_range_meters":9200,"station_id":"ce4bhbh2rcd13ifvqepg","pricing_plan_id":"cebpf4jnsgd1na2vs0mg"},{"bike_id":"be144df3-65bc-4d68-911d-ea66a0e8f2cf","system_id":"levelo_inurba_marseille","lat":43.27373,"lon":5.36249,"is_reserved":false,"is_disabled":false,"rental_uris":{"android":"levelo://app?vid=be144df3-65bc-4d68-911d-ea66a0e8f2cf","ios":"levelo://app?vid=be144df3-65bc-4d68-911d-ea66a0e8f2cf"},"vehicle_type_id":"4","last_reported":1744380608,"current_range_meters":9200,"station_id":"ce4bhbh2rcd13ifvqeo0","pricing_plan_id":"cebpf4jnsgd1na2vs0mg"},{"bike_id":"744d126d-4c59-420e-8d61-ea7e8fa4fb93","system_id":"levelo_inurba_marseille","lat":43.23152,"lon":5.43717,"is_reserved":false,"is_disabled":false,"rental_uris":{"android":"levelo://app?vid=744d126d-4c59-420e-8d61-ea7e8fa4fb93","ios":"levelo://app?vid=744d126d-4c59-420e-8d61-ea7e8fa4fb93"},"vehicle_type_id":"4","last_reported":1744380608,"current_range_meters":9200,"station_id":"ce4bhmp2rcd13ifvqgog","pricing_plan_id":"cebpf4jnsgd1na2vs0mg"},{"bike_id":"0909e131-52a6-4ba8-8fa6-25daed8c56e2","system_id":"levelo_inurba_marseille","lat":43.21198,"lon":5.35068,"is_reserved":false,"is_disabled":false,"rental_uris":{"android":"levelo://app?vid=0909e131-52a6-4ba8-8fa6-25daed8c56e2","ios":"levelo://app?vid=0909e131-52a6-4ba8-8fa6-25daed8c56e2"},"vehicle_type_id":"4","last_reported":1744380608,"current_range_meters":9200,"station_id":"st_cvj6sg6p6f1abm77japg","pricing_plan_id":"cebpf4jnsgd1na2vs0mg"},{"bike_id":"b40f5077-10d5-4c79-a576-40765af24178","system_id":"levelo_inurba_marseille","lat":43.29926,"lon":5.36547,"is_reserved":false,"is_disabled":false,"rental_uris":{"android":"levelo://app?vid=b40f5077-10d5-4c79-a576-40765af24178","ios":"levelo://app?vid=b40f5077-10d5-4c79-a576-40765af24178"},"vehicle_type_id":"4","last_reported":1744380608,"current_range_meters":9600,"station_id":"ce4bgm92rcd13ifvqbr0","pricing_plan_id":"cebpf4jnsgd1na2vs0mg"},{"bike_id":"18021254-28cb-40ee-a49d-029f2a4c3109","system_id":"levelo_inurba_marseille","lat":43.29417,"lon":5.3862,"is_reserved":false,"is_disabled":false,"rental_uris":{"android":"levelo://app?vid=18021254-28cb-40ee-a49d-029f2a4c3109","ios":"levelo://app?vid=18021254-28cb-40ee-a49d-029f2a4c3109"},"vehicle_type_id":"4","last_reported":1744380608,"current_range_meters":9600,"station_id":"ce4bh2h2rcd13ifvqdh0","pricing_plan_id":"cebpf4jnsgd1na2vs0mg"},{"bike_id":"75d5b84a-12e2-40e5-9601-3a17ba3418df","system_id":"levelo_inurba_marseille","lat":43.30303,"lon":5.3921,"is_reserved":false,"is_disabled":false,"rental_uris":{"android":"levelo://app?vid=75d5b84a-12e2-40e5-9601-3a17ba3418df","ios":"levelo://app?vid=75d5b84a-12e2-40e5-9601-3a17ba3418df"},"vehicle_type_id":"4","last_reported":1744380608,"current_range_meters":9600,"station_id":"ce4bgkh2rcd13ifvqbk0","pricing_plan_id":"cebpf4jnsgd1na2vs0mg"},{"bike_id":"d5c3a62e-6890-4688-8645-49848b9a362b","system_id":"levelo_inurba_marseille","lat":43.29218,"lon":5.36061,"is_reserved":false,"is_disabled":false,"rental_uris":{"android":"levelo://app?vid=d5c3a62e-6890-4688-8645-49848b9a362b","ios":"levelo://app?vid=d5c3a62e-6890-4688-8645-49848b9a362b"},"vehicle_type_id":"4","last_reported":1744380608,"current_range_meters":9600,"station_id":"ce4bhbh2rcd13ifvqeqg","pricing_plan_id":"cebpf4jnsgd1na2vs0mg"},{"bike_id":"6096d8e4-4720-4fb3-9e2d-c4f2bdfc9da1","system_id":"levelo_inurba_marseille","lat":43.29051,"lon":5.3591,"is_reserved":false,"is_disabled":false,"rental_uris":{"android":"levelo://app?vid=6096d8e4-4720-4fb3-9e2d-c4f2bdfc9da1","ios":"levelo://app?vid=6096d8e4-4720-4fb3-9e2d-c4f2bdfc9da1"},"vehicle_type_id":"4","last_reported":1744380608,"current_range_meters":9600,"station_id":"ce4bha92rcd13ifvqeg0","pricing_plan_id":"cebpf4jnsgd1na2vs0mg"},{"bike_id":"c7ceb21f-eab5-4007-b7a9-b4f1aa48d219","system_id":"levelo_inurba_marseille","lat":43.29904,"lon":5.38135,"is_reserved":false,"is_disabled":false,"rental_uris":{"android":"levelo://app?vid=c7ceb21f-eab5-4007-b7a9-b4f1aa48d219","ios":"levelo://app?vid=c7ceb21f-eab5-4007-b7a9-b4f1aa48d219"},"vehicle_type_id":"4","last_reported":1744380608,"current_range_meters":9600,"station_id":"ce4bgj12rcd13ifvqbc0","pricing_plan_id":"cebpf4jnsgd1na2vs0mg"},{"bike_id":"eab6cbfa-cb8e-47d7-b0d6-226ab7facec7","system_id":"levelo_inurba_marseille","lat":43.31716,"lon":5.42417,"is_reserved":false,"is_disabled":true,"rental_uris":{"android":"levelo://app?vid=eab6cbfa-cb8e-47d7-b0d6-226ab7facec7","ios":"levelo://app?vid=eab6cbfa-cb8e-47d7-b0d6-226ab7facec7"},"vehicle_type_id":"4","last_reported":1744380608,"current_range_meters":9600,"station_id":"ce4bhp92rcd13ifvqhbg","pricing_plan_id":"cebpf4jnsgd1na2vs0mg"},{"bike_id":"a4a6b2dd-c647-48dc-8c45-169ec1b8d7cb","system_id":"levelo_inurba_marseille","lat":43.29852,"lon":5.36293,"is_reserved":false,"is_disabled":false,"rental_uris":{"android":"levelo://app?vid=a4a6b2dd-c647-48dc-8c45-169ec1b8d7cb","ios":"levelo://app?vid=a4a6b2dd-c647-48dc-8c45-169ec1b8d7cb"},"vehicle_type_id":"4","last_reported":1744380608,"current_range_meters":10000,"station_id":"ce4bgpp2rcd13ifvqc3g","pricing_plan_id":"cebpf4jnsgd1na2vs0mg"},{"bike_id":"d25e0f36-1985-4ff3-936e-b42a4bd41d15","system_id":"levelo_inurba_marseille","lat":43.27573,"lon":5.38434,"is_reserved":false,"is_disabled":false,"rental_uris":{"android":"levelo://app?vid=d25e0f36-1985-4ff3-936e-b42a4bd41d15","ios":"levelo://app?vid=d25e0f36-1985-4ff3-936e-b42a4bd41d15"},"vehicle_type_id":"4","last_reported":1744380608,"current_range_meters":10000,"station_id":"ce4bhh92rcd13ifvqfi0","pricing_plan_id":"cebpf4jnsgd1na2vs0mg"},{"bike_id":"faec53bb-63f8-425d-8ec2-ea1908b8cee7","system_id":"levelo_inurba_marseille","lat":43.28417,"lon":5.34977,"is_reserved":false,"is_disabled":false,"rental_uris":{"android":"levelo://app?vid=faec53bb-63f8-425d-8ec2-ea1908b8cee7","ios":"levelo://app?vid=faec53bb-63f8-425d-8ec2-ea1908b8cee7"},"vehicle_type_id":"4","last_reported":1744380608,"current_range_meters":10000,"station_id":"ce4bhbh2rcd13ifvqepg","pricing_plan_id":"cebpf4jnsgd1na2vs0mg"},{"bike_id":"14a59708-d94b-4f64-9532-9f6d18aeeba4","system_id":"levelo_inurba_marseille","lat":43.2781,"lon":5.40704,"is_reserved":false,"is_disabled":false,"rental_uris":{"android":"levelo://app?vid=14a59708-d94b-4f64-9532-9f6d18aeeba4","ios":"levelo://app?vid=14a59708-d94b-4f64-9532-9f6d18aeeba4"},"vehicle_type_id":"4","last_reported":1744380608,"current_range_meters":10000,"station_id":"ce4bhnh2rcd13ifvqgtg","pricing_plan_id":"cebpf4jnsgd1na2vs0mg"},{"bike_id":"b71c9b0d-fca1-4f64-8381-e00568a10027","system_id":"levelo_inurba_marseille","lat":43.28615,"lon":5.35108,"is_reserved":false,"is_disabled":false,"rental_uris":{"android":"levelo://app?vid=b71c9b0d-fca1-4f64-8381-e00568a10027","ios":"levelo://app?vid=b71c9b0d-fca1-4f64-8381-e00568a10027"},"vehicle_type_id":"4","last_reported":1744380608,"current_range_meters":10000,"station_id":"ce4bhch2rcd13ifvqeug","pricing_plan_id":"cebpf4jnsgd1na2vs0mg"},{"bike_id":"e4584e81-d0ff-45d4-a366-ed824c8de9b6","system_id":"levelo_inurba_marseille","lat":43.2316,"lon":5.43705,"is_reserved":false,"is_disabled":false,"rental_uris":{"android":"levelo://app?vid=e4584e81-d0ff-45d4-a366-ed824c8de9b6","ios":"levelo://app?vid=e4584e81-d0ff-45d4-a366-ed824c8de9b6"},"vehicle_type_id":"4","last_reported":1744380608,"current_range_meters":10000,"station_id":"ce4bhmp2rcd13ifvqgog","pricing_plan_id":"cebpf4jnsgd1na2vs0mg"},{"bike_id":"4b62ceb0-3657-48c1-8c0f-5ef42bdc9c04","system_id":"levelo_inurba_marseille","lat":43.21754,"lon":5.34609,"is_reserved":false,"is_disabled":false,"rental_uris":{"android":"levelo://app?vid=4b62ceb0-3657-48c1-8c0f-5ef42bdc9c04","ios":"levelo://app?vid=4b62ceb0-3657-48c1-8c0f-5ef42bdc9c04"},"vehicle_type_id":"4","last_reported":1744380608,"current_range_meters":10000,"station_id":"st_cvj6r9ubvosntc0bgbag","pricing_plan_id":"cebpf4jnsgd1na2vs0mg"},{"bike_id":"0922821c-4e1d-4817-9469-860e55f8f0d1","system_id":"levelo_inurba_marseille","lat":43.337444,"lon":5.374475,"is_reserved":false,"is_disabled":false,"rental_uris":{"android":"levelo://app?vid=0922821c-4e1d-4817-9469-860e55f8f0d1","ios":"levelo://app?vid=0922821c-4e1d-4817-9469-860e55f8f0d1"},"vehicle_type_id":"4","last_reported":1744380608,"current_range_meters":10000,"station_id":"","pricing_plan_id":"cebpf4jnsgd1na2vs0mg"},{"bike_id":"168f80ff-fdd3-4713-893e-9ecc4c0ffecf","system_id":"levelo_inurba_marseille","lat":43.229294,"lon":5.353744,"is_reserved":false,"is_disabled":false,"rental_uris":{"android":"levelo://app?vid=168f80ff-fdd3-4713-893e-9ecc4c0ffecf","ios":"levelo://app?vid=168f80ff-fdd3-4713-893e-9ecc4c0ffecf"},"vehicle_type_id":"4","last_reported":1744380608,"current_range_meters":10800,"station_id":"cpo3532slgdg3j2ikp40","pricing_plan_id":"cebpf4jnsgd1na2vs0mg"},{"bike_id":"ae922ace-6a9c-48fb-bcbf-cfa52f89e736","system_id":"levelo_inurba_marseille","lat":43.27816,"lon":5.40721,"is_reserved":false,"is_disabled":false,"rental_uris":{"android":"levelo://app?vid=ae922ace-6a9c-48fb-bcbf-cfa52f89e736","ios":"levelo://app?vid=ae922ace-6a9c-48fb-bcbf-cfa52f89e736"},"vehicle_type_id":"4","last_reported":1744380608,"current_range_meters":10800,"station_id":"ce4bhnh2rcd13ifvqgtg","pricing_plan_id":"cebpf4jnsgd1na2vs0mg"},{"bike_id":"51a356e6-19ea-4bd4-b785-00950cb6513a","system_id":"levelo_inurba_marseille","lat":43.292276,"lon":5.360657,"is_reserved":false,"is_disabled":false,"rental_uris":{"android":"levelo://app?vid=51a356e6-19ea-4bd4-b785-00950cb6513a","ios":"levelo://app?vid=51a356e6-19ea-4bd4-b785-00950cb6513a"},"vehicle_type_id":"4","last_reported":1744380608,"current_range_meters":10800,"station_id":"ce4bhbh2rcd13ifvqeqg","pricing_plan_id":"cebpf4jnsgd1na2vs0mg"},{"bike_id":"de8dd048-197d-408b-9924-c9eccfbf5330","system_id":"levelo_inurba_marseille","lat":43.21744,"lon":5.34612,"is_reserved":false,"is_disabled":true,"rental_uris":{"android":"levelo://app?vid=de8dd048-197d-408b-9924-c9eccfbf5330","ios":"levelo://app?vid=de8dd048-197d-408b-9924-c9eccfbf5330"},"vehicle_type_id":"4","last_reported":1744380608,"current_range_meters":10800,"station_id":"","pricing_plan_id":"cebpf4jnsgd1na2vs0mg"},{"bike_id":"00adb7ab-e6a6-43e9-aa6c-a10ff5330d72","system_id":"levelo_inurba_marseille","lat":43.2512,"lon":5.40324,"is_reserved":false,"is_disabled":false,"rental_uris":{"android":"levelo://app?vid=00adb7ab-e6a6-43e9-aa6c-a10ff5330d72","ios":"levelo://app?vid=00adb7ab-e6a6-43e9-aa6c-a10ff5330d72"},"vehicle_type_id":"4","last_reported":1744380608,"current_range_meters":10800,"station_id":"ce4bhlh2rcd13ifvqgig","pricing_plan_id":"cebpf4jnsgd1na2vs0mg"},{"bike_id":"a1602530-e283-4ef9-bab3-26a90affb116","system_id":"levelo_inurba_marseille","lat":43.27337,"lon":5.36235,"is_reserved":false,"is_disabled":false,"rental_uris":{"android":"levelo://app?vid=a1602530-e283-4ef9-bab3-26a90affb116","ios":"levelo://app?vid=a1602530-e283-4ef9-bab3-26a90affb116"},"vehicle_type_id":"4","last_reported":1744380608,"current_range_meters":10800,"station_id":"ce4bhbh2rcd13ifvqeo0","pricing_plan_id":"cebpf4jnsgd1na2vs0mg"},{"bike_id":"b53ac5c3-ed7c-4200-a3f8-7f8c30e2f7cc","system_id":"levelo_inurba_marseille","lat":43.2866,"lon":5.36353,"is_reserved":false,"is_disabled":false,"rental_uris":{"android":"levelo://app?vid=b53ac5c3-ed7c-4200-a3f8-7f8c30e2f7cc","ios":"levelo://app?vid=b53ac5c3-ed7c-4200-a3f8-7f8c30e2f7cc"},"vehicle_type_id":"4","last_reported":1744380608,"current_range_meters":10800,"station_id":"ce4bhah2rcd13ifvqej0","pricing_plan_id":"cebpf4jnsgd1na2vs0mg"},{"bike_id":"5b93c3b9-c6e5-41dd-823b-19aee5bc1d4d","system_id":"levelo_inurba_marseille","lat":43.2842,"lon":5.34976,"is_reserved":false,"is_disabled":false,"rental_uris":{"android":"levelo://app?vid=5b93c3b9-c6e5-41dd-823b-19aee5bc1d4d","ios":"levelo://app?vid=5b93c3b9-c6e5-41dd-823b-19aee5bc1d4d"},"vehicle_type_id":"4","last_reported":1744380608,"current_range_meters":10800,"station_id":"ce4bhbh2rcd13ifvqepg","pricing_plan_id":"cebpf4jnsgd1na2vs0mg"},{"bike_id":"4f3acd91-ce8e-4583-bef1-d80af5069254","system_id":"levelo_inurba_marseille","lat":43.24166,"lon":5.39727,"is_reserved":false,"is_disabled":false,"rental_uris":{"android":"levelo://app?vid=4f3acd91-ce8e-4583-bef1-d80af5069254","ios":"levelo://app?vid=4f3acd91-ce8e-4583-bef1-d80af5069254"},"vehicle_type_id":"4","last_reported":1744380608,"current_range_meters":11200,"station_id":"ce4bhn12rcd13ifvqgpg","pricing_plan_id":"cebpf4jnsgd1na2vs0mg"},{"bike_id":"6f879eff-3201-4c40-8c9e-7f6912144868","system_id":"levelo_inurba_marseille","lat":43.301502,"lon":5.3808,"is_reserved":false,"is_disabled":false,"rental_uris":{"android":"levelo://app?vid=6f879eff-3201-4c40-8c9e-7f6912144868","ios":"levelo://app?vid=6f879eff-3201-4c40-8c9e-7f6912144868"},"vehicle_type_id":"4","last_reported":1744380608,"current_range_meters":10800,"station_id":"cki0cbj6b192h4jlfktg","pricing_plan_id":"cebpf4jnsgd1na2vs0mg"},{"bike_id":"f92d173a-6e85-477b-993a-d5b8b1e2049f","system_id":"levelo_inurba_marseille","lat":43.23197,"lon":5.35549,"is_reserved":false,"is_disabled":false,"rental_uris":{"android":"levelo://app?vid=f92d173a-6e85-477b-993a-d5b8b1e2049f","ios":"levelo://app?vid=f92d173a-6e85-477b-993a-d5b8b1e2049f"},"vehicle_type_id":"4","last_reported":1744380608,"current_range_meters":11200,"station_id":"ce4bhu92rcd13ifvqi70","pricing_plan_id":"cebpf4jnsgd1na2vs0mg"},{"bike_id":"f4683a5e-1b34-42ce-a414-e1d485531863","system_id":"levelo_inurba_marseille","lat":43.23148,"lon":5.43716,"is_reserved":false,"is_disabled":false,"rental_uris":{"android":"levelo://app?vid=f4683a5e-1b34-42ce-a414-e1d485531863","ios":"levelo://app?vid=f4683a5e-1b34-42ce-a414-e1d485531863"},"vehicle_type_id":"4","last_reported":1744380608,"current_range_meters":11200,"station_id":"ce4bhmp2rcd13ifvqgog","pricing_plan_id":"cebpf4jnsgd1na2vs0mg"},{"bike_id":"94455896-0f19-4fae-bd72-9879f01fcd6e","system_id":"levelo_inurba_marseille","lat":43.29547,"lon":5.4227,"is_reserved":false,"is_disabled":true,"rental_uris":{"android":"levelo://app?vid=94455896-0f19-4fae-bd72-9879f01fcd6e","ios":"levelo://app?vid=94455896-0f19-4fae-bd72-9879f01fcd6e"},"vehicle_type_id":"4","last_reported":1744380608,"current_range_meters":11200,"station_id":"ce4bhph2rcd13ifvqhdg","pricing_plan_id":"cebpf4jnsgd1na2vs0mg"},{"bike_id":"896dcb70-c520-4c2e-bd6d-a991f54a1123","system_id":"levelo_inurba_marseille","lat":43.27378,"lon":5.36244,"is_reserved":false,"is_disabled":false,"rental_uris":{"android":"levelo://app?vid=896dcb70-c520-4c2e-bd6d-a991f54a1123","ios":"levelo://app?vid=896dcb70-c520-4c2e-bd6d-a991f54a1123"},"vehicle_type_id":"4","last_reported":1744380608,"current_range_meters":11600,"station_id":"ce4bhbh2rcd13ifvqeo0","pricing_plan_id":"cebpf4jnsgd1na2vs0mg"},{"bike_id":"e53eea57-279f-4ad1-bb2c-1a085b8d755e","system_id":"levelo_inurba_marseille","lat":43.27368,"lon":5.36238,"is_reserved":false,"is_disabled":false,"rental_uris":{"android":"levelo://app?vid=e53eea57-279f-4ad1-bb2c-1a085b8d755e","ios":"levelo://app?vid=e53eea57-279f-4ad1-bb2c-1a085b8d755e"},"vehicle_type_id":"4","last_reported":1744380608,"current_range_meters":11600,"station_id":"ce4bhbh2rcd13ifvqeo0","pricing_plan_id":"cebpf4jnsgd1na2vs0mg"},{"bike_id":"78a7a2f4-b28b-4caa-8ef3-5d3bd2acefce","system_id":"levelo_inurba_marseille","lat":43.28279,"lon":5.3507,"is_reserved":false,"is_disabled":false,"rental_uris":{"android":"levelo://app?vid=78a7a2f4-b28b-4caa-8ef3-5d3bd2acefce","ios":"levelo://app?vid=78a7a2f4-b28b-4caa-8ef3-5d3bd2acefce"},"vehicle_type_id":"4","last_reported":1744380608,"current_range_meters":11600,"station_id":"ce4bhbp2rcd13ifvqerg","pricing_plan_id":"cebpf4jnsgd1na2vs0mg"},{"bike_id":"6ae42d22-449e-430c-b887-6a8836aa2696","system_id":"levelo_inurba_marseille","lat":43.30521,"lon":5.36537,"is_reserved":false,"is_disabled":false,"rental_uris":{"android":"levelo://app?vid=6ae42d22-449e-430c-b887-6a8836aa2696","ios":"levelo://app?vid=6ae42d22-449e-430c-b887-6a8836aa2696"},"vehicle_type_id":"4","last_reported":1744380608,"current_range_meters":12000,"station_id":"ce4bgs12rcd13ifvqcag","pricing_plan_id":"cebpf4jnsgd1na2vs0mg"},{"bike_id":"463b41fd-37bb-48c0-a6e4-12f737a3d7cf","system_id":"levelo_inurba_marseille","lat":43.2693,"lon":5.40272,"is_reserved":false,"is_disabled":true,"rental_uris":{"android":"levelo://app?vid=463b41fd-37bb-48c0-a6e4-12f737a3d7cf","ios":"levelo://app?vid=463b41fd-37bb-48c0-a6e4-12f737a3d7cf"},"vehicle_type_id":"4","last_reported":1744380608,"current_range_meters":12400,"station_id":"cjm6bp8fraef2m0cb0m0","pricing_plan_id":"cebpf4jnsgd1na2vs0mg"},{"bike_id":"feb04d1c-c2bd-4d38-91ca-a0075a753750","system_id":"levelo_inurba_marseille","lat":43.28423,"lon":5.34986,"is_reserved":false,"is_disabled":false,"rental_uris":{"android":"levelo://app?vid=feb04d1c-c2bd-4d38-91ca-a0075a753750","ios":"levelo://app?vid=feb04d1c-c2bd-4d38-91ca-a0075a753750"},"vehicle_type_id":"4","last_reported":1744380608,"current_range_meters":12400,"station_id":"ce4bhbh2rcd13ifvqepg","pricing_plan_id":"cebpf4jnsgd1na2vs0mg"},{"bike_id":"6e6e685c-a1ad-4d83-b80b-7f86ac4f4ff4","system_id":"levelo_inurba_marseille","lat":43.26572,"lon":5.37304,"is_reserved":false,"is_disabled":false,"rental_uris":{"android":"levelo://app?vid=6e6e685c-a1ad-4d83-b80b-7f86ac4f4ff4","ios":"levelo://app?vid=6e6e685c-a1ad-4d83-b80b-7f86ac4f4ff4"},"vehicle_type_id":"4","last_reported":1744380608,"current_range_meters":12400,"station_id":"ce4bhg12rcd13ifvqf70","pricing_plan_id":"cebpf4jnsgd1na2vs0mg"},{"bike_id":"5212cc69-3bae-474b-9d82-2db4850a67eb","system_id":"levelo_inurba_marseille","lat":43.29228,"lon":5.36058,"is_reserved":false,"is_disabled":false,"rental_uris":{"android":"levelo://app?vid=5212cc69-3bae-474b-9d82-2db4850a67eb","ios":"levelo://app?vid=5212cc69-3bae-474b-9d82-2db4850a67eb"},"vehicle_type_id":"4","last_reported":1744380608,"current_range_meters":12400,"station_id":"ce4bhbh2rcd13ifvqeqg","pricing_plan_id":"cebpf4jnsgd1na2vs0mg"},{"bike_id":"1b2a2f65-3246-46da-a318-10a826df64f2","system_id":"levelo_inurba_marseille","lat":43.33029,"lon":5.39039,"is_reserved":false,"is_disabled":false,"rental_uris":{"android":"levelo://app?vid=1b2a2f65-3246-46da-a318-10a826df64f2","ios":"levelo://app?vid=1b2a2f65-3246-46da-a318-10a826df64f2"},"vehicle_type_id":"4","last_reported":1744380608,"current_range_meters":12400,"station_id":"ce4bhr92rcd13ifvqhrg","pricing_plan_id":"cebpf4jnsgd1na2vs0mg"},{"bike_id":"2d2e31a1-75bd-4ef3-8efc-056c6e4199ac","system_id":"levelo_inurba_marseille","lat":43.28617,"lon":5.35091,"is_reserved":false,"is_disabled":false,"rental_uris":{"android":"levelo://app?vid=2d2e31a1-75bd-4ef3-8efc-056c6e4199ac","ios":"levelo://app?vid=2d2e31a1-75bd-4ef3-8efc-056c6e4199ac"},"vehicle_type_id":"4","last_reported":1744380608,"current_range_meters":12800,"station_id":"ce4bhch2rcd13ifvqeug","pricing_plan_id":"cebpf4jnsgd1na2vs0mg"},{"bike_id":"1fc5c8e2-6753-40d1-9390-daea29af2422","system_id":"levelo_inurba_marseille","lat":43.24391,"lon":5.37063,"is_reserved":false,"is_disabled":false,"rental_uris":{"android":"levelo://app?vid=1fc5c8e2-6753-40d1-9390-daea29af2422","ios":"levelo://app?vid=1fc5c8e2-6753-40d1-9390-daea29af2422"},"vehicle_type_id":"4","last_reported":1744380608,"current_range_meters":12800,"station_id":"ce4bhhh2rcd13ifvqfk0","pricing_plan_id":"cebpf4jnsgd1na2vs0mg"},{"bike_id":"9e45e2e6-ea26-4ae0-ba38-4423d064b444","system_id":"levelo_inurba_marseille","lat":43.26803,"lon":5.40269,"is_reserved":false,"is_disabled":false,"rental_uris":{"android":"levelo://app?vid=9e45e2e6-ea26-4ae0-ba38-4423d064b444","ios":"levelo://app?vid=9e45e2e6-ea26-4ae0-ba38-4423d064b444"},"vehicle_type_id":"4","last_reported":1744380608,"current_range_meters":12800,"station_id":"ce501612rcd8frsf0b60","pricing_plan_id":"cebpf4jnsgd1na2vs0mg"},{"bike_id":"af2305a3-123c-466b-be2b-6a4ea7dd5b4e","system_id":"levelo_inurba_marseille","lat":43.24472,"lon":5.372451,"is_reserved":false,"is_disabled":false,"rental_uris":{"android":"levelo://app?vid=af2305a3-123c-466b-be2b-6a4ea7dd5b4e","ios":"levelo://app?vid=af2305a3-123c-466b-be2b-6a4ea7dd5b4e"},"vehicle_type_id":"4","last_reported":1744380608,"current_range_meters":13600,"station_id":"ce4bhhh2rcd13ifvqfk0","pricing_plan_id":"cebpf4jnsgd1na2vs0mg"},{"bike_id":"880a4ac1-cc78-4712-9927-3f69426d6238","system_id":"levelo_inurba_marseille","lat":43.28364,"lon":5.38103,"is_reserved":false,"is_disabled":false,"rental_uris":{"android":"levelo://app?vid=880a4ac1-cc78-4712-9927-3f69426d6238","ios":"levelo://app?vid=880a4ac1-cc78-4712-9927-3f69426d6238"},"vehicle_type_id":"4","last_reported":1744380608,"current_range_meters":13600,"station_id":"ce4bh412rcd13ifvqdr0","pricing_plan_id":"cebpf4jnsgd1na2vs0mg"},{"bike_id":"1390a9b0-59cf-40f4-91e9-ff306a9c80d7","system_id":"levelo_inurba_marseille","lat":43.31222,"lon":5.36872,"is_reserved":false,"is_disabled":false,"rental_uris":{"android":"levelo://app?vid=1390a9b0-59cf-40f4-91e9-ff306a9c80d7","ios":"levelo://app?vid=1390a9b0-59cf-40f4-91e9-ff306a9c80d7"},"vehicle_type_id":"4","last_reported":1744380608,"current_range_meters":13600,"station_id":"ce4bgl92rcd13ifvqbq0","pricing_plan_id":"cebpf4jnsgd1na2vs0mg"},{"bike_id":"d21733e5-1564-4c3d-8657-463d1eaf61b3","system_id":"levelo_inurba_marseille","lat":43.28415,"lon":5.34979,"is_reserved":false,"is_disabled":false,"rental_uris":{"android":"levelo://app?vid=d21733e5-1564-4c3d-8657-463d1eaf61b3","ios":"levelo://app?vid=d21733e5-1564-4c3d-8657-463d1eaf61b3"},"vehicle_type_id":"4","last_reported":1744380608,"current_range_meters":13600,"station_id":"ce4bhbh2rcd13ifvqepg","pricing_plan_id":"cebpf4jnsgd1na2vs0mg"},{"bike_id":"f1849247-1a3b-4eef-b251-a7a4f51ab6d4","system_id":"levelo_inurba_marseille","lat":43.2293,"lon":5.35382,"is_reserved":false,"is_disabled":false,"rental_uris":{"android":"levelo://app?vid=f1849247-1a3b-4eef-b251-a7a4f51ab6d4","ios":"levelo://app?vid=f1849247-1a3b-4eef-b251-a7a4f51ab6d4"},"vehicle_type_id":"4","last_reported":1744380608,"current_range_meters":13600,"station_id":"cpo3532slgdg3j2ikp40","pricing_plan_id":"cebpf4jnsgd1na2vs0mg"},{"bike_id":"ac532118-00fc-42c0-8852-dd3477f92d70","system_id":"levelo_inurba_marseille","lat":43.29895,"lon":5.3972,"is_reserved":false,"is_disabled":false,"rental_uris":{"android":"levelo://app?vid=ac532118-00fc-42c0-8852-dd3477f92d70","ios":"levelo://app?vid=ac532118-00fc-42c0-8852-dd3477f92d70"},"vehicle_type_id":"4","last_reported":1744380608,"current_range_meters":13600,"station_id":"ce4bh0h2rcd13ifvqd50","pricing_plan_id":"cebpf4jnsgd1na2vs0mg"},{"bike_id":"12f552fb-128b-4f39-a171-4a4db7cfeac8","system_id":"levelo_inurba_marseille","lat":43.28423,"lon":5.34987,"is_reserved":false,"is_disabled":false,"rental_uris":{"android":"levelo://app?vid=12f552fb-128b-4f39-a171-4a4db7cfeac8","ios":"levelo://app?vid=12f552fb-128b-4f39-a171-4a4db7cfeac8"},"vehicle_type_id":"4","last_reported":1744380608,"current_range_meters":14000,"station_id":"ce4bhbh2rcd13ifvqepg","pricing_plan_id":"cebpf4jnsgd1na2vs0mg"},{"bike_id":"7ecb8ede-57ca-44aa-8298-85b1b4a01d10","system_id":"levelo_inurba_marseille","lat":43.25118,"lon":5.40317,"is_reserved":false,"is_disabled":false,"rental_uris":{"android":"levelo://app?vid=7ecb8ede-57ca-44aa-8298-85b1b4a01d10","ios":"levelo://app?vid=7ecb8ede-57ca-44aa-8298-85b1b4a01d10"},"vehicle_type_id":"4","last_reported":1744380608,"current_range_meters":14000,"station_id":"ce4bhlh2rcd13ifvqgig","pricing_plan_id":"cebpf4jnsgd1na2vs0mg"},{"bike_id":"6eb8c57a-4190-4f8d-86a1-123baf9063f7","system_id":"levelo_inurba_marseille","lat":43.30533,"lon":5.36545,"is_reserved":false,"is_disabled":false,"rental_uris":{"android":"levelo://app?vid=6eb8c57a-4190-4f8d-86a1-123baf9063f7","ios":"levelo://app?vid=6eb8c57a-4190-4f8d-86a1-123baf9063f7"},"vehicle_type_id":"4","last_reported":1744380608,"current_range_meters":14000,"station_id":"ce4bgs12rcd13ifvqcag","pricing_plan_id":"cebpf4jnsgd1na2vs0mg"},{"bike_id":"c0aeb0bd-21bb-4d97-baf3-439585b15d5b","system_id":"levelo_inurba_marseille","lat":43.2706,"lon":5.40261,"is_reserved":false,"is_disabled":false,"rental_uris":{"android":"levelo://app?vid=c0aeb0bd-21bb-4d97-baf3-439585b15d5b","ios":"levelo://app?vid=c0aeb0bd-21bb-4d97-baf3-439585b15d5b"},"vehicle_type_id":"4","last_reported":1744380608,"current_range_meters":14000,"station_id":"ce4bhk92rcd13ifvqgc0","pricing_plan_id":"cebpf4jnsgd1na2vs0mg"},{"bike_id":"b62519d7-7117-4af2-8166-db06333a922f","system_id":"levelo_inurba_marseille","lat":43.23145,"lon":5.437,"is_reserved":false,"is_disabled":false,"rental_uris":{"android":"levelo://app?vid=b62519d7-7117-4af2-8166-db06333a922f","ios":"levelo://app?vid=b62519d7-7117-4af2-8166-db06333a922f"},"vehicle_type_id":"4","last_reported":1744380608,"current_range_meters":14000,"station_id":"ce4bhmp2rcd13ifvqgog","pricing_plan_id":"cebpf4jnsgd1na2vs0mg"},{"bike_id":"4bcdcc82-d58d-4172-b626-a8c82408681c","system_id":"levelo_inurba_marseille","lat":43.31279,"lon":5.36816,"is_reserved":false,"is_disabled":true,"rental_uris":{"android":"levelo://app?vid=4bcdcc82-d58d-4172-b626-a8c82408681c","ios":"levelo://app?vid=4bcdcc82-d58d-4172-b626-a8c82408681c"},"vehicle_type_id":"4","last_reported":1744380608,"current_range_meters":14000,"station_id":"ce4bgl92rcd13ifvqbq0","pricing_plan_id":"cebpf4jnsgd1na2vs0mg"},{"bike_id":"0a12228f-61f9-48c1-9f2f-bd8159dce7a6","system_id":"levelo_inurba_marseille","lat":43.261906,"lon":5.374587,"is_reserved":false,"is_disabled":true,"rental_uris":{"android":"levelo://app?vid=0a12228f-61f9-48c1-9f2f-bd8159dce7a6","ios":"levelo://app?vid=0a12228f-61f9-48c1-9f2f-bd8159dce7a6"},"vehicle_type_id":"4","last_reported":1744380608,"current_range_meters":14000,"station_id":"ce4bhgp2rcd13ifvqfc0","pricing_plan_id":"cebpf4jnsgd1na2vs0mg"},{"bike_id":"2173382d-7037-49a9-b3cc-f23221ddf79f","system_id":"levelo_inurba_marseille","lat":43.29567,"lon":5.39989,"is_reserved":false,"is_disabled":false,"rental_uris":{"android":"levelo://app?vid=2173382d-7037-49a9-b3cc-f23221ddf79f","ios":"levelo://app?vid=2173382d-7037-49a9-b3cc-f23221ddf79f"},"vehicle_type_id":"4","last_reported":1744380608,"current_range_meters":13600,"station_id":"ce4bh312rcd13ifvqdj0","pricing_plan_id":"cebpf4jnsgd1na2vs0mg"},{"bike_id":"1c47a80f-2272-49e9-a134-3d35aeb9bc29","system_id":"levelo_inurba_marseille","lat":43.29035,"lon":5.3592,"is_reserved":false,"is_disabled":false,"rental_uris":{"android":"levelo://app?vid=1c47a80f-2272-49e9-a134-3d35aeb9bc29","ios":"levelo://app?vid=1c47a80f-2272-49e9-a134-3d35aeb9bc29"},"vehicle_type_id":"4","last_reported":1744380608,"current_range_meters":13600,"station_id":"ce4bha92rcd13ifvqeg0","pricing_plan_id":"cebpf4jnsgd1na2vs0mg"},{"bike_id":"336fb0b4-f3a0-4822-8065-35bc4a771146","system_id":"levelo_inurba_marseille","lat":43.31353,"lon":5.36711,"is_reserved":false,"is_disabled":false,"rental_uris":{"android":"levelo://app?vid=336fb0b4-f3a0-4822-8065-35bc4a771146","ios":"levelo://app?vid=336fb0b4-f3a0-4822-8065-35bc4a771146"},"vehicle_type_id":"4","last_reported":1744380608,"current_range_meters":14000,"station_id":"ce4bgr92rcd13ifvqc6g","pricing_plan_id":"cebpf4jnsgd1na2vs0mg"},{"bike_id":"ff0b55ea-e91a-4463-b559-3674a7113dfe","system_id":"levelo_inurba_marseille","lat":43.2319,"lon":5.35551,"is_reserved":false,"is_disabled":false,"rental_uris":{"android":"levelo://app?vid=ff0b55ea-e91a-4463-b559-3674a7113dfe","ios":"levelo://app?vid=ff0b55ea-e91a-4463-b559-3674a7113dfe"},"vehicle_type_id":"4","last_reported":1744380608,"current_range_meters":14000,"station_id":"ce4bhu92rcd13ifvqi70","pricing_plan_id":"cebpf4jnsgd1na2vs0mg"},{"bike_id":"17e08284-d806-4d99-aee8-fc07921dc7b1","system_id":"levelo_inurba_marseille","lat":43.27799,"lon":5.40718,"is_reserved":false,"is_disabled":false,"rental_uris":{"android":"levelo://app?vid=17e08284-d806-4d99-aee8-fc07921dc7b1","ios":"levelo://app?vid=17e08284-d806-4d99-aee8-fc07921dc7b1"},"vehicle_type_id":"4","last_reported":1744380608,"current_range_meters":14000,"station_id":"ce4bhnh2rcd13ifvqgtg","pricing_plan_id":"cebpf4jnsgd1na2vs0mg"},{"bike_id":"333f22dd-3faa-4bf8-a785-fa4ad6373083","system_id":"levelo_inurba_marseille","lat":43.26804,"lon":5.40272,"is_reserved":false,"is_disabled":false,"rental_uris":{"android":"levelo://app?vid=333f22dd-3faa-4bf8-a785-fa4ad6373083","ios":"levelo://app?vid=333f22dd-3faa-4bf8-a785-fa4ad6373083"},"vehicle_type_id":"4","last_reported":1744380608,"current_range_meters":14000,"station_id":"ce501612rcd8frsf0b60","pricing_plan_id":"cebpf4jnsgd1na2vs0mg"},{"bike_id":"8d2b44e5-e477-4f93-b1b4-1e420f38c25f","system_id":"levelo_inurba_marseille","lat":43.29726,"lon":5.37701,"is_reserved":false,"is_disabled":false,"rental_uris":{"android":"levelo://app?vid=8d2b44e5-e477-4f93-b1b4-1e420f38c25f","ios":"levelo://app?vid=8d2b44e5-e477-4f93-b1b4-1e420f38c25f"},"vehicle_type_id":"4","last_reported":1744380608,"current_range_meters":14400,"station_id":"ce4bgkh2rcd13ifvqbl0","pricing_plan_id":"cebpf4jnsgd1na2vs0mg"},{"bike_id":"157e03a9-539c-436f-b693-c96e4059c581","system_id":"levelo_inurba_marseille","lat":43.273263,"lon":5.390772,"is_reserved":false,"is_disabled":false,"rental_uris":{"android":"levelo://app?vid=157e03a9-539c-436f-b693-c96e4059c581","ios":"levelo://app?vid=157e03a9-539c-436f-b693-c96e4059c581"},"vehicle_type_id":"4","last_reported":1744380608,"current_range_meters":14400,"station_id":"ce4bh612rcd13ifvqe6g","pricing_plan_id":"cebpf4jnsgd1na2vs0mg"},{"bike_id":"2ba24ca1-f9ca-431f-9eba-b0e65972a4cc","system_id":"levelo_inurba_marseille","lat":43.26936,"lon":5.38916,"is_reserved":false,"is_disabled":false,"rental_uris":{"android":"levelo://app?vid=2ba24ca1-f9ca-431f-9eba-b0e65972a4cc","ios":"levelo://app?vid=2ba24ca1-f9ca-431f-9eba-b0e65972a4cc"},"vehicle_type_id":"4","last_reported":1744380608,"current_range_meters":14400,"station_id":"ce4bhhh2rcd13ifvqfl0","pricing_plan_id":"cebpf4jnsgd1na2vs0mg"},{"bike_id":"49e369fd-bd5e-45a8-905d-be22af6ac7b2","system_id":"levelo_inurba_marseille","lat":43.2792,"lon":5.39576,"is_reserved":false,"is_disabled":false,"rental_uris":{"android":"levelo://app?vid=49e369fd-bd5e-45a8-905d-be22af6ac7b2","ios":"levelo://app?vid=49e369fd-bd5e-45a8-905d-be22af6ac7b2"},"vehicle_type_id":"4","last_reported":1744380608,"current_range_meters":14400,"station_id":"ce4bhf92rcd13ifvqf40","pricing_plan_id":"cebpf4jnsgd1na2vs0mg"},{"bike_id":"0ddf776c-d331-4742-a390-e261c54b7ae1","system_id":"levelo_inurba_marseille","lat":43.21203,"lon":5.35087,"is_reserved":false,"is_disabled":false,"rental_uris":{"android":"levelo://app?vid=0ddf776c-d331-4742-a390-e261c54b7ae1","ios":"levelo://app?vid=0ddf776c-d331-4742-a390-e261c54b7ae1"},"vehicle_type_id":"4","last_reported":1744380608,"current_range_meters":14400,"station_id":"st_cvj6sg6p6f1abm77japg","pricing_plan_id":"cebpf4jnsgd1na2vs0mg"},{"bike_id":"82721a69-878a-4c46-8e9c-5c0e58676582","system_id":"levelo_inurba_marseille","lat":43.27364,"lon":5.36253,"is_reserved":false,"is_disabled":false,"rental_uris":{"android":"levelo://app?vid=82721a69-878a-4c46-8e9c-5c0e58676582","ios":"levelo://app?vid=82721a69-878a-4c46-8e9c-5c0e58676582"},"vehicle_type_id":"4","last_reported":1744380608,"current_range_meters":14400,"station_id":"ce4bhbh2rcd13ifvqeo0","pricing_plan_id":"cebpf4jnsgd1na2vs0mg"},{"bike_id":"8b472f0a-6559-49dd-8c2b-b6489fd6da8d","system_id":"levelo_inurba_marseille","lat":43.23966,"lon":5.36635,"is_reserved":false,"is_disabled":false,"rental_uris":{"android":"levelo://app?vid=8b472f0a-6559-49dd-8c2b-b6489fd6da8d","ios":"levelo://app?vid=8b472f0a-6559-49dd-8c2b-b6489fd6da8d"},"vehicle_type_id":"4","last_reported":1744380608,"current_range_meters":14400,"station_id":"ce4bhi12rcd13ifvqfp0","pricing_plan_id":"cebpf4jnsgd1na2vs0mg"},{"bike_id":"86e33131-e12e-4cbb-b0ce-4c18f7aa006e","system_id":"levelo_inurba_marseille","lat":43.23153,"lon":5.43705,"is_reserved":false,"is_disabled":false,"rental_uris":{"android":"levelo://app?vid=86e33131-e12e-4cbb-b0ce-4c18f7aa006e","ios":"levelo://app?vid=86e33131-e12e-4cbb-b0ce-4c18f7aa006e"},"vehicle_type_id":"4","last_reported":1744380608,"current_range_meters":14800,"station_id":"ce4bhmp2rcd13ifvqgog","pricing_plan_id":"cebpf4jnsgd1na2vs0mg"},{"bike_id":"4c893399-b4ed-40ed-a49f-713da320f269","system_id":"levelo_inurba_marseille","lat":43.29861,"lon":5.37841,"is_reserved":false,"is_disabled":false,"rental_uris":{"android":"levelo://app?vid=4c893399-b4ed-40ed-a49f-713da320f269","ios":"levelo://app?vid=4c893399-b4ed-40ed-a49f-713da320f269"},"vehicle_type_id":"4","last_reported":1744380608,"current_range_meters":14800,"station_id":"","pricing_plan_id":"cebpf4jnsgd1na2vs0mg"},{"bike_id":"8c58f2fa-99e1-41f8-bf90-9c1648b679b1","system_id":"levelo_inurba_marseille","lat":43.27314,"lon":5.41456,"is_reserved":false,"is_disabled":false,"rental_uris":{"android":"levelo://app?vid=8c58f2fa-99e1-41f8-bf90-9c1648b679b1","ios":"levelo://app?vid=8c58f2fa-99e1-41f8-bf90-9c1648b679b1"},"vehicle_type_id":"4","last_reported":1744380608,"current_range_meters":14800,"station_id":"","pricing_plan_id":"cebpf4jnsgd1na2vs0mg"},{"bike_id":"567c07a9-7437-4cc2-ae82-4411a10d7058","system_id":"levelo_inurba_marseille","lat":43.2842,"lon":5.34976,"is_reserved":false,"is_disabled":false,"rental_uris":{"android":"levelo://app?vid=567c07a9-7437-4cc2-ae82-4411a10d7058","ios":"levelo://app?vid=567c07a9-7437-4cc2-ae82-4411a10d7058"},"vehicle_type_id":"4","last_reported":1744380608,"current_range_meters":14800,"station_id":"ce4bhbh2rcd13ifvqepg","pricing_plan_id":"cebpf4jnsgd1na2vs0mg"},{"bike_id":"86d4db1c-d8de-4427-ba60-958b85ae1888","system_id":"levelo_inurba_marseille","lat":43.305335,"lon":5.38422,"is_reserved":false,"is_disabled":false,"rental_uris":{"android":"levelo://app?vid=86d4db1c-d8de-4427-ba60-958b85ae1888","ios":"levelo://app?vid=86d4db1c-d8de-4427-ba60-958b85ae1888"},"vehicle_type_id":"4","last_reported":1744380608,"current_range_meters":15200,"station_id":"ce4bgg92rcd13ifvqb30","pricing_plan_id":"cebpf4jnsgd1na2vs0mg"},{"bike_id":"53768e2b-e6d0-4d86-9252-ba3fff2b95c5","system_id":"levelo_inurba_marseille","lat":43.25495,"lon":5.37646,"is_reserved":false,"is_disabled":false,"rental_uris":{"android":"levelo://app?vid=53768e2b-e6d0-4d86-9252-ba3fff2b95c5","ios":"levelo://app?vid=53768e2b-e6d0-4d86-9252-ba3fff2b95c5"},"vehicle_type_id":"4","last_reported":1744380608,"current_range_meters":15200,"station_id":"ce4bhh12rcd13ifvqff0","pricing_plan_id":"cebpf4jnsgd1na2vs0mg"},{"bike_id":"ef291804-1477-432e-b153-82ea15725418","system_id":"levelo_inurba_marseille","lat":43.33742,"lon":5.37454,"is_reserved":false,"is_disabled":false,"rental_uris":{"android":"levelo://app?vid=ef291804-1477-432e-b153-82ea15725418","ios":"levelo://app?vid=ef291804-1477-432e-b153-82ea15725418"},"vehicle_type_id":"4","last_reported":1744380608,"current_range_meters":15200,"station_id":"","pricing_plan_id":"cebpf4jnsgd1na2vs0mg"},{"bike_id":"75ebdc33-9755-4ce3-9077-566a0a025e0d","system_id":"levelo_inurba_marseille","lat":43.28414,"lon":5.34981,"is_reserved":false,"is_disabled":false,"rental_uris":{"android":"levelo://app?vid=75ebdc33-9755-4ce3-9077-566a0a025e0d","ios":"levelo://app?vid=75ebdc33-9755-4ce3-9077-566a0a025e0d"},"vehicle_type_id":"4","last_reported":1744380608,"current_range_meters":15200,"station_id":"ce4bhbh2rcd13ifvqepg","pricing_plan_id":"cebpf4jnsgd1na2vs0mg"},{"bike_id":"4651fc10-fe57-460e-89c6-9ba891098581","system_id":"levelo_inurba_marseille","lat":43.24167,"lon":5.36396,"is_reserved":false,"is_disabled":false,"rental_uris":{"android":"levelo://app?vid=4651fc10-fe57-460e-89c6-9ba891098581","ios":"levelo://app?vid=4651fc10-fe57-460e-89c6-9ba891098581"},"vehicle_type_id":"4","last_reported":1744380608,"current_range_meters":15200,"station_id":"cpo36qri1sfpv3e86is0","pricing_plan_id":"cebpf4jnsgd1na2vs0mg"},{"bike_id":"5e5d5919-e11c-45c7-98c5-dab1eab23575","system_id":"levelo_inurba_marseille","lat":43.2418,"lon":5.39729,"is_reserved":false,"is_disabled":false,"rental_uris":{"android":"levelo://app?vid=5e5d5919-e11c-45c7-98c5-dab1eab23575","ios":"levelo://app?vid=5e5d5919-e11c-45c7-98c5-dab1eab23575"},"vehicle_type_id":"4","last_reported":1744380608,"current_range_meters":15200,"station_id":"ce4bhn12rcd13ifvqgpg","pricing_plan_id":"cebpf4jnsgd1na2vs0mg"},{"bike_id":"8f364d93-dbca-4091-94b6-18d3a6920020","system_id":"levelo_inurba_marseille","lat":43.21171,"lon":5.35064,"is_reserved":false,"is_disabled":false,"rental_uris":{"android":"levelo://app?vid=8f364d93-dbca-4091-94b6-18d3a6920020","ios":"levelo://app?vid=8f364d93-dbca-4091-94b6-18d3a6920020"},"vehicle_type_id":"4","last_reported":1744380608,"current_range_meters":15200,"station_id":"st_cvj6sg6p6f1abm77japg","pricing_plan_id":"cebpf4jnsgd1na2vs0mg"},{"bike_id":"1df01e73-52bd-4dc2-abc2-415d8dcc1072","system_id":"levelo_inurba_marseille","lat":43.2315,"lon":5.43703,"is_reserved":false,"is_disabled":false,"rental_uris":{"android":"levelo://app?vid=1df01e73-52bd-4dc2-abc2-415d8dcc1072","ios":"levelo://app?vid=1df01e73-52bd-4dc2-abc2-415d8dcc1072"},"vehicle_type_id":"4","last_reported":1744380608,"current_range_meters":16000,"station_id":"ce4bhmp2rcd13ifvqgog","pricing_plan_id":"cebpf4jnsgd1na2vs0mg"},{"bike_id":"9a42562a-9aa0-456b-a04f-6d1eb00eb553","system_id":"levelo_inurba_marseille","lat":43.26554,"lon":5.37299,"is_reserved":false,"is_disabled":false,"rental_uris":{"android":"levelo://app?vid=9a42562a-9aa0-456b-a04f-6d1eb00eb553","ios":"levelo://app?vid=9a42562a-9aa0-456b-a04f-6d1eb00eb553"},"vehicle_type_id":"4","last_reported":1744380608,"current_range_meters":16000,"station_id":"ce4bhg12rcd13ifvqf70","pricing_plan_id":"cebpf4jnsgd1na2vs0mg"},{"bike_id":"b20e9125-3e45-4b30-b69f-b35eb9cdbfd7","system_id":"levelo_inurba_marseille","lat":43.2737,"lon":5.36252,"is_reserved":false,"is_disabled":false,"rental_uris":{"android":"levelo://app?vid=b20e9125-3e45-4b30-b69f-b35eb9cdbfd7","ios":"levelo://app?vid=b20e9125-3e45-4b30-b69f-b35eb9cdbfd7"},"vehicle_type_id":"4","last_reported":1744380608,"current_range_meters":16400,"station_id":"ce4bhbh2rcd13ifvqeo0","pricing_plan_id":"cebpf4jnsgd1na2vs0mg"},{"bike_id":"54a7d26a-c5f8-4008-b945-bcc5a036c746","system_id":"levelo_inurba_marseille","lat":43.23318,"lon":5.36161,"is_reserved":false,"is_disabled":false,"rental_uris":{"android":"levelo://app?vid=54a7d26a-c5f8-4008-b945-bcc5a036c746","ios":"levelo://app?vid=54a7d26a-c5f8-4008-b945-bcc5a036c746"},"vehicle_type_id":"4","last_reported":1744380608,"current_range_meters":16400,"station_id":"","pricing_plan_id":"cebpf4jnsgd1na2vs0mg"},{"bike_id":"97e8287f-b06f-4433-9af7-6df48161e74f","system_id":"levelo_inurba_marseille","lat":43.22928,"lon":5.3537,"is_reserved":false,"is_disabled":false,"rental_uris":{"android":"levelo://app?vid=97e8287f-b06f-4433-9af7-6df48161e74f","ios":"levelo://app?vid=97e8287f-b06f-4433-9af7-6df48161e74f"},"vehicle_type_id":"4","last_reported":1744380608,"current_range_meters":16400,"station_id":"","pricing_plan_id":"cebpf4jnsgd1na2vs0mg"},{"bike_id":"7c873a50-0a5c-4ba6-bd01-c190f37d1a81","system_id":"levelo_inurba_marseille","lat":43.28422,"lon":5.34987,"is_reserved":false,"is_disabled":false,"rental_uris":{"android":"levelo://app?vid=7c873a50-0a5c-4ba6-bd01-c190f37d1a81","ios":"levelo://app?vid=7c873a50-0a5c-4ba6-bd01-c190f37d1a81"},"vehicle_type_id":"4","last_reported":1744380608,"current_range_meters":16400,"station_id":"ce4bhbh2rcd13ifvqepg","pricing_plan_id":"cebpf4jnsgd1na2vs0mg"},{"bike_id":"2473096a-dfc1-4573-87fc-a0162a53cb4c","system_id":"levelo_inurba_marseille","lat":43.28616,"lon":5.35112,"is_reserved":false,"is_disabled":false,"rental_uris":{"android":"levelo://app?vid=2473096a-dfc1-4573-87fc-a0162a53cb4c","ios":"levelo://app?vid=2473096a-dfc1-4573-87fc-a0162a53cb4c"},"vehicle_type_id":"4","last_reported":1744380608,"current_range_meters":16400,"station_id":"ce4bhch2rcd13ifvqeug","pricing_plan_id":"cebpf4jnsgd1na2vs0mg"},{"bike_id":"cd2402e0-da5b-4895-8367-71e03effc6ea","system_id":"levelo_inurba_marseille","lat":43.26223,"lon":5.4045,"is_reserved":false,"is_disabled":false,"rental_uris":{"android":"levelo://app?vid=cd2402e0-da5b-4895-8367-71e03effc6ea","ios":"levelo://app?vid=cd2402e0-da5b-4895-8367-71e03effc6ea"},"vehicle_type_id":"4","last_reported":1744380608,"current_range_meters":16400,"station_id":"ce4bhmh2rcd13ifvqgmg","pricing_plan_id":"cebpf4jnsgd1na2vs0mg"},{"bike_id":"f2d51714-6acc-45b0-ad90-03def090f265","system_id":"levelo_inurba_marseille","lat":43.28418,"lon":5.34986,"is_reserved":false,"is_disabled":false,"rental_uris":{"android":"levelo://app?vid=f2d51714-6acc-45b0-ad90-03def090f265","ios":"levelo://app?vid=f2d51714-6acc-45b0-ad90-03def090f265"},"vehicle_type_id":"4","last_reported":1744380608,"current_range_meters":16400,"station_id":"ce4bhbh2rcd13ifvqepg","pricing_plan_id":"cebpf4jnsgd1na2vs0mg"},{"bike_id":"874610fc-3b64-4457-99ae-ce0a442087ea","system_id":"levelo_inurba_marseille","lat":43.24182,"lon":5.39717,"is_reserved":false,"is_disabled":false,"rental_uris":{"android":"levelo://app?vid=874610fc-3b64-4457-99ae-ce0a442087ea","ios":"levelo://app?vid=874610fc-3b64-4457-99ae-ce0a442087ea"},"vehicle_type_id":"4","last_reported":1744380608,"current_range_meters":16800,"station_id":"ce4bhn12rcd13ifvqgpg","pricing_plan_id":"cebpf4jnsgd1na2vs0mg"},{"bike_id":"c40401d5-b7fe-4755-b4f5-3f76908a80c3","system_id":"levelo_inurba_marseille","lat":43.28612,"lon":5.35126,"is_reserved":false,"is_disabled":false,"rental_uris":{"android":"levelo://app?vid=c40401d5-b7fe-4755-b4f5-3f76908a80c3","ios":"levelo://app?vid=c40401d5-b7fe-4755-b4f5-3f76908a80c3"},"vehicle_type_id":"4","last_reported":1744380608,"current_range_meters":16800,"station_id":"ce4bhch2rcd13ifvqeug","pricing_plan_id":"cebpf4jnsgd1na2vs0mg"},{"bike_id":"0a705d57-6e2a-4040-b985-889a4a92f2d0","system_id":"levelo_inurba_marseille","lat":43.31086,"lon":5.42428,"is_reserved":false,"is_disabled":false,"rental_uris":{"android":"levelo://app?vid=0a705d57-6e2a-4040-b985-889a4a92f2d0","ios":"levelo://app?vid=0a705d57-6e2a-4040-b985-889a4a92f2d0"},"vehicle_type_id":"4","last_reported":1744380608,"current_range_meters":16400,"station_id":"ce4bhp92rcd13ifvqhag","pricing_plan_id":"cebpf4jnsgd1na2vs0mg"},{"bike_id":"41fa2fe3-ffb5-4b77-8229-5e58bd811bac","system_id":"levelo_inurba_marseille","lat":43.24184,"lon":5.39703,"is_reserved":false,"is_disabled":false,"rental_uris":{"android":"levelo://app?vid=41fa2fe3-ffb5-4b77-8229-5e58bd811bac","ios":"levelo://app?vid=41fa2fe3-ffb5-4b77-8229-5e58bd811bac"},"vehicle_type_id":"4","last_reported":1744380608,"current_range_meters":16800,"station_id":"ce4bhn12rcd13ifvqgpg","pricing_plan_id":"cebpf4jnsgd1na2vs0mg"},{"bike_id":"5b77a833-8185-45c2-9fe3-07eb40df54ca","system_id":"levelo_inurba_marseille","lat":43.33995,"lon":5.38057,"is_reserved":false,"is_disabled":false,"rental_uris":{"android":"levelo://app?vid=5b77a833-8185-45c2-9fe3-07eb40df54ca","ios":"levelo://app?vid=5b77a833-8185-45c2-9fe3-07eb40df54ca"},"vehicle_type_id":"4","last_reported":1744380608,"current_range_meters":16800,"station_id":"","pricing_plan_id":"cebpf4jnsgd1na2vs0mg"},{"bike_id":"cfa05593-02c0-4361-b7cb-d147d92b27a4","system_id":"levelo_inurba_marseille","lat":43.24165,"lon":5.36392,"is_reserved":false,"is_disabled":false,"rental_uris":{"android":"levelo://app?vid=cfa05593-02c0-4361-b7cb-d147d92b27a4","ios":"levelo://app?vid=cfa05593-02c0-4361-b7cb-d147d92b27a4"},"vehicle_type_id":"4","last_reported":1744380608,"current_range_meters":17200,"station_id":"cpo36qri1sfpv3e86is0","pricing_plan_id":"cebpf4jnsgd1na2vs0mg"},{"bike_id":"19e617bd-e2d8-4b71-ae95-74f27e139f5a","system_id":"levelo_inurba_marseille","lat":43.28428,"lon":5.34991,"is_reserved":false,"is_disabled":false,"rental_uris":{"android":"levelo://app?vid=19e617bd-e2d8-4b71-ae95-74f27e139f5a","ios":"levelo://app?vid=19e617bd-e2d8-4b71-ae95-74f27e139f5a"},"vehicle_type_id":"4","last_reported":1744380608,"current_range_meters":17200,"station_id":"ce4bhbh2rcd13ifvqepg","pricing_plan_id":"cebpf4jnsgd1na2vs0mg"},{"bike_id":"9b368f55-db2f-4e21-a7bd-10f7a24be7df","system_id":"levelo_inurba_marseille","lat":43.244035,"lon":5.37132,"is_reserved":false,"is_disabled":false,"rental_uris":{"android":"levelo://app?vid=9b368f55-db2f-4e21-a7bd-10f7a24be7df","ios":"levelo://app?vid=9b368f55-db2f-4e21-a7bd-10f7a24be7df"},"vehicle_type_id":"4","last_reported":1744380608,"current_range_meters":17200,"station_id":"ce4bhhh2rcd13ifvqfk0","pricing_plan_id":"cebpf4jnsgd1na2vs0mg"},{"bike_id":"d93bdb3e-af5a-4430-bc8b-0ff82341365e","system_id":"levelo_inurba_marseille","lat":43.24176,"lon":5.39714,"is_reserved":false,"is_disabled":false,"rental_uris":{"android":"levelo://app?vid=d93bdb3e-af5a-4430-bc8b-0ff82341365e","ios":"levelo://app?vid=d93bdb3e-af5a-4430-bc8b-0ff82341365e"},"vehicle_type_id":"4","last_reported":1744380608,"current_range_meters":17200,"station_id":"ce4bhn12rcd13ifvqgpg","pricing_plan_id":"cebpf4jnsgd1na2vs0mg"},{"bike_id":"e2060b37-02fe-42ef-9cf8-f521581d8c16","system_id":"levelo_inurba_marseille","lat":43.29861,"lon":5.39733,"is_reserved":false,"is_disabled":false,"rental_uris":{"android":"levelo://app?vid=e2060b37-02fe-42ef-9cf8-f521581d8c16","ios":"levelo://app?vid=e2060b37-02fe-42ef-9cf8-f521581d8c16"},"vehicle_type_id":"4","last_reported":1744380608,"current_range_meters":17200,"station_id":"ce4bh0h2rcd13ifvqd50","pricing_plan_id":"cebpf4jnsgd1na2vs0mg"},{"bike_id":"19771c18-b54e-4de3-8801-70bcff45cc21","system_id":"levelo_inurba_marseille","lat":43.30027,"lon":5.37104,"is_reserved":false,"is_disabled":false,"rental_uris":{"android":"levelo://app?vid=19771c18-b54e-4de3-8801-70bcff45cc21","ios":"levelo://app?vid=19771c18-b54e-4de3-8801-70bcff45cc21"},"vehicle_type_id":"4","last_reported":1744380608,"current_range_meters":17200,"station_id":"ce4bgr92rcd13ifvqc7g","pricing_plan_id":"cebpf4jnsgd1na2vs0mg"},{"bike_id":"4e64ed77-abc9-46d8-8c8f-8eba2f56e1c4","system_id":"levelo_inurba_marseille","lat":43.27617,"lon":5.36105,"is_reserved":false,"is_disabled":false,"rental_uris":{"android":"levelo://app?vid=4e64ed77-abc9-46d8-8c8f-8eba2f56e1c4","ios":"levelo://app?vid=4e64ed77-abc9-46d8-8c8f-8eba2f56e1c4"},"vehicle_type_id":"4","last_reported":1744380608,"current_range_meters":17200,"station_id":"ce4bgj92rcd13ifvqbe0","pricing_plan_id":"cebpf4jnsgd1na2vs0mg"},{"bike_id":"a74a6e1d-e0da-4637-b441-af204803bd68","system_id":"levelo_inurba_marseille","lat":43.308798,"lon":5.396538,"is_reserved":false,"is_disabled":false,"rental_uris":{"android":"levelo://app?vid=a74a6e1d-e0da-4637-b441-af204803bd68","ios":"levelo://app?vid=a74a6e1d-e0da-4637-b441-af204803bd68"},"vehicle_type_id":"4","last_reported":1744380608,"current_range_meters":17200,"station_id":"ce4bh012rcd13ifvqcv0","pricing_plan_id":"cebpf4jnsgd1na2vs0mg"},{"bike_id":"7487f594-dbb8-44c3-aa32-f3036b7ab8fb","system_id":"levelo_inurba_marseille","lat":43.23195,"lon":5.35554,"is_reserved":false,"is_disabled":false,"rental_uris":{"android":"levelo://app?vid=7487f594-dbb8-44c3-aa32-f3036b7ab8fb","ios":"levelo://app?vid=7487f594-dbb8-44c3-aa32-f3036b7ab8fb"},"vehicle_type_id":"4","last_reported":1744380608,"current_range_meters":17200,"station_id":"ce4bhu92rcd13ifvqi70","pricing_plan_id":"cebpf4jnsgd1na2vs0mg"},{"bike_id":"26ee339a-293e-448b-b324-4b3cac53fcf7","system_id":"levelo_inurba_marseille","lat":43.337219,"lon":5.391783,"is_reserved":false,"is_disabled":false,"rental_uris":{"android":"levelo://app?vid=26ee339a-293e-448b-b324-4b3cac53fcf7","ios":"levelo://app?vid=26ee339a-293e-448b-b324-4b3cac53fcf7"},"vehicle_type_id":"4","last_reported":1744380608,"current_range_meters":17200,"station_id":"","pricing_plan_id":"cebpf4jnsgd1na2vs0mg"},{"bike_id":"0e7bf4ae-5aed-4055-a1f8-96debbb9847e","system_id":"levelo_inurba_marseille","lat":43.24169,"lon":5.36396,"is_reserved":false,"is_disabled":false,"rental_uris":{"android":"levelo://app?vid=0e7bf4ae-5aed-4055-a1f8-96debbb9847e","ios":"levelo://app?vid=0e7bf4ae-5aed-4055-a1f8-96debbb9847e"},"vehicle_type_id":"4","last_reported":1744380608,"current_range_meters":17200,"station_id":"cpo36qri1sfpv3e86is0","pricing_plan_id":"cebpf4jnsgd1na2vs0mg"},{"bike_id":"5c7ee8f3-1480-449a-af08-4a7877477d99","system_id":"levelo_inurba_marseille","lat":43.28273,"lon":5.3506,"is_reserved":false,"is_disabled":false,"rental_uris":{"android":"levelo://app?vid=5c7ee8f3-1480-449a-af08-4a7877477d99","ios":"levelo://app?vid=5c7ee8f3-1480-449a-af08-4a7877477d99"},"vehicle_type_id":"4","last_reported":1744380608,"current_range_meters":17200,"station_id":"ce4bhbp2rcd13ifvqerg","pricing_plan_id":"cebpf4jnsgd1na2vs0mg"},{"bike_id":"d6cd84b5-f12f-432d-b160-ac17fdc23d3a","system_id":"levelo_inurba_marseille","lat":43.330248,"lon":5.390423,"is_reserved":false,"is_disabled":false,"rental_uris":{"android":"levelo://app?vid=d6cd84b5-f12f-432d-b160-ac17fdc23d3a","ios":"levelo://app?vid=d6cd84b5-f12f-432d-b160-ac17fdc23d3a"},"vehicle_type_id":"4","last_reported":1744380608,"current_range_meters":17600,"station_id":"ce4bhr92rcd13ifvqhrg","pricing_plan_id":"cebpf4jnsgd1na2vs0mg"},{"bike_id":"b85d084f-84b0-415d-8c64-3f58b4b312e7","system_id":"levelo_inurba_marseille","lat":43.28847,"lon":5.39309,"is_reserved":false,"is_disabled":false,"rental_uris":{"android":"levelo://app?vid=b85d084f-84b0-415d-8c64-3f58b4b312e7","ios":"levelo://app?vid=b85d084f-84b0-415d-8c64-3f58b4b312e7"},"vehicle_type_id":"4","last_reported":1744380608,"current_range_meters":17600,"station_id":"ce4bh2p2rcd13ifvqdi0","pricing_plan_id":"cebpf4jnsgd1na2vs0mg"},{"bike_id":"144703e0-d5f7-41d4-a879-323ec44ca4bc","system_id":"levelo_inurba_marseille","lat":43.21755,"lon":5.34596,"is_reserved":false,"is_disabled":false,"rental_uris":{"android":"levelo://app?vid=144703e0-d5f7-41d4-a879-323ec44ca4bc","ios":"levelo://app?vid=144703e0-d5f7-41d4-a879-323ec44ca4bc"},"vehicle_type_id":"4","last_reported":1744380608,"current_range_meters":17600,"station_id":"st_cvj6r9ubvosntc0bgbag","pricing_plan_id":"cebpf4jnsgd1na2vs0mg"},{"bike_id":"1ce62779-4556-462a-88be-6f22513a8ffa","system_id":"levelo_inurba_marseille","lat":43.24834,"lon":5.37457,"is_reserved":false,"is_disabled":false,"rental_uris":{"android":"levelo://app?vid=1ce62779-4556-462a-88be-6f22513a8ffa","ios":"levelo://app?vid=1ce62779-4556-462a-88be-6f22513a8ffa"},"vehicle_type_id":"4","last_reported":1744380608,"current_range_meters":17600,"station_id":"ce4bhgh2rcd13ifvqfb0","pricing_plan_id":"cebpf4jnsgd1na2vs0mg"},{"bike_id":"7a5c9c76-4e30-46ad-a0c8-64088d059970","system_id":"levelo_inurba_marseille","lat":43.24087,"lon":5.37731,"is_reserved":false,"is_disabled":false,"rental_uris":{"android":"levelo://app?vid=7a5c9c76-4e30-46ad-a0c8-64088d059970","ios":"levelo://app?vid=7a5c9c76-4e30-46ad-a0c8-64088d059970"},"vehicle_type_id":"4","last_reported":1744380608,"current_range_meters":17600,"station_id":"ce4bhnp2rcd13ifvqgvg","pricing_plan_id":"cebpf4jnsgd1na2vs0mg"},{"bike_id":"896d3b5f-ab31-48c8-92dc-50e5bd5335ac","system_id":"levelo_inurba_marseille","lat":43.31754,"lon":5.39005,"is_reserved":false,"is_disabled":false,"rental_uris":{"android":"levelo://app?vid=896d3b5f-ab31-48c8-92dc-50e5bd5335ac","ios":"levelo://app?vid=896d3b5f-ab31-48c8-92dc-50e5bd5335ac"},"vehicle_type_id":"4","last_reported":1744380608,"current_range_meters":17600,"station_id":"ce4bhqp2rcd13ifvqhng","pricing_plan_id":"cebpf4jnsgd1na2vs0mg"},{"bike_id":"adab0148-372e-4fab-980e-7006f1bac408","system_id":"levelo_inurba_marseille","lat":43.27366,"lon":5.36234,"is_reserved":false,"is_disabled":false,"rental_uris":{"android":"levelo://app?vid=adab0148-372e-4fab-980e-7006f1bac408","ios":"levelo://app?vid=adab0148-372e-4fab-980e-7006f1bac408"},"vehicle_type_id":"4","last_reported":1744380608,"current_range_meters":17600,"station_id":"ce4bhbh2rcd13ifvqeo0","pricing_plan_id":"cebpf4jnsgd1na2vs0mg"},{"bike_id":"ea747d2a-66d8-4c91-9ba9-e534c94b4922","system_id":"levelo_inurba_marseille","lat":43.22922,"lon":5.35393,"is_reserved":false,"is_disabled":false,"rental_uris":{"android":"levelo://app?vid=ea747d2a-66d8-4c91-9ba9-e534c94b4922","ios":"levelo://app?vid=ea747d2a-66d8-4c91-9ba9-e534c94b4922"},"vehicle_type_id":"4","last_reported":1744380608,"current_range_meters":17600,"station_id":"cpo3532slgdg3j2ikp40","pricing_plan_id":"cebpf4jnsgd1na2vs0mg"},{"bike_id":"24a9e029-7fba-4ad3-a777-d5a943d854f0","system_id":"levelo_inurba_marseille","lat":43.31277,"lon":5.40169,"is_reserved":false,"is_disabled":false,"rental_uris":{"android":"levelo://app?vid=24a9e029-7fba-4ad3-a777-d5a943d854f0","ios":"levelo://app?vid=24a9e029-7fba-4ad3-a777-d5a943d854f0"},"vehicle_type_id":"4","last_reported":1744380608,"current_range_meters":17200,"station_id":"ce4bh092rcd13ifvqd30","pricing_plan_id":"cebpf4jnsgd1na2vs0mg"},{"bike_id":"fb704913-be76-429a-9a70-55ed5c6cc2a7","system_id":"levelo_inurba_marseille","lat":43.30529,"lon":5.36706,"is_reserved":false,"is_disabled":false,"rental_uris":{"android":"levelo://app?vid=fb704913-be76-429a-9a70-55ed5c6cc2a7","ios":"levelo://app?vid=fb704913-be76-429a-9a70-55ed5c6cc2a7"},"vehicle_type_id":"4","last_reported":1744380608,"current_range_meters":17600,"station_id":"ce4bgrp2rcd13ifvqc9g","pricing_plan_id":"cebpf4jnsgd1na2vs0mg"},{"bike_id":"5ba68d68-988d-4e0d-82b5-6e5c047bd70c","system_id":"levelo_inurba_marseille","lat":43.22929,"lon":5.35377,"is_reserved":false,"is_disabled":false,"rental_uris":{"android":"levelo://app?vid=5ba68d68-988d-4e0d-82b5-6e5c047bd70c","ios":"levelo://app?vid=5ba68d68-988d-4e0d-82b5-6e5c047bd70c"},"vehicle_type_id":"4","last_reported":1744380608,"current_range_meters":18000,"station_id":"cpo3532slgdg3j2ikp40","pricing_plan_id":"cebpf4jnsgd1na2vs0mg"},{"bike_id":"f02aeb64-6231-4974-9e6f-f484f78fc20e","system_id":"levelo_inurba_marseille","lat":43.23151,"lon":5.43717,"is_reserved":false,"is_disabled":false,"rental_uris":{"android":"levelo://app?vid=f02aeb64-6231-4974-9e6f-f484f78fc20e","ios":"levelo://app?vid=f02aeb64-6231-4974-9e6f-f484f78fc20e"},"vehicle_type_id":"4","last_reported":1744380608,"current_range_meters":18000,"station_id":"ce4bhmp2rcd13ifvqgog","pricing_plan_id":"cebpf4jnsgd1na2vs0mg"},{"bike_id":"1518266c-bc0c-4dc5-92e2-32256cc663dd","system_id":"levelo_inurba_marseille","lat":43.28418,"lon":5.34976,"is_reserved":false,"is_disabled":false,"rental_uris":{"android":"levelo://app?vid=1518266c-bc0c-4dc5-92e2-32256cc663dd","ios":"levelo://app?vid=1518266c-bc0c-4dc5-92e2-32256cc663dd"},"vehicle_type_id":"4","last_reported":1744380608,"current_range_meters":18000,"station_id":"ce4bhbh2rcd13ifvqepg","pricing_plan_id":"cebpf4jnsgd1na2vs0mg"},{"bike_id":"f1e49367-a59b-4449-af7b-73cc2e390561","system_id":"levelo_inurba_marseille","lat":43.26554,"lon":5.37284,"is_reserved":false,"is_disabled":false,"rental_uris":{"android":"levelo://app?vid=f1e49367-a59b-4449-af7b-73cc2e390561","ios":"levelo://app?vid=f1e49367-a59b-4449-af7b-73cc2e390561"},"vehicle_type_id":"4","last_reported":1744380608,"current_range_meters":18000,"station_id":"ce4bhg12rcd13ifvqf70","pricing_plan_id":"cebpf4jnsgd1na2vs0mg"},{"bike_id":"90cddebc-2506-42ee-9df1-36a6154dff75","system_id":"levelo_inurba_marseille","lat":43.24161,"lon":5.36385,"is_reserved":false,"is_disabled":false,"rental_uris":{"android":"levelo://app?vid=90cddebc-2506-42ee-9df1-36a6154dff75","ios":"levelo://app?vid=90cddebc-2506-42ee-9df1-36a6154dff75"},"vehicle_type_id":"4","last_reported":1744380608,"current_range_meters":18000,"station_id":"cpo36qri1sfpv3e86is0","pricing_plan_id":"cebpf4jnsgd1na2vs0mg"},{"bike_id":"6da7ed18-5a5f-467e-8b00-c46a534110a8","system_id":"levelo_inurba_marseille","lat":43.29895,"lon":5.43662,"is_reserved":false,"is_disabled":false,"rental_uris":{"android":"levelo://app?vid=6da7ed18-5a5f-467e-8b00-c46a534110a8","ios":"levelo://app?vid=6da7ed18-5a5f-467e-8b00-c46a534110a8"},"vehicle_type_id":"4","last_reported":1744380608,"current_range_meters":18800,"station_id":"ce4bhpp2rcd13ifvqhfg","pricing_plan_id":"cebpf4jnsgd1na2vs0mg"},{"bike_id":"eb489c2e-1675-434f-bbfa-6a9ed74fea49","system_id":"levelo_inurba_marseille","lat":43.21189,"lon":5.35078,"is_reserved":false,"is_disabled":false,"rental_uris":{"android":"levelo://app?vid=eb489c2e-1675-434f-bbfa-6a9ed74fea49","ios":"levelo://app?vid=eb489c2e-1675-434f-bbfa-6a9ed74fea49"},"vehicle_type_id":"4","last_reported":1744380608,"current_range_meters":18800,"station_id":"st_cvj6sg6p6f1abm77japg","pricing_plan_id":"cebpf4jnsgd1na2vs0mg"},{"bike_id":"04161492-be6a-48b0-8cd5-6292f041e628","system_id":"levelo_inurba_marseille","lat":43.29,"lon":5.35606,"is_reserved":false,"is_disabled":false,"rental_uris":{"android":"levelo://app?vid=04161492-be6a-48b0-8cd5-6292f041e628","ios":"levelo://app?vid=04161492-be6a-48b0-8cd5-6292f041e628"},"vehicle_type_id":"4","last_reported":1744380608,"current_range_meters":18800,"station_id":"ce4bhb92rcd13ifvqen0","pricing_plan_id":"cebpf4jnsgd1na2vs0mg"},{"bike_id":"663b2732-4e40-469c-b29d-1168df3c33a7","system_id":"levelo_inurba_marseille","lat":43.30888,"lon":5.3685,"is_reserved":false,"is_disabled":false,"rental_uris":{"android":"levelo://app?vid=663b2732-4e40-469c-b29d-1168df3c33a7","ios":"levelo://app?vid=663b2732-4e40-469c-b29d-1168df3c33a7"},"vehicle_type_id":"4","last_reported":1744380608,"current_range_meters":18800,"station_id":"ce4bgn92rcd13ifvqbvg","pricing_plan_id":"cebpf4jnsgd1na2vs0mg"},{"bike_id":"35731db3-6912-402e-a623-b72e3ccb4de5","system_id":"levelo_inurba_marseille","lat":43.231469,"lon":5.437011,"is_reserved":false,"is_disabled":false,"rental_uris":{"android":"levelo://app?vid=35731db3-6912-402e-a623-b72e3ccb4de5","ios":"levelo://app?vid=35731db3-6912-402e-a623-b72e3ccb4de5"},"vehicle_type_id":"4","last_reported":1744380608,"current_range_meters":18800,"station_id":"ce4bhmp2rcd13ifvqgog","pricing_plan_id":"cebpf4jnsgd1na2vs0mg"},{"bike_id":"e81554da-06e5-4c94-8ab5-d3dcaf491438","system_id":"levelo_inurba_marseille","lat":43.28621,"lon":5.35102,"is_reserved":false,"is_disabled":false,"rental_uris":{"android":"levelo://app?vid=e81554da-06e5-4c94-8ab5-d3dcaf491438","ios":"levelo://app?vid=e81554da-06e5-4c94-8ab5-d3dcaf491438"},"vehicle_type_id":"4","last_reported":1744380608,"current_range_meters":19200,"station_id":"ce4bhch2rcd13ifvqeug","pricing_plan_id":"cebpf4jnsgd1na2vs0mg"},{"bike_id":"e7d64116-368f-421d-902b-041b68f32a12","system_id":"levelo_inurba_marseille","lat":43.30541,"lon":5.36534,"is_reserved":false,"is_disabled":false,"rental_uris":{"android":"levelo://app?vid=e7d64116-368f-421d-902b-041b68f32a12","ios":"levelo://app?vid=e7d64116-368f-421d-902b-041b68f32a12"},"vehicle_type_id":"4","last_reported":1744380608,"current_range_meters":19200,"station_id":"ce4bgs12rcd13ifvqcag","pricing_plan_id":"cebpf4jnsgd1na2vs0mg"},{"bike_id":"50bf9c4a-f35d-4e3f-ad1b-796255af073e","system_id":"levelo_inurba_marseille","lat":43.25578,"lon":5.38242,"is_reserved":false,"is_disabled":false,"rental_uris":{"android":"levelo://app?vid=50bf9c4a-f35d-4e3f-ad1b-796255af073e","ios":"levelo://app?vid=50bf9c4a-f35d-4e3f-ad1b-796255af073e"},"vehicle_type_id":"4","last_reported":1744380608,"current_range_meters":19200,"station_id":"ce4bhih2rcd13ifvqfs0","pricing_plan_id":"cebpf4jnsgd1na2vs0mg"},{"bike_id":"09d50c81-f26e-4c08-aeac-36467bd84e9b","system_id":"levelo_inurba_marseille","lat":43.28095,"lon":5.39651,"is_reserved":false,"is_disabled":false,"rental_uris":{"android":"levelo://app?vid=09d50c81-f26e-4c08-aeac-36467bd84e9b","ios":"levelo://app?vid=09d50c81-f26e-4c08-aeac-36467bd84e9b"},"vehicle_type_id":"4","last_reported":1744380608,"current_range_meters":19200,"station_id":"ce4bho12rcd13ifvqh2g","pricing_plan_id":"cebpf4jnsgd1na2vs0mg"},{"bike_id":"2b5dbe3b-2045-4105-805d-86a6480af840","system_id":"levelo_inurba_marseille","lat":43.3054,"lon":5.365488,"is_reserved":false,"is_disabled":false,"rental_uris":{"android":"levelo://app?vid=2b5dbe3b-2045-4105-805d-86a6480af840","ios":"levelo://app?vid=2b5dbe3b-2045-4105-805d-86a6480af840"},"vehicle_type_id":"4","last_reported":1744380608,"current_range_meters":20400,"station_id":"ce4bh192rcd13ifvqdd0","pricing_plan_id":"cebpf4jnsgd1na2vs0mg"},{"bike_id":"f46a49ca-1b9d-47bc-aed6-4fa281bfffb1","system_id":"levelo_inurba_marseille","lat":43.30502,"lon":5.36512,"is_reserved":false,"is_disabled":false,"rental_uris":{"android":"levelo://app?vid=f46a49ca-1b9d-47bc-aed6-4fa281bfffb1","ios":"levelo://app?vid=f46a49ca-1b9d-47bc-aed6-4fa281bfffb1"},"vehicle_type_id":"4","last_reported":1744380608,"current_range_meters":19200,"station_id":"ce4bgs12rcd13ifvqcag","pricing_plan_id":"cebpf4jnsgd1na2vs0mg"},{"bike_id":"c3821a9c-7588-4931-a42d-ffb6971fd988","system_id":"levelo_inurba_marseille","lat":43.28606,"lon":5.37074,"is_reserved":false,"is_disabled":false,"rental_uris":{"android":"levelo://app?vid=c3821a9c-7588-4931-a42d-ffb6971fd988","ios":"levelo://app?vid=c3821a9c-7588-4931-a42d-ffb6971fd988"},"vehicle_type_id":"4","last_reported":1744380608,"current_range_meters":19600,"station_id":"ce4bht12rcd13ifvqi60","pricing_plan_id":"cebpf4jnsgd1na2vs0mg"},{"bike_id":"2bf50f3a-985e-4acf-8772-29523b343c13","system_id":"levelo_inurba_marseille","lat":43.26052,"lon":5.39393,"is_reserved":false,"is_disabled":false,"rental_uris":{"android":"levelo://app?vid=2bf50f3a-985e-4acf-8772-29523b343c13","ios":"levelo://app?vid=2bf50f3a-985e-4acf-8772-29523b343c13"},"vehicle_type_id":"4","last_reported":1744380608,"current_range_meters":19600,"station_id":"ce4bhh92rcd13ifvqfj0","pricing_plan_id":"cebpf4jnsgd1na2vs0mg"},{"bike_id":"9a5bd8af-68ae-489b-ab8e-d0731e2a8d0c","system_id":"levelo_inurba_marseille","lat":43.28413,"lon":5.34987,"is_reserved":false,"is_disabled":false,"rental_uris":{"android":"levelo://app?vid=9a5bd8af-68ae-489b-ab8e-d0731e2a8d0c","ios":"levelo://app?vid=9a5bd8af-68ae-489b-ab8e-d0731e2a8d0c"},"vehicle_type_id":"4","last_reported":1744380608,"current_range_meters":19600,"station_id":"ce4bhbh2rcd13ifvqepg","pricing_plan_id":"cebpf4jnsgd1na2vs0mg"},{"bike_id":"687d1f01-1733-4932-9ac2-09642a439134","system_id":"levelo_inurba_marseille","lat":43.26768,"lon":5.39417,"is_reserved":false,"is_disabled":false,"rental_uris":{"android":"levelo://app?vid=687d1f01-1733-4932-9ac2-09642a439134","ios":"levelo://app?vid=687d1f01-1733-4932-9ac2-09642a439134"},"vehicle_type_id":"4","last_reported":1744380608,"current_range_meters":19600,"station_id":"ce4bhh12rcd13ifvqfg0","pricing_plan_id":"cebpf4jnsgd1na2vs0mg"},{"bike_id":"3b7d2905-a0de-4953-8cfb-25c8d93cf2ee","system_id":"levelo_inurba_marseille","lat":43.29225,"lon":5.36049,"is_reserved":false,"is_disabled":false,"rental_uris":{"android":"levelo://app?vid=3b7d2905-a0de-4953-8cfb-25c8d93cf2ee","ios":"levelo://app?vid=3b7d2905-a0de-4953-8cfb-25c8d93cf2ee"},"vehicle_type_id":"4","last_reported":1744380608,"current_range_meters":19600,"station_id":"ce4bhbh2rcd13ifvqeqg","pricing_plan_id":"cebpf4jnsgd1na2vs0mg"},{"bike_id":"b4d5d9c3-831b-4cf4-9817-35e6d5e8d990","system_id":"levelo_inurba_marseille","lat":43.23154,"lon":5.43727,"is_reserved":false,"is_disabled":false,"rental_uris":{"android":"levelo://app?vid=b4d5d9c3-831b-4cf4-9817-35e6d5e8d990","ios":"levelo://app?vid=b4d5d9c3-831b-4cf4-9817-35e6d5e8d990"},"vehicle_type_id":"4","last_reported":1744380608,"current_range_meters":20000,"station_id":"ce4bhmp2rcd13ifvqgog","pricing_plan_id":"cebpf4jnsgd1na2vs0mg"},{"bike_id":"04e76b9b-23fd-4113-a7fc-29b6d40f5cb3","system_id":"levelo_inurba_marseille","lat":43.28924,"lon":5.38394,"is_reserved":false,"is_disabled":false,"rental_uris":{"android":"levelo://app?vid=04e76b9b-23fd-4113-a7fc-29b6d40f5cb3","ios":"levelo://app?vid=04e76b9b-23fd-4113-a7fc-29b6d40f5cb3"},"vehicle_type_id":"4","last_reported":1744380608,"current_range_meters":20000,"station_id":"ce4bh612rcd13ifvqe6g","pricing_plan_id":"cebpf4jnsgd1na2vs0mg"},{"bike_id":"a945cbf3-38e6-4aa3-9aa1-d414d6c834b5","system_id":"levelo_inurba_marseille","lat":43.31909,"lon":5.40728,"is_reserved":false,"is_disabled":true,"rental_uris":{"android":"levelo://app?vid=a945cbf3-38e6-4aa3-9aa1-d414d6c834b5","ios":"levelo://app?vid=a945cbf3-38e6-4aa3-9aa1-d414d6c834b5"},"vehicle_type_id":"4","last_reported":1744380608,"current_range_meters":20000,"station_id":"ce4bhq12rcd13ifvqhig","pricing_plan_id":"cebpf4jnsgd1na2vs0mg"},{"bike_id":"a7c58a60-a5c5-4a4e-b362-dc7feaea63d7","system_id":"levelo_inurba_marseille","lat":43.31994,"lon":5.38153,"is_reserved":false,"is_disabled":true,"rental_uris":{"android":"levelo://app?vid=a7c58a60-a5c5-4a4e-b362-dc7feaea63d7","ios":"levelo://app?vid=a7c58a60-a5c5-4a4e-b362-dc7feaea63d7"},"vehicle_type_id":"4","last_reported":1744380608,"current_range_meters":20000,"station_id":"ce4bhr12rcd13ifvqhpg","pricing_plan_id":"cebpf4jnsgd1na2vs0mg"},{"bike_id":"44ea3182-88eb-4a7d-bbc8-aa868967f1bc","system_id":"levelo_inurba_marseille","lat":43.31718,"lon":5.36979,"is_reserved":false,"is_disabled":false,"rental_uris":{"android":"levelo://app?vid=44ea3182-88eb-4a7d-bbc8-aa868967f1bc","ios":"levelo://app?vid=44ea3182-88eb-4a7d-bbc8-aa868967f1bc"},"vehicle_type_id":"4","last_reported":1744380608,"current_range_meters":20000,"station_id":"","pricing_plan_id":"cebpf4jnsgd1na2vs0mg"},{"bike_id":"d1739956-1e6b-466e-b9d4-144f60d3d7cb","system_id":"levelo_inurba_marseille","lat":43.23067,"lon":5.35487,"is_reserved":false,"is_disabled":false,"rental_uris":{"android":"levelo://app?vid=d1739956-1e6b-466e-b9d4-144f60d3d7cb","ios":"levelo://app?vid=d1739956-1e6b-466e-b9d4-144f60d3d7cb"},"vehicle_type_id":"4","last_reported":1744380608,"current_range_meters":20400,"station_id":"cpo3342slgdg3j2ifvpg","pricing_plan_id":"cebpf4jnsgd1na2vs0mg"},{"bike_id":"a6fb9ac6-0321-4123-b718-f7bd24b8337c","system_id":"levelo_inurba_marseille","lat":43.24193,"lon":5.39713,"is_reserved":false,"is_disabled":false,"rental_uris":{"android":"levelo://app?vid=a6fb9ac6-0321-4123-b718-f7bd24b8337c","ios":"levelo://app?vid=a6fb9ac6-0321-4123-b718-f7bd24b8337c"},"vehicle_type_id":"4","last_reported":1744380608,"current_range_meters":20400,"station_id":"ce4bhn12rcd13ifvqgpg","pricing_plan_id":"cebpf4jnsgd1na2vs0mg"},{"bike_id":"a22c83b4-53b8-4d33-a66b-04973e9a2aeb","system_id":"levelo_inurba_marseille","lat":43.273704,"lon":5.362597,"is_reserved":false,"is_disabled":false,"rental_uris":{"android":"levelo://app?vid=a22c83b4-53b8-4d33-a66b-04973e9a2aeb","ios":"levelo://app?vid=a22c83b4-53b8-4d33-a66b-04973e9a2aeb"},"vehicle_type_id":"4","last_reported":1744380608,"current_range_meters":20400,"station_id":"ce4bgj92rcd13ifvqbe0","pricing_plan_id":"cebpf4jnsgd1na2vs0mg"},{"bike_id":"020e9999-d552-48d0-ae5f-b725af0dbea2","system_id":"levelo_inurba_marseille","lat":43.29913,"lon":5.43747,"is_reserved":false,"is_disabled":false,"rental_uris":{"android":"levelo://app?vid=020e9999-d552-48d0-ae5f-b725af0dbea2","ios":"levelo://app?vid=020e9999-d552-48d0-ae5f-b725af0dbea2"},"vehicle_type_id":"4","last_reported":1744380608,"current_range_meters":20400,"station_id":"","pricing_plan_id":"cebpf4jnsgd1na2vs0mg"},{"bike_id":"d58a00a9-6749-4b36-8595-7c37ee228288","system_id":"levelo_inurba_marseille","lat":43.3022,"lon":5.39465,"is_reserved":false,"is_disabled":false,"rental_uris":{"android":"levelo://app?vid=d58a00a9-6749-4b36-8595-7c37ee228288","ios":"levelo://app?vid=d58a00a9-6749-4b36-8595-7c37ee228288"},"vehicle_type_id":"4","last_reported":1744380608,"current_range_meters":20400,"station_id":"ce4bh0p2rcd13ifvqd70","pricing_plan_id":"cebpf4jnsgd1na2vs0mg"},{"bike_id":"d80d0305-e2cf-4bdb-9af9-cafd968c6516","system_id":"levelo_inurba_marseille","lat":43.286191,"lon":5.351016,"is_reserved":false,"is_disabled":false,"rental_uris":{"android":"levelo://app?vid=d80d0305-e2cf-4bdb-9af9-cafd968c6516","ios":"levelo://app?vid=d80d0305-e2cf-4bdb-9af9-cafd968c6516"},"vehicle_type_id":"4","last_reported":1744380608,"current_range_meters":20400,"station_id":"ce4bhch2rcd13ifvqeug","pricing_plan_id":"cebpf4jnsgd1na2vs0mg"},{"bike_id":"395f640a-f908-4277-b1ee-7048a7e48bf0","system_id":"levelo_inurba_marseille","lat":43.2737,"lon":5.36257,"is_reserved":false,"is_disabled":false,"rental_uris":{"android":"levelo://app?vid=395f640a-f908-4277-b1ee-7048a7e48bf0","ios":"levelo://app?vid=395f640a-f908-4277-b1ee-7048a7e48bf0"},"vehicle_type_id":"4","last_reported":1744380608,"current_range_meters":20400,"station_id":"ce4bhbh2rcd13ifvqeo0","pricing_plan_id":"cebpf4jnsgd1na2vs0mg"},{"bike_id":"8392d736-3287-4288-b3c9-391567fc892c","system_id":"levelo_inurba_marseille","lat":43.24067,"lon":5.37758,"is_reserved":false,"is_disabled":false,"rental_uris":{"android":"levelo://app?vid=8392d736-3287-4288-b3c9-391567fc892c","ios":"levelo://app?vid=8392d736-3287-4288-b3c9-391567fc892c"},"vehicle_type_id":"4","last_reported":1744380608,"current_range_meters":20400,"station_id":"ce4bhnp2rcd13ifvqgvg","pricing_plan_id":"cebpf4jnsgd1na2vs0mg"},{"bike_id":"ee8e6ffb-007b-4b7a-9cf4-589551c15038","system_id":"levelo_inurba_marseille","lat":43.28257,"lon":5.35075,"is_reserved":false,"is_disabled":false,"rental_uris":{"android":"levelo://app?vid=ee8e6ffb-007b-4b7a-9cf4-589551c15038","ios":"levelo://app?vid=ee8e6ffb-007b-4b7a-9cf4-589551c15038"},"vehicle_type_id":"4","last_reported":1744380608,"current_range_meters":20800,"station_id":"ce4bhbp2rcd13ifvqerg","pricing_plan_id":"cebpf4jnsgd1na2vs0mg"},