{"last_updated":1768331537,"ttl":60,"version":"2.2","data":{"bikes":[{"bike_id":"f1cd3afb-438d-4490-90cb-59cce0e001eb","system_id":"levelo_inurba_marseille","lat":43.30528,"lon":5.38411,"is_reserved":false,"is_disabled":false,"rental_uris":{"android":"levelo://app?vid=f1cd3afb-438d-4490-90cb-59cce0e001eb","ios":"levelo://app?vid=f1cd3afb-438d-4490-90cb-59cce0e001eb"},"vehicle_type_id":"4","last_reported":1768331537,"current_range_meters":2800,"station_id":"ce4bgg92rcd13ifvqb30","pricing_plan_id":"cebpf4jnsgd1na2vs0mg"},{"bike_id":"3e6e857e-44a4-43cb-b7bd-1bdbecc8bb0c","system_id":"levelo_inurba_marseille","lat":43.3017,"lon":5.37114,"is_reserved":false,"is_disabled":false,"rental_uris":{"android":"levelo://app?vid=3e6e857e-44a4-43cb-b7bd-1bdbecc8bb0c","ios":"levelo://app?vid=3e6e857e-44a4-43cb-b7bd-1bdbecc8bb0c"},"vehicle_type_id":"4","last_reported":1768331537,"current_range_meters":2800,"station_id":"","pricing_plan_id":"cebpf4jnsgd1na2vs0mg"},{"bike_id":"eda71841-fcd7-4284-9fd5-c8b9865bfc03","system_id":"levelo_inurba_marseille","lat":43.29922,"lon":5.37456,"is_reserved":false,"is_disabled":false,"rental_uris":{"android":"levelo://app?vid=eda71841-fcd7-4284-9fd5-c8b9865bfc03","ios":"levelo://app?vid=eda71841-fcd7-4284-9fd5-c8b9865bfc03"},"vehicle_type_id":"4","last_reported":1768331537,"current_range_meters":2800,"station_id":"ce4bgjh2rcd13ifvqbg0","pricing_plan_id":"cebpf4jnsgd1na2vs0mg"},{"bike_id":"e64de5c8-c429-4d9e-853a-793e735e5e70","system_id":"levelo_inurba_marseille","lat":43.29958,"lon":5.41319,"is_reserved":false,"is_disabled":false,"rental_uris":{"android":"levelo://app?vid=e64de5c8-c429-4d9e-853a-793e735e5e70","ios":"levelo://app?vid=e64de5c8-c429-4d9e-853a-793e735e5e70"},"vehicle_type_id":"4","last_reported":1768331537,"current_range_meters":2800,"station_id":"ce4bhp12rcd13ifvqh9g","pricing_plan_id":"cebpf4jnsgd1na2vs0mg"},{"bike_id":"ca512b58-0143-4308-b521-6de6ada4b55b","system_id":"levelo_inurba_marseille","lat":43.30548,"lon":5.36528,"is_reserved":false,"is_disabled":false,"rental_uris":{"android":"levelo://app?vid=ca512b58-0143-4308-b521-6de6ada4b55b","ios":"levelo://app?vid=ca512b58-0143-4308-b521-6de6ada4b55b"},"vehicle_type_id":"4","last_reported":1768331537,"current_range_meters":2800,"station_id":"ce4bgs12rcd13ifvqcag","pricing_plan_id":"cebpf4jnsgd1na2vs0mg"},{"bike_id":"81e4c7e2-165b-48fa-ae40-00f42e72d2cc","system_id":"levelo_inurba_marseille","lat":43.30802,"lon":5.37653,"is_reserved":false,"is_disabled":false,"rental_uris":{"android":"levelo://app?vid=81e4c7e2-165b-48fa-ae40-00f42e72d2cc","ios":"levelo://app?vid=81e4c7e2-165b-48fa-ae40-00f42e72d2cc"},"vehicle_type_id":"4","last_reported":1768331537,"current_range_meters":2800,"station_id":"ce4bgv92rcd13ifvqcq0","pricing_plan_id":"cebpf4jnsgd1na2vs0mg"},{"bike_id":"57011a74-0c32-42bc-9899-fdfd84c9d05c","system_id":"levelo_inurba_marseille","lat":43.24805,"lon":5.37464,"is_reserved":false,"is_disabled":false,"rental_uris":{"android":"levelo://app?vid=57011a74-0c32-42bc-9899-fdfd84c9d05c","ios":"levelo://app?vid=57011a74-0c32-42bc-9899-fdfd84c9d05c"},"vehicle_type_id":"4","last_reported":1768331537,"current_range_meters":2800,"station_id":"ce4bhgh2rcd13ifvqfb0","pricing_plan_id":"cebpf4jnsgd1na2vs0mg"},{"bike_id":"8da79344-4a94-4a75-9ed3-85feb88e649a","system_id":"levelo_inurba_marseille","lat":43.30528,"lon":5.36542,"is_reserved":false,"is_disabled":false,"rental_uris":{"android":"levelo://app?vid=8da79344-4a94-4a75-9ed3-85feb88e649a","ios":"levelo://app?vid=8da79344-4a94-4a75-9ed3-85feb88e649a"},"vehicle_type_id":"4","last_reported":1768331537,"current_range_meters":2800,"station_id":"ce4bgs12rcd13ifvqcag","pricing_plan_id":"cebpf4jnsgd1na2vs0mg"},{"bike_id":"232ad3be-6df5-405a-a3b4-07ee6a984dfb","system_id":"levelo_inurba_marseille","lat":43.32901,"lon":5.38947,"is_reserved":false,"is_disabled":false,"rental_uris":{"android":"levelo://app?vid=232ad3be-6df5-405a-a3b4-07ee6a984dfb","ios":"levelo://app?vid=232ad3be-6df5-405a-a3b4-07ee6a984dfb"},"vehicle_type_id":"4","last_reported":1768331537,"current_range_meters":2800,"station_id":"","pricing_plan_id":"cebpf4jnsgd1na2vs0mg"},{"bike_id":"4470ee29-c1d9-4cd5-b86f-e144152a5653","system_id":"levelo_inurba_marseille","lat":43.2821,"lon":5.40373,"is_reserved":false,"is_disabled":false,"rental_uris":{"android":"levelo://app?vid=4470ee29-c1d9-4cd5-b86f-e144152a5653","ios":"levelo://app?vid=4470ee29-c1d9-4cd5-b86f-e144152a5653"},"vehicle_type_id":"4","last_reported":1768331537,"current_range_meters":2800,"station_id":"","pricing_plan_id":"cebpf4jnsgd1na2vs0mg"},{"bike_id":"2dad8955-6910-4131-8def-de70399b7eb8","system_id":"levelo_inurba_marseille","lat":43.29953,"lon":5.37345,"is_reserved":false,"is_disabled":false,"rental_uris":{"android":"levelo://app?vid=2dad8955-6910-4131-8def-de70399b7eb8","ios":"levelo://app?vid=2dad8955-6910-4131-8def-de70399b7eb8"},"vehicle_type_id":"4","last_reported":1768331537,"current_range_meters":2800,"station_id":"","pricing_plan_id":"cebpf4jnsgd1na2vs0mg"},{"bike_id":"24fc37fd-357c-4a91-9e14-c0484892cf8d","system_id":"levelo_inurba_marseille","lat":43.2987,"lon":5.40917,"is_reserved":false,"is_disabled":false,"rental_uris":{"android":"levelo://app?vid=24fc37fd-357c-4a91-9e14-c0484892cf8d","ios":"levelo://app?vid=24fc37fd-357c-4a91-9e14-c0484892cf8d"},"vehicle_type_id":"4","last_reported":1768331537,"current_range_meters":2800,"station_id":"","pricing_plan_id":"cebpf4jnsgd1na2vs0mg"},{"bike_id":"de76cebf-9713-41fa-a3c7-da32f3fa9e8e","system_id":"levelo_inurba_marseille","lat":43.28857,"lon":5.42519,"is_reserved":false,"is_disabled":false,"rental_uris":{"android":"levelo://app?vid=de76cebf-9713-41fa-a3c7-da32f3fa9e8e","ios":"levelo://app?vid=de76cebf-9713-41fa-a3c7-da32f3fa9e8e"},"vehicle_type_id":"4","last_reported":1768331537,"current_range_meters":2800,"station_id":"st_d3b462108ojc7389ooeg","pricing_plan_id":"cebpf4jnsgd1na2vs0mg"},{"bike_id":"a95f51b4-f0ea-4753-9f15-e2c2ed48d66b","system_id":"levelo_inurba_marseille","lat":43.28552,"lon":5.44078,"is_reserved":false,"is_disabled":false,"rental_uris":{"android":"levelo://app?vid=a95f51b4-f0ea-4753-9f15-e2c2ed48d66b","ios":"levelo://app?vid=a95f51b4-f0ea-4753-9f15-e2c2ed48d66b"},"vehicle_type_id":"4","last_reported":1768331537,"current_range_meters":2800,"station_id":"st_d3j3df2ikq2c7380ej80","pricing_plan_id":"cebpf4jnsgd1na2vs0mg"},{"bike_id":"19cf4836-8dc0-4d4b-a30b-cc7133de4342","system_id":"levelo_inurba_marseille","lat":43.26061,"lon":5.39393,"is_reserved":false,"is_disabled":false,"rental_uris":{"android":"levelo://app?vid=19cf4836-8dc0-4d4b-a30b-cc7133de4342","ios":"levelo://app?vid=19cf4836-8dc0-4d4b-a30b-cc7133de4342"},"vehicle_type_id":"4","last_reported":1768331537,"current_range_meters":2800,"station_id":"ce4bhh92rcd13ifvqfj0","pricing_plan_id":"cebpf4jnsgd1na2vs0mg"},{"bike_id":"55f02e10-5720-4398-bc03-dbc7f2d4f115","system_id":"levelo_inurba_marseille","lat":43.26211,"lon":5.37441,"is_reserved":false,"is_disabled":false,"rental_uris":{"android":"levelo://app?vid=55f02e10-5720-4398-bc03-dbc7f2d4f115","ios":"levelo://app?vid=55f02e10-5720-4398-bc03-dbc7f2d4f115"},"vehicle_type_id":"4","last_reported":1768331537,"current_range_meters":2800,"station_id":"ce4bhgp2rcd13ifvqfc0","pricing_plan_id":"cebpf4jnsgd1na2vs0mg"},{"bike_id":"21332ac9-7ab6-4fec-9b6f-5205efc9bf67","system_id":"levelo_inurba_marseille","lat":43.28606,"lon":5.37063,"is_reserved":false,"is_disabled":false,"rental_uris":{"android":"levelo://app?vid=21332ac9-7ab6-4fec-9b6f-5205efc9bf67","ios":"levelo://app?vid=21332ac9-7ab6-4fec-9b6f-5205efc9bf67"},"vehicle_type_id":"4","last_reported":1768331537,"current_range_meters":2800,"station_id":"ce4bht12rcd13ifvqi60","pricing_plan_id":"cebpf4jnsgd1na2vs0mg"},{"bike_id":"78b5fcef-eb69-4bb9-b995-d031358bd549","system_id":"levelo_inurba_marseille","lat":43.31516,"lon":5.41389,"is_reserved":false,"is_disabled":false,"rental_uris":{"android":"levelo://app?vid=78b5fcef-eb69-4bb9-b995-d031358bd549","ios":"levelo://app?vid=78b5fcef-eb69-4bb9-b995-d031358bd549"},"vehicle_type_id":"4","last_reported":1768331537,"current_range_meters":2800,"station_id":"","pricing_plan_id":"cebpf4jnsgd1na2vs0mg"},{"bike_id":"9cc1c113-a0b8-4aee-b092-6b9722fcae58","system_id":"levelo_inurba_marseille","lat":43.31482,"lon":5.37304,"is_reserved":false,"is_disabled":false,"rental_uris":{"android":"levelo://app?vid=9cc1c113-a0b8-4aee-b092-6b9722fcae58","ios":"levelo://app?vid=9cc1c113-a0b8-4aee-b092-6b9722fcae58"},"vehicle_type_id":"4","last_reported":1768331537,"current_range_meters":2800,"station_id":"ce4bgt12rcd13ifvqcd0","pricing_plan_id":"cebpf4jnsgd1na2vs0mg"},{"bike_id":"920b8c8b-9eab-49c7-9a74-451c72ca2936","system_id":"levelo_inurba_marseille","lat":43.292603,"lon":5.384374,"is_reserved":false,"is_disabled":false,"rental_uris":{"android":"levelo://app?vid=920b8c8b-9eab-49c7-9a74-451c72ca2936","ios":"levelo://app?vid=920b8c8b-9eab-49c7-9a74-451c72ca2936"},"vehicle_type_id":"4","last_reported":1768331537,"current_range_meters":2800,"station_id":"","pricing_plan_id":"cebpf4jnsgd1na2vs0mg"},{"bike_id":"4ccf5df6-38fa-46c4-ae58-5671706983df","system_id":"levelo_inurba_marseille","lat":43.32345,"lon":5.36745,"is_reserved":false,"is_disabled":false,"rental_uris":{"android":"levelo://app?vid=4ccf5df6-38fa-46c4-ae58-5671706983df","ios":"levelo://app?vid=4ccf5df6-38fa-46c4-ae58-5671706983df"},"vehicle_type_id":"4","last_reported":1768331537,"current_range_meters":3200,"station_id":"ce4bhsh2rcd13ifvqi2g","pricing_plan_id":"cebpf4jnsgd1na2vs0mg"},{"bike_id":"017368ae-a8ef-4ad6-bc9a-d16935d6312f","system_id":"levelo_inurba_marseille","lat":43.23524,"lon":5.3595,"is_reserved":false,"is_disabled":false,"rental_uris":{"android":"levelo://app?vid=017368ae-a8ef-4ad6-bc9a-d16935d6312f","ios":"levelo://app?vid=017368ae-a8ef-4ad6-bc9a-d16935d6312f"},"vehicle_type_id":"4","last_reported":1768331537,"current_range_meters":3200,"station_id":"","pricing_plan_id":"cebpf4jnsgd1na2vs0mg"},{"bike_id":"829b4dfc-f5b2-4ad0-a42d-896237842994","system_id":"levelo_inurba_marseille","lat":43.28478,"lon":5.48401,"is_reserved":false,"is_disabled":false,"rental_uris":{"android":"levelo://app?vid=829b4dfc-f5b2-4ad0-a42d-896237842994","ios":"levelo://app?vid=829b4dfc-f5b2-4ad0-a42d-896237842994"},"vehicle_type_id":"4","last_reported":1768331537,"current_range_meters":3200,"station_id":"","pricing_plan_id":"cebpf4jnsgd1na2vs0mg"},{"bike_id":"618b8797-65b0-468a-bbde-d4f615e3f8a0","system_id":"levelo_inurba_marseille","lat":43.30594,"lon":5.39359,"is_reserved":false,"is_disabled":false,"rental_uris":{"android":"levelo://app?vid=618b8797-65b0-468a-bbde-d4f615e3f8a0","ios":"levelo://app?vid=618b8797-65b0-468a-bbde-d4f615e3f8a0"},"vehicle_type_id":"4","last_reported":1768331537,"current_range_meters":3200,"station_id":"ce4bh0p2rcd13ifvqd80","pricing_plan_id":"cebpf4jnsgd1na2vs0mg"},{"bike_id":"82b87168-267f-432c-a609-70f7b40ac901","system_id":"levelo_inurba_marseille","lat":43.27945,"lon":5.41031,"is_reserved":false,"is_disabled":false,"rental_uris":{"android":"levelo://app?vid=82b87168-267f-432c-a609-70f7b40ac901","ios":"levelo://app?vid=82b87168-267f-432c-a609-70f7b40ac901"},"vehicle_type_id":"4","last_reported":1768331537,"current_range_meters":3200,"station_id":"","pricing_plan_id":"cebpf4jnsgd1na2vs0mg"},{"bike_id":"93beefeb-bae2-44e6-b1e7-4e0bc7c2456a","system_id":"levelo_inurba_marseille","lat":43.27662,"lon":5.36129,"is_reserved":false,"is_disabled":false,"rental_uris":{"android":"levelo://app?vid=93beefeb-bae2-44e6-b1e7-4e0bc7c2456a","ios":"levelo://app?vid=93beefeb-bae2-44e6-b1e7-4e0bc7c2456a"},"vehicle_type_id":"4","last_reported":1768331537,"current_range_meters":3200,"station_id":"","pricing_plan_id":"cebpf4jnsgd1na2vs0mg"},{"bike_id":"f897dba4-c617-4409-aaa7-b2019142aad3","system_id":"levelo_inurba_marseille","lat":43.28454,"lon":5.35898,"is_reserved":false,"is_disabled":false,"rental_uris":{"android":"levelo://app?vid=f897dba4-c617-4409-aaa7-b2019142aad3","ios":"levelo://app?vid=f897dba4-c617-4409-aaa7-b2019142aad3"},"vehicle_type_id":"4","last_reported":1768331537,"current_range_meters":3200,"station_id":"ce4bhah2rcd13ifvqei0","pricing_plan_id":"cebpf4jnsgd1na2vs0mg"},{"bike_id":"f4f06659-6f6e-40e5-ba3b-91d2c1d1f54d","system_id":"levelo_inurba_marseille","lat":43.30797,"lon":5.38162,"is_reserved":false,"is_disabled":false,"rental_uris":{"android":"levelo://app?vid=f4f06659-6f6e-40e5-ba3b-91d2c1d1f54d","ios":"levelo://app?vid=f4f06659-6f6e-40e5-ba3b-91d2c1d1f54d"},"vehicle_type_id":"4","last_reported":1768331537,"current_range_meters":3200,"station_id":"ce4bgt12rcd13ifvqce0","pricing_plan_id":"cebpf4jnsgd1na2vs0mg"},{"bike_id":"01945cdd-0088-40c1-b968-9fbb65d75a3a","system_id":"levelo_inurba_marseille","lat":43.321086,"lon":5.367898,"is_reserved":false,"is_disabled":false,"rental_uris":{"android":"levelo://app?vid=01945cdd-0088-40c1-b968-9fbb65d75a3a","ios":"levelo://app?vid=01945cdd-0088-40c1-b968-9fbb65d75a3a"},"vehicle_type_id":"4","last_reported":1768331537,"current_range_meters":3200,"station_id":"ce4bhrh2rcd13ifvqhug","pricing_plan_id":"cebpf4jnsgd1na2vs0mg"},{"bike_id":"a22146b8-4b05-4651-b6b4-a1a63e612e7d","system_id":"levelo_inurba_marseille","lat":43.26069,"lon":5.39392,"is_reserved":false,"is_disabled":false,"rental_uris":{"android":"levelo://app?vid=a22146b8-4b05-4651-b6b4-a1a63e612e7d","ios":"levelo://app?vid=a22146b8-4b05-4651-b6b4-a1a63e612e7d"},"vehicle_type_id":"4","last_reported":1768331537,"current_range_meters":3200,"station_id":"ce4bhh92rcd13ifvqfj0","pricing_plan_id":"cebpf4jnsgd1na2vs0mg"},{"bike_id":"053203c3-b50f-44b4-9df5-2a6af082b9e9","system_id":"levelo_inurba_marseille","lat":43.24615,"lon":5.43147,"is_reserved":false,"is_disabled":false,"rental_uris":{"android":"levelo://app?vid=053203c3-b50f-44b4-9df5-2a6af082b9e9","ios":"levelo://app?vid=053203c3-b50f-44b4-9df5-2a6af082b9e9"},"vehicle_type_id":"4","last_reported":1768331537,"current_range_meters":3200,"station_id":"st_d2m6c4gdas8pm72e190g","pricing_plan_id":"cebpf4jnsgd1na2vs0mg"},{"bike_id":"3230873c-fc31-45b7-9508-aee7786321e1","system_id":"levelo_inurba_marseille","lat":43.32686,"lon":5.39562,"is_reserved":false,"is_disabled":false,"rental_uris":{"android":"levelo://app?vid=3230873c-fc31-45b7-9508-aee7786321e1","ios":"levelo://app?vid=3230873c-fc31-45b7-9508-aee7786321e1"},"vehicle_type_id":"4","last_reported":1768331537,"current_range_meters":3200,"station_id":"","pricing_plan_id":"cebpf4jnsgd1na2vs0mg"},{"bike_id":"d2e92efe-9527-4938-bc6a-630b9b972eac","system_id":"levelo_inurba_marseille","lat":43.29028,"lon":5.38147,"is_reserved":false,"is_disabled":false,"rental_uris":{"android":"levelo://app?vid=d2e92efe-9527-4938-bc6a-630b9b972eac","ios":"levelo://app?vid=d2e92efe-9527-4938-bc6a-630b9b972eac"},"vehicle_type_id":"4","last_reported":1768331537,"current_range_meters":3200,"station_id":"ce4bh4p2rcd13ifvqe1g","pricing_plan_id":"cebpf4jnsgd1na2vs0mg"},{"bike_id":"90afec8c-2196-4194-be34-44251155486e","system_id":"levelo_inurba_marseille","lat":43.28614,"lon":5.38438,"is_reserved":false,"is_disabled":false,"rental_uris":{"android":"levelo://app?vid=90afec8c-2196-4194-be34-44251155486e","ios":"levelo://app?vid=90afec8c-2196-4194-be34-44251155486e"},"vehicle_type_id":"4","last_reported":1768331537,"current_range_meters":3200,"station_id":"","pricing_plan_id":"cebpf4jnsgd1na2vs0mg"},{"bike_id":"7ec151be-34e4-4456-9017-2d1fd4c02f90","system_id":"levelo_inurba_marseille","lat":43.26553,"lon":5.39005,"is_reserved":false,"is_disabled":false,"rental_uris":{"android":"levelo://app?vid=7ec151be-34e4-4456-9017-2d1fd4c02f90","ios":"levelo://app?vid=7ec151be-34e4-4456-9017-2d1fd4c02f90"},"vehicle_type_id":"4","last_reported":1768331537,"current_range_meters":3200,"station_id":"ce4bhe12rcd13ifvqf30","pricing_plan_id":"cebpf4jnsgd1na2vs0mg"},{"bike_id":"5a0392ac-7a9b-484b-96c8-f46177e80c6c","system_id":"levelo_inurba_marseille","lat":43.30129,"lon":5.39861,"is_reserved":false,"is_disabled":false,"rental_uris":{"android":"levelo://app?vid=5a0392ac-7a9b-484b-96c8-f46177e80c6c","ios":"levelo://app?vid=5a0392ac-7a9b-484b-96c8-f46177e80c6c"},"vehicle_type_id":"4","last_reported":1768331537,"current_range_meters":3200,"station_id":"ce4bh0h2rcd13ifvqd40","pricing_plan_id":"cebpf4jnsgd1na2vs0mg"},{"bike_id":"614a562d-2005-4cf7-9f04-119c8ed3d172","system_id":"levelo_inurba_marseille","lat":43.29311,"lon":5.37201,"is_reserved":false,"is_disabled":false,"rental_uris":{"android":"levelo://app?vid=614a562d-2005-4cf7-9f04-119c8ed3d172","ios":"levelo://app?vid=614a562d-2005-4cf7-9f04-119c8ed3d172"},"vehicle_type_id":"4","last_reported":1768331537,"current_range_meters":3600,"station_id":"ce4bgh92rcd13ifvqb40","pricing_plan_id":"cebpf4jnsgd1na2vs0mg"},{"bike_id":"91f830b5-135b-4e75-8a53-49de6ef86e8b","system_id":"levelo_inurba_marseille","lat":43.309352,"lon":5.39026,"is_reserved":false,"is_disabled":false,"rental_uris":{"android":"levelo://app?vid=91f830b5-135b-4e75-8a53-49de6ef86e8b","ios":"levelo://app?vid=91f830b5-135b-4e75-8a53-49de6ef86e8b"},"vehicle_type_id":"4","last_reported":1768331537,"current_range_meters":3600,"station_id":"","pricing_plan_id":"cebpf4jnsgd1na2vs0mg"},{"bike_id":"24220b58-ddb3-4cf8-8eeb-9113fb357bd8","system_id":"levelo_inurba_marseille","lat":43.285181,"lon":5.384007,"is_reserved":false,"is_disabled":false,"rental_uris":{"android":"levelo://app?vid=24220b58-ddb3-4cf8-8eeb-9113fb357bd8","ios":"levelo://app?vid=24220b58-ddb3-4cf8-8eeb-9113fb357bd8"},"vehicle_type_id":"4","last_reported":1768331537,"current_range_meters":3600,"station_id":"ce4bh512rcd13ifvqe3g","pricing_plan_id":"cebpf4jnsgd1na2vs0mg"},{"bike_id":"90374415-cbc3-4952-a2cb-bda17d2a3e8f","system_id":"levelo_inurba_marseille","lat":43.31329,"lon":5.38424,"is_reserved":false,"is_disabled":false,"rental_uris":{"android":"levelo://app?vid=90374415-cbc3-4952-a2cb-bda17d2a3e8f","ios":"levelo://app?vid=90374415-cbc3-4952-a2cb-bda17d2a3e8f"},"vehicle_type_id":"4","last_reported":1768331537,"current_range_meters":3600,"station_id":"","pricing_plan_id":"cebpf4jnsgd1na2vs0mg"},{"bike_id":"ae4a0a15-7ed7-4bb2-b063-557d6202badb","system_id":"levelo_inurba_marseille","lat":43.27999,"lon":5.40016,"is_reserved":false,"is_disabled":false,"rental_uris":{"android":"levelo://app?vid=ae4a0a15-7ed7-4bb2-b063-557d6202badb","ios":"levelo://app?vid=ae4a0a15-7ed7-4bb2-b063-557d6202badb"},"vehicle_type_id":"4","last_reported":1768331537,"current_range_meters":3600,"station_id":"ce4bho92rcd13ifvqh4g","pricing_plan_id":"cebpf4jnsgd1na2vs0mg"},{"bike_id":"d1d1ca74-c504-4cbd-bb05-3dc57ea0a926","system_id":"levelo_inurba_marseille","lat":43.297976,"lon":5.381109,"is_reserved":false,"is_disabled":false,"rental_uris":{"android":"levelo://app?vid=d1d1ca74-c504-4cbd-bb05-3dc57ea0a926","ios":"levelo://app?vid=d1d1ca74-c504-4cbd-bb05-3dc57ea0a926"},"vehicle_type_id":"4","last_reported":1768331537,"current_range_meters":3600,"station_id":"ce4bgip2rcd13ifvqbb0","pricing_plan_id":"cebpf4jnsgd1na2vs0mg"},{"bike_id":"533cb83c-e8dd-42bc-9375-30430a43b393","system_id":"levelo_inurba_marseille","lat":43.25508,"lon":5.37655,"is_reserved":false,"is_disabled":false,"rental_uris":{"android":"levelo://app?vid=533cb83c-e8dd-42bc-9375-30430a43b393","ios":"levelo://app?vid=533cb83c-e8dd-42bc-9375-30430a43b393"},"vehicle_type_id":"4","last_reported":1768331537,"current_range_meters":3600,"station_id":"ce4bhh12rcd13ifvqff0","pricing_plan_id":"cebpf4jnsgd1na2vs0mg"},{"bike_id":"03161749-86db-45ff-8793-2e6b95b69b7a","system_id":"levelo_inurba_marseille","lat":43.25089,"lon":5.39519,"is_reserved":false,"is_disabled":false,"rental_uris":{"android":"levelo://app?vid=03161749-86db-45ff-8793-2e6b95b69b7a","ios":"levelo://app?vid=03161749-86db-45ff-8793-2e6b95b69b7a"},"vehicle_type_id":"4","last_reported":1768331537,"current_range_meters":3600,"station_id":"ce4bhm12rcd13ifvqgkg","pricing_plan_id":"cebpf4jnsgd1na2vs0mg"},{"bike_id":"b3365a79-4e93-4ced-801f-9c3754c77da0","system_id":"levelo_inurba_marseille","lat":43.24392,"lon":5.370755,"is_reserved":false,"is_disabled":false,"rental_uris":{"android":"levelo://app?vid=b3365a79-4e93-4ced-801f-9c3754c77da0","ios":"levelo://app?vid=b3365a79-4e93-4ced-801f-9c3754c77da0"},"vehicle_type_id":"4","last_reported":1768331537,"current_range_meters":3600,"station_id":"ce4bhhh2rcd13ifvqfk0","pricing_plan_id":"cebpf4jnsgd1na2vs0mg"},{"bike_id":"5cd0348c-c053-42c0-b52c-0fd30637dd40","system_id":"levelo_inurba_marseille","lat":43.29898,"lon":5.37797,"is_reserved":false,"is_disabled":false,"rental_uris":{"android":"levelo://app?vid=5cd0348c-c053-42c0-b52c-0fd30637dd40","ios":"levelo://app?vid=5cd0348c-c053-42c0-b52c-0fd30637dd40"},"vehicle_type_id":"4","last_reported":1768331537,"current_range_meters":3600,"station_id":"","pricing_plan_id":"cebpf4jnsgd1na2vs0mg"},{"bike_id":"50d6cb25-e8c5-49dd-88b4-e56e19cdc111","system_id":"levelo_inurba_marseille","lat":43.29029,"lon":5.37074,"is_reserved":false,"is_disabled":false,"rental_uris":{"android":"levelo://app?vid=50d6cb25-e8c5-49dd-88b4-e56e19cdc111","ios":"levelo://app?vid=50d6cb25-e8c5-49dd-88b4-e56e19cdc111"},"vehicle_type_id":"4","last_reported":1768331537,"current_range_meters":3600,"station_id":"","pricing_plan_id":"cebpf4jnsgd1na2vs0mg"},{"bike_id":"9d278bb0-0484-4d9d-a07d-e307524f345e","system_id":"levelo_inurba_marseille","lat":43.27996,"lon":5.40019,"is_reserved":false,"is_disabled":false,"rental_uris":{"android":"levelo://app?vid=9d278bb0-0484-4d9d-a07d-e307524f345e","ios":"levelo://app?vid=9d278bb0-0484-4d9d-a07d-e307524f345e"},"vehicle_type_id":"4","last_reported":1768331537,"current_range_meters":3600,"station_id":"ce4bho92rcd13ifvqh4g","pricing_plan_id":"cebpf4jnsgd1na2vs0mg"},{"bike_id":"e63df9e0-af8f-4554-a6e1-61250e5af1c1","system_id":"levelo_inurba_marseille","lat":43.23208,"lon":5.39981,"is_reserved":false,"is_disabled":false,"rental_uris":{"android":"levelo://app?vid=e63df9e0-af8f-4554-a6e1-61250e5af1c1","ios":"levelo://app?vid=e63df9e0-af8f-4554-a6e1-61250e5af1c1"},"vehicle_type_id":"4","last_reported":1768331537,"current_range_meters":3600,"station_id":"ce4bhn12rcd13ifvqgqg","pricing_plan_id":"cebpf4jnsgd1na2vs0mg"},{"bike_id":"46152bd7-5aa6-477a-9fcc-6a3940f95a27","system_id":"levelo_inurba_marseille","lat":43.262341,"lon":5.404506,"is_reserved":false,"is_disabled":false,"rental_uris":{"android":"levelo://app?vid=46152bd7-5aa6-477a-9fcc-6a3940f95a27","ios":"levelo://app?vid=46152bd7-5aa6-477a-9fcc-6a3940f95a27"},"vehicle_type_id":"4","last_reported":1768331537,"current_range_meters":3600,"station_id":"ce4bhmh2rcd13ifvqgmg","pricing_plan_id":"cebpf4jnsgd1na2vs0mg"},{"bike_id":"93420a80-8e35-472b-9a22-41b99ae8b801","system_id":"levelo_inurba_marseille","lat":43.2417,"lon":5.36399,"is_reserved":false,"is_disabled":false,"rental_uris":{"android":"levelo://app?vid=93420a80-8e35-472b-9a22-41b99ae8b801","ios":"levelo://app?vid=93420a80-8e35-472b-9a22-41b99ae8b801"},"vehicle_type_id":"4","last_reported":1768331537,"current_range_meters":4000,"station_id":"cpo36qri1sfpv3e86is0","pricing_plan_id":"cebpf4jnsgd1na2vs0mg"},{"bike_id":"348a7616-c475-4feb-93b6-e7e3eba9b2e9","system_id":"levelo_inurba_marseille","lat":43.24989,"lon":5.38941,"is_reserved":false,"is_disabled":false,"rental_uris":{"android":"levelo://app?vid=348a7616-c475-4feb-93b6-e7e3eba9b2e9","ios":"levelo://app?vid=348a7616-c475-4feb-93b6-e7e3eba9b2e9"},"vehicle_type_id":"4","last_reported":1768331537,"current_range_meters":4000,"station_id":"ce4bhgp2rcd13ifvqfd0","pricing_plan_id":"cebpf4jnsgd1na2vs0mg"},{"bike_id":"cde79400-5485-4d99-86e2-5f7248f7f4ca","system_id":"levelo_inurba_marseille","lat":43.30717,"lon":5.4097,"is_reserved":false,"is_disabled":false,"rental_uris":{"android":"levelo://app?vid=cde79400-5485-4d99-86e2-5f7248f7f4ca","ios":"levelo://app?vid=cde79400-5485-4d99-86e2-5f7248f7f4ca"},"vehicle_type_id":"4","last_reported":1768331537,"current_range_meters":4000,"station_id":"","pricing_plan_id":"cebpf4jnsgd1na2vs0mg"},{"bike_id":"5ad52785-0823-41c2-87b5-2779a76f0e53","system_id":"levelo_inurba_marseille","lat":43.24603,"lon":5.38402,"is_reserved":false,"is_disabled":false,"rental_uris":{"android":"levelo://app?vid=5ad52785-0823-41c2-87b5-2779a76f0e53","ios":"levelo://app?vid=5ad52785-0823-41c2-87b5-2779a76f0e53"},"vehicle_type_id":"4","last_reported":1768331537,"current_range_meters":4000,"station_id":"","pricing_plan_id":"cebpf4jnsgd1na2vs0mg"},{"bike_id":"49a723e0-8456-44b4-afa9-f174fa01d2a9","system_id":"levelo_inurba_marseille","lat":43.29261,"lon":5.36856,"is_reserved":false,"is_disabled":false,"rental_uris":{"android":"levelo://app?vid=49a723e0-8456-44b4-afa9-f174fa01d2a9","ios":"levelo://app?vid=49a723e0-8456-44b4-afa9-f174fa01d2a9"},"vehicle_type_id":"4","last_reported":1768331537,"current_range_meters":4000,"station_id":"ce4bhbp2rcd13ifvqesg","pricing_plan_id":"cebpf4jnsgd1na2vs0mg"},{"bike_id":"1621444e-17e7-4c3c-bee0-067ccd01ec41","system_id":"levelo_inurba_marseille","lat":43.281605,"lon":5.426486,"is_reserved":false,"is_disabled":false,"rental_uris":{"android":"levelo://app?vid=1621444e-17e7-4c3c-bee0-067ccd01ec41","ios":"levelo://app?vid=1621444e-17e7-4c3c-bee0-067ccd01ec41"},"vehicle_type_id":"4","last_reported":1768331537,"current_range_meters":4000,"station_id":"","pricing_plan_id":"cebpf4jnsgd1na2vs0mg"},{"bike_id":"d926f6df-bb6d-4c22-9c30-1d92a2769c5e","system_id":"levelo_inurba_marseille","lat":43.22917,"lon":5.35375,"is_reserved":false,"is_disabled":false,"rental_uris":{"android":"levelo://app?vid=d926f6df-bb6d-4c22-9c30-1d92a2769c5e","ios":"levelo://app?vid=d926f6df-bb6d-4c22-9c30-1d92a2769c5e"},"vehicle_type_id":"4","last_reported":1768331537,"current_range_meters":4000,"station_id":"cpo3532slgdg3j2ikp40","pricing_plan_id":"cebpf4jnsgd1na2vs0mg"},{"bike_id":"153ba4b0-1b0e-4cca-b28f-6e30d74b2bfa","system_id":"levelo_inurba_marseille","lat":43.28442,"lon":5.39201,"is_reserved":false,"is_disabled":false,"rental_uris":{"android":"levelo://app?vid=153ba4b0-1b0e-4cca-b28f-6e30d74b2bfa","ios":"levelo://app?vid=153ba4b0-1b0e-4cca-b28f-6e30d74b2bfa"},"vehicle_type_id":"4","last_reported":1768331537,"current_range_meters":4000,"station_id":"ce4bhoh2rcd13ifvqh5g","pricing_plan_id":"cebpf4jnsgd1na2vs0mg"},{"bike_id":"e2f7f7db-8117-41c3-8922-7691d948953c","system_id":"levelo_inurba_marseille","lat":43.31317,"lon":5.39724,"is_reserved":false,"is_disabled":false,"rental_uris":{"android":"levelo://app?vid=e2f7f7db-8117-41c3-8922-7691d948953c","ios":"levelo://app?vid=e2f7f7db-8117-41c3-8922-7691d948953c"},"vehicle_type_id":"4","last_reported":1768331537,"current_range_meters":4000,"station_id":"ce4bgvp2rcd13ifvqcu0","pricing_plan_id":"cebpf4jnsgd1na2vs0mg"},{"bike_id":"77648d21-2eba-4733-a182-ee140dc2d61a","system_id":"levelo_inurba_marseille","lat":43.2319,"lon":5.35533,"is_reserved":false,"is_disabled":false,"rental_uris":{"android":"levelo://app?vid=77648d21-2eba-4733-a182-ee140dc2d61a","ios":"levelo://app?vid=77648d21-2eba-4733-a182-ee140dc2d61a"},"vehicle_type_id":"4","last_reported":1768331537,"current_range_meters":4000,"station_id":"ce4bhu92rcd13ifvqi70","pricing_plan_id":"cebpf4jnsgd1na2vs0mg"},{"bike_id":"cd122465-4bd8-4111-a501-746f52ad2f74","system_id":"levelo_inurba_marseille","lat":43.25498,"lon":5.37678,"is_reserved":false,"is_disabled":false,"rental_uris":{"android":"levelo://app?vid=cd122465-4bd8-4111-a501-746f52ad2f74","ios":"levelo://app?vid=cd122465-4bd8-4111-a501-746f52ad2f74"},"vehicle_type_id":"4","last_reported":1768331537,"current_range_meters":4000,"station_id":"ce4bhh12rcd13ifvqff0","pricing_plan_id":"cebpf4jnsgd1na2vs0mg"},{"bike_id":"84df128e-6b04-4c38-8a90-8476a838a43a","system_id":"levelo_inurba_marseille","lat":43.28154,"lon":5.42628,"is_reserved":false,"is_disabled":false,"rental_uris":{"android":"levelo://app?vid=84df128e-6b04-4c38-8a90-8476a838a43a","ios":"levelo://app?vid=84df128e-6b04-4c38-8a90-8476a838a43a"},"vehicle_type_id":"4","last_reported":1768331537,"current_range_meters":4000,"station_id":"ce4bhnh2rcd13ifvqgug","pricing_plan_id":"cebpf4jnsgd1na2vs0mg"},{"bike_id":"e550fc9a-3d68-4b17-9669-6894900f7416","system_id":"levelo_inurba_marseille","lat":43.30641,"lon":5.40501,"is_reserved":false,"is_disabled":false,"rental_uris":{"android":"levelo://app?vid=e550fc9a-3d68-4b17-9669-6894900f7416","ios":"levelo://app?vid=e550fc9a-3d68-4b17-9669-6894900f7416"},"vehicle_type_id":"4","last_reported":1768331537,"current_range_meters":4000,"station_id":"ce4bh112rcd13ifvqda0","pricing_plan_id":"cebpf4jnsgd1na2vs0mg"},{"bike_id":"6ef5d41b-b55b-4026-8fd2-59af13c1070d","system_id":"levelo_inurba_marseille","lat":43.25084,"lon":5.39512,"is_reserved":false,"is_disabled":false,"rental_uris":{"android":"levelo://app?vid=6ef5d41b-b55b-4026-8fd2-59af13c1070d","ios":"levelo://app?vid=6ef5d41b-b55b-4026-8fd2-59af13c1070d"},"vehicle_type_id":"4","last_reported":1768331537,"current_range_meters":4000,"station_id":"ce4bhm12rcd13ifvqgkg","pricing_plan_id":"cebpf4jnsgd1na2vs0mg"},{"bike_id":"4af7f907-9389-4bec-b5b0-5fc6df330845","system_id":"levelo_inurba_marseille","lat":43.28534,"lon":5.44107,"is_reserved":false,"is_disabled":false,"rental_uris":{"android":"levelo://app?vid=4af7f907-9389-4bec-b5b0-5fc6df330845","ios":"levelo://app?vid=4af7f907-9389-4bec-b5b0-5fc6df330845"},"vehicle_type_id":"4","last_reported":1768331537,"current_range_meters":4000,"station_id":"st_d3j3df2ikq2c7380ej80","pricing_plan_id":"cebpf4jnsgd1na2vs0mg"},{"bike_id":"fcc631d1-df94-4f25-9fad-22f1bede125e","system_id":"levelo_inurba_marseille","lat":43.2854,"lon":5.44102,"is_reserved":false,"is_disabled":false,"rental_uris":{"android":"levelo://app?vid=fcc631d1-df94-4f25-9fad-22f1bede125e","ios":"levelo://app?vid=fcc631d1-df94-4f25-9fad-22f1bede125e"},"vehicle_type_id":"4","last_reported":1768331537,"current_range_meters":4000,"station_id":"st_d3j3df2ikq2c7380ej80","pricing_plan_id":"cebpf4jnsgd1na2vs0mg"},{"bike_id":"957cb636-bc48-4b50-840f-bd4f72ba1cbd","system_id":"levelo_inurba_marseille","lat":43.305654,"lon":5.365352,"is_reserved":false,"is_disabled":false,"rental_uris":{"android":"levelo://app?vid=957cb636-bc48-4b50-840f-bd4f72ba1cbd","ios":"levelo://app?vid=957cb636-bc48-4b50-840f-bd4f72ba1cbd"},"vehicle_type_id":"4","last_reported":1768331537,"current_range_meters":4400,"station_id":"ce4bgs12rcd13ifvqcag","pricing_plan_id":"cebpf4jnsgd1na2vs0mg"},{"bike_id":"cee2d925-4eab-4a6e-81f4-71692d1b6e36","system_id":"levelo_inurba_marseille","lat":43.28845,"lon":5.39335,"is_reserved":false,"is_disabled":false,"rental_uris":{"android":"levelo://app?vid=cee2d925-4eab-4a6e-81f4-71692d1b6e36","ios":"levelo://app?vid=cee2d925-4eab-4a6e-81f4-71692d1b6e36"},"vehicle_type_id":"4","last_reported":1768331537,"current_range_meters":4400,"station_id":"ce4bh2p2rcd13ifvqdi0","pricing_plan_id":"cebpf4jnsgd1na2vs0mg"},{"bike_id":"0e8bf274-4e41-43de-a66e-ca34f84c602e","system_id":"levelo_inurba_marseille","lat":43.23963,"lon":5.36623,"is_reserved":false,"is_disabled":false,"rental_uris":{"android":"levelo://app?vid=0e8bf274-4e41-43de-a66e-ca34f84c602e","ios":"levelo://app?vid=0e8bf274-4e41-43de-a66e-ca34f84c602e"},"vehicle_type_id":"4","last_reported":1768331537,"current_range_meters":4400,"station_id":"ce4bhi12rcd13ifvqfp0","pricing_plan_id":"cebpf4jnsgd1na2vs0mg"},{"bike_id":"49fb4306-865f-432a-9d22-e1e65c507334","system_id":"levelo_inurba_marseille","lat":43.29525,"lon":5.38526,"is_reserved":false,"is_disabled":false,"rental_uris":{"android":"levelo://app?vid=49fb4306-865f-432a-9d22-e1e65c507334","ios":"levelo://app?vid=49fb4306-865f-432a-9d22-e1e65c507334"},"vehicle_type_id":"4","last_reported":1768331537,"current_range_meters":4400,"station_id":"ce4bgih2rcd13ifvqba0","pricing_plan_id":"cebpf4jnsgd1na2vs0mg"},{"bike_id":"c99e908e-7a32-4d1f-800f-603e38b74fa5","system_id":"levelo_inurba_marseille","lat":43.241593,"lon":5.364043,"is_reserved":false,"is_disabled":false,"rental_uris":{"android":"levelo://app?vid=c99e908e-7a32-4d1f-800f-603e38b74fa5","ios":"levelo://app?vid=c99e908e-7a32-4d1f-800f-603e38b74fa5"},"vehicle_type_id":"4","last_reported":1768331537,"current_range_meters":4400,"station_id":"cpo36qri1sfpv3e86is0","pricing_plan_id":"cebpf4jnsgd1na2vs0mg"},{"bike_id":"5b8302cb-d6a5-4483-b477-0ec5d1c212e3","system_id":"levelo_inurba_marseille","lat":43.25583,"lon":5.38224,"is_reserved":false,"is_disabled":false,"rental_uris":{"android":"levelo://app?vid=5b8302cb-d6a5-4483-b477-0ec5d1c212e3","ios":"levelo://app?vid=5b8302cb-d6a5-4483-b477-0ec5d1c212e3"},"vehicle_type_id":"4","last_reported":1768331537,"current_range_meters":4400,"station_id":"ce4bhih2rcd13ifvqfs0","pricing_plan_id":"cebpf4jnsgd1na2vs0mg"},{"bike_id":"56086777-d961-4483-841e-d68e415670fd","system_id":"levelo_inurba_marseille","lat":43.24465,"lon":5.42533,"is_reserved":false,"is_disabled":false,"rental_uris":{"android":"levelo://app?vid=56086777-d961-4483-841e-d68e415670fd","ios":"levelo://app?vid=56086777-d961-4483-841e-d68e415670fd"},"vehicle_type_id":"4","last_reported":1768331537,"current_range_meters":4400,"station_id":"st_d4a3vfp97mjs738cd8kg","pricing_plan_id":"cebpf4jnsgd1na2vs0mg"},{"bike_id":"d4f3bd37-a943-479b-98c1-66fc15a01b59","system_id":"levelo_inurba_marseille","lat":43.32363,"lon":5.36766,"is_reserved":false,"is_disabled":false,"rental_uris":{"android":"levelo://app?vid=d4f3bd37-a943-479b-98c1-66fc15a01b59","ios":"levelo://app?vid=d4f3bd37-a943-479b-98c1-66fc15a01b59"},"vehicle_type_id":"4","last_reported":1768331537,"current_range_meters":4400,"station_id":"ce4bhsh2rcd13ifvqi2g","pricing_plan_id":"cebpf4jnsgd1na2vs0mg"},{"bike_id":"41c74ae1-4348-47b9-9222-95c1e63f1090","system_id":"levelo_inurba_marseille","lat":43.28183,"lon":5.42578,"is_reserved":false,"is_disabled":false,"rental_uris":{"android":"levelo://app?vid=41c74ae1-4348-47b9-9222-95c1e63f1090","ios":"levelo://app?vid=41c74ae1-4348-47b9-9222-95c1e63f1090"},"vehicle_type_id":"4","last_reported":1768331537,"current_range_meters":4400,"station_id":"","pricing_plan_id":"cebpf4jnsgd1na2vs0mg"},{"bike_id":"066c6ede-2e00-4b82-b8c4-c24bdc063f22","system_id":"levelo_inurba_marseille","lat":43.23842,"lon":5.36647,"is_reserved":false,"is_disabled":false,"rental_uris":{"android":"levelo://app?vid=066c6ede-2e00-4b82-b8c4-c24bdc063f22","ios":"levelo://app?vid=066c6ede-2e00-4b82-b8c4-c24bdc063f22"},"vehicle_type_id":"4","last_reported":1768331537,"current_range_meters":4400,"station_id":"","pricing_plan_id":"cebpf4jnsgd1na2vs0mg"},{"bike_id":"59811c5d-db1a-46dd-b855-9d4e08316fa8","system_id":"levelo_inurba_marseille","lat":43.25824,"lon":5.39434,"is_reserved":false,"is_disabled":false,"rental_uris":{"android":"levelo://app?vid=59811c5d-db1a-46dd-b855-9d4e08316fa8","ios":"levelo://app?vid=59811c5d-db1a-46dd-b855-9d4e08316fa8"},"vehicle_type_id":"4","last_reported":1768331537,"current_range_meters":4400,"station_id":"ce4bhip2rcd13ifvqft0","pricing_plan_id":"cebpf4jnsgd1na2vs0mg"},{"bike_id":"950d71d5-3ed9-4718-a1c0-bc4904b7cb91","system_id":"levelo_inurba_marseille","lat":43.291998,"lon":5.357999,"is_reserved":false,"is_disabled":false,"rental_uris":{"android":"levelo://app?vid=950d71d5-3ed9-4718-a1c0-bc4904b7cb91","ios":"levelo://app?vid=950d71d5-3ed9-4718-a1c0-bc4904b7cb91"},"vehicle_type_id":"4","last_reported":1768331537,"current_range_meters":4400,"station_id":"","pricing_plan_id":"cebpf4jnsgd1na2vs0mg"},{"bike_id":"79b7d26a-b25b-4eba-9216-03c39302c739","system_id":"levelo_inurba_marseille","lat":43.2695,"lon":5.40241,"is_reserved":false,"is_disabled":false,"rental_uris":{"android":"levelo://app?vid=79b7d26a-b25b-4eba-9216-03c39302c739","ios":"levelo://app?vid=79b7d26a-b25b-4eba-9216-03c39302c739"},"vehicle_type_id":"4","last_reported":1768331537,"current_range_meters":4400,"station_id":"cjm6bp8fraef2m0cb0m0","pricing_plan_id":"cebpf4jnsgd1na2vs0mg"},{"bike_id":"9e3f8b43-110a-4683-808c-c8bd643c9f41","system_id":"levelo_inurba_marseille","lat":43.24165,"lon":5.36393,"is_reserved":false,"is_disabled":false,"rental_uris":{"android":"levelo://app?vid=9e3f8b43-110a-4683-808c-c8bd643c9f41","ios":"levelo://app?vid=9e3f8b43-110a-4683-808c-c8bd643c9f41"},"vehicle_type_id":"4","last_reported":1768331537,"current_range_meters":4400,"station_id":"cpo36qri1sfpv3e86is0","pricing_plan_id":"cebpf4jnsgd1na2vs0mg"},{"bike_id":"9a4e2a6a-6610-4bf3-a5fc-3d4b399f9c7d","system_id":"levelo_inurba_marseille","lat":43.28077,"lon":5.39658,"is_reserved":false,"is_disabled":false,"rental_uris":{"android":"levelo://app?vid=9a4e2a6a-6610-4bf3-a5fc-3d4b399f9c7d","ios":"levelo://app?vid=9a4e2a6a-6610-4bf3-a5fc-3d4b399f9c7d"},"vehicle_type_id":"4","last_reported":1768331537,"current_range_meters":4400,"station_id":"ce4bho12rcd13ifvqh2g","pricing_plan_id":"cebpf4jnsgd1na2vs0mg"},{"bike_id":"affed72c-cd8c-45cc-a144-46145cf4b5be","system_id":"levelo_inurba_marseille","lat":43.22564,"lon":5.41624,"is_reserved":false,"is_disabled":false,"rental_uris":{"android":"levelo://app?vid=affed72c-cd8c-45cc-a144-46145cf4b5be","ios":"levelo://app?vid=affed72c-cd8c-45cc-a144-46145cf4b5be"},"vehicle_type_id":"4","last_reported":1768331537,"current_range_meters":4400,"station_id":"st_d2o4gvlbi1j2169b742g","pricing_plan_id":"cebpf4jnsgd1na2vs0mg"},{"bike_id":"e5104f30-0e90-4f22-8c18-b760d2036175","system_id":"levelo_inurba_marseille","lat":43.28405,"lon":5.37519,"is_reserved":false,"is_disabled":false,"rental_uris":{"android":"levelo://app?vid=e5104f30-0e90-4f22-8c18-b760d2036175","ios":"levelo://app?vid=e5104f30-0e90-4f22-8c18-b760d2036175"},"vehicle_type_id":"4","last_reported":1768331537,"current_range_meters":4800,"station_id":"ce4bh412rcd13ifvqds0","pricing_plan_id":"cebpf4jnsgd1na2vs0mg"},{"bike_id":"a2ac3b71-f8e6-43f3-b18f-bd30caa7911d","system_id":"levelo_inurba_marseille","lat":43.286144,"lon":5.39891,"is_reserved":false,"is_disabled":false,"rental_uris":{"android":"levelo://app?vid=a2ac3b71-f8e6-43f3-b18f-bd30caa7911d","ios":"levelo://app?vid=a2ac3b71-f8e6-43f3-b18f-bd30caa7911d"},"vehicle_type_id":"4","last_reported":1768331537,"current_range_meters":4800,"station_id":"st_d4a7ka997mjs738ck50g","pricing_plan_id":"cebpf4jnsgd1na2vs0mg"},{"bike_id":"173e874a-bef3-47f8-8f65-3e423bb125d3","system_id":"levelo_inurba_marseille","lat":43.25928,"lon":5.40932,"is_reserved":false,"is_disabled":false,"rental_uris":{"android":"levelo://app?vid=173e874a-bef3-47f8-8f65-3e423bb125d3","ios":"levelo://app?vid=173e874a-bef3-47f8-8f65-3e423bb125d3"},"vehicle_type_id":"4","last_reported":1768331537,"current_range_meters":4800,"station_id":"ce4bhm92rcd13ifvqglg","pricing_plan_id":"cebpf4jnsgd1na2vs0mg"},{"bike_id":"4e553cbe-a4d1-4afb-8c2d-f76709bb29cc","system_id":"levelo_inurba_marseille","lat":43.2988,"lon":5.38907,"is_reserved":false,"is_disabled":false,"rental_uris":{"android":"levelo://app?vid=4e553cbe-a4d1-4afb-8c2d-f76709bb29cc","ios":"levelo://app?vid=4e553cbe-a4d1-4afb-8c2d-f76709bb29cc"},"vehicle_type_id":"4","last_reported":1768331537,"current_range_meters":4800,"station_id":"ce4bh392rcd13ifvqdl0","pricing_plan_id":"cebpf4jnsgd1na2vs0mg"},{"bike_id":"f34ce2e5-33b6-4187-bd26-bd7acd5eae89","system_id":"levelo_inurba_marseille","lat":43.265503,"lon":5.372891,"is_reserved":false,"is_disabled":false,"rental_uris":{"android":"levelo://app?vid=f34ce2e5-33b6-4187-bd26-bd7acd5eae89","ios":"levelo://app?vid=f34ce2e5-33b6-4187-bd26-bd7acd5eae89"},"vehicle_type_id":"4","last_reported":1768331537,"current_range_meters":4800,"station_id":"ce4bhg12rcd13ifvqf70","pricing_plan_id":"cebpf4jnsgd1na2vs0mg"},{"bike_id":"8a7b85d3-c7d2-4196-b1ab-690364287dcf","system_id":"levelo_inurba_marseille","lat":43.31291,"lon":5.36733,"is_reserved":false,"is_disabled":false,"rental_uris":{"android":"levelo://app?vid=8a7b85d3-c7d2-4196-b1ab-690364287dcf","ios":"levelo://app?vid=8a7b85d3-c7d2-4196-b1ab-690364287dcf"},"vehicle_type_id":"4","last_reported":1768331537,"current_range_meters":4800,"station_id":"","pricing_plan_id":"cebpf4jnsgd1na2vs0mg"},{"bike_id":"aeb672f6-f386-476e-b219-cbbc4a0f1f71","system_id":"levelo_inurba_marseille","lat":43.28479,"lon":5.38419,"is_reserved":false,"is_disabled":false,"rental_uris":{"android":"levelo://app?vid=aeb672f6-f386-476e-b219-cbbc4a0f1f71","ios":"levelo://app?vid=aeb672f6-f386-476e-b219-cbbc4a0f1f71"},"vehicle_type_id":"4","last_reported":1768331537,"current_range_meters":4800,"station_id":"ce4bh512rcd13ifvqe3g","pricing_plan_id":"cebpf4jnsgd1na2vs0mg"},{"bike_id":"4763dffb-4781-44e6-a6eb-0462db44ff27","system_id":"levelo_inurba_marseille","lat":43.31063,"lon":5.37158,"is_reserved":false,"is_disabled":false,"rental_uris":{"android":"levelo://app?vid=4763dffb-4781-44e6-a6eb-0462db44ff27","ios":"levelo://app?vid=4763dffb-4781-44e6-a6eb-0462db44ff27"},"vehicle_type_id":"4","last_reported":1768331537,"current_range_meters":4800,"station_id":"st_d4kl2rp97mjs73e7tdfg","pricing_plan_id":"cebpf4jnsgd1na2vs0mg"},{"bike_id":"c3f40cdd-b686-46d7-8860-c953d0d9d257","system_id":"levelo_inurba_marseille","lat":43.28471,"lon":5.3843,"is_reserved":false,"is_disabled":false,"rental_uris":{"android":"levelo://app?vid=c3f40cdd-b686-46d7-8860-c953d0d9d257","ios":"levelo://app?vid=c3f40cdd-b686-46d7-8860-c953d0d9d257"},"vehicle_type_id":"4","last_reported":1768331537,"current_range_meters":4800,"station_id":"ce4bh512rcd13ifvqe3g","pricing_plan_id":"cebpf4jnsgd1na2vs0mg"},{"bike_id":"6797d9bd-c5fa-4acc-87ad-2a5f95ab8b6e","system_id":"levelo_inurba_marseille","lat":43.28004,"lon":5.39982,"is_reserved":false,"is_disabled":false,"rental_uris":{"android":"levelo://app?vid=6797d9bd-c5fa-4acc-87ad-2a5f95ab8b6e","ios":"levelo://app?vid=6797d9bd-c5fa-4acc-87ad-2a5f95ab8b6e"},"vehicle_type_id":"4","last_reported":1768331537,"current_range_meters":4800,"station_id":"ce4bho92rcd13ifvqh4g","pricing_plan_id":"cebpf4jnsgd1na2vs0mg"},{"bike_id":"3c91a548-2cc3-4705-ab80-5230129be485","system_id":"levelo_inurba_marseille","lat":43.29831,"lon":5.37655,"is_reserved":false,"is_disabled":false,"rental_uris":{"android":"levelo://app?vid=3c91a548-2cc3-4705-ab80-5230129be485","ios":"levelo://app?vid=3c91a548-2cc3-4705-ab80-5230129be485"},"vehicle_type_id":"4","last_reported":1768331537,"current_range_meters":4800,"station_id":"","pricing_plan_id":"cebpf4jnsgd1na2vs0mg"},{"bike_id":"4c171aec-60f9-4710-8657-317b51a39b9e","system_id":"levelo_inurba_marseille","lat":43.32339,"lon":5.36723,"is_reserved":false,"is_disabled":false,"rental_uris":{"android":"levelo://app?vid=4c171aec-60f9-4710-8657-317b51a39b9e","ios":"levelo://app?vid=4c171aec-60f9-4710-8657-317b51a39b9e"},"vehicle_type_id":"4","last_reported":1768331537,"current_range_meters":4800,"station_id":"ce4bhsh2rcd13ifvqi2g","pricing_plan_id":"cebpf4jnsgd1na2vs0mg"},{"bike_id":"46176179-a00d-401c-94b5-1c9d9288d47b","system_id":"levelo_inurba_marseille","lat":43.27367,"lon":5.362452,"is_reserved":false,"is_disabled":false,"rental_uris":{"android":"levelo://app?vid=46176179-a00d-401c-94b5-1c9d9288d47b","ios":"levelo://app?vid=46176179-a00d-401c-94b5-1c9d9288d47b"},"vehicle_type_id":"4","last_reported":1768331537,"current_range_meters":4800,"station_id":"ce4bhbh2rcd13ifvqeo0","pricing_plan_id":"cebpf4jnsgd1na2vs0mg"},{"bike_id":"ba7654d7-92e8-4e9b-a5b9-8f820e72ab5d","system_id":"levelo_inurba_marseille","lat":43.32342,"lon":5.36752,"is_reserved":false,"is_disabled":false,"rental_uris":{"android":"levelo://app?vid=ba7654d7-92e8-4e9b-a5b9-8f820e72ab5d","ios":"levelo://app?vid=ba7654d7-92e8-4e9b-a5b9-8f820e72ab5d"},"vehicle_type_id":"4","last_reported":1768331537,"current_range_meters":5600,"station_id":"ce4bhsh2rcd13ifvqi2g","pricing_plan_id":"cebpf4jnsgd1na2vs0mg"},{"bike_id":"04ec84f1-706e-4524-95a4-7d82b4caa1ab","system_id":"levelo_inurba_marseille","lat":43.29487,"lon":5.43303,"is_reserved":false,"is_disabled":false,"rental_uris":{"android":"levelo://app?vid=04ec84f1-706e-4524-95a4-7d82b4caa1ab","ios":"levelo://app?vid=04ec84f1-706e-4524-95a4-7d82b4caa1ab"},"vehicle_type_id":"4","last_reported":1768331537,"current_range_meters":5600,"station_id":"st_d3j5ugp08ojc73fj9d10","pricing_plan_id":"cebpf4jnsgd1na2vs0mg"},{"bike_id":"2489aec0-fd0a-446c-b4c3-938db1c6a6eb","system_id":"levelo_inurba_marseille","lat":43.26062,"lon":5.39397,"is_reserved":false,"is_disabled":false,"rental_uris":{"android":"levelo://app?vid=2489aec0-fd0a-446c-b4c3-938db1c6a6eb","ios":"levelo://app?vid=2489aec0-fd0a-446c-b4c3-938db1c6a6eb"},"vehicle_type_id":"4","last_reported":1768331537,"current_range_meters":5600,"station_id":"ce4bhh92rcd13ifvqfj0","pricing_plan_id":"cebpf4jnsgd1na2vs0mg"},{"bike_id":"b7892a70-5f83-4107-a2a7-638e77c743b4","system_id":"levelo_inurba_marseille","lat":43.2843,"lon":5.39189,"is_reserved":false,"is_disabled":false,"rental_uris":{"android":"levelo://app?vid=b7892a70-5f83-4107-a2a7-638e77c743b4","ios":"levelo://app?vid=b7892a70-5f83-4107-a2a7-638e77c743b4"},"vehicle_type_id":"4","last_reported":1768331537,"current_range_meters":5600,"station_id":"ce4bhoh2rcd13ifvqh5g","pricing_plan_id":"cebpf4jnsgd1na2vs0mg"},{"bike_id":"abcd74ad-91b3-4bfb-baff-2442ed322096","system_id":"levelo_inurba_marseille","lat":43.315151,"lon":5.380328,"is_reserved":false,"is_disabled":false,"rental_uris":{"android":"levelo://app?vid=abcd74ad-91b3-4bfb-baff-2442ed322096","ios":"levelo://app?vid=abcd74ad-91b3-4bfb-baff-2442ed322096"},"vehicle_type_id":"4","last_reported":1768331537,"current_range_meters":5600,"station_id":"ce4bghh2rcd13ifvqb60","pricing_plan_id":"cebpf4jnsgd1na2vs0mg"},{"bike_id":"5af3242c-9133-4734-9374-77f1f4f62acf","system_id":"levelo_inurba_marseille","lat":43.24159,"lon":5.36403,"is_reserved":false,"is_disabled":false,"rental_uris":{"android":"levelo://app?vid=5af3242c-9133-4734-9374-77f1f4f62acf","ios":"levelo://app?vid=5af3242c-9133-4734-9374-77f1f4f62acf"},"vehicle_type_id":"4","last_reported":1768331537,"current_range_meters":5600,"station_id":"cpo36qri1sfpv3e86is0","pricing_plan_id":"cebpf4jnsgd1na2vs0mg"},{"bike_id":"dedc092e-5a64-44c2-8d92-91df13a8a88e","system_id":"levelo_inurba_marseille","lat":43.278089,"lon":5.407156,"is_reserved":false,"is_disabled":false,"rental_uris":{"android":"levelo://app?vid=dedc092e-5a64-44c2-8d92-91df13a8a88e","ios":"levelo://app?vid=dedc092e-5a64-44c2-8d92-91df13a8a88e"},"vehicle_type_id":"4","last_reported":1768331537,"current_range_meters":5600,"station_id":"ce4bhnh2rcd13ifvqgtg","pricing_plan_id":"cebpf4jnsgd1na2vs0mg"},{"bike_id":"f860c8b8-497b-43f2-a98f-2f283c2531e1","system_id":"levelo_inurba_marseille","lat":43.28417,"lon":5.37515,"is_reserved":false,"is_disabled":false,"rental_uris":{"android":"levelo://app?vid=f860c8b8-497b-43f2-a98f-2f283c2531e1","ios":"levelo://app?vid=f860c8b8-497b-43f2-a98f-2f283c2531e1"},"vehicle_type_id":"4","last_reported":1768331537,"current_range_meters":5600,"station_id":"ce4bh412rcd13ifvqds0","pricing_plan_id":"cebpf4jnsgd1na2vs0mg"},{"bike_id":"f5d19579-dfd3-4245-9a3c-40f0995461f4","system_id":"levelo_inurba_marseille","lat":43.31991,"lon":5.36564,"is_reserved":false,"is_disabled":false,"rental_uris":{"android":"levelo://app?vid=f5d19579-dfd3-4245-9a3c-40f0995461f4","ios":"levelo://app?vid=f5d19579-dfd3-4245-9a3c-40f0995461f4"},"vehicle_type_id":"4","last_reported":1768331537,"current_range_meters":5600,"station_id":"","pricing_plan_id":"cebpf4jnsgd1na2vs0mg"},{"bike_id":"bf1ed8ba-261f-4b27-99bf-e883bc0fd445","system_id":"levelo_inurba_marseille","lat":43.2533,"lon":5.42167,"is_reserved":false,"is_disabled":false,"rental_uris":{"android":"levelo://app?vid=bf1ed8ba-261f-4b27-99bf-e883bc0fd445","ios":"levelo://app?vid=bf1ed8ba-261f-4b27-99bf-e883bc0fd445"},"vehicle_type_id":"4","last_reported":1768331537,"current_range_meters":5600,"station_id":"st_d2m65c5bi1j21697t3ng","pricing_plan_id":"cebpf4jnsgd1na2vs0mg"},{"bike_id":"5f559d1c-e9b8-4811-89ed-fd4590972019","system_id":"levelo_inurba_marseille","lat":43.2884,"lon":5.35841,"is_reserved":false,"is_disabled":false,"rental_uris":{"android":"levelo://app?vid=5f559d1c-e9b8-4811-89ed-fd4590972019","ios":"levelo://app?vid=5f559d1c-e9b8-4811-89ed-fd4590972019"},"vehicle_type_id":"4","last_reported":1768331537,"current_range_meters":5600,"station_id":"ce4bhb12rcd13ifvqem0","pricing_plan_id":"cebpf4jnsgd1na2vs0mg"},{"bike_id":"a0ffd216-f3e6-4a47-8965-98b2dc3c3d76","system_id":"levelo_inurba_marseille","lat":43.2447,"lon":5.42527,"is_reserved":false,"is_disabled":false,"rental_uris":{"android":"levelo://app?vid=a0ffd216-f3e6-4a47-8965-98b2dc3c3d76","ios":"levelo://app?vid=a0ffd216-f3e6-4a47-8965-98b2dc3c3d76"},"vehicle_type_id":"4","last_reported":1768331537,"current_range_meters":5600,"station_id":"st_d4a3vfp97mjs738cd8kg","pricing_plan_id":"cebpf4jnsgd1na2vs0mg"},{"bike_id":"aa568904-72f1-4bc8-8b86-38b3e31e8f62","system_id":"levelo_inurba_marseille","lat":43.26934,"lon":5.39332,"is_reserved":false,"is_disabled":false,"rental_uris":{"android":"levelo://app?vid=aa568904-72f1-4bc8-8b86-38b3e31e8f62","ios":"levelo://app?vid=aa568904-72f1-4bc8-8b86-38b3e31e8f62"},"vehicle_type_id":"4","last_reported":1768331537,"current_range_meters":5600,"station_id":"","pricing_plan_id":"cebpf4jnsgd1na2vs0mg"},{"bike_id":"f7edb647-926c-4dfc-a318-e14c8ce272fc","system_id":"levelo_inurba_marseille","lat":43.30537,"lon":5.36551,"is_reserved":false,"is_disabled":false,"rental_uris":{"android":"levelo://app?vid=f7edb647-926c-4dfc-a318-e14c8ce272fc","ios":"levelo://app?vid=f7edb647-926c-4dfc-a318-e14c8ce272fc"},"vehicle_type_id":"4","last_reported":1768331537,"current_range_meters":5600,"station_id":"ce4bgs12rcd13ifvqcag","pricing_plan_id":"cebpf4jnsgd1na2vs0mg"},{"bike_id":"5d372153-d9ee-45f9-a6e9-ceecf5405f52","system_id":"levelo_inurba_marseille","lat":43.30315,"lon":5.40425,"is_reserved":false,"is_disabled":false,"rental_uris":{"android":"levelo://app?vid=5d372153-d9ee-45f9-a6e9-ceecf5405f52","ios":"levelo://app?vid=5d372153-d9ee-45f9-a6e9-ceecf5405f52"},"vehicle_type_id":"4","last_reported":1768331537,"current_range_meters":5600,"station_id":"ce4bh012rcd13ifvqd10","pricing_plan_id":"cebpf4jnsgd1na2vs0mg"},{"bike_id":"383b2479-4503-401f-93ed-feb22cd6912e","system_id":"levelo_inurba_marseille","lat":43.24166,"lon":5.36373,"is_reserved":false,"is_disabled":false,"rental_uris":{"android":"levelo://app?vid=383b2479-4503-401f-93ed-feb22cd6912e","ios":"levelo://app?vid=383b2479-4503-401f-93ed-feb22cd6912e"},"vehicle_type_id":"4","last_reported":1768331537,"current_range_meters":5600,"station_id":"cpo36qri1sfpv3e86is0","pricing_plan_id":"cebpf4jnsgd1na2vs0mg"},{"bike_id":"b0591438-4f8b-458b-95d3-396e832bb098","system_id":"levelo_inurba_marseille","lat":43.2255,"lon":5.41627,"is_reserved":false,"is_disabled":false,"rental_uris":{"android":"levelo://app?vid=b0591438-4f8b-458b-95d3-396e832bb098","ios":"levelo://app?vid=b0591438-4f8b-458b-95d3-396e832bb098"},"vehicle_type_id":"4","last_reported":1768331537,"current_range_meters":5600,"station_id":"st_d2o4gvlbi1j2169b742g","pricing_plan_id":"cebpf4jnsgd1na2vs0mg"},{"bike_id":"4c68eacc-2d63-41f4-bcd0-18cc9a25ae57","system_id":"levelo_inurba_marseille","lat":43.24169,"lon":5.363987,"is_reserved":false,"is_disabled":false,"rental_uris":{"android":"levelo://app?vid=4c68eacc-2d63-41f4-bcd0-18cc9a25ae57","ios":"levelo://app?vid=4c68eacc-2d63-41f4-bcd0-18cc9a25ae57"},"vehicle_type_id":"4","last_reported":1768331537,"current_range_meters":5600,"station_id":"cpo36qri1sfpv3e86is0","pricing_plan_id":"cebpf4jnsgd1na2vs0mg"},{"bike_id":"678fcd46-6e03-4316-a0cb-9536a3aed6d6","system_id":"levelo_inurba_marseille","lat":43.28137,"lon":5.38328,"is_reserved":false,"is_disabled":false,"rental_uris":{"android":"levelo://app?vid=678fcd46-6e03-4316-a0cb-9536a3aed6d6","ios":"levelo://app?vid=678fcd46-6e03-4316-a0cb-9536a3aed6d6"},"vehicle_type_id":"4","last_reported":1768331537,"current_range_meters":5600,"station_id":"","pricing_plan_id":"cebpf4jnsgd1na2vs0mg"},{"bike_id":"e81eb905-09b1-4753-bb4f-8434dc51b91d","system_id":"levelo_inurba_marseille","lat":43.26942,"lon":5.40281,"is_reserved":false,"is_disabled":false,"rental_uris":{"android":"levelo://app?vid=e81eb905-09b1-4753-bb4f-8434dc51b91d","ios":"levelo://app?vid=e81eb905-09b1-4753-bb4f-8434dc51b91d"},"vehicle_type_id":"4","last_reported":1768331537,"current_range_meters":6000,"station_id":"cjm6bp8fraef2m0cb0m0","pricing_plan_id":"cebpf4jnsgd1na2vs0mg"},{"bike_id":"48395e8e-6aaf-45af-8e4f-2e84f998f576","system_id":"levelo_inurba_marseille","lat":43.31578,"lon":5.38348,"is_reserved":false,"is_disabled":false,"rental_uris":{"android":"levelo://app?vid=48395e8e-6aaf-45af-8e4f-2e84f998f576","ios":"levelo://app?vid=48395e8e-6aaf-45af-8e4f-2e84f998f576"},"vehicle_type_id":"4","last_reported":1768331537,"current_range_meters":6000,"station_id":"","pricing_plan_id":"cebpf4jnsgd1na2vs0mg"},{"bike_id":"147865ef-1155-45ce-ae51-8f85491f108a","system_id":"levelo_inurba_marseille","lat":43.29261,"lon":5.38444,"is_reserved":false,"is_disabled":false,"rental_uris":{"android":"levelo://app?vid=147865ef-1155-45ce-ae51-8f85491f108a","ios":"levelo://app?vid=147865ef-1155-45ce-ae51-8f85491f108a"},"vehicle_type_id":"4","last_reported":1768331537,"current_range_meters":6000,"station_id":"ce4bh692rcd13ifvqea0","pricing_plan_id":"cebpf4jnsgd1na2vs0mg"},{"bike_id":"91dbe188-56c8-4fce-a414-d6e43ed9eb6b","system_id":"levelo_inurba_marseille","lat":43.26694,"lon":5.39943,"is_reserved":false,"is_disabled":false,"rental_uris":{"android":"levelo://app?vid=91dbe188-56c8-4fce-a414-d6e43ed9eb6b","ios":"levelo://app?vid=91dbe188-56c8-4fce-a414-d6e43ed9eb6b"},"vehicle_type_id":"4","last_reported":1768331537,"current_range_meters":6000,"station_id":"","pricing_plan_id":"cebpf4jnsgd1na2vs0mg"},{"bike_id":"b4b65525-457d-4cc8-bed5-4ff172f49a91","system_id":"levelo_inurba_marseille","lat":43.28073,"lon":5.39657,"is_reserved":false,"is_disabled":false,"rental_uris":{"android":"levelo://app?vid=b4b65525-457d-4cc8-bed5-4ff172f49a91","ios":"levelo://app?vid=b4b65525-457d-4cc8-bed5-4ff172f49a91"},"vehicle_type_id":"4","last_reported":1768331537,"current_range_meters":6000,"station_id":"ce4bho12rcd13ifvqh2g","pricing_plan_id":"cebpf4jnsgd1na2vs0mg"},{"bike_id":"0284b4e1-c008-42c9-b5fe-7d24b17cf8bc","system_id":"levelo_inurba_marseille","lat":43.27994,"lon":5.40011,"is_reserved":false,"is_disabled":false,"rental_uris":{"android":"levelo://app?vid=0284b4e1-c008-42c9-b5fe-7d24b17cf8bc","ios":"levelo://app?vid=0284b4e1-c008-42c9-b5fe-7d24b17cf8bc"},"vehicle_type_id":"4","last_reported":1768331537,"current_range_meters":6000,"station_id":"ce4bho92rcd13ifvqh4g","pricing_plan_id":"cebpf4jnsgd1na2vs0mg"},{"bike_id":"479d04b3-091e-4637-ab2f-f901b6f36a36","system_id":"levelo_inurba_marseille","lat":43.24163,"lon":5.36412,"is_reserved":false,"is_disabled":false,"rental_uris":{"android":"levelo://app?vid=479d04b3-091e-4637-ab2f-f901b6f36a36","ios":"levelo://app?vid=479d04b3-091e-4637-ab2f-f901b6f36a36"},"vehicle_type_id":"4","last_reported":1768331537,"current_range_meters":6000,"station_id":"cpo36qri1sfpv3e86is0","pricing_plan_id":"cebpf4jnsgd1na2vs0mg"},{"bike_id":"ea2b81e6-2612-493f-a38b-dfac28575580","system_id":"levelo_inurba_marseille","lat":43.29525,"lon":5.38533,"is_reserved":false,"is_disabled":false,"rental_uris":{"android":"levelo://app?vid=ea2b81e6-2612-493f-a38b-dfac28575580","ios":"levelo://app?vid=ea2b81e6-2612-493f-a38b-dfac28575580"},"vehicle_type_id":"4","last_reported":1768331537,"current_range_meters":6000,"station_id":"ce4bgih2rcd13ifvqba0","pricing_plan_id":"cebpf4jnsgd1na2vs0mg"},{"bike_id":"00ecf178-30a7-43b8-9a77-5308a08cf29e","system_id":"levelo_inurba_marseille","lat":43.24942,"lon":5.40499,"is_reserved":false,"is_disabled":false,"rental_uris":{"android":"levelo://app?vid=00ecf178-30a7-43b8-9a77-5308a08cf29e","ios":"levelo://app?vid=00ecf178-30a7-43b8-9a77-5308a08cf29e"},"vehicle_type_id":"4","last_reported":1768331537,"current_range_meters":6000,"station_id":"st_d2ngiaodas8pm72gd1h0","pricing_plan_id":"cebpf4jnsgd1na2vs0mg"},{"bike_id":"6f340d65-8a96-4245-a37f-c84a4e9a1d07","system_id":"levelo_inurba_marseille","lat":43.32366,"lon":5.36772,"is_reserved":false,"is_disabled":false,"rental_uris":{"android":"levelo://app?vid=6f340d65-8a96-4245-a37f-c84a4e9a1d07","ios":"levelo://app?vid=6f340d65-8a96-4245-a37f-c84a4e9a1d07"},"vehicle_type_id":"4","last_reported":1768331537,"current_range_meters":6000,"station_id":"ce4bhsh2rcd13ifvqi2g","pricing_plan_id":"cebpf4jnsgd1na2vs0mg"},{"bike_id":"35849305-954b-4864-bd14-c9f086ede345","system_id":"levelo_inurba_marseille","lat":43.282683,"lon":5.350497,"is_reserved":false,"is_disabled":false,"rental_uris":{"android":"levelo://app?vid=35849305-954b-4864-bd14-c9f086ede345","ios":"levelo://app?vid=35849305-954b-4864-bd14-c9f086ede345"},"vehicle_type_id":"4","last_reported":1768331537,"current_range_meters":6000,"station_id":"ce4bhbp2rcd13ifvqerg","pricing_plan_id":"cebpf4jnsgd1na2vs0mg"},{"bike_id":"3baba2c0-4f24-4a38-b8ab-5c34d0caf874","system_id":"levelo_inurba_marseille","lat":43.30886,"lon":5.39646,"is_reserved":false,"is_disabled":false,"rental_uris":{"android":"levelo://app?vid=3baba2c0-4f24-4a38-b8ab-5c34d0caf874","ios":"levelo://app?vid=3baba2c0-4f24-4a38-b8ab-5c34d0caf874"},"vehicle_type_id":"4","last_reported":1768331537,"current_range_meters":6000,"station_id":"ce4bh012rcd13ifvqcv0","pricing_plan_id":"cebpf4jnsgd1na2vs0mg"},{"bike_id":"bee2231a-aedd-4f8a-ae11-883f123d575e","system_id":"levelo_inurba_marseille","lat":43.31221,"lon":5.38168,"is_reserved":false,"is_disabled":false,"rental_uris":{"android":"levelo://app?vid=bee2231a-aedd-4f8a-ae11-883f123d575e","ios":"levelo://app?vid=bee2231a-aedd-4f8a-ae11-883f123d575e"},"vehicle_type_id":"4","last_reported":1768331537,"current_range_meters":6000,"station_id":"","pricing_plan_id":"cebpf4jnsgd1na2vs0mg"},{"bike_id":"a2d976b2-4930-45bf-896b-10cb61922490","system_id":"levelo_inurba_marseille","lat":43.231908,"lon":5.355602,"is_reserved":false,"is_disabled":false,"rental_uris":{"android":"levelo://app?vid=a2d976b2-4930-45bf-896b-10cb61922490","ios":"levelo://app?vid=a2d976b2-4930-45bf-896b-10cb61922490"},"vehicle_type_id":"4","last_reported":1768331537,"current_range_meters":6000,"station_id":"ce4bhu92rcd13ifvqi70","pricing_plan_id":"cebpf4jnsgd1na2vs0mg"},{"bike_id":"e2178e60-43ce-428a-92df-da6b04879e3a","system_id":"levelo_inurba_marseille","lat":43.299612,"lon":5.384737,"is_reserved":false,"is_disabled":false,"rental_uris":{"android":"levelo://app?vid=e2178e60-43ce-428a-92df-da6b04879e3a","ios":"levelo://app?vid=e2178e60-43ce-428a-92df-da6b04879e3a"},"vehicle_type_id":"4","last_reported":1768331537,"current_range_meters":6400,"station_id":"","pricing_plan_id":"cebpf4jnsgd1na2vs0mg"},{"bike_id":"9af6439d-78fa-4b0d-a1a0-dc05ff49244a","system_id":"levelo_inurba_marseille","lat":43.23792,"lon":5.36606,"is_reserved":false,"is_disabled":false,"rental_uris":{"android":"levelo://app?vid=9af6439d-78fa-4b0d-a1a0-dc05ff49244a","ios":"levelo://app?vid=9af6439d-78fa-4b0d-a1a0-dc05ff49244a"},"vehicle_type_id":"4","last_reported":1768331537,"current_range_meters":6400,"station_id":"st_d3nk18o9ro0c73en2l3g","pricing_plan_id":"cebpf4jnsgd1na2vs0mg"},{"bike_id":"3db0fcf7-9abc-4be1-b3b7-ce569865437a","system_id":"levelo_inurba_marseille","lat":43.24951,"lon":5.40487,"is_reserved":false,"is_disabled":false,"rental_uris":{"android":"levelo://app?vid=3db0fcf7-9abc-4be1-b3b7-ce569865437a","ios":"levelo://app?vid=3db0fcf7-9abc-4be1-b3b7-ce569865437a"},"vehicle_type_id":"4","last_reported":1768331537,"current_range_meters":6400,"station_id":"st_d2ngiaodas8pm72gd1h0","pricing_plan_id":"cebpf4jnsgd1na2vs0mg"},{"bike_id":"674485da-6375-4a1e-850b-d935815daaad","system_id":"levelo_inurba_marseille","lat":43.23778,"lon":5.36637,"is_reserved":false,"is_disabled":false,"rental_uris":{"android":"levelo://app?vid=674485da-6375-4a1e-850b-d935815daaad","ios":"levelo://app?vid=674485da-6375-4a1e-850b-d935815daaad"},"vehicle_type_id":"4","last_reported":1768331537,"current_range_meters":6400,"station_id":"st_d3nk18o9ro0c73en2l3g","pricing_plan_id":"cebpf4jnsgd1na2vs0mg"},{"bike_id":"08dfb275-c36f-4c4d-8c62-4ebc79c6539a","system_id":"levelo_inurba_marseille","lat":43.292644,"lon":5.384484,"is_reserved":false,"is_disabled":false,"rental_uris":{"android":"levelo://app?vid=08dfb275-c36f-4c4d-8c62-4ebc79c6539a","ios":"levelo://app?vid=08dfb275-c36f-4c4d-8c62-4ebc79c6539a"},"vehicle_type_id":"4","last_reported":1768331537,"current_range_meters":6400,"station_id":"ce4bh692rcd13ifvqea0","pricing_plan_id":"cebpf4jnsgd1na2vs0mg"},{"bike_id":"34809879-5c78-46b9-8640-8f0f333de3ff","system_id":"levelo_inurba_marseille","lat":43.23184,"lon":5.39983,"is_reserved":false,"is_disabled":false,"rental_uris":{"android":"levelo://app?vid=34809879-5c78-46b9-8640-8f0f333de3ff","ios":"levelo://app?vid=34809879-5c78-46b9-8640-8f0f333de3ff"},"vehicle_type_id":"4","last_reported":1768331537,"current_range_meters":6400,"station_id":"ce4bhn12rcd13ifvqgqg","pricing_plan_id":"cebpf4jnsgd1na2vs0mg"},{"bike_id":"35361d4e-38f0-417d-a5fe-17895b791255","system_id":"levelo_inurba_marseille","lat":43.28018,"lon":5.39986,"is_reserved":false,"is_disabled":false,"rental_uris":{"android":"levelo://app?vid=35361d4e-38f0-417d-a5fe-17895b791255","ios":"levelo://app?vid=35361d4e-38f0-417d-a5fe-17895b791255"},"vehicle_type_id":"4","last_reported":1768331537,"current_range_meters":6400,"station_id":"ce4bho92rcd13ifvqh4g","pricing_plan_id":"cebpf4jnsgd1na2vs0mg"},{"bike_id":"b7f4c54f-f481-4643-9c7b-e12e55533981","system_id":"levelo_inurba_marseille","lat":43.28418,"lon":5.37512,"is_reserved":false,"is_disabled":false,"rental_uris":{"android":"levelo://app?vid=b7f4c54f-f481-4643-9c7b-e12e55533981","ios":"levelo://app?vid=b7f4c54f-f481-4643-9c7b-e12e55533981"},"vehicle_type_id":"4","last_reported":1768331537,"current_range_meters":6400,"station_id":"ce4bh412rcd13ifvqds0","pricing_plan_id":"cebpf4jnsgd1na2vs0mg"},{"bike_id":"6a518ecf-1e72-44e7-934c-94c2035cacf1","system_id":"levelo_inurba_marseille","lat":43.28488,"lon":5.3842,"is_reserved":false,"is_disabled":false,"rental_uris":{"android":"levelo://app?vid=6a518ecf-1e72-44e7-934c-94c2035cacf1","ios":"levelo://app?vid=6a518ecf-1e72-44e7-934c-94c2035cacf1"},"vehicle_type_id":"4","last_reported":1768331537,"current_range_meters":6400,"station_id":"ce4bh512rcd13ifvqe3g","pricing_plan_id":"cebpf4jnsgd1na2vs0mg"},{"bike_id":"35530280-dc8b-4bef-9856-1af1aa6c057e","system_id":"levelo_inurba_marseille","lat":43.28359,"lon":5.38632,"is_reserved":false,"is_disabled":false,"rental_uris":{"android":"levelo://app?vid=35530280-dc8b-4bef-9856-1af1aa6c057e","ios":"levelo://app?vid=35530280-dc8b-4bef-9856-1af1aa6c057e"},"vehicle_type_id":"4","last_reported":1768331537,"current_range_meters":6400,"station_id":"ce4bh492rcd13ifvqdvg","pricing_plan_id":"cebpf4jnsgd1na2vs0mg"},{"bike_id":"16c7b47c-1eab-4239-bccd-3bf24c17b031","system_id":"levelo_inurba_marseille","lat":43.29276,"lon":5.38435,"is_reserved":false,"is_disabled":false,"rental_uris":{"android":"levelo://app?vid=16c7b47c-1eab-4239-bccd-3bf24c17b031","ios":"levelo://app?vid=16c7b47c-1eab-4239-bccd-3bf24c17b031"},"vehicle_type_id":"4","last_reported":1768331537,"current_range_meters":6400,"station_id":"ce4bh692rcd13ifvqea0","pricing_plan_id":"cebpf4jnsgd1na2vs0mg"},{"bike_id":"36406dc4-d4db-42ea-9e54-90825aaf3b0b","system_id":"levelo_inurba_marseille","lat":43.25312,"lon":5.42144,"is_reserved":false,"is_disabled":false,"rental_uris":{"android":"levelo://app?vid=36406dc4-d4db-42ea-9e54-90825aaf3b0b","ios":"levelo://app?vid=36406dc4-d4db-42ea-9e54-90825aaf3b0b"},"vehicle_type_id":"4","last_reported":1768331537,"current_range_meters":6400,"station_id":"st_d2m65c5bi1j21697t3ng","pricing_plan_id":"cebpf4jnsgd1na2vs0mg"},{"bike_id":"cb7af7b5-a138-4db4-a330-74ad640aa6ec","system_id":"levelo_inurba_marseille","lat":43.27814,"lon":5.40706,"is_reserved":false,"is_disabled":false,"rental_uris":{"android":"levelo://app?vid=cb7af7b5-a138-4db4-a330-74ad640aa6ec","ios":"levelo://app?vid=cb7af7b5-a138-4db4-a330-74ad640aa6ec"},"vehicle_type_id":"4","last_reported":1768331537,"current_range_meters":6400,"station_id":"ce4bhnh2rcd13ifvqgtg","pricing_plan_id":"cebpf4jnsgd1na2vs0mg"},{"bike_id":"435db267-3d15-44f5-8420-37d50b585844","system_id":"levelo_inurba_marseille","lat":43.29694,"lon":5.37269,"is_reserved":false,"is_disabled":false,"rental_uris":{"android":"levelo://app?vid=435db267-3d15-44f5-8420-37d50b585844","ios":"levelo://app?vid=435db267-3d15-44f5-8420-37d50b585844"},"vehicle_type_id":"4","last_reported":1768331537,"current_range_meters":6400,"station_id":"ce4bgk12rcd13ifvqbj0","pricing_plan_id":"cebpf4jnsgd1na2vs0mg"},{"bike_id":"4027d1cb-ad1c-45a8-bf1d-57fe43f8c304","system_id":"levelo_inurba_marseille","lat":43.28983,"lon":5.39043,"is_reserved":false,"is_disabled":false,"rental_uris":{"android":"levelo://app?vid=4027d1cb-ad1c-45a8-bf1d-57fe43f8c304","ios":"levelo://app?vid=4027d1cb-ad1c-45a8-bf1d-57fe43f8c304"},"vehicle_type_id":"4","last_reported":1768331537,"current_range_meters":6400,"station_id":"","pricing_plan_id":"cebpf4jnsgd1na2vs0mg"},{"bike_id":"d97e0ede-3940-40ea-9e91-339dcd403227","system_id":"levelo_inurba_marseille","lat":43.25712,"lon":5.41142,"is_reserved":false,"is_disabled":false,"rental_uris":{"android":"levelo://app?vid=d97e0ede-3940-40ea-9e91-339dcd403227","ios":"levelo://app?vid=d97e0ede-3940-40ea-9e91-339dcd403227"},"vehicle_type_id":"4","last_reported":1768331537,"current_range_meters":6400,"station_id":"ce4bhkp2rcd13ifvqgd0","pricing_plan_id":"cebpf4jnsgd1na2vs0mg"},{"bike_id":"b18ac3c9-14e5-4efa-9da9-02ee070d0040","system_id":"levelo_inurba_marseille","lat":43.30876,"lon":5.39646,"is_reserved":false,"is_disabled":false,"rental_uris":{"android":"levelo://app?vid=b18ac3c9-14e5-4efa-9da9-02ee070d0040","ios":"levelo://app?vid=b18ac3c9-14e5-4efa-9da9-02ee070d0040"},"vehicle_type_id":"4","last_reported":1768331537,"current_range_meters":6400,"station_id":"ce4bh012rcd13ifvqcv0","pricing_plan_id":"cebpf4jnsgd1na2vs0mg"},{"bike_id":"f44e7fc0-57ad-4c5c-87c8-d57ce9d37a8a","system_id":"levelo_inurba_marseille","lat":43.261903,"lon":5.374505,"is_reserved":false,"is_disabled":false,"rental_uris":{"android":"levelo://app?vid=f44e7fc0-57ad-4c5c-87c8-d57ce9d37a8a","ios":"levelo://app?vid=f44e7fc0-57ad-4c5c-87c8-d57ce9d37a8a"},"vehicle_type_id":"4","last_reported":1768331537,"current_range_meters":6400,"station_id":"ce4bhgp2rcd13ifvqfc0","pricing_plan_id":"cebpf4jnsgd1na2vs0mg"},{"bike_id":"0c4529d2-9a4f-4a24-adad-ec9494efd665","system_id":"levelo_inurba_marseille","lat":43.29755,"lon":5.42773,"is_reserved":false,"is_disabled":false,"rental_uris":{"android":"levelo://app?vid=0c4529d2-9a4f-4a24-adad-ec9494efd665","ios":"levelo://app?vid=0c4529d2-9a4f-4a24-adad-ec9494efd665"},"vehicle_type_id":"4","last_reported":1768331537,"current_range_meters":6800,"station_id":"st_d3md5207bmas73dh9klg","pricing_plan_id":"cebpf4jnsgd1na2vs0mg"},{"bike_id":"55babbbe-89a8-4f92-96cf-6569fc3f4c24","system_id":"levelo_inurba_marseille","lat":43.24386,"lon":5.37046,"is_reserved":false,"is_disabled":false,"rental_uris":{"android":"levelo://app?vid=55babbbe-89a8-4f92-96cf-6569fc3f4c24","ios":"levelo://app?vid=55babbbe-89a8-4f92-96cf-6569fc3f4c24"},"vehicle_type_id":"4","last_reported":1768331537,"current_range_meters":6800,"station_id":"ce4bhhh2rcd13ifvqfk0","pricing_plan_id":"cebpf4jnsgd1na2vs0mg"},{"bike_id":"b9b504ae-ca0f-4e8e-add1-340bb9bdcf7b","system_id":"levelo_inurba_marseille","lat":43.2798,"lon":5.40039,"is_reserved":false,"is_disabled":false,"rental_uris":{"android":"levelo://app?vid=b9b504ae-ca0f-4e8e-add1-340bb9bdcf7b","ios":"levelo://app?vid=b9b504ae-ca0f-4e8e-add1-340bb9bdcf7b"},"vehicle_type_id":"4","last_reported":1768331537,"current_range_meters":6800,"station_id":"ce4bho92rcd13ifvqh4g","pricing_plan_id":"cebpf4jnsgd1na2vs0mg"},{"bike_id":"7aebede3-29e7-422e-9949-e6406848b636","system_id":"levelo_inurba_marseille","lat":43.25103,"lon":5.40326,"is_reserved":false,"is_disabled":false,"rental_uris":{"android":"levelo://app?vid=7aebede3-29e7-422e-9949-e6406848b636","ios":"levelo://app?vid=7aebede3-29e7-422e-9949-e6406848b636"},"vehicle_type_id":"4","last_reported":1768331537,"current_range_meters":6800,"station_id":"ce4bhlh2rcd13ifvqgig","pricing_plan_id":"cebpf4jnsgd1na2vs0mg"},{"bike_id":"0ca727f1-22a9-4d29-b4b0-403b274e760f","system_id":"levelo_inurba_marseille","lat":43.29093,"lon":5.39862,"is_reserved":false,"is_disabled":false,"rental_uris":{"android":"levelo://app?vid=0ca727f1-22a9-4d29-b4b0-403b274e760f","ios":"levelo://app?vid=0ca727f1-22a9-4d29-b4b0-403b274e760f"},"vehicle_type_id":"4","last_reported":1768331537,"current_range_meters":6800,"station_id":"","pricing_plan_id":"cebpf4jnsgd1na2vs0mg"},{"bike_id":"ffcf206e-2a6e-4fc2-8998-7e22064b3e4e","system_id":"levelo_inurba_marseille","lat":43.295294,"lon":5.385488,"is_reserved":false,"is_disabled":false,"rental_uris":{"android":"levelo://app?vid=ffcf206e-2a6e-4fc2-8998-7e22064b3e4e","ios":"levelo://app?vid=ffcf206e-2a6e-4fc2-8998-7e22064b3e4e"},"vehicle_type_id":"4","last_reported":1768331537,"current_range_meters":6800,"station_id":"ce4bgih2rcd13ifvqba0","pricing_plan_id":"cebpf4jnsgd1na2vs0mg"},{"bike_id":"941e813b-e02b-40b3-ae8f-a703ceabdb30","system_id":"levelo_inurba_marseille","lat":43.27754,"lon":5.38872,"is_reserved":false,"is_disabled":false,"rental_uris":{"android":"levelo://app?vid=941e813b-e02b-40b3-ae8f-a703ceabdb30","ios":"levelo://app?vid=941e813b-e02b-40b3-ae8f-a703ceabdb30"},"vehicle_type_id":"4","last_reported":1768331537,"current_range_meters":6800,"station_id":"","pricing_plan_id":"cebpf4jnsgd1na2vs0mg"},{"bike_id":"da31b8c0-f03e-4839-bbe5-c97cf087cea4","system_id":"levelo_inurba_marseille","lat":43.27687,"lon":5.38895,"is_reserved":false,"is_disabled":false,"rental_uris":{"android":"levelo://app?vid=da31b8c0-f03e-4839-bbe5-c97cf087cea4","ios":"levelo://app?vid=da31b8c0-f03e-4839-bbe5-c97cf087cea4"},"vehicle_type_id":"4","last_reported":1768331537,"current_range_meters":6800,"station_id":"ce4bhi12rcd13ifvqfo0","pricing_plan_id":"cebpf4jnsgd1na2vs0mg"},{"bike_id":"cafe9508-7db5-496a-a0cd-bcd349231be5","system_id":"levelo_inurba_marseille","lat":43.25513,"lon":5.37646,"is_reserved":false,"is_disabled":false,"rental_uris":{"android":"levelo://app?vid=cafe9508-7db5-496a-a0cd-bcd349231be5","ios":"levelo://app?vid=cafe9508-7db5-496a-a0cd-bcd349231be5"},"vehicle_type_id":"4","last_reported":1768331537,"current_range_meters":6800,"station_id":"ce4bhh12rcd13ifvqff0","pricing_plan_id":"cebpf4jnsgd1na2vs0mg"},{"bike_id":"6688a629-7822-4dde-a1b1-aa24df94d1e6","system_id":"levelo_inurba_marseille","lat":43.313624,"lon":5.366991,"is_reserved":false,"is_disabled":true,"rental_uris":{"android":"levelo://app?vid=6688a629-7822-4dde-a1b1-aa24df94d1e6","ios":"levelo://app?vid=6688a629-7822-4dde-a1b1-aa24df94d1e6"},"vehicle_type_id":"4","last_reported":1768331537,"current_range_meters":6800,"station_id":"ce4bgr92rcd13ifvqc6g","pricing_plan_id":"cebpf4jnsgd1na2vs0mg"},{"bike_id":"af70d5d8-cc8e-41b6-9eb9-8713fe60ffd1","system_id":"levelo_inurba_marseille","lat":43.249958,"lon":5.389355,"is_reserved":false,"is_disabled":false,"rental_uris":{"android":"levelo://app?vid=af70d5d8-cc8e-41b6-9eb9-8713fe60ffd1","ios":"levelo://app?vid=af70d5d8-cc8e-41b6-9eb9-8713fe60ffd1"},"vehicle_type_id":"4","last_reported":1768331537,"current_range_meters":6800,"station_id":"ce4bhgp2rcd13ifvqfd0","pricing_plan_id":"cebpf4jnsgd1na2vs0mg"},{"bike_id":"b945bd28-a3b4-4961-a0bf-743fe57cc1a5","system_id":"levelo_inurba_marseille","lat":43.29897,"lon":5.43669,"is_reserved":false,"is_disabled":false,"rental_uris":{"android":"levelo://app?vid=b945bd28-a3b4-4961-a0bf-743fe57cc1a5","ios":"levelo://app?vid=b945bd28-a3b4-4961-a0bf-743fe57cc1a5"},"vehicle_type_id":"4","last_reported":1768331537,"current_range_meters":6800,"station_id":"ce4bhpp2rcd13ifvqhfg","pricing_plan_id":"cebpf4jnsgd1na2vs0mg"},{"bike_id":"237139e5-7cf5-40f4-8479-c845f3ba6a43","system_id":"levelo_inurba_marseille","lat":43.29475,"lon":5.38634,"is_reserved":false,"is_disabled":false,"rental_uris":{"android":"levelo://app?vid=237139e5-7cf5-40f4-8479-c845f3ba6a43","ios":"levelo://app?vid=237139e5-7cf5-40f4-8479-c845f3ba6a43"},"vehicle_type_id":"4","last_reported":1768331537,"current_range_meters":6800,"station_id":"","pricing_plan_id":"cebpf4jnsgd1na2vs0mg"},{"bike_id":"b41f9551-ae47-4da7-a60d-f3352e00b4ad","system_id":"levelo_inurba_marseille","lat":43.284803,"lon":5.483884,"is_reserved":false,"is_disabled":false,"rental_uris":{"android":"levelo://app?vid=b41f9551-ae47-4da7-a60d-f3352e00b4ad","ios":"levelo://app?vid=b41f9551-ae47-4da7-a60d-f3352e00b4ad"},"vehicle_type_id":"4","last_reported":1768331537,"current_range_meters":6800,"station_id":"","pricing_plan_id":"cebpf4jnsgd1na2vs0mg"},{"bike_id":"877508b3-9095-4431-8056-dd6da7db4ee4","system_id":"levelo_inurba_marseille","lat":43.28536,"lon":5.44092,"is_reserved":false,"is_disabled":false,"rental_uris":{"android":"levelo://app?vid=877508b3-9095-4431-8056-dd6da7db4ee4","ios":"levelo://app?vid=877508b3-9095-4431-8056-dd6da7db4ee4"},"vehicle_type_id":"4","last_reported":1768331537,"current_range_meters":6800,"station_id":"st_d3j3df2ikq2c7380ej80","pricing_plan_id":"cebpf4jnsgd1na2vs0mg"},{"bike_id":"b0c9b1c2-f770-412e-b7d9-9da26b69f3d2","system_id":"levelo_inurba_marseille","lat":43.280009,"lon":5.40006,"is_reserved":false,"is_disabled":false,"rental_uris":{"android":"levelo://app?vid=b0c9b1c2-f770-412e-b7d9-9da26b69f3d2","ios":"levelo://app?vid=b0c9b1c2-f770-412e-b7d9-9da26b69f3d2"},"vehicle_type_id":"4","last_reported":1768331537,"current_range_meters":6800,"station_id":"ce4bho92rcd13ifvqh4g","pricing_plan_id":"cebpf4jnsgd1na2vs0mg"},{"bike_id":"0b7fcce3-5957-4ba3-a942-4767ab10e88d","system_id":"levelo_inurba_marseille","lat":43.30128,"lon":5.39892,"is_reserved":false,"is_disabled":false,"rental_uris":{"android":"levelo://app?vid=0b7fcce3-5957-4ba3-a942-4767ab10e88d","ios":"levelo://app?vid=0b7fcce3-5957-4ba3-a942-4767ab10e88d"},"vehicle_type_id":"4","last_reported":1768331537,"current_range_meters":6800,"station_id":"ce4bh0h2rcd13ifvqd40","pricing_plan_id":"cebpf4jnsgd1na2vs0mg"},{"bike_id":"19acb0d9-5641-4610-b2b2-7ba868c5f563","system_id":"levelo_inurba_marseille","lat":43.23962,"lon":5.36611,"is_reserved":false,"is_disabled":false,"rental_uris":{"android":"levelo://app?vid=19acb0d9-5641-4610-b2b2-7ba868c5f563","ios":"levelo://app?vid=19acb0d9-5641-4610-b2b2-7ba868c5f563"},"vehicle_type_id":"4","last_reported":1768331537,"current_range_meters":6800,"station_id":"ce4bhi12rcd13ifvqfp0","pricing_plan_id":"cebpf4jnsgd1na2vs0mg"},{"bike_id":"edcf3188-4a6b-46e2-aa32-dc6a17ca3c7d","system_id":"levelo_inurba_marseille","lat":43.25583,"lon":5.38231,"is_reserved":false,"is_disabled":false,"rental_uris":{"android":"levelo://app?vid=edcf3188-4a6b-46e2-aa32-dc6a17ca3c7d","ios":"levelo://app?vid=edcf3188-4a6b-46e2-aa32-dc6a17ca3c7d"},"vehicle_type_id":"4","last_reported":1768331537,"current_range_meters":6800,"station_id":"ce4bhih2rcd13ifvqfs0","pricing_plan_id":"cebpf4jnsgd1na2vs0mg"},{"bike_id":"37f478a4-02ba-45f2-a4d6-fdcdc6b39bc8","system_id":"levelo_inurba_marseille","lat":43.28829,"lon":5.42635,"is_reserved":false,"is_disabled":false,"rental_uris":{"android":"levelo://app?vid=37f478a4-02ba-45f2-a4d6-fdcdc6b39bc8","ios":"levelo://app?vid=37f478a4-02ba-45f2-a4d6-fdcdc6b39bc8"},"vehicle_type_id":"4","last_reported":1768331537,"current_range_meters":6800,"station_id":"","pricing_plan_id":"cebpf4jnsgd1na2vs0mg"},{"bike_id":"39becb68-37d2-4fe5-af83-65d5813b987b","system_id":"levelo_inurba_marseille","lat":43.32508,"lon":5.36878,"is_reserved":false,"is_disabled":false,"rental_uris":{"android":"levelo://app?vid=39becb68-37d2-4fe5-af83-65d5813b987b","ios":"levelo://app?vid=39becb68-37d2-4fe5-af83-65d5813b987b"},"vehicle_type_id":"4","last_reported":1768331537,"current_range_meters":6800,"station_id":"","pricing_plan_id":"cebpf4jnsgd1na2vs0mg"},{"bike_id":"abef1457-2c7f-4b2b-98cd-bb4b5da694eb","system_id":"levelo_inurba_marseille","lat":43.31757,"lon":5.39035,"is_reserved":false,"is_disabled":false,"rental_uris":{"android":"levelo://app?vid=abef1457-2c7f-4b2b-98cd-bb4b5da694eb","ios":"levelo://app?vid=abef1457-2c7f-4b2b-98cd-bb4b5da694eb"},"vehicle_type_id":"4","last_reported":1768331537,"current_range_meters":6800,"station_id":"ce4bhqp2rcd13ifvqhng","pricing_plan_id":"cebpf4jnsgd1na2vs0mg"},{"bike_id":"3655a9f7-901b-4885-8038-e7046951f14d","system_id":"levelo_inurba_marseille","lat":43.29751,"lon":5.42763,"is_reserved":false,"is_disabled":false,"rental_uris":{"android":"levelo://app?vid=3655a9f7-901b-4885-8038-e7046951f14d","ios":"levelo://app?vid=3655a9f7-901b-4885-8038-e7046951f14d"},"vehicle_type_id":"4","last_reported":1768331537,"current_range_meters":6800,"station_id":"st_d3md5207bmas73dh9klg","pricing_plan_id":"cebpf4jnsgd1na2vs0mg"},{"bike_id":"1104f587-3777-4d17-9b58-b6d053090d96","system_id":"levelo_inurba_marseille","lat":43.23194,"lon":5.35553,"is_reserved":false,"is_disabled":false,"rental_uris":{"android":"levelo://app?vid=1104f587-3777-4d17-9b58-b6d053090d96","ios":"levelo://app?vid=1104f587-3777-4d17-9b58-b6d053090d96"},"vehicle_type_id":"4","last_reported":1768331537,"current_range_meters":6800,"station_id":"ce4bhu92rcd13ifvqi70","pricing_plan_id":"cebpf4jnsgd1na2vs0mg"},{"bike_id":"d12a5c37-df8a-440d-b99b-49d121d9a484","system_id":"levelo_inurba_marseille","lat":43.22932,"lon":5.35384,"is_reserved":false,"is_disabled":false,"rental_uris":{"android":"levelo://app?vid=d12a5c37-df8a-440d-b99b-49d121d9a484","ios":"levelo://app?vid=d12a5c37-df8a-440d-b99b-49d121d9a484"},"vehicle_type_id":"4","last_reported":1768331537,"current_range_meters":6800,"station_id":"cpo3532slgdg3j2ikp40","pricing_plan_id":"cebpf4jnsgd1na2vs0mg"},{"bike_id":"47b3e6b5-e9f6-42fe-8f31-dfb69d76cf69","system_id":"levelo_inurba_marseille","lat":43.25118,"lon":5.40334,"is_reserved":false,"is_disabled":false,"rental_uris":{"android":"levelo://app?vid=47b3e6b5-e9f6-42fe-8f31-dfb69d76cf69","ios":"levelo://app?vid=47b3e6b5-e9f6-42fe-8f31-dfb69d76cf69"},"vehicle_type_id":"4","last_reported":1768331537,"current_range_meters":6800,"station_id":"ce4bhlh2rcd13ifvqgig","pricing_plan_id":"cebpf4jnsgd1na2vs0mg"},{"bike_id":"b698cae3-1ad2-474a-b777-6c6854fc8bdd","system_id":"levelo_inurba_marseille","lat":43.27998,"lon":5.3999,"is_reserved":false,"is_disabled":false,"rental_uris":{"android":"levelo://app?vid=b698cae3-1ad2-474a-b777-6c6854fc8bdd","ios":"levelo://app?vid=b698cae3-1ad2-474a-b777-6c6854fc8bdd"},"vehicle_type_id":"4","last_reported":1768331537,"current_range_meters":6800,"station_id":"ce4bho92rcd13ifvqh4g","pricing_plan_id":"cebpf4jnsgd1na2vs0mg"},{"bike_id":"a8ecfe7d-195f-47f3-8f55-54974257ce75","system_id":"levelo_inurba_marseille","lat":43.26559,"lon":5.40329,"is_reserved":false,"is_disabled":false,"rental_uris":{"android":"levelo://app?vid=a8ecfe7d-195f-47f3-8f55-54974257ce75","ios":"levelo://app?vid=a8ecfe7d-195f-47f3-8f55-54974257ce75"},"vehicle_type_id":"4","last_reported":1768331537,"current_range_meters":7200,"station_id":"ce4bhmp2rcd13ifvqgng","pricing_plan_id":"cebpf4jnsgd1na2vs0mg"},{"bike_id":"a9ceab4f-7363-474c-a0e0-4e83cf033539","system_id":"levelo_inurba_marseille","lat":43.28921,"lon":5.36597,"is_reserved":false,"is_disabled":false,"rental_uris":{"android":"levelo://app?vid=a9ceab4f-7363-474c-a0e0-4e83cf033539","ios":"levelo://app?vid=a9ceab4f-7363-474c-a0e0-4e83cf033539"},"vehicle_type_id":"4","last_reported":1768331537,"current_range_meters":7200,"station_id":"ce4bhap2rcd13ifvqek0","pricing_plan_id":"cebpf4jnsgd1na2vs0mg"},{"bike_id":"1801c6f9-0c65-4e78-bbf2-c91fed55b8f3","system_id":"levelo_inurba_marseille","lat":43.26207,"lon":5.37432,"is_reserved":false,"is_disabled":false,"rental_uris":{"android":"levelo://app?vid=1801c6f9-0c65-4e78-bbf2-c91fed55b8f3","ios":"levelo://app?vid=1801c6f9-0c65-4e78-bbf2-c91fed55b8f3"},"vehicle_type_id":"4","last_reported":1768331537,"current_range_meters":7200,"station_id":"ce4bhgp2rcd13ifvqfc0","pricing_plan_id":"cebpf4jnsgd1na2vs0mg"},{"bike_id":"e2d48cec-b5a4-48da-8e50-18a73116778d","system_id":"levelo_inurba_marseille","lat":43.29007,"lon":5.35618,"is_reserved":false,"is_disabled":false,"rental_uris":{"android":"levelo://app?vid=e2d48cec-b5a4-48da-8e50-18a73116778d","ios":"levelo://app?vid=e2d48cec-b5a4-48da-8e50-18a73116778d"},"vehicle_type_id":"4","last_reported":1768331537,"current_range_meters":7200,"station_id":"ce4bhb92rcd13ifvqen0","pricing_plan_id":"cebpf4jnsgd1na2vs0mg"},{"bike_id":"ea9769ab-39d8-4325-b701-f75eef547046","system_id":"levelo_inurba_marseille","lat":43.22537,"lon":5.34831,"is_reserved":false,"is_disabled":false,"rental_uris":{"android":"levelo://app?vid=ea9769ab-39d8-4325-b701-f75eef547046","ios":"levelo://app?vid=ea9769ab-39d8-4325-b701-f75eef547046"},"vehicle_type_id":"4","last_reported":1768331537,"current_range_meters":7200,"station_id":"st_cvj5dfep6f1abm77gieg","pricing_plan_id":"cebpf4jnsgd1na2vs0mg"},{"bike_id":"a7334b46-f746-484b-abb7-0a0e3b715592","system_id":"levelo_inurba_marseille","lat":43.31168,"lon":5.38713,"is_reserved":false,"is_disabled":false,"rental_uris":{"android":"levelo://app?vid=a7334b46-f746-484b-abb7-0a0e3b715592","ios":"levelo://app?vid=a7334b46-f746-484b-abb7-0a0e3b715592"},"vehicle_type_id":"4","last_reported":1768331537,"current_range_meters":7200,"station_id":"ce4bgv12rcd13ifvqcp0","pricing_plan_id":"cebpf4jnsgd1na2vs0mg"},{"bike_id":"8a689e49-1449-46e9-9d9f-6cee66305474","system_id":"levelo_inurba_marseille","lat":43.292534,"lon":5.409246,"is_reserved":false,"is_disabled":true,"rental_uris":{"android":"levelo://app?vid=8a689e49-1449-46e9-9d9f-6cee66305474","ios":"levelo://app?vid=8a689e49-1449-46e9-9d9f-6cee66305474"},"vehicle_type_id":"4","last_reported":1768331537,"current_range_meters":7200,"station_id":"ce4bh192rcd13ifvqdc0","pricing_plan_id":"cebpf4jnsgd1na2vs0mg"},{"bike_id":"c6ab39c2-9d51-48db-bcc5-cb816b75a896","system_id":"levelo_inurba_marseille","lat":43.25866,"lon":5.39895,"is_reserved":false,"is_disabled":false,"rental_uris":{"android":"levelo://app?vid=c6ab39c2-9d51-48db-bcc5-cb816b75a896","ios":"levelo://app?vid=c6ab39c2-9d51-48db-bcc5-cb816b75a896"},"vehicle_type_id":"4","last_reported":1768331537,"current_range_meters":7200,"station_id":"ce4bhl92rcd13ifvqghg","pricing_plan_id":"cebpf4jnsgd1na2vs0mg"},{"bike_id":"c7abc581-c1e2-4eb4-888d-9d1cf33dbdd8","system_id":"levelo_inurba_marseille","lat":43.25082,"lon":5.39502,"is_reserved":false,"is_disabled":false,"rental_uris":{"android":"levelo://app?vid=c7abc581-c1e2-4eb4-888d-9d1cf33dbdd8","ios":"levelo://app?vid=c7abc581-c1e2-4eb4-888d-9d1cf33dbdd8"},"vehicle_type_id":"4","last_reported":1768331537,"current_range_meters":7200,"station_id":"ce4bhm12rcd13ifvqgkg","pricing_plan_id":"cebpf4jnsgd1na2vs0mg"},{"bike_id":"a7cfbd20-f164-49e6-9f87-847432bce4ed","system_id":"levelo_inurba_marseille","lat":43.30134,"lon":5.37435,"is_reserved":false,"is_disabled":false,"rental_uris":{"android":"levelo://app?vid=a7cfbd20-f164-49e6-9f87-847432bce4ed","ios":"levelo://app?vid=a7cfbd20-f164-49e6-9f87-847432bce4ed"},"vehicle_type_id":"4","last_reported":1768331537,"current_range_meters":7200,"station_id":"ce4bgs92rcd13ifvqcc0","pricing_plan_id":"cebpf4jnsgd1na2vs0mg"},{"bike_id":"2aa88b9d-9dea-421d-9316-f9eede645848","system_id":"levelo_inurba_marseille","lat":43.24393,"lon":5.37043,"is_reserved":false,"is_disabled":false,"rental_uris":{"android":"levelo://app?vid=2aa88b9d-9dea-421d-9316-f9eede645848","ios":"levelo://app?vid=2aa88b9d-9dea-421d-9316-f9eede645848"},"vehicle_type_id":"4","last_reported":1768331537,"current_range_meters":7200,"station_id":"ce4bhhh2rcd13ifvqfk0","pricing_plan_id":"cebpf4jnsgd1na2vs0mg"},{"bike_id":"5288709e-7bab-420c-ba8b-418afff6b8a4","system_id":"levelo_inurba_marseille","lat":43.3028,"lon":5.37266,"is_reserved":false,"is_disabled":false,"rental_uris":{"android":"levelo://app?vid=5288709e-7bab-420c-ba8b-418afff6b8a4","ios":"levelo://app?vid=5288709e-7bab-420c-ba8b-418afff6b8a4"},"vehicle_type_id":"4","last_reported":1768331537,"current_range_meters":7200,"station_id":"","pricing_plan_id":"cebpf4jnsgd1na2vs0mg"},{"bike_id":"7565d9e4-5737-444e-a6cb-70b726a9685a","system_id":"levelo_inurba_marseille","lat":43.24391,"lon":5.37076,"is_reserved":false,"is_disabled":false,"rental_uris":{"android":"levelo://app?vid=7565d9e4-5737-444e-a6cb-70b726a9685a","ios":"levelo://app?vid=7565d9e4-5737-444e-a6cb-70b726a9685a"},"vehicle_type_id":"4","last_reported":1768331537,"current_range_meters":7200,"station_id":"ce4bhhh2rcd13ifvqfk0","pricing_plan_id":"cebpf4jnsgd1na2vs0mg"},{"bike_id":"47d96b8b-14c3-457a-a882-a3b41481dc99","system_id":"levelo_inurba_marseille","lat":43.280762,"lon":5.39663,"is_reserved":false,"is_disabled":false,"rental_uris":{"android":"levelo://app?vid=47d96b8b-14c3-457a-a882-a3b41481dc99","ios":"levelo://app?vid=47d96b8b-14c3-457a-a882-a3b41481dc99"},"vehicle_type_id":"4","last_reported":1768331537,"current_range_meters":7200,"station_id":"ce4bho12rcd13ifvqh2g","pricing_plan_id":"cebpf4jnsgd1na2vs0mg"},{"bike_id":"4e84c2c9-6c74-4be3-bd20-6d3dd73f18f7","system_id":"levelo_inurba_marseille","lat":43.29254,"lon":5.40895,"is_reserved":false,"is_disabled":false,"rental_uris":{"android":"levelo://app?vid=4e84c2c9-6c74-4be3-bd20-6d3dd73f18f7","ios":"levelo://app?vid=4e84c2c9-6c74-4be3-bd20-6d3dd73f18f7"},"vehicle_type_id":"4","last_reported":1768331537,"current_range_meters":7200,"station_id":"ce4bh192rcd13ifvqdc0","pricing_plan_id":"cebpf4jnsgd1na2vs0mg"},{"bike_id":"a08bf140-6939-4812-abac-19b0965106e7","system_id":"levelo_inurba_marseille","lat":43.29242,"lon":5.38438,"is_reserved":false,"is_disabled":false,"rental_uris":{"android":"levelo://app?vid=a08bf140-6939-4812-abac-19b0965106e7","ios":"levelo://app?vid=a08bf140-6939-4812-abac-19b0965106e7"},"vehicle_type_id":"4","last_reported":1768331537,"current_range_meters":7200,"station_id":"ce4bh692rcd13ifvqea0","pricing_plan_id":"cebpf4jnsgd1na2vs0mg"},{"bike_id":"c4d34755-8d36-4d4b-8fa3-eb43d57908af","system_id":"levelo_inurba_marseille","lat":43.31375,"lon":5.38495,"is_reserved":false,"is_disabled":false,"rental_uris":{"android":"levelo://app?vid=c4d34755-8d36-4d4b-8fa3-eb43d57908af","ios":"levelo://app?vid=c4d34755-8d36-4d4b-8fa3-eb43d57908af"},"vehicle_type_id":"4","last_reported":1768331537,"current_range_meters":7200,"station_id":"ce4bgt92rcd13ifvqcf0","pricing_plan_id":"cebpf4jnsgd1na2vs0mg"},{"bike_id":"a4a7d4c5-7d30-44ca-9b72-e4ae5dace3ed","system_id":"levelo_inurba_marseille","lat":43.29257,"lon":5.37618,"is_reserved":false,"is_disabled":false,"rental_uris":{"android":"levelo://app?vid=a4a7d4c5-7d30-44ca-9b72-e4ae5dace3ed","ios":"levelo://app?vid=a4a7d4c5-7d30-44ca-9b72-e4ae5dace3ed"},"vehicle_type_id":"4","last_reported":1768331537,"current_range_meters":7200,"station_id":"","pricing_plan_id":"cebpf4jnsgd1na2vs0mg"},{"bike_id":"99eb6c51-7f0f-4137-8b85-23f4caea2333","system_id":"levelo_inurba_marseille","lat":43.298938,"lon":5.396666,"is_reserved":false,"is_disabled":false,"rental_uris":{"android":"levelo://app?vid=99eb6c51-7f0f-4137-8b85-23f4caea2333","ios":"levelo://app?vid=99eb6c51-7f0f-4137-8b85-23f4caea2333"},"vehicle_type_id":"4","last_reported":1768331537,"current_range_meters":7200,"station_id":"","pricing_plan_id":"cebpf4jnsgd1na2vs0mg"},{"bike_id":"d6bd47f3-6ec0-433e-a631-df308024de9a","system_id":"levelo_inurba_marseille","lat":43.30585,"lon":5.39352,"is_reserved":false,"is_disabled":false,"rental_uris":{"android":"levelo://app?vid=d6bd47f3-6ec0-433e-a631-df308024de9a","ios":"levelo://app?vid=d6bd47f3-6ec0-433e-a631-df308024de9a"},"vehicle_type_id":"4","last_reported":1768331537,"current_range_meters":7200,"station_id":"ce4bh0p2rcd13ifvqd80","pricing_plan_id":"cebpf4jnsgd1na2vs0mg"},{"bike_id":"5d21c596-50a9-4a98-8678-377ed372531b","system_id":"levelo_inurba_marseille","lat":43.23787,"lon":5.36626,"is_reserved":false,"is_disabled":false,"rental_uris":{"android":"levelo://app?vid=5d21c596-50a9-4a98-8678-377ed372531b","ios":"levelo://app?vid=5d21c596-50a9-4a98-8678-377ed372531b"},"vehicle_type_id":"4","last_reported":1768331537,"current_range_meters":7200,"station_id":"st_d3nk18o9ro0c73en2l3g","pricing_plan_id":"cebpf4jnsgd1na2vs0mg"},{"bike_id":"1f93f595-e601-4fc1-8ef1-644d261550d1","system_id":"levelo_inurba_marseille","lat":43.28438,"lon":5.39182,"is_reserved":false,"is_disabled":false,"rental_uris":{"android":"levelo://app?vid=1f93f595-e601-4fc1-8ef1-644d261550d1","ios":"levelo://app?vid=1f93f595-e601-4fc1-8ef1-644d261550d1"},"vehicle_type_id":"4","last_reported":1768331537,"current_range_meters":7200,"station_id":"ce4bhoh2rcd13ifvqh5g","pricing_plan_id":"cebpf4jnsgd1na2vs0mg"},{"bike_id":"c903a46c-2789-45e6-b341-e2702a486de9","system_id":"levelo_inurba_marseille","lat":43.29296,"lon":5.37168,"is_reserved":false,"is_disabled":false,"rental_uris":{"android":"levelo://app?vid=c903a46c-2789-45e6-b341-e2702a486de9","ios":"levelo://app?vid=c903a46c-2789-45e6-b341-e2702a486de9"},"vehicle_type_id":"4","last_reported":1768331537,"current_range_meters":7200,"station_id":"ce4bgh92rcd13ifvqb40","pricing_plan_id":"cebpf4jnsgd1na2vs0mg"},{"bike_id":"4392212e-c482-4068-98ed-f5d70443c015","system_id":"levelo_inurba_marseille","lat":43.29313,"lon":5.37166,"is_reserved":false,"is_disabled":false,"rental_uris":{"android":"levelo://app?vid=4392212e-c482-4068-98ed-f5d70443c015","ios":"levelo://app?vid=4392212e-c482-4068-98ed-f5d70443c015"},"vehicle_type_id":"4","last_reported":1768331537,"current_range_meters":7200,"station_id":"ce4bgh92rcd13ifvqb40","pricing_plan_id":"cebpf4jnsgd1na2vs0mg"},{"bike_id":"4d72c7c4-c615-4c8c-a0a4-08dd7b6512e0","system_id":"levelo_inurba_marseille","lat":43.31366,"lon":5.38496,"is_reserved":false,"is_disabled":false,"rental_uris":{"android":"levelo://app?vid=4d72c7c4-c615-4c8c-a0a4-08dd7b6512e0","ios":"levelo://app?vid=4d72c7c4-c615-4c8c-a0a4-08dd7b6512e0"},"vehicle_type_id":"4","last_reported":1768331537,"current_range_meters":7200,"station_id":"ce4bgt92rcd13ifvqcf0","pricing_plan_id":"cebpf4jnsgd1na2vs0mg"},{"bike_id":"9918c231-003a-4652-9d01-2f36934d683e","system_id":"levelo_inurba_marseille","lat":43.24069,"lon":5.37763,"is_reserved":false,"is_disabled":false,"rental_uris":{"android":"levelo://app?vid=9918c231-003a-4652-9d01-2f36934d683e","ios":"levelo://app?vid=9918c231-003a-4652-9d01-2f36934d683e"},"vehicle_type_id":"4","last_reported":1768331537,"current_range_meters":7200,"station_id":"ce4bhnp2rcd13ifvqgvg","pricing_plan_id":"cebpf4jnsgd1na2vs0mg"},{"bike_id":"b523c110-d25e-4af1-b7ea-2ae80dfe757b","system_id":"levelo_inurba_marseille","lat":43.23787,"lon":5.36635,"is_reserved":false,"is_disabled":false,"rental_uris":{"android":"levelo://app?vid=b523c110-d25e-4af1-b7ea-2ae80dfe757b","ios":"levelo://app?vid=b523c110-d25e-4af1-b7ea-2ae80dfe757b"},"vehicle_type_id":"4","last_reported":1768331537,"current_range_meters":8000,"station_id":"st_d3nk18o9ro0c73en2l3g","pricing_plan_id":"cebpf4jnsgd1na2vs0mg"},{"bike_id":"18e7aed4-7cab-4e5f-b147-5c98f8a1e192","system_id":"levelo_inurba_marseille","lat":43.3236,"lon":5.36744,"is_reserved":false,"is_disabled":false,"rental_uris":{"android":"levelo://app?vid=18e7aed4-7cab-4e5f-b147-5c98f8a1e192","ios":"levelo://app?vid=18e7aed4-7cab-4e5f-b147-5c98f8a1e192"},"vehicle_type_id":"4","last_reported":1768331537,"current_range_meters":8000,"station_id":"ce4bhsh2rcd13ifvqi2g","pricing_plan_id":"cebpf4jnsgd1na2vs0mg"},{"bike_id":"2f317efe-a01b-468a-9036-21dfc4cc3358","system_id":"levelo_inurba_marseille","lat":43.25826,"lon":5.39441,"is_reserved":false,"is_disabled":false,"rental_uris":{"android":"levelo://app?vid=2f317efe-a01b-468a-9036-21dfc4cc3358","ios":"levelo://app?vid=2f317efe-a01b-468a-9036-21dfc4cc3358"},"vehicle_type_id":"4","last_reported":1768331537,"current_range_meters":8000,"station_id":"ce4bhip2rcd13ifvqft0","pricing_plan_id":"cebpf4jnsgd1na2vs0mg"},{"bike_id":"7aaa5463-7c58-4e08-89ff-e62dd5259471","system_id":"levelo_inurba_marseille","lat":43.24811,"lon":5.37453,"is_reserved":false,"is_disabled":false,"rental_uris":{"android":"levelo://app?vid=7aaa5463-7c58-4e08-89ff-e62dd5259471","ios":"levelo://app?vid=7aaa5463-7c58-4e08-89ff-e62dd5259471"},"vehicle_type_id":"4","last_reported":1768331537,"current_range_meters":8000,"station_id":"ce4bhgh2rcd13ifvqfb0","pricing_plan_id":"cebpf4jnsgd1na2vs0mg"},{"bike_id":"1565ee71-7307-4d08-ab26-50f720828929","system_id":"levelo_inurba_marseille","lat":43.29084,"lon":5.37151,"is_reserved":false,"is_disabled":false,"rental_uris":{"android":"levelo://app?vid=1565ee71-7307-4d08-ab26-50f720828929","ios":"levelo://app?vid=1565ee71-7307-4d08-ab26-50f720828929"},"vehicle_type_id":"4","last_reported":1768331537,"current_range_meters":8000,"station_id":"ce4bh5p2rcd13ifvqe4g","pricing_plan_id":"cebpf4jnsgd1na2vs0mg"},{"bike_id":"23f90f90-4766-44cf-a3ad-ecda2307978a","system_id":"levelo_inurba_marseille","lat":43.26066,"lon":5.39395,"is_reserved":false,"is_disabled":false,"rental_uris":{"android":"levelo://app?vid=23f90f90-4766-44cf-a3ad-ecda2307978a","ios":"levelo://app?vid=23f90f90-4766-44cf-a3ad-ecda2307978a"},"vehicle_type_id":"4","last_reported":1768331537,"current_range_meters":8000,"station_id":"ce4bhh92rcd13ifvqfj0","pricing_plan_id":"cebpf4jnsgd1na2vs0mg"},{"bike_id":"0b0bd9e8-0e91-4cd7-8087-c13549508128","system_id":"levelo_inurba_marseille","lat":43.285374,"lon":5.440859,"is_reserved":false,"is_disabled":false,"rental_uris":{"android":"levelo://app?vid=0b0bd9e8-0e91-4cd7-8087-c13549508128","ios":"levelo://app?vid=0b0bd9e8-0e91-4cd7-8087-c13549508128"},"vehicle_type_id":"4","last_reported":1768331537,"current_range_meters":8000,"station_id":"st_d3j3df2ikq2c7380ej80","pricing_plan_id":"cebpf4jnsgd1na2vs0mg"},{"bike_id":"d412c5d5-9b2f-41e5-80df-1c27cf08794a","system_id":"levelo_inurba_marseille","lat":43.30638,"lon":5.40097,"is_reserved":false,"is_disabled":false,"rental_uris":{"android":"levelo://app?vid=d412c5d5-9b2f-41e5-80df-1c27cf08794a","ios":"levelo://app?vid=d412c5d5-9b2f-41e5-80df-1c27cf08794a"},"vehicle_type_id":"4","last_reported":1768331537,"current_range_meters":8000,"station_id":"ce4bh112rcd13ifvqda0","pricing_plan_id":"cebpf4jnsgd1na2vs0mg"},{"bike_id":"4da4b9b5-8e34-4a21-a7eb-76e6a1792527","system_id":"levelo_inurba_marseille","lat":43.28274,"lon":5.42987,"is_reserved":false,"is_disabled":false,"rental_uris":{"android":"levelo://app?vid=4da4b9b5-8e34-4a21-a7eb-76e6a1792527","ios":"levelo://app?vid=4da4b9b5-8e34-4a21-a7eb-76e6a1792527"},"vehicle_type_id":"4","last_reported":1768331537,"current_range_meters":8000,"station_id":"","pricing_plan_id":"cebpf4jnsgd1na2vs0mg"},{"bike_id":"d3adc42d-0576-4954-8492-720260568653","system_id":"levelo_inurba_marseille","lat":43.24646,"lon":5.38902,"is_reserved":false,"is_disabled":false,"rental_uris":{"android":"levelo://app?vid=d3adc42d-0576-4954-8492-720260568653","ios":"levelo://app?vid=d3adc42d-0576-4954-8492-720260568653"},"vehicle_type_id":"4","last_reported":1768331537,"current_range_meters":8000,"station_id":"ce4bhg12rcd13ifvqf60","pricing_plan_id":"cebpf4jnsgd1na2vs0mg"},{"bike_id":"3dd7b7d9-0b0e-4881-8d48-ebe3f32e1b84","system_id":"levelo_inurba_marseille","lat":43.29886,"lon":5.39692,"is_reserved":false,"is_disabled":false,"rental_uris":{"android":"levelo://app?vid=3dd7b7d9-0b0e-4881-8d48-ebe3f32e1b84","ios":"levelo://app?vid=3dd7b7d9-0b0e-4881-8d48-ebe3f32e1b84"},"vehicle_type_id":"4","last_reported":1768331537,"current_range_meters":8000,"station_id":"ce4bh0h2rcd13ifvqd50","pricing_plan_id":"cebpf4jnsgd1na2vs0mg"},{"bike_id":"a54e918c-ca7c-42a8-b45c-baae649c1450","system_id":"levelo_inurba_marseille","lat":43.26939,"lon":5.40246,"is_reserved":false,"is_disabled":false,"rental_uris":{"android":"levelo://app?vid=a54e918c-ca7c-42a8-b45c-baae649c1450","ios":"levelo://app?vid=a54e918c-ca7c-42a8-b45c-baae649c1450"},"vehicle_type_id":"4","last_reported":1768331537,"current_range_meters":8000,"station_id":"cjm6bp8fraef2m0cb0m0","pricing_plan_id":"cebpf4jnsgd1na2vs0mg"},{"bike_id":"92cdc27f-4766-48a4-a329-ea7a52a05a32","system_id":"levelo_inurba_marseille","lat":43.26945,"lon":5.40257,"is_reserved":false,"is_disabled":false,"rental_uris":{"android":"levelo://app?vid=92cdc27f-4766-48a4-a329-ea7a52a05a32","ios":"levelo://app?vid=92cdc27f-4766-48a4-a329-ea7a52a05a32"},"vehicle_type_id":"4","last_reported":1768331537,"current_range_meters":8000,"station_id":"cjm6bp8fraef2m0cb0m0","pricing_plan_id":"cebpf4jnsgd1na2vs0mg"},{"bike_id":"6d57f812-15ba-4444-9c0c-dbbe3143382e","system_id":"levelo_inurba_marseille","lat":43.27059,"lon":5.40275,"is_reserved":false,"is_disabled":true,"rental_uris":{"android":"levelo://app?vid=6d57f812-15ba-4444-9c0c-dbbe3143382e","ios":"levelo://app?vid=6d57f812-15ba-4444-9c0c-dbbe3143382e"},"vehicle_type_id":"4","last_reported":1768331537,"current_range_meters":8000,"station_id":"ce4bhk92rcd13ifvqgc0","pricing_plan_id":"cebpf4jnsgd1na2vs0mg"},{"bike_id":"d6d74109-b592-4be7-8ad9-4ba74bc2dbb0","system_id":"levelo_inurba_marseille","lat":43.28154,"lon":5.42639,"is_reserved":false,"is_disabled":false,"rental_uris":{"android":"levelo://app?vid=d6d74109-b592-4be7-8ad9-4ba74bc2dbb0","ios":"levelo://app?vid=d6d74109-b592-4be7-8ad9-4ba74bc2dbb0"},"vehicle_type_id":"4","last_reported":1768331537,"current_range_meters":8000,"station_id":"ce4bhnh2rcd13ifvqgug","pricing_plan_id":"cebpf4jnsgd1na2vs0mg"},{"bike_id":"d9e8d64d-749f-4ce9-b275-b723d4415519","system_id":"levelo_inurba_marseille","lat":43.23178,"lon":5.39988,"is_reserved":false,"is_disabled":false,"rental_uris":{"android":"levelo://app?vid=d9e8d64d-749f-4ce9-b275-b723d4415519","ios":"levelo://app?vid=d9e8d64d-749f-4ce9-b275-b723d4415519"},"vehicle_type_id":"4","last_reported":1768331537,"current_range_meters":8000,"station_id":"ce4bhn12rcd13ifvqgqg","pricing_plan_id":"cebpf4jnsgd1na2vs0mg"},{"bike_id":"956f2f43-0da9-4646-be7d-418ca296dc4d","system_id":"levelo_inurba_marseille","lat":43.29753,"lon":5.4278,"is_reserved":false,"is_disabled":false,"rental_uris":{"android":"levelo://app?vid=956f2f43-0da9-4646-be7d-418ca296dc4d","ios":"levelo://app?vid=956f2f43-0da9-4646-be7d-418ca296dc4d"},"vehicle_type_id":"4","last_reported":1768331537,"current_range_meters":8000,"station_id":"st_d3md5207bmas73dh9klg","pricing_plan_id":"cebpf4jnsgd1na2vs0mg"},{"bike_id":"335b2e61-84b7-447e-a5ec-4d2c6b5166ee","system_id":"levelo_inurba_marseille","lat":43.29257,"lon":5.38443,"is_reserved":false,"is_disabled":false,"rental_uris":{"android":"levelo://app?vid=335b2e61-84b7-447e-a5ec-4d2c6b5166ee","ios":"levelo://app?vid=335b2e61-84b7-447e-a5ec-4d2c6b5166ee"},"vehicle_type_id":"4","last_reported":1768331537,"current_range_meters":8000,"station_id":"ce4bh692rcd13ifvqea0","pricing_plan_id":"cebpf4jnsgd1na2vs0mg"},{"bike_id":"e7d49db7-9f51-4d73-976d-952ba0206a7d","system_id":"levelo_inurba_marseille","lat":43.28457,"lon":5.3588,"is_reserved":false,"is_disabled":false,"rental_uris":{"android":"levelo://app?vid=e7d49db7-9f51-4d73-976d-952ba0206a7d","ios":"levelo://app?vid=e7d49db7-9f51-4d73-976d-952ba0206a7d"},"vehicle_type_id":"4","last_reported":1768331537,"current_range_meters":8000,"station_id":"ce4bhah2rcd13ifvqei0","pricing_plan_id":"cebpf4jnsgd1na2vs0mg"},{"bike_id":"c8c44e8d-f3e0-45b1-904b-d220b73b482f","system_id":"levelo_inurba_marseille","lat":43.284313,"lon":5.3752,"is_reserved":false,"is_disabled":false,"rental_uris":{"android":"levelo://app?vid=c8c44e8d-f3e0-45b1-904b-d220b73b482f","ios":"levelo://app?vid=c8c44e8d-f3e0-45b1-904b-d220b73b482f"},"vehicle_type_id":"4","last_reported":1768331537,"current_range_meters":8000,"station_id":"ce4bh412rcd13ifvqds0","pricing_plan_id":"cebpf4jnsgd1na2vs0mg"},{"bike_id":"21872d87-1678-4258-a64d-ad8fbd3b2d1f","system_id":"levelo_inurba_marseille","lat":43.281,"lon":5.37839,"is_reserved":false,"is_disabled":false,"rental_uris":{"android":"levelo://app?vid=21872d87-1678-4258-a64d-ad8fbd3b2d1f","ios":"levelo://app?vid=21872d87-1678-4258-a64d-ad8fbd3b2d1f"},"vehicle_type_id":"4","last_reported":1768331537,"current_range_meters":8000,"station_id":"ce4bha12rcd13ifvqee0","pricing_plan_id":"cebpf4jnsgd1na2vs0mg"},{"bike_id":"a31c8f9e-9708-4ea2-9e5d-05e3441bc85f","system_id":"levelo_inurba_marseille","lat":43.28476,"lon":5.48387,"is_reserved":false,"is_disabled":false,"rental_uris":{"android":"levelo://app?vid=a31c8f9e-9708-4ea2-9e5d-05e3441bc85f","ios":"levelo://app?vid=a31c8f9e-9708-4ea2-9e5d-05e3441bc85f"},