{"last_updated":1747213877,"ttl":60,"version":"2.2","data":{"bikes":[{"bike_id":"c0b9fd4f-e181-46ce-b0bf-f5119973334f","system_id":"levelo_inurba_marseille","lat":43.33771,"lon":5.37424,"is_reserved":false,"is_disabled":false,"rental_uris":{"android":"levelo://app?vid=c0b9fd4f-e181-46ce-b0bf-f5119973334f","ios":"levelo://app?vid=c0b9fd4f-e181-46ce-b0bf-f5119973334f"},"vehicle_type_id":"4","last_reported":1747213877,"current_range_meters":19600,"station_id":"","pricing_plan_id":"cebpf4jnsgd1na2vs0mg"},{"bike_id":"3fae8334-a9d0-4ed3-aa20-0276813b60f6","system_id":"levelo_inurba_marseille","lat":43.26838,"lon":5.3848,"is_reserved":false,"is_disabled":true,"rental_uris":{"android":"levelo://app?vid=3fae8334-a9d0-4ed3-aa20-0276813b60f6","ios":"levelo://app?vid=3fae8334-a9d0-4ed3-aa20-0276813b60f6"},"vehicle_type_id":"4","last_reported":1747213877,"current_range_meters":0,"station_id":"","pricing_plan_id":"cebpf4jnsgd1na2vs0mg"},{"bike_id":"07f266ab-abd1-4687-81d8-7ca73d126827","system_id":"levelo_inurba_marseille","lat":43.2648,"lon":5.38351,"is_reserved":false,"is_disabled":true,"rental_uris":{"android":"levelo://app?vid=07f266ab-abd1-4687-81d8-7ca73d126827","ios":"levelo://app?vid=07f266ab-abd1-4687-81d8-7ca73d126827"},"vehicle_type_id":"4","last_reported":1747213877,"current_range_meters":0,"station_id":"","pricing_plan_id":"cebpf4jnsgd1na2vs0mg"},{"bike_id":"fc2577e7-1497-425b-9d4f-ab8d7dc843c6","system_id":"levelo_inurba_marseille","lat":43.33771,"lon":5.37485,"is_reserved":false,"is_disabled":true,"rental_uris":{"android":"levelo://app?vid=fc2577e7-1497-425b-9d4f-ab8d7dc843c6","ios":"levelo://app?vid=fc2577e7-1497-425b-9d4f-ab8d7dc843c6"},"vehicle_type_id":"4","last_reported":1747213877,"current_range_meters":0,"station_id":"","pricing_plan_id":"cebpf4jnsgd1na2vs0mg"},{"bike_id":"bce6dd6c-5f15-4ae5-8f21-e71db397b253","system_id":"levelo_inurba_marseille","lat":43.305465,"lon":5.365433,"is_reserved":false,"is_disabled":true,"rental_uris":{"android":"levelo://app?vid=bce6dd6c-5f15-4ae5-8f21-e71db397b253","ios":"levelo://app?vid=bce6dd6c-5f15-4ae5-8f21-e71db397b253"},"vehicle_type_id":"4","last_reported":1747213877,"current_range_meters":0,"station_id":"","pricing_plan_id":"cebpf4jnsgd1na2vs0mg"},{"bike_id":"f3fd69d4-efb4-47cf-98ad-2a450a9fc845","system_id":"levelo_inurba_marseille","lat":43.27929,"lon":5.38713,"is_reserved":false,"is_disabled":true,"rental_uris":{"android":"levelo://app?vid=f3fd69d4-efb4-47cf-98ad-2a450a9fc845","ios":"levelo://app?vid=f3fd69d4-efb4-47cf-98ad-2a450a9fc845"},"vehicle_type_id":"4","last_reported":1747213877,"current_range_meters":0,"station_id":"","pricing_plan_id":"cebpf4jnsgd1na2vs0mg"},{"bike_id":"0fedde00-40eb-40d2-8fc2-e61ecce46b7b","system_id":"levelo_inurba_marseille","lat":43.28286,"lon":5.43276,"is_reserved":false,"is_disabled":true,"rental_uris":{"android":"levelo://app?vid=0fedde00-40eb-40d2-8fc2-e61ecce46b7b","ios":"levelo://app?vid=0fedde00-40eb-40d2-8fc2-e61ecce46b7b"},"vehicle_type_id":"4","last_reported":1747213877,"current_range_meters":0,"station_id":"","pricing_plan_id":"cebpf4jnsgd1na2vs0mg"},{"bike_id":"727c4684-f63f-4c08-83b6-b043d1b81a1c","system_id":"levelo_inurba_marseille","lat":43.302028,"lon":5.453778,"is_reserved":false,"is_disabled":true,"rental_uris":{"android":"levelo://app?vid=727c4684-f63f-4c08-83b6-b043d1b81a1c","ios":"levelo://app?vid=727c4684-f63f-4c08-83b6-b043d1b81a1c"},"vehicle_type_id":"4","last_reported":1747213877,"current_range_meters":0,"station_id":"","pricing_plan_id":"cebpf4jnsgd1na2vs0mg"},{"bike_id":"792567c6-0442-4011-aff0-9c05e25deb48","system_id":"levelo_inurba_marseille","lat":43.28071,"lon":5.44168,"is_reserved":false,"is_disabled":true,"rental_uris":{"android":"levelo://app?vid=792567c6-0442-4011-aff0-9c05e25deb48","ios":"levelo://app?vid=792567c6-0442-4011-aff0-9c05e25deb48"},"vehicle_type_id":"4","last_reported":1747213877,"current_range_meters":0,"station_id":"","pricing_plan_id":"cebpf4jnsgd1na2vs0mg"},{"bike_id":"326433f3-0a93-45f7-9a9f-41fbc422298c","system_id":"levelo_inurba_marseille","lat":43.3057,"lon":5.36484,"is_reserved":false,"is_disabled":true,"rental_uris":{"android":"levelo://app?vid=326433f3-0a93-45f7-9a9f-41fbc422298c","ios":"levelo://app?vid=326433f3-0a93-45f7-9a9f-41fbc422298c"},"vehicle_type_id":"4","last_reported":1747213877,"current_range_meters":0,"station_id":"ce4bgs12rcd13ifvqcag","pricing_plan_id":"cebpf4jnsgd1na2vs0mg"},{"bike_id":"ced1dbea-f38e-40d6-a22d-92948e8ba166","system_id":"levelo_inurba_marseille","lat":43.28663,"lon":5.38658,"is_reserved":false,"is_disabled":true,"rental_uris":{"android":"levelo://app?vid=ced1dbea-f38e-40d6-a22d-92948e8ba166","ios":"levelo://app?vid=ced1dbea-f38e-40d6-a22d-92948e8ba166"},"vehicle_type_id":"4","last_reported":1747213877,"current_range_meters":0,"station_id":"ce4bh492rcd13ifvqdug","pricing_plan_id":"cebpf4jnsgd1na2vs0mg"},{"bike_id":"85bc337a-caba-434e-958c-85e7c291ec7c","system_id":"levelo_inurba_marseille","lat":43.26215,"lon":5.4044,"is_reserved":false,"is_disabled":true,"rental_uris":{"android":"levelo://app?vid=85bc337a-caba-434e-958c-85e7c291ec7c","ios":"levelo://app?vid=85bc337a-caba-434e-958c-85e7c291ec7c"},"vehicle_type_id":"4","last_reported":1747213877,"current_range_meters":0,"station_id":"ce4bhmh2rcd13ifvqgmg","pricing_plan_id":"cebpf4jnsgd1na2vs0mg"},{"bike_id":"951ce623-785f-4566-abe8-9525c42ba2ab","system_id":"levelo_inurba_marseille","lat":43.26227,"lon":5.40444,"is_reserved":false,"is_disabled":true,"rental_uris":{"android":"levelo://app?vid=951ce623-785f-4566-abe8-9525c42ba2ab","ios":"levelo://app?vid=951ce623-785f-4566-abe8-9525c42ba2ab"},"vehicle_type_id":"4","last_reported":1747213877,"current_range_meters":0,"station_id":"ce4bhmh2rcd13ifvqgmg","pricing_plan_id":"cebpf4jnsgd1na2vs0mg"},{"bike_id":"7d648bb7-ab7e-409a-add7-d4a17f03de12","system_id":"levelo_inurba_marseille","lat":43.23143,"lon":5.4369,"is_reserved":false,"is_disabled":true,"rental_uris":{"android":"levelo://app?vid=7d648bb7-ab7e-409a-add7-d4a17f03de12","ios":"levelo://app?vid=7d648bb7-ab7e-409a-add7-d4a17f03de12"},"vehicle_type_id":"4","last_reported":1747213877,"current_range_meters":0,"station_id":"ce4bhmp2rcd13ifvqgog","pricing_plan_id":"cebpf4jnsgd1na2vs0mg"},{"bike_id":"54715999-78c0-40df-8009-96dc643b2198","system_id":"levelo_inurba_marseille","lat":43.28154,"lon":5.42656,"is_reserved":false,"is_disabled":true,"rental_uris":{"android":"levelo://app?vid=54715999-78c0-40df-8009-96dc643b2198","ios":"levelo://app?vid=54715999-78c0-40df-8009-96dc643b2198"},"vehicle_type_id":"4","last_reported":1747213877,"current_range_meters":0,"station_id":"ce4bhnh2rcd13ifvqgug","pricing_plan_id":"cebpf4jnsgd1na2vs0mg"},{"bike_id":"5163e505-73e9-4d1f-addf-45960938159b","system_id":"levelo_inurba_marseille","lat":43.3042,"lon":5.412797,"is_reserved":false,"is_disabled":true,"rental_uris":{"android":"levelo://app?vid=5163e505-73e9-4d1f-addf-45960938159b","ios":"levelo://app?vid=5163e505-73e9-4d1f-addf-45960938159b"},"vehicle_type_id":"4","last_reported":1747213877,"current_range_meters":0,"station_id":"ce4bhop2rcd13ifvqh8g","pricing_plan_id":"cebpf4jnsgd1na2vs0mg"},{"bike_id":"2abc10c9-212c-492c-a060-35cac98dbd8e","system_id":"levelo_inurba_marseille","lat":43.32531,"lon":5.41442,"is_reserved":false,"is_disabled":true,"rental_uris":{"android":"levelo://app?vid=2abc10c9-212c-492c-a060-35cac98dbd8e","ios":"levelo://app?vid=2abc10c9-212c-492c-a060-35cac98dbd8e"},"vehicle_type_id":"4","last_reported":1747213877,"current_range_meters":0,"station_id":"ce4bhq12rcd13ifvqhhg","pricing_plan_id":"cebpf4jnsgd1na2vs0mg"},{"bike_id":"49c47ed7-52af-4f8e-abc1-3485cf2c06af","system_id":"levelo_inurba_marseille","lat":43.22507,"lon":5.34792,"is_reserved":false,"is_disabled":true,"rental_uris":{"android":"levelo://app?vid=49c47ed7-52af-4f8e-abc1-3485cf2c06af","ios":"levelo://app?vid=49c47ed7-52af-4f8e-abc1-3485cf2c06af"},"vehicle_type_id":"4","last_reported":1747213877,"current_range_meters":0,"station_id":"st_cvj5dfep6f1abm77gieg","pricing_plan_id":"cebpf4jnsgd1na2vs0mg"},{"bike_id":"8aecad1a-6a65-4d9a-bc60-67a3daa52852","system_id":"levelo_inurba_marseille","lat":43.21749,"lon":5.34599,"is_reserved":false,"is_disabled":true,"rental_uris":{"android":"levelo://app?vid=8aecad1a-6a65-4d9a-bc60-67a3daa52852","ios":"levelo://app?vid=8aecad1a-6a65-4d9a-bc60-67a3daa52852"},"vehicle_type_id":"4","last_reported":1747213877,"current_range_meters":0,"station_id":"st_cvj6r9ubvosntc0bgbag","pricing_plan_id":"cebpf4jnsgd1na2vs0mg"},{"bike_id":"986c18d8-74d7-4caf-9a65-ed5970f61353","system_id":"levelo_inurba_marseille","lat":43.21199,"lon":5.35054,"is_reserved":false,"is_disabled":true,"rental_uris":{"android":"levelo://app?vid=986c18d8-74d7-4caf-9a65-ed5970f61353","ios":"levelo://app?vid=986c18d8-74d7-4caf-9a65-ed5970f61353"},"vehicle_type_id":"4","last_reported":1747213877,"current_range_meters":0,"station_id":"st_cvj6sg6p6f1abm77japg","pricing_plan_id":"cebpf4jnsgd1na2vs0mg"},{"bike_id":"098ef9a6-aed9-498b-a2c2-d05f6293d3cd","system_id":"levelo_inurba_marseille","lat":43.29564,"lon":5.37516,"is_reserved":false,"is_disabled":true,"rental_uris":{"android":"levelo://app?vid=098ef9a6-aed9-498b-a2c2-d05f6293d3cd","ios":"levelo://app?vid=098ef9a6-aed9-498b-a2c2-d05f6293d3cd"},"vehicle_type_id":"4","last_reported":1747213877,"current_range_meters":400,"station_id":"ce4bgh92rcd13ifvqb50","pricing_plan_id":"cebpf4jnsgd1na2vs0mg"},{"bike_id":"6340465f-228d-4b75-8f6d-5bbb6f021709","system_id":"levelo_inurba_marseille","lat":43.29034,"lon":5.39957,"is_reserved":false,"is_disabled":true,"rental_uris":{"android":"levelo://app?vid=6340465f-228d-4b75-8f6d-5bbb6f021709","ios":"levelo://app?vid=6340465f-228d-4b75-8f6d-5bbb6f021709"},"vehicle_type_id":"4","last_reported":1747213877,"current_range_meters":400,"station_id":"ce4bh392rcd13ifvqdm0","pricing_plan_id":"cebpf4jnsgd1na2vs0mg"},{"bike_id":"dfe479e4-5fd8-42e3-81cd-067c2edcd0d5","system_id":"levelo_inurba_marseille","lat":43.27072,"lon":5.42257,"is_reserved":false,"is_disabled":true,"rental_uris":{"android":"levelo://app?vid=dfe479e4-5fd8-42e3-81cd-067c2edcd0d5","ios":"levelo://app?vid=dfe479e4-5fd8-42e3-81cd-067c2edcd0d5"},"vehicle_type_id":"4","last_reported":1747213877,"current_range_meters":400,"station_id":"ce4bhk92rcd13ifvqgb0","pricing_plan_id":"cebpf4jnsgd1na2vs0mg"},{"bike_id":"671ebd50-ea1c-452b-bad4-c5de721224b8","system_id":"levelo_inurba_marseille","lat":43.30461,"lon":5.37903,"is_reserved":false,"is_disabled":true,"rental_uris":{"android":"levelo://app?vid=671ebd50-ea1c-452b-bad4-c5de721224b8","ios":"levelo://app?vid=671ebd50-ea1c-452b-bad4-c5de721224b8"},"vehicle_type_id":"4","last_reported":1747213877,"current_range_meters":800,"station_id":"ce4bgup2rcd13ifvqcn0","pricing_plan_id":"cebpf4jnsgd1na2vs0mg"},{"bike_id":"3bee62a1-9fde-43e7-9d11-cda085ce3011","system_id":"levelo_inurba_marseille","lat":43.272104,"lon":5.39181,"is_reserved":false,"is_disabled":true,"rental_uris":{"android":"levelo://app?vid=3bee62a1-9fde-43e7-9d11-cda085ce3011","ios":"levelo://app?vid=3bee62a1-9fde-43e7-9d11-cda085ce3011"},"vehicle_type_id":"4","last_reported":1747213877,"current_range_meters":800,"station_id":"ce4bhhp2rcd13ifvqfm0","pricing_plan_id":"cebpf4jnsgd1na2vs0mg"},{"bike_id":"f61d6bdd-c4f1-4f6d-b581-ea58987bcae0","system_id":"levelo_inurba_marseille","lat":43.23152,"lon":5.43706,"is_reserved":false,"is_disabled":true,"rental_uris":{"android":"levelo://app?vid=f61d6bdd-c4f1-4f6d-b581-ea58987bcae0","ios":"levelo://app?vid=f61d6bdd-c4f1-4f6d-b581-ea58987bcae0"},"vehicle_type_id":"4","last_reported":1747213877,"current_range_meters":800,"station_id":"ce4bhmp2rcd13ifvqgog","pricing_plan_id":"cebpf4jnsgd1na2vs0mg"},{"bike_id":"e78ed1c1-195a-4763-adfc-d9bd46dfb54f","system_id":"levelo_inurba_marseille","lat":43.27837,"lon":5.4067,"is_reserved":false,"is_disabled":true,"rental_uris":{"android":"levelo://app?vid=e78ed1c1-195a-4763-adfc-d9bd46dfb54f","ios":"levelo://app?vid=e78ed1c1-195a-4763-adfc-d9bd46dfb54f"},"vehicle_type_id":"4","last_reported":1747213877,"current_range_meters":800,"station_id":"ce4bhnh2rcd13ifvqgtg","pricing_plan_id":"cebpf4jnsgd1na2vs0mg"},{"bike_id":"01321899-3bf3-4523-8d90-d0e402745f15","system_id":"levelo_inurba_marseille","lat":43.27497,"lon":5.42446,"is_reserved":false,"is_disabled":true,"rental_uris":{"android":"levelo://app?vid=01321899-3bf3-4523-8d90-d0e402745f15","ios":"levelo://app?vid=01321899-3bf3-4523-8d90-d0e402745f15"},"vehicle_type_id":"4","last_reported":1747213877,"current_range_meters":1600,"station_id":"ce4bhn92rcd13ifvqgrg","pricing_plan_id":"cebpf4jnsgd1na2vs0mg"},{"bike_id":"65f07d6c-0d43-4fa8-ad97-6853a7f2d82c","system_id":"levelo_inurba_marseille","lat":43.336032,"lon":5.410247,"is_reserved":false,"is_disabled":true,"rental_uris":{"android":"levelo://app?vid=65f07d6c-0d43-4fa8-ad97-6853a7f2d82c","ios":"levelo://app?vid=65f07d6c-0d43-4fa8-ad97-6853a7f2d82c"},"vehicle_type_id":"4","last_reported":1747213877,"current_range_meters":2000,"station_id":"ce4bhqh2rcd13ifvqhmg","pricing_plan_id":"cebpf4jnsgd1na2vs0mg"},{"bike_id":"04d2d0ea-48be-437c-b5cb-f943238168f9","system_id":"levelo_inurba_marseille","lat":43.30309,"lon":5.36889,"is_reserved":false,"is_disabled":false,"rental_uris":{"android":"levelo://app?vid=04d2d0ea-48be-437c-b5cb-f943238168f9","ios":"levelo://app?vid=04d2d0ea-48be-437c-b5cb-f943238168f9"},"vehicle_type_id":"4","last_reported":1747213877,"current_range_meters":2800,"station_id":"ce4bgqh2rcd13ifvqc5g","pricing_plan_id":"cebpf4jnsgd1na2vs0mg"},{"bike_id":"b4a7e0e1-8276-4422-9698-2d881e1f6a5b","system_id":"levelo_inurba_marseille","lat":43.273122,"lon":5.390589,"is_reserved":false,"is_disabled":false,"rental_uris":{"android":"levelo://app?vid=b4a7e0e1-8276-4422-9698-2d881e1f6a5b","ios":"levelo://app?vid=b4a7e0e1-8276-4422-9698-2d881e1f6a5b"},"vehicle_type_id":"4","last_reported":1747213877,"current_range_meters":2800,"station_id":"ce4bhgp2rcd13ifvqfe0","pricing_plan_id":"cebpf4jnsgd1na2vs0mg"},{"bike_id":"d165ebe9-72e4-4dea-92a0-4589e2d21c6d","system_id":"levelo_inurba_marseille","lat":43.21188,"lon":5.35075,"is_reserved":false,"is_disabled":false,"rental_uris":{"android":"levelo://app?vid=d165ebe9-72e4-4dea-92a0-4589e2d21c6d","ios":"levelo://app?vid=d165ebe9-72e4-4dea-92a0-4589e2d21c6d"},"vehicle_type_id":"4","last_reported":1747213877,"current_range_meters":3200,"station_id":"st_cvj6sg6p6f1abm77japg","pricing_plan_id":"cebpf4jnsgd1na2vs0mg"},{"bike_id":"8655de25-8561-46f8-a07c-c09faabebe42","system_id":"levelo_inurba_marseille","lat":43.26687,"lon":5.38273,"is_reserved":false,"is_disabled":false,"rental_uris":{"android":"levelo://app?vid=8655de25-8561-46f8-a07c-c09faabebe42","ios":"levelo://app?vid=8655de25-8561-46f8-a07c-c09faabebe42"},"vehicle_type_id":"4","last_reported":1747213877,"current_range_meters":3600,"station_id":"ce4bhg92rcd13ifvqf90","pricing_plan_id":"cebpf4jnsgd1na2vs0mg"},{"bike_id":"b99b1733-c88d-47b3-9b9b-0acefa34b3c5","system_id":"levelo_inurba_marseille","lat":43.273114,"lon":5.390643,"is_reserved":false,"is_disabled":false,"rental_uris":{"android":"levelo://app?vid=b99b1733-c88d-47b3-9b9b-0acefa34b3c5","ios":"levelo://app?vid=b99b1733-c88d-47b3-9b9b-0acefa34b3c5"},"vehicle_type_id":"4","last_reported":1747213877,"current_range_meters":3600,"station_id":"ce4bhgp2rcd13ifvqfe0","pricing_plan_id":"cebpf4jnsgd1na2vs0mg"},{"bike_id":"3cb22152-d1af-4cd9-8e2c-fc13e034444b","system_id":"levelo_inurba_marseille","lat":43.33605,"lon":5.41041,"is_reserved":false,"is_disabled":false,"rental_uris":{"android":"levelo://app?vid=3cb22152-d1af-4cd9-8e2c-fc13e034444b","ios":"levelo://app?vid=3cb22152-d1af-4cd9-8e2c-fc13e034444b"},"vehicle_type_id":"4","last_reported":1747213877,"current_range_meters":3600,"station_id":"ce4bhqh2rcd13ifvqhmg","pricing_plan_id":"cebpf4jnsgd1na2vs0mg"},{"bike_id":"74ce7741-5813-4b25-8268-d773ddb37d17","system_id":"levelo_inurba_marseille","lat":43.30202,"lon":5.45379,"is_reserved":false,"is_disabled":false,"rental_uris":{"android":"levelo://app?vid=74ce7741-5813-4b25-8268-d773ddb37d17","ios":"levelo://app?vid=74ce7741-5813-4b25-8268-d773ddb37d17"},"vehicle_type_id":"4","last_reported":1747213877,"current_range_meters":4800,"station_id":"","pricing_plan_id":"cebpf4jnsgd1na2vs0mg"},{"bike_id":"fefd01d1-1ae7-4473-b2cb-128f9068f545","system_id":"levelo_inurba_marseille","lat":43.29793,"lon":5.38106,"is_reserved":false,"is_disabled":false,"rental_uris":{"android":"levelo://app?vid=fefd01d1-1ae7-4473-b2cb-128f9068f545","ios":"levelo://app?vid=fefd01d1-1ae7-4473-b2cb-128f9068f545"},"vehicle_type_id":"4","last_reported":1747213877,"current_range_meters":4800,"station_id":"ce4bgip2rcd13ifvqbb0","pricing_plan_id":"cebpf4jnsgd1na2vs0mg"},{"bike_id":"c83381ae-0fa6-4141-b500-4120ad188932","system_id":"levelo_inurba_marseille","lat":43.28948,"lon":5.36413,"is_reserved":false,"is_disabled":false,"rental_uris":{"android":"levelo://app?vid=c83381ae-0fa6-4141-b500-4120ad188932","ios":"levelo://app?vid=c83381ae-0fa6-4141-b500-4120ad188932"},"vehicle_type_id":"4","last_reported":1747213877,"current_range_meters":4800,"station_id":"ce4bhc92rcd13ifvqetg","pricing_plan_id":"cebpf4jnsgd1na2vs0mg"},{"bike_id":"87e86929-38ff-48a6-acf3-803b4ed45b58","system_id":"levelo_inurba_marseille","lat":43.25877,"lon":5.40921,"is_reserved":false,"is_disabled":false,"rental_uris":{"android":"levelo://app?vid=87e86929-38ff-48a6-acf3-803b4ed45b58","ios":"levelo://app?vid=87e86929-38ff-48a6-acf3-803b4ed45b58"},"vehicle_type_id":"4","last_reported":1747213877,"current_range_meters":4800,"station_id":"ce4bhm92rcd13ifvqglg","pricing_plan_id":"cebpf4jnsgd1na2vs0mg"},{"bike_id":"bf5caeae-375b-4f6a-b212-3f8c4af6cfee","system_id":"levelo_inurba_marseille","lat":43.29623,"lon":5.37725,"is_reserved":false,"is_disabled":false,"rental_uris":{"android":"levelo://app?vid=bf5caeae-375b-4f6a-b212-3f8c4af6cfee","ios":"levelo://app?vid=bf5caeae-375b-4f6a-b212-3f8c4af6cfee"},"vehicle_type_id":"4","last_reported":1747213877,"current_range_meters":5600,"station_id":"ce4bgi92rcd13ifvqb90","pricing_plan_id":"cebpf4jnsgd1na2vs0mg"},{"bike_id":"8970ae02-b212-4105-8acb-956c30591fc2","system_id":"levelo_inurba_marseille","lat":43.30878,"lon":5.37211,"is_reserved":false,"is_disabled":false,"rental_uris":{"android":"levelo://app?vid=8970ae02-b212-4105-8acb-956c30591fc2","ios":"levelo://app?vid=8970ae02-b212-4105-8acb-956c30591fc2"},"vehicle_type_id":"4","last_reported":1747213877,"current_range_meters":5600,"station_id":"ce4bguh2rcd13ifvqckg","pricing_plan_id":"cebpf4jnsgd1na2vs0mg"},{"bike_id":"73284dc4-f3fd-43d2-af5a-acd57db7e32f","system_id":"levelo_inurba_marseille","lat":43.27492,"lon":5.42451,"is_reserved":false,"is_disabled":false,"rental_uris":{"android":"levelo://app?vid=73284dc4-f3fd-43d2-af5a-acd57db7e32f","ios":"levelo://app?vid=73284dc4-f3fd-43d2-af5a-acd57db7e32f"},"vehicle_type_id":"4","last_reported":1747213877,"current_range_meters":5600,"station_id":"ce4bhn92rcd13ifvqgrg","pricing_plan_id":"cebpf4jnsgd1na2vs0mg"},{"bike_id":"8d3628c1-0c02-42d4-b0f2-09476d23879f","system_id":"levelo_inurba_marseille","lat":43.25938,"lon":5.4091,"is_reserved":false,"is_disabled":false,"rental_uris":{"android":"levelo://app?vid=8d3628c1-0c02-42d4-b0f2-09476d23879f","ios":"levelo://app?vid=8d3628c1-0c02-42d4-b0f2-09476d23879f"},"vehicle_type_id":"4","last_reported":1747213877,"current_range_meters":6000,"station_id":"ce4bhm92rcd13ifvqglg","pricing_plan_id":"cebpf4jnsgd1na2vs0mg"},{"bike_id":"e42e17e5-d574-40b9-811b-e914acd6632f","system_id":"levelo_inurba_marseille","lat":43.23056,"lon":5.35488,"is_reserved":false,"is_disabled":false,"rental_uris":{"android":"levelo://app?vid=e42e17e5-d574-40b9-811b-e914acd6632f","ios":"levelo://app?vid=e42e17e5-d574-40b9-811b-e914acd6632f"},"vehicle_type_id":"4","last_reported":1747213877,"current_range_meters":6000,"station_id":"cpo3342slgdg3j2ifvpg","pricing_plan_id":"cebpf4jnsgd1na2vs0mg"},{"bike_id":"96883a91-f9b5-4c73-9726-974b40e66c21","system_id":"levelo_inurba_marseille","lat":43.3054,"lon":5.36697,"is_reserved":false,"is_disabled":false,"rental_uris":{"android":"levelo://app?vid=96883a91-f9b5-4c73-9726-974b40e66c21","ios":"levelo://app?vid=96883a91-f9b5-4c73-9726-974b40e66c21"},"vehicle_type_id":"4","last_reported":1747213877,"current_range_meters":6400,"station_id":"ce4bgrp2rcd13ifvqc9g","pricing_plan_id":"cebpf4jnsgd1na2vs0mg"},{"bike_id":"ce4325af-2448-4172-bdec-81d552ee0b62","system_id":"levelo_inurba_marseille","lat":43.26157,"lon":5.42028,"is_reserved":false,"is_disabled":false,"rental_uris":{"android":"levelo://app?vid=ce4325af-2448-4172-bdec-81d552ee0b62","ios":"levelo://app?vid=ce4325af-2448-4172-bdec-81d552ee0b62"},"vehicle_type_id":"4","last_reported":1747213877,"current_range_meters":6800,"station_id":"","pricing_plan_id":"cebpf4jnsgd1na2vs0mg"},{"bike_id":"6380b036-1e9c-47c8-bfa1-3784d6a37319","system_id":"levelo_inurba_marseille","lat":43.28102,"lon":5.37835,"is_reserved":false,"is_disabled":false,"rental_uris":{"android":"levelo://app?vid=6380b036-1e9c-47c8-bfa1-3784d6a37319","ios":"levelo://app?vid=6380b036-1e9c-47c8-bfa1-3784d6a37319"},"vehicle_type_id":"4","last_reported":1747213877,"current_range_meters":6800,"station_id":"ce4bha12rcd13ifvqee0","pricing_plan_id":"cebpf4jnsgd1na2vs0mg"},{"bike_id":"4abc919c-38cb-4ea8-922e-47da8cd66872","system_id":"levelo_inurba_marseille","lat":43.24997,"lon":5.38921,"is_reserved":false,"is_disabled":false,"rental_uris":{"android":"levelo://app?vid=4abc919c-38cb-4ea8-922e-47da8cd66872","ios":"levelo://app?vid=4abc919c-38cb-4ea8-922e-47da8cd66872"},"vehicle_type_id":"4","last_reported":1747213877,"current_range_meters":6800,"station_id":"ce4bhgp2rcd13ifvqfd0","pricing_plan_id":"cebpf4jnsgd1na2vs0mg"},{"bike_id":"02f9e37a-6804-4b0a-ae3f-9fc789226e03","system_id":"levelo_inurba_marseille","lat":43.26197,"lon":5.37934,"is_reserved":false,"is_disabled":false,"rental_uris":{"android":"levelo://app?vid=02f9e37a-6804-4b0a-ae3f-9fc789226e03","ios":"levelo://app?vid=02f9e37a-6804-4b0a-ae3f-9fc789226e03"},"vehicle_type_id":"4","last_reported":1747213877,"current_range_meters":6800,"station_id":"ce4bhjp2rcd13ifvqg90","pricing_plan_id":"cebpf4jnsgd1na2vs0mg"},{"bike_id":"22314cb5-11f2-4604-a5a5-9d4d7504b3d9","system_id":"levelo_inurba_marseille","lat":43.23145,"lon":5.43709,"is_reserved":false,"is_disabled":false,"rental_uris":{"android":"levelo://app?vid=22314cb5-11f2-4604-a5a5-9d4d7504b3d9","ios":"levelo://app?vid=22314cb5-11f2-4604-a5a5-9d4d7504b3d9"},"vehicle_type_id":"4","last_reported":1747213877,"current_range_meters":6800,"station_id":"ce4bhmp2rcd13ifvqgog","pricing_plan_id":"cebpf4jnsgd1na2vs0mg"},{"bike_id":"93599b26-2e16-467e-9aad-e60152768d2b","system_id":"levelo_inurba_marseille","lat":43.28155,"lon":5.42641,"is_reserved":false,"is_disabled":false,"rental_uris":{"android":"levelo://app?vid=93599b26-2e16-467e-9aad-e60152768d2b","ios":"levelo://app?vid=93599b26-2e16-467e-9aad-e60152768d2b"},"vehicle_type_id":"4","last_reported":1747213877,"current_range_meters":6800,"station_id":"ce4bhnh2rcd13ifvqgug","pricing_plan_id":"cebpf4jnsgd1na2vs0mg"},{"bike_id":"341b3aaf-7b6b-4438-8a74-8bf62851b1a0","system_id":"levelo_inurba_marseille","lat":43.29552,"lon":5.42293,"is_reserved":false,"is_disabled":false,"rental_uris":{"android":"levelo://app?vid=341b3aaf-7b6b-4438-8a74-8bf62851b1a0","ios":"levelo://app?vid=341b3aaf-7b6b-4438-8a74-8bf62851b1a0"},"vehicle_type_id":"4","last_reported":1747213877,"current_range_meters":6800,"station_id":"ce4bhph2rcd13ifvqhdg","pricing_plan_id":"cebpf4jnsgd1na2vs0mg"},{"bike_id":"3b10439d-cb21-4a5e-9660-09353cde8a78","system_id":"levelo_inurba_marseille","lat":43.29858,"lon":5.36258,"is_reserved":false,"is_disabled":false,"rental_uris":{"android":"levelo://app?vid=3b10439d-cb21-4a5e-9660-09353cde8a78","ios":"levelo://app?vid=3b10439d-cb21-4a5e-9660-09353cde8a78"},"vehicle_type_id":"4","last_reported":1747213877,"current_range_meters":7200,"station_id":"ce4bgpp2rcd13ifvqc3g","pricing_plan_id":"cebpf4jnsgd1na2vs0mg"},{"bike_id":"23bfae5d-adbc-487a-a024-c8962e33e86d","system_id":"levelo_inurba_marseille","lat":43.24641,"lon":5.3891,"is_reserved":false,"is_disabled":false,"rental_uris":{"android":"levelo://app?vid=23bfae5d-adbc-487a-a024-c8962e33e86d","ios":"levelo://app?vid=23bfae5d-adbc-487a-a024-c8962e33e86d"},"vehicle_type_id":"4","last_reported":1747213877,"current_range_meters":7200,"station_id":"ce4bhg12rcd13ifvqf60","pricing_plan_id":"cebpf4jnsgd1na2vs0mg"},{"bike_id":"15a2b950-a0e9-498e-9324-65c190066fad","system_id":"levelo_inurba_marseille","lat":43.27492,"lon":5.42447,"is_reserved":false,"is_disabled":false,"rental_uris":{"android":"levelo://app?vid=15a2b950-a0e9-498e-9324-65c190066fad","ios":"levelo://app?vid=15a2b950-a0e9-498e-9324-65c190066fad"},"vehicle_type_id":"4","last_reported":1747213877,"current_range_meters":7200,"station_id":"ce4bhn92rcd13ifvqgrg","pricing_plan_id":"cebpf4jnsgd1na2vs0mg"},{"bike_id":"35b5cea5-eb5e-4949-bb0d-c4b66c729e32","system_id":"levelo_inurba_marseille","lat":43.335953,"lon":5.410251,"is_reserved":false,"is_disabled":false,"rental_uris":{"android":"levelo://app?vid=35b5cea5-eb5e-4949-bb0d-c4b66c729e32","ios":"levelo://app?vid=35b5cea5-eb5e-4949-bb0d-c4b66c729e32"},"vehicle_type_id":"4","last_reported":1747213877,"current_range_meters":7200,"station_id":"ce4bhqh2rcd13ifvqhmg","pricing_plan_id":"cebpf4jnsgd1na2vs0mg"},{"bike_id":"56bea2d5-1851-4bc0-b9ec-2abbd891bd8c","system_id":"levelo_inurba_marseille","lat":43.24166,"lon":5.3639,"is_reserved":false,"is_disabled":false,"rental_uris":{"android":"levelo://app?vid=56bea2d5-1851-4bc0-b9ec-2abbd891bd8c","ios":"levelo://app?vid=56bea2d5-1851-4bc0-b9ec-2abbd891bd8c"},"vehicle_type_id":"4","last_reported":1747213877,"current_range_meters":7200,"station_id":"cpo36qri1sfpv3e86is0","pricing_plan_id":"cebpf4jnsgd1na2vs0mg"},{"bike_id":"5de1e8df-cec1-47cf-b554-41f6e726d337","system_id":"levelo_inurba_marseille","lat":43.27428,"lon":5.4062,"is_reserved":false,"is_disabled":false,"rental_uris":{"android":"levelo://app?vid=5de1e8df-cec1-47cf-b554-41f6e726d337","ios":"levelo://app?vid=5de1e8df-cec1-47cf-b554-41f6e726d337"},"vehicle_type_id":"4","last_reported":1747213877,"current_range_meters":8000,"station_id":"","pricing_plan_id":"cebpf4jnsgd1na2vs0mg"},{"bike_id":"94317e06-bddc-4d0b-985e-077197fac53b","system_id":"levelo_inurba_marseille","lat":43.25902,"lon":5.40884,"is_reserved":false,"is_disabled":false,"rental_uris":{"android":"levelo://app?vid=94317e06-bddc-4d0b-985e-077197fac53b","ios":"levelo://app?vid=94317e06-bddc-4d0b-985e-077197fac53b"},"vehicle_type_id":"4","last_reported":1747213877,"current_range_meters":8000,"station_id":"ce4bhm92rcd13ifvqglg","pricing_plan_id":"cebpf4jnsgd1na2vs0mg"},{"bike_id":"b18be409-b1d8-4710-ae6b-52ce16f6f798","system_id":"levelo_inurba_marseille","lat":43.28255,"lon":5.35076,"is_reserved":false,"is_disabled":false,"rental_uris":{"android":"levelo://app?vid=b18be409-b1d8-4710-ae6b-52ce16f6f798","ios":"levelo://app?vid=b18be409-b1d8-4710-ae6b-52ce16f6f798"},"vehicle_type_id":"4","last_reported":1747213877,"current_range_meters":8400,"station_id":"ce4bhbp2rcd13ifvqerg","pricing_plan_id":"cebpf4jnsgd1na2vs0mg"},{"bike_id":"5140e868-be4e-4d32-9d49-48845e93e3e1","system_id":"levelo_inurba_marseille","lat":43.26675,"lon":5.38262,"is_reserved":false,"is_disabled":false,"rental_uris":{"android":"levelo://app?vid=5140e868-be4e-4d32-9d49-48845e93e3e1","ios":"levelo://app?vid=5140e868-be4e-4d32-9d49-48845e93e3e1"},"vehicle_type_id":"4","last_reported":1747213877,"current_range_meters":8400,"station_id":"ce4bhg92rcd13ifvqf90","pricing_plan_id":"cebpf4jnsgd1na2vs0mg"},{"bike_id":"014bef53-af0e-48e7-ad43-98d4a2618334","system_id":"levelo_inurba_marseille","lat":43.25489,"lon":5.37655,"is_reserved":false,"is_disabled":false,"rental_uris":{"android":"levelo://app?vid=014bef53-af0e-48e7-ad43-98d4a2618334","ios":"levelo://app?vid=014bef53-af0e-48e7-ad43-98d4a2618334"},"vehicle_type_id":"4","last_reported":1747213877,"current_range_meters":8400,"station_id":"ce4bhh12rcd13ifvqff0","pricing_plan_id":"cebpf4jnsgd1na2vs0mg"},{"bike_id":"f37b7848-b34f-4203-8cd6-ee4ac88ff930","system_id":"levelo_inurba_marseille","lat":43.23955,"lon":5.36621,"is_reserved":false,"is_disabled":false,"rental_uris":{"android":"levelo://app?vid=f37b7848-b34f-4203-8cd6-ee4ac88ff930","ios":"levelo://app?vid=f37b7848-b34f-4203-8cd6-ee4ac88ff930"},"vehicle_type_id":"4","last_reported":1747213877,"current_range_meters":8400,"station_id":"ce4bhi12rcd13ifvqfp0","pricing_plan_id":"cebpf4jnsgd1na2vs0mg"},{"bike_id":"368df87c-138f-49e8-92da-298f89f21d1e","system_id":"levelo_inurba_marseille","lat":43.23151,"lon":5.43719,"is_reserved":false,"is_disabled":false,"rental_uris":{"android":"levelo://app?vid=368df87c-138f-49e8-92da-298f89f21d1e","ios":"levelo://app?vid=368df87c-138f-49e8-92da-298f89f21d1e"},"vehicle_type_id":"4","last_reported":1747213877,"current_range_meters":8400,"station_id":"ce4bhmp2rcd13ifvqgog","pricing_plan_id":"cebpf4jnsgd1na2vs0mg"},{"bike_id":"060d34f9-d5e7-4c03-bb96-9e6501866e6d","system_id":"levelo_inurba_marseille","lat":43.24086,"lon":5.37729,"is_reserved":false,"is_disabled":false,"rental_uris":{"android":"levelo://app?vid=060d34f9-d5e7-4c03-bb96-9e6501866e6d","ios":"levelo://app?vid=060d34f9-d5e7-4c03-bb96-9e6501866e6d"},"vehicle_type_id":"4","last_reported":1747213877,"current_range_meters":8400,"station_id":"ce4bhnp2rcd13ifvqgvg","pricing_plan_id":"cebpf4jnsgd1na2vs0mg"},{"bike_id":"f94a9016-02fc-45d8-86c8-bc349b1ba5fb","system_id":"levelo_inurba_marseille","lat":43.31209,"lon":5.36844,"is_reserved":false,"is_disabled":false,"rental_uris":{"android":"levelo://app?vid=f94a9016-02fc-45d8-86c8-bc349b1ba5fb","ios":"levelo://app?vid=f94a9016-02fc-45d8-86c8-bc349b1ba5fb"},"vehicle_type_id":"4","last_reported":1747213877,"current_range_meters":8800,"station_id":"ce4bgl92rcd13ifvqbq0","pricing_plan_id":"cebpf4jnsgd1na2vs0mg"},{"bike_id":"6d621447-98b9-4f15-aea4-9237418e5642","system_id":"levelo_inurba_marseille","lat":43.31072,"lon":5.38359,"is_reserved":false,"is_disabled":false,"rental_uris":{"android":"levelo://app?vid=6d621447-98b9-4f15-aea4-9237418e5642","ios":"levelo://app?vid=6d621447-98b9-4f15-aea4-9237418e5642"},"vehicle_type_id":"4","last_reported":1747213877,"current_range_meters":8800,"station_id":"ce4bgv92rcd13ifvqcr0","pricing_plan_id":"cebpf4jnsgd1na2vs0mg"},{"bike_id":"13ecc84e-f70e-456d-a8bd-4eb7c33030ba","system_id":"levelo_inurba_marseille","lat":43.2572,"lon":5.41104,"is_reserved":false,"is_disabled":false,"rental_uris":{"android":"levelo://app?vid=13ecc84e-f70e-456d-a8bd-4eb7c33030ba","ios":"levelo://app?vid=13ecc84e-f70e-456d-a8bd-4eb7c33030ba"},"vehicle_type_id":"4","last_reported":1747213877,"current_range_meters":8800,"station_id":"ce4bhkp2rcd13ifvqgd0","pricing_plan_id":"cebpf4jnsgd1na2vs0mg"},{"bike_id":"5ace8871-bb09-4bf7-8f6b-8146dc5f4d45","system_id":"levelo_inurba_marseille","lat":43.2749,"lon":5.42452,"is_reserved":false,"is_disabled":false,"rental_uris":{"android":"levelo://app?vid=5ace8871-bb09-4bf7-8f6b-8146dc5f4d45","ios":"levelo://app?vid=5ace8871-bb09-4bf7-8f6b-8146dc5f4d45"},"vehicle_type_id":"4","last_reported":1747213877,"current_range_meters":8800,"station_id":"ce4bhn92rcd13ifvqgrg","pricing_plan_id":"cebpf4jnsgd1na2vs0mg"},{"bike_id":"0317d5e4-8858-43da-8df7-6424312ec563","system_id":"levelo_inurba_marseille","lat":43.30418,"lon":5.41284,"is_reserved":false,"is_disabled":false,"rental_uris":{"android":"levelo://app?vid=0317d5e4-8858-43da-8df7-6424312ec563","ios":"levelo://app?vid=0317d5e4-8858-43da-8df7-6424312ec563"},"vehicle_type_id":"4","last_reported":1747213877,"current_range_meters":8800,"station_id":"ce4bhop2rcd13ifvqh8g","pricing_plan_id":"cebpf4jnsgd1na2vs0mg"},{"bike_id":"bae0709b-c933-441a-ab47-3aad58f66d78","system_id":"levelo_inurba_marseille","lat":43.21762,"lon":5.34592,"is_reserved":false,"is_disabled":false,"rental_uris":{"android":"levelo://app?vid=bae0709b-c933-441a-ab47-3aad58f66d78","ios":"levelo://app?vid=bae0709b-c933-441a-ab47-3aad58f66d78"},"vehicle_type_id":"4","last_reported":1747213877,"current_range_meters":8800,"station_id":"st_cvj6r9ubvosntc0bgbag","pricing_plan_id":"cebpf4jnsgd1na2vs0mg"},{"bike_id":"40ebb906-96ed-4bbe-980c-cfb4dd2406c0","system_id":"levelo_inurba_marseille","lat":43.3361,"lon":5.41033,"is_reserved":false,"is_disabled":false,"rental_uris":{"android":"levelo://app?vid=40ebb906-96ed-4bbe-980c-cfb4dd2406c0","ios":"levelo://app?vid=40ebb906-96ed-4bbe-980c-cfb4dd2406c0"},"vehicle_type_id":"4","last_reported":1747213877,"current_range_meters":9200,"station_id":"ce4bhqh2rcd13ifvqhmg","pricing_plan_id":"cebpf4jnsgd1na2vs0mg"},{"bike_id":"71e3c66b-295c-422e-8a2e-07088555be29","system_id":"levelo_inurba_marseille","lat":43.21189,"lon":5.35072,"is_reserved":false,"is_disabled":false,"rental_uris":{"android":"levelo://app?vid=71e3c66b-295c-422e-8a2e-07088555be29","ios":"levelo://app?vid=71e3c66b-295c-422e-8a2e-07088555be29"},"vehicle_type_id":"4","last_reported":1747213877,"current_range_meters":9200,"station_id":"st_cvj6sg6p6f1abm77japg","pricing_plan_id":"cebpf4jnsgd1na2vs0mg"},{"bike_id":"59af256a-7624-40fc-aea1-4d80b2b595fc","system_id":"levelo_inurba_marseille","lat":43.31091,"lon":5.40066,"is_reserved":false,"is_disabled":false,"rental_uris":{"android":"levelo://app?vid=59af256a-7624-40fc-aea1-4d80b2b595fc","ios":"levelo://app?vid=59af256a-7624-40fc-aea1-4d80b2b595fc"},"vehicle_type_id":"4","last_reported":1747213877,"current_range_meters":9600,"station_id":"","pricing_plan_id":"cebpf4jnsgd1na2vs0mg"},{"bike_id":"2359f656-1202-4e06-bd34-1cbb1669bc47","system_id":"levelo_inurba_marseille","lat":43.29844,"lon":5.36273,"is_reserved":false,"is_disabled":false,"rental_uris":{"android":"levelo://app?vid=2359f656-1202-4e06-bd34-1cbb1669bc47","ios":"levelo://app?vid=2359f656-1202-4e06-bd34-1cbb1669bc47"},"vehicle_type_id":"4","last_reported":1747213877,"current_range_meters":9600,"station_id":"ce4bgpp2rcd13ifvqc3g","pricing_plan_id":"cebpf4jnsgd1na2vs0mg"},{"bike_id":"7314bc12-8235-4710-90cb-089414ee06da","system_id":"levelo_inurba_marseille","lat":43.27494,"lon":5.42446,"is_reserved":false,"is_disabled":false,"rental_uris":{"android":"levelo://app?vid=7314bc12-8235-4710-90cb-089414ee06da","ios":"levelo://app?vid=7314bc12-8235-4710-90cb-089414ee06da"},"vehicle_type_id":"4","last_reported":1747213877,"current_range_meters":9600,"station_id":"ce4bhn92rcd13ifvqgrg","pricing_plan_id":"cebpf4jnsgd1na2vs0mg"},{"bike_id":"617fc2ab-9566-4b28-ad56-20bf63d0c56e","system_id":"levelo_inurba_marseille","lat":43.30901,"lon":5.36879,"is_reserved":false,"is_disabled":false,"rental_uris":{"android":"levelo://app?vid=617fc2ab-9566-4b28-ad56-20bf63d0c56e","ios":"levelo://app?vid=617fc2ab-9566-4b28-ad56-20bf63d0c56e"},"vehicle_type_id":"4","last_reported":1747213877,"current_range_meters":10000,"station_id":"ce4bgn92rcd13ifvqbvg","pricing_plan_id":"cebpf4jnsgd1na2vs0mg"},{"bike_id":"b9fbc0cd-ef8c-4828-a17c-6c2e4782b940","system_id":"levelo_inurba_marseille","lat":43.3032,"lon":5.36891,"is_reserved":false,"is_disabled":false,"rental_uris":{"android":"levelo://app?vid=b9fbc0cd-ef8c-4828-a17c-6c2e4782b940","ios":"levelo://app?vid=b9fbc0cd-ef8c-4828-a17c-6c2e4782b940"},"vehicle_type_id":"4","last_reported":1747213877,"current_range_meters":10000,"station_id":"ce4bgqh2rcd13ifvqc5g","pricing_plan_id":"cebpf4jnsgd1na2vs0mg"},{"bike_id":"ec24b1c4-11a4-4afc-95ac-ef4ecb10a799","system_id":"levelo_inurba_marseille","lat":43.30949,"lon":5.39024,"is_reserved":false,"is_disabled":false,"rental_uris":{"android":"levelo://app?vid=ec24b1c4-11a4-4afc-95ac-ef4ecb10a799","ios":"levelo://app?vid=ec24b1c4-11a4-4afc-95ac-ef4ecb10a799"},"vehicle_type_id":"4","last_reported":1747213877,"current_range_meters":10000,"station_id":"ce4bgup2rcd13ifvqco0","pricing_plan_id":"cebpf4jnsgd1na2vs0mg"},{"bike_id":"6344ec72-4c08-4d15-b429-24d4b42c1c04","system_id":"levelo_inurba_marseille","lat":43.28686,"lon":5.38663,"is_reserved":false,"is_disabled":false,"rental_uris":{"android":"levelo://app?vid=6344ec72-4c08-4d15-b429-24d4b42c1c04","ios":"levelo://app?vid=6344ec72-4c08-4d15-b429-24d4b42c1c04"},"vehicle_type_id":"4","last_reported":1747213877,"current_range_meters":10000,"station_id":"ce4bh492rcd13ifvqdug","pricing_plan_id":"cebpf4jnsgd1na2vs0mg"},{"bike_id":"11f99379-395b-4569-9efc-607256d4d34e","system_id":"levelo_inurba_marseille","lat":43.337444,"lon":5.374475,"is_reserved":false,"is_disabled":false,"rental_uris":{"android":"levelo://app?vid=11f99379-395b-4569-9efc-607256d4d34e","ios":"levelo://app?vid=11f99379-395b-4569-9efc-607256d4d34e"},"vehicle_type_id":"4","last_reported":1747213877,"current_range_meters":10000,"station_id":"ce4bha12rcd13ifvqee0","pricing_plan_id":"cebpf4jnsgd1na2vs0mg"},{"bike_id":"c40b8f11-0bc0-48c8-92c7-ec58046b71ac","system_id":"levelo_inurba_marseille","lat":43.2827,"lon":5.35062,"is_reserved":false,"is_disabled":false,"rental_uris":{"android":"levelo://app?vid=c40b8f11-0bc0-48c8-92c7-ec58046b71ac","ios":"levelo://app?vid=c40b8f11-0bc0-48c8-92c7-ec58046b71ac"},"vehicle_type_id":"4","last_reported":1747213877,"current_range_meters":10000,"station_id":"ce4bhbp2rcd13ifvqerg","pricing_plan_id":"cebpf4jnsgd1na2vs0mg"},{"bike_id":"0bc6bfb7-a8d5-4f46-afcb-7cf7647e1135","system_id":"levelo_inurba_marseille","lat":43.231792,"lon":5.399897,"is_reserved":false,"is_disabled":false,"rental_uris":{"android":"levelo://app?vid=0bc6bfb7-a8d5-4f46-afcb-7cf7647e1135","ios":"levelo://app?vid=0bc6bfb7-a8d5-4f46-afcb-7cf7647e1135"},"vehicle_type_id":"4","last_reported":1747213877,"current_range_meters":10000,"station_id":"ce4bhn12rcd13ifvqgqg","pricing_plan_id":"cebpf4jnsgd1na2vs0mg"},{"bike_id":"b5aba406-d629-478b-89a0-eedfd961b68f","system_id":"levelo_inurba_marseille","lat":43.30435,"lon":5.41216,"is_reserved":false,"is_disabled":false,"rental_uris":{"android":"levelo://app?vid=b5aba406-d629-478b-89a0-eedfd961b68f","ios":"levelo://app?vid=b5aba406-d629-478b-89a0-eedfd961b68f"},"vehicle_type_id":"4","last_reported":1747213877,"current_range_meters":10000,"station_id":"ce4bhop2rcd13ifvqh8g","pricing_plan_id":"cebpf4jnsgd1na2vs0mg"},{"bike_id":"d559a899-b1bd-4a71-a12e-4458bcd0cdbf","system_id":"levelo_inurba_marseille","lat":43.2306,"lon":5.35491,"is_reserved":false,"is_disabled":false,"rental_uris":{"android":"levelo://app?vid=d559a899-b1bd-4a71-a12e-4458bcd0cdbf","ios":"levelo://app?vid=d559a899-b1bd-4a71-a12e-4458bcd0cdbf"},"vehicle_type_id":"4","last_reported":1747213877,"current_range_meters":10000,"station_id":"cpo3342slgdg3j2ifvpg","pricing_plan_id":"cebpf4jnsgd1na2vs0mg"},{"bike_id":"eeedddb1-f46f-4afb-ae44-7b75c31951a6","system_id":"levelo_inurba_marseille","lat":43.31483,"lon":5.37311,"is_reserved":false,"is_disabled":false,"rental_uris":{"android":"levelo://app?vid=eeedddb1-f46f-4afb-ae44-7b75c31951a6","ios":"levelo://app?vid=eeedddb1-f46f-4afb-ae44-7b75c31951a6"},"vehicle_type_id":"4","last_reported":1747213877,"current_range_meters":10800,"station_id":"ce4bgt12rcd13ifvqcd0","pricing_plan_id":"cebpf4jnsgd1na2vs0mg"},{"bike_id":"415d1367-47dd-4df3-93c6-a7303660e760","system_id":"levelo_inurba_marseille","lat":43.28373,"lon":5.38642,"is_reserved":false,"is_disabled":false,"rental_uris":{"android":"levelo://app?vid=415d1367-47dd-4df3-93c6-a7303660e760","ios":"levelo://app?vid=415d1367-47dd-4df3-93c6-a7303660e760"},"vehicle_type_id":"4","last_reported":1747213877,"current_range_meters":10800,"station_id":"ce4bh492rcd13ifvqdvg","pricing_plan_id":"cebpf4jnsgd1na2vs0mg"},{"bike_id":"40c02d98-2abb-4ffe-b51b-2eb349bcf3e7","system_id":"levelo_inurba_marseille","lat":43.24668,"lon":5.38164,"is_reserved":false,"is_disabled":false,"rental_uris":{"android":"levelo://app?vid=40c02d98-2abb-4ffe-b51b-2eb349bcf3e7","ios":"levelo://app?vid=40c02d98-2abb-4ffe-b51b-2eb349bcf3e7"},"vehicle_type_id":"4","last_reported":1747213877,"current_range_meters":10800,"station_id":"ce4bhih2rcd13ifvqfr0","pricing_plan_id":"cebpf4jnsgd1na2vs0mg"},{"bike_id":"2d9c08c0-bf40-45c9-b1a8-d15c183a79bf","system_id":"levelo_inurba_marseille","lat":43.24173,"lon":5.39733,"is_reserved":false,"is_disabled":false,"rental_uris":{"android":"levelo://app?vid=2d9c08c0-bf40-45c9-b1a8-d15c183a79bf","ios":"levelo://app?vid=2d9c08c0-bf40-45c9-b1a8-d15c183a79bf"},"vehicle_type_id":"4","last_reported":1747213877,"current_range_meters":10800,"station_id":"ce4bhn12rcd13ifvqgpg","pricing_plan_id":"cebpf4jnsgd1na2vs0mg"},{"bike_id":"963db9ec-7cee-4e54-80f3-0f95b7fc9601","system_id":"levelo_inurba_marseille","lat":43.28077,"lon":5.39663,"is_reserved":false,"is_disabled":false,"rental_uris":{"android":"levelo://app?vid=963db9ec-7cee-4e54-80f3-0f95b7fc9601","ios":"levelo://app?vid=963db9ec-7cee-4e54-80f3-0f95b7fc9601"},"vehicle_type_id":"4","last_reported":1747213877,"current_range_meters":10800,"station_id":"ce4bho12rcd13ifvqh2g","pricing_plan_id":"cebpf4jnsgd1na2vs0mg"},{"bike_id":"0e567798-f153-4018-a79c-cb1a14f63a42","system_id":"levelo_inurba_marseille","lat":43.32367,"lon":5.38885,"is_reserved":false,"is_disabled":false,"rental_uris":{"android":"levelo://app?vid=0e567798-f153-4018-a79c-cb1a14f63a42","ios":"levelo://app?vid=0e567798-f153-4018-a79c-cb1a14f63a42"},"vehicle_type_id":"4","last_reported":1747213877,"current_range_meters":10800,"station_id":"ce4bhqp2rcd13ifvqhog","pricing_plan_id":"cebpf4jnsgd1na2vs0mg"},{"bike_id":"4821750a-72fd-4a71-957e-987850a371e2","system_id":"levelo_inurba_marseille","lat":43.28036,"lon":5.4415,"is_reserved":false,"is_disabled":false,"rental_uris":{"android":"levelo://app?vid=4821750a-72fd-4a71-957e-987850a371e2","ios":"levelo://app?vid=4821750a-72fd-4a71-957e-987850a371e2"},"vehicle_type_id":"4","last_reported":1747213877,"current_range_meters":11200,"station_id":"","pricing_plan_id":"cebpf4jnsgd1na2vs0mg"},{"bike_id":"c9be8c79-bbbb-4e73-bbc8-4b74d99d6b4d","system_id":"levelo_inurba_marseille","lat":43.27375,"lon":5.36257,"is_reserved":false,"is_disabled":false,"rental_uris":{"android":"levelo://app?vid=c9be8c79-bbbb-4e73-bbc8-4b74d99d6b4d","ios":"levelo://app?vid=c9be8c79-bbbb-4e73-bbc8-4b74d99d6b4d"},"vehicle_type_id":"4","last_reported":1747213877,"current_range_meters":11200,"station_id":"ce4bhbh2rcd13ifvqeo0","pricing_plan_id":"cebpf4jnsgd1na2vs0mg"},{"bike_id":"7cc1c632-e901-4b77-829a-ed009753d36a","system_id":"levelo_inurba_marseille","lat":43.27051,"lon":5.40262,"is_reserved":false,"is_disabled":false,"rental_uris":{"android":"levelo://app?vid=7cc1c632-e901-4b77-829a-ed009753d36a","ios":"levelo://app?vid=7cc1c632-e901-4b77-829a-ed009753d36a"},"vehicle_type_id":"4","last_reported":1747213877,"current_range_meters":11200,"station_id":"ce4bhk92rcd13ifvqgc0","pricing_plan_id":"cebpf4jnsgd1na2vs0mg"},{"bike_id":"970b296e-c927-4bfc-89cc-9f289cee04a0","system_id":"levelo_inurba_marseille","lat":43.32107,"lon":5.36763,"is_reserved":false,"is_disabled":false,"rental_uris":{"android":"levelo://app?vid=970b296e-c927-4bfc-89cc-9f289cee04a0","ios":"levelo://app?vid=970b296e-c927-4bfc-89cc-9f289cee04a0"},"vehicle_type_id":"4","last_reported":1747213877,"current_range_meters":11200,"station_id":"ce4bhrh2rcd13ifvqhug","pricing_plan_id":"cebpf4jnsgd1na2vs0mg"},{"bike_id":"80e2ea7f-511c-4555-b6e4-0b32fa4ec3f0","system_id":"levelo_inurba_marseille","lat":43.305276,"lon":5.365328,"is_reserved":false,"is_disabled":false,"rental_uris":{"android":"levelo://app?vid=80e2ea7f-511c-4555-b6e4-0b32fa4ec3f0","ios":"levelo://app?vid=80e2ea7f-511c-4555-b6e4-0b32fa4ec3f0"},"vehicle_type_id":"4","last_reported":1747213877,"current_range_meters":11600,"station_id":"ce4bgs12rcd13ifvqcag","pricing_plan_id":"cebpf4jnsgd1na2vs0mg"},{"bike_id":"df677f49-53b7-4097-ab77-6e24d1bf0519","system_id":"levelo_inurba_marseille","lat":43.24175,"lon":5.39792,"is_reserved":false,"is_disabled":false,"rental_uris":{"android":"levelo://app?vid=df677f49-53b7-4097-ab77-6e24d1bf0519","ios":"levelo://app?vid=df677f49-53b7-4097-ab77-6e24d1bf0519"},"vehicle_type_id":"4","last_reported":1747213877,"current_range_meters":11600,"station_id":"ce4bhn12rcd13ifvqgpg","pricing_plan_id":"cebpf4jnsgd1na2vs0mg"},{"bike_id":"f57e6f12-c038-4a7e-8f40-23ed2bed5616","system_id":"levelo_inurba_marseille","lat":43.30145,"lon":5.47613,"is_reserved":false,"is_disabled":false,"rental_uris":{"android":"levelo://app?vid=f57e6f12-c038-4a7e-8f40-23ed2bed5616","ios":"levelo://app?vid=f57e6f12-c038-4a7e-8f40-23ed2bed5616"},"vehicle_type_id":"4","last_reported":1747213877,"current_range_meters":12000,"station_id":"","pricing_plan_id":"cebpf4jnsgd1na2vs0mg"},{"bike_id":"cd844e34-8c0e-477b-bd76-87c2a59c2ca8","system_id":"levelo_inurba_marseille","lat":43.2927,"lon":5.37637,"is_reserved":false,"is_disabled":false,"rental_uris":{"android":"levelo://app?vid=cd844e34-8c0e-477b-bd76-87c2a59c2ca8","ios":"levelo://app?vid=cd844e34-8c0e-477b-bd76-87c2a59c2ca8"},"vehicle_type_id":"4","last_reported":1747213877,"current_range_meters":12000,"station_id":"ce4bgi12rcd13ifvqb80","pricing_plan_id":"cebpf4jnsgd1na2vs0mg"},{"bike_id":"a833d924-97a9-4943-b1d5-f289079561e6","system_id":"levelo_inurba_marseille","lat":43.2963,"lon":5.40595,"is_reserved":false,"is_disabled":false,"rental_uris":{"android":"levelo://app?vid=a833d924-97a9-4943-b1d5-f289079561e6","ios":"levelo://app?vid=a833d924-97a9-4943-b1d5-f289079561e6"},"vehicle_type_id":"4","last_reported":1747213877,"current_range_meters":12000,"station_id":"ce4bh0h2rcd13ifvqd60","pricing_plan_id":"cebpf4jnsgd1na2vs0mg"},{"bike_id":"940b3909-b6f0-4f89-adfd-175725c0aab3","system_id":"levelo_inurba_marseille","lat":43.25914,"lon":5.40871,"is_reserved":false,"is_disabled":false,"rental_uris":{"android":"levelo://app?vid=940b3909-b6f0-4f89-adfd-175725c0aab3","ios":"levelo://app?vid=940b3909-b6f0-4f89-adfd-175725c0aab3"},"vehicle_type_id":"4","last_reported":1747213877,"current_range_meters":12000,"station_id":"ce4bhm92rcd13ifvqglg","pricing_plan_id":"cebpf4jnsgd1na2vs0mg"},{"bike_id":"301a3a6f-3f8e-4707-9290-d6655e615c25","system_id":"levelo_inurba_marseille","lat":43.317187,"lon":5.423922,"is_reserved":false,"is_disabled":false,"rental_uris":{"android":"levelo://app?vid=301a3a6f-3f8e-4707-9290-d6655e615c25","ios":"levelo://app?vid=301a3a6f-3f8e-4707-9290-d6655e615c25"},"vehicle_type_id":"4","last_reported":1747213877,"current_range_meters":12000,"station_id":"ce4bhp92rcd13ifvqhbg","pricing_plan_id":"cebpf4jnsgd1na2vs0mg"},{"bike_id":"7395c0f9-eb26-4cbc-9f9b-9c1edf7364f4","system_id":"levelo_inurba_marseille","lat":43.32957,"lon":5.40563,"is_reserved":false,"is_disabled":false,"rental_uris":{"android":"levelo://app?vid=7395c0f9-eb26-4cbc-9f9b-9c1edf7364f4","ios":"levelo://app?vid=7395c0f9-eb26-4cbc-9f9b-9c1edf7364f4"},"vehicle_type_id":"4","last_reported":1747213877,"current_range_meters":12400,"station_id":"","pricing_plan_id":"cebpf4jnsgd1na2vs0mg"},{"bike_id":"c57d7b91-3d37-4689-ae4c-1d4dc691b002","system_id":"levelo_inurba_marseille","lat":43.29785,"lon":5.39355,"is_reserved":false,"is_disabled":false,"rental_uris":{"android":"levelo://app?vid=c57d7b91-3d37-4689-ae4c-1d4dc691b002","ios":"levelo://app?vid=c57d7b91-3d37-4689-ae4c-1d4dc691b002"},"vehicle_type_id":"4","last_reported":1747213877,"current_range_meters":12400,"station_id":"chh1huq6cuj3fo74tm60","pricing_plan_id":"cebpf4jnsgd1na2vs0mg"},{"bike_id":"40115fd5-f59f-4b0c-9552-a95b14ed5e7f","system_id":"levelo_inurba_marseille","lat":43.30894,"lon":5.36852,"is_reserved":false,"is_disabled":false,"rental_uris":{"android":"levelo://app?vid=40115fd5-f59f-4b0c-9552-a95b14ed5e7f","ios":"levelo://app?vid=40115fd5-f59f-4b0c-9552-a95b14ed5e7f"},"vehicle_type_id":"4","last_reported":1747213877,"current_range_meters":12800,"station_id":"ce4bgn92rcd13ifvqbvg","pricing_plan_id":"cebpf4jnsgd1na2vs0mg"},{"bike_id":"dfb423ca-5aff-49db-9e19-40444dccc9a2","system_id":"levelo_inurba_marseille","lat":43.30909,"lon":5.3683,"is_reserved":false,"is_disabled":false,"rental_uris":{"android":"levelo://app?vid=dfb423ca-5aff-49db-9e19-40444dccc9a2","ios":"levelo://app?vid=dfb423ca-5aff-49db-9e19-40444dccc9a2"},"vehicle_type_id":"4","last_reported":1747213877,"current_range_meters":12800,"station_id":"ce4bgn92rcd13ifvqbvg","pricing_plan_id":"cebpf4jnsgd1na2vs0mg"},{"bike_id":"4eddd847-8995-4e44-868f-ea018f9193e9","system_id":"levelo_inurba_marseille","lat":43.29608,"lon":5.37727,"is_reserved":false,"is_disabled":false,"rental_uris":{"android":"levelo://app?vid=4eddd847-8995-4e44-868f-ea018f9193e9","ios":"levelo://app?vid=4eddd847-8995-4e44-868f-ea018f9193e9"},"vehicle_type_id":"4","last_reported":1747213877,"current_range_meters":13600,"station_id":"ce4bgi92rcd13ifvqb90","pricing_plan_id":"cebpf4jnsgd1na2vs0mg"},{"bike_id":"20be7e85-e350-4398-a65c-4d686a9251cf","system_id":"levelo_inurba_marseille","lat":43.29836,"lon":5.36271,"is_reserved":false,"is_disabled":false,"rental_uris":{"android":"levelo://app?vid=20be7e85-e350-4398-a65c-4d686a9251cf","ios":"levelo://app?vid=20be7e85-e350-4398-a65c-4d686a9251cf"},"vehicle_type_id":"4","last_reported":1747213877,"current_range_meters":13600,"station_id":"ce4bgpp2rcd13ifvqc3g","pricing_plan_id":"cebpf4jnsgd1na2vs0mg"},{"bike_id":"356eb65b-4211-494a-b4a2-fba28f60c55b","system_id":"levelo_inurba_marseille","lat":43.3127,"lon":5.40161,"is_reserved":false,"is_disabled":false,"rental_uris":{"android":"levelo://app?vid=356eb65b-4211-494a-b4a2-fba28f60c55b","ios":"levelo://app?vid=356eb65b-4211-494a-b4a2-fba28f60c55b"},"vehicle_type_id":"4","last_reported":1747213877,"current_range_meters":13600,"station_id":"ce4bh092rcd13ifvqd30","pricing_plan_id":"cebpf4jnsgd1na2vs0mg"},{"bike_id":"bd806c24-40e2-46b4-a818-91786a11e5aa","system_id":"levelo_inurba_marseille","lat":43.29003,"lon":5.35609,"is_reserved":false,"is_disabled":false,"rental_uris":{"android":"levelo://app?vid=bd806c24-40e2-46b4-a818-91786a11e5aa","ios":"levelo://app?vid=bd806c24-40e2-46b4-a818-91786a11e5aa"},"vehicle_type_id":"4","last_reported":1747213877,"current_range_meters":13600,"station_id":"ce4bhb92rcd13ifvqen0","pricing_plan_id":"cebpf4jnsgd1na2vs0mg"},{"bike_id":"1e297e0e-a907-489c-9a22-1dfb89bfb64f","system_id":"levelo_inurba_marseille","lat":43.29226,"lon":5.36415,"is_reserved":false,"is_disabled":false,"rental_uris":{"android":"levelo://app?vid=1e297e0e-a907-489c-9a22-1dfb89bfb64f","ios":"levelo://app?vid=1e297e0e-a907-489c-9a22-1dfb89bfb64f"},"vehicle_type_id":"4","last_reported":1747213877,"current_range_meters":14000,"station_id":"","pricing_plan_id":"cebpf4jnsgd1na2vs0mg"},{"bike_id":"0c893fb7-8626-4706-85bf-f404b871dea5","system_id":"levelo_inurba_marseille","lat":43.28165,"lon":5.42876,"is_reserved":false,"is_disabled":false,"rental_uris":{"android":"levelo://app?vid=0c893fb7-8626-4706-85bf-f404b871dea5","ios":"levelo://app?vid=0c893fb7-8626-4706-85bf-f404b871dea5"},"vehicle_type_id":"4","last_reported":1747213877,"current_range_meters":14000,"station_id":"","pricing_plan_id":"cebpf4jnsgd1na2vs0mg"},{"bike_id":"50f852ba-3066-4971-a71a-9677257b8509","system_id":"levelo_inurba_marseille","lat":43.31707,"lon":5.40456,"is_reserved":false,"is_disabled":false,"rental_uris":{"android":"levelo://app?vid=50f852ba-3066-4971-a71a-9677257b8509","ios":"levelo://app?vid=50f852ba-3066-4971-a71a-9677257b8509"},"vehicle_type_id":"4","last_reported":1747213877,"current_range_meters":14000,"station_id":"ce4bh012rcd13ifvqd00","pricing_plan_id":"cebpf4jnsgd1na2vs0mg"},{"bike_id":"933a352f-83ca-44fa-889d-ce26d3a2d8bb","system_id":"levelo_inurba_marseille","lat":43.25929,"lon":5.40885,"is_reserved":false,"is_disabled":false,"rental_uris":{"android":"levelo://app?vid=933a352f-83ca-44fa-889d-ce26d3a2d8bb","ios":"levelo://app?vid=933a352f-83ca-44fa-889d-ce26d3a2d8bb"},"vehicle_type_id":"4","last_reported":1747213877,"current_range_meters":14000,"station_id":"ce4bhm92rcd13ifvqglg","pricing_plan_id":"cebpf4jnsgd1na2vs0mg"},{"bike_id":"062667b2-da2e-456d-9f1e-a7e3f0d43f43","system_id":"levelo_inurba_marseille","lat":43.28932,"lon":5.38384,"is_reserved":false,"is_disabled":false,"rental_uris":{"android":"levelo://app?vid=062667b2-da2e-456d-9f1e-a7e3f0d43f43","ios":"levelo://app?vid=062667b2-da2e-456d-9f1e-a7e3f0d43f43"},"vehicle_type_id":"4","last_reported":1747213877,"current_range_meters":14400,"station_id":"ce4bh612rcd13ifvqe6g","pricing_plan_id":"cebpf4jnsgd1na2vs0mg"},{"bike_id":"24074dfc-d164-4b96-83e3-db226a2978d5","system_id":"levelo_inurba_marseille","lat":43.29001,"lon":5.35614,"is_reserved":false,"is_disabled":false,"rental_uris":{"android":"levelo://app?vid=24074dfc-d164-4b96-83e3-db226a2978d5","ios":"levelo://app?vid=24074dfc-d164-4b96-83e3-db226a2978d5"},"vehicle_type_id":"4","last_reported":1747213877,"current_range_meters":14400,"station_id":"ce4bhb92rcd13ifvqen0","pricing_plan_id":"cebpf4jnsgd1na2vs0mg"},{"bike_id":"1dffea47-932b-472d-a926-7c8a262923fb","system_id":"levelo_inurba_marseille","lat":43.25918,"lon":5.40894,"is_reserved":false,"is_disabled":false,"rental_uris":{"android":"levelo://app?vid=1dffea47-932b-472d-a926-7c8a262923fb","ios":"levelo://app?vid=1dffea47-932b-472d-a926-7c8a262923fb"},"vehicle_type_id":"4","last_reported":1747213877,"current_range_meters":14400,"station_id":"ce4bhm92rcd13ifvqglg","pricing_plan_id":"cebpf4jnsgd1na2vs0mg"},{"bike_id":"0ee57cd3-b290-46af-a35a-6f306772e452","system_id":"levelo_inurba_marseille","lat":43.30662,"lon":5.40273,"is_reserved":false,"is_disabled":false,"rental_uris":{"android":"levelo://app?vid=0ee57cd3-b290-46af-a35a-6f306772e452","ios":"levelo://app?vid=0ee57cd3-b290-46af-a35a-6f306772e452"},"vehicle_type_id":"4","last_reported":1747213877,"current_range_meters":14800,"station_id":"","pricing_plan_id":"cebpf4jnsgd1na2vs0mg"},{"bike_id":"001fca09-d243-4833-81a2-145093d8da14","system_id":"levelo_inurba_marseille","lat":43.30304,"lon":5.37699,"is_reserved":false,"is_disabled":false,"rental_uris":{"android":"levelo://app?vid=001fca09-d243-4833-81a2-145093d8da14","ios":"levelo://app?vid=001fca09-d243-4833-81a2-145093d8da14"},"vehicle_type_id":"4","last_reported":1747213877,"current_range_meters":14800,"station_id":"ce4bguh2rcd13ifvqcj0","pricing_plan_id":"cebpf4jnsgd1na2vs0mg"},{"bike_id":"6a550c25-b035-4a5c-ace0-126e2f4677d1","system_id":"levelo_inurba_marseille","lat":43.302867,"lon":5.377045,"is_reserved":false,"is_disabled":false,"rental_uris":{"android":"levelo://app?vid=6a550c25-b035-4a5c-ace0-126e2f4677d1","ios":"levelo://app?vid=6a550c25-b035-4a5c-ace0-126e2f4677d1"},"vehicle_type_id":"4","last_reported":1747213877,"current_range_meters":14800,"station_id":"ce4bguh2rcd13ifvqcj0","pricing_plan_id":"cebpf4jnsgd1na2vs0mg"},{"bike_id":"95394e40-e8fd-4c74-978a-8d93d1815731","system_id":"levelo_inurba_marseille","lat":43.29075,"lon":5.37172,"is_reserved":false,"is_disabled":false,"rental_uris":{"android":"levelo://app?vid=95394e40-e8fd-4c74-978a-8d93d1815731","ios":"levelo://app?vid=95394e40-e8fd-4c74-978a-8d93d1815731"},"vehicle_type_id":"4","last_reported":1747213877,"current_range_meters":14800,"station_id":"ce4bh5p2rcd13ifvqe4g","pricing_plan_id":"cebpf4jnsgd1na2vs0mg"},{"bike_id":"52c96c9b-7761-4bf0-baed-cf4ef8fe3467","system_id":"levelo_inurba_marseille","lat":43.26196,"lon":5.40415,"is_reserved":false,"is_disabled":false,"rental_uris":{"android":"levelo://app?vid=52c96c9b-7761-4bf0-baed-cf4ef8fe3467","ios":"levelo://app?vid=52c96c9b-7761-4bf0-baed-cf4ef8fe3467"},"vehicle_type_id":"4","last_reported":1747213877,"current_range_meters":14800,"station_id":"ce4bhmh2rcd13ifvqgmg","pricing_plan_id":"cebpf4jnsgd1na2vs0mg"},{"bike_id":"810460f7-37ea-4725-9c60-c72817fcc2e7","system_id":"levelo_inurba_marseille","lat":43.25583,"lon":5.38225,"is_reserved":false,"is_disabled":false,"rental_uris":{"android":"levelo://app?vid=810460f7-37ea-4725-9c60-c72817fcc2e7","ios":"levelo://app?vid=810460f7-37ea-4725-9c60-c72817fcc2e7"},"vehicle_type_id":"4","last_reported":1747213877,"current_range_meters":15200,"station_id":"ce4bhih2rcd13ifvqfs0","pricing_plan_id":"cebpf4jnsgd1na2vs0mg"},{"bike_id":"d22b85d8-e0ab-4afa-84e5-63a291aac55d","system_id":"levelo_inurba_marseille","lat":43.29964,"lon":5.38493,"is_reserved":false,"is_disabled":false,"rental_uris":{"android":"levelo://app?vid=d22b85d8-e0ab-4afa-84e5-63a291aac55d","ios":"levelo://app?vid=d22b85d8-e0ab-4afa-84e5-63a291aac55d"},"vehicle_type_id":"4","last_reported":1747213877,"current_range_meters":16000,"station_id":"ce4bgj92rcd13ifvqbd0","pricing_plan_id":"cebpf4jnsgd1na2vs0mg"},{"bike_id":"3c855199-68ef-4b73-91c5-9c5620ddd198","system_id":"levelo_inurba_marseille","lat":43.313614,"lon":5.367215,"is_reserved":false,"is_disabled":false,"rental_uris":{"android":"levelo://app?vid=3c855199-68ef-4b73-91c5-9c5620ddd198","ios":"levelo://app?vid=3c855199-68ef-4b73-91c5-9c5620ddd198"},"vehicle_type_id":"4","last_reported":1747213877,"current_range_meters":16000,"station_id":"ce4bgr92rcd13ifvqc6g","pricing_plan_id":"cebpf4jnsgd1na2vs0mg"},{"bike_id":"ae9f2815-6b89-4788-b50f-46e55d7d7946","system_id":"levelo_inurba_marseille","lat":43.30792,"lon":5.38161,"is_reserved":false,"is_disabled":false,"rental_uris":{"android":"levelo://app?vid=ae9f2815-6b89-4788-b50f-46e55d7d7946","ios":"levelo://app?vid=ae9f2815-6b89-4788-b50f-46e55d7d7946"},"vehicle_type_id":"4","last_reported":1747213877,"current_range_meters":16000,"station_id":"ce4bgt12rcd13ifvqce0","pricing_plan_id":"cebpf4jnsgd1na2vs0mg"},{"bike_id":"de1c15b0-29d0-4080-abf5-06f0e107f8bc","system_id":"levelo_inurba_marseille","lat":43.30896,"lon":5.37166,"is_reserved":false,"is_disabled":false,"rental_uris":{"android":"levelo://app?vid=de1c15b0-29d0-4080-abf5-06f0e107f8bc","ios":"levelo://app?vid=de1c15b0-29d0-4080-abf5-06f0e107f8bc"},"vehicle_type_id":"4","last_reported":1747213877,"current_range_meters":16000,"station_id":"ce4bguh2rcd13ifvqckg","pricing_plan_id":"cebpf4jnsgd1na2vs0mg"},{"bike_id":"870315f0-4224-4c46-aef0-9cf69bde059b","system_id":"levelo_inurba_marseille","lat":43.30957,"lon":5.3903,"is_reserved":false,"is_disabled":false,"rental_uris":{"android":"levelo://app?vid=870315f0-4224-4c46-aef0-9cf69bde059b","ios":"levelo://app?vid=870315f0-4224-4c46-aef0-9cf69bde059b"},"vehicle_type_id":"4","last_reported":1747213877,"current_range_meters":16000,"station_id":"ce4bgup2rcd13ifvqco0","pricing_plan_id":"cebpf4jnsgd1na2vs0mg"},{"bike_id":"84df3c30-e73f-4508-a951-4ad2f662aca5","system_id":"levelo_inurba_marseille","lat":43.28929,"lon":5.38392,"is_reserved":false,"is_disabled":false,"rental_uris":{"android":"levelo://app?vid=84df3c30-e73f-4508-a951-4ad2f662aca5","ios":"levelo://app?vid=84df3c30-e73f-4508-a951-4ad2f662aca5"},"vehicle_type_id":"4","last_reported":1747213877,"current_range_meters":16000,"station_id":"ce4bh612rcd13ifvqe6g","pricing_plan_id":"cebpf4jnsgd1na2vs0mg"},{"bike_id":"3cba3960-f711-43c2-a283-fa691f06f8f1","system_id":"levelo_inurba_marseille","lat":43.28101,"lon":5.37832,"is_reserved":false,"is_disabled":false,"rental_uris":{"android":"levelo://app?vid=3cba3960-f711-43c2-a283-fa691f06f8f1","ios":"levelo://app?vid=3cba3960-f711-43c2-a283-fa691f06f8f1"},"vehicle_type_id":"4","last_reported":1747213877,"current_range_meters":16000,"station_id":"ce4bha12rcd13ifvqee0","pricing_plan_id":"cebpf4jnsgd1na2vs0mg"},{"bike_id":"48db0a8c-78e3-4cb8-ac0d-f410ba2e6c93","system_id":"levelo_inurba_marseille","lat":43.29556,"lon":5.42285,"is_reserved":false,"is_disabled":false,"rental_uris":{"android":"levelo://app?vid=48db0a8c-78e3-4cb8-ac0d-f410ba2e6c93","ios":"levelo://app?vid=48db0a8c-78e3-4cb8-ac0d-f410ba2e6c93"},"vehicle_type_id":"4","last_reported":1747213877,"current_range_meters":16000,"station_id":"ce4bhph2rcd13ifvqhdg","pricing_plan_id":"cebpf4jnsgd1na2vs0mg"},{"bike_id":"0e8642d3-ec75-4e47-a53d-494336dd8f40","system_id":"levelo_inurba_marseille","lat":43.29566,"lon":5.42286,"is_reserved":false,"is_disabled":false,"rental_uris":{"android":"levelo://app?vid=0e8642d3-ec75-4e47-a53d-494336dd8f40","ios":"levelo://app?vid=0e8642d3-ec75-4e47-a53d-494336dd8f40"},"vehicle_type_id":"4","last_reported":1747213877,"current_range_meters":16000,"station_id":"ce4bhph2rcd13ifvqhdg","pricing_plan_id":"cebpf4jnsgd1na2vs0mg"},{"bike_id":"1ba5ead2-2e31-461f-a34f-3e096c610c38","system_id":"levelo_inurba_marseille","lat":43.336,"lon":5.41003,"is_reserved":false,"is_disabled":false,"rental_uris":{"android":"levelo://app?vid=1ba5ead2-2e31-461f-a34f-3e096c610c38","ios":"levelo://app?vid=1ba5ead2-2e31-461f-a34f-3e096c610c38"},"vehicle_type_id":"4","last_reported":1747213877,"current_range_meters":16000,"station_id":"ce4bhqh2rcd13ifvqhmg","pricing_plan_id":"cebpf4jnsgd1na2vs0mg"},{"bike_id":"38211f5a-9e6b-43fb-a533-35898239b6a3","system_id":"levelo_inurba_marseille","lat":43.23964,"lon":5.36625,"is_reserved":false,"is_disabled":false,"rental_uris":{"android":"levelo://app?vid=38211f5a-9e6b-43fb-a533-35898239b6a3","ios":"levelo://app?vid=38211f5a-9e6b-43fb-a533-35898239b6a3"},"vehicle_type_id":"4","last_reported":1747213877,"current_range_meters":16400,"station_id":"ce4bhi12rcd13ifvqfp0","pricing_plan_id":"cebpf4jnsgd1na2vs0mg"},{"bike_id":"575f2bbf-9a27-4a66-9eac-3b06c627bf97","system_id":"levelo_inurba_marseille","lat":43.29557,"lon":5.42283,"is_reserved":false,"is_disabled":false,"rental_uris":{"android":"levelo://app?vid=575f2bbf-9a27-4a66-9eac-3b06c627bf97","ios":"levelo://app?vid=575f2bbf-9a27-4a66-9eac-3b06c627bf97"},"vehicle_type_id":"4","last_reported":1747213877,"current_range_meters":16400,"station_id":"ce4bhph2rcd13ifvqhdg","pricing_plan_id":"cebpf4jnsgd1na2vs0mg"},{"bike_id":"1c5b676c-9de4-49c9-8aa1-3578233e2190","system_id":"levelo_inurba_marseille","lat":43.33611,"lon":5.41027,"is_reserved":false,"is_disabled":false,"rental_uris":{"android":"levelo://app?vid=1c5b676c-9de4-49c9-8aa1-3578233e2190","ios":"levelo://app?vid=1c5b676c-9de4-49c9-8aa1-3578233e2190"},"vehicle_type_id":"4","last_reported":1747213877,"current_range_meters":16400,"station_id":"ce4bhqh2rcd13ifvqhmg","pricing_plan_id":"cebpf4jnsgd1na2vs0mg"},{"bike_id":"c5a6038e-e242-4c42-a6da-186787771b16","system_id":"levelo_inurba_marseille","lat":43.21752,"lon":5.34601,"is_reserved":false,"is_disabled":false,"rental_uris":{"android":"levelo://app?vid=c5a6038e-e242-4c42-a6da-186787771b16","ios":"levelo://app?vid=c5a6038e-e242-4c42-a6da-186787771b16"},"vehicle_type_id":"4","last_reported":1747213877,"current_range_meters":16400,"station_id":"st_cvj6r9ubvosntc0bgbag","pricing_plan_id":"cebpf4jnsgd1na2vs0mg"},{"bike_id":"5bbbc40c-f406-4f05-a39a-22fd9fa37d5e","system_id":"levelo_inurba_marseille","lat":43.30534,"lon":5.3669,"is_reserved":false,"is_disabled":false,"rental_uris":{"android":"levelo://app?vid=5bbbc40c-f406-4f05-a39a-22fd9fa37d5e","ios":"levelo://app?vid=5bbbc40c-f406-4f05-a39a-22fd9fa37d5e"},"vehicle_type_id":"4","last_reported":1747213877,"current_range_meters":16800,"station_id":"ce4bgrp2rcd13ifvqc9g","pricing_plan_id":"cebpf4jnsgd1na2vs0mg"},{"bike_id":"e208432d-b998-4a18-9c6b-c65e0388dc6b","system_id":"levelo_inurba_marseille","lat":43.30948,"lon":5.39024,"is_reserved":false,"is_disabled":false,"rental_uris":{"android":"levelo://app?vid=e208432d-b998-4a18-9c6b-c65e0388dc6b","ios":"levelo://app?vid=e208432d-b998-4a18-9c6b-c65e0388dc6b"},"vehicle_type_id":"4","last_reported":1747213877,"current_range_meters":16800,"station_id":"ce4bgup2rcd13ifvqco0","pricing_plan_id":"cebpf4jnsgd1na2vs0mg"},{"bike_id":"5e794677-7be6-46d4-b252-ad01dc1dd61b","system_id":"levelo_inurba_marseille","lat":43.24402,"lon":5.37055,"is_reserved":false,"is_disabled":false,"rental_uris":{"android":"levelo://app?vid=5e794677-7be6-46d4-b252-ad01dc1dd61b","ios":"levelo://app?vid=5e794677-7be6-46d4-b252-ad01dc1dd61b"},"vehicle_type_id":"4","last_reported":1747213877,"current_range_meters":16800,"station_id":"ce4bhhh2rcd13ifvqfk0","pricing_plan_id":"cebpf4jnsgd1na2vs0mg"},{"bike_id":"0e9a6d4b-17d4-4e8e-b3ec-672637dde326","system_id":"levelo_inurba_marseille","lat":43.27052,"lon":5.4026,"is_reserved":false,"is_disabled":false,"rental_uris":{"android":"levelo://app?vid=0e9a6d4b-17d4-4e8e-b3ec-672637dde326","ios":"levelo://app?vid=0e9a6d4b-17d4-4e8e-b3ec-672637dde326"},"vehicle_type_id":"4","last_reported":1747213877,"current_range_meters":16800,"station_id":"ce4bhk92rcd13ifvqgc0","pricing_plan_id":"cebpf4jnsgd1na2vs0mg"},{"bike_id":"3dbbdd29-a567-4b65-aeb8-782aaa6b395c","system_id":"levelo_inurba_marseille","lat":43.25931,"lon":5.40908,"is_reserved":false,"is_disabled":false,"rental_uris":{"android":"levelo://app?vid=3dbbdd29-a567-4b65-aeb8-782aaa6b395c","ios":"levelo://app?vid=3dbbdd29-a567-4b65-aeb8-782aaa6b395c"},"vehicle_type_id":"4","last_reported":1747213877,"current_range_meters":16800,"station_id":"ce4bhm92rcd13ifvqglg","pricing_plan_id":"cebpf4jnsgd1na2vs0mg"},{"bike_id":"69757105-9188-4d0d-87fa-3cb5b4a9e6c7","system_id":"levelo_inurba_marseille","lat":43.231549,"lon":5.437176,"is_reserved":false,"is_disabled":false,"rental_uris":{"android":"levelo://app?vid=69757105-9188-4d0d-87fa-3cb5b4a9e6c7","ios":"levelo://app?vid=69757105-9188-4d0d-87fa-3cb5b4a9e6c7"},"vehicle_type_id":"4","last_reported":1747213877,"current_range_meters":16800,"station_id":"ce4bhmp2rcd13ifvqgog","pricing_plan_id":"cebpf4jnsgd1na2vs0mg"},{"bike_id":"c31e5abf-211d-43ee-bd94-73969be1843c","system_id":"levelo_inurba_marseille","lat":43.33602,"lon":5.41014,"is_reserved":false,"is_disabled":false,"rental_uris":{"android":"levelo://app?vid=c31e5abf-211d-43ee-bd94-73969be1843c","ios":"levelo://app?vid=c31e5abf-211d-43ee-bd94-73969be1843c"},"vehicle_type_id":"4","last_reported":1747213877,"current_range_meters":16800,"station_id":"ce4bhqh2rcd13ifvqhmg","pricing_plan_id":"cebpf4jnsgd1na2vs0mg"},{"bike_id":"97733048-80cb-416a-9908-a6cec16c99af","system_id":"levelo_inurba_marseille","lat":43.29532,"lon":5.38542,"is_reserved":false,"is_disabled":false,"rental_uris":{"android":"levelo://app?vid=97733048-80cb-416a-9908-a6cec16c99af","ios":"levelo://app?vid=97733048-80cb-416a-9908-a6cec16c99af"},"vehicle_type_id":"4","last_reported":1747213877,"current_range_meters":17200,"station_id":"ce4bgih2rcd13ifvqba0","pricing_plan_id":"cebpf4jnsgd1na2vs0mg"},{"bike_id":"f0461f09-2cb2-4b60-be17-9880adc6dc06","system_id":"levelo_inurba_marseille","lat":43.309,"lon":5.3684,"is_reserved":false,"is_disabled":false,"rental_uris":{"android":"levelo://app?vid=f0461f09-2cb2-4b60-be17-9880adc6dc06","ios":"levelo://app?vid=f0461f09-2cb2-4b60-be17-9880adc6dc06"},"vehicle_type_id":"4","last_reported":1747213877,"current_range_meters":17200,"station_id":"ce4bgn92rcd13ifvqbvg","pricing_plan_id":"cebpf4jnsgd1na2vs0mg"},{"bike_id":"6b82dbd3-1d57-4150-b94f-1a0dbc062490","system_id":"levelo_inurba_marseille","lat":43.291982,"lon":5.358075,"is_reserved":false,"is_disabled":false,"rental_uris":{"android":"levelo://app?vid=6b82dbd3-1d57-4150-b94f-1a0dbc062490","ios":"levelo://app?vid=6b82dbd3-1d57-4150-b94f-1a0dbc062490"},"vehicle_type_id":"4","last_reported":1747213877,"current_range_meters":17200,"station_id":"ce4bhb12rcd13ifvqel0","pricing_plan_id":"cebpf4jnsgd1na2vs0mg"},{"bike_id":"27cd2e72-fe92-4836-9c89-95057fa916b3","system_id":"levelo_inurba_marseille","lat":43.25583,"lon":5.38229,"is_reserved":false,"is_disabled":false,"rental_uris":{"android":"levelo://app?vid=27cd2e72-fe92-4836-9c89-95057fa916b3","ios":"levelo://app?vid=27cd2e72-fe92-4836-9c89-95057fa916b3"},"vehicle_type_id":"4","last_reported":1747213877,"current_range_meters":17200,"station_id":"ce4bhih2rcd13ifvqfs0","pricing_plan_id":"cebpf4jnsgd1na2vs0mg"},{"bike_id":"81df83bd-96fe-4025-8404-279d0c4d21a9","system_id":"levelo_inurba_marseille","lat":43.25896,"lon":5.40901,"is_reserved":false,"is_disabled":false,"rental_uris":{"android":"levelo://app?vid=81df83bd-96fe-4025-8404-279d0c4d21a9","ios":"levelo://app?vid=81df83bd-96fe-4025-8404-279d0c4d21a9"},"vehicle_type_id":"4","last_reported":1747213877,"current_range_meters":17200,"station_id":"ce4bhm92rcd13ifvqglg","pricing_plan_id":"cebpf4jnsgd1na2vs0mg"},{"bike_id":"5b2bf2cc-e79c-4a99-a91f-20d49657d90b","system_id":"levelo_inurba_marseille","lat":43.24159,"lon":5.39734,"is_reserved":false,"is_disabled":false,"rental_uris":{"android":"levelo://app?vid=5b2bf2cc-e79c-4a99-a91f-20d49657d90b","ios":"levelo://app?vid=5b2bf2cc-e79c-4a99-a91f-20d49657d90b"},"vehicle_type_id":"4","last_reported":1747213877,"current_range_meters":17200,"station_id":"ce4bhn12rcd13ifvqgpg","pricing_plan_id":"cebpf4jnsgd1na2vs0mg"},{"bike_id":"bf7c062a-919e-4c12-b4f5-03150c3a5554","system_id":"levelo_inurba_marseille","lat":43.33724,"lon":5.39187,"is_reserved":false,"is_disabled":false,"rental_uris":{"android":"levelo://app?vid=bf7c062a-919e-4c12-b4f5-03150c3a5554","ios":"levelo://app?vid=bf7c062a-919e-4c12-b4f5-03150c3a5554"},"vehicle_type_id":"4","last_reported":1747213877,"current_range_meters":17200,"station_id":"ce4bhr92rcd13ifvqhsg","pricing_plan_id":"cebpf4jnsgd1na2vs0mg"},{"bike_id":"5647a91f-31a6-41fb-82bb-83893a94fc73","system_id":"levelo_inurba_marseille","lat":43.21207,"lon":5.35057,"is_reserved":false,"is_disabled":false,"rental_uris":{"android":"levelo://app?vid=5647a91f-31a6-41fb-82bb-83893a94fc73","ios":"levelo://app?vid=5647a91f-31a6-41fb-82bb-83893a94fc73"},"vehicle_type_id":"4","last_reported":1747213877,"current_range_meters":17200,"station_id":"st_cvj6sg6p6f1abm77japg","pricing_plan_id":"cebpf4jnsgd1na2vs0mg"},{"bike_id":"c77744cd-dd85-473a-952b-e9873b6afa4f","system_id":"levelo_inurba_marseille","lat":43.33236,"lon":5.40422,"is_reserved":false,"is_disabled":false,"rental_uris":{"android":"levelo://app?vid=c77744cd-dd85-473a-952b-e9873b6afa4f","ios":"levelo://app?vid=c77744cd-dd85-473a-952b-e9873b6afa4f"},"vehicle_type_id":"4","last_reported":1747213877,"current_range_meters":17600,"station_id":"","pricing_plan_id":"cebpf4jnsgd1na2vs0mg"},{"bike_id":"043f532c-998c-419c-b049-5858acd79f09","system_id":"levelo_inurba_marseille","lat":43.29555,"lon":5.37514,"is_reserved":false,"is_disabled":false,"rental_uris":{"android":"levelo://app?vid=043f532c-998c-419c-b049-5858acd79f09","ios":"levelo://app?vid=043f532c-998c-419c-b049-5858acd79f09"},"vehicle_type_id":"4","last_reported":1747213877,"current_range_meters":17600,"station_id":"ce4bgh92rcd13ifvqb50","pricing_plan_id":"cebpf4jnsgd1na2vs0mg"},{"bike_id":"b410c5c1-f2ab-4ebb-9241-9624efc4df99","system_id":"levelo_inurba_marseille","lat":43.2958,"lon":5.36737,"is_reserved":false,"is_disabled":false,"rental_uris":{"android":"levelo://app?vid=b410c5c1-f2ab-4ebb-9241-9624efc4df99","ios":"levelo://app?vid=b410c5c1-f2ab-4ebb-9241-9624efc4df99"},"vehicle_type_id":"4","last_reported":1747213877,"current_range_meters":17600,"station_id":"ce4bgph2rcd13ifvqc2g","pricing_plan_id":"cebpf4jnsgd1na2vs0mg"},{"bike_id":"79551c89-5000-4c4f-9697-71b8d28a3132","system_id":"levelo_inurba_marseille","lat":43.31347,"lon":5.36704,"is_reserved":false,"is_disabled":false,"rental_uris":{"android":"levelo://app?vid=79551c89-5000-4c4f-9697-71b8d28a3132","ios":"levelo://app?vid=79551c89-5000-4c4f-9697-71b8d28a3132"},"vehicle_type_id":"4","last_reported":1747213877,"current_range_meters":17600,"station_id":"ce4bgr92rcd13ifvqc6g","pricing_plan_id":"cebpf4jnsgd1na2vs0mg"},{"bike_id":"8c882482-d271-420f-a4e9-831677c3410a","system_id":"levelo_inurba_marseille","lat":43.30538,"lon":5.36679,"is_reserved":false,"is_disabled":false,"rental_uris":{"android":"levelo://app?vid=8c882482-d271-420f-a4e9-831677c3410a","ios":"levelo://app?vid=8c882482-d271-420f-a4e9-831677c3410a"},"vehicle_type_id":"4","last_reported":1747213877,"current_range_meters":17600,"station_id":"ce4bgrp2rcd13ifvqc9g","pricing_plan_id":"cebpf4jnsgd1na2vs0mg"},{"bike_id":"e70ea25d-1f77-44f0-98e3-bd171ee639a6","system_id":"levelo_inurba_marseille","lat":43.29182,"lon":5.39343,"is_reserved":false,"is_disabled":false,"rental_uris":{"android":"levelo://app?vid=e70ea25d-1f77-44f0-98e3-bd171ee639a6","ios":"levelo://app?vid=e70ea25d-1f77-44f0-98e3-bd171ee639a6"},"vehicle_type_id":"4","last_reported":1747213877,"current_range_meters":17600,"station_id":"ce4bh192rcd13ifvqdd0","pricing_plan_id":"cebpf4jnsgd1na2vs0mg"},{"bike_id":"c0daaaf9-e6fd-4259-bd00-00b3169616a6","system_id":"levelo_inurba_marseille","lat":43.336051,"lon":5.410378,"is_reserved":false,"is_disabled":false,"rental_uris":{"android":"levelo://app?vid=c0daaaf9-e6fd-4259-bd00-00b3169616a6","ios":"levelo://app?vid=c0daaaf9-e6fd-4259-bd00-00b3169616a6"},"vehicle_type_id":"4","last_reported":1747213877,"current_range_meters":17600,"station_id":"ce4bhqh2rcd13ifvqhmg","pricing_plan_id":"cebpf4jnsgd1na2vs0mg"},{"bike_id":"5d370f72-1749-4f0b-9815-d32525a7fd58","system_id":"levelo_inurba_marseille","lat":43.325307,"lon":5.393713,"is_reserved":false,"is_disabled":false,"rental_uris":{"android":"levelo://app?vid=5d370f72-1749-4f0b-9815-d32525a7fd58","ios":"levelo://app?vid=5d370f72-1749-4f0b-9815-d32525a7fd58"},"vehicle_type_id":"4","last_reported":1747213877,"current_range_meters":18000,"station_id":"","pricing_plan_id":"cebpf4jnsgd1na2vs0mg"},{"bike_id":"36ccbf78-fdbd-4947-afaf-310a5533cf76","system_id":"levelo_inurba_marseille","lat":43.27022,"lon":5.36478,"is_reserved":false,"is_disabled":false,"rental_uris":{"android":"levelo://app?vid=36ccbf78-fdbd-4947-afaf-310a5533cf76","ios":"levelo://app?vid=36ccbf78-fdbd-4947-afaf-310a5533cf76"},"vehicle_type_id":"4","last_reported":1747213877,"current_range_meters":18000,"station_id":"","pricing_plan_id":"cebpf4jnsgd1na2vs0mg"},{"bike_id":"85904b6f-fc02-4f7c-a526-60b5d8a99225","system_id":"levelo_inurba_marseille","lat":43.30959,"lon":5.39033,"is_reserved":false,"is_disabled":false,"rental_uris":{"android":"levelo://app?vid=85904b6f-fc02-4f7c-a526-60b5d8a99225","ios":"levelo://app?vid=85904b6f-fc02-4f7c-a526-60b5d8a99225"},"vehicle_type_id":"4","last_reported":1747213877,"current_range_meters":18000,"station_id":"ce4bgup2rcd13ifvqco0","pricing_plan_id":"cebpf4jnsgd1na2vs0mg"},{"bike_id":"cd98e934-fd01-4052-b493-47a07efd25fe","system_id":"levelo_inurba_marseille","lat":43.28697,"lon":5.37386,"is_reserved":false,"is_disabled":false,"rental_uris":{"android":"levelo://app?vid=cd98e934-fd01-4052-b493-47a07efd25fe","ios":"levelo://app?vid=cd98e934-fd01-4052-b493-47a07efd25fe"},"vehicle_type_id":"4","last_reported":1747213877,"current_range_meters":18000,"station_id":"ce4bh3p2rcd13ifvqdq0","pricing_plan_id":"cebpf4jnsgd1na2vs0mg"},{"bike_id":"7a906d5d-d156-472a-a645-d2ee30c1fbc8","system_id":"levelo_inurba_marseille","lat":43.33614,"lon":5.41034,"is_reserved":false,"is_disabled":false,"rental_uris":{"android":"levelo://app?vid=7a906d5d-d156-472a-a645-d2ee30c1fbc8","ios":"levelo://app?vid=7a906d5d-d156-472a-a645-d2ee30c1fbc8"},"vehicle_type_id":"4","last_reported":1747213877,"current_range_meters":18000,"station_id":"ce4bhqh2rcd13ifvqhmg","pricing_plan_id":"cebpf4jnsgd1na2vs0mg"},{"bike_id":"b973af1f-9405-433f-a2b5-3d01a281cbf8","system_id":"levelo_inurba_marseille","lat":43.32503,"lon":5.36584,"is_reserved":false,"is_disabled":false,"rental_uris":{"android":"levelo://app?vid=b973af1f-9405-433f-a2b5-3d01a281cbf8","ios":"levelo://app?vid=b973af1f-9405-433f-a2b5-3d01a281cbf8"},"vehicle_type_id":"4","last_reported":1747213877,"current_range_meters":18000,"station_id":"ce4bhs12rcd13ifvqhvg","pricing_plan_id":"cebpf4jnsgd1na2vs0mg"},{"bike_id":"e409cd08-b9c4-4d62-aefb-05d029e2c480","system_id":"levelo_inurba_marseille","lat":43.306408,"lon":5.42802,"is_reserved":false,"is_disabled":false,"rental_uris":{"android":"levelo://app?vid=e409cd08-b9c4-4d62-aefb-05d029e2c480","ios":"levelo://app?vid=e409cd08-b9c4-4d62-aefb-05d029e2c480"},"vehicle_type_id":"4","last_reported":1747213877,"current_range_meters":18800,"station_id":"","pricing_plan_id":"cebpf4jnsgd1na2vs0mg"},{"bike_id":"5a7e60d5-fa6c-4a65-9d36-bda4152ec425","system_id":"levelo_inurba_marseille","lat":43.31321,"lon":5.39695,"is_reserved":false,"is_disabled":false,"rental_uris":{"android":"levelo://app?vid=5a7e60d5-fa6c-4a65-9d36-bda4152ec425","ios":"levelo://app?vid=5a7e60d5-fa6c-4a65-9d36-bda4152ec425"},"vehicle_type_id":"4","last_reported":1747213877,"current_range_meters":18800,"station_id":"ce4bgvp2rcd13ifvqcu0","pricing_plan_id":"cebpf4jnsgd1na2vs0mg"},{"bike_id":"f83e264b-0ad9-47d8-a6e2-7e66a521c767","system_id":"levelo_inurba_marseille","lat":43.26558,"lon":5.3728,"is_reserved":false,"is_disabled":false,"rental_uris":{"android":"levelo://app?vid=f83e264b-0ad9-47d8-a6e2-7e66a521c767","ios":"levelo://app?vid=f83e264b-0ad9-47d8-a6e2-7e66a521c767"},"vehicle_type_id":"4","last_reported":1747213877,"current_range_meters":18800,"station_id":"ce4bhg12rcd13ifvqf70","pricing_plan_id":"cebpf4jnsgd1na2vs0mg"},{"bike_id":"53d40135-0e52-4269-8e4a-d5ace0ddbefe","system_id":"levelo_inurba_marseille","lat":43.2558,"lon":5.3823,"is_reserved":false,"is_disabled":false,"rental_uris":{"android":"levelo://app?vid=53d40135-0e52-4269-8e4a-d5ace0ddbefe","ios":"levelo://app?vid=53d40135-0e52-4269-8e4a-d5ace0ddbefe"},"vehicle_type_id":"4","last_reported":1747213877,"current_range_meters":18800,"station_id":"ce4bhih2rcd13ifvqfs0","pricing_plan_id":"cebpf4jnsgd1na2vs0mg"},{"bike_id":"c785251c-780d-4a50-9ca1-3185167bc6d2","system_id":"levelo_inurba_marseille","lat":43.23152,"lon":5.43688,"is_reserved":false,"is_disabled":false,"rental_uris":{"android":"levelo://app?vid=c785251c-780d-4a50-9ca1-3185167bc6d2","ios":"levelo://app?vid=c785251c-780d-4a50-9ca1-3185167bc6d2"},"vehicle_type_id":"4","last_reported":1747213877,"current_range_meters":18800,"station_id":"ce4bhmp2rcd13ifvqgog","pricing_plan_id":"cebpf4jnsgd1na2vs0mg"},{"bike_id":"c21fd8a7-f8cf-41af-b742-acb68b7cb536","system_id":"levelo_inurba_marseille","lat":43.24178,"lon":5.39725,"is_reserved":false,"is_disabled":false,"rental_uris":{"android":"levelo://app?vid=c21fd8a7-f8cf-41af-b742-acb68b7cb536","ios":"levelo://app?vid=c21fd8a7-f8cf-41af-b742-acb68b7cb536"},"vehicle_type_id":"4","last_reported":1747213877,"current_range_meters":18800,"station_id":"ce4bhn12rcd13ifvqgpg","pricing_plan_id":"cebpf4jnsgd1na2vs0mg"},{"bike_id":"000c0b13-a9a2-4019-bac1-98362dbbca8f","system_id":"levelo_inurba_marseille","lat":43.24072,"lon":5.37713,"is_reserved":false,"is_disabled":false,"rental_uris":{"android":"levelo://app?vid=000c0b13-a9a2-4019-bac1-98362dbbca8f","ios":"levelo://app?vid=000c0b13-a9a2-4019-bac1-98362dbbca8f"},"vehicle_type_id":"4","last_reported":1747213877,"current_range_meters":18800,"station_id":"ce4bhnp2rcd13ifvqgvg","pricing_plan_id":"cebpf4jnsgd1na2vs0mg"},{"bike_id":"ac0112c9-313e-422c-910b-a3523b05b0c9","system_id":"levelo_inurba_marseille","lat":43.23057,"lon":5.35482,"is_reserved":false,"is_disabled":false,"rental_uris":{"android":"levelo://app?vid=ac0112c9-313e-422c-910b-a3523b05b0c9","ios":"levelo://app?vid=ac0112c9-313e-422c-910b-a3523b05b0c9"},"vehicle_type_id":"4","last_reported":1747213877,"current_range_meters":18800,"station_id":"cpo3342slgdg3j2ifvpg","pricing_plan_id":"cebpf4jnsgd1na2vs0mg"},{"bike_id":"d74dda0c-2ae8-4a20-aee3-80ba3b692d64","system_id":"levelo_inurba_marseille","lat":43.30479,"lon":5.37148,"is_reserved":false,"is_disabled":false,"rental_uris":{"android":"levelo://app?vid=d74dda0c-2ae8-4a20-aee3-80ba3b692d64","ios":"levelo://app?vid=d74dda0c-2ae8-4a20-aee3-80ba3b692d64"},"vehicle_type_id":"4","last_reported":1747213877,"current_range_meters":19200,"station_id":"","pricing_plan_id":"cebpf4jnsgd1na2vs0mg"},{"bike_id":"d73ab920-fdfc-465c-91ee-d9232de59b65","system_id":"levelo_inurba_marseille","lat":43.29022,"lon":5.38139,"is_reserved":false,"is_disabled":false,"rental_uris":{"android":"levelo://app?vid=d73ab920-fdfc-465c-91ee-d9232de59b65","ios":"levelo://app?vid=d73ab920-fdfc-465c-91ee-d9232de59b65"},"vehicle_type_id":"4","last_reported":1747213877,"current_range_meters":19200,"station_id":"ce4bh4p2rcd13ifvqe1g","pricing_plan_id":"cebpf4jnsgd1na2vs0mg"},{"bike_id":"09cfb038-8b38-4d77-a8e3-f65b307d93a7","system_id":"levelo_inurba_marseille","lat":43.28633,"lon":5.38528,"is_reserved":false,"is_disabled":false,"rental_uris":{"android":"levelo://app?vid=09cfb038-8b38-4d77-a8e3-f65b307d93a7","ios":"levelo://app?vid=09cfb038-8b38-4d77-a8e3-f65b307d93a7"},"vehicle_type_id":"4","last_reported":1747213877,"current_range_meters":19200,"station_id":"ce4bh5p2rcd13ifvqe4g","pricing_plan_id":"cebpf4jnsgd1na2vs0mg"},{"bike_id":"856e0da3-a1e9-4d10-bc88-ff5b5f2a8523","system_id":"levelo_inurba_marseille","lat":43.273743,"lon":5.362597,"is_reserved":false,"is_disabled":false,"rental_uris":{"android":"levelo://app?vid=856e0da3-a1e9-4d10-bc88-ff5b5f2a8523","ios":"levelo://app?vid=856e0da3-a1e9-4d10-bc88-ff5b5f2a8523"},"vehicle_type_id":"4","last_reported":1747213877,"current_range_meters":19200,"station_id":"ce4bhbh2rcd13ifvqeo0","pricing_plan_id":"cebpf4jnsgd1na2vs0mg"},{"bike_id":"d3924048-0fcd-4d8e-b3c1-bb4c037977d2","system_id":"levelo_inurba_marseille","lat":43.25084,"lon":5.39524,"is_reserved":false,"is_disabled":false,"rental_uris":{"android":"levelo://app?vid=d3924048-0fcd-4d8e-b3c1-bb4c037977d2","ios":"levelo://app?vid=d3924048-0fcd-4d8e-b3c1-bb4c037977d2"},"vehicle_type_id":"4","last_reported":1747213877,"current_range_meters":19200,"station_id":"ce4bhm12rcd13ifvqgkg","pricing_plan_id":"cebpf4jnsgd1na2vs0mg"},{"bike_id":"63b3b2cf-7c68-4841-b62c-5b9e97830b38","system_id":"levelo_inurba_marseille","lat":43.25931,"lon":5.40886,"is_reserved":false,"is_disabled":false,"rental_uris":{"android":"levelo://app?vid=63b3b2cf-7c68-4841-b62c-5b9e97830b38","ios":"levelo://app?vid=63b3b2cf-7c68-4841-b62c-5b9e97830b38"},"vehicle_type_id":"4","last_reported":1747213877,"current_range_meters":19200,"station_id":"ce4bhm92rcd13ifvqglg","pricing_plan_id":"cebpf4jnsgd1na2vs0mg"},{"bike_id":"fdf5099d-3cb8-4fb5-90c4-f9dcbc7c2a8c","system_id":"levelo_inurba_marseille","lat":43.25898,"lon":5.40883,"is_reserved":false,"is_disabled":false,"rental_uris":{"android":"levelo://app?vid=fdf5099d-3cb8-4fb5-90c4-f9dcbc7c2a8c","ios":"levelo://app?vid=fdf5099d-3cb8-4fb5-90c4-f9dcbc7c2a8c"},"vehicle_type_id":"4","last_reported":1747213877,"current_range_meters":19200,"station_id":"ce4bhm92rcd13ifvqglg","pricing_plan_id":"cebpf4jnsgd1na2vs0mg"},{"bike_id":"0f71eebd-d17f-43cb-9933-8d44e5dc4188","system_id":"levelo_inurba_marseille","lat":43.24179,"lon":5.39728,"is_reserved":false,"is_disabled":false,"rental_uris":{"android":"levelo://app?vid=0f71eebd-d17f-43cb-9933-8d44e5dc4188","ios":"levelo://app?vid=0f71eebd-d17f-43cb-9933-8d44e5dc4188"},"vehicle_type_id":"4","last_reported":1747213877,"current_range_meters":19200,"station_id":"ce4bhn12rcd13ifvqgpg","pricing_plan_id":"cebpf4jnsgd1na2vs0mg"},{"bike_id":"644511a3-94a8-4d9e-a99e-a8a4681f0634","system_id":"levelo_inurba_marseille","lat":43.2417,"lon":5.39735,"is_reserved":false,"is_disabled":false,"rental_uris":{"android":"levelo://app?vid=644511a3-94a8-4d9e-a99e-a8a4681f0634","ios":"levelo://app?vid=644511a3-94a8-4d9e-a99e-a8a4681f0634"},"vehicle_type_id":"4","last_reported":1747213877,"current_range_meters":19200,"station_id":"ce4bhn12rcd13ifvqgpg","pricing_plan_id":"cebpf4jnsgd1na2vs0mg"},{"bike_id":"4a46699d-d042-47d7-9098-6ef0beb08f0c","system_id":"levelo_inurba_marseille","lat":43.3248,"lon":5.36567,"is_reserved":false,"is_disabled":false,"rental_uris":{"android":"levelo://app?vid=4a46699d-d042-47d7-9098-6ef0beb08f0c","ios":"levelo://app?vid=4a46699d-d042-47d7-9098-6ef0beb08f0c"},"vehicle_type_id":"4","last_reported":1747213877,"current_range_meters":19200,"station_id":"ce4bhs12rcd13ifvqhvg","pricing_plan_id":"cebpf4jnsgd1na2vs0mg"},{"bike_id":"fb4e18ea-2c06-4f85-8ef3-280d26a9a9e7","system_id":"levelo_inurba_marseille","lat":43.21748,"lon":5.34603,"is_reserved":false,"is_disabled":false,"rental_uris":{"android":"levelo://app?vid=fb4e18ea-2c06-4f85-8ef3-280d26a9a9e7","ios":"levelo://app?vid=fb4e18ea-2c06-4f85-8ef3-280d26a9a9e7"},"vehicle_type_id":"4","last_reported":1747213877,"current_range_meters":19200,"station_id":"st_cvj6r9ubvosntc0bgbag","pricing_plan_id":"cebpf4jnsgd1na2vs0mg"},{"bike_id":"8c32ae4c-85e3-47df-af02-7e8ca739be33","system_id":"levelo_inurba_marseille","lat":43.30538,"lon":5.365554,"is_reserved":false,"is_disabled":false,"rental_uris":{"android":"levelo://app?vid=8c32ae4c-85e3-47df-af02-7e8ca739be33","ios":"levelo://app?vid=8c32ae4c-85e3-47df-af02-7e8ca739be33"},"vehicle_type_id":"4","last_reported":1747213877,"current_range_meters":19600,"station_id":"ce4bgs12rcd13ifvqcag","pricing_plan_id":"cebpf4jnsgd1na2vs0mg"},{"bike_id":"2fb2c836-6fac-4770-8585-255d2cffba87","system_id":"levelo_inurba_marseille","lat":43.285553,"lon":5.383707,"is_reserved":false,"is_disabled":false,"rental_uris":{"android":"levelo://app?vid=2fb2c836-6fac-4770-8585-255d2cffba87","ios":"levelo://app?vid=2fb2c836-6fac-4770-8585-255d2cffba87"},"vehicle_type_id":"4","last_reported":1747213877,"current_range_meters":19600,"station_id":"ce4bh512rcd13ifvqe3g","pricing_plan_id":"cebpf4jnsgd1na2vs0mg"},{"bike_id":"2ecb114f-5d75-4c5d-8f1f-6d26727f9732","system_id":"levelo_inurba_marseille","lat":43.28615,"lon":5.35102,"is_reserved":false,"is_disabled":false,"rental_uris":{"android":"levelo://app?vid=2ecb114f-5d75-4c5d-8f1f-6d26727f9732","ios":"levelo://app?vid=2ecb114f-5d75-4c5d-8f1f-6d26727f9732"},"vehicle_type_id":"4","last_reported":1747213877,"current_range_meters":19600,"station_id":"ce4bhch2rcd13ifvqeug","pricing_plan_id":"cebpf4jnsgd1na2vs0mg"},{"bike_id":"ddc157e8-8e33-47e5-8b6e-9ea2b526b9c1","system_id":"levelo_inurba_marseille","lat":43.24073,"lon":5.37742,"is_reserved":false,"is_disabled":false,"rental_uris":{"android":"levelo://app?vid=ddc157e8-8e33-47e5-8b6e-9ea2b526b9c1","ios":"levelo://app?vid=ddc157e8-8e33-47e5-8b6e-9ea2b526b9c1"},"vehicle_type_id":"4","last_reported":1747213877,"current_range_meters":19600,"station_id":"ce4bhnp2rcd13ifvqgvg","pricing_plan_id":"cebpf4jnsgd1na2vs0mg"},{"bike_id":"38f12bab-fec6-477d-9bc9-fd20697ec93a","system_id":"levelo_inurba_marseille","lat":43.24074,"lon":5.37759,"is_reserved":false,"is_disabled":false,"rental_uris":{"android":"levelo://app?vid=38f12bab-fec6-477d-9bc9-fd20697ec93a","ios":"levelo://app?vid=38f12bab-fec6-477d-9bc9-fd20697ec93a"},"vehicle_type_id":"4","last_reported":1747213877,"current_range_meters":19600,"station_id":"ce4bhnp2rcd13ifvqgvg","pricing_plan_id":"cebpf4jnsgd1na2vs0mg"},{"bike_id":"01b014fd-60c6-4e41-9e6e-16f0da3be75e","system_id":"levelo_inurba_marseille","lat":43.29519,"lon":5.37511,"is_reserved":false,"is_disabled":false,"rental_uris":{"android":"levelo://app?vid=01b014fd-60c6-4e41-9e6e-16f0da3be75e","ios":"levelo://app?vid=01b014fd-60c6-4e41-9e6e-16f0da3be75e"},"vehicle_type_id":"4","last_reported":1747213877,"current_range_meters":20000,"station_id":"ce4bgkp2rcd13ifvqbmg","pricing_plan_id":"cebpf4jnsgd1na2vs0mg"},{"bike_id":"24c2626c-fc8c-4757-a701-9f592be42427","system_id":"levelo_inurba_marseille","lat":43.305587,"lon":5.365588,"is_reserved":false,"is_disabled":false,"rental_uris":{"android":"levelo://app?vid=24c2626c-fc8c-4757-a701-9f592be42427","ios":"levelo://app?vid=24c2626c-fc8c-4757-a701-9f592be42427"},"vehicle_type_id":"4","last_reported":1747213877,"current_range_meters":20000,"station_id":"ce4bgs12rcd13ifvqcag","pricing_plan_id":"cebpf4jnsgd1na2vs0mg"},{"bike_id":"e096b147-efad-4d62-88af-539fffa2b7ec","system_id":"levelo_inurba_marseille","lat":43.23966,"lon":5.36631,"is_reserved":false,"is_disabled":false,"rental_uris":{"android":"levelo://app?vid=e096b147-efad-4d62-88af-539fffa2b7ec","ios":"levelo://app?vid=e096b147-efad-4d62-88af-539fffa2b7ec"},"vehicle_type_id":"4","last_reported":1747213877,"current_range_meters":20000,"station_id":"ce4bhi12rcd13ifvqfp0","pricing_plan_id":"cebpf4jnsgd1na2vs0mg"},{"bike_id":"297a85b0-fa8c-489e-bd98-6fd7f3aae510","system_id":"levelo_inurba_marseille","lat":43.24173,"lon":5.39723,"is_reserved":false,"is_disabled":false,"rental_uris":{"android":"levelo://app?vid=297a85b0-fa8c-489e-bd98-6fd7f3aae510","ios":"levelo://app?vid=297a85b0-fa8c-489e-bd98-6fd7f3aae510"},"vehicle_type_id":"4","last_reported":1747213877,"current_range_meters":20000,"station_id":"ce4bhn12rcd13ifvqgpg","pricing_plan_id":"cebpf4jnsgd1na2vs0mg"},{"bike_id":"6ce2464c-231f-40ec-9d8d-d13ec4609768","system_id":"levelo_inurba_marseille","lat":43.24075,"lon":5.3772,"is_reserved":false,"is_disabled":false,"rental_uris":{"android":"levelo://app?vid=6ce2464c-231f-40ec-9d8d-d13ec4609768","ios":"levelo://app?vid=6ce2464c-231f-40ec-9d8d-d13ec4609768"},"vehicle_type_id":"4","last_reported":1747213877,"current_range_meters":20000,"station_id":"ce4bhnp2rcd13ifvqgvg","pricing_plan_id":"cebpf4jnsgd1na2vs0mg"},{"bike_id":"74e465a6-62f1-45be-9144-40f0ae71c9e6","system_id":"levelo_inurba_marseille","lat":43.323598,"lon":5.367529,"is_reserved":false,"is_disabled":false,"rental_uris":{"android":"levelo://app?vid=74e465a6-62f1-45be-9144-40f0ae71c9e6","ios":"levelo://app?vid=74e465a6-62f1-45be-9144-40f0ae71c9e6"},"vehicle_type_id":"4","last_reported":1747213877,"current_range_meters":20000,"station_id":"ce4bhsh2rcd13ifvqi2g","pricing_plan_id":"cebpf4jnsgd1na2vs0mg"},{"bike_id":"08a93b84-f9e2-4480-b23a-2ee7a592645e","system_id":"levelo_inurba_marseille","lat":43.21753,"lon":5.34584,"is_reserved":false,"is_disabled":false,"rental_uris":{"android":"levelo://app?vid=08a93b84-f9e2-4480-b23a-2ee7a592645e","ios":"levelo://app?vid=08a93b84-f9e2-4480-b23a-2ee7a592645e"},"vehicle_type_id":"4","last_reported":1747213877,"current_range_meters":20000,"station_id":"st_cvj6r9ubvosntc0bgbag","pricing_plan_id":"cebpf4jnsgd1na2vs0mg"},{"bike_id":"64824209-6cba-4c12-875a-1502c403c27a","system_id":"levelo_inurba_marseille","lat":43.21209,"lon":5.35058,"is_reserved":false,"is_disabled":false,"rental_uris":{"android":"levelo://app?vid=64824209-6cba-4c12-875a-1502c403c27a","ios":"levelo://app?vid=64824209-6cba-4c12-875a-1502c403c27a"},"vehicle_type_id":"4","last_reported":1747213877,"current_range_meters":20000,"station_id":"st_cvj6sg6p6f1abm77japg","pricing_plan_id":"cebpf4jnsgd1na2vs0mg"},{"bike_id":"8912aa4c-ac8c-46c1-897b-61d35213d3dd","system_id":"levelo_inurba_marseille","lat":43.30543,"lon":5.36706,"is_reserved":false,"is_disabled":false,"rental_uris":{"android":"levelo://app?vid=8912aa4c-ac8c-46c1-897b-61d35213d3dd","ios":"levelo://app?vid=8912aa4c-ac8c-46c1-897b-61d35213d3dd"},"vehicle_type_id":"4","last_reported":1747213877,"current_range_meters":20400,"station_id":"ce4bgrp2rcd13ifvqc9g","pricing_plan_id":"cebpf4jnsgd1na2vs0mg"},{"bike_id":"1b47a15e-3a0d-4524-9289-9bf951f54b72","system_id":"levelo_inurba_marseille","lat":43.30805,"lon":5.38169,"is_reserved":false,"is_disabled":false,"rental_uris":{"android":"levelo://app?vid=1b47a15e-3a0d-4524-9289-9bf951f54b72","ios":"levelo://app?vid=1b47a15e-3a0d-4524-9289-9bf951f54b72"},"vehicle_type_id":"4","last_reported":1747213877,"current_range_meters":20400,"station_id":"ce4bgt12rcd13ifvqce0","pricing_plan_id":"cebpf4jnsgd1na2vs0mg"},{"bike_id":"949e34d3-4d36-4346-a4b2-c07e697536c1","system_id":"levelo_inurba_marseille","lat":43.25117,"lon":5.40319,"is_reserved":false,"is_disabled":false,"rental_uris":{"android":"levelo://app?vid=949e34d3-4d36-4346-a4b2-c07e697536c1","ios":"levelo://app?vid=949e34d3-4d36-4346-a4b2-c07e697536c1"},"vehicle_type_id":"4","last_reported":1747213877,"current_range_meters":20400,"station_id":"ce4bhlh2rcd13ifvqgig","pricing_plan_id":"cebpf4jnsgd1na2vs0mg"},{"bike_id":"c63b3f3e-e393-4d14-aefc-6cf2abd0dcd5","system_id":"levelo_inurba_marseille","lat":43.28155,"lon":5.42644,"is_reserved":false,"is_disabled":false,"rental_uris":{"android":"levelo://app?vid=c63b3f3e-e393-4d14-aefc-6cf2abd0dcd5","ios":"levelo://app?vid=c63b3f3e-e393-4d14-aefc-6cf2abd0dcd5"},"vehicle_type_id":"4","last_reported":1747213877,"current_range_meters":20400,"station_id":"ce4bhnh2rcd13ifvqgug","pricing_plan_id":"cebpf4jnsgd1na2vs0mg"},{"bike_id":"31e180a1-f8c3-4073-b506-124e2e7b7677","system_id":"levelo_inurba_marseille","lat":43.33602,"lon":5.41027,"is_reserved":false,"is_disabled":false,"rental_uris":{"android":"levelo://app?vid=31e180a1-f8c3-4073-b506-124e2e7b7677","ios":"levelo://app?vid=31e180a1-f8c3-4073-b506-124e2e7b7677"},"vehicle_type_id":"4","last_reported":1747213877,"current_range_meters":20400,"station_id":"ce4bhqh2rcd13ifvqhmg","pricing_plan_id":"cebpf4jnsgd1na2vs0mg"},{"bike_id":"50313156-ab91-4130-9e30-4c1b7c1c6d35","system_id":"levelo_inurba_marseille","lat":43.33613,"lon":5.41032,"is_reserved":false,"is_disabled":false,"rental_uris":{"android":"levelo://app?vid=50313156-ab91-4130-9e30-4c1b7c1c6d35","ios":"levelo://app?vid=50313156-ab91-4130-9e30-4c1b7c1c6d35"},"vehicle_type_id":"4","last_reported":1747213877,"current_range_meters":20400,"station_id":"ce4bhqh2rcd13ifvqhmg","pricing_plan_id":"cebpf4jnsgd1na2vs0mg"},{"bike_id":"61aa1782-49d9-4762-bea1-94c390716a66","system_id":"levelo_inurba_marseille","lat":43.3361,"lon":5.41005,"is_reserved":false,"is_disabled":false,"rental_uris":{"android":"levelo://app?vid=61aa1782-49d9-4762-bea1-94c390716a66","ios":"levelo://app?vid=61aa1782-49d9-4762-bea1-94c390716a66"},"vehicle_type_id":"4","last_reported":1747213877,"current_range_meters":20400,"station_id":"ce4bhqh2rcd13ifvqhmg","pricing_plan_id":"cebpf4jnsgd1na2vs0mg"},{"bike_id":"236fe8a1-bb49-4378-9a13-707d1ea97db2","system_id":"levelo_inurba_marseille","lat":43.3211,"lon":5.36778,"is_reserved":false,"is_disabled":false,"rental_uris":{"android":"levelo://app?vid=236fe8a1-bb49-4378-9a13-707d1ea97db2","ios":"levelo://app?vid=236fe8a1-bb49-4378-9a13-707d1ea97db2"},"vehicle_type_id":"4","last_reported":1747213877,"current_range_meters":20400,"station_id":"ce4bhrh2rcd13ifvqhug","pricing_plan_id":"cebpf4jnsgd1na2vs0mg"},{"bike_id":"307fc050-47b7-4404-b34b-b2cef028cd86","system_id":"levelo_inurba_marseille","lat":43.217438,"lon":5.345902,"is_reserved":false,"is_disabled":false,"rental_uris":{"android":"levelo://app?vid=307fc050-47b7-4404-b34b-b2cef028cd86","ios":"levelo://app?vid=307fc050-47b7-4404-b34b-b2cef028cd86"},"vehicle_type_id":"4","last_reported":1747213877,"current_range_meters":20400,"station_id":"st_cvj6r9ubvosntc0bgbag","pricing_plan_id":"cebpf4jnsgd1na2vs0mg"},{"bike_id":"cd15b410-e5eb-468f-885c-74fdc00b6bb7","system_id":"levelo_inurba_marseille","lat":43.21192,"lon":5.35063,"is_reserved":false,"is_disabled":false,"rental_uris":{"android":"levelo://app?vid=cd15b410-e5eb-468f-885c-74fdc00b6bb7","ios":"levelo://app?vid=cd15b410-e5eb-468f-885c-74fdc00b6bb7"},"vehicle_type_id":"4","last_reported":1747213877,"current_range_meters":20400,"station_id":"st_cvj6sg6p6f1abm77japg","pricing_plan_id":"cebpf4jnsgd1na2vs0mg"},{"bike_id":"dae0a337-4ba6-4508-ab15-615a24906a40","system_id":"levelo_inurba_marseille","lat":43.29524,"lon":5.37508,"is_reserved":false,"is_disabled":false,"rental_uris":{"android":"levelo://app?vid=dae0a337-4ba6-4508-ab15-615a24906a40","ios":"levelo://app?vid=dae0a337-4ba6-4508-ab15-615a24906a40"},"vehicle_type_id":"4","last_reported":1747213877,"current_range_meters":20800,"station_id":"ce4bgkp2rcd13ifvqbmg","pricing_plan_id":"cebpf4jnsgd1na2vs0mg"},{"bike_id":"6a5b23e9-24dc-4d4d-a721-31711d8e45e0","system_id":"levelo_inurba_marseille","lat":43.2972,"lon":5.36605,"is_reserved":false,"is_disabled":false,"rental_uris":{"android":"levelo://app?vid=6a5b23e9-24dc-4d4d-a721-31711d8e45e0","ios":"levelo://app?vid=6a5b23e9-24dc-4d4d-a721-31711d8e45e0"},"vehicle_type_id":"4","last_reported":1747213877,"current_range_meters":20800,"station_id":"ce4bgn12rcd13ifvqbt0","pricing_plan_id":"cebpf4jnsgd1na2vs0mg"},{"bike_id":"457b66cf-a660-4412-b1f6-3e48dafef727","system_id":"levelo_inurba_marseille","lat":43.25898,"lon":5.40889,"is_reserved":false,"is_disabled":false,"rental_uris":{"android":"levelo://app?vid=457b66cf-a660-4412-b1f6-3e48dafef727","ios":"levelo://app?vid=457b66cf-a660-4412-b1f6-3e48dafef727"},"vehicle_type_id":"4","last_reported":1747213877,"current_range_meters":20800,"station_id":"ce4bhm92rcd13ifvqglg","pricing_plan_id":"cebpf4jnsgd1na2vs0mg"},{"bike_id":"c41dfe03-8515-4f3b-be02-a998e39f9069","system_id":"levelo_inurba_marseille","lat":43.33613,"lon":5.41031,"is_reserved":false,"is_disabled":false,"rental_uris":{"android":"levelo://app?vid=c41dfe03-8515-4f3b-be02-a998e39f9069","ios":"levelo://app?vid=c41dfe03-8515-4f3b-be02-a998e39f9069"},"vehicle_type_id":"4","last_reported":1747213877,"current_range_meters":20800,"station_id":"ce4bhqh2rcd13ifvqhmg","pricing_plan_id":"cebpf4jnsgd1na2vs0mg"},{"bike_id":"13c9dde3-370f-4898-921a-52334846866b","system_id":"levelo_inurba_marseille","lat":43.312122,"lon":5.3688,"is_reserved":false,"is_disabled":false,"rental_uris":{"android":"levelo://app?vid=13c9dde3-370f-4898-921a-52334846866b","ios":"levelo://app?vid=13c9dde3-370f-4898-921a-52334846866b"},"vehicle_type_id":"4","last_reported":1747213877,"current_range_meters":21600,"station_id":"ce4bgl92rcd13ifvqbq0","pricing_plan_id":"cebpf4jnsgd1na2vs0mg"},{"bike_id":"d8190c83-ccc2-4a1c-944c-150ebadb2b8a","system_id":"levelo_inurba_marseille","lat":43.29073,"lon":5.37176,"is_reserved":false,"is_disabled":false,"rental_uris":{"android":"levelo://app?vid=d8190c83-ccc2-4a1c-944c-150ebadb2b8a","ios":"levelo://app?vid=d8190c83-ccc2-4a1c-944c-150ebadb2b8a"},"vehicle_type_id":"4","last_reported":1747213877,"current_range_meters":21600,"station_id":"ce4bh5p2rcd13ifvqe4g","pricing_plan_id":"cebpf4jnsgd1na2vs0mg"},{"bike_id":"b9542280-8bc6-4363-85a2-2034fa467757","system_id":"levelo_inurba_marseille","lat":43.26677,"lon":5.38265,"is_reserved":false,"is_disabled":false,"rental_uris":{"android":"levelo://app?vid=b9542280-8bc6-4363-85a2-2034fa467757","ios":"levelo://app?vid=b9542280-8bc6-4363-85a2-2034fa467757"},"vehicle_type_id":"4","last_reported":1747213877,"current_range_meters":21600,"station_id":"ce4bhg92rcd13ifvqf90","pricing_plan_id":"cebpf4jnsgd1na2vs0mg"},{"bike_id":"e4c481be-5f45-4f0e-8048-679624364af6","system_id":"levelo_inurba_marseille","lat":43.23151,"lon":5.43703,"is_reserved":false,"is_disabled":false,"rental_uris":{"android":"levelo://app?vid=e4c481be-5f45-4f0e-8048-679624364af6","ios":"levelo://app?vid=e4c481be-5f45-4f0e-8048-679624364af6"},"vehicle_type_id":"4","last_reported":1747213877,"current_range_meters":21600,"station_id":"ce4bhmp2rcd13ifvqgog","pricing_plan_id":"cebpf4jnsgd1na2vs0mg"},{"bike_id":"14bcab4e-ce66-42bb-999e-06b9296f4b2c","system_id":"levelo_inurba_marseille","lat":43.280506,"lon":5.369121,"is_reserved":false,"is_disabled":false,"rental_uris":{"android":"levelo://app?vid=14bcab4e-ce66-42bb-999e-06b9296f4b2c","ios":"levelo://app?vid=14bcab4e-ce66-42bb-999e-06b9296f4b2c"},"vehicle_type_id":"4","last_reported":1747213877,"current_range_meters":22000,"station_id":"","pricing_plan_id":"cebpf4jnsgd1na2vs0mg"},{"bike_id":"e592421d-b850-41cd-9ad3-d199ccea82fe","system_id":"levelo_inurba_marseille","lat":43.24002,"lon":5.37767,"is_reserved":false,"is_disabled":false,"rental_uris":{"android":"levelo://app?vid=e592421d-b850-41cd-9ad3-d199ccea82fe","ios":"levelo://app?vid=e592421d-b850-41cd-9ad3-d199ccea82fe"},"vehicle_type_id":"4","last_reported":1747213877,"current_range_meters":22000,"station_id":"","pricing_plan_id":"cebpf4jnsgd1na2vs0mg"},{"bike_id":"27c49526-f088-4035-8b0d-cd10e891864a","system_id":"levelo_inurba_marseille","lat":43.29621,"lon":5.37169,"is_reserved":false,"is_disabled":false,"rental_uris":{"android":"levelo://app?vid=27c49526-f088-4035-8b0d-cd10e891864a","ios":"levelo://app?vid=27c49526-f088-4035-8b0d-cd10e891864a"},"vehicle_type_id":"4","last_reported":1747213877,"current_range_meters":22000,"station_id":"ce4bgnh2rcd13ifvqc0g","pricing_plan_id":"cebpf4jnsgd1na2vs0mg"},{"bike_id":"a9f201ce-d9e0-4283-abe8-a0cf0d1b4ad4","system_id":"levelo_inurba_marseille","lat":43.25007,"lon":5.38923,"is_reserved":false,"is_disabled":false,"rental_uris":{"android":"levelo://app?vid=a9f201ce-d9e0-4283-abe8-a0cf0d1b4ad4","ios":"levelo://app?vid=a9f201ce-d9e0-4283-abe8-a0cf0d1b4ad4"},"vehicle_type_id":"4","last_reported":1747213877,"current_range_meters":22000,"station_id":"ce4bhgp2rcd13ifvqfd0","pricing_plan_id":"cebpf4jnsgd1na2vs0mg"},{"bike_id":"f58e974c-e8d1-463a-a388-0ddc1c31c07a","system_id":"levelo_inurba_marseille","lat":43.27319,"lon":5.39071,"is_reserved":false,"is_disabled":false,"rental_uris":{"android":"levelo://app?vid=f58e974c-e8d1-463a-a388-0ddc1c31c07a","ios":"levelo://app?vid=f58e974c-e8d1-463a-a388-0ddc1c31c07a"},"vehicle_type_id":"4","last_reported":1747213877,"current_range_meters":22000,"station_id":"ce4bhgp2rcd13ifvqfe0","pricing_plan_id":"cebpf4jnsgd1na2vs0mg"},