{"last_updated":1730437781,"ttl":60,"version":"2.2","data":{"bikes":[{"bike_id":"e53a6469-e69d-4cd7-bb6e-bf50b394fbf1","system_id":"levelo_inurba_marseille","lat":43.3046,"lon":5.37902,"is_reserved":false,"is_disabled":false,"rental_uris":{"android":"levelo://app?vid=e53a6469-e69d-4cd7-bb6e-bf50b394fbf1","ios":"levelo://app?vid=e53a6469-e69d-4cd7-bb6e-bf50b394fbf1"},"vehicle_type_id":"4","last_reported":1730437781,"current_range_meters":24800,"station_id":"ce4bgup2rcd13ifvqcn0","pricing_plan_id":"cebpf4jnsgd1na2vs0mg"},{"bike_id":"4619a927-69f6-4e40-aea7-50e83b0fe185","system_id":"levelo_inurba_marseille","lat":43.3248,"lon":5.36562,"is_reserved":false,"is_disabled":false,"rental_uris":{"android":"levelo://app?vid=4619a927-69f6-4e40-aea7-50e83b0fe185","ios":"levelo://app?vid=4619a927-69f6-4e40-aea7-50e83b0fe185"},"vehicle_type_id":"4","last_reported":1730437781,"current_range_meters":11200,"station_id":"ce4bhs12rcd13ifvqhvg","pricing_plan_id":"cebpf4jnsgd1na2vs0mg"},{"bike_id":"f9fdf0f3-75c5-4d1e-be3f-0073109f218a","system_id":"levelo_inurba_marseille","lat":43.24664,"lon":5.38163,"is_reserved":false,"is_disabled":false,"rental_uris":{"android":"levelo://app?vid=f9fdf0f3-75c5-4d1e-be3f-0073109f218a","ios":"levelo://app?vid=f9fdf0f3-75c5-4d1e-be3f-0073109f218a"},"vehicle_type_id":"4","last_reported":1730437781,"current_range_meters":36400,"station_id":"ce4bhih2rcd13ifvqfr0","pricing_plan_id":"cebpf4jnsgd1na2vs0mg"},{"bike_id":"e3924428-a085-40f6-a0c3-a6a5f32fffb8","system_id":"levelo_inurba_marseille","lat":43.28692,"lon":5.39977,"is_reserved":false,"is_disabled":false,"rental_uris":{"android":"levelo://app?vid=e3924428-a085-40f6-a0c3-a6a5f32fffb8","ios":"levelo://app?vid=e3924428-a085-40f6-a0c3-a6a5f32fffb8"},"vehicle_type_id":"4","last_reported":1730437781,"current_range_meters":8400,"station_id":"ce4bho92rcd13ifvqh3g","pricing_plan_id":"cebpf4jnsgd1na2vs0mg"},{"bike_id":"5c908290-3b11-4f6a-9aaa-f0e4672a623e","system_id":"levelo_inurba_marseille","lat":43.2987,"lon":5.39729,"is_reserved":false,"is_disabled":false,"rental_uris":{"android":"levelo://app?vid=5c908290-3b11-4f6a-9aaa-f0e4672a623e","ios":"levelo://app?vid=5c908290-3b11-4f6a-9aaa-f0e4672a623e"},"vehicle_type_id":"4","last_reported":1730437781,"current_range_meters":26800,"station_id":"ce4bh0h2rcd13ifvqd50","pricing_plan_id":"cebpf4jnsgd1na2vs0mg"},{"bike_id":"fd279faa-6b4c-4e2e-8577-0669e4dbcaa0","system_id":"levelo_inurba_marseille","lat":43.2418,"lon":5.39729,"is_reserved":false,"is_disabled":false,"rental_uris":{"android":"levelo://app?vid=fd279faa-6b4c-4e2e-8577-0669e4dbcaa0","ios":"levelo://app?vid=fd279faa-6b4c-4e2e-8577-0669e4dbcaa0"},"vehicle_type_id":"4","last_reported":1730437781,"current_range_meters":32000,"station_id":"ce4bhn12rcd13ifvqgpg","pricing_plan_id":"cebpf4jnsgd1na2vs0mg"},{"bike_id":"641cbb44-6505-428a-a278-5b8b97cf4cf1","system_id":"levelo_inurba_marseille","lat":43.29175,"lon":5.40851,"is_reserved":false,"is_disabled":false,"rental_uris":{"android":"levelo://app?vid=641cbb44-6505-428a-a278-5b8b97cf4cf1","ios":"levelo://app?vid=641cbb44-6505-428a-a278-5b8b97cf4cf1"},"vehicle_type_id":"4","last_reported":1730437781,"current_range_meters":26800,"station_id":"","pricing_plan_id":"cebpf4jnsgd1na2vs0mg"},{"bike_id":"d3f6b13d-06ef-4ca1-a422-11d462dadeb8","system_id":"levelo_inurba_marseille","lat":43.27987,"lon":5.41665,"is_reserved":false,"is_disabled":false,"rental_uris":{"android":"levelo://app?vid=d3f6b13d-06ef-4ca1-a422-11d462dadeb8","ios":"levelo://app?vid=d3f6b13d-06ef-4ca1-a422-11d462dadeb8"},"vehicle_type_id":"4","last_reported":1730437781,"current_range_meters":37600,"station_id":"ce4bho12rcd13ifvqh1g","pricing_plan_id":"cebpf4jnsgd1na2vs0mg"},{"bike_id":"b564d8bc-2b59-43dd-ad25-39bd7cd1e42e","system_id":"levelo_inurba_marseille","lat":43.31709,"lon":5.37747,"is_reserved":false,"is_disabled":false,"rental_uris":{"android":"levelo://app?vid=b564d8bc-2b59-43dd-ad25-39bd7cd1e42e","ios":"levelo://app?vid=b564d8bc-2b59-43dd-ad25-39bd7cd1e42e"},"vehicle_type_id":"4","last_reported":1730437781,"current_range_meters":8800,"station_id":"ce4bgth2rcd13ifvqch0","pricing_plan_id":"cebpf4jnsgd1na2vs0mg"},{"bike_id":"3ddf0fb6-815e-44c7-9ea2-d3e6fcff8a34","system_id":"levelo_inurba_marseille","lat":43.29023,"lon":5.38125,"is_reserved":false,"is_disabled":false,"rental_uris":{"android":"levelo://app?vid=3ddf0fb6-815e-44c7-9ea2-d3e6fcff8a34","ios":"levelo://app?vid=3ddf0fb6-815e-44c7-9ea2-d3e6fcff8a34"},"vehicle_type_id":"4","last_reported":1730437781,"current_range_meters":38400,"station_id":"ce4bh4p2rcd13ifvqe1g","pricing_plan_id":"cebpf4jnsgd1na2vs0mg"},{"bike_id":"4d4727b2-ce4f-4756-9df8-63f453285bc4","system_id":"levelo_inurba_marseille","lat":43.24077,"lon":5.37758,"is_reserved":false,"is_disabled":false,"rental_uris":{"android":"levelo://app?vid=4d4727b2-ce4f-4756-9df8-63f453285bc4","ios":"levelo://app?vid=4d4727b2-ce4f-4756-9df8-63f453285bc4"},"vehicle_type_id":"4","last_reported":1730437781,"current_range_meters":33600,"station_id":"ce4bhnp2rcd13ifvqgvg","pricing_plan_id":"cebpf4jnsgd1na2vs0mg"},{"bike_id":"ccdf8f45-f2e1-46e2-b932-c9192ef53d45","system_id":"levelo_inurba_marseille","lat":43.28441,"lon":5.39179,"is_reserved":false,"is_disabled":false,"rental_uris":{"android":"levelo://app?vid=ccdf8f45-f2e1-46e2-b932-c9192ef53d45","ios":"levelo://app?vid=ccdf8f45-f2e1-46e2-b932-c9192ef53d45"},"vehicle_type_id":"4","last_reported":1730437781,"current_range_meters":39200,"station_id":"ce4bhoh2rcd13ifvqh5g","pricing_plan_id":"cebpf4jnsgd1na2vs0mg"},{"bike_id":"b705881b-9591-479c-8539-26be826c13e3","system_id":"levelo_inurba_marseille","lat":43.2827,"lon":5.3507,"is_reserved":false,"is_disabled":false,"rental_uris":{"android":"levelo://app?vid=b705881b-9591-479c-8539-26be826c13e3","ios":"levelo://app?vid=b705881b-9591-479c-8539-26be826c13e3"},"vehicle_type_id":"4","last_reported":1730437781,"current_range_meters":4000,"station_id":"ce4bhbp2rcd13ifvqerg","pricing_plan_id":"cebpf4jnsgd1na2vs0mg"},{"bike_id":"5afa0068-76a2-456a-bbe0-b3dc1b6b60f8","system_id":"levelo_inurba_marseille","lat":43.309357,"lon":5.401426,"is_reserved":false,"is_disabled":false,"rental_uris":{"android":"levelo://app?vid=5afa0068-76a2-456a-bbe0-b3dc1b6b60f8","ios":"levelo://app?vid=5afa0068-76a2-456a-bbe0-b3dc1b6b60f8"},"vehicle_type_id":"4","last_reported":1730437781,"current_range_meters":38800,"station_id":"ce4bgvp2rcd13ifvqct0","pricing_plan_id":"cebpf4jnsgd1na2vs0mg"},{"bike_id":"4424acf5-4fee-49ab-bce1-1a1e11ee7af5","system_id":"levelo_inurba_marseille","lat":43.25116,"lon":5.40319,"is_reserved":false,"is_disabled":false,"rental_uris":{"android":"levelo://app?vid=4424acf5-4fee-49ab-bce1-1a1e11ee7af5","ios":"levelo://app?vid=4424acf5-4fee-49ab-bce1-1a1e11ee7af5"},"vehicle_type_id":"4","last_reported":1730437781,"current_range_meters":16400,"station_id":"ce4bhlh2rcd13ifvqgig","pricing_plan_id":"cebpf4jnsgd1na2vs0mg"},{"bike_id":"a4627486-a087-47d1-bdea-e9476cd49986","system_id":"levelo_inurba_marseille","lat":43.23191,"lon":5.35543,"is_reserved":false,"is_disabled":false,"rental_uris":{"android":"levelo://app?vid=a4627486-a087-47d1-bdea-e9476cd49986","ios":"levelo://app?vid=a4627486-a087-47d1-bdea-e9476cd49986"},"vehicle_type_id":"4","last_reported":1730437781,"current_range_meters":33200,"station_id":"ce4bhu92rcd13ifvqi70","pricing_plan_id":"cebpf4jnsgd1na2vs0mg"},{"bike_id":"55dab1c5-8299-4ba5-b0e5-ab02ab9376bc","system_id":"levelo_inurba_marseille","lat":43.241771,"lon":5.397303,"is_reserved":false,"is_disabled":false,"rental_uris":{"android":"levelo://app?vid=55dab1c5-8299-4ba5-b0e5-ab02ab9376bc","ios":"levelo://app?vid=55dab1c5-8299-4ba5-b0e5-ab02ab9376bc"},"vehicle_type_id":"4","last_reported":1730437781,"current_range_meters":39200,"station_id":"ce4bhn12rcd13ifvqgpg","pricing_plan_id":"cebpf4jnsgd1na2vs0mg"},{"bike_id":"509a9bdc-ca48-4855-8040-748bb9b3087b","system_id":"levelo_inurba_marseille","lat":43.25942,"lon":5.40902,"is_reserved":false,"is_disabled":false,"rental_uris":{"android":"levelo://app?vid=509a9bdc-ca48-4855-8040-748bb9b3087b","ios":"levelo://app?vid=509a9bdc-ca48-4855-8040-748bb9b3087b"},"vehicle_type_id":"4","last_reported":1730437781,"current_range_meters":28800,"station_id":"ce4bhm92rcd13ifvqglg","pricing_plan_id":"cebpf4jnsgd1na2vs0mg"},{"bike_id":"28de8f4a-fa68-498a-9818-fa5670986c33","system_id":"levelo_inurba_marseille","lat":43.29315,"lon":5.37678,"is_reserved":false,"is_disabled":false,"rental_uris":{"android":"levelo://app?vid=28de8f4a-fa68-498a-9818-fa5670986c33","ios":"levelo://app?vid=28de8f4a-fa68-498a-9818-fa5670986c33"},"vehicle_type_id":"4","last_reported":1730437781,"current_range_meters":10800,"station_id":"","pricing_plan_id":"cebpf4jnsgd1na2vs0mg"},{"bike_id":"7bb95899-f3bd-4435-b6e9-2db37eca5429","system_id":"levelo_inurba_marseille","lat":43.25109,"lon":5.40335,"is_reserved":false,"is_disabled":false,"rental_uris":{"android":"levelo://app?vid=7bb95899-f3bd-4435-b6e9-2db37eca5429","ios":"levelo://app?vid=7bb95899-f3bd-4435-b6e9-2db37eca5429"},"vehicle_type_id":"4","last_reported":1730437781,"current_range_meters":14400,"station_id":"ce4bhlh2rcd13ifvqgig","pricing_plan_id":"cebpf4jnsgd1na2vs0mg"},{"bike_id":"14a5cc7d-ef0c-4e2d-8714-496ac785a0c8","system_id":"levelo_inurba_marseille","lat":43.25084,"lon":5.39516,"is_reserved":false,"is_disabled":false,"rental_uris":{"android":"levelo://app?vid=14a5cc7d-ef0c-4e2d-8714-496ac785a0c8","ios":"levelo://app?vid=14a5cc7d-ef0c-4e2d-8714-496ac785a0c8"},"vehicle_type_id":"4","last_reported":1730437781,"current_range_meters":2000,"station_id":"ce4bhm12rcd13ifvqgkg","pricing_plan_id":"cebpf4jnsgd1na2vs0mg"},{"bike_id":"8b582943-1aa4-4eb2-a676-fc10bba85d51","system_id":"levelo_inurba_marseille","lat":43.29444,"lon":5.39754,"is_reserved":false,"is_disabled":false,"rental_uris":{"android":"levelo://app?vid=8b582943-1aa4-4eb2-a676-fc10bba85d51","ios":"levelo://app?vid=8b582943-1aa4-4eb2-a676-fc10bba85d51"},"vehicle_type_id":"4","last_reported":1730437781,"current_range_meters":38800,"station_id":"ce4bh3h2rcd13ifvqdo0","pricing_plan_id":"cebpf4jnsgd1na2vs0mg"},{"bike_id":"a9057597-6b6f-4141-99a4-e986f9303eb5","system_id":"levelo_inurba_marseille","lat":43.24183,"lon":5.39724,"is_reserved":false,"is_disabled":false,"rental_uris":{"android":"levelo://app?vid=a9057597-6b6f-4141-99a4-e986f9303eb5","ios":"levelo://app?vid=a9057597-6b6f-4141-99a4-e986f9303eb5"},"vehicle_type_id":"4","last_reported":1730437781,"current_range_meters":7200,"station_id":"ce4bhn12rcd13ifvqgpg","pricing_plan_id":"cebpf4jnsgd1na2vs0mg"},{"bike_id":"efbe383f-83c6-4df5-ac1f-ffa8f2e0197b","system_id":"levelo_inurba_marseille","lat":43.31335,"lon":5.39697,"is_reserved":false,"is_disabled":false,"rental_uris":{"android":"levelo://app?vid=efbe383f-83c6-4df5-ac1f-ffa8f2e0197b","ios":"levelo://app?vid=efbe383f-83c6-4df5-ac1f-ffa8f2e0197b"},"vehicle_type_id":"4","last_reported":1730437781,"current_range_meters":11200,"station_id":"ce4bgvp2rcd13ifvqcu0","pricing_plan_id":"cebpf4jnsgd1na2vs0mg"},{"bike_id":"100a115e-38d1-4693-a227-244e2cb3d5f6","system_id":"levelo_inurba_marseille","lat":43.30799,"lon":5.38158,"is_reserved":false,"is_disabled":false,"rental_uris":{"android":"levelo://app?vid=100a115e-38d1-4693-a227-244e2cb3d5f6","ios":"levelo://app?vid=100a115e-38d1-4693-a227-244e2cb3d5f6"},"vehicle_type_id":"4","last_reported":1730437781,"current_range_meters":16400,"station_id":"ce4bgt12rcd13ifvqce0","pricing_plan_id":"cebpf4jnsgd1na2vs0mg"},{"bike_id":"8d08700d-ebe7-42f1-bf4b-675012e21591","system_id":"levelo_inurba_marseille","lat":43.30328,"lon":5.40447,"is_reserved":false,"is_disabled":false,"rental_uris":{"android":"levelo://app?vid=8d08700d-ebe7-42f1-bf4b-675012e21591","ios":"levelo://app?vid=8d08700d-ebe7-42f1-bf4b-675012e21591"},"vehicle_type_id":"4","last_reported":1730437781,"current_range_meters":8800,"station_id":"ce4bh012rcd13ifvqd10","pricing_plan_id":"cebpf4jnsgd1na2vs0mg"},{"bike_id":"4dea8207-3aa0-4b4d-9286-901beb1332ca","system_id":"levelo_inurba_marseille","lat":43.28271,"lon":5.35083,"is_reserved":false,"is_disabled":false,"rental_uris":{"android":"levelo://app?vid=4dea8207-3aa0-4b4d-9286-901beb1332ca","ios":"levelo://app?vid=4dea8207-3aa0-4b4d-9286-901beb1332ca"},"vehicle_type_id":"4","last_reported":1730437781,"current_range_meters":36000,"station_id":"ce4bhbp2rcd13ifvqerg","pricing_plan_id":"cebpf4jnsgd1na2vs0mg"},{"bike_id":"90ca8d0a-6768-48be-b64d-0ae3dd3c8e17","system_id":"levelo_inurba_marseille","lat":43.30351,"lon":5.41876,"is_reserved":false,"is_disabled":false,"rental_uris":{"android":"levelo://app?vid=90ca8d0a-6768-48be-b64d-0ae3dd3c8e17","ios":"levelo://app?vid=90ca8d0a-6768-48be-b64d-0ae3dd3c8e17"},"vehicle_type_id":"4","last_reported":1730437781,"current_range_meters":38400,"station_id":"ce4bhop2rcd13ifvqh7g","pricing_plan_id":"cebpf4jnsgd1na2vs0mg"},{"bike_id":"cbe4a0a6-ecb2-4885-accd-0ebdc6514d1c","system_id":"levelo_inurba_marseille","lat":43.24184,"lon":5.39725,"is_reserved":false,"is_disabled":false,"rental_uris":{"android":"levelo://app?vid=cbe4a0a6-ecb2-4885-accd-0ebdc6514d1c","ios":"levelo://app?vid=cbe4a0a6-ecb2-4885-accd-0ebdc6514d1c"},"vehicle_type_id":"4","last_reported":1730437781,"current_range_meters":23200,"station_id":"ce4bhn12rcd13ifvqgpg","pricing_plan_id":"cebpf4jnsgd1na2vs0mg"},{"bike_id":"6e22be8d-9b1b-4ffb-b21b-11c4c6cbdeb1","system_id":"levelo_inurba_marseille","lat":43.30256,"lon":5.40067,"is_reserved":false,"is_disabled":false,"rental_uris":{"android":"levelo://app?vid=6e22be8d-9b1b-4ffb-b21b-11c4c6cbdeb1","ios":"levelo://app?vid=6e22be8d-9b1b-4ffb-b21b-11c4c6cbdeb1"},"vehicle_type_id":"4","last_reported":1730437781,"current_range_meters":30800,"station_id":"ce4bgvh2rcd13ifvqcs0","pricing_plan_id":"cebpf4jnsgd1na2vs0mg"},{"bike_id":"7022c03f-786d-431a-ac1b-2e29cbc5d392","system_id":"levelo_inurba_marseille","lat":43.30432,"lon":5.38883,"is_reserved":false,"is_disabled":false,"rental_uris":{"android":"levelo://app?vid=7022c03f-786d-431a-ac1b-2e29cbc5d392","ios":"levelo://app?vid=7022c03f-786d-431a-ac1b-2e29cbc5d392"},"vehicle_type_id":"4","last_reported":1730437781,"current_range_meters":38800,"station_id":"ce4bgk12rcd13ifvqbi0","pricing_plan_id":"cebpf4jnsgd1na2vs0mg"},{"bike_id":"a6447b45-9e5b-4743-b621-58867c06105d","system_id":"levelo_inurba_marseille","lat":43.26032,"lon":5.37553,"is_reserved":false,"is_disabled":false,"rental_uris":{"android":"levelo://app?vid=a6447b45-9e5b-4743-b621-58867c06105d","ios":"levelo://app?vid=a6447b45-9e5b-4743-b621-58867c06105d"},"vehicle_type_id":"4","last_reported":1730437781,"current_range_meters":35200,"station_id":"ce4bhgh2rcd13ifvqfa0","pricing_plan_id":"cebpf4jnsgd1na2vs0mg"},{"bike_id":"902a84d5-56ca-468a-a9e6-146ab5c6eab3","system_id":"levelo_inurba_marseille","lat":43.25091,"lon":5.39517,"is_reserved":false,"is_disabled":false,"rental_uris":{"android":"levelo://app?vid=902a84d5-56ca-468a-a9e6-146ab5c6eab3","ios":"levelo://app?vid=902a84d5-56ca-468a-a9e6-146ab5c6eab3"},"vehicle_type_id":"4","last_reported":1730437781,"current_range_meters":18800,"station_id":"ce4bhm12rcd13ifvqgkg","pricing_plan_id":"cebpf4jnsgd1na2vs0mg"},{"bike_id":"f181af26-05fa-48b9-827b-e39db8954f97","system_id":"levelo_inurba_marseille","lat":43.29037,"lon":5.39955,"is_reserved":false,"is_disabled":false,"rental_uris":{"android":"levelo://app?vid=f181af26-05fa-48b9-827b-e39db8954f97","ios":"levelo://app?vid=f181af26-05fa-48b9-827b-e39db8954f97"},"vehicle_type_id":"4","last_reported":1730437781,"current_range_meters":29600,"station_id":"ce4bh392rcd13ifvqdm0","pricing_plan_id":"cebpf4jnsgd1na2vs0mg"},{"bike_id":"98e591af-1b37-4791-81f8-0a1125c50536","system_id":"levelo_inurba_marseille","lat":43.26202,"lon":5.37935,"is_reserved":false,"is_disabled":false,"rental_uris":{"android":"levelo://app?vid=98e591af-1b37-4791-81f8-0a1125c50536","ios":"levelo://app?vid=98e591af-1b37-4791-81f8-0a1125c50536"},"vehicle_type_id":"4","last_reported":1730437781,"current_range_meters":38800,"station_id":"ce4bhjp2rcd13ifvqg90","pricing_plan_id":"cebpf4jnsgd1na2vs0mg"},{"bike_id":"26bba1f9-66ab-4140-9d48-433793d5e552","system_id":"levelo_inurba_marseille","lat":43.31371,"lon":5.38497,"is_reserved":false,"is_disabled":false,"rental_uris":{"android":"levelo://app?vid=26bba1f9-66ab-4140-9d48-433793d5e552","ios":"levelo://app?vid=26bba1f9-66ab-4140-9d48-433793d5e552"},"vehicle_type_id":"4","last_reported":1730437781,"current_range_meters":33200,"station_id":"ce4bgt92rcd13ifvqcf0","pricing_plan_id":"cebpf4jnsgd1na2vs0mg"},{"bike_id":"3ab642d6-f0e7-4176-9513-7ca2a30a1c90","system_id":"levelo_inurba_marseille","lat":43.33025,"lon":5.39045,"is_reserved":false,"is_disabled":false,"rental_uris":{"android":"levelo://app?vid=3ab642d6-f0e7-4176-9513-7ca2a30a1c90","ios":"levelo://app?vid=3ab642d6-f0e7-4176-9513-7ca2a30a1c90"},"vehicle_type_id":"4","last_reported":1730437781,"current_range_meters":38400,"station_id":"ce4bhr92rcd13ifvqhrg","pricing_plan_id":"cebpf4jnsgd1na2vs0mg"},{"bike_id":"32d68b81-339e-4497-a9dc-ccf9d2732664","system_id":"levelo_inurba_marseille","lat":43.298683,"lon":5.39742,"is_reserved":false,"is_disabled":false,"rental_uris":{"android":"levelo://app?vid=32d68b81-339e-4497-a9dc-ccf9d2732664","ios":"levelo://app?vid=32d68b81-339e-4497-a9dc-ccf9d2732664"},"vehicle_type_id":"4","last_reported":1730437781,"current_range_meters":34000,"station_id":"ce4bh0h2rcd13ifvqd50","pricing_plan_id":"cebpf4jnsgd1na2vs0mg"},{"bike_id":"1466061d-f699-4017-bc8e-c40666ba05df","system_id":"levelo_inurba_marseille","lat":43.23958,"lon":5.3663,"is_reserved":false,"is_disabled":false,"rental_uris":{"android":"levelo://app?vid=1466061d-f699-4017-bc8e-c40666ba05df","ios":"levelo://app?vid=1466061d-f699-4017-bc8e-c40666ba05df"},"vehicle_type_id":"4","last_reported":1730437781,"current_range_meters":3200,"station_id":"ce4bhi12rcd13ifvqfp0","pricing_plan_id":"cebpf4jnsgd1na2vs0mg"},{"bike_id":"7b305f29-d680-4b81-ab86-c3c2de5fb7e5","system_id":"levelo_inurba_marseille","lat":43.305397,"lon":5.384273,"is_reserved":false,"is_disabled":false,"rental_uris":{"android":"levelo://app?vid=7b305f29-d680-4b81-ab86-c3c2de5fb7e5","ios":"levelo://app?vid=7b305f29-d680-4b81-ab86-c3c2de5fb7e5"},"vehicle_type_id":"4","last_reported":1730437781,"current_range_meters":38800,"station_id":"ce4bgg92rcd13ifvqb30","pricing_plan_id":"cebpf4jnsgd1na2vs0mg"},{"bike_id":"60d9d657-3ec8-40ef-b87b-c6f9930662bd","system_id":"levelo_inurba_marseille","lat":43.31484,"lon":5.373,"is_reserved":false,"is_disabled":false,"rental_uris":{"android":"levelo://app?vid=60d9d657-3ec8-40ef-b87b-c6f9930662bd","ios":"levelo://app?vid=60d9d657-3ec8-40ef-b87b-c6f9930662bd"},"vehicle_type_id":"4","last_reported":1730437781,"current_range_meters":34000,"station_id":"ce4bgt12rcd13ifvqcd0","pricing_plan_id":"cebpf4jnsgd1na2vs0mg"},{"bike_id":"2bb06d22-b3e5-4343-8d8a-0d999ad45fd0","system_id":"levelo_inurba_marseille","lat":43.29794,"lon":5.39334,"is_reserved":false,"is_disabled":false,"rental_uris":{"android":"levelo://app?vid=2bb06d22-b3e5-4343-8d8a-0d999ad45fd0","ios":"levelo://app?vid=2bb06d22-b3e5-4343-8d8a-0d999ad45fd0"},"vehicle_type_id":"4","last_reported":1730437781,"current_range_meters":35600,"station_id":"chh1huq6cuj3fo74tm60","pricing_plan_id":"cebpf4jnsgd1na2vs0mg"},{"bike_id":"fbd58830-60eb-4716-8ded-0e4783dbbf7e","system_id":"levelo_inurba_marseille","lat":43.24071,"lon":5.37758,"is_reserved":false,"is_disabled":false,"rental_uris":{"android":"levelo://app?vid=fbd58830-60eb-4716-8ded-0e4783dbbf7e","ios":"levelo://app?vid=fbd58830-60eb-4716-8ded-0e4783dbbf7e"},"vehicle_type_id":"4","last_reported":1730437781,"current_range_meters":4000,"station_id":"ce4bhnp2rcd13ifvqgvg","pricing_plan_id":"cebpf4jnsgd1na2vs0mg"},{"bike_id":"4326d167-08ff-4bbe-b22d-8af37149490d","system_id":"levelo_inurba_marseille","lat":43.28102,"lon":5.37844,"is_reserved":false,"is_disabled":false,"rental_uris":{"android":"levelo://app?vid=4326d167-08ff-4bbe-b22d-8af37149490d","ios":"levelo://app?vid=4326d167-08ff-4bbe-b22d-8af37149490d"},"vehicle_type_id":"4","last_reported":1730437781,"current_range_meters":38800,"station_id":"ce4bha12rcd13ifvqee0","pricing_plan_id":"cebpf4jnsgd1na2vs0mg"},{"bike_id":"10726e50-b531-49c1-800d-9d68d282a291","system_id":"levelo_inurba_marseille","lat":43.29087,"lon":5.38142,"is_reserved":false,"is_disabled":false,"rental_uris":{"android":"levelo://app?vid=10726e50-b531-49c1-800d-9d68d282a291","ios":"levelo://app?vid=10726e50-b531-49c1-800d-9d68d282a291"},"vehicle_type_id":"4","last_reported":1730437781,"current_range_meters":33200,"station_id":"ce4bh512rcd13ifvqe2g","pricing_plan_id":"cebpf4jnsgd1na2vs0mg"},{"bike_id":"ee30699b-cd46-479d-82bf-f7ee7df9a7b1","system_id":"levelo_inurba_marseille","lat":43.28151,"lon":5.42633,"is_reserved":false,"is_disabled":false,"rental_uris":{"android":"levelo://app?vid=ee30699b-cd46-479d-82bf-f7ee7df9a7b1","ios":"levelo://app?vid=ee30699b-cd46-479d-82bf-f7ee7df9a7b1"},"vehicle_type_id":"4","last_reported":1730437781,"current_range_meters":38800,"station_id":"ce4bhnh2rcd13ifvqgug","pricing_plan_id":"cebpf4jnsgd1na2vs0mg"},{"bike_id":"6145c9dc-5b52-4909-8b3e-d43a8dd315dc","system_id":"levelo_inurba_marseille","lat":43.27175,"lon":5.4099,"is_reserved":false,"is_disabled":false,"rental_uris":{"android":"levelo://app?vid=6145c9dc-5b52-4909-8b3e-d43a8dd315dc","ios":"levelo://app?vid=6145c9dc-5b52-4909-8b3e-d43a8dd315dc"},"vehicle_type_id":"4","last_reported":1730437781,"current_range_meters":6800,"station_id":"ce4bhl12rcd13ifvqgf0","pricing_plan_id":"cebpf4jnsgd1na2vs0mg"},{"bike_id":"aeea1237-3887-42d7-be21-0e7463630790","system_id":"levelo_inurba_marseille","lat":43.23723,"lon":5.40184,"is_reserved":false,"is_disabled":false,"rental_uris":{"android":"levelo://app?vid=aeea1237-3887-42d7-be21-0e7463630790","ios":"levelo://app?vid=aeea1237-3887-42d7-be21-0e7463630790"},"vehicle_type_id":"4","last_reported":1730437781,"current_range_meters":16000,"station_id":"","pricing_plan_id":"cebpf4jnsgd1na2vs0mg"},{"bike_id":"66b5e339-d925-491c-ba42-89ebe2b6d2eb","system_id":"levelo_inurba_marseille","lat":43.317613,"lon":5.390156,"is_reserved":false,"is_disabled":false,"rental_uris":{"android":"levelo://app?vid=66b5e339-d925-491c-ba42-89ebe2b6d2eb","ios":"levelo://app?vid=66b5e339-d925-491c-ba42-89ebe2b6d2eb"},"vehicle_type_id":"4","last_reported":1730437781,"current_range_meters":38800,"station_id":"ce4bhqp2rcd13ifvqhng","pricing_plan_id":"cebpf4jnsgd1na2vs0mg"},{"bike_id":"6164d29c-0bd4-4200-b18e-0e61665fdcb7","system_id":"levelo_inurba_marseille","lat":43.25103,"lon":5.40325,"is_reserved":false,"is_disabled":false,"rental_uris":{"android":"levelo://app?vid=6164d29c-0bd4-4200-b18e-0e61665fdcb7","ios":"levelo://app?vid=6164d29c-0bd4-4200-b18e-0e61665fdcb7"},"vehicle_type_id":"4","last_reported":1730437781,"current_range_meters":8400,"station_id":"ce4bhlh2rcd13ifvqgig","pricing_plan_id":"cebpf4jnsgd1na2vs0mg"},{"bike_id":"ea1226fb-1e91-4940-8a2c-e617f0dd2cf4","system_id":"levelo_inurba_marseille","lat":43.29201,"lon":5.39327,"is_reserved":false,"is_disabled":false,"rental_uris":{"android":"levelo://app?vid=ea1226fb-1e91-4940-8a2c-e617f0dd2cf4","ios":"levelo://app?vid=ea1226fb-1e91-4940-8a2c-e617f0dd2cf4"},"vehicle_type_id":"4","last_reported":1730437781,"current_range_meters":14800,"station_id":"ce4bh192rcd13ifvqdd0","pricing_plan_id":"cebpf4jnsgd1na2vs0mg"},{"bike_id":"15279d15-7fec-4497-99b5-ea531da5ea5a","system_id":"levelo_inurba_marseille","lat":43.2926,"lon":5.40905,"is_reserved":false,"is_disabled":false,"rental_uris":{"android":"levelo://app?vid=15279d15-7fec-4497-99b5-ea531da5ea5a","ios":"levelo://app?vid=15279d15-7fec-4497-99b5-ea531da5ea5a"},"vehicle_type_id":"4","last_reported":1730437781,"current_range_meters":38800,"station_id":"ce4bh192rcd13ifvqdc0","pricing_plan_id":"cebpf4jnsgd1na2vs0mg"},{"bike_id":"44e27d21-4c64-416a-95eb-3e3c655974f1","system_id":"levelo_inurba_marseille","lat":43.31166,"lon":5.38703,"is_reserved":false,"is_disabled":false,"rental_uris":{"android":"levelo://app?vid=44e27d21-4c64-416a-95eb-3e3c655974f1","ios":"levelo://app?vid=44e27d21-4c64-416a-95eb-3e3c655974f1"},"vehicle_type_id":"4","last_reported":1730437781,"current_range_meters":38800,"station_id":"ce4bgv12rcd13ifvqcp0","pricing_plan_id":"cebpf4jnsgd1na2vs0mg"},{"bike_id":"458ea252-557b-4a8e-a07e-5ee5dcbac059","system_id":"levelo_inurba_marseille","lat":43.290423,"lon":5.359134,"is_reserved":false,"is_disabled":false,"rental_uris":{"android":"levelo://app?vid=458ea252-557b-4a8e-a07e-5ee5dcbac059","ios":"levelo://app?vid=458ea252-557b-4a8e-a07e-5ee5dcbac059"},"vehicle_type_id":"4","last_reported":1730437781,"current_range_meters":38800,"station_id":"ce4bha92rcd13ifvqeg0","pricing_plan_id":"cebpf4jnsgd1na2vs0mg"},{"bike_id":"6a76874c-c55f-4beb-9f66-f8dd5f3b8f79","system_id":"levelo_inurba_marseille","lat":43.24666,"lon":5.38164,"is_reserved":false,"is_disabled":false,"rental_uris":{"android":"levelo://app?vid=6a76874c-c55f-4beb-9f66-f8dd5f3b8f79","ios":"levelo://app?vid=6a76874c-c55f-4beb-9f66-f8dd5f3b8f79"},"vehicle_type_id":"4","last_reported":1730437781,"current_range_meters":18000,"station_id":"ce4bhih2rcd13ifvqfr0","pricing_plan_id":"cebpf4jnsgd1na2vs0mg"},{"bike_id":"b0377714-7a30-49ee-b6c1-7ca6811d5925","system_id":"levelo_inurba_marseille","lat":43.32487,"lon":5.36556,"is_reserved":false,"is_disabled":false,"rental_uris":{"android":"levelo://app?vid=b0377714-7a30-49ee-b6c1-7ca6811d5925","ios":"levelo://app?vid=b0377714-7a30-49ee-b6c1-7ca6811d5925"},"vehicle_type_id":"4","last_reported":1730437781,"current_range_meters":30000,"station_id":"ce4bhs12rcd13ifvqhvg","pricing_plan_id":"cebpf4jnsgd1na2vs0mg"},{"bike_id":"85c50df7-8369-479c-ae3b-0f785f5c3640","system_id":"levelo_inurba_marseille","lat":43.29036,"lon":5.3591,"is_reserved":false,"is_disabled":false,"rental_uris":{"android":"levelo://app?vid=85c50df7-8369-479c-ae3b-0f785f5c3640","ios":"levelo://app?vid=85c50df7-8369-479c-ae3b-0f785f5c3640"},"vehicle_type_id":"4","last_reported":1730437781,"current_range_meters":34000,"station_id":"ce4bha92rcd13ifvqeg0","pricing_plan_id":"cebpf4jnsgd1na2vs0mg"},{"bike_id":"69355a51-41a5-4455-b14c-61dd7df03e2c","system_id":"levelo_inurba_marseille","lat":43.33717,"lon":5.39171,"is_reserved":false,"is_disabled":false,"rental_uris":{"android":"levelo://app?vid=69355a51-41a5-4455-b14c-61dd7df03e2c","ios":"levelo://app?vid=69355a51-41a5-4455-b14c-61dd7df03e2c"},"vehicle_type_id":"4","last_reported":1730437781,"current_range_meters":39200,"station_id":"ce4bhr92rcd13ifvqhsg","pricing_plan_id":"cebpf4jnsgd1na2vs0mg"},{"bike_id":"b8812829-13c4-4cd9-8648-e8f45673a8cb","system_id":"levelo_inurba_marseille","lat":43.3042,"lon":5.41282,"is_reserved":false,"is_disabled":false,"rental_uris":{"android":"levelo://app?vid=b8812829-13c4-4cd9-8648-e8f45673a8cb","ios":"levelo://app?vid=b8812829-13c4-4cd9-8648-e8f45673a8cb"},"vehicle_type_id":"4","last_reported":1730437781,"current_range_meters":7200,"station_id":"ce4bhop2rcd13ifvqh8g","pricing_plan_id":"cebpf4jnsgd1na2vs0mg"},{"bike_id":"5940a52e-340c-4ac5-bfa3-4f03ece7e337","system_id":"levelo_inurba_marseille","lat":43.311702,"lon":5.387168,"is_reserved":false,"is_disabled":false,"rental_uris":{"android":"levelo://app?vid=5940a52e-340c-4ac5-bfa3-4f03ece7e337","ios":"levelo://app?vid=5940a52e-340c-4ac5-bfa3-4f03ece7e337"},"vehicle_type_id":"4","last_reported":1730437781,"current_range_meters":26800,"station_id":"ce4bgv12rcd13ifvqcp0","pricing_plan_id":"cebpf4jnsgd1na2vs0mg"},{"bike_id":"b11fca02-772a-477e-86dd-47371d89328f","system_id":"levelo_inurba_marseille","lat":43.30289,"lon":5.37694,"is_reserved":false,"is_disabled":false,"rental_uris":{"android":"levelo://app?vid=b11fca02-772a-477e-86dd-47371d89328f","ios":"levelo://app?vid=b11fca02-772a-477e-86dd-47371d89328f"},"vehicle_type_id":"4","last_reported":1730437781,"current_range_meters":18800,"station_id":"ce4bguh2rcd13ifvqcj0","pricing_plan_id":"cebpf4jnsgd1na2vs0mg"},{"bike_id":"4c21efbf-d433-43db-8285-51d3e794632a","system_id":"levelo_inurba_marseille","lat":43.25116,"lon":5.40315,"is_reserved":false,"is_disabled":false,"rental_uris":{"android":"levelo://app?vid=4c21efbf-d433-43db-8285-51d3e794632a","ios":"levelo://app?vid=4c21efbf-d433-43db-8285-51d3e794632a"},"vehicle_type_id":"4","last_reported":1730437781,"current_range_meters":2800,"station_id":"ce4bhlh2rcd13ifvqgig","pricing_plan_id":"cebpf4jnsgd1na2vs0mg"},{"bike_id":"211c8490-2d66-4e96-b61e-18961f304bcf","system_id":"levelo_inurba_marseille","lat":43.2928,"lon":5.40122,"is_reserved":false,"is_disabled":false,"rental_uris":{"android":"levelo://app?vid=211c8490-2d66-4e96-b61e-18961f304bcf","ios":"levelo://app?vid=211c8490-2d66-4e96-b61e-18961f304bcf"},"vehicle_type_id":"4","last_reported":1730437781,"current_range_meters":29600,"station_id":"ce4bh312rcd13ifvqdk0","pricing_plan_id":"cebpf4jnsgd1na2vs0mg"},{"bike_id":"d5f11aa3-ffa9-4037-af6e-94a6690226ec","system_id":"levelo_inurba_marseille","lat":43.24994,"lon":5.38922,"is_reserved":false,"is_disabled":false,"rental_uris":{"android":"levelo://app?vid=d5f11aa3-ffa9-4037-af6e-94a6690226ec","ios":"levelo://app?vid=d5f11aa3-ffa9-4037-af6e-94a6690226ec"},"vehicle_type_id":"4","last_reported":1730437781,"current_range_meters":38800,"station_id":"ce4bhgp2rcd13ifvqfd0","pricing_plan_id":"cebpf4jnsgd1na2vs0mg"},{"bike_id":"6d36e7df-dc87-476c-8908-6218d1ea9c65","system_id":"levelo_inurba_marseille","lat":43.28274,"lon":5.35065,"is_reserved":false,"is_disabled":false,"rental_uris":{"android":"levelo://app?vid=6d36e7df-dc87-476c-8908-6218d1ea9c65","ios":"levelo://app?vid=6d36e7df-dc87-476c-8908-6218d1ea9c65"},"vehicle_type_id":"4","last_reported":1730437781,"current_range_meters":29600,"station_id":"ce4bhbp2rcd13ifvqerg","pricing_plan_id":"cebpf4jnsgd1na2vs0mg"},{"bike_id":"aeb3962c-066d-4d28-9248-940e050be19a","system_id":"levelo_inurba_marseille","lat":43.25114,"lon":5.40317,"is_reserved":false,"is_disabled":false,"rental_uris":{"android":"levelo://app?vid=aeb3962c-066d-4d28-9248-940e050be19a","ios":"levelo://app?vid=aeb3962c-066d-4d28-9248-940e050be19a"},"vehicle_type_id":"4","last_reported":1730437781,"current_range_meters":8400,"station_id":"ce4bhlh2rcd13ifvqgig","pricing_plan_id":"cebpf4jnsgd1na2vs0mg"},{"bike_id":"a3532ce9-83c4-4e4f-80b1-34680b043682","system_id":"levelo_inurba_marseille","lat":43.31285,"lon":5.40169,"is_reserved":false,"is_disabled":false,"rental_uris":{"android":"levelo://app?vid=a3532ce9-83c4-4e4f-80b1-34680b043682","ios":"levelo://app?vid=a3532ce9-83c4-4e4f-80b1-34680b043682"},"vehicle_type_id":"4","last_reported":1730437781,"current_range_meters":38000,"station_id":"ce4bh092rcd13ifvqd30","pricing_plan_id":"cebpf4jnsgd1na2vs0mg"},{"bike_id":"ff9ca723-b878-4ddf-bebd-a6694ec12a82","system_id":"levelo_inurba_marseille","lat":43.2512,"lon":5.40318,"is_reserved":false,"is_disabled":false,"rental_uris":{"android":"levelo://app?vid=ff9ca723-b878-4ddf-bebd-a6694ec12a82","ios":"levelo://app?vid=ff9ca723-b878-4ddf-bebd-a6694ec12a82"},"vehicle_type_id":"4","last_reported":1730437781,"current_range_meters":8800,"station_id":"ce4bhlh2rcd13ifvqgig","pricing_plan_id":"cebpf4jnsgd1na2vs0mg"},{"bike_id":"b8296e76-0447-46c0-be06-c578170cf1bc","system_id":"levelo_inurba_marseille","lat":43.3137,"lon":5.38499,"is_reserved":false,"is_disabled":false,"rental_uris":{"android":"levelo://app?vid=b8296e76-0447-46c0-be06-c578170cf1bc","ios":"levelo://app?vid=b8296e76-0447-46c0-be06-c578170cf1bc"},"vehicle_type_id":"4","last_reported":1730437781,"current_range_meters":40000,"station_id":"ce4bgt92rcd13ifvqcf0","pricing_plan_id":"cebpf4jnsgd1na2vs0mg"},{"bike_id":"89ecfe10-093a-4a31-b0b6-28942a35bc5e","system_id":"levelo_inurba_marseille","lat":43.3234,"lon":5.4062,"is_reserved":false,"is_disabled":false,"rental_uris":{"android":"levelo://app?vid=89ecfe10-093a-4a31-b0b6-28942a35bc5e","ios":"levelo://app?vid=89ecfe10-093a-4a31-b0b6-28942a35bc5e"},"vehicle_type_id":"4","last_reported":1730437781,"current_range_meters":18800,"station_id":"ce4bhq92rcd13ifvqhjg","pricing_plan_id":"cebpf4jnsgd1na2vs0mg"},{"bike_id":"5c8a5bb5-a198-4a3b-92e7-8543db03156f","system_id":"levelo_inurba_marseille","lat":43.317113,"lon":5.377603,"is_reserved":false,"is_disabled":false,"rental_uris":{"android":"levelo://app?vid=5c8a5bb5-a198-4a3b-92e7-8543db03156f","ios":"levelo://app?vid=5c8a5bb5-a198-4a3b-92e7-8543db03156f"},"vehicle_type_id":"4","last_reported":1730437781,"current_range_meters":38800,"station_id":"ce4bgth2rcd13ifvqch0","pricing_plan_id":"cebpf4jnsgd1na2vs0mg"},{"bike_id":"a916599f-804e-4508-947b-869589ac73c6","system_id":"levelo_inurba_marseille","lat":43.2904,"lon":5.35929,"is_reserved":false,"is_disabled":false,"rental_uris":{"android":"levelo://app?vid=a916599f-804e-4508-947b-869589ac73c6","ios":"levelo://app?vid=a916599f-804e-4508-947b-869589ac73c6"},"vehicle_type_id":"4","last_reported":1730437781,"current_range_meters":32000,"station_id":"ce4bha92rcd13ifvqeg0","pricing_plan_id":"cebpf4jnsgd1na2vs0mg"},{"bike_id":"a7f54bfb-d0d7-45f1-a32b-6a2f2db92c87","system_id":"levelo_inurba_marseille","lat":43.31885,"lon":5.40731,"is_reserved":false,"is_disabled":false,"rental_uris":{"android":"levelo://app?vid=a7f54bfb-d0d7-45f1-a32b-6a2f2db92c87","ios":"levelo://app?vid=a7f54bfb-d0d7-45f1-a32b-6a2f2db92c87"},"vehicle_type_id":"4","last_reported":1730437781,"current_range_meters":38000,"station_id":"ce4bhq12rcd13ifvqhig","pricing_plan_id":"cebpf4jnsgd1na2vs0mg"},{"bike_id":"c0bb82be-4216-4dbc-94da-43d3ec0e1ad1","system_id":"levelo_inurba_marseille","lat":43.29255,"lon":5.40911,"is_reserved":false,"is_disabled":false,"rental_uris":{"android":"levelo://app?vid=c0bb82be-4216-4dbc-94da-43d3ec0e1ad1","ios":"levelo://app?vid=c0bb82be-4216-4dbc-94da-43d3ec0e1ad1"},"vehicle_type_id":"4","last_reported":1730437781,"current_range_meters":30000,"station_id":"ce4bh192rcd13ifvqdc0","pricing_plan_id":"cebpf4jnsgd1na2vs0mg"},{"bike_id":"05b66808-27ba-48de-8c25-fa6353c85930","system_id":"levelo_inurba_marseille","lat":43.27091,"lon":5.40423,"is_reserved":false,"is_disabled":false,"rental_uris":{"android":"levelo://app?vid=05b66808-27ba-48de-8c25-fa6353c85930","ios":"levelo://app?vid=05b66808-27ba-48de-8c25-fa6353c85930"},"vehicle_type_id":"4","last_reported":1730437781,"current_range_meters":12400,"station_id":"ce4bhjp2rcd13ifvqga0","pricing_plan_id":"cebpf4jnsgd1na2vs0mg"},{"bike_id":"9daca46e-b450-4f6e-8fa7-dc74aa35a5dd","system_id":"levelo_inurba_marseille","lat":43.23103,"lon":5.40065,"is_reserved":false,"is_disabled":false,"rental_uris":{"android":"levelo://app?vid=9daca46e-b450-4f6e-8fa7-dc74aa35a5dd","ios":"levelo://app?vid=9daca46e-b450-4f6e-8fa7-dc74aa35a5dd"},"vehicle_type_id":"4","last_reported":1730437781,"current_range_meters":22400,"station_id":"ce4bhn12rcd13ifvqgqg","pricing_plan_id":"cebpf4jnsgd1na2vs0mg"},{"bike_id":"c0e18836-85b5-48ed-8053-a8afbd5fc2c3","system_id":"levelo_inurba_marseille","lat":43.30893,"lon":5.37196,"is_reserved":false,"is_disabled":false,"rental_uris":{"android":"levelo://app?vid=c0e18836-85b5-48ed-8053-a8afbd5fc2c3","ios":"levelo://app?vid=c0e18836-85b5-48ed-8053-a8afbd5fc2c3"},"vehicle_type_id":"4","last_reported":1730437781,"current_range_meters":32400,"station_id":"ce4bguh2rcd13ifvqckg","pricing_plan_id":"cebpf4jnsgd1na2vs0mg"},{"bike_id":"55af0ff1-ae48-4341-810d-358c05c54b3e","system_id":"levelo_inurba_marseille","lat":43.25114,"lon":5.40326,"is_reserved":false,"is_disabled":false,"rental_uris":{"android":"levelo://app?vid=55af0ff1-ae48-4341-810d-358c05c54b3e","ios":"levelo://app?vid=55af0ff1-ae48-4341-810d-358c05c54b3e"},"vehicle_type_id":"4","last_reported":1730437781,"current_range_meters":28000,"station_id":"ce4bhlh2rcd13ifvqgig","pricing_plan_id":"cebpf4jnsgd1na2vs0mg"},{"bike_id":"ed9aa993-8003-4cbf-9aaf-8a3f2e010645","system_id":"levelo_inurba_marseille","lat":43.24169,"lon":5.36398,"is_reserved":false,"is_disabled":false,"rental_uris":{"android":"levelo://app?vid=ed9aa993-8003-4cbf-9aaf-8a3f2e010645","ios":"levelo://app?vid=ed9aa993-8003-4cbf-9aaf-8a3f2e010645"},"vehicle_type_id":"4","last_reported":1730437781,"current_range_meters":7200,"station_id":"cpo36qri1sfpv3e86is0","pricing_plan_id":"cebpf4jnsgd1na2vs0mg"},{"bike_id":"33a098b5-2f3f-4957-af96-675614306bdc","system_id":"levelo_inurba_marseille","lat":43.28286,"lon":5.39015,"is_reserved":false,"is_disabled":false,"rental_uris":{"android":"levelo://app?vid=33a098b5-2f3f-4957-af96-675614306bdc","ios":"levelo://app?vid=33a098b5-2f3f-4957-af96-675614306bdc"},"vehicle_type_id":"4","last_reported":1730437781,"current_range_meters":17600,"station_id":"","pricing_plan_id":"cebpf4jnsgd1na2vs0mg"},{"bike_id":"1dbe4eeb-ba44-496f-b143-5ace694d82ca","system_id":"levelo_inurba_marseille","lat":43.32333,"lon":5.40614,"is_reserved":false,"is_disabled":false,"rental_uris":{"android":"levelo://app?vid=1dbe4eeb-ba44-496f-b143-5ace694d82ca","ios":"levelo://app?vid=1dbe4eeb-ba44-496f-b143-5ace694d82ca"},"vehicle_type_id":"4","last_reported":1730437781,"current_range_meters":5600,"station_id":"ce4bhq92rcd13ifvqhjg","pricing_plan_id":"cebpf4jnsgd1na2vs0mg"},{"bike_id":"62297f1f-2189-4ebc-975f-07bba5a52242","system_id":"levelo_inurba_marseille","lat":43.30655,"lon":5.40088,"is_reserved":false,"is_disabled":false,"rental_uris":{"android":"levelo://app?vid=62297f1f-2189-4ebc-975f-07bba5a52242","ios":"levelo://app?vid=62297f1f-2189-4ebc-975f-07bba5a52242"},"vehicle_type_id":"4","last_reported":1730437781,"current_range_meters":16800,"station_id":"ce4bh112rcd13ifvqda0","pricing_plan_id":"cebpf4jnsgd1na2vs0mg"},{"bike_id":"a8594471-923b-4371-82a5-d750e1a3d991","system_id":"levelo_inurba_marseille","lat":43.315319,"lon":5.380314,"is_reserved":false,"is_disabled":false,"rental_uris":{"android":"levelo://app?vid=a8594471-923b-4371-82a5-d750e1a3d991","ios":"levelo://app?vid=a8594471-923b-4371-82a5-d750e1a3d991"},"vehicle_type_id":"4","last_reported":1730437781,"current_range_meters":10000,"station_id":"ce4bhsp2rcd13ifvqi50","pricing_plan_id":"cebpf4jnsgd1na2vs0mg"},{"bike_id":"18523ad7-955d-42dc-abaf-2865bf277e38","system_id":"levelo_inurba_marseille","lat":43.30534,"lon":5.38423,"is_reserved":false,"is_disabled":false,"rental_uris":{"android":"levelo://app?vid=18523ad7-955d-42dc-abaf-2865bf277e38","ios":"levelo://app?vid=18523ad7-955d-42dc-abaf-2865bf277e38"},"vehicle_type_id":"4","last_reported":1730437781,"current_range_meters":38800,"station_id":"ce4bgg92rcd13ifvqb30","pricing_plan_id":"cebpf4jnsgd1na2vs0mg"},{"bike_id":"413fd6fa-c9ee-4c88-b239-56ebf5d8bd5f","system_id":"levelo_inurba_marseille","lat":43.32662,"lon":5.40988,"is_reserved":false,"is_disabled":false,"rental_uris":{"android":"levelo://app?vid=413fd6fa-c9ee-4c88-b239-56ebf5d8bd5f","ios":"levelo://app?vid=413fd6fa-c9ee-4c88-b239-56ebf5d8bd5f"},"vehicle_type_id":"4","last_reported":1730437781,"current_range_meters":38800,"station_id":"ce4bhpp2rcd13ifvqhgg","pricing_plan_id":"cebpf4jnsgd1na2vs0mg"},{"bike_id":"a0e3f3da-7c15-4cc6-b660-e90d2af5bffc","system_id":"levelo_inurba_marseille","lat":43.30429,"lon":5.39754,"is_reserved":false,"is_disabled":false,"rental_uris":{"android":"levelo://app?vid=a0e3f3da-7c15-4cc6-b660-e90d2af5bffc","ios":"levelo://app?vid=a0e3f3da-7c15-4cc6-b660-e90d2af5bffc"},"vehicle_type_id":"4","last_reported":1730437781,"current_range_meters":38800,"station_id":"ce4bh092rcd13ifvqd20","pricing_plan_id":"cebpf4jnsgd1na2vs0mg"},{"bike_id":"f95ca5c2-a7fb-4943-82f2-1016fc001e02","system_id":"levelo_inurba_marseille","lat":43.30459,"lon":5.37913,"is_reserved":false,"is_disabled":false,"rental_uris":{"android":"levelo://app?vid=f95ca5c2-a7fb-4943-82f2-1016fc001e02","ios":"levelo://app?vid=f95ca5c2-a7fb-4943-82f2-1016fc001e02"},"vehicle_type_id":"4","last_reported":1730437781,"current_range_meters":16000,"station_id":"ce4bgup2rcd13ifvqcn0","pricing_plan_id":"cebpf4jnsgd1na2vs0mg"},{"bike_id":"ed24b092-1aee-46ef-9a05-6f2fb390575a","system_id":"levelo_inurba_marseille","lat":43.28071,"lon":5.39647,"is_reserved":false,"is_disabled":false,"rental_uris":{"android":"levelo://app?vid=ed24b092-1aee-46ef-9a05-6f2fb390575a","ios":"levelo://app?vid=ed24b092-1aee-46ef-9a05-6f2fb390575a"},"vehicle_type_id":"4","last_reported":1730437781,"current_range_meters":38800,"station_id":"ce4bho12rcd13ifvqh2g","pricing_plan_id":"cebpf4jnsgd1na2vs0mg"},{"bike_id":"740fc89b-8aeb-4711-8e98-c31ebac4a78e","system_id":"levelo_inurba_marseille","lat":43.30923,"lon":5.40145,"is_reserved":false,"is_disabled":false,"rental_uris":{"android":"levelo://app?vid=740fc89b-8aeb-4711-8e98-c31ebac4a78e","ios":"levelo://app?vid=740fc89b-8aeb-4711-8e98-c31ebac4a78e"},"vehicle_type_id":"4","last_reported":1730437781,"current_range_meters":24400,"station_id":"ce4bgvp2rcd13ifvqct0","pricing_plan_id":"cebpf4jnsgd1na2vs0mg"},{"bike_id":"be209aa2-1550-4a40-811c-16dcfd6f7543","system_id":"levelo_inurba_marseille","lat":43.31993,"lon":5.38146,"is_reserved":false,"is_disabled":false,"rental_uris":{"android":"levelo://app?vid=be209aa2-1550-4a40-811c-16dcfd6f7543","ios":"levelo://app?vid=be209aa2-1550-4a40-811c-16dcfd6f7543"},"vehicle_type_id":"4","last_reported":1730437781,"current_range_meters":29600,"station_id":"ce4bhr12rcd13ifvqhpg","pricing_plan_id":"cebpf4jnsgd1na2vs0mg"},{"bike_id":"9bcfd29c-2881-4d89-97f3-691436c9a98e","system_id":"levelo_inurba_marseille","lat":43.30136,"lon":5.38785,"is_reserved":false,"is_disabled":false,"rental_uris":{"android":"levelo://app?vid=9bcfd29c-2881-4d89-97f3-691436c9a98e","ios":"levelo://app?vid=9bcfd29c-2881-4d89-97f3-691436c9a98e"},"vehicle_type_id":"4","last_reported":1730437781,"current_range_meters":34000,"station_id":"ce4bghh2rcd13ifvqb60","pricing_plan_id":"cebpf4jnsgd1na2vs0mg"},{"bike_id":"b7504567-1569-4aed-85ef-ebd7066c9d6d","system_id":"levelo_inurba_marseille","lat":43.28349,"lon":5.38105,"is_reserved":false,"is_disabled":false,"rental_uris":{"android":"levelo://app?vid=b7504567-1569-4aed-85ef-ebd7066c9d6d","ios":"levelo://app?vid=b7504567-1569-4aed-85ef-ebd7066c9d6d"},"vehicle_type_id":"4","last_reported":1730437781,"current_range_meters":39200,"station_id":"ce4bh412rcd13ifvqdr0","pricing_plan_id":"cebpf4jnsgd1na2vs0mg"},{"bike_id":"c117cce3-60ae-4c3b-9a80-37b47d8adc50","system_id":"levelo_inurba_marseille","lat":43.23197,"lon":5.35549,"is_reserved":false,"is_disabled":false,"rental_uris":{"android":"levelo://app?vid=c117cce3-60ae-4c3b-9a80-37b47d8adc50","ios":"levelo://app?vid=c117cce3-60ae-4c3b-9a80-37b47d8adc50"},"vehicle_type_id":"4","last_reported":1730437781,"current_range_meters":24800,"station_id":"ce4bhu92rcd13ifvqi70","pricing_plan_id":"cebpf4jnsgd1na2vs0mg"},{"bike_id":"84b3858e-724d-4a51-abdd-a1c7708d404b","system_id":"levelo_inurba_marseille","lat":43.29494,"lon":5.38105,"is_reserved":false,"is_disabled":false,"rental_uris":{"android":"levelo://app?vid=84b3858e-724d-4a51-abdd-a1c7708d404b","ios":"levelo://app?vid=84b3858e-724d-4a51-abdd-a1c7708d404b"},"vehicle_type_id":"4","last_reported":1730437781,"current_range_meters":18800,"station_id":"","pricing_plan_id":"cebpf4jnsgd1na2vs0mg"},{"bike_id":"0eac5a1d-d684-45e0-be5d-a22f3e11c4ca","system_id":"levelo_inurba_marseille","lat":43.23964,"lon":5.36627,"is_reserved":false,"is_disabled":false,"rental_uris":{"android":"levelo://app?vid=0eac5a1d-d684-45e0-be5d-a22f3e11c4ca","ios":"levelo://app?vid=0eac5a1d-d684-45e0-be5d-a22f3e11c4ca"},"vehicle_type_id":"4","last_reported":1730437781,"current_range_meters":8800,"station_id":"ce4bhi12rcd13ifvqfp0","pricing_plan_id":"cebpf4jnsgd1na2vs0mg"},{"bike_id":"ee343481-2f8a-4358-bb0a-ffd40b9c29e3","system_id":"levelo_inurba_marseille","lat":43.30779,"lon":5.37651,"is_reserved":false,"is_disabled":false,"rental_uris":{"android":"levelo://app?vid=ee343481-2f8a-4358-bb0a-ffd40b9c29e3","ios":"levelo://app?vid=ee343481-2f8a-4358-bb0a-ffd40b9c29e3"},"vehicle_type_id":"4","last_reported":1730437781,"current_range_meters":20000,"station_id":"ce4bgv92rcd13ifvqcq0","pricing_plan_id":"cebpf4jnsgd1na2vs0mg"},{"bike_id":"d00a1cd9-ff6e-4ed6-9c08-9326fe9ab893","system_id":"levelo_inurba_marseille","lat":43.30254,"lon":5.40103,"is_reserved":false,"is_disabled":false,"rental_uris":{"android":"levelo://app?vid=d00a1cd9-ff6e-4ed6-9c08-9326fe9ab893","ios":"levelo://app?vid=d00a1cd9-ff6e-4ed6-9c08-9326fe9ab893"},"vehicle_type_id":"4","last_reported":1730437781,"current_range_meters":36000,"station_id":"ce4bgvh2rcd13ifvqcs0","pricing_plan_id":"cebpf4jnsgd1na2vs0mg"},{"bike_id":"143cb3a1-fb90-4ab8-b444-61ab40035e31","system_id":"levelo_inurba_marseille","lat":43.29556,"lon":5.42295,"is_reserved":false,"is_disabled":false,"rental_uris":{"android":"levelo://app?vid=143cb3a1-fb90-4ab8-b444-61ab40035e31","ios":"levelo://app?vid=143cb3a1-fb90-4ab8-b444-61ab40035e31"},"vehicle_type_id":"4","last_reported":1730437781,"current_range_meters":28400,"station_id":"ce4bhph2rcd13ifvqhdg","pricing_plan_id":"cebpf4jnsgd1na2vs0mg"},{"bike_id":"6e021437-5567-4fd2-8c94-511996ae0133","system_id":"levelo_inurba_marseille","lat":43.29788,"lon":5.38087,"is_reserved":false,"is_disabled":false,"rental_uris":{"android":"levelo://app?vid=6e021437-5567-4fd2-8c94-511996ae0133","ios":"levelo://app?vid=6e021437-5567-4fd2-8c94-511996ae0133"},"vehicle_type_id":"4","last_reported":1730437781,"current_range_meters":38800,"station_id":"ce4bgip2rcd13ifvqbb0","pricing_plan_id":"cebpf4jnsgd1na2vs0mg"},{"bike_id":"e7b2be94-21fc-42ac-bdf7-d486710a5d9a","system_id":"levelo_inurba_marseille","lat":43.23189,"lon":5.3555,"is_reserved":false,"is_disabled":false,"rental_uris":{"android":"levelo://app?vid=e7b2be94-21fc-42ac-bdf7-d486710a5d9a","ios":"levelo://app?vid=e7b2be94-21fc-42ac-bdf7-d486710a5d9a"},"vehicle_type_id":"4","last_reported":1730437781,"current_range_meters":38400,"station_id":"ce4bhu92rcd13ifvqi70","pricing_plan_id":"cebpf4jnsgd1na2vs0mg"},{"bike_id":"856e4bed-bc6f-44da-ad3c-d6a544049465","system_id":"levelo_inurba_marseille","lat":43.29955,"lon":5.38108,"is_reserved":false,"is_disabled":false,"rental_uris":{"android":"levelo://app?vid=856e4bed-bc6f-44da-ad3c-d6a544049465","ios":"levelo://app?vid=856e4bed-bc6f-44da-ad3c-d6a544049465"},"vehicle_type_id":"4","last_reported":1730437781,"current_range_meters":17200,"station_id":"ce4bgip2rcd13ifvqbb0","pricing_plan_id":"cebpf4jnsgd1na2vs0mg"},{"bike_id":"3bae9340-aae2-47c4-82c5-5c0d7349f14b","system_id":"levelo_inurba_marseille","lat":43.30798,"lon":5.435226,"is_reserved":false,"is_disabled":false,"rental_uris":{"android":"levelo://app?vid=3bae9340-aae2-47c4-82c5-5c0d7349f14b","ios":"levelo://app?vid=3bae9340-aae2-47c4-82c5-5c0d7349f14b"},"vehicle_type_id":"4","last_reported":1730437781,"current_range_meters":34000,"station_id":"ce4bhph2rcd13ifvqheg","pricing_plan_id":"cebpf4jnsgd1na2vs0mg"},{"bike_id":"5e952f6b-9aee-4257-81cc-27b4ae171e24","system_id":"levelo_inurba_marseille","lat":43.22927,"lon":5.35382,"is_reserved":false,"is_disabled":false,"rental_uris":{"android":"levelo://app?vid=5e952f6b-9aee-4257-81cc-27b4ae171e24","ios":"levelo://app?vid=5e952f6b-9aee-4257-81cc-27b4ae171e24"},"vehicle_type_id":"4","last_reported":1730437781,"current_range_meters":37600,"station_id":"cpo3532slgdg3j2ikp40","pricing_plan_id":"cebpf4jnsgd1na2vs0mg"},{"bike_id":"63aa8811-e294-46e2-8816-994ebd97ba6b","system_id":"levelo_inurba_marseille","lat":43.28103,"lon":5.3784,"is_reserved":false,"is_disabled":false,"rental_uris":{"android":"levelo://app?vid=63aa8811-e294-46e2-8816-994ebd97ba6b","ios":"levelo://app?vid=63aa8811-e294-46e2-8816-994ebd97ba6b"},"vehicle_type_id":"4","last_reported":1730437781,"current_range_meters":37600,"station_id":"ce4bha12rcd13ifvqee0","pricing_plan_id":"cebpf4jnsgd1na2vs0mg"},{"bike_id":"32a26fa8-b1b7-4037-bcc6-6f0d9c2bf23c","system_id":"levelo_inurba_marseille","lat":43.30137,"lon":5.39876,"is_reserved":false,"is_disabled":false,"rental_uris":{"android":"levelo://app?vid=32a26fa8-b1b7-4037-bcc6-6f0d9c2bf23c","ios":"levelo://app?vid=32a26fa8-b1b7-4037-bcc6-6f0d9c2bf23c"},"vehicle_type_id":"4","last_reported":1730437781,"current_range_meters":39200,"station_id":"ce4bh0h2rcd13ifvqd40","pricing_plan_id":"cebpf4jnsgd1na2vs0mg"},{"bike_id":"a3181abd-c016-4593-a56e-4968f191997b","system_id":"levelo_inurba_marseille","lat":43.30793,"lon":5.38171,"is_reserved":false,"is_disabled":false,"rental_uris":{"android":"levelo://app?vid=a3181abd-c016-4593-a56e-4968f191997b","ios":"levelo://app?vid=a3181abd-c016-4593-a56e-4968f191997b"},"vehicle_type_id":"4","last_reported":1730437781,"current_range_meters":9600,"station_id":"ce4bgt12rcd13ifvqce0","pricing_plan_id":"cebpf4jnsgd1na2vs0mg"},{"bike_id":"bc3f2b18-e13d-436a-8d2a-b1cc84073587","system_id":"levelo_inurba_marseille","lat":43.25719,"lon":5.41112,"is_reserved":false,"is_disabled":false,"rental_uris":{"android":"levelo://app?vid=bc3f2b18-e13d-436a-8d2a-b1cc84073587","ios":"levelo://app?vid=bc3f2b18-e13d-436a-8d2a-b1cc84073587"},"vehicle_type_id":"4","last_reported":1730437781,"current_range_meters":36400,"station_id":"ce4bhkp2rcd13ifvqgd0","pricing_plan_id":"cebpf4jnsgd1na2vs0mg"},{"bike_id":"524ef799-6210-4f34-8c06-b727a29dc81f","system_id":"levelo_inurba_marseille","lat":43.27981,"lon":5.36064,"is_reserved":false,"is_disabled":false,"rental_uris":{"android":"levelo://app?vid=524ef799-6210-4f34-8c06-b727a29dc81f","ios":"levelo://app?vid=524ef799-6210-4f34-8c06-b727a29dc81f"},"vehicle_type_id":"4","last_reported":1730437781,"current_range_meters":28400,"station_id":"","pricing_plan_id":"cebpf4jnsgd1na2vs0mg"},{"bike_id":"f995f972-5c97-400e-9cca-69d03065af83","system_id":"levelo_inurba_marseille","lat":43.31683,"lon":5.40475,"is_reserved":false,"is_disabled":false,"rental_uris":{"android":"levelo://app?vid=f995f972-5c97-400e-9cca-69d03065af83","ios":"levelo://app?vid=f995f972-5c97-400e-9cca-69d03065af83"},"vehicle_type_id":"4","last_reported":1730437781,"current_range_meters":10000,"station_id":"ce4bh012rcd13ifvqd00","pricing_plan_id":"cebpf4jnsgd1na2vs0mg"},{"bike_id":"67510012-1cba-484e-acef-2ad6017acb8f","system_id":"levelo_inurba_marseille","lat":43.27948,"lon":5.4104,"is_reserved":false,"is_disabled":false,"rental_uris":{"android":"levelo://app?vid=67510012-1cba-484e-acef-2ad6017acb8f","ios":"levelo://app?vid=67510012-1cba-484e-acef-2ad6017acb8f"},"vehicle_type_id":"4","last_reported":1730437781,"current_range_meters":28800,"station_id":"ce4bhnp2rcd13ifvqh0g","pricing_plan_id":"cebpf4jnsgd1na2vs0mg"},{"bike_id":"432245c8-aae7-4413-a01a-f97683516aa8","system_id":"levelo_inurba_marseille","lat":43.31274,"lon":5.4017,"is_reserved":false,"is_disabled":false,"rental_uris":{"android":"levelo://app?vid=432245c8-aae7-4413-a01a-f97683516aa8","ios":"levelo://app?vid=432245c8-aae7-4413-a01a-f97683516aa8"},"vehicle_type_id":"4","last_reported":1730437781,"current_range_meters":39200,"station_id":"ce4bh092rcd13ifvqd30","pricing_plan_id":"cebpf4jnsgd1na2vs0mg"},{"bike_id":"b647ad8c-5239-4792-a303-51c2978d56fb","system_id":"levelo_inurba_marseille","lat":43.33608,"lon":5.41013,"is_reserved":false,"is_disabled":false,"rental_uris":{"android":"levelo://app?vid=b647ad8c-5239-4792-a303-51c2978d56fb","ios":"levelo://app?vid=b647ad8c-5239-4792-a303-51c2978d56fb"},"vehicle_type_id":"4","last_reported":1730437781,"current_range_meters":38800,"station_id":"ce4bhqh2rcd13ifvqhmg","pricing_plan_id":"cebpf4jnsgd1na2vs0mg"},{"bike_id":"cd506133-45e2-421c-adbd-9501e6e43795","system_id":"levelo_inurba_marseille","lat":43.28037,"lon":5.36946,"is_reserved":false,"is_disabled":false,"rental_uris":{"android":"levelo://app?vid=cd506133-45e2-421c-adbd-9501e6e43795","ios":"levelo://app?vid=cd506133-45e2-421c-adbd-9501e6e43795"},"vehicle_type_id":"4","last_reported":1730437781,"current_range_meters":34800,"station_id":"ce4bha12rcd13ifvqef0","pricing_plan_id":"cebpf4jnsgd1na2vs0mg"},{"bike_id":"84eb234f-5cef-4e43-995c-c2a6c7272b1a","system_id":"levelo_inurba_marseille","lat":43.27937,"lon":5.41033,"is_reserved":false,"is_disabled":false,"rental_uris":{"android":"levelo://app?vid=84eb234f-5cef-4e43-995c-c2a6c7272b1a","ios":"levelo://app?vid=84eb234f-5cef-4e43-995c-c2a6c7272b1a"},"vehicle_type_id":"4","last_reported":1730437781,"current_range_meters":26800,"station_id":"ce4bhnp2rcd13ifvqh0g","pricing_plan_id":"cebpf4jnsgd1na2vs0mg"},{"bike_id":"55e5680f-c574-40e1-b1dd-d8ced146e6c5","system_id":"levelo_inurba_marseille","lat":43.33603,"lon":5.4102,"is_reserved":false,"is_disabled":false,"rental_uris":{"android":"levelo://app?vid=55e5680f-c574-40e1-b1dd-d8ced146e6c5","ios":"levelo://app?vid=55e5680f-c574-40e1-b1dd-d8ced146e6c5"},"vehicle_type_id":"4","last_reported":1730437781,"current_range_meters":24400,"station_id":"ce4bhqh2rcd13ifvqhmg","pricing_plan_id":"cebpf4jnsgd1na2vs0mg"},{"bike_id":"994a3104-8c9f-4bba-911d-69cf23f07195","system_id":"levelo_inurba_marseille","lat":43.286995,"lon":5.399789,"is_reserved":false,"is_disabled":false,"rental_uris":{"android":"levelo://app?vid=994a3104-8c9f-4bba-911d-69cf23f07195","ios":"levelo://app?vid=994a3104-8c9f-4bba-911d-69cf23f07195"},"vehicle_type_id":"4","last_reported":1730437781,"current_range_meters":30800,"station_id":"ce4bho92rcd13ifvqh3g","pricing_plan_id":"cebpf4jnsgd1na2vs0mg"},{"bike_id":"7049ed5b-97f2-4aa9-b044-1029b5b5cb8c","system_id":"levelo_inurba_marseille","lat":43.2987,"lon":5.39737,"is_reserved":false,"is_disabled":false,"rental_uris":{"android":"levelo://app?vid=7049ed5b-97f2-4aa9-b044-1029b5b5cb8c","ios":"levelo://app?vid=7049ed5b-97f2-4aa9-b044-1029b5b5cb8c"},"vehicle_type_id":"4","last_reported":1730437781,"current_range_meters":38800,"station_id":"ce4bh0h2rcd13ifvqd50","pricing_plan_id":"cebpf4jnsgd1na2vs0mg"},{"bike_id":"45ec955f-9396-45b9-aaaa-a47c5dee2e6f","system_id":"levelo_inurba_marseille","lat":43.2886,"lon":5.35866,"is_reserved":false,"is_disabled":false,"rental_uris":{"android":"levelo://app?vid=45ec955f-9396-45b9-aaaa-a47c5dee2e6f","ios":"levelo://app?vid=45ec955f-9396-45b9-aaaa-a47c5dee2e6f"},"vehicle_type_id":"4","last_reported":1730437781,"current_range_meters":38800,"station_id":"ce4bhb12rcd13ifvqem0","pricing_plan_id":"cebpf4jnsgd1na2vs0mg"},{"bike_id":"78772112-3f50-47a3-9270-8d3a4540970a","system_id":"levelo_inurba_marseille","lat":43.29667,"lon":5.37293,"is_reserved":false,"is_disabled":false,"rental_uris":{"android":"levelo://app?vid=78772112-3f50-47a3-9270-8d3a4540970a","ios":"levelo://app?vid=78772112-3f50-47a3-9270-8d3a4540970a"},"vehicle_type_id":"4","last_reported":1730437781,"current_range_meters":38000,"station_id":"ce4bgk12rcd13ifvqbj0","pricing_plan_id":"cebpf4jnsgd1na2vs0mg"},{"bike_id":"34091808-bf35-4316-8726-23f709e5cb3e","system_id":"levelo_inurba_marseille","lat":43.31172,"lon":5.38714,"is_reserved":false,"is_disabled":false,"rental_uris":{"android":"levelo://app?vid=34091808-bf35-4316-8726-23f709e5cb3e","ios":"levelo://app?vid=34091808-bf35-4316-8726-23f709e5cb3e"},"vehicle_type_id":"4","last_reported":1730437781,"current_range_meters":33600,"station_id":"ce4bgv12rcd13ifvqcp0","pricing_plan_id":"cebpf4jnsgd1na2vs0mg"},{"bike_id":"c346aee3-a655-4120-84fd-2995f6e1a348","system_id":"levelo_inurba_marseille","lat":43.29203,"lon":5.39315,"is_reserved":false,"is_disabled":false,"rental_uris":{"android":"levelo://app?vid=c346aee3-a655-4120-84fd-2995f6e1a348","ios":"levelo://app?vid=c346aee3-a655-4120-84fd-2995f6e1a348"},"vehicle_type_id":"4","last_reported":1730437781,"current_range_meters":16000,"station_id":"ce4bh192rcd13ifvqdd0","pricing_plan_id":"cebpf4jnsgd1na2vs0mg"},{"bike_id":"655e5c84-6957-4a22-898b-b606bb7480d4","system_id":"levelo_inurba_marseille","lat":43.22933,"lon":5.35378,"is_reserved":false,"is_disabled":false,"rental_uris":{"android":"levelo://app?vid=655e5c84-6957-4a22-898b-b606bb7480d4","ios":"levelo://app?vid=655e5c84-6957-4a22-898b-b606bb7480d4"},"vehicle_type_id":"4","last_reported":1730437781,"current_range_meters":28000,"station_id":"cpo3532slgdg3j2ikp40","pricing_plan_id":"cebpf4jnsgd1na2vs0mg"},{"bike_id":"53b531d0-be4c-4ea6-95d2-af16cd8cd980","system_id":"levelo_inurba_marseille","lat":43.28158,"lon":5.42647,"is_reserved":false,"is_disabled":false,"rental_uris":{"android":"levelo://app?vid=53b531d0-be4c-4ea6-95d2-af16cd8cd980","ios":"levelo://app?vid=53b531d0-be4c-4ea6-95d2-af16cd8cd980"},"vehicle_type_id":"4","last_reported":1730437781,"current_range_meters":2000,"station_id":"ce4bhnh2rcd13ifvqgug","pricing_plan_id":"cebpf4jnsgd1na2vs0mg"},{"bike_id":"a0f5f9e5-b7c4-42ff-aa1e-24ee683f2054","system_id":"levelo_inurba_marseille","lat":43.30415,"lon":5.412783,"is_reserved":false,"is_disabled":false,"rental_uris":{"android":"levelo://app?vid=a0f5f9e5-b7c4-42ff-aa1e-24ee683f2054","ios":"levelo://app?vid=a0f5f9e5-b7c4-42ff-aa1e-24ee683f2054"},"vehicle_type_id":"4","last_reported":1730437781,"current_range_meters":30000,"station_id":"ce4bhop2rcd13ifvqh8g","pricing_plan_id":"cebpf4jnsgd1na2vs0mg"},{"bike_id":"aa8f45a6-6905-4373-b54b-fee15f48cba5","system_id":"levelo_inurba_marseille","lat":43.27618,"lon":5.3611,"is_reserved":false,"is_disabled":false,"rental_uris":{"android":"levelo://app?vid=aa8f45a6-6905-4373-b54b-fee15f48cba5","ios":"levelo://app?vid=aa8f45a6-6905-4373-b54b-fee15f48cba5"},"vehicle_type_id":"4","last_reported":1730437781,"current_range_meters":12400,"station_id":"ce4bgj92rcd13ifvqbe0","pricing_plan_id":"cebpf4jnsgd1na2vs0mg"},{"bike_id":"baf04ec9-dc96-4f6a-a5eb-6435e1f063ea","system_id":"levelo_inurba_marseille","lat":43.29619,"lon":5.40591,"is_reserved":false,"is_disabled":false,"rental_uris":{"android":"levelo://app?vid=baf04ec9-dc96-4f6a-a5eb-6435e1f063ea","ios":"levelo://app?vid=baf04ec9-dc96-4f6a-a5eb-6435e1f063ea"},"vehicle_type_id":"4","last_reported":1730437781,"current_range_meters":23200,"station_id":"ce4bh0h2rcd13ifvqd60","pricing_plan_id":"cebpf4jnsgd1na2vs0mg"},{"bike_id":"aaba3d43-eb81-4033-90d6-d4f77595aa51","system_id":"levelo_inurba_marseille","lat":43.31065,"lon":5.38348,"is_reserved":false,"is_disabled":false,"rental_uris":{"android":"levelo://app?vid=aaba3d43-eb81-4033-90d6-d4f77595aa51","ios":"levelo://app?vid=aaba3d43-eb81-4033-90d6-d4f77595aa51"},"vehicle_type_id":"4","last_reported":1730437781,"current_range_meters":24000,"station_id":"ce4bgv92rcd13ifvqcr0","pricing_plan_id":"cebpf4jnsgd1na2vs0mg"},{"bike_id":"f59d2b6c-416a-4366-a550-e13b80f20d82","system_id":"levelo_inurba_marseille","lat":43.31757,"lon":5.39017,"is_reserved":false,"is_disabled":false,"rental_uris":{"android":"levelo://app?vid=f59d2b6c-416a-4366-a550-e13b80f20d82","ios":"levelo://app?vid=f59d2b6c-416a-4366-a550-e13b80f20d82"},"vehicle_type_id":"4","last_reported":1730437781,"current_range_meters":38800,"station_id":"ce4bhqp2rcd13ifvqhng","pricing_plan_id":"cebpf4jnsgd1na2vs0mg"},{"bike_id":"10a39549-6c40-4fe4-9f11-5a7ec6c8f705","system_id":"levelo_inurba_marseille","lat":43.25084,"lon":5.39517,"is_reserved":false,"is_disabled":false,"rental_uris":{"android":"levelo://app?vid=10a39549-6c40-4fe4-9f11-5a7ec6c8f705","ios":"levelo://app?vid=10a39549-6c40-4fe4-9f11-5a7ec6c8f705"},"vehicle_type_id":"4","last_reported":1730437781,"current_range_meters":28000,"station_id":"ce4bhm12rcd13ifvqgkg","pricing_plan_id":"cebpf4jnsgd1na2vs0mg"},{"bike_id":"13dd447d-a43f-4bf5-bbfb-10286ab2cf91","system_id":"levelo_inurba_marseille","lat":43.27951,"lon":5.41048,"is_reserved":false,"is_disabled":false,"rental_uris":{"android":"levelo://app?vid=13dd447d-a43f-4bf5-bbfb-10286ab2cf91","ios":"levelo://app?vid=13dd447d-a43f-4bf5-bbfb-10286ab2cf91"},"vehicle_type_id":"4","last_reported":1730437781,"current_range_meters":24400,"station_id":"ce4bhnp2rcd13ifvqh0g","pricing_plan_id":"cebpf4jnsgd1na2vs0mg"},{"bike_id":"c88a035e-705f-42fc-924e-415c7ebf209c","system_id":"levelo_inurba_marseille","lat":43.30653,"lon":5.40088,"is_reserved":false,"is_disabled":false,"rental_uris":{"android":"levelo://app?vid=c88a035e-705f-42fc-924e-415c7ebf209c","ios":"levelo://app?vid=c88a035e-705f-42fc-924e-415c7ebf209c"},"vehicle_type_id":"4","last_reported":1730437781,"current_range_meters":9600,"station_id":"ce4bh112rcd13ifvqda0","pricing_plan_id":"cebpf4jnsgd1na2vs0mg"},{"bike_id":"675ef837-3778-4396-a626-7eaa12a01d82","system_id":"levelo_inurba_marseille","lat":43.31277,"lon":5.40167,"is_reserved":false,"is_disabled":false,"rental_uris":{"android":"levelo://app?vid=675ef837-3778-4396-a626-7eaa12a01d82","ios":"levelo://app?vid=675ef837-3778-4396-a626-7eaa12a01d82"},"vehicle_type_id":"4","last_reported":1730437781,"current_range_meters":30000,"station_id":"ce4bh092rcd13ifvqd30","pricing_plan_id":"cebpf4jnsgd1na2vs0mg"},{"bike_id":"10728023-1a94-4f73-8b31-7b3a7876b851","system_id":"levelo_inurba_marseille","lat":43.28734,"lon":5.36097,"is_reserved":false,"is_disabled":false,"rental_uris":{"android":"levelo://app?vid=10728023-1a94-4f73-8b31-7b3a7876b851","ios":"levelo://app?vid=10728023-1a94-4f73-8b31-7b3a7876b851"},"vehicle_type_id":"4","last_reported":1730437781,"current_range_meters":19600,"station_id":"cki0cbj6b192h4jlfktg","pricing_plan_id":"cebpf4jnsgd1na2vs0mg"},{"bike_id":"49766241-4db4-4015-b3eb-214db8f5235e","system_id":"levelo_inurba_marseille","lat":43.25084,"lon":5.39513,"is_reserved":false,"is_disabled":false,"rental_uris":{"android":"levelo://app?vid=49766241-4db4-4015-b3eb-214db8f5235e","ios":"levelo://app?vid=49766241-4db4-4015-b3eb-214db8f5235e"},"vehicle_type_id":"4","last_reported":1730437781,"current_range_meters":25600,"station_id":"ce4bhm12rcd13ifvqgkg","pricing_plan_id":"cebpf4jnsgd1na2vs0mg"},{"bike_id":"d99c72c8-d680-4d41-b297-c455533dc633","system_id":"levelo_inurba_marseille","lat":43.26808,"lon":5.40274,"is_reserved":false,"is_disabled":false,"rental_uris":{"android":"levelo://app?vid=d99c72c8-d680-4d41-b297-c455533dc633","ios":"levelo://app?vid=d99c72c8-d680-4d41-b297-c455533dc633"},"vehicle_type_id":"4","last_reported":1730437781,"current_range_meters":12000,"station_id":"ce501612rcd8frsf0b60","pricing_plan_id":"cebpf4jnsgd1na2vs0mg"},{"bike_id":"8f55f6cc-0b54-4d5f-9029-aa15dfd6d9b0","system_id":"levelo_inurba_marseille","lat":43.31619,"lon":5.3906,"is_reserved":false,"is_disabled":false,"rental_uris":{"android":"levelo://app?vid=8f55f6cc-0b54-4d5f-9029-aa15dfd6d9b0","ios":"levelo://app?vid=8f55f6cc-0b54-4d5f-9029-aa15dfd6d9b0"},"vehicle_type_id":"4","last_reported":1730437781,"current_range_meters":6400,"station_id":"","pricing_plan_id":"cebpf4jnsgd1na2vs0mg"},{"bike_id":"82fc33c9-8df5-4ecc-84d7-15cbf03ea71f","system_id":"levelo_inurba_marseille","lat":43.25114,"lon":5.40319,"is_reserved":false,"is_disabled":false,"rental_uris":{"android":"levelo://app?vid=82fc33c9-8df5-4ecc-84d7-15cbf03ea71f","ios":"levelo://app?vid=82fc33c9-8df5-4ecc-84d7-15cbf03ea71f"},"vehicle_type_id":"4","last_reported":1730437781,"current_range_meters":38800,"station_id":"ce4bhlh2rcd13ifvqgig","pricing_plan_id":"cebpf4jnsgd1na2vs0mg"},{"bike_id":"490eb450-a984-41db-965f-6f3e6018ee4c","system_id":"levelo_inurba_marseille","lat":43.28702,"lon":5.39977,"is_reserved":false,"is_disabled":false,"rental_uris":{"android":"levelo://app?vid=490eb450-a984-41db-965f-6f3e6018ee4c","ios":"levelo://app?vid=490eb450-a984-41db-965f-6f3e6018ee4c"},"vehicle_type_id":"4","last_reported":1730437781,"current_range_meters":36800,"station_id":"ce4bho92rcd13ifvqh3g","pricing_plan_id":"cebpf4jnsgd1na2vs0mg"},{"bike_id":"bc9c21c5-87be-461e-9e64-d06c887fdf65","system_id":"levelo_inurba_marseille","lat":43.29879,"lon":5.39735,"is_reserved":false,"is_disabled":false,"rental_uris":{"android":"levelo://app?vid=bc9c21c5-87be-461e-9e64-d06c887fdf65","ios":"levelo://app?vid=bc9c21c5-87be-461e-9e64-d06c887fdf65"},"vehicle_type_id":"4","last_reported":1730437781,"current_range_meters":8400,"station_id":"ce4bh0h2rcd13ifvqd50","pricing_plan_id":"cebpf4jnsgd1na2vs0mg"},{"bike_id":"5ff74640-5d39-40f8-808a-e5695df59fd4","system_id":"levelo_inurba_marseille","lat":43.27205,"lon":5.41033,"is_reserved":false,"is_disabled":false,"rental_uris":{"android":"levelo://app?vid=5ff74640-5d39-40f8-808a-e5695df59fd4","ios":"levelo://app?vid=5ff74640-5d39-40f8-808a-e5695df59fd4"},"vehicle_type_id":"4","last_reported":1730437781,"current_range_meters":3200,"station_id":"ce4bhl12rcd13ifvqgf0","pricing_plan_id":"cebpf4jnsgd1na2vs0mg"},{"bike_id":"8cb9f7c4-5be9-4a25-8d4a-485de9647b9d","system_id":"levelo_inurba_marseille","lat":43.31087,"lon":5.42433,"is_reserved":false,"is_disabled":false,"rental_uris":{"android":"levelo://app?vid=8cb9f7c4-5be9-4a25-8d4a-485de9647b9d","ios":"levelo://app?vid=8cb9f7c4-5be9-4a25-8d4a-485de9647b9d"},"vehicle_type_id":"4","last_reported":1730437781,"current_range_meters":28000,"station_id":"ce4bhp92rcd13ifvqhag","pricing_plan_id":"cebpf4jnsgd1na2vs0mg"},{"bike_id":"bd83eb18-96ea-43b1-b4e8-3ff2663a3999","system_id":"levelo_inurba_marseille","lat":43.30959,"lon":5.39041,"is_reserved":false,"is_disabled":false,"rental_uris":{"android":"levelo://app?vid=bd83eb18-96ea-43b1-b4e8-3ff2663a3999","ios":"levelo://app?vid=bd83eb18-96ea-43b1-b4e8-3ff2663a3999"},"vehicle_type_id":"4","last_reported":1730437781,"current_range_meters":38000,"station_id":"ce4bgup2rcd13ifvqco0","pricing_plan_id":"cebpf4jnsgd1na2vs0mg"},{"bike_id":"2a7661d5-4a25-43f3-a7c7-9f21283a8ee2","system_id":"levelo_inurba_marseille","lat":43.27564,"lon":5.38415,"is_reserved":false,"is_disabled":false,"rental_uris":{"android":"levelo://app?vid=2a7661d5-4a25-43f3-a7c7-9f21283a8ee2","ios":"levelo://app?vid=2a7661d5-4a25-43f3-a7c7-9f21283a8ee2"},"vehicle_type_id":"4","last_reported":1730437781,"current_range_meters":38800,"station_id":"ce4bhh92rcd13ifvqfi0","pricing_plan_id":"cebpf4jnsgd1na2vs0mg"},{"bike_id":"ca211adf-b79e-4c48-88b9-6f08fbad3c50","system_id":"levelo_inurba_marseille","lat":43.313698,"lon":5.384921,"is_reserved":false,"is_disabled":false,"rental_uris":{"android":"levelo://app?vid=ca211adf-b79e-4c48-88b9-6f08fbad3c50","ios":"levelo://app?vid=ca211adf-b79e-4c48-88b9-6f08fbad3c50"},"vehicle_type_id":"4","last_reported":1730437781,"current_range_meters":39200,"station_id":"ce4bgt92rcd13ifvqcf0","pricing_plan_id":"cebpf4jnsgd1na2vs0mg"},{"bike_id":"db9b80b1-c6d8-4ef2-9727-ca0f0b9498a1","system_id":"levelo_inurba_marseille","lat":43.33717,"lon":5.39179,"is_reserved":false,"is_disabled":false,"rental_uris":{"android":"levelo://app?vid=db9b80b1-c6d8-4ef2-9727-ca0f0b9498a1","ios":"levelo://app?vid=db9b80b1-c6d8-4ef2-9727-ca0f0b9498a1"},"vehicle_type_id":"4","last_reported":1730437781,"current_range_meters":38800,"station_id":"ce4bhr92rcd13ifvqhsg","pricing_plan_id":"cebpf4jnsgd1na2vs0mg"},{"bike_id":"2e875e0f-bc43-4631-ba8b-be93cdfa892d","system_id":"levelo_inurba_marseille","lat":43.31278,"lon":5.40177,"is_reserved":false,"is_disabled":false,"rental_uris":{"android":"levelo://app?vid=2e875e0f-bc43-4631-ba8b-be93cdfa892d","ios":"levelo://app?vid=2e875e0f-bc43-4631-ba8b-be93cdfa892d"},"vehicle_type_id":"4","last_reported":1730437781,"current_range_meters":6000,"station_id":"ce4bh092rcd13ifvqd30","pricing_plan_id":"cebpf4jnsgd1na2vs0mg"},{"bike_id":"5e5714f5-9a0c-4fb7-8337-508e938e2d5b","system_id":"levelo_inurba_marseille","lat":43.27177,"lon":5.40994,"is_reserved":false,"is_disabled":false,"rental_uris":{"android":"levelo://app?vid=5e5714f5-9a0c-4fb7-8337-508e938e2d5b","ios":"levelo://app?vid=5e5714f5-9a0c-4fb7-8337-508e938e2d5b"},"vehicle_type_id":"4","last_reported":1730437781,"current_range_meters":32800,"station_id":"ce4bhl12rcd13ifvqgf0","pricing_plan_id":"cebpf4jnsgd1na2vs0mg"},{"bike_id":"b4c274ad-1995-4bce-ba3e-0e7834939abd","system_id":"levelo_inurba_marseille","lat":43.29007,"lon":5.35608,"is_reserved":false,"is_disabled":false,"rental_uris":{"android":"levelo://app?vid=b4c274ad-1995-4bce-ba3e-0e7834939abd","ios":"levelo://app?vid=b4c274ad-1995-4bce-ba3e-0e7834939abd"},"vehicle_type_id":"4","last_reported":1730437781,"current_range_meters":38400,"station_id":"ce4bhb92rcd13ifvqen0","pricing_plan_id":"cebpf4jnsgd1na2vs0mg"},{"bike_id":"d083627a-f12d-4c00-be6c-51c92e3c9a0a","system_id":"levelo_inurba_marseille","lat":43.29051,"lon":5.35914,"is_reserved":false,"is_disabled":false,"rental_uris":{"android":"levelo://app?vid=d083627a-f12d-4c00-be6c-51c92e3c9a0a","ios":"levelo://app?vid=d083627a-f12d-4c00-be6c-51c92e3c9a0a"},"vehicle_type_id":"4","last_reported":1730437781,"current_range_meters":33600,"station_id":"ce4bha92rcd13ifvqeg0","pricing_plan_id":"cebpf4jnsgd1na2vs0mg"},{"bike_id":"c52a23bd-b8fa-4e87-8fba-eaba32edd6b9","system_id":"levelo_inurba_marseille","lat":43.286994,"lon":5.399862,"is_reserved":false,"is_disabled":false,"rental_uris":{"android":"levelo://app?vid=c52a23bd-b8fa-4e87-8fba-eaba32edd6b9","ios":"levelo://app?vid=c52a23bd-b8fa-4e87-8fba-eaba32edd6b9"},"vehicle_type_id":"4","last_reported":1730437781,"current_range_meters":24000,"station_id":"ce4bho92rcd13ifvqh3g","pricing_plan_id":"cebpf4jnsgd1na2vs0mg"},{"bike_id":"c6912801-e992-4d0b-9b11-0113e22a7c56","system_id":"levelo_inurba_marseille","lat":43.28567,"lon":5.39505,"is_reserved":false,"is_disabled":false,"rental_uris":{"android":"levelo://app?vid=c6912801-e992-4d0b-9b11-0113e22a7c56","ios":"levelo://app?vid=c6912801-e992-4d0b-9b11-0113e22a7c56"},"vehicle_type_id":"4","last_reported":1730437781,"current_range_meters":37600,"station_id":"ce4bh292rcd13ifvqdg0","pricing_plan_id":"cebpf4jnsgd1na2vs0mg"},{"bike_id":"289dac92-d544-406e-a238-0c111d5df35d","system_id":"levelo_inurba_marseille","lat":43.28436,"lon":5.39182,"is_reserved":false,"is_disabled":false,"rental_uris":{"android":"levelo://app?vid=289dac92-d544-406e-a238-0c111d5df35d","ios":"levelo://app?vid=289dac92-d544-406e-a238-0c111d5df35d"},"vehicle_type_id":"4","last_reported":1730437781,"current_range_meters":22000,"station_id":"ce4bhoh2rcd13ifvqh5g","pricing_plan_id":"cebpf4jnsgd1na2vs0mg"},{"bike_id":"99c1fd84-1a74-488d-9899-c5c1aaac4027","system_id":"levelo_inurba_marseille","lat":43.24651,"lon":5.38889,"is_reserved":false,"is_disabled":false,"rental_uris":{"android":"levelo://app?vid=99c1fd84-1a74-488d-9899-c5c1aaac4027","ios":"levelo://app?vid=99c1fd84-1a74-488d-9899-c5c1aaac4027"},"vehicle_type_id":"4","last_reported":1730437781,"current_range_meters":24000,"station_id":"ce4bhg12rcd13ifvqf60","pricing_plan_id":"cebpf4jnsgd1na2vs0mg"},{"bike_id":"5b1beb29-08c3-4517-96e1-89c4b727e0c3","system_id":"levelo_inurba_marseille","lat":43.23188,"lon":5.35544,"is_reserved":false,"is_disabled":false,"rental_uris":{"android":"levelo://app?vid=5b1beb29-08c3-4517-96e1-89c4b727e0c3","ios":"levelo://app?vid=5b1beb29-08c3-4517-96e1-89c4b727e0c3"},"vehicle_type_id":"4","last_reported":1730437781,"current_range_meters":30800,"station_id":"ce4bhu92rcd13ifvqi70","pricing_plan_id":"cebpf4jnsgd1na2vs0mg"},{"bike_id":"5490c8fa-94fb-4bb6-ba1c-a35def655112","system_id":"levelo_inurba_marseille","lat":43.31276,"lon":5.40169,"is_reserved":false,"is_disabled":false,"rental_uris":{"android":"levelo://app?vid=5490c8fa-94fb-4bb6-ba1c-a35def655112","ios":"levelo://app?vid=5490c8fa-94fb-4bb6-ba1c-a35def655112"},"vehicle_type_id":"4","last_reported":1730437781,"current_range_meters":31200,"station_id":"ce4bh092rcd13ifvqd30","pricing_plan_id":"cebpf4jnsgd1na2vs0mg"},{"bike_id":"d8de5714-58af-4d06-95fa-16cf8ce84d6a","system_id":"levelo_inurba_marseille","lat":43.307786,"lon":5.376498,"is_reserved":false,"is_disabled":false,"rental_uris":{"android":"levelo://app?vid=d8de5714-58af-4d06-95fa-16cf8ce84d6a","ios":"levelo://app?vid=d8de5714-58af-4d06-95fa-16cf8ce84d6a"},"vehicle_type_id":"4","last_reported":1730437781,"current_range_meters":36800,"station_id":"ce4bgv92rcd13ifvqcq0","pricing_plan_id":"cebpf4jnsgd1na2vs0mg"},{"bike_id":"c98470d7-5247-4c9b-9990-4c8a4dc7b4eb","system_id":"levelo_inurba_marseille","lat":43.28618,"lon":5.35099,"is_reserved":false,"is_disabled":false,"rental_uris":{"android":"levelo://app?vid=c98470d7-5247-4c9b-9990-4c8a4dc7b4eb","ios":"levelo://app?vid=c98470d7-5247-4c9b-9990-4c8a4dc7b4eb"},"vehicle_type_id":"4","last_reported":1730437781,"current_range_meters":35600,"station_id":"ce4bhch2rcd13ifvqeug","pricing_plan_id":"cebpf4jnsgd1na2vs0mg"},{"bike_id":"3e327412-b97e-4df4-824e-ea37ac5a7548","system_id":"levelo_inurba_marseille","lat":43.28727,"lon":5.36086,"is_reserved":false,"is_disabled":false,"rental_uris":{"android":"levelo://app?vid=3e327412-b97e-4df4-824e-ea37ac5a7548","ios":"levelo://app?vid=3e327412-b97e-4df4-824e-ea37ac5a7548"},"vehicle_type_id":"4","last_reported":1730437781,"current_range_meters":39200,"station_id":"cki0cbj6b192h4jlfktg","pricing_plan_id":"cebpf4jnsgd1na2vs0mg"},{"bike_id":"f99547b6-e0b7-4a86-b4bb-f600f8ca5cb2","system_id":"levelo_inurba_marseille","lat":43.24171,"lon":5.36399,"is_reserved":false,"is_disabled":false,"rental_uris":{"android":"levelo://app?vid=f99547b6-e0b7-4a86-b4bb-f600f8ca5cb2","ios":"levelo://app?vid=f99547b6-e0b7-4a86-b4bb-f600f8ca5cb2"},"vehicle_type_id":"4","last_reported":1730437781,"current_range_meters":8000,"station_id":"cpo36qri1sfpv3e86is0","pricing_plan_id":"cebpf4jnsgd1na2vs0mg"},{"bike_id":"7f2c9760-527c-4cd4-a04e-40d5f81e7b52","system_id":"levelo_inurba_marseille","lat":43.305379,"lon":5.384321,"is_reserved":false,"is_disabled":false,"rental_uris":{"android":"levelo://app?vid=7f2c9760-527c-4cd4-a04e-40d5f81e7b52","ios":"levelo://app?vid=7f2c9760-527c-4cd4-a04e-40d5f81e7b52"},"vehicle_type_id":"4","last_reported":1730437781,"current_range_meters":36800,"station_id":"ce4bgg92rcd13ifvqb30","pricing_plan_id":"cebpf4jnsgd1na2vs0mg"},{"bike_id":"e049d7a1-ee43-4f25-a027-4174f13b1365","system_id":"levelo_inurba_marseille","lat":43.28101,"lon":5.37844,"is_reserved":false,"is_disabled":false,"rental_uris":{"android":"levelo://app?vid=e049d7a1-ee43-4f25-a027-4174f13b1365","ios":"levelo://app?vid=e049d7a1-ee43-4f25-a027-4174f13b1365"},"vehicle_type_id":"4","last_reported":1730437781,"current_range_meters":38800,"station_id":"ce4bha12rcd13ifvqee0","pricing_plan_id":"cebpf4jnsgd1na2vs0mg"},{"bike_id":"794d23c0-def7-4557-a69a-112ea268f585","system_id":"levelo_inurba_marseille","lat":43.23191,"lon":5.35544,"is_reserved":false,"is_disabled":false,"rental_uris":{"android":"levelo://app?vid=794d23c0-def7-4557-a69a-112ea268f585","ios":"levelo://app?vid=794d23c0-def7-4557-a69a-112ea268f585"},"vehicle_type_id":"4","last_reported":1730437781,"current_range_meters":38800,"station_id":"ce4bhu92rcd13ifvqi70","pricing_plan_id":"cebpf4jnsgd1na2vs0mg"},{"bike_id":"bbcdb544-9e87-490c-a8d5-405a70123c66","system_id":"levelo_inurba_marseille","lat":43.301456,"lon":5.39866,"is_reserved":false,"is_disabled":false,"rental_uris":{"android":"levelo://app?vid=bbcdb544-9e87-490c-a8d5-405a70123c66","ios":"levelo://app?vid=bbcdb544-9e87-490c-a8d5-405a70123c66"},"vehicle_type_id":"4","last_reported":1730437781,"current_range_meters":35600,"station_id":"ce4bh0h2rcd13ifvqd40","pricing_plan_id":"cebpf4jnsgd1na2vs0mg"},{"bike_id":"73840abb-6496-4c2f-bc09-72b83004c31f","system_id":"levelo_inurba_marseille","lat":43.31995,"lon":5.38145,"is_reserved":false,"is_disabled":false,"rental_uris":{"android":"levelo://app?vid=73840abb-6496-4c2f-bc09-72b83004c31f","ios":"levelo://app?vid=73840abb-6496-4c2f-bc09-72b83004c31f"},"vehicle_type_id":"4","last_reported":1730437781,"current_range_meters":18800,"station_id":"ce4bhr12rcd13ifvqhpg","pricing_plan_id":"cebpf4jnsgd1na2vs0mg"},{"bike_id":"5b47bee9-f12b-4463-a9ea-9906df86d508","system_id":"levelo_inurba_marseille","lat":43.27946,"lon":5.41049,"is_reserved":false,"is_disabled":false,"rental_uris":{"android":"levelo://app?vid=5b47bee9-f12b-4463-a9ea-9906df86d508","ios":"levelo://app?vid=5b47bee9-f12b-4463-a9ea-9906df86d508"},"vehicle_type_id":"4","last_reported":1730437781,"current_range_meters":10800,"station_id":"ce4bhnp2rcd13ifvqh0g","pricing_plan_id":"cebpf4jnsgd1na2vs0mg"},{"bike_id":"c9fe9305-e5b5-403a-8ac6-ee784523647c","system_id":"levelo_inurba_marseille","lat":43.23429,"lon":5.3594,"is_reserved":false,"is_disabled":false,"rental_uris":{"android":"levelo://app?vid=c9fe9305-e5b5-403a-8ac6-ee784523647c","ios":"levelo://app?vid=c9fe9305-e5b5-403a-8ac6-ee784523647c"},"vehicle_type_id":"4","last_reported":1730437781,"current_range_meters":24400,"station_id":"","pricing_plan_id":"cebpf4jnsgd1na2vs0mg"},{"bike_id":"3762b5b7-778d-4d2e-9b34-ac4ef4125c24","system_id":"levelo_inurba_marseille","lat":43.27612,"lon":5.36114,"is_reserved":false,"is_disabled":false,"rental_uris":{"android":"levelo://app?vid=3762b5b7-778d-4d2e-9b34-ac4ef4125c24","ios":"levelo://app?vid=3762b5b7-778d-4d2e-9b34-ac4ef4125c24"},"vehicle_type_id":"4","last_reported":1730437781,"current_range_meters":35200,"station_id":"ce4bgj92rcd13ifvqbe0","pricing_plan_id":"cebpf4jnsgd1na2vs0mg"},{"bike_id":"a6c79ad0-6eac-42d1-9ed7-69d080828ec6","system_id":"levelo_inurba_marseille","lat":43.27888,"lon":5.38001,"is_reserved":false,"is_disabled":false,"rental_uris":{"android":"levelo://app?vid=a6c79ad0-6eac-42d1-9ed7-69d080828ec6","ios":"levelo://app?vid=a6c79ad0-6eac-42d1-9ed7-69d080828ec6"},"vehicle_type_id":"4","last_reported":1730437781,"current_range_meters":36800,"station_id":"ce4bhf92rcd13ifvqf50","pricing_plan_id":"cebpf4jnsgd1na2vs0mg"},{"bike_id":"2e5ff9f5-48d0-487f-9fe8-43ddfbfb83b6","system_id":"levelo_inurba_marseille","lat":43.29863,"lon":5.39742,"is_reserved":false,"is_disabled":false,"rental_uris":{"android":"levelo://app?vid=2e5ff9f5-48d0-487f-9fe8-43ddfbfb83b6","ios":"levelo://app?vid=2e5ff9f5-48d0-487f-9fe8-43ddfbfb83b6"},"vehicle_type_id":"4","last_reported":1730437781,"current_range_meters":7200,"station_id":"ce4bh0h2rcd13ifvqd50","pricing_plan_id":"cebpf4jnsgd1na2vs0mg"},{"bike_id":"84cd1be0-1fec-424a-8354-fde26bc18cd1","system_id":"levelo_inurba_marseille","lat":43.25084,"lon":5.39515,"is_reserved":false,"is_disabled":false,"rental_uris":{"android":"levelo://app?vid=84cd1be0-1fec-424a-8354-fde26bc18cd1","ios":"levelo://app?vid=84cd1be0-1fec-424a-8354-fde26bc18cd1"},"vehicle_type_id":"4","last_reported":1730437781,"current_range_meters":6400,"station_id":"ce4bhm12rcd13ifvqgkg","pricing_plan_id":"cebpf4jnsgd1na2vs0mg"},{"bike_id":"23b02f09-9168-4da3-bd16-6bed3af2b6b6","system_id":"levelo_inurba_marseille","lat":43.29432,"lon":5.39752,"is_reserved":false,"is_disabled":false,"rental_uris":{"android":"levelo://app?vid=23b02f09-9168-4da3-bd16-6bed3af2b6b6","ios":"levelo://app?vid=23b02f09-9168-4da3-bd16-6bed3af2b6b6"},"vehicle_type_id":"4","last_reported":1730437781,"current_range_meters":29600,"station_id":"ce4bh3h2rcd13ifvqdo0","pricing_plan_id":"cebpf4jnsgd1na2vs0mg"},{"bike_id":"60223806-a44d-4bd3-a685-de2b36919390","system_id":"levelo_inurba_marseille","lat":43.27564,"lon":5.38417,"is_reserved":false,"is_disabled":false,"rental_uris":{"android":"levelo://app?vid=60223806-a44d-4bd3-a685-de2b36919390","ios":"levelo://app?vid=60223806-a44d-4bd3-a685-de2b36919390"},"vehicle_type_id":"4","last_reported":1730437781,"current_range_meters":13600,"station_id":"ce4bhh92rcd13ifvqfi0","pricing_plan_id":"cebpf4jnsgd1na2vs0mg"},{"bike_id":"3d8c54e0-b8b0-4f3c-8415-8e80f18df626","system_id":"levelo_inurba_marseille","lat":43.29002,"lon":5.35606,"is_reserved":false,"is_disabled":false,"rental_uris":{"android":"levelo://app?vid=3d8c54e0-b8b0-4f3c-8415-8e80f18df626","ios":"levelo://app?vid=3d8c54e0-b8b0-4f3c-8415-8e80f18df626"},"vehicle_type_id":"4","last_reported":1730437781,"current_range_meters":39200,"station_id":"ce4bhb92rcd13ifvqen0","pricing_plan_id":"cebpf4jnsgd1na2vs0mg"},{"bike_id":"7e57f650-9611-43e9-8e9d-0037a90a6037","system_id":"levelo_inurba_marseille","lat":43.30933,"lon":5.40143,"is_reserved":false,"is_disabled":false,"rental_uris":{"android":"levelo://app?vid=7e57f650-9611-43e9-8e9d-0037a90a6037","ios":"levelo://app?vid=7e57f650-9611-43e9-8e9d-0037a90a6037"},"vehicle_type_id":"4","last_reported":1730437781,"current_range_meters":16400,"station_id":"ce4bgvp2rcd13ifvqct0","pricing_plan_id":"cebpf4jnsgd1na2vs0mg"},{"bike_id":"26de7c19-4534-4738-9b0d-5022f29b8b7a","system_id":"levelo_inurba_marseille","lat":43.305397,"lon":5.384253,"is_reserved":false,"is_disabled":false,"rental_uris":{"android":"levelo://app?vid=26de7c19-4534-4738-9b0d-5022f29b8b7a","ios":"levelo://app?vid=26de7c19-4534-4738-9b0d-5022f29b8b7a"},"vehicle_type_id":"4","last_reported":1730437781,"current_range_meters":38800,"station_id":"ce4bgg92rcd13ifvqb30","pricing_plan_id":"cebpf4jnsgd1na2vs0mg"},{"bike_id":"86974205-f656-457f-8477-0714ccf9136f","system_id":"levelo_inurba_marseille","lat":43.313331,"lon":5.396919,"is_reserved":false,"is_disabled":false,"rental_uris":{"android":"levelo://app?vid=86974205-f656-457f-8477-0714ccf9136f","ios":"levelo://app?vid=86974205-f656-457f-8477-0714ccf9136f"},"vehicle_type_id":"4","last_reported":1730437781,"current_range_meters":38800,"station_id":"ce4bgvp2rcd13ifvqcu0","pricing_plan_id":"cebpf4jnsgd1na2vs0mg"},{"bike_id":"29c539ff-09c2-47df-8157-a6be4e1fc22d","system_id":"levelo_inurba_marseille","lat":43.32058,"lon":5.41531,"is_reserved":false,"is_disabled":false,"rental_uris":{"android":"levelo://app?vid=29c539ff-09c2-47df-8157-a6be4e1fc22d","ios":"levelo://app?vid=29c539ff-09c2-47df-8157-a6be4e1fc22d"},"vehicle_type_id":"4","last_reported":1730437781,"current_range_meters":37600,"station_id":"ce4bhq92rcd13ifvqhkg","pricing_plan_id":"cebpf4jnsgd1na2vs0mg"},{"bike_id":"ab226aa8-03f1-4a65-bdd9-846428a9c4e9","system_id":"levelo_inurba_marseille","lat":43.28075,"lon":5.39646,"is_reserved":false,"is_disabled":false,"rental_uris":{"android":"levelo://app?vid=ab226aa8-03f1-4a65-bdd9-846428a9c4e9","ios":"levelo://app?vid=ab226aa8-03f1-4a65-bdd9-846428a9c4e9"},"vehicle_type_id":"4","last_reported":1730437781,"current_range_meters":37600,"station_id":"ce4bho12rcd13ifvqh2g","pricing_plan_id":"cebpf4jnsgd1na2vs0mg"},{"bike_id":"181ed6c7-7294-4f06-b52b-78add519245b","system_id":"levelo_inurba_marseille","lat":43.3042,"lon":5.4128,"is_reserved":false,"is_disabled":false,"rental_uris":{"android":"levelo://app?vid=181ed6c7-7294-4f06-b52b-78add519245b","ios":"levelo://app?vid=181ed6c7-7294-4f06-b52b-78add519245b"},"vehicle_type_id":"4","last_reported":1730437781,"current_range_meters":36800,"station_id":"ce4bhop2rcd13ifvqh8g","pricing_plan_id":"cebpf4jnsgd1na2vs0mg"},{"bike_id":"30514b68-f146-4b5d-b222-45696243c2e4","system_id":"levelo_inurba_marseille","lat":43.250837,"lon":5.395096,"is_reserved":false,"is_disabled":false,"rental_uris":{"android":"levelo://app?vid=30514b68-f146-4b5d-b222-45696243c2e4","ios":"levelo://app?vid=30514b68-f146-4b5d-b222-45696243c2e4"},"vehicle_type_id":"4","last_reported":1730437781,"current_range_meters":24800,"station_id":"ce4bhm12rcd13ifvqgkg","pricing_plan_id":"cebpf4jnsgd1na2vs0mg"},{"bike_id":"3da566f7-9d8c-4125-878b-8dc3dc08ef6f","system_id":"levelo_inurba_marseille","lat":43.25576,"lon":5.38219,"is_reserved":false,"is_disabled":false,"rental_uris":{"android":"levelo://app?vid=3da566f7-9d8c-4125-878b-8dc3dc08ef6f","ios":"levelo://app?vid=3da566f7-9d8c-4125-878b-8dc3dc08ef6f"},"vehicle_type_id":"4","last_reported":1730437781,"current_range_meters":38800,"station_id":"ce4bhih2rcd13ifvqfs0","pricing_plan_id":"cebpf4jnsgd1na2vs0mg"},{"bike_id":"3e9a7492-84d6-4e6e-8365-3a6037a235a1","system_id":"levelo_inurba_marseille","lat":43.30535,"lon":5.38431,"is_reserved":false,"is_disabled":false,"rental_uris":{"android":"levelo://app?vid=3e9a7492-84d6-4e6e-8365-3a6037a235a1","ios":"levelo://app?vid=3e9a7492-84d6-4e6e-8365-3a6037a235a1"},"vehicle_type_id":"4","last_reported":1730437781,"current_range_meters":36400,"station_id":"ce4bgg92rcd13ifvqb30","pricing_plan_id":"cebpf4jnsgd1na2vs0mg"},{"bike_id":"30cd3637-5231-4451-8b17-3902824e2d98","system_id":"levelo_inurba_marseille","lat":43.31439,"lon":5.39301,"is_reserved":false,"is_disabled":false,"rental_uris":{"android":"levelo://app?vid=30cd3637-5231-4451-8b17-3902824e2d98","ios":"levelo://app?vid=30cd3637-5231-4451-8b17-3902824e2d98"},"vehicle_type_id":"4","last_reported":1730437781,"current_range_meters":18800,"station_id":"","pricing_plan_id":"cebpf4jnsgd1na2vs0mg"},{"bike_id":"5926162e-65f2-4ecd-be24-54e39658b808","system_id":"levelo_inurba_marseille","lat":43.3027,"lon":5.377,"is_reserved":false,"is_disabled":false,"rental_uris":{"android":"levelo://app?vid=5926162e-65f2-4ecd-be24-54e39658b808","ios":"levelo://app?vid=5926162e-65f2-4ecd-be24-54e39658b808"},"vehicle_type_id":"4","last_reported":1730437781,"current_range_meters":37600,"station_id":"ce4bguh2rcd13ifvqcj0","pricing_plan_id":"cebpf4jnsgd1na2vs0mg"},{"bike_id":"7c79cb44-eb1f-4420-98e2-77dbdd1c81ce","system_id":"levelo_inurba_marseille","lat":43.31275,"lon":5.40176,"is_reserved":false,"is_disabled":false,"rental_uris":{"android":"levelo://app?vid=7c79cb44-eb1f-4420-98e2-77dbdd1c81ce","ios":"levelo://app?vid=7c79cb44-eb1f-4420-98e2-77dbdd1c81ce"},"vehicle_type_id":"4","last_reported":1730437781,"current_range_meters":11200,"station_id":"ce4bh092rcd13ifvqd30","pricing_plan_id":"cebpf4jnsgd1na2vs0mg"},{"bike_id":"1a42306b-60a4-428c-be70-5356ee634902","system_id":"levelo_inurba_marseille","lat":43.2925,"lon":5.40909,"is_reserved":false,"is_disabled":false,"rental_uris":{"android":"levelo://app?vid=1a42306b-60a4-428c-be70-5356ee634902","ios":"levelo://app?vid=1a42306b-60a4-428c-be70-5356ee634902"},"vehicle_type_id":"4","last_reported":1730437781,"current_range_meters":38800,"station_id":"ce4bh192rcd13ifvqdc0","pricing_plan_id":"cebpf4jnsgd1na2vs0mg"},{"bike_id":"e8c4e24f-476f-443e-b5f0-ef78d7e0d75f","system_id":"levelo_inurba_marseille","lat":43.31276,"lon":5.40165,"is_reserved":false,"is_disabled":false,"rental_uris":{"android":"levelo://app?vid=e8c4e24f-476f-443e-b5f0-ef78d7e0d75f","ios":"levelo://app?vid=e8c4e24f-476f-443e-b5f0-ef78d7e0d75f"},"vehicle_type_id":"4","last_reported":1730437781,"current_range_meters":8400,"station_id":"ce4bh092rcd13ifvqd30","pricing_plan_id":"cebpf4jnsgd1na2vs0mg"},{"bike_id":"c7f7dd00-73cf-47e2-9932-4d729fb183f4","system_id":"levelo_inurba_marseille","lat":43.28723,"lon":5.36083,"is_reserved":false,"is_disabled":false,"rental_uris":{"android":"levelo://app?vid=c7f7dd00-73cf-47e2-9932-4d729fb183f4","ios":"levelo://app?vid=c7f7dd00-73cf-47e2-9932-4d729fb183f4"},"vehicle_type_id":"4","last_reported":1730437781,"current_range_meters":22400,"station_id":"cki0cbj6b192h4jlfktg","pricing_plan_id":"cebpf4jnsgd1na2vs0mg"},{"bike_id":"5d563d55-b429-4fcb-b45d-40b1968a8237","system_id":"levelo_inurba_marseille","lat":43.27828,"lon":5.39199,"is_reserved":false,"is_disabled":false,"rental_uris":{"android":"levelo://app?vid=5d563d55-b429-4fcb-b45d-40b1968a8237","ios":"levelo://app?vid=5d563d55-b429-4fcb-b45d-40b1968a8237"},"vehicle_type_id":"4","last_reported":1730437781,"current_range_meters":38400,"station_id":"ce4bhjp2rcd13ifvqga0","pricing_plan_id":"cebpf4jnsgd1na2vs0mg"},{"bike_id":"7b5505f9-f56e-4e69-998d-40fff5149598","system_id":"levelo_inurba_marseille","lat":43.304666,"lon":5.379027,"is_reserved":false,"is_disabled":false,"rental_uris":{"android":"levelo://app?vid=7b5505f9-f56e-4e69-998d-40fff5149598","ios":"levelo://app?vid=7b5505f9-f56e-4e69-998d-40fff5149598"},"vehicle_type_id":"4","last_reported":1730437781,"current_range_meters":33200,"station_id":"ce4bgup2rcd13ifvqcn0","pricing_plan_id":"cebpf4jnsgd1na2vs0mg"},{"bike_id":"f221aab7-1d6f-4b38-9b62-97b3a1fc5f0e","system_id":"levelo_inurba_marseille","lat":43.31486,"lon":5.37303,"is_reserved":false,"is_disabled":false,"rental_uris":{"android":"levelo://app?vid=f221aab7-1d6f-4b38-9b62-97b3a1fc5f0e","ios":"levelo://app?vid=f221aab7-1d6f-4b38-9b62-97b3a1fc5f0e"},"vehicle_type_id":"4","last_reported":1730437781,"current_range_meters":32400,"station_id":"ce4bgt12rcd13ifvqcd0","pricing_plan_id":"cebpf4jnsgd1na2vs0mg"},{"bike_id":"d9029666-08e1-4b3d-b9e9-3587164cca3f","system_id":"levelo_inurba_marseille","lat":43.2844,"lon":5.39193,"is_reserved":false,"is_disabled":false,"rental_uris":{"android":"levelo://app?vid=d9029666-08e1-4b3d-b9e9-3587164cca3f","ios":"levelo://app?vid=d9029666-08e1-4b3d-b9e9-3587164cca3f"},"vehicle_type_id":"4","last_reported":1730437781,"current_range_meters":35200,"station_id":"ce4bhoh2rcd13ifvqh5g","pricing_plan_id":"cebpf4jnsgd1na2vs0mg"},{"bike_id":"908aa492-23b5-4316-9077-9e957fdf5b2c","system_id":"levelo_inurba_marseille","lat":43.27991,"lon":5.41661,"is_reserved":false,"is_disabled":false,"rental_uris":{"android":"levelo://app?vid=908aa492-23b5-4316-9077-9e957fdf5b2c","ios":"levelo://app?vid=908aa492-23b5-4316-9077-9e957fdf5b2c"},"vehicle_type_id":"4","last_reported":1730437781,"current_range_meters":28800,"station_id":"ce4bho12rcd13ifvqh1g","pricing_plan_id":"cebpf4jnsgd1na2vs0mg"},{"bike_id":"58748d2a-dff2-4bfe-ba69-a9beed25e62c","system_id":"levelo_inurba_marseille","lat":43.27104,"lon":5.39444,"is_reserved":false,"is_disabled":false,"rental_uris":{"android":"levelo://app?vid=58748d2a-dff2-4bfe-ba69-a9beed25e62c","ios":"levelo://app?vid=58748d2a-dff2-4bfe-ba69-a9beed25e62c"},"vehicle_type_id":"4","last_reported":1730437781,"current_range_meters":24400,"station_id":"","pricing_plan_id":"cebpf4jnsgd1na2vs0mg"},{"bike_id":"08ed22d7-663d-413b-8e4a-a32596a7792f","system_id":"levelo_inurba_marseille","lat":43.32495,"lon":5.41566,"is_reserved":false,"is_disabled":false,"rental_uris":{"android":"levelo://app?vid=08ed22d7-663d-413b-8e4a-a32596a7792f","ios":"levelo://app?vid=08ed22d7-663d-413b-8e4a-a32596a7792f"},"vehicle_type_id":"4","last_reported":1730437781,"current_range_meters":38000,"station_id":"","pricing_plan_id":"cebpf4jnsgd1na2vs0mg"},{"bike_id":"04854eef-7766-458c-9757-24ae146e0c9d","system_id":"levelo_inurba_marseille","lat":43.27813,"lon":5.40711,"is_reserved":false,"is_disabled":false,"rental_uris":{"android":"levelo://app?vid=04854eef-7766-458c-9757-24ae146e0c9d","ios":"levelo://app?vid=04854eef-7766-458c-9757-24ae146e0c9d"},"vehicle_type_id":"4","last_reported":1730437781,"current_range_meters":37600,"station_id":"ce4bhnh2rcd13ifvqgtg","pricing_plan_id":"cebpf4jnsgd1na2vs0mg"},{"bike_id":"df7d8286-be6c-47f0-8973-2c9835f4f391","system_id":"levelo_inurba_marseille","lat":43.25088,"lon":5.39507,"is_reserved":false,"is_disabled":false,"rental_uris":{"android":"levelo://app?vid=df7d8286-be6c-47f0-8973-2c9835f4f391","ios":"levelo://app?vid=df7d8286-be6c-47f0-8973-2c9835f4f391"},"vehicle_type_id":"4","last_reported":1730437781,"current_range_meters":31200,"station_id":"ce4bhm12rcd13ifvqgkg","pricing_plan_id":"cebpf4jnsgd1na2vs0mg"},{"bike_id":"2c05948d-a630-4528-b7b0-043d065b18cd","system_id":"levelo_inurba_marseille","lat":43.30772,"lon":5.39221,"is_reserved":false,"is_disabled":false,"rental_uris":{"android":"levelo://app?vid=2c05948d-a630-4528-b7b0-043d065b18cd","ios":"levelo://app?vid=2c05948d-a630-4528-b7b0-043d065b18cd"},"vehicle_type_id":"4","last_reported":1730437781,"current_range_meters":18800,"station_id":"","pricing_plan_id":"cebpf4jnsgd1na2vs0mg"},{"bike_id":"ee1e6520-0943-4916-a847-ba41df37bfcc","system_id":"levelo_inurba_marseille","lat":43.28438,"lon":5.39182,"is_reserved":false,"is_disabled":false,"rental_uris":{"android":"levelo://app?vid=ee1e6520-0943-4916-a847-ba41df37bfcc","ios":"levelo://app?vid=ee1e6520-0943-4916-a847-ba41df37bfcc"},"vehicle_type_id":"4","last_reported":1730437781,"current_range_meters":36800,"station_id":"ce4bhoh2rcd13ifvqh5g","pricing_plan_id":"cebpf4jnsgd1na2vs0mg"},{"bike_id":"c557ff30-64af-48d0-84c0-028a6bb21719","system_id":"levelo_inurba_marseille","lat":43.287113,"lon":5.39975,"is_reserved":false,"is_disabled":false,"rental_uris":{"android":"levelo://app?vid=c557ff30-64af-48d0-84c0-028a6bb21719","ios":"levelo://app?vid=c557ff30-64af-48d0-84c0-028a6bb21719"},"vehicle_type_id":"4","last_reported":1730437781,"current_range_meters":7200,"station_id":"ce4bho92rcd13ifvqh3g","pricing_plan_id":"cebpf4jnsgd1na2vs0mg"},{"bike_id":"7761dfd7-5811-407a-97cf-83e9d6d36c83","system_id":"levelo_inurba_marseille","lat":43.23181,"lon":5.39994,"is_reserved":false,"is_disabled":false,"rental_uris":{"android":"levelo://app?vid=7761dfd7-5811-407a-97cf-83e9d6d36c83","ios":"levelo://app?vid=7761dfd7-5811-407a-97cf-83e9d6d36c83"},"vehicle_type_id":"4","last_reported":1730437781,"current_range_meters":21600,"station_id":"ce4bhn12rcd13ifvqgqg","pricing_plan_id":"cebpf4jnsgd1na2vs0mg"},{"bike_id":"0419c850-bf82-4705-a516-809505d661a3","system_id":"levelo_inurba_marseille","lat":43.28456,"lon":5.3589,"is_reserved":false,"is_disabled":false,"rental_uris":{"android":"levelo://app?vid=0419c850-bf82-4705-a516-809505d661a3","ios":"levelo://app?vid=0419c850-bf82-4705-a516-809505d661a3"},"vehicle_type_id":"4","last_reported":1730437781,"current_range_meters":16400,"station_id":"ce4bhah2rcd13ifvqei0","pricing_plan_id":"cebpf4jnsgd1na2vs0mg"},{"bike_id":"9e7bd909-2a5d-479a-a0d4-efb73986e01e","system_id":"levelo_inurba_marseille","lat":43.28103,"lon":5.37844,"is_reserved":false,"is_disabled":false,"rental_uris":{"android":"levelo://app?vid=9e7bd909-2a5d-479a-a0d4-efb73986e01e","ios":"levelo://app?vid=9e7bd909-2a5d-479a-a0d4-efb73986e01e"},"vehicle_type_id":"4","last_reported":1730437781,"current_range_meters":21600,"station_id":"ce4bha12rcd13ifvqee0","pricing_plan_id":"cebpf4jnsgd1na2vs0mg"},{"bike_id":"94279a57-03c0-47b7-abe3-7226e86fd3b0","system_id":"levelo_inurba_marseille","lat":43.2761,"lon":5.36112,"is_reserved":false,"is_disabled":false,"rental_uris":{"android":"levelo://app?vid=94279a57-03c0-47b7-abe3-7226e86fd3b0","ios":"levelo://app?vid=94279a57-03c0-47b7-abe3-7226e86fd3b0"},"vehicle_type_id":"4","last_reported":1730437781,"current_range_meters":26800,"station_id":"ce4bgj92rcd13ifvqbe0","pricing_plan_id":"cebpf4jnsgd1na2vs0mg"},{"bike_id":"864a552f-87dd-464a-977f-d7ea2d5d0d29","system_id":"levelo_inurba_marseille","lat":43.27619,"lon":5.36108,"is_reserved":false,"is_disabled":false,"rental_uris":{"android":"levelo://app?vid=864a552f-87dd-464a-977f-d7ea2d5d0d29","ios":"levelo://app?vid=864a552f-87dd-464a-977f-d7ea2d5d0d29"},"vehicle_type_id":"4","last_reported":1730437781,"current_range_meters":24000,"station_id":"ce4bgj92rcd13ifvqbe0","pricing_plan_id":"cebpf4jnsgd1na2vs0mg"},{"bike_id":"c46c6b2d-5ec5-47f8-ada1-36d04dc0bf50","system_id":"levelo_inurba_marseille","lat":43.27554,"lon":5.36038,"is_reserved":false,"is_disabled":false,"rental_uris":{"android":"levelo://app?vid=c46c6b2d-5ec5-47f8-ada1-36d04dc0bf50","ios":"levelo://app?vid=c46c6b2d-5ec5-47f8-ada1-36d04dc0bf50"},"vehicle_type_id":"4","last_reported":1730437781,"current_range_meters":32800,"station_id":"","pricing_plan_id":"cebpf4jnsgd1na2vs0mg"},{"bike_id":"5bb5449c-bc62-4885-99ae-e3a4f4e14241","system_id":"levelo_inurba_marseille","lat":43.31328,"lon":5.39696,"is_reserved":false,"is_disabled":false,"rental_uris":{"android":"levelo://app?vid=5bb5449c-bc62-4885-99ae-e3a4f4e14241","ios":"levelo://app?vid=5bb5449c-bc62-4885-99ae-e3a4f4e14241"},"vehicle_type_id":"4","last_reported":1730437781,"current_range_meters":29600,"station_id":"ce4bgvp2rcd13ifvqcu0","pricing_plan_id":"cebpf4jnsgd1na2vs0mg"},{"bike_id":"a59de3a1-b5ee-4992-95d5-92d91d1b8221","system_id":"levelo_inurba_marseille","lat":43.25868,"lon":5.39903,"is_reserved":false,"is_disabled":false,"rental_uris":{"android":"levelo://app?vid=a59de3a1-b5ee-4992-95d5-92d91d1b8221","ios":"levelo://app?vid=a59de3a1-b5ee-4992-95d5-92d91d1b8221"},"vehicle_type_id":"4","last_reported":1730437781,"current_range_meters":34000,"station_id":"ce4bhl92rcd13ifvqghg","pricing_plan_id":"cebpf4jnsgd1na2vs0mg"},{"bike_id":"8a0bd193-24fa-4c05-a2cd-1d9d504a375a","system_id":"levelo_inurba_marseille","lat":43.32369,"lon":5.38883,"is_reserved":false,"is_disabled":false,"rental_uris":{"android":"levelo://app?vid=8a0bd193-24fa-4c05-a2cd-1d9d504a375a","ios":"levelo://app?vid=8a0bd193-24fa-4c05-a2cd-1d9d504a375a"},"vehicle_type_id":"4","last_reported":1730437781,"current_range_meters":35200,"station_id":"ce4bhqp2rcd13ifvqhog","pricing_plan_id":"cebpf4jnsgd1na2vs0mg"},{"bike_id":"ce7a9679-1309-4337-a277-05901a838b7d","system_id":"levelo_inurba_marseille","lat":43.2936,"lon":5.43431,"is_reserved":false,"is_disabled":false,"rental_uris":{"android":"levelo://app?vid=ce7a9679-1309-4337-a277-05901a838b7d","ios":"levelo://app?vid=ce7a9679-1309-4337-a277-05901a838b7d"},"vehicle_type_id":"4","last_reported":1730437781,"current_range_meters":18000,"station_id":"","pricing_plan_id":"cebpf4jnsgd1na2vs0mg"},{"bike_id":"17c31cfa-64ed-4c9f-a110-435f00420277","system_id":"levelo_inurba_marseille","lat":43.27321,"lon":5.39078,"is_reserved":false,"is_disabled":false,"rental_uris":{"android":"levelo://app?vid=17c31cfa-64ed-4c9f-a110-435f00420277","ios":"levelo://app?vid=17c31cfa-64ed-4c9f-a110-435f00420277"},"vehicle_type_id":"4","last_reported":1730437781,"current_range_meters":25200,"station_id":"ce4bhgp2rcd13ifvqfe0","pricing_plan_id":"cebpf4jnsgd1na2vs0mg"},{"bike_id":"742e3b39-99d0-477f-8dff-13676bdb1f4a","system_id":"levelo_inurba_marseille","lat":43.27069,"lon":5.42275,"is_reserved":false,"is_disabled":false,"rental_uris":{"android":"levelo://app?vid=742e3b39-99d0-477f-8dff-13676bdb1f4a","ios":"levelo://app?vid=742e3b39-99d0-477f-8dff-13676bdb1f4a"},"vehicle_type_id":"4","last_reported":1730437781,"current_range_meters":38000,"station_id":"ce4bhk92rcd13ifvqgb0","pricing_plan_id":"cebpf4jnsgd1na2vs0mg"},{"bike_id":"dcb8f151-5f72-4ce7-a41b-c8f44dd67b21","system_id":"levelo_inurba_marseille","lat":43.31355,"lon":5.38505,"is_reserved":false,"is_disabled":false,"rental_uris":{"android":"levelo://app?vid=dcb8f151-5f72-4ce7-a41b-c8f44dd67b21","ios":"levelo://app?vid=dcb8f151-5f72-4ce7-a41b-c8f44dd67b21"},"vehicle_type_id":"4","last_reported":1730437781,"current_range_meters":38800,"station_id":"ce4bgt92rcd13ifvqcf0","pricing_plan_id":"cebpf4jnsgd1na2vs0mg"},{"bike_id":"0327b2c3-a953-4a00-af49-25eb8099bcbf","system_id":"levelo_inurba_marseille","lat":43.31337,"lon":5.39692,"is_reserved":false,"is_disabled":false,"rental_uris":{"android":"levelo://app?vid=0327b2c3-a953-4a00-af49-25eb8099bcbf","ios":"levelo://app?vid=0327b2c3-a953-4a00-af49-25eb8099bcbf"},"vehicle_type_id":"4","last_reported":1730437781,"current_range_meters":39200,"station_id":"ce4bgvp2rcd13ifvqcu0","pricing_plan_id":"cebpf4jnsgd1na2vs0mg"},{"bike_id":"c4a6f998-92c9-40ef-844d-2b4720ad1720","system_id":"levelo_inurba_marseille","lat":43.24808,"lon":5.37448,"is_reserved":false,"is_disabled":false,"rental_uris":{"android":"levelo://app?vid=c4a6f998-92c9-40ef-844d-2b4720ad1720","ios":"levelo://app?vid=c4a6f998-92c9-40ef-844d-2b4720ad1720"},"vehicle_type_id":"4","last_reported":1730437781,"current_range_meters":10800,"station_id":"ce4bhgh2rcd13ifvqfb0","pricing_plan_id":"cebpf4jnsgd1na2vs0mg"},{"bike_id":"6beb40b3-a83c-4877-9031-300bb62dfde5","system_id":"levelo_inurba_marseille","lat":43.314873,"lon":5.373019,"is_reserved":false,"is_disabled":false,"rental_uris":{"android":"levelo://app?vid=6beb40b3-a83c-4877-9031-300bb62dfde5","ios":"levelo://app?vid=6beb40b3-a83c-4877-9031-300bb62dfde5"},"vehicle_type_id":"4","last_reported":1730437781,"current_range_meters":38000,"station_id":"ce4bgt12rcd13ifvqcd0","pricing_plan_id":"cebpf4jnsgd1na2vs0mg"},{"bike_id":"86008901-30ea-4421-9db2-a092ed66c428","system_id":"levelo_inurba_marseille","lat":43.25729,"lon":5.41109,"is_reserved":false,"is_disabled":false,"rental_uris":{"android":"levelo://app?vid=86008901-30ea-4421-9db2-a092ed66c428","ios":"levelo://app?vid=86008901-30ea-4421-9db2-a092ed66c428"},"vehicle_type_id":"4","last_reported":1730437781,"current_range_meters":6400,"station_id":"ce4bhkp2rcd13ifvqgd0","pricing_plan_id":"cebpf4jnsgd1na2vs0mg"},{"bike_id":"402be0f5-93ce-4800-b27d-9d36e1ac2b42","system_id":"levelo_inurba_marseille","lat":43.25821,"lon":5.39437,"is_reserved":false,"is_disabled":false,"rental_uris":{"android":"levelo://app?vid=402be0f5-93ce-4800-b27d-9d36e1ac2b42","ios":"levelo://app?vid=402be0f5-93ce-4800-b27d-9d36e1ac2b42"},"vehicle_type_id":"4","last_reported":1730437781,"current_range_meters":38800,"station_id":"ce4bhip2rcd13ifvqft0","pricing_plan_id":"cebpf4jnsgd1na2vs0mg"},{"bike_id":"02ab60dd-f0a9-4f4d-bede-c1ec3ee07738","system_id":"levelo_inurba_marseille","lat":43.24164,"lon":5.36391,"is_reserved":false,"is_disabled":false,"rental_uris":{"android":"levelo://app?vid=02ab60dd-f0a9-4f4d-bede-c1ec3ee07738","ios":"levelo://app?vid=02ab60dd-f0a9-4f4d-bede-c1ec3ee07738"},"vehicle_type_id":"4","last_reported":1730437781,"current_range_meters":4400,"station_id":"cpo36qri1sfpv3e86is0","pricing_plan_id":"cebpf4jnsgd1na2vs0mg"},