{"last_updated":1736852819,"ttl":60,"version":"2.2","data":{"bikes":[{"bike_id":"8b877a16-2c6f-4913-a8ea-b53aacb81218","system_id":"levelo_inurba_marseille","lat":43.28088,"lon":5.39663,"is_reserved":false,"is_disabled":false,"rental_uris":{"android":"levelo://app?vid=8b877a16-2c6f-4913-a8ea-b53aacb81218","ios":"levelo://app?vid=8b877a16-2c6f-4913-a8ea-b53aacb81218"},"vehicle_type_id":"4","last_reported":1736852819,"current_range_meters":38000,"station_id":"ce4bho12rcd13ifvqh2g","pricing_plan_id":"cebpf4jnsgd1na2vs0mg"},{"bike_id":"43a19ec7-681f-474f-9505-3bcc52563126","system_id":"levelo_inurba_marseille","lat":43.30322,"lon":5.36918,"is_reserved":false,"is_disabled":false,"rental_uris":{"android":"levelo://app?vid=43a19ec7-681f-474f-9505-3bcc52563126","ios":"levelo://app?vid=43a19ec7-681f-474f-9505-3bcc52563126"},"vehicle_type_id":"4","last_reported":1736852819,"current_range_meters":25600,"station_id":"ce4bgqh2rcd13ifvqc5g","pricing_plan_id":"cebpf4jnsgd1na2vs0mg"},{"bike_id":"40acc673-8efe-465f-8502-1c32dbb757b1","system_id":"levelo_inurba_marseille","lat":43.3015,"lon":5.3992,"is_reserved":false,"is_disabled":false,"rental_uris":{"android":"levelo://app?vid=40acc673-8efe-465f-8502-1c32dbb757b1","ios":"levelo://app?vid=40acc673-8efe-465f-8502-1c32dbb757b1"},"vehicle_type_id":"4","last_reported":1736852819,"current_range_meters":38800,"station_id":"ce4bh0h2rcd13ifvqd40","pricing_plan_id":"cebpf4jnsgd1na2vs0mg"},{"bike_id":"8066198f-5e7b-4dcf-b299-6ccbfe957fcc","system_id":"levelo_inurba_marseille","lat":43.29302,"lon":5.37462,"is_reserved":false,"is_disabled":false,"rental_uris":{"android":"levelo://app?vid=8066198f-5e7b-4dcf-b299-6ccbfe957fcc","ios":"levelo://app?vid=8066198f-5e7b-4dcf-b299-6ccbfe957fcc"},"vehicle_type_id":"4","last_reported":1736852819,"current_range_meters":24800,"station_id":"ce4bgi12rcd13ifvqb70","pricing_plan_id":"cebpf4jnsgd1na2vs0mg"},{"bike_id":"a9caf45c-9b62-4fad-bb25-cf9cfd1dff86","system_id":"levelo_inurba_marseille","lat":43.33734,"lon":5.39182,"is_reserved":false,"is_disabled":false,"rental_uris":{"android":"levelo://app?vid=a9caf45c-9b62-4fad-bb25-cf9cfd1dff86","ios":"levelo://app?vid=a9caf45c-9b62-4fad-bb25-cf9cfd1dff86"},"vehicle_type_id":"4","last_reported":1736852819,"current_range_meters":39200,"station_id":"ce4bhr92rcd13ifvqhsg","pricing_plan_id":"cebpf4jnsgd1na2vs0mg"},{"bike_id":"1b14d2ed-ab47-4010-b332-674b81665ad1","system_id":"levelo_inurba_marseille","lat":43.24074,"lon":5.37762,"is_reserved":false,"is_disabled":false,"rental_uris":{"android":"levelo://app?vid=1b14d2ed-ab47-4010-b332-674b81665ad1","ios":"levelo://app?vid=1b14d2ed-ab47-4010-b332-674b81665ad1"},"vehicle_type_id":"4","last_reported":1736852819,"current_range_meters":24400,"station_id":"ce4bhnp2rcd13ifvqgvg","pricing_plan_id":"cebpf4jnsgd1na2vs0mg"},{"bike_id":"5e0b46d4-53a6-4a9b-81ed-42b3629948b7","system_id":"levelo_inurba_marseille","lat":43.32076,"lon":5.36797,"is_reserved":false,"is_disabled":false,"rental_uris":{"android":"levelo://app?vid=5e0b46d4-53a6-4a9b-81ed-42b3629948b7","ios":"levelo://app?vid=5e0b46d4-53a6-4a9b-81ed-42b3629948b7"},"vehicle_type_id":"4","last_reported":1736852819,"current_range_meters":38000,"station_id":"ce4bhrh2rcd13ifvqhug","pricing_plan_id":"cebpf4jnsgd1na2vs0mg"},{"bike_id":"ac511c71-61c9-4661-85d6-510ca657315b","system_id":"levelo_inurba_marseille","lat":43.2619,"lon":5.3746,"is_reserved":false,"is_disabled":false,"rental_uris":{"android":"levelo://app?vid=ac511c71-61c9-4661-85d6-510ca657315b","ios":"levelo://app?vid=ac511c71-61c9-4661-85d6-510ca657315b"},"vehicle_type_id":"4","last_reported":1736852819,"current_range_meters":12400,"station_id":"ce4bhgp2rcd13ifvqfc0","pricing_plan_id":"cebpf4jnsgd1na2vs0mg"},{"bike_id":"e19f8a53-204c-4a1a-b9ba-be1615f3b68f","system_id":"levelo_inurba_marseille","lat":43.30439,"lon":5.38886,"is_reserved":false,"is_disabled":false,"rental_uris":{"android":"levelo://app?vid=e19f8a53-204c-4a1a-b9ba-be1615f3b68f","ios":"levelo://app?vid=e19f8a53-204c-4a1a-b9ba-be1615f3b68f"},"vehicle_type_id":"4","last_reported":1736852819,"current_range_meters":12400,"station_id":"ce4bgk12rcd13ifvqbi0","pricing_plan_id":"cebpf4jnsgd1na2vs0mg"},{"bike_id":"5bb5758f-37be-496e-ac0a-3712e6b43125","system_id":"levelo_inurba_marseille","lat":43.26196,"lon":5.37939,"is_reserved":false,"is_disabled":false,"rental_uris":{"android":"levelo://app?vid=5bb5758f-37be-496e-ac0a-3712e6b43125","ios":"levelo://app?vid=5bb5758f-37be-496e-ac0a-3712e6b43125"},"vehicle_type_id":"4","last_reported":1736852819,"current_range_meters":39200,"station_id":"ce4bhjp2rcd13ifvqg90","pricing_plan_id":"cebpf4jnsgd1na2vs0mg"},{"bike_id":"5a8778da-75a5-431d-a3fc-dc677748046a","system_id":"levelo_inurba_marseille","lat":43.29709,"lon":5.37278,"is_reserved":false,"is_disabled":false,"rental_uris":{"android":"levelo://app?vid=5a8778da-75a5-431d-a3fc-dc677748046a","ios":"levelo://app?vid=5a8778da-75a5-431d-a3fc-dc677748046a"},"vehicle_type_id":"4","last_reported":1736852819,"current_range_meters":37600,"station_id":"ce4bgk12rcd13ifvqbj0","pricing_plan_id":"cebpf4jnsgd1na2vs0mg"},{"bike_id":"afa956c1-a024-460a-8f3b-934d75beef2c","system_id":"levelo_inurba_marseille","lat":43.27929,"lon":5.38795,"is_reserved":false,"is_disabled":false,"rental_uris":{"android":"levelo://app?vid=afa956c1-a024-460a-8f3b-934d75beef2c","ios":"levelo://app?vid=afa956c1-a024-460a-8f3b-934d75beef2c"},"vehicle_type_id":"4","last_reported":1736852819,"current_range_meters":38400,"station_id":"ce4bhg12rcd13ifvqf80","pricing_plan_id":"cebpf4jnsgd1na2vs0mg"},{"bike_id":"962cc5cc-fec7-46f8-84df-102fbfaf51f6","system_id":"levelo_inurba_marseille","lat":43.25929,"lon":5.40904,"is_reserved":false,"is_disabled":false,"rental_uris":{"android":"levelo://app?vid=962cc5cc-fec7-46f8-84df-102fbfaf51f6","ios":"levelo://app?vid=962cc5cc-fec7-46f8-84df-102fbfaf51f6"},"vehicle_type_id":"4","last_reported":1736852819,"current_range_meters":38000,"station_id":"ce4bhm92rcd13ifvqglg","pricing_plan_id":"cebpf4jnsgd1na2vs0mg"},{"bike_id":"29a9ed2d-851f-4096-8afb-4abdc1d84956","system_id":"levelo_inurba_marseille","lat":43.31332,"lon":5.36749,"is_reserved":false,"is_disabled":false,"rental_uris":{"android":"levelo://app?vid=29a9ed2d-851f-4096-8afb-4abdc1d84956","ios":"levelo://app?vid=29a9ed2d-851f-4096-8afb-4abdc1d84956"},"vehicle_type_id":"4","last_reported":1736852819,"current_range_meters":24400,"station_id":"ce4bgr92rcd13ifvqc6g","pricing_plan_id":"cebpf4jnsgd1na2vs0mg"},{"bike_id":"766fcbc5-2274-4a2f-90b2-b81c8e781bf8","system_id":"levelo_inurba_marseille","lat":43.29598,"lon":5.3774,"is_reserved":false,"is_disabled":false,"rental_uris":{"android":"levelo://app?vid=766fcbc5-2274-4a2f-90b2-b81c8e781bf8","ios":"levelo://app?vid=766fcbc5-2274-4a2f-90b2-b81c8e781bf8"},"vehicle_type_id":"4","last_reported":1736852819,"current_range_meters":36800,"station_id":"ce4bgi92rcd13ifvqb90","pricing_plan_id":"cebpf4jnsgd1na2vs0mg"},{"bike_id":"405d663a-1e19-46aa-90f9-71d83dcf93dc","system_id":"levelo_inurba_marseille","lat":43.33756,"lon":5.39173,"is_reserved":false,"is_disabled":false,"rental_uris":{"android":"levelo://app?vid=405d663a-1e19-46aa-90f9-71d83dcf93dc","ios":"levelo://app?vid=405d663a-1e19-46aa-90f9-71d83dcf93dc"},"vehicle_type_id":"4","last_reported":1736852819,"current_range_meters":19600,"station_id":"ce4bhr92rcd13ifvqhsg","pricing_plan_id":"cebpf4jnsgd1na2vs0mg"},{"bike_id":"e0ca69a2-8f04-4664-9d47-26dea82cc9f8","system_id":"levelo_inurba_marseille","lat":43.29969,"lon":5.38503,"is_reserved":false,"is_disabled":true,"rental_uris":{"android":"levelo://app?vid=e0ca69a2-8f04-4664-9d47-26dea82cc9f8","ios":"levelo://app?vid=e0ca69a2-8f04-4664-9d47-26dea82cc9f8"},"vehicle_type_id":"4","last_reported":1736852819,"current_range_meters":38800,"station_id":"ce4bgj92rcd13ifvqbd0","pricing_plan_id":"cebpf4jnsgd1na2vs0mg"},{"bike_id":"94440fca-9d66-4315-a057-b48311229f6d","system_id":"levelo_inurba_marseille","lat":43.33603,"lon":5.41039,"is_reserved":false,"is_disabled":false,"rental_uris":{"android":"levelo://app?vid=94440fca-9d66-4315-a057-b48311229f6d","ios":"levelo://app?vid=94440fca-9d66-4315-a057-b48311229f6d"},"vehicle_type_id":"4","last_reported":1736852819,"current_range_meters":34800,"station_id":"ce4bhqh2rcd13ifvqhmg","pricing_plan_id":"cebpf4jnsgd1na2vs0mg"},{"bike_id":"c71e1b00-4631-4bbd-8c7e-cafcae118147","system_id":"levelo_inurba_marseille","lat":43.27992,"lon":5.40006,"is_reserved":false,"is_disabled":false,"rental_uris":{"android":"levelo://app?vid=c71e1b00-4631-4bbd-8c7e-cafcae118147","ios":"levelo://app?vid=c71e1b00-4631-4bbd-8c7e-cafcae118147"},"vehicle_type_id":"4","last_reported":1736852819,"current_range_meters":3600,"station_id":"ce4bho92rcd13ifvqh4g","pricing_plan_id":"cebpf4jnsgd1na2vs0mg"},{"bike_id":"571caa5a-a983-48f8-8c22-8b979894359c","system_id":"levelo_inurba_marseille","lat":43.29891,"lon":5.38909,"is_reserved":false,"is_disabled":true,"rental_uris":{"android":"levelo://app?vid=571caa5a-a983-48f8-8c22-8b979894359c","ios":"levelo://app?vid=571caa5a-a983-48f8-8c22-8b979894359c"},"vehicle_type_id":"4","last_reported":1736852819,"current_range_meters":38800,"station_id":"ce4bh392rcd13ifvqdl0","pricing_plan_id":"cebpf4jnsgd1na2vs0mg"},{"bike_id":"1ca9fc25-ccc8-4a68-82aa-93e184d4ffee","system_id":"levelo_inurba_marseille","lat":43.30951,"lon":5.39051,"is_reserved":false,"is_disabled":true,"rental_uris":{"android":"levelo://app?vid=1ca9fc25-ccc8-4a68-82aa-93e184d4ffee","ios":"levelo://app?vid=1ca9fc25-ccc8-4a68-82aa-93e184d4ffee"},"vehicle_type_id":"4","last_reported":1736852819,"current_range_meters":0,"station_id":"ce4bgup2rcd13ifvqco0","pricing_plan_id":"cebpf4jnsgd1na2vs0mg"},{"bike_id":"bdab11e4-0b4c-4df8-8ae1-6fa926fce99e","system_id":"levelo_inurba_marseille","lat":43.27946,"lon":5.4104,"is_reserved":false,"is_disabled":true,"rental_uris":{"android":"levelo://app?vid=bdab11e4-0b4c-4df8-8ae1-6fa926fce99e","ios":"levelo://app?vid=bdab11e4-0b4c-4df8-8ae1-6fa926fce99e"},"vehicle_type_id":"4","last_reported":1736852819,"current_range_meters":0,"station_id":"ce4bhnp2rcd13ifvqh0g","pricing_plan_id":"cebpf4jnsgd1na2vs0mg"},{"bike_id":"94d00723-79f7-443c-bc62-0c89ddbb1d1c","system_id":"levelo_inurba_marseille","lat":43.28117,"lon":5.42668,"is_reserved":false,"is_disabled":false,"rental_uris":{"android":"levelo://app?vid=94d00723-79f7-443c-bc62-0c89ddbb1d1c","ios":"levelo://app?vid=94d00723-79f7-443c-bc62-0c89ddbb1d1c"},"vehicle_type_id":"4","last_reported":1736852819,"current_range_meters":16800,"station_id":"ce4bhnh2rcd13ifvqgug","pricing_plan_id":"cebpf4jnsgd1na2vs0mg"},{"bike_id":"511c89f8-e7ae-4a2c-9b00-f9c7a496eb24","system_id":"levelo_inurba_marseille","lat":43.28618,"lon":5.35108,"is_reserved":false,"is_disabled":false,"rental_uris":{"android":"levelo://app?vid=511c89f8-e7ae-4a2c-9b00-f9c7a496eb24","ios":"levelo://app?vid=511c89f8-e7ae-4a2c-9b00-f9c7a496eb24"},"vehicle_type_id":"4","last_reported":1736852819,"current_range_meters":33600,"station_id":"ce4bhch2rcd13ifvqeug","pricing_plan_id":"cebpf4jnsgd1na2vs0mg"},{"bike_id":"29a5cbd9-65c4-419c-9a97-09f4fd054b93","system_id":"levelo_inurba_marseille","lat":43.30538,"lon":5.3653,"is_reserved":false,"is_disabled":false,"rental_uris":{"android":"levelo://app?vid=29a5cbd9-65c4-419c-9a97-09f4fd054b93","ios":"levelo://app?vid=29a5cbd9-65c4-419c-9a97-09f4fd054b93"},"vehicle_type_id":"4","last_reported":1736852819,"current_range_meters":24000,"station_id":"ce4bgs12rcd13ifvqcag","pricing_plan_id":"cebpf4jnsgd1na2vs0mg"},{"bike_id":"06617b99-e504-464c-813a-96cd00bd9904","system_id":"levelo_inurba_marseille","lat":43.28375,"lon":5.38627,"is_reserved":false,"is_disabled":false,"rental_uris":{"android":"levelo://app?vid=06617b99-e504-464c-813a-96cd00bd9904","ios":"levelo://app?vid=06617b99-e504-464c-813a-96cd00bd9904"},"vehicle_type_id":"4","last_reported":1736852819,"current_range_meters":25600,"station_id":"ce4bh492rcd13ifvqdvg","pricing_plan_id":"cebpf4jnsgd1na2vs0mg"},{"bike_id":"46884546-5849-49c1-8129-a7978a36c969","system_id":"levelo_inurba_marseille","lat":43.25934,"lon":5.40886,"is_reserved":false,"is_disabled":false,"rental_uris":{"android":"levelo://app?vid=46884546-5849-49c1-8129-a7978a36c969","ios":"levelo://app?vid=46884546-5849-49c1-8129-a7978a36c969"},"vehicle_type_id":"4","last_reported":1736852819,"current_range_meters":12400,"station_id":"ce4bhm92rcd13ifvqglg","pricing_plan_id":"cebpf4jnsgd1na2vs0mg"},{"bike_id":"1a2ee306-4daf-461c-a569-85bf3eb929f6","system_id":"levelo_inurba_marseille","lat":43.30139,"lon":5.39845,"is_reserved":false,"is_disabled":false,"rental_uris":{"android":"levelo://app?vid=1a2ee306-4daf-461c-a569-85bf3eb929f6","ios":"levelo://app?vid=1a2ee306-4daf-461c-a569-85bf3eb929f6"},"vehicle_type_id":"4","last_reported":1736852819,"current_range_meters":39200,"station_id":"ce4bh0h2rcd13ifvqd40","pricing_plan_id":"cebpf4jnsgd1na2vs0mg"},{"bike_id":"edaae5f4-f840-439b-8d8a-04561c36b49c","system_id":"levelo_inurba_marseille","lat":43.29257,"lon":5.37464,"is_reserved":false,"is_disabled":false,"rental_uris":{"android":"levelo://app?vid=edaae5f4-f840-439b-8d8a-04561c36b49c","ios":"levelo://app?vid=edaae5f4-f840-439b-8d8a-04561c36b49c"},"vehicle_type_id":"4","last_reported":1736852819,"current_range_meters":38800,"station_id":"ce4bgi12rcd13ifvqb70","pricing_plan_id":"cebpf4jnsgd1na2vs0mg"},{"bike_id":"a402044d-1041-4786-a63f-9d18af3bc82f","system_id":"levelo_inurba_marseille","lat":43.2416,"lon":5.364,"is_reserved":false,"is_disabled":false,"rental_uris":{"android":"levelo://app?vid=a402044d-1041-4786-a63f-9d18af3bc82f","ios":"levelo://app?vid=a402044d-1041-4786-a63f-9d18af3bc82f"},"vehicle_type_id":"4","last_reported":1736852819,"current_range_meters":38800,"station_id":"cpo36qri1sfpv3e86is0","pricing_plan_id":"cebpf4jnsgd1na2vs0mg"},{"bike_id":"7884539f-cce7-41a0-9eb5-657df86ab844","system_id":"levelo_inurba_marseille","lat":43.29006,"lon":5.3561,"is_reserved":false,"is_disabled":false,"rental_uris":{"android":"levelo://app?vid=7884539f-cce7-41a0-9eb5-657df86ab844","ios":"levelo://app?vid=7884539f-cce7-41a0-9eb5-657df86ab844"},"vehicle_type_id":"4","last_reported":1736852819,"current_range_meters":29600,"station_id":"ce4bhb92rcd13ifvqen0","pricing_plan_id":"cebpf4jnsgd1na2vs0mg"},{"bike_id":"87ecfd66-ef43-4d79-bb7a-de8e0aaaaf45","system_id":"levelo_inurba_marseille","lat":43.26947,"lon":5.38636,"is_reserved":false,"is_disabled":false,"rental_uris":{"android":"levelo://app?vid=87ecfd66-ef43-4d79-bb7a-de8e0aaaaf45","ios":"levelo://app?vid=87ecfd66-ef43-4d79-bb7a-de8e0aaaaf45"},"vehicle_type_id":"4","last_reported":1736852819,"current_range_meters":35200,"station_id":"ce4bhh92rcd13ifvqfh0","pricing_plan_id":"cebpf4jnsgd1na2vs0mg"},{"bike_id":"0be51738-d57f-4e23-877e-205a9a4ca8c1","system_id":"levelo_inurba_marseille","lat":43.26933,"lon":5.38649,"is_reserved":false,"is_disabled":false,"rental_uris":{"android":"levelo://app?vid=0be51738-d57f-4e23-877e-205a9a4ca8c1","ios":"levelo://app?vid=0be51738-d57f-4e23-877e-205a9a4ca8c1"},"vehicle_type_id":"4","last_reported":1736852819,"current_range_meters":9600,"station_id":"ce4bhh92rcd13ifvqfh0","pricing_plan_id":"cebpf4jnsgd1na2vs0mg"},{"bike_id":"c8e997c0-8580-4d0f-8d9f-0766596381e1","system_id":"levelo_inurba_marseille","lat":43.3401,"lon":5.37571,"is_reserved":false,"is_disabled":true,"rental_uris":{"android":"levelo://app?vid=c8e997c0-8580-4d0f-8d9f-0766596381e1","ios":"levelo://app?vid=c8e997c0-8580-4d0f-8d9f-0766596381e1"},"vehicle_type_id":"4","last_reported":1736852819,"current_range_meters":0,"station_id":"","pricing_plan_id":"cebpf4jnsgd1na2vs0mg"},{"bike_id":"74126fec-dae1-4ee9-84d1-a94c78c517b3","system_id":"levelo_inurba_marseille","lat":43.25115,"lon":5.40339,"is_reserved":false,"is_disabled":false,"rental_uris":{"android":"levelo://app?vid=74126fec-dae1-4ee9-84d1-a94c78c517b3","ios":"levelo://app?vid=74126fec-dae1-4ee9-84d1-a94c78c517b3"},"vehicle_type_id":"4","last_reported":1736852819,"current_range_meters":39200,"station_id":"ce4bhlh2rcd13ifvqgig","pricing_plan_id":"cebpf4jnsgd1na2vs0mg"},{"bike_id":"ba5df164-d25c-4a1c-8679-1bd1a1db0642","system_id":"levelo_inurba_marseille","lat":43.33748,"lon":5.392,"is_reserved":false,"is_disabled":false,"rental_uris":{"android":"levelo://app?vid=ba5df164-d25c-4a1c-8679-1bd1a1db0642","ios":"levelo://app?vid=ba5df164-d25c-4a1c-8679-1bd1a1db0642"},"vehicle_type_id":"4","last_reported":1736852819,"current_range_meters":36400,"station_id":"ce4bhr92rcd13ifvqhsg","pricing_plan_id":"cebpf4jnsgd1na2vs0mg"},{"bike_id":"ee3a8e62-9612-4383-a90d-e2bce1f472cd","system_id":"levelo_inurba_marseille","lat":43.26009,"lon":5.41524,"is_reserved":false,"is_disabled":false,"rental_uris":{"android":"levelo://app?vid=ee3a8e62-9612-4383-a90d-e2bce1f472cd","ios":"levelo://app?vid=ee3a8e62-9612-4383-a90d-e2bce1f472cd"},"vehicle_type_id":"4","last_reported":1736852819,"current_range_meters":18000,"station_id":"","pricing_plan_id":"cebpf4jnsgd1na2vs0mg"},{"bike_id":"d3d1d986-2b28-46ee-a094-38668943266f","system_id":"levelo_inurba_marseille","lat":43.27563,"lon":5.38432,"is_reserved":false,"is_disabled":false,"rental_uris":{"android":"levelo://app?vid=d3d1d986-2b28-46ee-a094-38668943266f","ios":"levelo://app?vid=d3d1d986-2b28-46ee-a094-38668943266f"},"vehicle_type_id":"4","last_reported":1736852819,"current_range_meters":6800,"station_id":"ce4bhh92rcd13ifvqfi0","pricing_plan_id":"cebpf4jnsgd1na2vs0mg"},{"bike_id":"ddb41cf1-08d5-4912-801d-fd0c3b376b8a","system_id":"levelo_inurba_marseille","lat":43.29988,"lon":5.37176,"is_reserved":false,"is_disabled":false,"rental_uris":{"android":"levelo://app?vid=ddb41cf1-08d5-4912-801d-fd0c3b376b8a","ios":"levelo://app?vid=ddb41cf1-08d5-4912-801d-fd0c3b376b8a"},"vehicle_type_id":"4","last_reported":1736852819,"current_range_meters":35600,"station_id":"ce4bgr92rcd13ifvqc7g","pricing_plan_id":"cebpf4jnsgd1na2vs0mg"},{"bike_id":"1e72500a-a638-4270-b0f0-d3bef5f78eaa","system_id":"levelo_inurba_marseille","lat":43.23154,"lon":5.4373,"is_reserved":false,"is_disabled":false,"rental_uris":{"android":"levelo://app?vid=1e72500a-a638-4270-b0f0-d3bef5f78eaa","ios":"levelo://app?vid=1e72500a-a638-4270-b0f0-d3bef5f78eaa"},"vehicle_type_id":"4","last_reported":1736852819,"current_range_meters":38800,"station_id":"ce4bhmp2rcd13ifvqgog","pricing_plan_id":"cebpf4jnsgd1na2vs0mg"},{"bike_id":"d85a1d9b-f035-4b2a-858c-2526acab5ed6","system_id":"levelo_inurba_marseille","lat":43.30133,"lon":5.37426,"is_reserved":false,"is_disabled":true,"rental_uris":{"android":"levelo://app?vid=d85a1d9b-f035-4b2a-858c-2526acab5ed6","ios":"levelo://app?vid=d85a1d9b-f035-4b2a-858c-2526acab5ed6"},"vehicle_type_id":"4","last_reported":1736852819,"current_range_meters":35200,"station_id":"ce4bgs92rcd13ifvqcc0","pricing_plan_id":"cebpf4jnsgd1na2vs0mg"},{"bike_id":"c0b74adc-1200-45f2-b990-75a202f7838e","system_id":"levelo_inurba_marseille","lat":43.3026,"lon":5.37745,"is_reserved":false,"is_disabled":false,"rental_uris":{"android":"levelo://app?vid=c0b74adc-1200-45f2-b990-75a202f7838e","ios":"levelo://app?vid=c0b74adc-1200-45f2-b990-75a202f7838e"},"vehicle_type_id":"4","last_reported":1736852819,"current_range_meters":29600,"station_id":"ce4bguh2rcd13ifvqcj0","pricing_plan_id":"cebpf4jnsgd1na2vs0mg"},{"bike_id":"5901f4de-f320-42a7-a3ee-cdd54016ad77","system_id":"levelo_inurba_marseille","lat":43.27925,"lon":5.38725,"is_reserved":false,"is_disabled":false,"rental_uris":{"android":"levelo://app?vid=5901f4de-f320-42a7-a3ee-cdd54016ad77","ios":"levelo://app?vid=5901f4de-f320-42a7-a3ee-cdd54016ad77"},"vehicle_type_id":"4","last_reported":1736852819,"current_range_meters":38000,"station_id":"","pricing_plan_id":"cebpf4jnsgd1na2vs0mg"},{"bike_id":"4d8f2bd3-28e6-4a6b-bf9a-7e46e3c91edf","system_id":"levelo_inurba_marseille","lat":43.30161,"lon":5.37436,"is_reserved":false,"is_disabled":false,"rental_uris":{"android":"levelo://app?vid=4d8f2bd3-28e6-4a6b-bf9a-7e46e3c91edf","ios":"levelo://app?vid=4d8f2bd3-28e6-4a6b-bf9a-7e46e3c91edf"},"vehicle_type_id":"4","last_reported":1736852819,"current_range_meters":38800,"station_id":"ce4bgs92rcd13ifvqcc0","pricing_plan_id":"cebpf4jnsgd1na2vs0mg"},{"bike_id":"42cfeef1-ded8-43ac-8888-284da4376b57","system_id":"levelo_inurba_marseille","lat":43.32482,"lon":5.3656,"is_reserved":false,"is_disabled":false,"rental_uris":{"android":"levelo://app?vid=42cfeef1-ded8-43ac-8888-284da4376b57","ios":"levelo://app?vid=42cfeef1-ded8-43ac-8888-284da4376b57"},"vehicle_type_id":"4","last_reported":1736852819,"current_range_meters":28400,"station_id":"ce4bhs12rcd13ifvqhvg","pricing_plan_id":"cebpf4jnsgd1na2vs0mg"},{"bike_id":"ff772eaf-63b8-4746-9a05-9638aab8bcd5","system_id":"levelo_inurba_marseille","lat":43.28463,"lon":5.35893,"is_reserved":false,"is_disabled":false,"rental_uris":{"android":"levelo://app?vid=ff772eaf-63b8-4746-9a05-9638aab8bcd5","ios":"levelo://app?vid=ff772eaf-63b8-4746-9a05-9638aab8bcd5"},"vehicle_type_id":"4","last_reported":1736852819,"current_range_meters":14800,"station_id":"ce4bhah2rcd13ifvqei0","pricing_plan_id":"cebpf4jnsgd1na2vs0mg"},{"bike_id":"ffa01f30-4b8e-45c2-a0a4-b906f924e6f3","system_id":"levelo_inurba_marseille","lat":43.30881,"lon":5.37194,"is_reserved":false,"is_disabled":false,"rental_uris":{"android":"levelo://app?vid=ffa01f30-4b8e-45c2-a0a4-b906f924e6f3","ios":"levelo://app?vid=ffa01f30-4b8e-45c2-a0a4-b906f924e6f3"},"vehicle_type_id":"4","last_reported":1736852819,"current_range_meters":39200,"station_id":"ce4bguh2rcd13ifvqckg","pricing_plan_id":"cebpf4jnsgd1na2vs0mg"},{"bike_id":"59d914a9-7941-4d0c-ad3f-66ae0befc663","system_id":"levelo_inurba_marseille","lat":43.28031,"lon":5.36958,"is_reserved":false,"is_disabled":false,"rental_uris":{"android":"levelo://app?vid=59d914a9-7941-4d0c-ad3f-66ae0befc663","ios":"levelo://app?vid=59d914a9-7941-4d0c-ad3f-66ae0befc663"},"vehicle_type_id":"4","last_reported":1736852819,"current_range_meters":8000,"station_id":"ce4bha12rcd13ifvqef0","pricing_plan_id":"cebpf4jnsgd1na2vs0mg"},{"bike_id":"426ee80e-06b0-4d0f-86a5-ea8ad64aaa11","system_id":"levelo_inurba_marseille","lat":43.28893,"lon":5.43798,"is_reserved":false,"is_disabled":false,"rental_uris":{"android":"levelo://app?vid=426ee80e-06b0-4d0f-86a5-ea8ad64aaa11","ios":"levelo://app?vid=426ee80e-06b0-4d0f-86a5-ea8ad64aaa11"},"vehicle_type_id":"4","last_reported":1736852819,"current_range_meters":6000,"station_id":"","pricing_plan_id":"cebpf4jnsgd1na2vs0mg"},{"bike_id":"0e149c29-3117-4028-b082-f697f135dae1","system_id":"levelo_inurba_marseille","lat":43.3362,"lon":5.41035,"is_reserved":false,"is_disabled":false,"rental_uris":{"android":"levelo://app?vid=0e149c29-3117-4028-b082-f697f135dae1","ios":"levelo://app?vid=0e149c29-3117-4028-b082-f697f135dae1"},"vehicle_type_id":"4","last_reported":1736852819,"current_range_meters":17600,"station_id":"ce4bhqh2rcd13ifvqhmg","pricing_plan_id":"cebpf4jnsgd1na2vs0mg"},{"bike_id":"192943ff-6579-4067-8b54-834fbf6d8760","system_id":"levelo_inurba_marseille","lat":43.27603,"lon":5.36143,"is_reserved":false,"is_disabled":false,"rental_uris":{"android":"levelo://app?vid=192943ff-6579-4067-8b54-834fbf6d8760","ios":"levelo://app?vid=192943ff-6579-4067-8b54-834fbf6d8760"},"vehicle_type_id":"4","last_reported":1736852819,"current_range_meters":39200,"station_id":"ce4bgj92rcd13ifvqbe0","pricing_plan_id":"cebpf4jnsgd1na2vs0mg"},{"bike_id":"fea1b24d-bbfb-474a-b028-8645483cd7e6","system_id":"levelo_inurba_marseille","lat":43.2738,"lon":5.3627,"is_reserved":false,"is_disabled":false,"rental_uris":{"android":"levelo://app?vid=fea1b24d-bbfb-474a-b028-8645483cd7e6","ios":"levelo://app?vid=fea1b24d-bbfb-474a-b028-8645483cd7e6"},"vehicle_type_id":"4","last_reported":1736852819,"current_range_meters":28800,"station_id":"ce4bhbh2rcd13ifvqeo0","pricing_plan_id":"cebpf4jnsgd1na2vs0mg"},{"bike_id":"1a0edb26-6918-425b-8387-f290be87a2c0","system_id":"levelo_inurba_marseille","lat":43.33109,"lon":5.3825,"is_reserved":false,"is_disabled":false,"rental_uris":{"android":"levelo://app?vid=1a0edb26-6918-425b-8387-f290be87a2c0","ios":"levelo://app?vid=1a0edb26-6918-425b-8387-f290be87a2c0"},"vehicle_type_id":"4","last_reported":1736852819,"current_range_meters":36400,"station_id":"","pricing_plan_id":"cebpf4jnsgd1na2vs0mg"},{"bike_id":"13fe195f-e01b-4420-aa12-4802e9b2b635","system_id":"levelo_inurba_marseille","lat":43.31381,"lon":5.36733,"is_reserved":false,"is_disabled":false,"rental_uris":{"android":"levelo://app?vid=13fe195f-e01b-4420-aa12-4802e9b2b635","ios":"levelo://app?vid=13fe195f-e01b-4420-aa12-4802e9b2b635"},"vehicle_type_id":"4","last_reported":1736852819,"current_range_meters":37600,"station_id":"ce4bgr92rcd13ifvqc6g","pricing_plan_id":"cebpf4jnsgd1na2vs0mg"},{"bike_id":"ac7622ab-4830-458c-b11f-ed9612c9d1cb","system_id":"levelo_inurba_marseille","lat":43.29622,"lon":5.37716,"is_reserved":false,"is_disabled":false,"rental_uris":{"android":"levelo://app?vid=ac7622ab-4830-458c-b11f-ed9612c9d1cb","ios":"levelo://app?vid=ac7622ab-4830-458c-b11f-ed9612c9d1cb"},"vehicle_type_id":"4","last_reported":1736852819,"current_range_meters":25200,"station_id":"ce4bgi92rcd13ifvqb90","pricing_plan_id":"cebpf4jnsgd1na2vs0mg"},{"bike_id":"ab10846d-13f2-4f21-8075-25b6583e29b0","system_id":"levelo_inurba_marseille","lat":43.25965,"lon":5.40926,"is_reserved":false,"is_disabled":false,"rental_uris":{"android":"levelo://app?vid=ab10846d-13f2-4f21-8075-25b6583e29b0","ios":"levelo://app?vid=ab10846d-13f2-4f21-8075-25b6583e29b0"},"vehicle_type_id":"4","last_reported":1736852819,"current_range_meters":18800,"station_id":"ce4bhm92rcd13ifvqglg","pricing_plan_id":"cebpf4jnsgd1na2vs0mg"},{"bike_id":"f4dbc556-58b0-4dfd-be99-18a51c032520","system_id":"levelo_inurba_marseille","lat":43.24195,"lon":5.39723,"is_reserved":false,"is_disabled":false,"rental_uris":{"android":"levelo://app?vid=f4dbc556-58b0-4dfd-be99-18a51c032520","ios":"levelo://app?vid=f4dbc556-58b0-4dfd-be99-18a51c032520"},"vehicle_type_id":"4","last_reported":1736852819,"current_range_meters":27600,"station_id":"ce4bhn12rcd13ifvqgpg","pricing_plan_id":"cebpf4jnsgd1na2vs0mg"},{"bike_id":"133d7ade-5d2d-4323-8b44-bbdc59a41ecb","system_id":"levelo_inurba_marseille","lat":43.281986,"lon":5.386339,"is_reserved":false,"is_disabled":false,"rental_uris":{"android":"levelo://app?vid=133d7ade-5d2d-4323-8b44-bbdc59a41ecb","ios":"levelo://app?vid=133d7ade-5d2d-4323-8b44-bbdc59a41ecb"},"vehicle_type_id":"4","last_reported":1736852819,"current_range_meters":20400,"station_id":"ce4bh4p2rcd13ifvqe0g","pricing_plan_id":"cebpf4jnsgd1na2vs0mg"},{"bike_id":"3b56bcbd-401b-43ad-a619-4787e24326d9","system_id":"levelo_inurba_marseille","lat":43.28383,"lon":5.3863,"is_reserved":false,"is_disabled":false,"rental_uris":{"android":"levelo://app?vid=3b56bcbd-401b-43ad-a619-4787e24326d9","ios":"levelo://app?vid=3b56bcbd-401b-43ad-a619-4787e24326d9"},"vehicle_type_id":"4","last_reported":1736852819,"current_range_meters":28800,"station_id":"ce4bh492rcd13ifvqdvg","pricing_plan_id":"cebpf4jnsgd1na2vs0mg"},{"bike_id":"2c706f5e-b3a2-4f62-b5b0-817900f3e0ad","system_id":"levelo_inurba_marseille","lat":43.30525,"lon":5.36745,"is_reserved":false,"is_disabled":false,"rental_uris":{"android":"levelo://app?vid=2c706f5e-b3a2-4f62-b5b0-817900f3e0ad","ios":"levelo://app?vid=2c706f5e-b3a2-4f62-b5b0-817900f3e0ad"},"vehicle_type_id":"4","last_reported":1736852819,"current_range_meters":38800,"station_id":"ce4bgrp2rcd13ifvqc9g","pricing_plan_id":"cebpf4jnsgd1na2vs0mg"},{"bike_id":"d868d77f-7805-419a-a8ab-84b74acf4c18","system_id":"levelo_inurba_marseille","lat":43.30542,"lon":5.36573,"is_reserved":false,"is_disabled":false,"rental_uris":{"android":"levelo://app?vid=d868d77f-7805-419a-a8ab-84b74acf4c18","ios":"levelo://app?vid=d868d77f-7805-419a-a8ab-84b74acf4c18"},"vehicle_type_id":"4","last_reported":1736852819,"current_range_meters":32800,"station_id":"ce4bgs12rcd13ifvqcag","pricing_plan_id":"cebpf4jnsgd1na2vs0mg"},{"bike_id":"ddb655eb-49bb-4072-97bd-da7cdf7aed71","system_id":"levelo_inurba_marseille","lat":43.28664,"lon":5.36352,"is_reserved":false,"is_disabled":false,"rental_uris":{"android":"levelo://app?vid=ddb655eb-49bb-4072-97bd-da7cdf7aed71","ios":"levelo://app?vid=ddb655eb-49bb-4072-97bd-da7cdf7aed71"},"vehicle_type_id":"4","last_reported":1736852819,"current_range_meters":36800,"station_id":"ce4bhah2rcd13ifvqej0","pricing_plan_id":"cebpf4jnsgd1na2vs0mg"},{"bike_id":"9f6f071c-7c59-4d08-9963-df26a1256e44","system_id":"levelo_inurba_marseille","lat":43.24642,"lon":5.38925,"is_reserved":false,"is_disabled":false,"rental_uris":{"android":"levelo://app?vid=9f6f071c-7c59-4d08-9963-df26a1256e44","ios":"levelo://app?vid=9f6f071c-7c59-4d08-9963-df26a1256e44"},"vehicle_type_id":"4","last_reported":1736852819,"current_range_meters":39200,"station_id":"ce4bhg12rcd13ifvqf60","pricing_plan_id":"cebpf4jnsgd1na2vs0mg"},{"bike_id":"dab69371-8668-4bf7-9a66-12abe301e40b","system_id":"levelo_inurba_marseille","lat":43.30151,"lon":5.38077,"is_reserved":false,"is_disabled":false,"rental_uris":{"android":"levelo://app?vid=dab69371-8668-4bf7-9a66-12abe301e40b","ios":"levelo://app?vid=dab69371-8668-4bf7-9a66-12abe301e40b"},"vehicle_type_id":"4","last_reported":1736852819,"current_range_meters":16400,"station_id":"ce4bgjp2rcd13ifvqbh0","pricing_plan_id":"cebpf4jnsgd1na2vs0mg"},{"bike_id":"ade1ffd7-379f-44ee-93e1-8c261178e187","system_id":"levelo_inurba_marseille","lat":43.24807,"lon":5.37459,"is_reserved":false,"is_disabled":false,"rental_uris":{"android":"levelo://app?vid=ade1ffd7-379f-44ee-93e1-8c261178e187","ios":"levelo://app?vid=ade1ffd7-379f-44ee-93e1-8c261178e187"},"vehicle_type_id":"4","last_reported":1736852819,"current_range_meters":20400,"station_id":"ce4bhgh2rcd13ifvqfb0","pricing_plan_id":"cebpf4jnsgd1na2vs0mg"},{"bike_id":"922577b3-3ab8-4e4d-b4f0-8d7fca71fe67","system_id":"levelo_inurba_marseille","lat":43.27564,"lon":5.38437,"is_reserved":false,"is_disabled":false,"rental_uris":{"android":"levelo://app?vid=922577b3-3ab8-4e4d-b4f0-8d7fca71fe67","ios":"levelo://app?vid=922577b3-3ab8-4e4d-b4f0-8d7fca71fe67"},"vehicle_type_id":"4","last_reported":1736852819,"current_range_meters":28400,"station_id":"ce4bhh92rcd13ifvqfi0","pricing_plan_id":"cebpf4jnsgd1na2vs0mg"},{"bike_id":"826f1d68-4442-43e0-8fbe-e34894784d19","system_id":"levelo_inurba_marseille","lat":43.29594,"lon":5.38112,"is_reserved":false,"is_disabled":false,"rental_uris":{"android":"levelo://app?vid=826f1d68-4442-43e0-8fbe-e34894784d19","ios":"levelo://app?vid=826f1d68-4442-43e0-8fbe-e34894784d19"},"vehicle_type_id":"4","last_reported":1736852819,"current_range_meters":12800,"station_id":"ce4bgl12rcd13ifvqbo0","pricing_plan_id":"cebpf4jnsgd1na2vs0mg"},{"bike_id":"755e5c0a-8de7-4ee5-9d4e-5ec609711170","system_id":"levelo_inurba_marseille","lat":43.29606,"lon":5.38088,"is_reserved":false,"is_disabled":true,"rental_uris":{"android":"levelo://app?vid=755e5c0a-8de7-4ee5-9d4e-5ec609711170","ios":"levelo://app?vid=755e5c0a-8de7-4ee5-9d4e-5ec609711170"},"vehicle_type_id":"4","last_reported":1736852819,"current_range_meters":30800,"station_id":"ce4bgl12rcd13ifvqbo0","pricing_plan_id":"cebpf4jnsgd1na2vs0mg"},{"bike_id":"89096f8f-b31f-4f84-85ad-b01b669e00f2","system_id":"levelo_inurba_marseille","lat":43.29722,"lon":5.37692,"is_reserved":false,"is_disabled":true,"rental_uris":{"android":"levelo://app?vid=89096f8f-b31f-4f84-85ad-b01b669e00f2","ios":"levelo://app?vid=89096f8f-b31f-4f84-85ad-b01b669e00f2"},"vehicle_type_id":"4","last_reported":1736852819,"current_range_meters":25200,"station_id":"ce4bgkh2rcd13ifvqbl0","pricing_plan_id":"cebpf4jnsgd1na2vs0mg"},{"bike_id":"7a1457f0-7f09-4eea-b1f3-2e9174a14fd4","system_id":"levelo_inurba_marseille","lat":43.28415,"lon":5.37537,"is_reserved":false,"is_disabled":true,"rental_uris":{"android":"levelo://app?vid=7a1457f0-7f09-4eea-b1f3-2e9174a14fd4","ios":"levelo://app?vid=7a1457f0-7f09-4eea-b1f3-2e9174a14fd4"},"vehicle_type_id":"4","last_reported":1736852819,"current_range_meters":1600,"station_id":"ce4bh412rcd13ifvqds0","pricing_plan_id":"cebpf4jnsgd1na2vs0mg"},{"bike_id":"cc9cf4e4-bd05-4828-9c34-27bb5e5951f4","system_id":"levelo_inurba_marseille","lat":43.25929,"lon":5.40896,"is_reserved":false,"is_disabled":false,"rental_uris":{"android":"levelo://app?vid=cc9cf4e4-bd05-4828-9c34-27bb5e5951f4","ios":"levelo://app?vid=cc9cf4e4-bd05-4828-9c34-27bb5e5951f4"},"vehicle_type_id":"4","last_reported":1736852819,"current_range_meters":4800,"station_id":"ce4bhm92rcd13ifvqglg","pricing_plan_id":"cebpf4jnsgd1na2vs0mg"},{"bike_id":"d33744cd-ebfe-4100-8a8a-ae550561ad04","system_id":"levelo_inurba_marseille","lat":43.32535,"lon":5.41447,"is_reserved":false,"is_disabled":false,"rental_uris":{"android":"levelo://app?vid=d33744cd-ebfe-4100-8a8a-ae550561ad04","ios":"levelo://app?vid=d33744cd-ebfe-4100-8a8a-ae550561ad04"},"vehicle_type_id":"4","last_reported":1736852819,"current_range_meters":9600,"station_id":"ce4bhq12rcd13ifvqhhg","pricing_plan_id":"cebpf4jnsgd1na2vs0mg"},{"bike_id":"a15980ac-c225-4e68-8982-6cc8c4cbfd79","system_id":"levelo_inurba_marseille","lat":43.2319,"lon":5.35566,"is_reserved":false,"is_disabled":false,"rental_uris":{"android":"levelo://app?vid=a15980ac-c225-4e68-8982-6cc8c4cbfd79","ios":"levelo://app?vid=a15980ac-c225-4e68-8982-6cc8c4cbfd79"},"vehicle_type_id":"4","last_reported":1736852819,"current_range_meters":6800,"station_id":"ce4bhu92rcd13ifvqi70","pricing_plan_id":"cebpf4jnsgd1na2vs0mg"},{"bike_id":"4ce341d0-587a-4da8-a763-1eff0cb53c70","system_id":"levelo_inurba_marseille","lat":43.30268,"lon":5.3774,"is_reserved":false,"is_disabled":false,"rental_uris":{"android":"levelo://app?vid=4ce341d0-587a-4da8-a763-1eff0cb53c70","ios":"levelo://app?vid=4ce341d0-587a-4da8-a763-1eff0cb53c70"},"vehicle_type_id":"4","last_reported":1736852819,"current_range_meters":38800,"station_id":"ce4bguh2rcd13ifvqcj0","pricing_plan_id":"cebpf4jnsgd1na2vs0mg"},{"bike_id":"3b74a056-c0cf-4f44-8772-22ed33115fcd","system_id":"levelo_inurba_marseille","lat":43.23187,"lon":5.39986,"is_reserved":false,"is_disabled":false,"rental_uris":{"android":"levelo://app?vid=3b74a056-c0cf-4f44-8772-22ed33115fcd","ios":"levelo://app?vid=3b74a056-c0cf-4f44-8772-22ed33115fcd"},"vehicle_type_id":"4","last_reported":1736852819,"current_range_meters":38800,"station_id":"ce4bhn12rcd13ifvqgqg","pricing_plan_id":"cebpf4jnsgd1na2vs0mg"},{"bike_id":"3f404148-f2c7-44b8-a466-977741fe2f8d","system_id":"levelo_inurba_marseille","lat":43.27955,"lon":5.39611,"is_reserved":false,"is_disabled":false,"rental_uris":{"android":"levelo://app?vid=3f404148-f2c7-44b8-a466-977741fe2f8d","ios":"levelo://app?vid=3f404148-f2c7-44b8-a466-977741fe2f8d"},"vehicle_type_id":"4","last_reported":1736852819,"current_range_meters":29600,"station_id":"ce4bhf92rcd13ifvqf40","pricing_plan_id":"cebpf4jnsgd1na2vs0mg"},{"bike_id":"7a6c262a-cea0-4455-9870-5049b5036297","system_id":"levelo_inurba_marseille","lat":43.24071,"lon":5.37733,"is_reserved":false,"is_disabled":false,"rental_uris":{"android":"levelo://app?vid=7a6c262a-cea0-4455-9870-5049b5036297","ios":"levelo://app?vid=7a6c262a-cea0-4455-9870-5049b5036297"},"vehicle_type_id":"4","last_reported":1736852819,"current_range_meters":32400,"station_id":"ce4bhnp2rcd13ifvqgvg","pricing_plan_id":"cebpf4jnsgd1na2vs0mg"},{"bike_id":"e37b8d0a-fb99-491e-adfa-c0a2653cd732","system_id":"levelo_inurba_marseille","lat":43.27572,"lon":5.3842,"is_reserved":false,"is_disabled":false,"rental_uris":{"android":"levelo://app?vid=e37b8d0a-fb99-491e-adfa-c0a2653cd732","ios":"levelo://app?vid=e37b8d0a-fb99-491e-adfa-c0a2653cd732"},"vehicle_type_id":"4","last_reported":1736852819,"current_range_meters":29600,"station_id":"ce4bhh92rcd13ifvqfi0","pricing_plan_id":"cebpf4jnsgd1na2vs0mg"},{"bike_id":"51bb6953-dea8-4e82-96bf-52696267905f","system_id":"levelo_inurba_marseille","lat":43.23055,"lon":5.35504,"is_reserved":false,"is_disabled":false,"rental_uris":{"android":"levelo://app?vid=51bb6953-dea8-4e82-96bf-52696267905f","ios":"levelo://app?vid=51bb6953-dea8-4e82-96bf-52696267905f"},"vehicle_type_id":"4","last_reported":1736852819,"current_range_meters":8800,"station_id":"cpo3342slgdg3j2ifvpg","pricing_plan_id":"cebpf4jnsgd1na2vs0mg"},{"bike_id":"635afa46-a2a9-4dd6-94bd-5753e19a7635","system_id":"levelo_inurba_marseille","lat":43.25116,"lon":5.40323,"is_reserved":false,"is_disabled":false,"rental_uris":{"android":"levelo://app?vid=635afa46-a2a9-4dd6-94bd-5753e19a7635","ios":"levelo://app?vid=635afa46-a2a9-4dd6-94bd-5753e19a7635"},"vehicle_type_id":"4","last_reported":1736852819,"current_range_meters":8400,"station_id":"ce4bhlh2rcd13ifvqgig","pricing_plan_id":"cebpf4jnsgd1na2vs0mg"},{"bike_id":"af1b3085-ad74-478e-9650-53d497cb1af1","system_id":"levelo_inurba_marseille","lat":43.3014,"lon":5.3879,"is_reserved":false,"is_disabled":false,"rental_uris":{"android":"levelo://app?vid=af1b3085-ad74-478e-9650-53d497cb1af1","ios":"levelo://app?vid=af1b3085-ad74-478e-9650-53d497cb1af1"},"vehicle_type_id":"4","last_reported":1736852819,"current_range_meters":36800,"station_id":"ce4bghh2rcd13ifvqb60","pricing_plan_id":"cebpf4jnsgd1na2vs0mg"},{"bike_id":"b8c2583c-c1e3-4865-b018-01fde5f267ce","system_id":"levelo_inurba_marseille","lat":43.29374,"lon":5.37845,"is_reserved":false,"is_disabled":false,"rental_uris":{"android":"levelo://app?vid=b8c2583c-c1e3-4865-b018-01fde5f267ce","ios":"levelo://app?vid=b8c2583c-c1e3-4865-b018-01fde5f267ce"},"vehicle_type_id":"4","last_reported":1736852819,"current_range_meters":30800,"station_id":"ce4bgjh2rcd13ifvqbf0","pricing_plan_id":"cebpf4jnsgd1na2vs0mg"},{"bike_id":"2ac2878f-2b37-42c9-931a-7624beb3e6fe","system_id":"levelo_inurba_marseille","lat":43.29229,"lon":5.36067,"is_reserved":false,"is_disabled":false,"rental_uris":{"android":"levelo://app?vid=2ac2878f-2b37-42c9-931a-7624beb3e6fe","ios":"levelo://app?vid=2ac2878f-2b37-42c9-931a-7624beb3e6fe"},"vehicle_type_id":"4","last_reported":1736852819,"current_range_meters":19200,"station_id":"ce4bhbh2rcd13ifvqeqg","pricing_plan_id":"cebpf4jnsgd1na2vs0mg"},{"bike_id":"e1e9749e-383c-466d-a4ec-a8eb84a42420","system_id":"levelo_inurba_marseille","lat":43.3014,"lon":5.37409,"is_reserved":false,"is_disabled":false,"rental_uris":{"android":"levelo://app?vid=e1e9749e-383c-466d-a4ec-a8eb84a42420","ios":"levelo://app?vid=e1e9749e-383c-466d-a4ec-a8eb84a42420"},"vehicle_type_id":"4","last_reported":1736852819,"current_range_meters":7200,"station_id":"ce4bgs92rcd13ifvqcc0","pricing_plan_id":"cebpf4jnsgd1na2vs0mg"},{"bike_id":"a4e288a5-ac6a-42fd-81ad-5d913c49f177","system_id":"levelo_inurba_marseille","lat":43.27609,"lon":5.3612,"is_reserved":false,"is_disabled":false,"rental_uris":{"android":"levelo://app?vid=a4e288a5-ac6a-42fd-81ad-5d913c49f177","ios":"levelo://app?vid=a4e288a5-ac6a-42fd-81ad-5d913c49f177"},"vehicle_type_id":"4","last_reported":1736852819,"current_range_meters":38400,"station_id":"ce4bgj92rcd13ifvqbe0","pricing_plan_id":"cebpf4jnsgd1na2vs0mg"},{"bike_id":"43f0aab3-581c-4ae5-a07f-bffcc27a96c2","system_id":"levelo_inurba_marseille","lat":43.29592,"lon":5.37486,"is_reserved":false,"is_disabled":true,"rental_uris":{"android":"levelo://app?vid=43f0aab3-581c-4ae5-a07f-bffcc27a96c2","ios":"levelo://app?vid=43f0aab3-581c-4ae5-a07f-bffcc27a96c2"},"vehicle_type_id":"4","last_reported":1736852819,"current_range_meters":38800,"station_id":"ce4bgh92rcd13ifvqb50","pricing_plan_id":"cebpf4jnsgd1na2vs0mg"},{"bike_id":"f4181291-26ce-4ba8-8c6c-edabefdc9f05","system_id":"levelo_inurba_marseille","lat":43.25495,"lon":5.3766,"is_reserved":false,"is_disabled":false,"rental_uris":{"android":"levelo://app?vid=f4181291-26ce-4ba8-8c6c-edabefdc9f05","ios":"levelo://app?vid=f4181291-26ce-4ba8-8c6c-edabefdc9f05"},"vehicle_type_id":"4","last_reported":1736852819,"current_range_meters":35200,"station_id":"ce4bhh12rcd13ifvqff0","pricing_plan_id":"cebpf4jnsgd1na2vs0mg"},{"bike_id":"0692f5cb-322a-4ce9-bdd8-a8004dac8c3a","system_id":"levelo_inurba_marseille","lat":43.301484,"lon":5.37423,"is_reserved":false,"is_disabled":false,"rental_uris":{"android":"levelo://app?vid=0692f5cb-322a-4ce9-bdd8-a8004dac8c3a","ios":"levelo://app?vid=0692f5cb-322a-4ce9-bdd8-a8004dac8c3a"},"vehicle_type_id":"4","last_reported":1736852819,"current_range_meters":28000,"station_id":"ce4bgs92rcd13ifvqcc0","pricing_plan_id":"cebpf4jnsgd1na2vs0mg"},{"bike_id":"a31e74df-a4bd-47b0-b70f-97ec6ff3ac39","system_id":"levelo_inurba_marseille","lat":43.24547,"lon":5.39536,"is_reserved":false,"is_disabled":false,"rental_uris":{"android":"levelo://app?vid=a31e74df-a4bd-47b0-b70f-97ec6ff3ac39","ios":"levelo://app?vid=a31e74df-a4bd-47b0-b70f-97ec6ff3ac39"},"vehicle_type_id":"4","last_reported":1736852819,"current_range_meters":23200,"station_id":"ce4bhlp2rcd13ifvqgjg","pricing_plan_id":"cebpf4jnsgd1na2vs0mg"},{"bike_id":"5990c77e-0c3e-49e6-8740-517768f80344","system_id":"levelo_inurba_marseille","lat":43.24186,"lon":5.39731,"is_reserved":false,"is_disabled":false,"rental_uris":{"android":"levelo://app?vid=5990c77e-0c3e-49e6-8740-517768f80344","ios":"levelo://app?vid=5990c77e-0c3e-49e6-8740-517768f80344"},"vehicle_type_id":"4","last_reported":1736852819,"current_range_meters":38400,"station_id":"ce4bhn12rcd13ifvqgpg","pricing_plan_id":"cebpf4jnsgd1na2vs0mg"},{"bike_id":"56a37990-c381-414a-8c27-59f20eae88ce","system_id":"levelo_inurba_marseille","lat":43.25002,"lon":5.38936,"is_reserved":false,"is_disabled":false,"rental_uris":{"android":"levelo://app?vid=56a37990-c381-414a-8c27-59f20eae88ce","ios":"levelo://app?vid=56a37990-c381-414a-8c27-59f20eae88ce"},"vehicle_type_id":"4","last_reported":1736852819,"current_range_meters":19200,"station_id":"ce4bhgp2rcd13ifvqfd0","pricing_plan_id":"cebpf4jnsgd1na2vs0mg"},{"bike_id":"55bfdf2d-2a19-480c-a8ff-d87e1a540221","system_id":"levelo_inurba_marseille","lat":43.25002,"lon":5.38929,"is_reserved":false,"is_disabled":false,"rental_uris":{"android":"levelo://app?vid=55bfdf2d-2a19-480c-a8ff-d87e1a540221","ios":"levelo://app?vid=55bfdf2d-2a19-480c-a8ff-d87e1a540221"},"vehicle_type_id":"4","last_reported":1736852819,"current_range_meters":8400,"station_id":"ce4bhgp2rcd13ifvqfd0","pricing_plan_id":"cebpf4jnsgd1na2vs0mg"},{"bike_id":"a56bdef2-14b8-4e02-b3bc-538917283971","system_id":"levelo_inurba_marseille","lat":43.25094,"lon":5.39517,"is_reserved":false,"is_disabled":false,"rental_uris":{"android":"levelo://app?vid=a56bdef2-14b8-4e02-b3bc-538917283971","ios":"levelo://app?vid=a56bdef2-14b8-4e02-b3bc-538917283971"},"vehicle_type_id":"4","last_reported":1736852819,"current_range_meters":32000,"station_id":"ce4bhm12rcd13ifvqgkg","pricing_plan_id":"cebpf4jnsgd1na2vs0mg"},{"bike_id":"89ddaf93-2ae2-4b48-bce1-98dc06f07785","system_id":"levelo_inurba_marseille","lat":43.26054,"lon":5.39402,"is_reserved":false,"is_disabled":false,"rental_uris":{"android":"levelo://app?vid=89ddaf93-2ae2-4b48-bce1-98dc06f07785","ios":"levelo://app?vid=89ddaf93-2ae2-4b48-bce1-98dc06f07785"},"vehicle_type_id":"4","last_reported":1736852819,"current_range_meters":12800,"station_id":"ce4bhh92rcd13ifvqfj0","pricing_plan_id":"cebpf4jnsgd1na2vs0mg"},{"bike_id":"17430803-3880-4949-8e42-75706315dd82","system_id":"levelo_inurba_marseille","lat":43.30444,"lon":5.39757,"is_reserved":false,"is_disabled":false,"rental_uris":{"android":"levelo://app?vid=17430803-3880-4949-8e42-75706315dd82","ios":"levelo://app?vid=17430803-3880-4949-8e42-75706315dd82"},"vehicle_type_id":"4","last_reported":1736852819,"current_range_meters":33600,"station_id":"ce4bh092rcd13ifvqd20","pricing_plan_id":"cebpf4jnsgd1na2vs0mg"},{"bike_id":"b51b8509-c21e-40ac-802b-edd56e55cdd0","system_id":"levelo_inurba_marseille","lat":43.30358,"lon":5.41896,"is_reserved":false,"is_disabled":true,"rental_uris":{"android":"levelo://app?vid=b51b8509-c21e-40ac-802b-edd56e55cdd0","ios":"levelo://app?vid=b51b8509-c21e-40ac-802b-edd56e55cdd0"},"vehicle_type_id":"4","last_reported":1736852819,"current_range_meters":20800,"station_id":"ce4bhop2rcd13ifvqh7g","pricing_plan_id":"cebpf4jnsgd1na2vs0mg"},{"bike_id":"78fc2529-851e-44ea-9e17-e5a76c9197b1","system_id":"levelo_inurba_marseille","lat":43.29733,"lon":5.3768,"is_reserved":false,"is_disabled":true,"rental_uris":{"android":"levelo://app?vid=78fc2529-851e-44ea-9e17-e5a76c9197b1","ios":"levelo://app?vid=78fc2529-851e-44ea-9e17-e5a76c9197b1"},"vehicle_type_id":"4","last_reported":1736852819,"current_range_meters":34800,"station_id":"ce4bgkh2rcd13ifvqbl0","pricing_plan_id":"cebpf4jnsgd1na2vs0mg"},{"bike_id":"de2e241b-d2f1-4ee0-9a24-c1ccace65e13","system_id":"levelo_inurba_marseille","lat":43.32373,"lon":5.38888,"is_reserved":false,"is_disabled":true,"rental_uris":{"android":"levelo://app?vid=de2e241b-d2f1-4ee0-9a24-c1ccace65e13","ios":"levelo://app?vid=de2e241b-d2f1-4ee0-9a24-c1ccace65e13"},"vehicle_type_id":"4","last_reported":1736852819,"current_range_meters":2000,"station_id":"ce4bhqp2rcd13ifvqhog","pricing_plan_id":"cebpf4jnsgd1na2vs0mg"},{"bike_id":"23e3dc7e-8426-4547-ad72-0a247a82c950","system_id":"levelo_inurba_marseille","lat":43.29848,"lon":5.36288,"is_reserved":false,"is_disabled":true,"rental_uris":{"android":"levelo://app?vid=23e3dc7e-8426-4547-ad72-0a247a82c950","ios":"levelo://app?vid=23e3dc7e-8426-4547-ad72-0a247a82c950"},"vehicle_type_id":"4","last_reported":1736852819,"current_range_meters":38800,"station_id":"ce4bgpp2rcd13ifvqc3g","pricing_plan_id":"cebpf4jnsgd1na2vs0mg"},{"bike_id":"297fe3a9-b61b-49d2-b16c-9f94aaaf7d40","system_id":"levelo_inurba_marseille","lat":43.26709,"lon":5.38258,"is_reserved":false,"is_disabled":false,"rental_uris":{"android":"levelo://app?vid=297fe3a9-b61b-49d2-b16c-9f94aaaf7d40","ios":"levelo://app?vid=297fe3a9-b61b-49d2-b16c-9f94aaaf7d40"},"vehicle_type_id":"4","last_reported":1736852819,"current_range_meters":38800,"station_id":"ce4bhg92rcd13ifvqf90","pricing_plan_id":"cebpf4jnsgd1na2vs0mg"},{"bike_id":"0afc7826-9d37-482d-9261-bcf7fddfeae9","system_id":"levelo_inurba_marseille","lat":43.2694,"lon":5.38652,"is_reserved":false,"is_disabled":false,"rental_uris":{"android":"levelo://app?vid=0afc7826-9d37-482d-9261-bcf7fddfeae9","ios":"levelo://app?vid=0afc7826-9d37-482d-9261-bcf7fddfeae9"},"vehicle_type_id":"4","last_reported":1736852819,"current_range_meters":38800,"station_id":"ce4bhh92rcd13ifvqfh0","pricing_plan_id":"cebpf4jnsgd1na2vs0mg"},{"bike_id":"1666fb4e-d472-427b-85c1-4bed9c30c3c3","system_id":"levelo_inurba_marseille","lat":43.29368,"lon":5.3785,"is_reserved":false,"is_disabled":false,"rental_uris":{"android":"levelo://app?vid=1666fb4e-d472-427b-85c1-4bed9c30c3c3","ios":"levelo://app?vid=1666fb4e-d472-427b-85c1-4bed9c30c3c3"},"vehicle_type_id":"4","last_reported":1736852819,"current_range_meters":2800,"station_id":"ce4bgjh2rcd13ifvqbf0","pricing_plan_id":"cebpf4jnsgd1na2vs0mg"},{"bike_id":"24017be9-d1a6-4333-9509-641e776c3c03","system_id":"levelo_inurba_marseille","lat":43.24645,"lon":5.38903,"is_reserved":false,"is_disabled":false,"rental_uris":{"android":"levelo://app?vid=24017be9-d1a6-4333-9509-641e776c3c03","ios":"levelo://app?vid=24017be9-d1a6-4333-9509-641e776c3c03"},"vehicle_type_id":"4","last_reported":1736852819,"current_range_meters":39200,"station_id":"ce4bhg12rcd13ifvqf60","pricing_plan_id":"cebpf4jnsgd1na2vs0mg"},{"bike_id":"9684ffc1-6103-46e9-84e5-28fbefb9518a","system_id":"levelo_inurba_marseille","lat":43.28,"lon":5.4166,"is_reserved":false,"is_disabled":false,"rental_uris":{"android":"levelo://app?vid=9684ffc1-6103-46e9-84e5-28fbefb9518a","ios":"levelo://app?vid=9684ffc1-6103-46e9-84e5-28fbefb9518a"},"vehicle_type_id":"4","last_reported":1736852819,"current_range_meters":17200,"station_id":"ce4bho12rcd13ifvqh1g","pricing_plan_id":"cebpf4jnsgd1na2vs0mg"},{"bike_id":"bd01f10b-dc0e-420f-bd5c-058aa6946842","system_id":"levelo_inurba_marseille","lat":43.27201,"lon":5.39195,"is_reserved":false,"is_disabled":false,"rental_uris":{"android":"levelo://app?vid=bd01f10b-dc0e-420f-bd5c-058aa6946842","ios":"levelo://app?vid=bd01f10b-dc0e-420f-bd5c-058aa6946842"},"vehicle_type_id":"4","last_reported":1736852819,"current_range_meters":10000,"station_id":"ce4bhhp2rcd13ifvqfm0","pricing_plan_id":"cebpf4jnsgd1na2vs0mg"},{"bike_id":"45324790-abcf-4a91-8b9e-6b7c17eae013","system_id":"levelo_inurba_marseille","lat":43.27375,"lon":5.36253,"is_reserved":false,"is_disabled":false,"rental_uris":{"android":"levelo://app?vid=45324790-abcf-4a91-8b9e-6b7c17eae013","ios":"levelo://app?vid=45324790-abcf-4a91-8b9e-6b7c17eae013"},"vehicle_type_id":"4","last_reported":1736852819,"current_range_meters":6000,"station_id":"ce4bhbh2rcd13ifvqeo0","pricing_plan_id":"cebpf4jnsgd1na2vs0mg"},{"bike_id":"b33e586e-b7a5-4106-94d4-821e2cd0d685","system_id":"levelo_inurba_marseille","lat":43.27661,"lon":5.38899,"is_reserved":false,"is_disabled":false,"rental_uris":{"android":"levelo://app?vid=b33e586e-b7a5-4106-94d4-821e2cd0d685","ios":"levelo://app?vid=b33e586e-b7a5-4106-94d4-821e2cd0d685"},"vehicle_type_id":"4","last_reported":1736852819,"current_range_meters":5600,"station_id":"ce4bhi12rcd13ifvqfo0","pricing_plan_id":"cebpf4jnsgd1na2vs0mg"},{"bike_id":"9abd3c86-26d6-4936-b14d-46ac2d8e06c2","system_id":"levelo_inurba_marseille","lat":43.24396,"lon":5.37073,"is_reserved":false,"is_disabled":false,"rental_uris":{"android":"levelo://app?vid=9abd3c86-26d6-4936-b14d-46ac2d8e06c2","ios":"levelo://app?vid=9abd3c86-26d6-4936-b14d-46ac2d8e06c2"},"vehicle_type_id":"4","last_reported":1736852819,"current_range_meters":38800,"station_id":"ce4bhhh2rcd13ifvqfk0","pricing_plan_id":"cebpf4jnsgd1na2vs0mg"},{"bike_id":"5663a063-616d-48ce-a01b-cc6b1d276502","system_id":"levelo_inurba_marseille","lat":43.23956,"lon":5.3665,"is_reserved":false,"is_disabled":false,"rental_uris":{"android":"levelo://app?vid=5663a063-616d-48ce-a01b-cc6b1d276502","ios":"levelo://app?vid=5663a063-616d-48ce-a01b-cc6b1d276502"},"vehicle_type_id":"4","last_reported":1736852819,"current_range_meters":30000,"station_id":"ce4bhi12rcd13ifvqfp0","pricing_plan_id":"cebpf4jnsgd1na2vs0mg"},{"bike_id":"f67f2018-63ab-4997-8bac-44cee8ba92dd","system_id":"levelo_inurba_marseille","lat":43.26575,"lon":5.39008,"is_reserved":false,"is_disabled":false,"rental_uris":{"android":"levelo://app?vid=f67f2018-63ab-4997-8bac-44cee8ba92dd","ios":"levelo://app?vid=f67f2018-63ab-4997-8bac-44cee8ba92dd"},"vehicle_type_id":"4","last_reported":1736852819,"current_range_meters":29600,"station_id":"ce4bhe12rcd13ifvqf30","pricing_plan_id":"cebpf4jnsgd1na2vs0mg"},{"bike_id":"a86fe1f4-7545-4b33-8097-0e91725c0bb3","system_id":"levelo_inurba_marseille","lat":43.32489,"lon":5.36607,"is_reserved":false,"is_disabled":true,"rental_uris":{"android":"levelo://app?vid=a86fe1f4-7545-4b33-8097-0e91725c0bb3","ios":"levelo://app?vid=a86fe1f4-7545-4b33-8097-0e91725c0bb3"},"vehicle_type_id":"4","last_reported":1736852819,"current_range_meters":0,"station_id":"ce4bhs12rcd13ifvqhvg","pricing_plan_id":"cebpf4jnsgd1na2vs0mg"},{"bike_id":"321a1127-d864-44e1-88ee-18a86707c918","system_id":"levelo_inurba_marseille","lat":43.24545,"lon":5.39558,"is_reserved":false,"is_disabled":false,"rental_uris":{"android":"levelo://app?vid=321a1127-d864-44e1-88ee-18a86707c918","ios":"levelo://app?vid=321a1127-d864-44e1-88ee-18a86707c918"},"vehicle_type_id":"4","last_reported":1736852819,"current_range_meters":22800,"station_id":"ce4bhlp2rcd13ifvqgjg","pricing_plan_id":"cebpf4jnsgd1na2vs0mg"},{"bike_id":"767fdafc-a872-4d6a-b9b2-75cb5d9f119d","system_id":"levelo_inurba_marseille","lat":43.30592,"lon":5.37244,"is_reserved":false,"is_disabled":false,"rental_uris":{"android":"levelo://app?vid=767fdafc-a872-4d6a-b9b2-75cb5d9f119d","ios":"levelo://app?vid=767fdafc-a872-4d6a-b9b2-75cb5d9f119d"},"vehicle_type_id":"4","last_reported":1736852819,"current_range_meters":30400,"station_id":"ce4bgqh2rcd13ifvqc4g","pricing_plan_id":"cebpf4jnsgd1na2vs0mg"},{"bike_id":"8ca57a1a-ed8d-4ff6-9696-9e64713deb6f","system_id":"levelo_inurba_marseille","lat":43.30139,"lon":5.37421,"is_reserved":false,"is_disabled":false,"rental_uris":{"android":"levelo://app?vid=8ca57a1a-ed8d-4ff6-9696-9e64713deb6f","ios":"levelo://app?vid=8ca57a1a-ed8d-4ff6-9696-9e64713deb6f"},"vehicle_type_id":"4","last_reported":1736852819,"current_range_meters":35600,"station_id":"ce4bgs92rcd13ifvqcc0","pricing_plan_id":"cebpf4jnsgd1na2vs0mg"},{"bike_id":"a4c108d4-411d-4a66-ac0a-33ca30029180","system_id":"levelo_inurba_marseille","lat":43.23962,"lon":5.36645,"is_reserved":false,"is_disabled":false,"rental_uris":{"android":"levelo://app?vid=a4c108d4-411d-4a66-ac0a-33ca30029180","ios":"levelo://app?vid=a4c108d4-411d-4a66-ac0a-33ca30029180"},"vehicle_type_id":"4","last_reported":1736852819,"current_range_meters":38800,"station_id":"ce4bhi12rcd13ifvqfp0","pricing_plan_id":"cebpf4jnsgd1na2vs0mg"},{"bike_id":"3f1871b0-62e6-472a-a371-7699a3389f00","system_id":"levelo_inurba_marseille","lat":43.25819,"lon":5.39438,"is_reserved":false,"is_disabled":false,"rental_uris":{"android":"levelo://app?vid=3f1871b0-62e6-472a-a371-7699a3389f00","ios":"levelo://app?vid=3f1871b0-62e6-472a-a371-7699a3389f00"},"vehicle_type_id":"4","last_reported":1736852819,"current_range_meters":39200,"station_id":"ce4bhip2rcd13ifvqft0","pricing_plan_id":"cebpf4jnsgd1na2vs0mg"},{"bike_id":"1299e77e-6da9-45c1-9a42-231380813012","system_id":"levelo_inurba_marseille","lat":43.283433,"lon":5.381144,"is_reserved":false,"is_disabled":true,"rental_uris":{"android":"levelo://app?vid=1299e77e-6da9-45c1-9a42-231380813012","ios":"levelo://app?vid=1299e77e-6da9-45c1-9a42-231380813012"},"vehicle_type_id":"4","last_reported":1736852819,"current_range_meters":24000,"station_id":"","pricing_plan_id":"cebpf4jnsgd1na2vs0mg"},{"bike_id":"d2b82d54-08e5-46a8-a2b3-757e6af7f0dd","system_id":"levelo_inurba_marseille","lat":43.28664,"lon":5.38697,"is_reserved":false,"is_disabled":false,"rental_uris":{"android":"levelo://app?vid=d2b82d54-08e5-46a8-a2b3-757e6af7f0dd","ios":"levelo://app?vid=d2b82d54-08e5-46a8-a2b3-757e6af7f0dd"},"vehicle_type_id":"4","last_reported":1736852819,"current_range_meters":27200,"station_id":"ce4bh492rcd13ifvqdug","pricing_plan_id":"cebpf4jnsgd1na2vs0mg"},{"bike_id":"624fd665-76a1-4073-91c0-a4db8dfd6228","system_id":"levelo_inurba_marseille","lat":43.31309,"lon":5.36865,"is_reserved":false,"is_disabled":false,"rental_uris":{"android":"levelo://app?vid=624fd665-76a1-4073-91c0-a4db8dfd6228","ios":"levelo://app?vid=624fd665-76a1-4073-91c0-a4db8dfd6228"},"vehicle_type_id":"4","last_reported":1736852819,"current_range_meters":29600,"station_id":"","pricing_plan_id":"cebpf4jnsgd1na2vs0mg"},{"bike_id":"7b4d1b47-5678-441b-99e6-d51f2a1e45e8","system_id":"levelo_inurba_marseille","lat":43.241706,"lon":5.39732,"is_reserved":false,"is_disabled":false,"rental_uris":{"android":"levelo://app?vid=7b4d1b47-5678-441b-99e6-d51f2a1e45e8","ios":"levelo://app?vid=7b4d1b47-5678-441b-99e6-d51f2a1e45e8"},"vehicle_type_id":"4","last_reported":1736852819,"current_range_meters":39200,"station_id":"ce4bhn12rcd13ifvqgpg","pricing_plan_id":"cebpf4jnsgd1na2vs0mg"},{"bike_id":"acb789d3-c42d-465c-982b-20d6256e9026","system_id":"levelo_inurba_marseille","lat":43.24371,"lon":5.37053,"is_reserved":false,"is_disabled":false,"rental_uris":{"android":"levelo://app?vid=acb789d3-c42d-465c-982b-20d6256e9026","ios":"levelo://app?vid=acb789d3-c42d-465c-982b-20d6256e9026"},"vehicle_type_id":"4","last_reported":1736852819,"current_range_meters":36800,"station_id":"ce4bhhh2rcd13ifvqfk0","pricing_plan_id":"cebpf4jnsgd1na2vs0mg"},{"bike_id":"d6e6a9fd-aeff-44ad-be5d-a44bac6c9180","system_id":"levelo_inurba_marseille","lat":43.29371,"lon":5.378485,"is_reserved":false,"is_disabled":false,"rental_uris":{"android":"levelo://app?vid=d6e6a9fd-aeff-44ad-be5d-a44bac6c9180","ios":"levelo://app?vid=d6e6a9fd-aeff-44ad-be5d-a44bac6c9180"},"vehicle_type_id":"4","last_reported":1736852819,"current_range_meters":39200,"station_id":"ce4bgjh2rcd13ifvqbf0","pricing_plan_id":"cebpf4jnsgd1na2vs0mg"},{"bike_id":"c08089e6-7041-4252-ab4d-3ba49d1e3a4c","system_id":"levelo_inurba_marseille","lat":43.25866,"lon":5.39914,"is_reserved":false,"is_disabled":false,"rental_uris":{"android":"levelo://app?vid=c08089e6-7041-4252-ab4d-3ba49d1e3a4c","ios":"levelo://app?vid=c08089e6-7041-4252-ab4d-3ba49d1e3a4c"},"vehicle_type_id":"4","last_reported":1736852819,"current_range_meters":30000,"station_id":"ce4bhl92rcd13ifvqghg","pricing_plan_id":"cebpf4jnsgd1na2vs0mg"},{"bike_id":"c2d5fd29-d5c7-4c17-84cd-2259421931b6","system_id":"levelo_inurba_marseille","lat":43.27494,"lon":5.42456,"is_reserved":false,"is_disabled":true,"rental_uris":{"android":"levelo://app?vid=c2d5fd29-d5c7-4c17-84cd-2259421931b6","ios":"levelo://app?vid=c2d5fd29-d5c7-4c17-84cd-2259421931b6"},"vehicle_type_id":"4","last_reported":1736852819,"current_range_meters":400,"station_id":"ce4bhn92rcd13ifvqgrg","pricing_plan_id":"cebpf4jnsgd1na2vs0mg"},{"bike_id":"2cd0b30f-d6a6-4eeb-a82a-2e49549faaea","system_id":"levelo_inurba_marseille","lat":43.29369,"lon":5.37839,"is_reserved":false,"is_disabled":false,"rental_uris":{"android":"levelo://app?vid=2cd0b30f-d6a6-4eeb-a82a-2e49549faaea","ios":"levelo://app?vid=2cd0b30f-d6a6-4eeb-a82a-2e49549faaea"},"vehicle_type_id":"4","last_reported":1736852819,"current_range_meters":28800,"station_id":"ce4bgjh2rcd13ifvqbf0","pricing_plan_id":"cebpf4jnsgd1na2vs0mg"},{"bike_id":"2cf85a70-b6bf-48de-83de-04510c401ba3","system_id":"levelo_inurba_marseille","lat":43.23192,"lon":5.35557,"is_reserved":false,"is_disabled":false,"rental_uris":{"android":"levelo://app?vid=2cf85a70-b6bf-48de-83de-04510c401ba3","ios":"levelo://app?vid=2cf85a70-b6bf-48de-83de-04510c401ba3"},"vehicle_type_id":"4","last_reported":1736852819,"current_range_meters":6000,"station_id":"ce4bhu92rcd13ifvqi70","pricing_plan_id":"cebpf4jnsgd1na2vs0mg"},{"bike_id":"892e29d7-63ab-4c3c-b3e3-ae7a4a787a92","system_id":"levelo_inurba_marseille","lat":43.30545,"lon":5.3844,"is_reserved":false,"is_disabled":false,"rental_uris":{"android":"levelo://app?vid=892e29d7-63ab-4c3c-b3e3-ae7a4a787a92","ios":"levelo://app?vid=892e29d7-63ab-4c3c-b3e3-ae7a4a787a92"},"vehicle_type_id":"4","last_reported":1736852819,"current_range_meters":24400,"station_id":"ce4bgg92rcd13ifvqb30","pricing_plan_id":"cebpf4jnsgd1na2vs0mg"},{"bike_id":"31ca8b0e-c72e-47d4-a59b-a2766db72931","system_id":"levelo_inurba_marseille","lat":43.28411,"lon":5.40934,"is_reserved":false,"is_disabled":true,"rental_uris":{"android":"levelo://app?vid=31ca8b0e-c72e-47d4-a59b-a2766db72931","ios":"levelo://app?vid=31ca8b0e-c72e-47d4-a59b-a2766db72931"},"vehicle_type_id":"4","last_reported":1736852819,"current_range_meters":34000,"station_id":"","pricing_plan_id":"cebpf4jnsgd1na2vs0mg"},{"bike_id":"3cc4f8d9-abe9-44eb-b280-5b30a4d3b388","system_id":"levelo_inurba_marseille","lat":43.26222,"lon":5.37437,"is_reserved":false,"is_disabled":false,"rental_uris":{"android":"levelo://app?vid=3cc4f8d9-abe9-44eb-b280-5b30a4d3b388","ios":"levelo://app?vid=3cc4f8d9-abe9-44eb-b280-5b30a4d3b388"},"vehicle_type_id":"4","last_reported":1736852819,"current_range_meters":38800,"station_id":"ce4bhgp2rcd13ifvqfc0","pricing_plan_id":"cebpf4jnsgd1na2vs0mg"},{"bike_id":"60c48e84-151f-4edd-83cd-789ff87c7f63","system_id":"levelo_inurba_marseille","lat":43.28691,"lon":5.37395,"is_reserved":false,"is_disabled":true,"rental_uris":{"android":"levelo://app?vid=60c48e84-151f-4edd-83cd-789ff87c7f63","ios":"levelo://app?vid=60c48e84-151f-4edd-83cd-789ff87c7f63"},"vehicle_type_id":"4","last_reported":1736852819,"current_range_meters":33600,"station_id":"ce4bh3p2rcd13ifvqdq0","pricing_plan_id":"cebpf4jnsgd1na2vs0mg"},{"bike_id":"03349009-e6e3-4cde-b992-a2acca682bbe","system_id":"levelo_inurba_marseille","lat":43.28086,"lon":5.39672,"is_reserved":false,"is_disabled":true,"rental_uris":{"android":"levelo://app?vid=03349009-e6e3-4cde-b992-a2acca682bbe","ios":"levelo://app?vid=03349009-e6e3-4cde-b992-a2acca682bbe"},"vehicle_type_id":"4","last_reported":1736852819,"current_range_meters":0,"station_id":"ce4bho12rcd13ifvqh2g","pricing_plan_id":"cebpf4jnsgd1na2vs0mg"},{"bike_id":"be6b3f5e-afcd-4b8c-9aa4-e97dc1204c98","system_id":"levelo_inurba_marseille","lat":43.33007,"lon":5.3902,"is_reserved":false,"is_disabled":false,"rental_uris":{"android":"levelo://app?vid=be6b3f5e-afcd-4b8c-9aa4-e97dc1204c98","ios":"levelo://app?vid=be6b3f5e-afcd-4b8c-9aa4-e97dc1204c98"},"vehicle_type_id":"4","last_reported":1736852819,"current_range_meters":36800,"station_id":"ce4bhr92rcd13ifvqhrg","pricing_plan_id":"cebpf4jnsgd1na2vs0mg"},{"bike_id":"de05f028-7450-4792-8d5b-e268410faa9d","system_id":"levelo_inurba_marseille","lat":43.32093,"lon":5.36807,"is_reserved":false,"is_disabled":false,"rental_uris":{"android":"levelo://app?vid=de05f028-7450-4792-8d5b-e268410faa9d","ios":"levelo://app?vid=de05f028-7450-4792-8d5b-e268410faa9d"},"vehicle_type_id":"4","last_reported":1736852819,"current_range_meters":28800,"station_id":"ce4bhrh2rcd13ifvqhug","pricing_plan_id":"cebpf4jnsgd1na2vs0mg"},{"bike_id":"691faab1-7662-427b-9f0d-19c810c9f963","system_id":"levelo_inurba_marseille","lat":43.26939,"lon":5.38926,"is_reserved":false,"is_disabled":false,"rental_uris":{"android":"levelo://app?vid=691faab1-7662-427b-9f0d-19c810c9f963","ios":"levelo://app?vid=691faab1-7662-427b-9f0d-19c810c9f963"},"vehicle_type_id":"4","last_reported":1736852819,"current_range_meters":37600,"station_id":"ce4bhhh2rcd13ifvqfl0","pricing_plan_id":"cebpf4jnsgd1na2vs0mg"},{"bike_id":"4218abb1-97a1-4e69-a779-b2859c95cf9a","system_id":"levelo_inurba_marseille","lat":43.2396,"lon":5.36639,"is_reserved":false,"is_disabled":false,"rental_uris":{"android":"levelo://app?vid=4218abb1-97a1-4e69-a779-b2859c95cf9a","ios":"levelo://app?vid=4218abb1-97a1-4e69-a779-b2859c95cf9a"},"vehicle_type_id":"4","last_reported":1736852819,"current_range_meters":15200,"station_id":"ce4bhi12rcd13ifvqfp0","pricing_plan_id":"cebpf4jnsgd1na2vs0mg"},{"bike_id":"7da73b08-06e3-43ca-8e0f-9447fe50ccbf","system_id":"levelo_inurba_marseille","lat":43.2749,"lon":5.42468,"is_reserved":false,"is_disabled":true,"rental_uris":{"android":"levelo://app?vid=7da73b08-06e3-43ca-8e0f-9447fe50ccbf","ios":"levelo://app?vid=7da73b08-06e3-43ca-8e0f-9447fe50ccbf"},"vehicle_type_id":"4","last_reported":1736852819,"current_range_meters":0,"station_id":"ce4bhn92rcd13ifvqgrg","pricing_plan_id":"cebpf4jnsgd1na2vs0mg"},{"bike_id":"645142ff-aed8-4d15-9b5e-904f264f9569","system_id":"levelo_inurba_marseille","lat":43.2781,"lon":5.40711,"is_reserved":false,"is_disabled":false,"rental_uris":{"android":"levelo://app?vid=645142ff-aed8-4d15-9b5e-904f264f9569","ios":"levelo://app?vid=645142ff-aed8-4d15-9b5e-904f264f9569"},"vehicle_type_id":"4","last_reported":1736852819,"current_range_meters":16400,"station_id":"ce4bhnh2rcd13ifvqgtg","pricing_plan_id":"cebpf4jnsgd1na2vs0mg"},{"bike_id":"697e6ace-d673-4abf-ab6d-187906fe3096","system_id":"levelo_inurba_marseille","lat":43.29967,"lon":5.3718,"is_reserved":false,"is_disabled":false,"rental_uris":{"android":"levelo://app?vid=697e6ace-d673-4abf-ab6d-187906fe3096","ios":"levelo://app?vid=697e6ace-d673-4abf-ab6d-187906fe3096"},"vehicle_type_id":"4","last_reported":1736852819,"current_range_meters":23200,"station_id":"ce4bgr92rcd13ifvqc7g","pricing_plan_id":"cebpf4jnsgd1na2vs0mg"},{"bike_id":"5ec30fe6-d84e-493a-8eb1-5a6f8f13d92c","system_id":"levelo_inurba_marseille","lat":43.26553,"lon":5.3728,"is_reserved":false,"is_disabled":false,"rental_uris":{"android":"levelo://app?vid=5ec30fe6-d84e-493a-8eb1-5a6f8f13d92c","ios":"levelo://app?vid=5ec30fe6-d84e-493a-8eb1-5a6f8f13d92c"},"vehicle_type_id":"4","last_reported":1736852819,"current_range_meters":8800,"station_id":"ce4bhg12rcd13ifvqf70","pricing_plan_id":"cebpf4jnsgd1na2vs0mg"},{"bike_id":"90e23443-521f-4a93-ac55-0d93191a3092","system_id":"levelo_inurba_marseille","lat":43.27066,"lon":5.42281,"is_reserved":false,"is_disabled":false,"rental_uris":{"android":"levelo://app?vid=90e23443-521f-4a93-ac55-0d93191a3092","ios":"levelo://app?vid=90e23443-521f-4a93-ac55-0d93191a3092"},"vehicle_type_id":"4","last_reported":1736852819,"current_range_meters":17600,"station_id":"ce4bhk92rcd13ifvqgb0","pricing_plan_id":"cebpf4jnsgd1na2vs0mg"},{"bike_id":"34d1187a-0d2f-42da-8bcd-6376169d385a","system_id":"levelo_inurba_marseille","lat":43.25921,"lon":5.409,"is_reserved":false,"is_disabled":false,"rental_uris":{"android":"levelo://app?vid=34d1187a-0d2f-42da-8bcd-6376169d385a","ios":"levelo://app?vid=34d1187a-0d2f-42da-8bcd-6376169d385a"},"vehicle_type_id":"4","last_reported":1736852819,"current_range_meters":37600,"station_id":"ce4bhm92rcd13ifvqglg","pricing_plan_id":"cebpf4jnsgd1na2vs0mg"},{"bike_id":"8f3d19ca-6788-4fa8-a3b9-31a1f06d17f5","system_id":"levelo_inurba_marseille","lat":43.28036,"lon":5.36936,"is_reserved":false,"is_disabled":true,"rental_uris":{"android":"levelo://app?vid=8f3d19ca-6788-4fa8-a3b9-31a1f06d17f5","ios":"levelo://app?vid=8f3d19ca-6788-4fa8-a3b9-31a1f06d17f5"},"vehicle_type_id":"4","last_reported":1736852819,"current_range_meters":400,"station_id":"ce4bha12rcd13ifvqef0","pricing_plan_id":"cebpf4jnsgd1na2vs0mg"},{"bike_id":"f4bab7d4-e348-4939-8044-be07598fb200","system_id":"levelo_inurba_marseille","lat":43.29969,"lon":5.37183,"is_reserved":false,"is_disabled":true,"rental_uris":{"android":"levelo://app?vid=f4bab7d4-e348-4939-8044-be07598fb200","ios":"levelo://app?vid=f4bab7d4-e348-4939-8044-be07598fb200"},"vehicle_type_id":"4","last_reported":1736852819,"current_range_meters":0,"station_id":"ce4bgr92rcd13ifvqc7g","pricing_plan_id":"cebpf4jnsgd1na2vs0mg"},{"bike_id":"0ec91d96-bfaa-4681-aa0c-4da5df265c9a","system_id":"levelo_inurba_marseille","lat":43.29558,"lon":5.37528,"is_reserved":false,"is_disabled":false,"rental_uris":{"android":"levelo://app?vid=0ec91d96-bfaa-4681-aa0c-4da5df265c9a","ios":"levelo://app?vid=0ec91d96-bfaa-4681-aa0c-4da5df265c9a"},"vehicle_type_id":"4","last_reported":1736852819,"current_range_meters":6400,"station_id":"ce4bgh92rcd13ifvqb50","pricing_plan_id":"cebpf4jnsgd1na2vs0mg"},{"bike_id":"f62a7ed4-7c80-4ed8-9568-a4dea62069d1","system_id":"levelo_inurba_marseille","lat":43.28089,"lon":5.39622,"is_reserved":false,"is_disabled":false,"rental_uris":{"android":"levelo://app?vid=f62a7ed4-7c80-4ed8-9568-a4dea62069d1","ios":"levelo://app?vid=f62a7ed4-7c80-4ed8-9568-a4dea62069d1"},"vehicle_type_id":"4","last_reported":1736852819,"current_range_meters":25200,"station_id":"ce4bho12rcd13ifvqh2g","pricing_plan_id":"cebpf4jnsgd1na2vs0mg"},{"bike_id":"0992952c-048b-47b4-af5a-c29e17abc31e","system_id":"levelo_inurba_marseille","lat":43.29007,"lon":5.35619,"is_reserved":false,"is_disabled":false,"rental_uris":{"android":"levelo://app?vid=0992952c-048b-47b4-af5a-c29e17abc31e","ios":"levelo://app?vid=0992952c-048b-47b4-af5a-c29e17abc31e"},"vehicle_type_id":"4","last_reported":1736852819,"current_range_meters":39200,"station_id":"ce4bhb92rcd13ifvqen0","pricing_plan_id":"cebpf4jnsgd1na2vs0mg"},{"bike_id":"e3ce0a6d-84df-4747-bda1-48ca26d77468","system_id":"levelo_inurba_marseille","lat":43.26814,"lon":5.3944,"is_reserved":false,"is_disabled":false,"rental_uris":{"android":"levelo://app?vid=e3ce0a6d-84df-4747-bda1-48ca26d77468","ios":"levelo://app?vid=e3ce0a6d-84df-4747-bda1-48ca26d77468"},"vehicle_type_id":"4","last_reported":1736852819,"current_range_meters":38800,"station_id":"ce4bhh12rcd13ifvqfg0","pricing_plan_id":"cebpf4jnsgd1na2vs0mg"},{"bike_id":"8190e61a-f5f9-4d25-b044-b14e054c16f4","system_id":"levelo_inurba_marseille","lat":43.32043,"lon":5.41542,"is_reserved":false,"is_disabled":false,"rental_uris":{"android":"levelo://app?vid=8190e61a-f5f9-4d25-b044-b14e054c16f4","ios":"levelo://app?vid=8190e61a-f5f9-4d25-b044-b14e054c16f4"},"vehicle_type_id":"4","last_reported":1736852819,"current_range_meters":29600,"station_id":"ce4bhq92rcd13ifvqhkg","pricing_plan_id":"cebpf4jnsgd1na2vs0mg"},{"bike_id":"52b86d23-bb78-4ec5-b77d-73bb1b705963","system_id":"levelo_inurba_marseille","lat":43.274967,"lon":5.424503,"is_reserved":false,"is_disabled":false,"rental_uris":{"android":"levelo://app?vid=52b86d23-bb78-4ec5-b77d-73bb1b705963","ios":"levelo://app?vid=52b86d23-bb78-4ec5-b77d-73bb1b705963"},"vehicle_type_id":"4","last_reported":1736852819,"current_range_meters":8000,"station_id":"ce4bhn92rcd13ifvqgrg","pricing_plan_id":"cebpf4jnsgd1na2vs0mg"},{"bike_id":"da9ccc54-0d7e-4385-aa35-fd76b6021789","system_id":"levelo_inurba_marseille","lat":43.24077,"lon":5.37758,"is_reserved":false,"is_disabled":false,"rental_uris":{"android":"levelo://app?vid=da9ccc54-0d7e-4385-aa35-fd76b6021789","ios":"levelo://app?vid=da9ccc54-0d7e-4385-aa35-fd76b6021789"},"vehicle_type_id":"4","last_reported":1736852819,"current_range_meters":35600,"station_id":"ce4bhnp2rcd13ifvqgvg","pricing_plan_id":"cebpf4jnsgd1na2vs0mg"},{"bike_id":"c57da018-bfbb-4cbc-9a23-aaed6c1fa365","system_id":"levelo_inurba_marseille","lat":43.27602,"lon":5.36127,"is_reserved":false,"is_disabled":true,"rental_uris":{"android":"levelo://app?vid=c57da018-bfbb-4cbc-9a23-aaed6c1fa365","ios":"levelo://app?vid=c57da018-bfbb-4cbc-9a23-aaed6c1fa365"},"vehicle_type_id":"4","last_reported":1736852819,"current_range_meters":33200,"station_id":"ce4bgj92rcd13ifvqbe0","pricing_plan_id":"cebpf4jnsgd1na2vs0mg"},{"bike_id":"a0484738-d857-4285-b51d-0f78805e7ea7","system_id":"levelo_inurba_marseille","lat":43.29345,"lon":5.37384,"is_reserved":false,"is_disabled":false,"rental_uris":{"android":"levelo://app?vid=a0484738-d857-4285-b51d-0f78805e7ea7","ios":"levelo://app?vid=a0484738-d857-4285-b51d-0f78805e7ea7"},"vehicle_type_id":"4","last_reported":1736852819,"current_range_meters":11200,"station_id":"","pricing_plan_id":"cebpf4jnsgd1na2vs0mg"},{"bike_id":"04c4acfe-460f-4fee-a445-0befff4463d3","system_id":"levelo_inurba_marseille","lat":43.27211,"lon":5.39186,"is_reserved":false,"is_disabled":false,"rental_uris":{"android":"levelo://app?vid=04c4acfe-460f-4fee-a445-0befff4463d3","ios":"levelo://app?vid=04c4acfe-460f-4fee-a445-0befff4463d3"},"vehicle_type_id":"4","last_reported":1736852819,"current_range_meters":37600,"station_id":"ce4bhhp2rcd13ifvqfm0","pricing_plan_id":"cebpf4jnsgd1na2vs0mg"},{"bike_id":"e18ca637-0940-4ac9-84c4-c3ecffd5e4c4","system_id":"levelo_inurba_marseille","lat":43.26031,"lon":5.37554,"is_reserved":false,"is_disabled":false,"rental_uris":{"android":"levelo://app?vid=e18ca637-0940-4ac9-84c4-c3ecffd5e4c4","ios":"levelo://app?vid=e18ca637-0940-4ac9-84c4-c3ecffd5e4c4"},"vehicle_type_id":"4","last_reported":1736852819,"current_range_meters":2000,"station_id":"ce4bhgh2rcd13ifvqfa0","pricing_plan_id":"cebpf4jnsgd1na2vs0mg"},{"bike_id":"fc8be740-0043-4f9d-b31c-15f19071a736","system_id":"levelo_inurba_marseille","lat":43.25488,"lon":5.37685,"is_reserved":false,"is_disabled":false,"rental_uris":{"android":"levelo://app?vid=fc8be740-0043-4f9d-b31c-15f19071a736","ios":"levelo://app?vid=fc8be740-0043-4f9d-b31c-15f19071a736"},"vehicle_type_id":"4","last_reported":1736852819,"current_range_meters":39200,"station_id":"ce4bhh12rcd13ifvqff0","pricing_plan_id":"cebpf4jnsgd1na2vs0mg"},{"bike_id":"656938f6-29e6-4592-aec9-6c0b4897db53","system_id":"levelo_inurba_marseille","lat":43.27205,"lon":5.39187,"is_reserved":false,"is_disabled":false,"rental_uris":{"android":"levelo://app?vid=656938f6-29e6-4592-aec9-6c0b4897db53","ios":"levelo://app?vid=656938f6-29e6-4592-aec9-6c0b4897db53"},"vehicle_type_id":"4","last_reported":1736852819,"current_range_meters":38800,"station_id":"ce4bhhp2rcd13ifvqfm0","pricing_plan_id":"cebpf4jnsgd1na2vs0mg"},{"bike_id":"3e5f7793-ebba-4a40-8ff7-c6e20b8ef702","system_id":"levelo_inurba_marseille","lat":43.33755,"lon":5.37494,"is_reserved":false,"is_disabled":false,"rental_uris":{"android":"levelo://app?vid=3e5f7793-ebba-4a40-8ff7-c6e20b8ef702","ios":"levelo://app?vid=3e5f7793-ebba-4a40-8ff7-c6e20b8ef702"},"vehicle_type_id":"4","last_reported":1736852819,"current_range_meters":36400,"station_id":"","pricing_plan_id":"cebpf4jnsgd1na2vs0mg"},{"bike_id":"3e80b2fb-3555-4ac9-b768-2084968df978","system_id":"levelo_inurba_marseille","lat":43.24071,"lon":5.37759,"is_reserved":false,"is_disabled":false,"rental_uris":{"android":"levelo://app?vid=3e80b2fb-3555-4ac9-b768-2084968df978","ios":"levelo://app?vid=3e80b2fb-3555-4ac9-b768-2084968df978"},"vehicle_type_id":"4","last_reported":1736852819,"current_range_meters":37600,"station_id":"ce4bhnp2rcd13ifvqgvg","pricing_plan_id":"cebpf4jnsgd1na2vs0mg"},{"bike_id":"a836bbf6-cc30-4238-a0af-12e1dba6445b","system_id":"levelo_inurba_marseille","lat":43.23161,"lon":5.43703,"is_reserved":false,"is_disabled":false,"rental_uris":{"android":"levelo://app?vid=a836bbf6-cc30-4238-a0af-12e1dba6445b","ios":"levelo://app?vid=a836bbf6-cc30-4238-a0af-12e1dba6445b"},"vehicle_type_id":"4","last_reported":1736852819,"current_range_meters":25600,"station_id":"ce4bhmp2rcd13ifvqgog","pricing_plan_id":"cebpf4jnsgd1na2vs0mg"},{"bike_id":"01e8c37a-485a-4689-82d6-32555e2cc552","system_id":"levelo_inurba_marseille","lat":43.30543,"lon":5.36524,"is_reserved":false,"is_disabled":false,"rental_uris":{"android":"levelo://app?vid=01e8c37a-485a-4689-82d6-32555e2cc552","ios":"levelo://app?vid=01e8c37a-485a-4689-82d6-32555e2cc552"},"vehicle_type_id":"4","last_reported":1736852819,"current_range_meters":39200,"station_id":"ce4bgs12rcd13ifvqcag","pricing_plan_id":"cebpf4jnsgd1na2vs0mg"},{"bike_id":"f54c362a-7b28-44f8-b56d-eaf44eb3ae83","system_id":"levelo_inurba_marseille","lat":43.28107,"lon":5.37847,"is_reserved":false,"is_disabled":false,"rental_uris":{"android":"levelo://app?vid=f54c362a-7b28-44f8-b56d-eaf44eb3ae83","ios":"levelo://app?vid=f54c362a-7b28-44f8-b56d-eaf44eb3ae83"},"vehicle_type_id":"4","last_reported":1736852819,"current_range_meters":33600,"station_id":"ce4bha12rcd13ifvqee0","pricing_plan_id":"cebpf4jnsgd1na2vs0mg"},{"bike_id":"d12d0d4b-6c32-4fac-8f18-2af46f7242dc","system_id":"levelo_inurba_marseille","lat":43.30961,"lon":5.39027,"is_reserved":false,"is_disabled":false,"rental_uris":{"android":"levelo://app?vid=d12d0d4b-6c32-4fac-8f18-2af46f7242dc","ios":"levelo://app?vid=d12d0d4b-6c32-4fac-8f18-2af46f7242dc"},"vehicle_type_id":"4","last_reported":1736852819,"current_range_meters":35600,"station_id":"ce4bgup2rcd13ifvqco0","pricing_plan_id":"cebpf4jnsgd1na2vs0mg"},{"bike_id":"41922604-c7b8-4e93-9da5-3903771d7233","system_id":"levelo_inurba_marseille","lat":43.24799,"lon":5.37507,"is_reserved":false,"is_disabled":false,"rental_uris":{"android":"levelo://app?vid=41922604-c7b8-4e93-9da5-3903771d7233","ios":"levelo://app?vid=41922604-c7b8-4e93-9da5-3903771d7233"},"vehicle_type_id":"4","last_reported":1736852819,"current_range_meters":22800,"station_id":"","pricing_plan_id":"cebpf4jnsgd1na2vs0mg"},{"bike_id":"c8c2d055-3267-43ff-8a80-66148ffcc504","system_id":"levelo_inurba_marseille","lat":43.28361,"lon":5.3864,"is_reserved":false,"is_disabled":false,"rental_uris":{"android":"levelo://app?vid=c8c2d055-3267-43ff-8a80-66148ffcc504","ios":"levelo://app?vid=c8c2d055-3267-43ff-8a80-66148ffcc504"},"vehicle_type_id":"4","last_reported":1736852819,"current_range_meters":16400,"station_id":"ce4bh492rcd13ifvqdvg","pricing_plan_id":"cebpf4jnsgd1na2vs0mg"},{"bike_id":"306db636-fa13-4023-a4f6-43177835b6db","system_id":"levelo_inurba_marseille","lat":43.25932,"lon":5.40895,"is_reserved":false,"is_disabled":false,"rental_uris":{"android":"levelo://app?vid=306db636-fa13-4023-a4f6-43177835b6db","ios":"levelo://app?vid=306db636-fa13-4023-a4f6-43177835b6db"},"vehicle_type_id":"4","last_reported":1736852819,"current_range_meters":30000,"station_id":"ce4bhm92rcd13ifvqglg","pricing_plan_id":"cebpf4jnsgd1na2vs0mg"},{"bike_id":"f98bc2f4-d826-488c-a2a3-b3aac7d6ee95","system_id":"levelo_inurba_marseille","lat":43.27211,"lon":5.39177,"is_reserved":false,"is_disabled":false,"rental_uris":{"android":"levelo://app?vid=f98bc2f4-d826-488c-a2a3-b3aac7d6ee95","ios":"levelo://app?vid=f98bc2f4-d826-488c-a2a3-b3aac7d6ee95"},"vehicle_type_id":"4","last_reported":1736852819,"current_range_meters":28000,"station_id":"ce4bhhp2rcd13ifvqfm0","pricing_plan_id":"cebpf4jnsgd1na2vs0mg"},{"bike_id":"a6550df1-39e6-4769-8451-3127e7928530","system_id":"levelo_inurba_marseille","lat":43.30984,"lon":5.39059,"is_reserved":false,"is_disabled":false,"rental_uris":{"android":"levelo://app?vid=a6550df1-39e6-4769-8451-3127e7928530","ios":"levelo://app?vid=a6550df1-39e6-4769-8451-3127e7928530"},"vehicle_type_id":"4","last_reported":1736852819,"current_range_meters":35600,"station_id":"ce4bgup2rcd13ifvqco0","pricing_plan_id":"cebpf4jnsgd1na2vs0mg"},{"bike_id":"fb31a920-395c-464b-a53d-294102d2e0da","system_id":"levelo_inurba_marseille","lat":43.24075,"lon":5.37752,"is_reserved":false,"is_disabled":false,"rental_uris":{"android":"levelo://app?vid=fb31a920-395c-464b-a53d-294102d2e0da","ios":"levelo://app?vid=fb31a920-395c-464b-a53d-294102d2e0da"},"vehicle_type_id":"4","last_reported":1736852819,"current_range_meters":14800,"station_id":"ce4bhnp2rcd13ifvqgvg","pricing_plan_id":"cebpf4jnsgd1na2vs0mg"},{"bike_id":"677895e3-010b-4ca8-919c-d24f675678f7","system_id":"levelo_inurba_marseille","lat":43.24074,"lon":5.37748,"is_reserved":false,"is_disabled":false,"rental_uris":{"android":"levelo://app?vid=677895e3-010b-4ca8-919c-d24f675678f7","ios":"levelo://app?vid=677895e3-010b-4ca8-919c-d24f675678f7"},"vehicle_type_id":"4","last_reported":1736852819,"current_range_meters":33600,"station_id":"ce4bhnp2rcd13ifvqgvg","pricing_plan_id":"cebpf4jnsgd1na2vs0mg"},{"bike_id":"2ef5df04-cc6e-4014-88b2-a60bbd864900","system_id":"levelo_inurba_marseille","lat":43.30892,"lon":5.3722,"is_reserved":false,"is_disabled":false,"rental_uris":{"android":"levelo://app?vid=2ef5df04-cc6e-4014-88b2-a60bbd864900","ios":"levelo://app?vid=2ef5df04-cc6e-4014-88b2-a60bbd864900"},"vehicle_type_id":"4","last_reported":1736852819,"current_range_meters":38000,"station_id":"ce4bguh2rcd13ifvqckg","pricing_plan_id":"cebpf4jnsgd1na2vs0mg"},{"bike_id":"4ca4be0a-6368-47fa-871a-914312f9653e","system_id":"levelo_inurba_marseille","lat":43.24545,"lon":5.39537,"is_reserved":false,"is_disabled":false,"rental_uris":{"android":"levelo://app?vid=4ca4be0a-6368-47fa-871a-914312f9653e","ios":"levelo://app?vid=4ca4be0a-6368-47fa-871a-914312f9653e"},"vehicle_type_id":"4","last_reported":1736852819,"current_range_meters":25200,"station_id":"ce4bhlp2rcd13ifvqgjg","pricing_plan_id":"cebpf4jnsgd1na2vs0mg"},{"bike_id":"231f1dd8-6336-4c22-9dd1-c1357dbe6eef","system_id":"levelo_inurba_marseille","lat":43.29697,"lon":5.3776,"is_reserved":false,"is_disabled":true,"rental_uris":{"android":"levelo://app?vid=231f1dd8-6336-4c22-9dd1-c1357dbe6eef","ios":"levelo://app?vid=231f1dd8-6336-4c22-9dd1-c1357dbe6eef"},"vehicle_type_id":"4","last_reported":1736852819,"current_range_meters":22000,"station_id":"ce4bgkh2rcd13ifvqbl0","pricing_plan_id":"cebpf4jnsgd1na2vs0mg"},{"bike_id":"45ee3926-2f20-43b9-b032-c739761edc02","system_id":"levelo_inurba_marseille","lat":43.30289,"lon":5.37698,"is_reserved":false,"is_disabled":false,"rental_uris":{"android":"levelo://app?vid=45ee3926-2f20-43b9-b032-c739761edc02","ios":"levelo://app?vid=45ee3926-2f20-43b9-b032-c739761edc02"},"vehicle_type_id":"4","last_reported":1736852819,"current_range_meters":6800,"station_id":"ce4bguh2rcd13ifvqcj0","pricing_plan_id":"cebpf4jnsgd1na2vs0mg"},{"bike_id":"a520c696-e2ec-4231-81c1-756d41d5f0fd","system_id":"levelo_inurba_marseille","lat":43.23197,"lon":5.35552,"is_reserved":false,"is_disabled":false,"rental_uris":{"android":"levelo://app?vid=a520c696-e2ec-4231-81c1-756d41d5f0fd","ios":"levelo://app?vid=a520c696-e2ec-4231-81c1-756d41d5f0fd"},"vehicle_type_id":"4","last_reported":1736852819,"current_range_meters":8400,"station_id":"ce4bhu92rcd13ifvqi70","pricing_plan_id":"cebpf4jnsgd1na2vs0mg"},{"bike_id":"8e08d8b2-dc52-4ae3-8540-73c9b21cfffe","system_id":"levelo_inurba_marseille","lat":43.25,"lon":5.38924,"is_reserved":false,"is_disabled":false,"rental_uris":{"android":"levelo://app?vid=8e08d8b2-dc52-4ae3-8540-73c9b21cfffe","ios":"levelo://app?vid=8e08d8b2-dc52-4ae3-8540-73c9b21cfffe"},"vehicle_type_id":"4","last_reported":1736852819,"current_range_meters":23200,"station_id":"ce4bhgp2rcd13ifvqfd0","pricing_plan_id":"cebpf4jnsgd1na2vs0mg"},{"bike_id":"87339157-d961-4cf9-9dd5-00fb3246061f","system_id":"levelo_inurba_marseille","lat":43.25939,"lon":5.40918,"is_reserved":false,"is_disabled":false,"rental_uris":{"android":"levelo://app?vid=87339157-d961-4cf9-9dd5-00fb3246061f","ios":"levelo://app?vid=87339157-d961-4cf9-9dd5-00fb3246061f"},"vehicle_type_id":"4","last_reported":1736852819,"current_range_meters":28000,"station_id":"ce4bhm92rcd13ifvqglg","pricing_plan_id":"cebpf4jnsgd1na2vs0mg"},{"bike_id":"36ad50bc-d9bb-4836-81ae-1fb5f3c17c9e","system_id":"levelo_inurba_marseille","lat":43.28361,"lon":5.38632,"is_reserved":false,"is_disabled":true,"rental_uris":{"android":"levelo://app?vid=36ad50bc-d9bb-4836-81ae-1fb5f3c17c9e","ios":"levelo://app?vid=36ad50bc-d9bb-4836-81ae-1fb5f3c17c9e"},"vehicle_type_id":"4","last_reported":1736852819,"current_range_meters":0,"station_id":"ce4bh492rcd13ifvqdvg","pricing_plan_id":"cebpf4jnsgd1na2vs0mg"},{"bike_id":"1dc64d76-fff0-460c-af84-eaea7614f529","system_id":"levelo_inurba_marseille","lat":43.26935,"lon":5.40258,"is_reserved":false,"is_disabled":false,"rental_uris":{"android":"levelo://app?vid=1dc64d76-fff0-460c-af84-eaea7614f529","ios":"levelo://app?vid=1dc64d76-fff0-460c-af84-eaea7614f529"},"vehicle_type_id":"4","last_reported":1736852819,"current_range_meters":39200,"station_id":"cjm6bp8fraef2m0cb0m0","pricing_plan_id":"cebpf4jnsgd1na2vs0mg"},{"bike_id":"1824ca5a-45ef-4ec3-a81c-50db720391d4","system_id":"levelo_inurba_marseille","lat":43.29353,"lon":5.37861,"is_reserved":false,"is_disabled":false,"rental_uris":{"android":"levelo://app?vid=1824ca5a-45ef-4ec3-a81c-50db720391d4","ios":"levelo://app?vid=1824ca5a-45ef-4ec3-a81c-50db720391d4"},"vehicle_type_id":"4","last_reported":1736852819,"current_range_meters":30400,"station_id":"ce4bgjh2rcd13ifvqbf0","pricing_plan_id":"cebpf4jnsgd1na2vs0mg"},{"bike_id":"ab9a6cda-be57-4cb7-bbda-7ad9028dd8a6","system_id":"levelo_inurba_marseille","lat":43.27942,"lon":5.41048,"is_reserved":false,"is_disabled":false,"rental_uris":{"android":"levelo://app?vid=ab9a6cda-be57-4cb7-bbda-7ad9028dd8a6","ios":"levelo://app?vid=ab9a6cda-be57-4cb7-bbda-7ad9028dd8a6"},"vehicle_type_id":"4","last_reported":1736852819,"current_range_meters":36800,"station_id":"ce4bhnp2rcd13ifvqh0g","pricing_plan_id":"cebpf4jnsgd1na2vs0mg"},{"bike_id":"df28f796-5a0c-416c-8088-630e87a8cc6b","system_id":"levelo_inurba_marseille","lat":43.30327,"lon":5.36884,"is_reserved":false,"is_disabled":false,"rental_uris":{"android":"levelo://app?vid=df28f796-5a0c-416c-8088-630e87a8cc6b","ios":"levelo://app?vid=df28f796-5a0c-416c-8088-630e87a8cc6b"},"vehicle_type_id":"4","last_reported":1736852819,"current_range_meters":8000,"station_id":"ce4bgqh2rcd13ifvqc5g","pricing_plan_id":"cebpf4jnsgd1na2vs0mg"},{"bike_id":"c0fd2063-31ae-4171-af17-771dbb4fa212","system_id":"levelo_inurba_marseille","lat":43.22935,"lon":5.35384,"is_reserved":false,"is_disabled":false,"rental_uris":{"android":"levelo://app?vid=c0fd2063-31ae-4171-af17-771dbb4fa212","ios":"levelo://app?vid=c0fd2063-31ae-4171-af17-771dbb4fa212"},"vehicle_type_id":"4","last_reported":1736852819,"current_range_meters":39200,"station_id":"cpo3532slgdg3j2ikp40","pricing_plan_id":"cebpf4jnsgd1na2vs0mg"},{"bike_id":"63cde157-a48c-416a-a5e3-d11085b19722","system_id":"levelo_inurba_marseille","lat":43.30877,"lon":5.39641,"is_reserved":false,"is_disabled":false,"rental_uris":{"android":"levelo://app?vid=63cde157-a48c-416a-a5e3-d11085b19722","ios":"levelo://app?vid=63cde157-a48c-416a-a5e3-d11085b19722"},"vehicle_type_id":"4","last_reported":1736852819,"current_range_meters":11600,"station_id":"ce4bh012rcd13ifvqcv0","pricing_plan_id":"cebpf4jnsgd1na2vs0mg"},{"bike_id":"7542349a-b594-45b6-9140-5d83062efe65","system_id":"levelo_inurba_marseille","lat":43.28704,"lon":5.3999,"is_reserved":false,"is_disabled":false,"rental_uris":{"android":"levelo://app?vid=7542349a-b594-45b6-9140-5d83062efe65","ios":"levelo://app?vid=7542349a-b594-45b6-9140-5d83062efe65"},"vehicle_type_id":"4","last_reported":1736852819,"current_range_meters":29600,"station_id":"ce4bho92rcd13ifvqh3g","pricing_plan_id":"cebpf4jnsgd1na2vs0mg"},{"bike_id":"b7a9a420-00a3-4d99-a8aa-4068befb8c88","system_id":"levelo_inurba_marseille","lat":43.29539,"lon":5.37562,"is_reserved":false,"is_disabled":false,"rental_uris":{"android":"levelo://app?vid=b7a9a420-00a3-4d99-a8aa-4068befb8c88","ios":"levelo://app?vid=b7a9a420-00a3-4d99-a8aa-4068befb8c88"},"vehicle_type_id":"4","last_reported":1736852819,"current_range_meters":30000,"station_id":"ce4bgh92rcd13ifvqb50","pricing_plan_id":"cebpf4jnsgd1na2vs0mg"},{"bike_id":"6c4320ef-ee73-4a4c-8038-dee291c4d56b","system_id":"levelo_inurba_marseille","lat":43.30978,"lon":5.37967,"is_reserved":false,"is_disabled":false,"rental_uris":{"android":"levelo://app?vid=6c4320ef-ee73-4a4c-8038-dee291c4d56b","ios":"levelo://app?vid=6c4320ef-ee73-4a4c-8038-dee291c4d56b"},"vehicle_type_id":"4","last_reported":1736852819,"current_range_meters":18000,"station_id":"","pricing_plan_id":"cebpf4jnsgd1na2vs0mg"},{"bike_id":"c70d34d8-aed3-473e-977b-5539a95134f6","system_id":"levelo_inurba_marseille","lat":43.29892,"lon":5.38144,"is_reserved":false,"is_disabled":true,"rental_uris":{"android":"levelo://app?vid=c70d34d8-aed3-473e-977b-5539a95134f6","ios":"levelo://app?vid=c70d34d8-aed3-473e-977b-5539a95134f6"},"vehicle_type_id":"4","last_reported":1736852819,"current_range_meters":36800,"station_id":"ce4bgj12rcd13ifvqbc0","pricing_plan_id":"cebpf4jnsgd1na2vs0mg"},{"bike_id":"6812e771-5189-43c3-9fdf-98a4dee361a2","system_id":"levelo_inurba_marseille","lat":43.29926,"lon":5.36255,"is_reserved":false,"is_disabled":false,"rental_uris":{"android":"levelo://app?vid=6812e771-5189-43c3-9fdf-98a4dee361a2","ios":"levelo://app?vid=6812e771-5189-43c3-9fdf-98a4dee361a2"},"vehicle_type_id":"4","last_reported":1736852819,"current_range_meters":38000,"station_id":"ce4bgpp2rcd13ifvqc3g","pricing_plan_id":"cebpf4jnsgd1na2vs0mg"},{"bike_id":"8e1700e2-2825-47f3-9373-6fc227095b7d","system_id":"levelo_inurba_marseille","lat":43.24157,"lon":5.36419,"is_reserved":false,"is_disabled":false,"rental_uris":{"android":"levelo://app?vid=8e1700e2-2825-47f3-9373-6fc227095b7d","ios":"levelo://app?vid=8e1700e2-2825-47f3-9373-6fc227095b7d"},"vehicle_type_id":"4","last_reported":1736852819,"current_range_meters":38800,"station_id":"cpo36qri1sfpv3e86is0","pricing_plan_id":"cebpf4jnsgd1na2vs0mg"},{"bike_id":"e5573715-09fa-4dab-b1d8-e7410696aa39","system_id":"levelo_inurba_marseille","lat":43.32369,"lon":5.36763,"is_reserved":false,"is_disabled":false,"rental_uris":{"android":"levelo://app?vid=e5573715-09fa-4dab-b1d8-e7410696aa39","ios":"levelo://app?vid=e5573715-09fa-4dab-b1d8-e7410696aa39"},"vehicle_type_id":"4","last_reported":1736852819,"current_range_meters":24800,"station_id":"ce4bhsh2rcd13ifvqi2g","pricing_plan_id":"cebpf4jnsgd1na2vs0mg"},{"bike_id":"b31c05a9-6487-4217-80a6-25821a78c060","system_id":"levelo_inurba_marseille","lat":43.23192,"lon":5.35579,"is_reserved":false,"is_disabled":false,"rental_uris":{"android":"levelo://app?vid=b31c05a9-6487-4217-80a6-25821a78c060","ios":"levelo://app?vid=b31c05a9-6487-4217-80a6-25821a78c060"},"vehicle_type_id":"4","last_reported":1736852819,"current_range_meters":30400,"station_id":"ce4bhu92rcd13ifvqi70","pricing_plan_id":"cebpf4jnsgd1na2vs0mg"},{"bike_id":"4303130e-8d84-4eeb-a2c8-ac67216badf3","system_id":"levelo_inurba_marseille","lat":43.29795,"lon":5.39334,"is_reserved":false,"is_disabled":true,"rental_uris":{"android":"levelo://app?vid=4303130e-8d84-4eeb-a2c8-ac67216badf3","ios":"levelo://app?vid=4303130e-8d84-4eeb-a2c8-ac67216badf3"},"vehicle_type_id":"4","last_reported":1736852819,"current_range_meters":2000,"station_id":"chh1huq6cuj3fo74tm60","pricing_plan_id":"cebpf4jnsgd1na2vs0mg"},{"bike_id":"4a4d296c-e71a-4d73-8515-0b49a9079d8d","system_id":"levelo_inurba_marseille","lat":43.23193,"lon":5.39974,"is_reserved":false,"is_disabled":false,"rental_uris":{"android":"levelo://app?vid=4a4d296c-e71a-4d73-8515-0b49a9079d8d","ios":"levelo://app?vid=4a4d296c-e71a-4d73-8515-0b49a9079d8d"},"vehicle_type_id":"4","last_reported":1736852819,"current_range_meters":29600,"station_id":"ce4bhn12rcd13ifvqgqg","pricing_plan_id":"cebpf4jnsgd1na2vs0mg"},{"bike_id":"d367fa75-75e7-4f89-a9c1-e384f5ffb7e9","system_id":"levelo_inurba_marseille","lat":43.29613,"lon":5.37705,"is_reserved":false,"is_disabled":true,"rental_uris":{"android":"levelo://app?vid=d367fa75-75e7-4f89-a9c1-e384f5ffb7e9","ios":"levelo://app?vid=d367fa75-75e7-4f89-a9c1-e384f5ffb7e9"},"vehicle_type_id":"4","last_reported":1736852819,"current_range_meters":34000,"station_id":"ce4bgi92rcd13ifvqb90","pricing_plan_id":"cebpf4jnsgd1na2vs0mg"},{"bike_id":"e6b34210-7978-4137-b534-a3b03a983e63","system_id":"levelo_inurba_marseille","lat":43.29512,"lon":5.37528,"is_reserved":false,"is_disabled":true,"rental_uris":{"android":"levelo://app?vid=e6b34210-7978-4137-b534-a3b03a983e63","ios":"levelo://app?vid=e6b34210-7978-4137-b534-a3b03a983e63"},"vehicle_type_id":"4","last_reported":1736852819,"current_range_meters":33200,"station_id":"ce4bgkp2rcd13ifvqbmg","pricing_plan_id":"cebpf4jnsgd1na2vs0mg"},{"bike_id":"12a77688-55d2-40a5-9210-63376f169f15","system_id":"levelo_inurba_marseille","lat":43.25001,"lon":5.38939,"is_reserved":false,"is_disabled":false,"rental_uris":{"android":"levelo://app?vid=12a77688-55d2-40a5-9210-63376f169f15","ios":"levelo://app?vid=12a77688-55d2-40a5-9210-63376f169f15"},"vehicle_type_id":"4","last_reported":1736852819,"current_range_meters":17200,"station_id":"ce4bhgp2rcd13ifvqfd0","pricing_plan_id":"cebpf4jnsgd1na2vs0mg"},{"bike_id":"a73147ae-1f88-454a-8098-4eb6b7338891","system_id":"levelo_inurba_marseille","lat":43.32463,"lon":5.36584,"is_reserved":false,"is_disabled":false,"rental_uris":{"android":"levelo://app?vid=a73147ae-1f88-454a-8098-4eb6b7338891","ios":"levelo://app?vid=a73147ae-1f88-454a-8098-4eb6b7338891"},"vehicle_type_id":"4","last_reported":1736852819,"current_range_meters":30400,"station_id":"ce4bhs12rcd13ifvqhvg","pricing_plan_id":"cebpf4jnsgd1na2vs0mg"},{"bike_id":"044c7368-d383-4001-921a-b790fb7e704f","system_id":"levelo_inurba_marseille","lat":43.317,"lon":5.37782,"is_reserved":false,"is_disabled":false,"rental_uris":{"android":"levelo://app?vid=044c7368-d383-4001-921a-b790fb7e704f","ios":"levelo://app?vid=044c7368-d383-4001-921a-b790fb7e704f"},"vehicle_type_id":"4","last_reported":1736852819,"current_range_meters":39200,"station_id":"ce4bgth2rcd13ifvqch0","pricing_plan_id":"cebpf4jnsgd1na2vs0mg"},{"bike_id":"80dfe93f-820b-4d55-b8ee-668ce8b62dfc","system_id":"levelo_inurba_marseille","lat":43.32649,"lon":5.4099,"is_reserved":false,"is_disabled":false,"rental_uris":{"android":"levelo://app?vid=80dfe93f-820b-4d55-b8ee-668ce8b62dfc","ios":"levelo://app?vid=80dfe93f-820b-4d55-b8ee-668ce8b62dfc"},"vehicle_type_id":"4","last_reported":1736852819,"current_range_meters":17200,"station_id":"ce4bhpp2rcd13ifvqhgg","pricing_plan_id":"cebpf4jnsgd1na2vs0mg"},{"bike_id":"899f1ec4-8cb9-4bae-96ba-9b1408d80c6d","system_id":"levelo_inurba_marseille","lat":43.25515,"lon":5.37672,"is_reserved":false,"is_disabled":false,"rental_uris":{"android":"levelo://app?vid=899f1ec4-8cb9-4bae-96ba-9b1408d80c6d","ios":"levelo://app?vid=899f1ec4-8cb9-4bae-96ba-9b1408d80c6d"},"vehicle_type_id":"4","last_reported":1736852819,"current_range_meters":38800,"station_id":"ce4bhh12rcd13ifvqff0","pricing_plan_id":"cebpf4jnsgd1na2vs0mg"},{"bike_id":"4725ae05-b600-47b7-ba70-7352c8181ea5","system_id":"levelo_inurba_marseille","lat":43.27423,"lon":5.3906,"is_reserved":false,"is_disabled":true,"rental_uris":{"android":"levelo://app?vid=4725ae05-b600-47b7-ba70-7352c8181ea5","ios":"levelo://app?vid=4725ae05-b600-47b7-ba70-7352c8181ea5"},"vehicle_type_id":"4","last_reported":1736852819,"current_range_meters":0,"station_id":"","pricing_plan_id":"cebpf4jnsgd1na2vs0mg"},{"bike_id":"215cae93-9e75-45ee-9016-a2bd3889cbe2","system_id":"levelo_inurba_marseille","lat":43.32525,"lon":5.41475,"is_reserved":false,"is_disabled":false,"rental_uris":{"android":"levelo://app?vid=215cae93-9e75-45ee-9016-a2bd3889cbe2","ios":"levelo://app?vid=215cae93-9e75-45ee-9016-a2bd3889cbe2"},"vehicle_type_id":"4","last_reported":1736852819,"current_range_meters":38400,"station_id":"ce4bhq12rcd13ifvqhhg","pricing_plan_id":"cebpf4jnsgd1na2vs0mg"},{"bike_id":"efae254f-2ecc-4445-9b5f-4d9d52b3160c","system_id":"levelo_inurba_marseille","lat":43.3254,"lon":5.41446,"is_reserved":false,"is_disabled":false,"rental_uris":{"android":"levelo://app?vid=efae254f-2ecc-4445-9b5f-4d9d52b3160c","ios":"levelo://app?vid=efae254f-2ecc-4445-9b5f-4d9d52b3160c"},"vehicle_type_id":"4","last_reported":1736852819,"current_range_meters":24400,"station_id":"ce4bhq12rcd13ifvqhhg","pricing_plan_id":"cebpf4jnsgd1na2vs0mg"},{"bike_id":"d18a1bc5-9fd8-44f1-a18d-00fec931fd37","system_id":"levelo_inurba_marseille","lat":43.31479,"lon":5.37303,"is_reserved":false,"is_disabled":false,"rental_uris":{"android":"levelo://app?vid=d18a1bc5-9fd8-44f1-a18d-00fec931fd37","ios":"levelo://app?vid=d18a1bc5-9fd8-44f1-a18d-00fec931fd37"},"vehicle_type_id":"4","last_reported":1736852819,"current_range_meters":34000,"station_id":"ce4bgt12rcd13ifvqcd0","pricing_plan_id":"cebpf4jnsgd1na2vs0mg"},{"bike_id":"26377ff0-57b4-4ad7-ad3e-afaeb56462f0","system_id":"levelo_inurba_marseille","lat":43.25106,"lon":5.40324,"is_reserved":false,"is_disabled":false,"rental_uris":{"android":"levelo://app?vid=26377ff0-57b4-4ad7-ad3e-afaeb56462f0","ios":"levelo://app?vid=26377ff0-57b4-4ad7-ad3e-afaeb56462f0"},"vehicle_type_id":"4","last_reported":1736852819,"current_range_meters":28000,"station_id":"ce4bhlh2rcd13ifvqgig","pricing_plan_id":"cebpf4jnsgd1na2vs0mg"},{"bike_id":"e0c1ee42-3f25-47cb-92aa-bc33b4566bcf","system_id":"levelo_inurba_marseille","lat":43.31378,"lon":5.36717,"is_reserved":false,"is_disabled":false,"rental_uris":{"android":"levelo://app?vid=e0c1ee42-3f25-47cb-92aa-bc33b4566bcf","ios":"levelo://app?vid=e0c1ee42-3f25-47cb-92aa-bc33b4566bcf"},"vehicle_type_id":"4","last_reported":1736852819,"current_range_meters":38800,"station_id":"ce4bgr92rcd13ifvqc6g","pricing_plan_id":"cebpf4jnsgd1na2vs0mg"},{"bike_id":"36348e1a-1dc7-4683-96e2-31f0b7986ae7","system_id":"levelo_inurba_marseille","lat":43.2557,"lon":5.38242,"is_reserved":false,"is_disabled":false,"rental_uris":{"android":"levelo://app?vid=36348e1a-1dc7-4683-96e2-31f0b7986ae7","ios":"levelo://app?vid=36348e1a-1dc7-4683-96e2-31f0b7986ae7"},"vehicle_type_id":"4","last_reported":1736852819,"current_range_meters":32000,"station_id":"ce4bhih2rcd13ifvqfs0","pricing_plan_id":"cebpf4jnsgd1na2vs0mg"},{"bike_id":"3436c689-3408-4332-81b0-a2ad61949f47","system_id":"levelo_inurba_marseille","lat":43.29974,"lon":5.3719,"is_reserved":false,"is_disabled":false,"rental_uris":{"android":"levelo://app?vid=3436c689-3408-4332-81b0-a2ad61949f47","ios":"levelo://app?vid=3436c689-3408-4332-81b0-a2ad61949f47"},"vehicle_type_id":"4","last_reported":1736852819,"current_range_meters":8400,"station_id":"ce4bgr92rcd13ifvqc7g","pricing_plan_id":"cebpf4jnsgd1na2vs0mg"},{"bike_id":"fea11b73-bd0a-4cb1-b449-b76b2db12f05","system_id":"levelo_inurba_marseille","lat":43.26701,"lon":5.38256,"is_reserved":false,"is_disabled":false,"rental_uris":{"android":"levelo://app?vid=fea11b73-bd0a-4cb1-b449-b76b2db12f05","ios":"levelo://app?vid=fea11b73-bd0a-4cb1-b449-b76b2db12f05"},"vehicle_type_id":"4","last_reported":1736852819,"current_range_meters":28000,"station_id":"ce4bhg92rcd13ifvqf90","pricing_plan_id":"cebpf4jnsgd1na2vs0mg"},{"bike_id":"323b944a-103c-4406-a00e-553b51129a16","system_id":"levelo_inurba_marseille","lat":43.30575,"lon":5.3649,"is_reserved":false,"is_disabled":false,"rental_uris":{"android":"levelo://app?vid=323b944a-103c-4406-a00e-553b51129a16","ios":"levelo://app?vid=323b944a-103c-4406-a00e-553b51129a16"},"vehicle_type_id":"4","last_reported":1736852819,"current_range_meters":35600,"station_id":"ce4bgs12rcd13ifvqcag","pricing_plan_id":"cebpf4jnsgd1na2vs0mg"},{"bike_id":"92ddc2ae-b4d5-4fa4-b924-dbdbe92963df","system_id":"levelo_inurba_marseille","lat":43.23947,"lon":5.36667,"is_reserved":false,"is_disabled":false,"rental_uris":{"android":"levelo://app?vid=92ddc2ae-b4d5-4fa4-b924-dbdbe92963df","ios":"levelo://app?vid=92ddc2ae-b4d5-4fa4-b924-dbdbe92963df"},"vehicle_type_id":"4","last_reported":1736852819,"current_range_meters":25200,"station_id":"ce4bhi12rcd13ifvqfp0","pricing_plan_id":"cebpf4jnsgd1na2vs0mg"},{"bike_id":"09f04c85-e18e-45c9-8f71-3e02db1d4c7a","system_id":"levelo_inurba_marseille","lat":43.27373,"lon":5.36259,"is_reserved":false,"is_disabled":false,"rental_uris":{"android":"levelo://app?vid=09f04c85-e18e-45c9-8f71-3e02db1d4c7a","ios":"levelo://app?vid=09f04c85-e18e-45c9-8f71-3e02db1d4c7a"},"vehicle_type_id":"4","last_reported":1736852819,"current_range_meters":8000,"station_id":"ce4bhbh2rcd13ifvqeo0","pricing_plan_id":"cebpf4jnsgd1na2vs0mg"},{"bike_id":"2d677c2e-b0f7-4fe2-9a3d-a255e7cd855f","system_id":"levelo_inurba_marseille","lat":43.29002,"lon":5.3562,"is_reserved":false,"is_disabled":false,"rental_uris":{"android":"levelo://app?vid=2d677c2e-b0f7-4fe2-9a3d-a255e7cd855f","ios":"levelo://app?vid=2d677c2e-b0f7-4fe2-9a3d-a255e7cd855f"},"vehicle_type_id":"4","last_reported":1736852819,"current_range_meters":36000,"station_id":"ce4bhb92rcd13ifvqen0","pricing_plan_id":"cebpf4jnsgd1na2vs0mg"},{"bike_id":"1837451d-910d-41a1-bd86-6aeb4a81b680","system_id":"levelo_inurba_marseille","lat":43.31163,"lon":5.38731,"is_reserved":false,"is_disabled":false,"rental_uris":{"android":"levelo://app?vid=1837451d-910d-41a1-bd86-6aeb4a81b680","ios":"levelo://app?vid=1837451d-910d-41a1-bd86-6aeb4a81b680"},"vehicle_type_id":"4","last_reported":1736852819,"current_range_meters":7200,"station_id":"ce4bgv12rcd13ifvqcp0","pricing_plan_id":"cebpf4jnsgd1na2vs0mg"},{"bike_id":"31138691-f32e-4dd8-8615-cbb1ab58a146","system_id":"levelo_inurba_marseille","lat":43.29002,"lon":5.3562,"is_reserved":false,"is_disabled":false,"rental_uris":{"android":"levelo://app?vid=31138691-f32e-4dd8-8615-cbb1ab58a146","ios":"levelo://app?vid=31138691-f32e-4dd8-8615-cbb1ab58a146"},"vehicle_type_id":"4","last_reported":1736852819,"current_range_meters":38400,"station_id":"ce4bhb92rcd13ifvqen0","pricing_plan_id":"cebpf4jnsgd1na2vs0mg"},{"bike_id":"40026eb9-05e9-4acc-9419-7ce84aa1cdcd","system_id":"levelo_inurba_marseille","lat":43.30545,"lon":5.36544,"is_reserved":false,"is_disabled":false,"rental_uris":{"android":"levelo://app?vid=40026eb9-05e9-4acc-9419-7ce84aa1cdcd","ios":"levelo://app?vid=40026eb9-05e9-4acc-9419-7ce84aa1cdcd"},"vehicle_type_id":"4","last_reported":1736852819,"current_range_meters":36800,"station_id":"ce4bgs12rcd13ifvqcag","pricing_plan_id":"cebpf4jnsgd1na2vs0mg"},{"bike_id":"5d6ee491-db6f-4a2a-8dad-1e433239109a","system_id":"levelo_inurba_marseille","lat":43.25585,"lon":5.38236,"is_reserved":false,"is_disabled":false,"rental_uris":{"android":"levelo://app?vid=5d6ee491-db6f-4a2a-8dad-1e433239109a","ios":"levelo://app?vid=5d6ee491-db6f-4a2a-8dad-1e433239109a"},"vehicle_type_id":"4","last_reported":1736852819,"current_range_meters":36800,"station_id":"ce4bhih2rcd13ifvqfs0","pricing_plan_id":"cebpf4jnsgd1na2vs0mg"},{"bike_id":"52207fe2-dd85-4a54-bca8-692745b1ae02","system_id":"levelo_inurba_marseille","lat":43.2657,"lon":5.39014,"is_reserved":false,"is_disabled":false,"rental_uris":{"android":"levelo://app?vid=52207fe2-dd85-4a54-bca8-692745b1ae02","ios":"levelo://app?vid=52207fe2-dd85-4a54-bca8-692745b1ae02"},"vehicle_type_id":"4","last_reported":1736852819,"current_range_meters":21600,"station_id":"ce4bhe12rcd13ifvqf30","pricing_plan_id":"cebpf4jnsgd1na2vs0mg"},{"bike_id":"50918e02-7c4e-4976-a346-69194003d61f","system_id":"levelo_inurba_marseille","lat":43.32542,"lon":5.41437,"is_reserved":false,"is_disabled":false,"rental_uris":{"android":"levelo://app?vid=50918e02-7c4e-4976-a346-69194003d61f","ios":"levelo://app?vid=50918e02-7c4e-4976-a346-69194003d61f"},"vehicle_type_id":"4","last_reported":1736852819,"current_range_meters":36400,"station_id":"ce4bhq12rcd13ifvqhhg","pricing_plan_id":"cebpf4jnsgd1na2vs0mg"},