{"last_updated":1758273094,"ttl":60,"version":"2.2","data":{"bikes":[{"bike_id":"f485ce7d-e89d-4cbf-b297-d49027a854f1","system_id":"levelo_inurba_marseille","lat":43.2848,"lon":5.38424,"is_reserved":false,"is_disabled":false,"rental_uris":{"android":"levelo://app?vid=f485ce7d-e89d-4cbf-b297-d49027a854f1","ios":"levelo://app?vid=f485ce7d-e89d-4cbf-b297-d49027a854f1"},"vehicle_type_id":"4","last_reported":1758273094,"current_range_meters":2800,"station_id":"ce4bh512rcd13ifvqe3g","pricing_plan_id":"cebpf4jnsgd1na2vs0mg"},{"bike_id":"e820c689-e974-4315-9bed-010e44b9c698","system_id":"levelo_inurba_marseille","lat":43.28106,"lon":5.35032,"is_reserved":false,"is_disabled":false,"rental_uris":{"android":"levelo://app?vid=e820c689-e974-4315-9bed-010e44b9c698","ios":"levelo://app?vid=e820c689-e974-4315-9bed-010e44b9c698"},"vehicle_type_id":"4","last_reported":1758273094,"current_range_meters":2800,"station_id":"","pricing_plan_id":"cebpf4jnsgd1na2vs0mg"},{"bike_id":"5cebaa99-7be9-4a3f-9cc0-5cdfdaef03f0","system_id":"levelo_inurba_marseille","lat":43.22551,"lon":5.34771,"is_reserved":false,"is_disabled":false,"rental_uris":{"android":"levelo://app?vid=5cebaa99-7be9-4a3f-9cc0-5cdfdaef03f0","ios":"levelo://app?vid=5cebaa99-7be9-4a3f-9cc0-5cdfdaef03f0"},"vehicle_type_id":"4","last_reported":1758273094,"current_range_meters":2800,"station_id":"","pricing_plan_id":"cebpf4jnsgd1na2vs0mg"},{"bike_id":"5af81060-7322-4d7a-b156-a5357fb3ce95","system_id":"levelo_inurba_marseille","lat":43.32112,"lon":5.36765,"is_reserved":false,"is_disabled":false,"rental_uris":{"android":"levelo://app?vid=5af81060-7322-4d7a-b156-a5357fb3ce95","ios":"levelo://app?vid=5af81060-7322-4d7a-b156-a5357fb3ce95"},"vehicle_type_id":"4","last_reported":1758273094,"current_range_meters":3200,"station_id":"ce4bhrh2rcd13ifvqhug","pricing_plan_id":"cebpf4jnsgd1na2vs0mg"},{"bike_id":"c3476bb2-f99b-4e73-9527-e4981a66e6b0","system_id":"levelo_inurba_marseille","lat":43.28981,"lon":5.37838,"is_reserved":false,"is_disabled":false,"rental_uris":{"android":"levelo://app?vid=c3476bb2-f99b-4e73-9527-e4981a66e6b0","ios":"levelo://app?vid=c3476bb2-f99b-4e73-9527-e4981a66e6b0"},"vehicle_type_id":"4","last_reported":1758273094,"current_range_meters":3200,"station_id":"ce4bh9p2rcd13ifvqed0","pricing_plan_id":"cebpf4jnsgd1na2vs0mg"},{"bike_id":"1fd45cba-6e68-40ac-af83-469fd431a5b4","system_id":"levelo_inurba_marseille","lat":43.29789,"lon":5.37095,"is_reserved":false,"is_disabled":false,"rental_uris":{"android":"levelo://app?vid=1fd45cba-6e68-40ac-af83-469fd431a5b4","ios":"levelo://app?vid=1fd45cba-6e68-40ac-af83-469fd431a5b4"},"vehicle_type_id":"4","last_reported":1758273094,"current_range_meters":3200,"station_id":"ce4bgop2rcd13ifvqc1g","pricing_plan_id":"cebpf4jnsgd1na2vs0mg"},{"bike_id":"934c5168-e075-4a56-97a0-c69ec4459e73","system_id":"levelo_inurba_marseille","lat":43.23152,"lon":5.43703,"is_reserved":false,"is_disabled":false,"rental_uris":{"android":"levelo://app?vid=934c5168-e075-4a56-97a0-c69ec4459e73","ios":"levelo://app?vid=934c5168-e075-4a56-97a0-c69ec4459e73"},"vehicle_type_id":"4","last_reported":1758273094,"current_range_meters":4800,"station_id":"ce4bhmp2rcd13ifvqgog","pricing_plan_id":"cebpf4jnsgd1na2vs0mg"},{"bike_id":"c8f22e9e-b4d2-43ee-b3b0-8c4373db1570","system_id":"levelo_inurba_marseille","lat":43.29555,"lon":5.37502,"is_reserved":false,"is_disabled":false,"rental_uris":{"android":"levelo://app?vid=c8f22e9e-b4d2-43ee-b3b0-8c4373db1570","ios":"levelo://app?vid=c8f22e9e-b4d2-43ee-b3b0-8c4373db1570"},"vehicle_type_id":"4","last_reported":1758273094,"current_range_meters":3600,"station_id":"ce4bgh92rcd13ifvqb50","pricing_plan_id":"cebpf4jnsgd1na2vs0mg"},{"bike_id":"37f7848f-56c1-4c01-8e11-21ccd734352d","system_id":"levelo_inurba_marseille","lat":43.25812,"lon":5.3941,"is_reserved":false,"is_disabled":false,"rental_uris":{"android":"levelo://app?vid=37f7848f-56c1-4c01-8e11-21ccd734352d","ios":"levelo://app?vid=37f7848f-56c1-4c01-8e11-21ccd734352d"},"vehicle_type_id":"4","last_reported":1758273094,"current_range_meters":4000,"station_id":"ce4bhip2rcd13ifvqft0","pricing_plan_id":"cebpf4jnsgd1na2vs0mg"},{"bike_id":"67619d99-f02a-4b9a-a974-e771e2d762d4","system_id":"levelo_inurba_marseille","lat":43.282684,"lon":5.350605,"is_reserved":false,"is_disabled":false,"rental_uris":{"android":"levelo://app?vid=67619d99-f02a-4b9a-a974-e771e2d762d4","ios":"levelo://app?vid=67619d99-f02a-4b9a-a974-e771e2d762d4"},"vehicle_type_id":"4","last_reported":1758273094,"current_range_meters":4400,"station_id":"ce4bhbp2rcd13ifvqerg","pricing_plan_id":"cebpf4jnsgd1na2vs0mg"},{"bike_id":"059c0ba7-1dcb-4f29-8d05-6060640937cc","system_id":"levelo_inurba_marseille","lat":43.32975,"lon":5.38923,"is_reserved":false,"is_disabled":false,"rental_uris":{"android":"levelo://app?vid=059c0ba7-1dcb-4f29-8d05-6060640937cc","ios":"levelo://app?vid=059c0ba7-1dcb-4f29-8d05-6060640937cc"},"vehicle_type_id":"4","last_reported":1758273094,"current_range_meters":4400,"station_id":"","pricing_plan_id":"cebpf4jnsgd1na2vs0mg"},{"bike_id":"2f998abd-7d9f-42bc-bbde-9f65420d8839","system_id":"levelo_inurba_marseille","lat":43.295204,"lon":5.390413,"is_reserved":false,"is_disabled":false,"rental_uris":{"android":"levelo://app?vid=2f998abd-7d9f-42bc-bbde-9f65420d8839","ios":"levelo://app?vid=2f998abd-7d9f-42bc-bbde-9f65420d8839"},"vehicle_type_id":"4","last_reported":1758273094,"current_range_meters":4400,"station_id":"ce4bh3p2rcd13ifvqdp0","pricing_plan_id":"cebpf4jnsgd1na2vs0mg"},{"bike_id":"6a6b0984-a6e7-45d6-8bf0-689ce173b75e","system_id":"levelo_inurba_marseille","lat":43.30131,"lon":5.37425,"is_reserved":false,"is_disabled":false,"rental_uris":{"android":"levelo://app?vid=6a6b0984-a6e7-45d6-8bf0-689ce173b75e","ios":"levelo://app?vid=6a6b0984-a6e7-45d6-8bf0-689ce173b75e"},"vehicle_type_id":"4","last_reported":1758273094,"current_range_meters":4400,"station_id":"ce4bgs92rcd13ifvqcc0","pricing_plan_id":"cebpf4jnsgd1na2vs0mg"},{"bike_id":"6f23014c-eadd-44d8-8739-0edc9f01479a","system_id":"levelo_inurba_marseille","lat":43.33486,"lon":5.41032,"is_reserved":false,"is_disabled":false,"rental_uris":{"android":"levelo://app?vid=6f23014c-eadd-44d8-8739-0edc9f01479a","ios":"levelo://app?vid=6f23014c-eadd-44d8-8739-0edc9f01479a"},"vehicle_type_id":"4","last_reported":1758273094,"current_range_meters":4400,"station_id":"","pricing_plan_id":"cebpf4jnsgd1na2vs0mg"},{"bike_id":"190d0825-c1b9-4efd-8a03-d87285d4a5b6","system_id":"levelo_inurba_marseille","lat":43.29808,"lon":5.37706,"is_reserved":false,"is_disabled":false,"rental_uris":{"android":"levelo://app?vid=190d0825-c1b9-4efd-8a03-d87285d4a5b6","ios":"levelo://app?vid=190d0825-c1b9-4efd-8a03-d87285d4a5b6"},"vehicle_type_id":"4","last_reported":1758273094,"current_range_meters":4400,"station_id":"","pricing_plan_id":"cebpf4jnsgd1na2vs0mg"},{"bike_id":"6601c219-0a03-46d3-8441-efbda7ca6a1f","system_id":"levelo_inurba_marseille","lat":43.286085,"lon":5.351028,"is_reserved":false,"is_disabled":false,"rental_uris":{"android":"levelo://app?vid=6601c219-0a03-46d3-8441-efbda7ca6a1f","ios":"levelo://app?vid=6601c219-0a03-46d3-8441-efbda7ca6a1f"},"vehicle_type_id":"4","last_reported":1758273094,"current_range_meters":4800,"station_id":"ce4bhch2rcd13ifvqeug","pricing_plan_id":"cebpf4jnsgd1na2vs0mg"},{"bike_id":"1790256a-3aac-4067-aa24-35ce37b2ff86","system_id":"levelo_inurba_marseille","lat":43.26166,"lon":5.40452,"is_reserved":false,"is_disabled":false,"rental_uris":{"android":"levelo://app?vid=1790256a-3aac-4067-aa24-35ce37b2ff86","ios":"levelo://app?vid=1790256a-3aac-4067-aa24-35ce37b2ff86"},"vehicle_type_id":"4","last_reported":1758273094,"current_range_meters":4800,"station_id":"ce4bhmh2rcd13ifvqgmg","pricing_plan_id":"cebpf4jnsgd1na2vs0mg"},{"bike_id":"b1ad06da-c5c7-4bbc-a75f-8d33f640fa4d","system_id":"levelo_inurba_marseille","lat":43.30429,"lon":5.39743,"is_reserved":false,"is_disabled":false,"rental_uris":{"android":"levelo://app?vid=b1ad06da-c5c7-4bbc-a75f-8d33f640fa4d","ios":"levelo://app?vid=b1ad06da-c5c7-4bbc-a75f-8d33f640fa4d"},"vehicle_type_id":"4","last_reported":1758273094,"current_range_meters":5600,"station_id":"ce4bh092rcd13ifvqd20","pricing_plan_id":"cebpf4jnsgd1na2vs0mg"},{"bike_id":"c8f3eb8f-90da-4a49-bd20-5e97ca5d1bfa","system_id":"levelo_inurba_marseille","lat":43.28997,"lon":5.35612,"is_reserved":false,"is_disabled":false,"rental_uris":{"android":"levelo://app?vid=c8f3eb8f-90da-4a49-bd20-5e97ca5d1bfa","ios":"levelo://app?vid=c8f3eb8f-90da-4a49-bd20-5e97ca5d1bfa"},"vehicle_type_id":"4","last_reported":1758273094,"current_range_meters":5600,"station_id":"ce4bhb92rcd13ifvqen0","pricing_plan_id":"cebpf4jnsgd1na2vs0mg"},{"bike_id":"37152480-c4e5-4332-a12f-b216903d21ef","system_id":"levelo_inurba_marseille","lat":43.28219,"lon":5.39075,"is_reserved":false,"is_disabled":false,"rental_uris":{"android":"levelo://app?vid=37152480-c4e5-4332-a12f-b216903d21ef","ios":"levelo://app?vid=37152480-c4e5-4332-a12f-b216903d21ef"},"vehicle_type_id":"4","last_reported":1758273094,"current_range_meters":5600,"station_id":"ce4bhn92rcd13ifvqgsg","pricing_plan_id":"cebpf4jnsgd1na2vs0mg"},{"bike_id":"71f98bea-d2c6-4708-9011-517b72f720c3","system_id":"levelo_inurba_marseille","lat":43.2256,"lon":5.41626,"is_reserved":false,"is_disabled":false,"rental_uris":{"android":"levelo://app?vid=71f98bea-d2c6-4708-9011-517b72f720c3","ios":"levelo://app?vid=71f98bea-d2c6-4708-9011-517b72f720c3"},"vehicle_type_id":"4","last_reported":1758273094,"current_range_meters":5600,"station_id":"st_d2o4gvlbi1j2169b742g","pricing_plan_id":"cebpf4jnsgd1na2vs0mg"},{"bike_id":"21a4b02b-9151-41e7-89e0-403ad01d24d6","system_id":"levelo_inurba_marseille","lat":43.33765,"lon":5.37469,"is_reserved":false,"is_disabled":false,"rental_uris":{"android":"levelo://app?vid=21a4b02b-9151-41e7-89e0-403ad01d24d6","ios":"levelo://app?vid=21a4b02b-9151-41e7-89e0-403ad01d24d6"},"vehicle_type_id":"4","last_reported":1758273094,"current_range_meters":6000,"station_id":"","pricing_plan_id":"cebpf4jnsgd1na2vs0mg"},{"bike_id":"fade9a79-c4a8-4095-a0eb-66ef9fd35500","system_id":"levelo_inurba_marseille","lat":43.25922,"lon":5.40895,"is_reserved":false,"is_disabled":false,"rental_uris":{"android":"levelo://app?vid=fade9a79-c4a8-4095-a0eb-66ef9fd35500","ios":"levelo://app?vid=fade9a79-c4a8-4095-a0eb-66ef9fd35500"},"vehicle_type_id":"4","last_reported":1758273094,"current_range_meters":6000,"station_id":"ce4bhm92rcd13ifvqglg","pricing_plan_id":"cebpf4jnsgd1na2vs0mg"},{"bike_id":"c8c4cf04-75df-4a96-b1dd-af8af755531b","system_id":"levelo_inurba_marseille","lat":43.31071,"lon":5.38351,"is_reserved":false,"is_disabled":false,"rental_uris":{"android":"levelo://app?vid=c8c4cf04-75df-4a96-b1dd-af8af755531b","ios":"levelo://app?vid=c8c4cf04-75df-4a96-b1dd-af8af755531b"},"vehicle_type_id":"4","last_reported":1758273094,"current_range_meters":6000,"station_id":"ce4bgv92rcd13ifvqcr0","pricing_plan_id":"cebpf4jnsgd1na2vs0mg"},{"bike_id":"45afe5f4-5cbe-49c2-a913-33c967100178","system_id":"levelo_inurba_marseille","lat":43.29776,"lon":5.380931,"is_reserved":false,"is_disabled":false,"rental_uris":{"android":"levelo://app?vid=45afe5f4-5cbe-49c2-a913-33c967100178","ios":"levelo://app?vid=45afe5f4-5cbe-49c2-a913-33c967100178"},"vehicle_type_id":"4","last_reported":1758273094,"current_range_meters":6000,"station_id":"","pricing_plan_id":"cebpf4jnsgd1na2vs0mg"},{"bike_id":"47b8f203-cd75-4bdc-a738-626e6fd811e9","system_id":"levelo_inurba_marseille","lat":43.24381,"lon":5.37064,"is_reserved":false,"is_disabled":false,"rental_uris":{"android":"levelo://app?vid=47b8f203-cd75-4bdc-a738-626e6fd811e9","ios":"levelo://app?vid=47b8f203-cd75-4bdc-a738-626e6fd811e9"},"vehicle_type_id":"4","last_reported":1758273094,"current_range_meters":6400,"station_id":"ce4bhhh2rcd13ifvqfk0","pricing_plan_id":"cebpf4jnsgd1na2vs0mg"},{"bike_id":"7432172a-5f4c-405d-a59b-830718959c34","system_id":"levelo_inurba_marseille","lat":43.29034,"lon":5.37545,"is_reserved":false,"is_disabled":false,"rental_uris":{"android":"levelo://app?vid=7432172a-5f4c-405d-a59b-830718959c34","ios":"levelo://app?vid=7432172a-5f4c-405d-a59b-830718959c34"},"vehicle_type_id":"4","last_reported":1758273094,"current_range_meters":6400,"station_id":"ce4bh692rcd13ifvqe90","pricing_plan_id":"cebpf4jnsgd1na2vs0mg"},{"bike_id":"61beea36-4bda-4aa6-84ea-eeb119cc83ff","system_id":"levelo_inurba_marseille","lat":43.225324,"lon":5.348382,"is_reserved":false,"is_disabled":false,"rental_uris":{"android":"levelo://app?vid=61beea36-4bda-4aa6-84ea-eeb119cc83ff","ios":"levelo://app?vid=61beea36-4bda-4aa6-84ea-eeb119cc83ff"},"vehicle_type_id":"4","last_reported":1758273094,"current_range_meters":6400,"station_id":"","pricing_plan_id":"cebpf4jnsgd1na2vs0mg"},{"bike_id":"55dabd6d-650f-4485-8c0b-6a5763700e61","system_id":"levelo_inurba_marseille","lat":43.25774,"lon":5.38712,"is_reserved":false,"is_disabled":false,"rental_uris":{"android":"levelo://app?vid=55dabd6d-650f-4485-8c0b-6a5763700e61","ios":"levelo://app?vid=55dabd6d-650f-4485-8c0b-6a5763700e61"},"vehicle_type_id":"4","last_reported":1758273094,"current_range_meters":6400,"station_id":"","pricing_plan_id":"cebpf4jnsgd1na2vs0mg"},{"bike_id":"77296618-5126-4bd2-9383-ee97a55ced7c","system_id":"levelo_inurba_marseille","lat":43.33758,"lon":5.37495,"is_reserved":false,"is_disabled":false,"rental_uris":{"android":"levelo://app?vid=77296618-5126-4bd2-9383-ee97a55ced7c","ios":"levelo://app?vid=77296618-5126-4bd2-9383-ee97a55ced7c"},"vehicle_type_id":"4","last_reported":1758273094,"current_range_meters":6800,"station_id":"","pricing_plan_id":"cebpf4jnsgd1na2vs0mg"},{"bike_id":"0e21f20d-e541-4e87-b362-394afbfa1e68","system_id":"levelo_inurba_marseille","lat":43.2655,"lon":5.37278,"is_reserved":false,"is_disabled":false,"rental_uris":{"android":"levelo://app?vid=0e21f20d-e541-4e87-b362-394afbfa1e68","ios":"levelo://app?vid=0e21f20d-e541-4e87-b362-394afbfa1e68"},"vehicle_type_id":"4","last_reported":1758273094,"current_range_meters":6800,"station_id":"ce4bhg12rcd13ifvqf70","pricing_plan_id":"cebpf4jnsgd1na2vs0mg"},{"bike_id":"55dfb17a-dc13-4669-82ac-2c676d600c2d","system_id":"levelo_inurba_marseille","lat":43.31351,"lon":5.37936,"is_reserved":false,"is_disabled":true,"rental_uris":{"android":"levelo://app?vid=55dfb17a-dc13-4669-82ac-2c676d600c2d","ios":"levelo://app?vid=55dfb17a-dc13-4669-82ac-2c676d600c2d"},"vehicle_type_id":"4","last_reported":1758273094,"current_range_meters":6800,"station_id":"","pricing_plan_id":"cebpf4jnsgd1na2vs0mg"},{"bike_id":"7745eab8-3d48-4349-b863-861b7cc7cbd1","system_id":"levelo_inurba_marseille","lat":43.290054,"lon":5.381405,"is_reserved":false,"is_disabled":false,"rental_uris":{"android":"levelo://app?vid=7745eab8-3d48-4349-b863-861b7cc7cbd1","ios":"levelo://app?vid=7745eab8-3d48-4349-b863-861b7cc7cbd1"},"vehicle_type_id":"4","last_reported":1758273094,"current_range_meters":7200,"station_id":"","pricing_plan_id":"cebpf4jnsgd1na2vs0mg"},{"bike_id":"a0594a40-ec8d-4136-b657-7544b2098734","system_id":"levelo_inurba_marseille","lat":43.30137,"lon":5.38077,"is_reserved":false,"is_disabled":false,"rental_uris":{"android":"levelo://app?vid=a0594a40-ec8d-4136-b657-7544b2098734","ios":"levelo://app?vid=a0594a40-ec8d-4136-b657-7544b2098734"},"vehicle_type_id":"4","last_reported":1758273094,"current_range_meters":7200,"station_id":"ce4bgjp2rcd13ifvqbh0","pricing_plan_id":"cebpf4jnsgd1na2vs0mg"},{"bike_id":"55eb9bad-8159-4d2e-8331-e18215ecc476","system_id":"levelo_inurba_marseille","lat":43.25903,"lon":5.40909,"is_reserved":false,"is_disabled":false,"rental_uris":{"android":"levelo://app?vid=55eb9bad-8159-4d2e-8331-e18215ecc476","ios":"levelo://app?vid=55eb9bad-8159-4d2e-8331-e18215ecc476"},"vehicle_type_id":"4","last_reported":1758273094,"current_range_meters":7200,"station_id":"ce4bhm92rcd13ifvqglg","pricing_plan_id":"cebpf4jnsgd1na2vs0mg"},{"bike_id":"2faaeef6-9609-417b-977e-225474ae313c","system_id":"levelo_inurba_marseille","lat":43.26781,"lon":5.39416,"is_reserved":false,"is_disabled":false,"rental_uris":{"android":"levelo://app?vid=2faaeef6-9609-417b-977e-225474ae313c","ios":"levelo://app?vid=2faaeef6-9609-417b-977e-225474ae313c"},"vehicle_type_id":"4","last_reported":1758273094,"current_range_meters":8000,"station_id":"ce4bhh12rcd13ifvqfg0","pricing_plan_id":"cebpf4jnsgd1na2vs0mg"},{"bike_id":"f6c49ab6-6998-4a1c-8178-f58b528efa93","system_id":"levelo_inurba_marseille","lat":43.30638,"lon":5.40096,"is_reserved":false,"is_disabled":false,"rental_uris":{"android":"levelo://app?vid=f6c49ab6-6998-4a1c-8178-f58b528efa93","ios":"levelo://app?vid=f6c49ab6-6998-4a1c-8178-f58b528efa93"},"vehicle_type_id":"4","last_reported":1758273094,"current_range_meters":8000,"station_id":"ce4bh112rcd13ifvqda0","pricing_plan_id":"cebpf4jnsgd1na2vs0mg"},{"bike_id":"d4361cae-d513-4968-86ab-d2a76f74da3b","system_id":"levelo_inurba_marseille","lat":43.29253,"lon":5.37616,"is_reserved":false,"is_disabled":false,"rental_uris":{"android":"levelo://app?vid=d4361cae-d513-4968-86ab-d2a76f74da3b","ios":"levelo://app?vid=d4361cae-d513-4968-86ab-d2a76f74da3b"},"vehicle_type_id":"4","last_reported":1758273094,"current_range_meters":8400,"station_id":"ce4bgi12rcd13ifvqb80","pricing_plan_id":"cebpf4jnsgd1na2vs0mg"},{"bike_id":"b8be6ed6-d2b6-4917-80cc-73a9f9f99f52","system_id":"levelo_inurba_marseille","lat":43.23148,"lon":5.43719,"is_reserved":false,"is_disabled":false,"rental_uris":{"android":"levelo://app?vid=b8be6ed6-d2b6-4917-80cc-73a9f9f99f52","ios":"levelo://app?vid=b8be6ed6-d2b6-4917-80cc-73a9f9f99f52"},"vehicle_type_id":"4","last_reported":1758273094,"current_range_meters":8400,"station_id":"ce4bhmp2rcd13ifvqgog","pricing_plan_id":"cebpf4jnsgd1na2vs0mg"},{"bike_id":"a6437344-a4d2-49c0-a66b-cba30a39ca5b","system_id":"levelo_inurba_marseille","lat":43.27966,"lon":5.38751,"is_reserved":false,"is_disabled":false,"rental_uris":{"android":"levelo://app?vid=a6437344-a4d2-49c0-a66b-cba30a39ca5b","ios":"levelo://app?vid=a6437344-a4d2-49c0-a66b-cba30a39ca5b"},"vehicle_type_id":"4","last_reported":1758273094,"current_range_meters":12800,"station_id":"ce4bhg12rcd13ifvqf80","pricing_plan_id":"cebpf4jnsgd1na2vs0mg"},{"bike_id":"109109c5-c094-41df-a28b-7501237258c3","system_id":"levelo_inurba_marseille","lat":43.30143,"lon":5.38084,"is_reserved":false,"is_disabled":false,"rental_uris":{"android":"levelo://app?vid=109109c5-c094-41df-a28b-7501237258c3","ios":"levelo://app?vid=109109c5-c094-41df-a28b-7501237258c3"},"vehicle_type_id":"4","last_reported":1758273094,"current_range_meters":8400,"station_id":"ce4bgjp2rcd13ifvqbh0","pricing_plan_id":"cebpf4jnsgd1na2vs0mg"},{"bike_id":"cf66592a-d8fa-4c6c-9927-5d7a9fef5026","system_id":"levelo_inurba_marseille","lat":43.26267,"lon":5.39832,"is_reserved":false,"is_disabled":false,"rental_uris":{"android":"levelo://app?vid=cf66592a-d8fa-4c6c-9927-5d7a9fef5026","ios":"levelo://app?vid=cf66592a-d8fa-4c6c-9927-5d7a9fef5026"},"vehicle_type_id":"4","last_reported":1758273094,"current_range_meters":8400,"station_id":"","pricing_plan_id":"cebpf4jnsgd1na2vs0mg"},{"bike_id":"5270f89b-7adb-46fa-9465-737115185fe7","system_id":"levelo_inurba_marseille","lat":43.33606,"lon":5.41027,"is_reserved":false,"is_disabled":false,"rental_uris":{"android":"levelo://app?vid=5270f89b-7adb-46fa-9465-737115185fe7","ios":"levelo://app?vid=5270f89b-7adb-46fa-9465-737115185fe7"},"vehicle_type_id":"4","last_reported":1758273094,"current_range_meters":8400,"station_id":"ce4bhqh2rcd13ifvqhmg","pricing_plan_id":"cebpf4jnsgd1na2vs0mg"},{"bike_id":"7ebfaaab-df55-4d1e-84d7-e0a0ff170dd9","system_id":"levelo_inurba_marseille","lat":43.31223,"lon":5.36877,"is_reserved":false,"is_disabled":false,"rental_uris":{"android":"levelo://app?vid=7ebfaaab-df55-4d1e-84d7-e0a0ff170dd9","ios":"levelo://app?vid=7ebfaaab-df55-4d1e-84d7-e0a0ff170dd9"},"vehicle_type_id":"4","last_reported":1758273094,"current_range_meters":8800,"station_id":"ce4bgl92rcd13ifvqbq0","pricing_plan_id":"cebpf4jnsgd1na2vs0mg"},{"bike_id":"9ed8f41c-ed70-4652-8086-bdb21017f3cf","system_id":"levelo_inurba_marseille","lat":43.30898,"lon":5.36848,"is_reserved":false,"is_disabled":false,"rental_uris":{"android":"levelo://app?vid=9ed8f41c-ed70-4652-8086-bdb21017f3cf","ios":"levelo://app?vid=9ed8f41c-ed70-4652-8086-bdb21017f3cf"},"vehicle_type_id":"4","last_reported":1758273094,"current_range_meters":8800,"station_id":"ce4bgn92rcd13ifvqbvg","pricing_plan_id":"cebpf4jnsgd1na2vs0mg"},{"bike_id":"b6cd050c-3621-4111-b672-a130f51f2ac9","system_id":"levelo_inurba_marseille","lat":43.23149,"lon":5.437217,"is_reserved":false,"is_disabled":false,"rental_uris":{"android":"levelo://app?vid=b6cd050c-3621-4111-b672-a130f51f2ac9","ios":"levelo://app?vid=b6cd050c-3621-4111-b672-a130f51f2ac9"},"vehicle_type_id":"4","last_reported":1758273094,"current_range_meters":8800,"station_id":"ce4bhmp2rcd13ifvqgog","pricing_plan_id":"cebpf4jnsgd1na2vs0mg"},{"bike_id":"d1788760-0706-4b90-8999-db00a9e42210","system_id":"levelo_inurba_marseille","lat":43.32797,"lon":5.41011,"is_reserved":false,"is_disabled":true,"rental_uris":{"android":"levelo://app?vid=d1788760-0706-4b90-8999-db00a9e42210","ios":"levelo://app?vid=d1788760-0706-4b90-8999-db00a9e42210"},"vehicle_type_id":"4","last_reported":1758273094,"current_range_meters":8800,"station_id":"","pricing_plan_id":"cebpf4jnsgd1na2vs0mg"},{"bike_id":"2dec8c38-8e53-4475-a4f2-5caebfd8a70e","system_id":"levelo_inurba_marseille","lat":43.33776,"lon":5.37413,"is_reserved":false,"is_disabled":false,"rental_uris":{"android":"levelo://app?vid=2dec8c38-8e53-4475-a4f2-5caebfd8a70e","ios":"levelo://app?vid=2dec8c38-8e53-4475-a4f2-5caebfd8a70e"},"vehicle_type_id":"4","last_reported":1758273094,"current_range_meters":8800,"station_id":"","pricing_plan_id":"cebpf4jnsgd1na2vs0mg"},{"bike_id":"a826ad86-657e-471a-9f88-068a8cb0ac1f","system_id":"levelo_inurba_marseille","lat":43.28376,"lon":5.4318,"is_reserved":false,"is_disabled":false,"rental_uris":{"android":"levelo://app?vid=a826ad86-657e-471a-9f88-068a8cb0ac1f","ios":"levelo://app?vid=a826ad86-657e-471a-9f88-068a8cb0ac1f"},"vehicle_type_id":"4","last_reported":1758273094,"current_range_meters":8800,"station_id":"","pricing_plan_id":"cebpf4jnsgd1na2vs0mg"},{"bike_id":"7cd98a07-771f-4451-8dd1-f7ed20ecc98e","system_id":"levelo_inurba_marseille","lat":43.23155,"lon":5.43702,"is_reserved":false,"is_disabled":false,"rental_uris":{"android":"levelo://app?vid=7cd98a07-771f-4451-8dd1-f7ed20ecc98e","ios":"levelo://app?vid=7cd98a07-771f-4451-8dd1-f7ed20ecc98e"},"vehicle_type_id":"4","last_reported":1758273094,"current_range_meters":9200,"station_id":"ce4bhmp2rcd13ifvqgog","pricing_plan_id":"cebpf4jnsgd1na2vs0mg"},{"bike_id":"64b8f5d2-16ee-4c85-a97d-7145fcb10104","system_id":"levelo_inurba_marseille","lat":43.225343,"lon":5.348349,"is_reserved":false,"is_disabled":false,"rental_uris":{"android":"levelo://app?vid=64b8f5d2-16ee-4c85-a97d-7145fcb10104","ios":"levelo://app?vid=64b8f5d2-16ee-4c85-a97d-7145fcb10104"},"vehicle_type_id":"4","last_reported":1758273094,"current_range_meters":9200,"station_id":"","pricing_plan_id":"cebpf4jnsgd1na2vs0mg"},{"bike_id":"478334ec-9cdb-4774-9765-4233995fe0cf","system_id":"levelo_inurba_marseille","lat":43.29622,"lon":5.40575,"is_reserved":false,"is_disabled":false,"rental_uris":{"android":"levelo://app?vid=478334ec-9cdb-4774-9765-4233995fe0cf","ios":"levelo://app?vid=478334ec-9cdb-4774-9765-4233995fe0cf"},"vehicle_type_id":"4","last_reported":1758273094,"current_range_meters":9200,"station_id":"ce4bh0h2rcd13ifvqd60","pricing_plan_id":"cebpf4jnsgd1na2vs0mg"},{"bike_id":"d464371b-ca78-417e-bcc4-201ab591da51","system_id":"levelo_inurba_marseille","lat":43.30342,"lon":5.37873,"is_reserved":false,"is_disabled":false,"rental_uris":{"android":"levelo://app?vid=d464371b-ca78-417e-bcc4-201ab591da51","ios":"levelo://app?vid=d464371b-ca78-417e-bcc4-201ab591da51"},"vehicle_type_id":"4","last_reported":1758273094,"current_range_meters":9200,"station_id":"","pricing_plan_id":"cebpf4jnsgd1na2vs0mg"},{"bike_id":"67bc5bed-2d3c-456b-b462-8085b8f0f7c8","system_id":"levelo_inurba_marseille","lat":43.2901,"lon":5.35606,"is_reserved":false,"is_disabled":false,"rental_uris":{"android":"levelo://app?vid=67bc5bed-2d3c-456b-b462-8085b8f0f7c8","ios":"levelo://app?vid=67bc5bed-2d3c-456b-b462-8085b8f0f7c8"},"vehicle_type_id":"4","last_reported":1758273094,"current_range_meters":9200,"station_id":"ce4bhb92rcd13ifvqen0","pricing_plan_id":"cebpf4jnsgd1na2vs0mg"},{"bike_id":"b3b5696c-4b9c-4f56-a434-67907d6e727e","system_id":"levelo_inurba_marseille","lat":43.28841,"lon":5.39304,"is_reserved":false,"is_disabled":false,"rental_uris":{"android":"levelo://app?vid=b3b5696c-4b9c-4f56-a434-67907d6e727e","ios":"levelo://app?vid=b3b5696c-4b9c-4f56-a434-67907d6e727e"},"vehicle_type_id":"4","last_reported":1758273094,"current_range_meters":9200,"station_id":"ce4bh2p2rcd13ifvqdi0","pricing_plan_id":"cebpf4jnsgd1na2vs0mg"},{"bike_id":"451c3e08-c3ef-48cb-8da6-7e16b266b37a","system_id":"levelo_inurba_marseille","lat":43.23151,"lon":5.4373,"is_reserved":false,"is_disabled":false,"rental_uris":{"android":"levelo://app?vid=451c3e08-c3ef-48cb-8da6-7e16b266b37a","ios":"levelo://app?vid=451c3e08-c3ef-48cb-8da6-7e16b266b37a"},"vehicle_type_id":"4","last_reported":1758273094,"current_range_meters":9200,"station_id":"ce4bhmp2rcd13ifvqgog","pricing_plan_id":"cebpf4jnsgd1na2vs0mg"},{"bike_id":"94acf833-5371-4f2d-bb3b-e288d88720a5","system_id":"levelo_inurba_marseille","lat":43.309,"lon":5.36871,"is_reserved":false,"is_disabled":false,"rental_uris":{"android":"levelo://app?vid=94acf833-5371-4f2d-bb3b-e288d88720a5","ios":"levelo://app?vid=94acf833-5371-4f2d-bb3b-e288d88720a5"},"vehicle_type_id":"4","last_reported":1758273094,"current_range_meters":9600,"station_id":"ce4bgn92rcd13ifvqbvg","pricing_plan_id":"cebpf4jnsgd1na2vs0mg"},{"bike_id":"625da612-e358-4a75-bdaf-ab326859224a","system_id":"levelo_inurba_marseille","lat":43.29018,"lon":5.38653,"is_reserved":false,"is_disabled":false,"rental_uris":{"android":"levelo://app?vid=625da612-e358-4a75-bdaf-ab326859224a","ios":"levelo://app?vid=625da612-e358-4a75-bdaf-ab326859224a"},"vehicle_type_id":"4","last_reported":1758273094,"current_range_meters":13600,"station_id":"ce4bh4p2rcd13ifvqe0g","pricing_plan_id":"cebpf4jnsgd1na2vs0mg"},{"bike_id":"cd5ea3c4-33a7-4755-986b-502c7b2660f7","system_id":"levelo_inurba_marseille","lat":43.33758,"lon":5.3743,"is_reserved":false,"is_disabled":false,"rental_uris":{"android":"levelo://app?vid=cd5ea3c4-33a7-4755-986b-502c7b2660f7","ios":"levelo://app?vid=cd5ea3c4-33a7-4755-986b-502c7b2660f7"},"vehicle_type_id":"4","last_reported":1758273094,"current_range_meters":9600,"station_id":"","pricing_plan_id":"cebpf4jnsgd1na2vs0mg"},{"bike_id":"56a4f75d-eaf2-44b4-aa02-4a439b19699b","system_id":"levelo_inurba_marseille","lat":43.337444,"lon":5.374475,"is_reserved":false,"is_disabled":false,"rental_uris":{"android":"levelo://app?vid=56a4f75d-eaf2-44b4-aa02-4a439b19699b","ios":"levelo://app?vid=56a4f75d-eaf2-44b4-aa02-4a439b19699b"},"vehicle_type_id":"4","last_reported":1758273094,"current_range_meters":9600,"station_id":"","pricing_plan_id":"cebpf4jnsgd1na2vs0mg"},{"bike_id":"c03db5d6-931c-41e0-bfa5-6550a106fb99","system_id":"levelo_inurba_marseille","lat":43.23276,"lon":5.36049,"is_reserved":false,"is_disabled":false,"rental_uris":{"android":"levelo://app?vid=c03db5d6-931c-41e0-bfa5-6550a106fb99","ios":"levelo://app?vid=c03db5d6-931c-41e0-bfa5-6550a106fb99"},"vehicle_type_id":"4","last_reported":1758273094,"current_range_meters":9600,"station_id":"","pricing_plan_id":"cebpf4jnsgd1na2vs0mg"},{"bike_id":"4742deac-e93c-4c49-bc57-ffc33e262fce","system_id":"levelo_inurba_marseille","lat":43.29621,"lon":5.37726,"is_reserved":false,"is_disabled":false,"rental_uris":{"android":"levelo://app?vid=4742deac-e93c-4c49-bc57-ffc33e262fce","ios":"levelo://app?vid=4742deac-e93c-4c49-bc57-ffc33e262fce"},"vehicle_type_id":"4","last_reported":1758273094,"current_range_meters":9600,"station_id":"ce4bgi92rcd13ifvqb90","pricing_plan_id":"cebpf4jnsgd1na2vs0mg"},{"bike_id":"42323a1a-489c-43cb-90ae-c675b27444d5","system_id":"levelo_inurba_marseille","lat":43.21638,"lon":5.34376,"is_reserved":false,"is_disabled":false,"rental_uris":{"android":"levelo://app?vid=42323a1a-489c-43cb-90ae-c675b27444d5","ios":"levelo://app?vid=42323a1a-489c-43cb-90ae-c675b27444d5"},"vehicle_type_id":"4","last_reported":1758273094,"current_range_meters":9600,"station_id":"","pricing_plan_id":"cebpf4jnsgd1na2vs0mg"},{"bike_id":"cad97885-b582-49b2-8b83-0a6c3d079fc6","system_id":"levelo_inurba_marseille","lat":43.297018,"lon":5.365873,"is_reserved":false,"is_disabled":false,"rental_uris":{"android":"levelo://app?vid=cad97885-b582-49b2-8b83-0a6c3d079fc6","ios":"levelo://app?vid=cad97885-b582-49b2-8b83-0a6c3d079fc6"},"vehicle_type_id":"4","last_reported":1758273094,"current_range_meters":10000,"station_id":"ce4bgn12rcd13ifvqbt0","pricing_plan_id":"cebpf4jnsgd1na2vs0mg"},{"bike_id":"6dd14d4c-449a-4592-8ee3-2a6341d448d7","system_id":"levelo_inurba_marseille","lat":43.29916,"lon":5.37468,"is_reserved":false,"is_disabled":false,"rental_uris":{"android":"levelo://app?vid=6dd14d4c-449a-4592-8ee3-2a6341d448d7","ios":"levelo://app?vid=6dd14d4c-449a-4592-8ee3-2a6341d448d7"},"vehicle_type_id":"4","last_reported":1758273094,"current_range_meters":10000,"station_id":"ce4bgjh2rcd13ifvqbg0","pricing_plan_id":"cebpf4jnsgd1na2vs0mg"},{"bike_id":"53dcd9c2-773f-4712-86a1-98083136b91b","system_id":"levelo_inurba_marseille","lat":43.3136,"lon":5.38502,"is_reserved":false,"is_disabled":true,"rental_uris":{"android":"levelo://app?vid=53dcd9c2-773f-4712-86a1-98083136b91b","ios":"levelo://app?vid=53dcd9c2-773f-4712-86a1-98083136b91b"},"vehicle_type_id":"4","last_reported":1758273094,"current_range_meters":10000,"station_id":"ce4bgt92rcd13ifvqcf0","pricing_plan_id":"cebpf4jnsgd1na2vs0mg"},{"bike_id":"e6f8489d-fe42-4015-a82c-b604c2c8b33e","system_id":"levelo_inurba_marseille","lat":43.29795,"lon":5.36682,"is_reserved":false,"is_disabled":false,"rental_uris":{"android":"levelo://app?vid=e6f8489d-fe42-4015-a82c-b604c2c8b33e","ios":"levelo://app?vid=e6f8489d-fe42-4015-a82c-b604c2c8b33e"},"vehicle_type_id":"4","last_reported":1758273094,"current_range_meters":10000,"station_id":"","pricing_plan_id":"cebpf4jnsgd1na2vs0mg"},{"bike_id":"80a9a218-f77f-42ce-8136-b0dceb9fc366","system_id":"levelo_inurba_marseille","lat":43.267867,"lon":5.394102,"is_reserved":false,"is_disabled":true,"rental_uris":{"android":"levelo://app?vid=80a9a218-f77f-42ce-8136-b0dceb9fc366","ios":"levelo://app?vid=80a9a218-f77f-42ce-8136-b0dceb9fc366"},"vehicle_type_id":"4","last_reported":1758273094,"current_range_meters":10800,"station_id":"ce4bhh12rcd13ifvqfg0","pricing_plan_id":"cebpf4jnsgd1na2vs0mg"},{"bike_id":"a9b547a1-bef5-4a83-b968-dc1556779077","system_id":"levelo_inurba_marseille","lat":43.2952,"lon":5.39038,"is_reserved":false,"is_disabled":false,"rental_uris":{"android":"levelo://app?vid=a9b547a1-bef5-4a83-b968-dc1556779077","ios":"levelo://app?vid=a9b547a1-bef5-4a83-b968-dc1556779077"},"vehicle_type_id":"4","last_reported":1758273094,"current_range_meters":10800,"station_id":"ce4bh3p2rcd13ifvqdp0","pricing_plan_id":"cebpf4jnsgd1na2vs0mg"},{"bike_id":"2e786108-f81e-4685-8772-db5f04916005","system_id":"levelo_inurba_marseille","lat":43.296283,"lon":5.405928,"is_reserved":false,"is_disabled":false,"rental_uris":{"android":"levelo://app?vid=2e786108-f81e-4685-8772-db5f04916005","ios":"levelo://app?vid=2e786108-f81e-4685-8772-db5f04916005"},"vehicle_type_id":"4","last_reported":1758273094,"current_range_meters":10800,"station_id":"ce4bh0h2rcd13ifvqd60","pricing_plan_id":"cebpf4jnsgd1na2vs0mg"},{"bike_id":"ba4b6ac1-d4d5-4e9e-ad59-a622a021f146","system_id":"levelo_inurba_marseille","lat":43.23969,"lon":5.36629,"is_reserved":false,"is_disabled":false,"rental_uris":{"android":"levelo://app?vid=ba4b6ac1-d4d5-4e9e-ad59-a622a021f146","ios":"levelo://app?vid=ba4b6ac1-d4d5-4e9e-ad59-a622a021f146"},"vehicle_type_id":"4","last_reported":1758273094,"current_range_meters":10800,"station_id":"ce4bhi12rcd13ifvqfp0","pricing_plan_id":"cebpf4jnsgd1na2vs0mg"},{"bike_id":"be9ee84b-9ec1-497c-800c-5907ad1418ae","system_id":"levelo_inurba_marseille","lat":43.225599,"lon":5.416319,"is_reserved":false,"is_disabled":false,"rental_uris":{"android":"levelo://app?vid=be9ee84b-9ec1-497c-800c-5907ad1418ae","ios":"levelo://app?vid=be9ee84b-9ec1-497c-800c-5907ad1418ae"},"vehicle_type_id":"4","last_reported":1758273094,"current_range_meters":10800,"station_id":"st_d2o4gvlbi1j2169b742g","pricing_plan_id":"cebpf4jnsgd1na2vs0mg"},{"bike_id":"94903905-403e-47df-b9f4-0edec49d1874","system_id":"levelo_inurba_marseille","lat":43.27361,"lon":5.42404,"is_reserved":false,"is_disabled":false,"rental_uris":{"android":"levelo://app?vid=94903905-403e-47df-b9f4-0edec49d1874","ios":"levelo://app?vid=94903905-403e-47df-b9f4-0edec49d1874"},"vehicle_type_id":"4","last_reported":1758273094,"current_range_meters":10800,"station_id":"","pricing_plan_id":"cebpf4jnsgd1na2vs0mg"},{"bike_id":"406dd351-e380-4466-988e-4978e24204ff","system_id":"levelo_inurba_marseille","lat":43.29295,"lon":5.3744,"is_reserved":false,"is_disabled":false,"rental_uris":{"android":"levelo://app?vid=406dd351-e380-4466-988e-4978e24204ff","ios":"levelo://app?vid=406dd351-e380-4466-988e-4978e24204ff"},"vehicle_type_id":"4","last_reported":1758273094,"current_range_meters":11200,"station_id":"ce4bgi12rcd13ifvqb70","pricing_plan_id":"cebpf4jnsgd1na2vs0mg"},{"bike_id":"a4faa1fd-62ee-404a-aff8-b79ea6b6b5d2","system_id":"levelo_inurba_marseille","lat":43.32986,"lon":5.39245,"is_reserved":false,"is_disabled":false,"rental_uris":{"android":"levelo://app?vid=a4faa1fd-62ee-404a-aff8-b79ea6b6b5d2","ios":"levelo://app?vid=a4faa1fd-62ee-404a-aff8-b79ea6b6b5d2"},"vehicle_type_id":"4","last_reported":1758273094,"current_range_meters":11200,"station_id":"","pricing_plan_id":"cebpf4jnsgd1na2vs0mg"},{"bike_id":"bed1584b-076b-4655-8924-1f15056146b3","system_id":"levelo_inurba_marseille","lat":43.32353,"lon":5.36752,"is_reserved":false,"is_disabled":false,"rental_uris":{"android":"levelo://app?vid=bed1584b-076b-4655-8924-1f15056146b3","ios":"levelo://app?vid=bed1584b-076b-4655-8924-1f15056146b3"},"vehicle_type_id":"4","last_reported":1758273094,"current_range_meters":11200,"station_id":"ce4bhsh2rcd13ifvqi2g","pricing_plan_id":"cebpf4jnsgd1na2vs0mg"},{"bike_id":"fa0847a4-8d8b-47a2-9c0d-c16fe7a48c9b","system_id":"levelo_inurba_marseille","lat":43.330285,"lon":5.390556,"is_reserved":false,"is_disabled":false,"rental_uris":{"android":"levelo://app?vid=fa0847a4-8d8b-47a2-9c0d-c16fe7a48c9b","ios":"levelo://app?vid=fa0847a4-8d8b-47a2-9c0d-c16fe7a48c9b"},"vehicle_type_id":"4","last_reported":1758273094,"current_range_meters":11200,"station_id":"","pricing_plan_id":"cebpf4jnsgd1na2vs0mg"},{"bike_id":"2c81f725-645c-49cf-92d3-67ddcabc275f","system_id":"levelo_inurba_marseille","lat":43.24058,"lon":5.37771,"is_reserved":false,"is_disabled":true,"rental_uris":{"android":"levelo://app?vid=2c81f725-645c-49cf-92d3-67ddcabc275f","ios":"levelo://app?vid=2c81f725-645c-49cf-92d3-67ddcabc275f"},"vehicle_type_id":"4","last_reported":1758273094,"current_range_meters":11200,"station_id":"ce4bhnp2rcd13ifvqgvg","pricing_plan_id":"cebpf4jnsgd1na2vs0mg"},{"bike_id":"e473edae-28a1-4030-aee0-4a9cb9f71a38","system_id":"levelo_inurba_marseille","lat":43.28666,"lon":5.36351,"is_reserved":false,"is_disabled":false,"rental_uris":{"android":"levelo://app?vid=e473edae-28a1-4030-aee0-4a9cb9f71a38","ios":"levelo://app?vid=e473edae-28a1-4030-aee0-4a9cb9f71a38"},"vehicle_type_id":"4","last_reported":1758273094,"current_range_meters":11200,"station_id":"ce4bhah2rcd13ifvqej0","pricing_plan_id":"cebpf4jnsgd1na2vs0mg"},{"bike_id":"f7e71be9-9390-4791-a469-2a3df86235c9","system_id":"levelo_inurba_marseille","lat":43.33778,"lon":5.37444,"is_reserved":false,"is_disabled":false,"rental_uris":{"android":"levelo://app?vid=f7e71be9-9390-4791-a469-2a3df86235c9","ios":"levelo://app?vid=f7e71be9-9390-4791-a469-2a3df86235c9"},"vehicle_type_id":"4","last_reported":1758273094,"current_range_meters":11600,"station_id":"","pricing_plan_id":"cebpf4jnsgd1na2vs0mg"},{"bike_id":"e942f984-8fe7-48d1-8f04-3806656b9996","system_id":"levelo_inurba_marseille","lat":43.33641,"lon":5.37945,"is_reserved":false,"is_disabled":false,"rental_uris":{"android":"levelo://app?vid=e942f984-8fe7-48d1-8f04-3806656b9996","ios":"levelo://app?vid=e942f984-8fe7-48d1-8f04-3806656b9996"},"vehicle_type_id":"4","last_reported":1758273094,"current_range_meters":11600,"station_id":"","pricing_plan_id":"cebpf4jnsgd1na2vs0mg"},{"bike_id":"ed20f1d8-bc72-415d-8a8f-af83da4fa7d9","system_id":"levelo_inurba_marseille","lat":43.3349,"lon":5.3624,"is_reserved":false,"is_disabled":false,"rental_uris":{"android":"levelo://app?vid=ed20f1d8-bc72-415d-8a8f-af83da4fa7d9","ios":"levelo://app?vid=ed20f1d8-bc72-415d-8a8f-af83da4fa7d9"},"vehicle_type_id":"4","last_reported":1758273094,"current_range_meters":11600,"station_id":"","pricing_plan_id":"cebpf4jnsgd1na2vs0mg"},{"bike_id":"9a3db4db-cd12-4c24-9f56-6744d878d154","system_id":"levelo_inurba_marseille","lat":43.27179,"lon":5.409844,"is_reserved":false,"is_disabled":true,"rental_uris":{"android":"levelo://app?vid=9a3db4db-cd12-4c24-9f56-6744d878d154","ios":"levelo://app?vid=9a3db4db-cd12-4c24-9f56-6744d878d154"},"vehicle_type_id":"4","last_reported":1758273094,"current_range_meters":11600,"station_id":"ce4bhl12rcd13ifvqgf0","pricing_plan_id":"cebpf4jnsgd1na2vs0mg"},{"bike_id":"22f0687d-25d3-4094-9c4a-293a61e189a6","system_id":"levelo_inurba_marseille","lat":43.2463,"lon":5.39626,"is_reserved":false,"is_disabled":false,"rental_uris":{"android":"levelo://app?vid=22f0687d-25d3-4094-9c4a-293a61e189a6","ios":"levelo://app?vid=22f0687d-25d3-4094-9c4a-293a61e189a6"},"vehicle_type_id":"4","last_reported":1758273094,"current_range_meters":11600,"station_id":"","pricing_plan_id":"cebpf4jnsgd1na2vs0mg"},{"bike_id":"7da6d1ab-7004-4e6b-93a4-a711984a8f82","system_id":"levelo_inurba_marseille","lat":43.24541,"lon":5.39524,"is_reserved":false,"is_disabled":false,"rental_uris":{"android":"levelo://app?vid=7da6d1ab-7004-4e6b-93a4-a711984a8f82","ios":"levelo://app?vid=7da6d1ab-7004-4e6b-93a4-a711984a8f82"},"vehicle_type_id":"4","last_reported":1758273094,"current_range_meters":11600,"station_id":"ce4bhlp2rcd13ifvqgjg","pricing_plan_id":"cebpf4jnsgd1na2vs0mg"},{"bike_id":"78b5c345-42d3-4dff-9dbd-2e919af36487","system_id":"levelo_inurba_marseille","lat":43.2731,"lon":5.39116,"is_reserved":false,"is_disabled":false,"rental_uris":{"android":"levelo://app?vid=78b5c345-42d3-4dff-9dbd-2e919af36487","ios":"levelo://app?vid=78b5c345-42d3-4dff-9dbd-2e919af36487"},"vehicle_type_id":"4","last_reported":1758273094,"current_range_meters":11600,"station_id":"ce4bhgp2rcd13ifvqfe0","pricing_plan_id":"cebpf4jnsgd1na2vs0mg"},{"bike_id":"dfe9bbea-2480-47f8-9bfe-5f13271aedce","system_id":"levelo_inurba_marseille","lat":43.23149,"lon":5.43718,"is_reserved":false,"is_disabled":false,"rental_uris":{"android":"levelo://app?vid=dfe9bbea-2480-47f8-9bfe-5f13271aedce","ios":"levelo://app?vid=dfe9bbea-2480-47f8-9bfe-5f13271aedce"},"vehicle_type_id":"4","last_reported":1758273094,"current_range_meters":12000,"station_id":"ce4bhmp2rcd13ifvqgog","pricing_plan_id":"cebpf4jnsgd1na2vs0mg"},{"bike_id":"e8dae9a5-2841-49d9-b572-94d735628ab9","system_id":"levelo_inurba_marseille","lat":43.33709,"lon":5.39222,"is_reserved":false,"is_disabled":false,"rental_uris":{"android":"levelo://app?vid=e8dae9a5-2841-49d9-b572-94d735628ab9","ios":"levelo://app?vid=e8dae9a5-2841-49d9-b572-94d735628ab9"},"vehicle_type_id":"4","last_reported":1758273094,"current_range_meters":12000,"station_id":"ce4bhr92rcd13ifvqhsg","pricing_plan_id":"cebpf4jnsgd1na2vs0mg"},{"bike_id":"5abd5005-6e1a-4e4a-8cf1-5135d482aac9","system_id":"levelo_inurba_marseille","lat":43.3372,"lon":5.39183,"is_reserved":false,"is_disabled":false,"rental_uris":{"android":"levelo://app?vid=5abd5005-6e1a-4e4a-8cf1-5135d482aac9","ios":"levelo://app?vid=5abd5005-6e1a-4e4a-8cf1-5135d482aac9"},"vehicle_type_id":"4","last_reported":1758273094,"current_range_meters":12000,"station_id":"ce4bhr92rcd13ifvqhsg","pricing_plan_id":"cebpf4jnsgd1na2vs0mg"},{"bike_id":"a3b31de1-adcb-4dde-9b1a-b9c6c36ed5e9","system_id":"levelo_inurba_marseille","lat":43.26553,"lon":5.37281,"is_reserved":false,"is_disabled":false,"rental_uris":{"android":"levelo://app?vid=a3b31de1-adcb-4dde-9b1a-b9c6c36ed5e9","ios":"levelo://app?vid=a3b31de1-adcb-4dde-9b1a-b9c6c36ed5e9"},"vehicle_type_id":"4","last_reported":1758273094,"current_range_meters":12000,"station_id":"ce4bhg12rcd13ifvqf70","pricing_plan_id":"cebpf4jnsgd1na2vs0mg"},{"bike_id":"f9418cc9-c64d-43d9-9060-3aeedd69cdee","system_id":"levelo_inurba_marseille","lat":43.3309,"lon":5.37846,"is_reserved":false,"is_disabled":false,"rental_uris":{"android":"levelo://app?vid=f9418cc9-c64d-43d9-9060-3aeedd69cdee","ios":"levelo://app?vid=f9418cc9-c64d-43d9-9060-3aeedd69cdee"},"vehicle_type_id":"4","last_reported":1758273094,"current_range_meters":12000,"station_id":"","pricing_plan_id":"cebpf4jnsgd1na2vs0mg"},{"bike_id":"ba57759b-8745-4f3c-9f8c-6919ac6b64fb","system_id":"levelo_inurba_marseille","lat":43.289791,"lon":5.378464,"is_reserved":false,"is_disabled":true,"rental_uris":{"android":"levelo://app?vid=ba57759b-8745-4f3c-9f8c-6919ac6b64fb","ios":"levelo://app?vid=ba57759b-8745-4f3c-9f8c-6919ac6b64fb"},"vehicle_type_id":"4","last_reported":1758273094,"current_range_meters":12400,"station_id":"ce4bh9p2rcd13ifvqed0","pricing_plan_id":"cebpf4jnsgd1na2vs0mg"},{"bike_id":"131f89e5-5e3e-4b73-b0a4-92a60e8a1093","system_id":"levelo_inurba_marseille","lat":43.30105,"lon":5.38299,"is_reserved":false,"is_disabled":false,"rental_uris":{"android":"levelo://app?vid=131f89e5-5e3e-4b73-b0a4-92a60e8a1093","ios":"levelo://app?vid=131f89e5-5e3e-4b73-b0a4-92a60e8a1093"},"vehicle_type_id":"4","last_reported":1758273094,"current_range_meters":12400,"station_id":"","pricing_plan_id":"cebpf4jnsgd1na2vs0mg"},{"bike_id":"1eba6cc0-7bcb-4426-8317-618619811ea2","system_id":"levelo_inurba_marseille","lat":43.25931,"lon":5.40901,"is_reserved":false,"is_disabled":false,"rental_uris":{"android":"levelo://app?vid=1eba6cc0-7bcb-4426-8317-618619811ea2","ios":"levelo://app?vid=1eba6cc0-7bcb-4426-8317-618619811ea2"},"vehicle_type_id":"4","last_reported":1758273094,"current_range_meters":12400,"station_id":"ce4bhm92rcd13ifvqglg","pricing_plan_id":"cebpf4jnsgd1na2vs0mg"},{"bike_id":"0dc941c8-29ff-4ab8-8316-7c70af97a6ee","system_id":"levelo_inurba_marseille","lat":43.30587,"lon":5.37244,"is_reserved":false,"is_disabled":false,"rental_uris":{"android":"levelo://app?vid=0dc941c8-29ff-4ab8-8316-7c70af97a6ee","ios":"levelo://app?vid=0dc941c8-29ff-4ab8-8316-7c70af97a6ee"},"vehicle_type_id":"4","last_reported":1758273094,"current_range_meters":12400,"station_id":"ce4bgqh2rcd13ifvqc4g","pricing_plan_id":"cebpf4jnsgd1na2vs0mg"},{"bike_id":"fb78ea42-e26f-45b3-a617-d3474b811b72","system_id":"levelo_inurba_marseille","lat":43.298792,"lon":5.379363,"is_reserved":false,"is_disabled":false,"rental_uris":{"android":"levelo://app?vid=fb78ea42-e26f-45b3-a617-d3474b811b72","ios":"levelo://app?vid=fb78ea42-e26f-45b3-a617-d3474b811b72"},"vehicle_type_id":"4","last_reported":1758273094,"current_range_meters":12800,"station_id":"","pricing_plan_id":"cebpf4jnsgd1na2vs0mg"},{"bike_id":"9d8b4944-013e-4958-9415-40d7b5ee9701","system_id":"levelo_inurba_marseille","lat":43.3161,"lon":5.38184,"is_reserved":false,"is_disabled":false,"rental_uris":{"android":"levelo://app?vid=9d8b4944-013e-4958-9415-40d7b5ee9701","ios":"levelo://app?vid=9d8b4944-013e-4958-9415-40d7b5ee9701"},"vehicle_type_id":"4","last_reported":1758273094,"current_range_meters":12800,"station_id":"","pricing_plan_id":"cebpf4jnsgd1na2vs0mg"},{"bike_id":"af39a0bc-2d86-451e-9395-4158bb4bccfc","system_id":"levelo_inurba_marseille","lat":43.239627,"lon":5.366278,"is_reserved":false,"is_disabled":false,"rental_uris":{"android":"levelo://app?vid=af39a0bc-2d86-451e-9395-4158bb4bccfc","ios":"levelo://app?vid=af39a0bc-2d86-451e-9395-4158bb4bccfc"},"vehicle_type_id":"4","last_reported":1758273094,"current_range_meters":12800,"station_id":"ce4bhi12rcd13ifvqfp0","pricing_plan_id":"cebpf4jnsgd1na2vs0mg"},{"bike_id":"a9cfbeea-c453-40d2-b5ed-a7918f9e233e","system_id":"levelo_inurba_marseille","lat":43.29923,"lon":5.37473,"is_reserved":false,"is_disabled":false,"rental_uris":{"android":"levelo://app?vid=a9cfbeea-c453-40d2-b5ed-a7918f9e233e","ios":"levelo://app?vid=a9cfbeea-c453-40d2-b5ed-a7918f9e233e"},"vehicle_type_id":"4","last_reported":1758273094,"current_range_meters":13600,"station_id":"ce4bgjh2rcd13ifvqbg0","pricing_plan_id":"cebpf4jnsgd1na2vs0mg"},{"bike_id":"85b2f184-eabf-4304-911c-4aaceb0860d6","system_id":"levelo_inurba_marseille","lat":43.32357,"lon":5.36744,"is_reserved":false,"is_disabled":false,"rental_uris":{"android":"levelo://app?vid=85b2f184-eabf-4304-911c-4aaceb0860d6","ios":"levelo://app?vid=85b2f184-eabf-4304-911c-4aaceb0860d6"},"vehicle_type_id":"4","last_reported":1758273094,"current_range_meters":13600,"station_id":"ce4bhsh2rcd13ifvqi2g","pricing_plan_id":"cebpf4jnsgd1na2vs0mg"},{"bike_id":"c32a8c8a-6d55-4f52-a35d-7fa5a57afe0c","system_id":"levelo_inurba_marseille","lat":43.2619,"lon":5.37448,"is_reserved":false,"is_disabled":false,"rental_uris":{"android":"levelo://app?vid=c32a8c8a-6d55-4f52-a35d-7fa5a57afe0c","ios":"levelo://app?vid=c32a8c8a-6d55-4f52-a35d-7fa5a57afe0c"},"vehicle_type_id":"4","last_reported":1758273094,"current_range_meters":14000,"station_id":"ce4bhgp2rcd13ifvqfc0","pricing_plan_id":"cebpf4jnsgd1na2vs0mg"},{"bike_id":"5d54e5f7-0fde-4460-8ad9-6459313a3946","system_id":"levelo_inurba_marseille","lat":43.33612,"lon":5.41032,"is_reserved":false,"is_disabled":false,"rental_uris":{"android":"levelo://app?vid=5d54e5f7-0fde-4460-8ad9-6459313a3946","ios":"levelo://app?vid=5d54e5f7-0fde-4460-8ad9-6459313a3946"},"vehicle_type_id":"4","last_reported":1758273094,"current_range_meters":14000,"station_id":"ce4bhqh2rcd13ifvqhmg","pricing_plan_id":"cebpf4jnsgd1na2vs0mg"},{"bike_id":"bf6e6d27-c09e-4725-9fbc-20073fd5a515","system_id":"levelo_inurba_marseille","lat":43.289376,"lon":5.396214,"is_reserved":false,"is_disabled":false,"rental_uris":{"android":"levelo://app?vid=bf6e6d27-c09e-4725-9fbc-20073fd5a515","ios":"levelo://app?vid=bf6e6d27-c09e-4725-9fbc-20073fd5a515"},"vehicle_type_id":"4","last_reported":1758273094,"current_range_meters":14000,"station_id":"","pricing_plan_id":"cebpf4jnsgd1na2vs0mg"},{"bike_id":"7bb05219-6e3b-4b0d-8c79-bfc0c25c024c","system_id":"levelo_inurba_marseille","lat":43.30611,"lon":5.37231,"is_reserved":false,"is_disabled":false,"rental_uris":{"android":"levelo://app?vid=7bb05219-6e3b-4b0d-8c79-bfc0c25c024c","ios":"levelo://app?vid=7bb05219-6e3b-4b0d-8c79-bfc0c25c024c"},"vehicle_type_id":"4","last_reported":1758273094,"current_range_meters":14000,"station_id":"ce4bgqh2rcd13ifvqc4g","pricing_plan_id":"cebpf4jnsgd1na2vs0mg"},{"bike_id":"0960e3dd-c358-4474-bd10-8223758e1f6b","system_id":"levelo_inurba_marseille","lat":43.296996,"lon":5.376855,"is_reserved":false,"is_disabled":false,"rental_uris":{"android":"levelo://app?vid=0960e3dd-c358-4474-bd10-8223758e1f6b","ios":"levelo://app?vid=0960e3dd-c358-4474-bd10-8223758e1f6b"},"vehicle_type_id":"4","last_reported":1758273094,"current_range_meters":14000,"station_id":"","pricing_plan_id":"cebpf4jnsgd1na2vs0mg"},{"bike_id":"47d8c5bf-8511-4b6c-8610-344d1eb20284","system_id":"levelo_inurba_marseille","lat":43.28934,"lon":5.36392,"is_reserved":false,"is_disabled":false,"rental_uris":{"android":"levelo://app?vid=47d8c5bf-8511-4b6c-8610-344d1eb20284","ios":"levelo://app?vid=47d8c5bf-8511-4b6c-8610-344d1eb20284"},"vehicle_type_id":"4","last_reported":1758273094,"current_range_meters":14000,"station_id":"ce4bhc92rcd13ifvqetg","pricing_plan_id":"cebpf4jnsgd1na2vs0mg"},{"bike_id":"c52abb94-5b85-4197-8121-bf0f477c7924","system_id":"levelo_inurba_marseille","lat":43.333009,"lon":5.410255,"is_reserved":false,"is_disabled":false,"rental_uris":{"android":"levelo://app?vid=c52abb94-5b85-4197-8121-bf0f477c7924","ios":"levelo://app?vid=c52abb94-5b85-4197-8121-bf0f477c7924"},"vehicle_type_id":"4","last_reported":1758273094,"current_range_meters":14400,"station_id":"","pricing_plan_id":"cebpf4jnsgd1na2vs0mg"},{"bike_id":"7606323b-0e1f-4f0f-b1c6-d6569d2061de","system_id":"levelo_inurba_marseille","lat":43.25935,"lon":5.40901,"is_reserved":false,"is_disabled":false,"rental_uris":{"android":"levelo://app?vid=7606323b-0e1f-4f0f-b1c6-d6569d2061de","ios":"levelo://app?vid=7606323b-0e1f-4f0f-b1c6-d6569d2061de"},"vehicle_type_id":"4","last_reported":1758273094,"current_range_meters":14400,"station_id":"ce4bhm92rcd13ifvqglg","pricing_plan_id":"cebpf4jnsgd1na2vs0mg"},{"bike_id":"f42d6184-5a89-47c2-a265-d290dd8607d6","system_id":"levelo_inurba_marseille","lat":43.30924,"lon":5.40147,"is_reserved":false,"is_disabled":false,"rental_uris":{"android":"levelo://app?vid=f42d6184-5a89-47c2-a265-d290dd8607d6","ios":"levelo://app?vid=f42d6184-5a89-47c2-a265-d290dd8607d6"},"vehicle_type_id":"4","last_reported":1758273094,"current_range_meters":14400,"station_id":"ce4bgvp2rcd13ifvqct0","pricing_plan_id":"cebpf4jnsgd1na2vs0mg"},{"bike_id":"5c5339d3-66d3-4775-b401-7b17c0d8cada","system_id":"levelo_inurba_marseille","lat":43.31423,"lon":5.36624,"is_reserved":false,"is_disabled":false,"rental_uris":{"android":"levelo://app?vid=5c5339d3-66d3-4775-b401-7b17c0d8cada","ios":"levelo://app?vid=5c5339d3-66d3-4775-b401-7b17c0d8cada"},"vehicle_type_id":"4","last_reported":1758273094,"current_range_meters":14800,"station_id":"","pricing_plan_id":"cebpf4jnsgd1na2vs0mg"},{"bike_id":"e372231e-d0ff-459f-b2e9-df8c69780738","system_id":"levelo_inurba_marseille","lat":43.30617,"lon":5.37195,"is_reserved":false,"is_disabled":false,"rental_uris":{"android":"levelo://app?vid=e372231e-d0ff-459f-b2e9-df8c69780738","ios":"levelo://app?vid=e372231e-d0ff-459f-b2e9-df8c69780738"},"vehicle_type_id":"4","last_reported":1758273094,"current_range_meters":14800,"station_id":"ce4bgqh2rcd13ifvqc4g","pricing_plan_id":"cebpf4jnsgd1na2vs0mg"},{"bike_id":"d272902f-d820-49de-9e61-7f64e6612fa8","system_id":"levelo_inurba_marseille","lat":43.30536,"lon":5.36717,"is_reserved":false,"is_disabled":false,"rental_uris":{"android":"levelo://app?vid=d272902f-d820-49de-9e61-7f64e6612fa8","ios":"levelo://app?vid=d272902f-d820-49de-9e61-7f64e6612fa8"},"vehicle_type_id":"4","last_reported":1758273094,"current_range_meters":14800,"station_id":"ce4bgrp2rcd13ifvqc9g","pricing_plan_id":"cebpf4jnsgd1na2vs0mg"},{"bike_id":"d7f4c7b2-95d0-4e62-8de0-735e40e107b7","system_id":"levelo_inurba_marseille","lat":43.3014,"lon":5.38076,"is_reserved":false,"is_disabled":false,"rental_uris":{"android":"levelo://app?vid=d7f4c7b2-95d0-4e62-8de0-735e40e107b7","ios":"levelo://app?vid=d7f4c7b2-95d0-4e62-8de0-735e40e107b7"},"vehicle_type_id":"4","last_reported":1758273094,"current_range_meters":15200,"station_id":"ce4bgjp2rcd13ifvqbh0","pricing_plan_id":"cebpf4jnsgd1na2vs0mg"},{"bike_id":"e74f4e57-3f85-4091-a2c8-f2ca8e58a1f6","system_id":"levelo_inurba_marseille","lat":43.301294,"lon":5.398663,"is_reserved":false,"is_disabled":false,"rental_uris":{"android":"levelo://app?vid=e74f4e57-3f85-4091-a2c8-f2ca8e58a1f6","ios":"levelo://app?vid=e74f4e57-3f85-4091-a2c8-f2ca8e58a1f6"},"vehicle_type_id":"4","last_reported":1758273094,"current_range_meters":15200,"station_id":"ce4bh0h2rcd13ifvqd40","pricing_plan_id":"cebpf4jnsgd1na2vs0mg"},{"bike_id":"9c0693b2-33f4-40d9-85fa-754a770a9d54","system_id":"levelo_inurba_marseille","lat":43.295188,"lon":5.390328,"is_reserved":false,"is_disabled":false,"rental_uris":{"android":"levelo://app?vid=9c0693b2-33f4-40d9-85fa-754a770a9d54","ios":"levelo://app?vid=9c0693b2-33f4-40d9-85fa-754a770a9d54"},"vehicle_type_id":"4","last_reported":1758273094,"current_range_meters":15200,"station_id":"ce4bh312rcd13ifvqdj0","pricing_plan_id":"cebpf4jnsgd1na2vs0mg"},{"bike_id":"438ead59-de14-4fa0-a61d-03a70a4122ae","system_id":"levelo_inurba_marseille","lat":43.33638,"lon":5.37713,"is_reserved":false,"is_disabled":true,"rental_uris":{"android":"levelo://app?vid=438ead59-de14-4fa0-a61d-03a70a4122ae","ios":"levelo://app?vid=438ead59-de14-4fa0-a61d-03a70a4122ae"},"vehicle_type_id":"4","last_reported":1758273094,"current_range_meters":15200,"station_id":"","pricing_plan_id":"cebpf4jnsgd1na2vs0mg"},{"bike_id":"c7aef6b3-35b5-491e-a90f-bfaf42e9b9a1","system_id":"levelo_inurba_marseille","lat":43.33597,"lon":5.41005,"is_reserved":false,"is_disabled":false,"rental_uris":{"android":"levelo://app?vid=c7aef6b3-35b5-491e-a90f-bfaf42e9b9a1","ios":"levelo://app?vid=c7aef6b3-35b5-491e-a90f-bfaf42e9b9a1"},"vehicle_type_id":"4","last_reported":1758273094,"current_range_meters":16000,"station_id":"ce4bhqh2rcd13ifvqhmg","pricing_plan_id":"cebpf4jnsgd1na2vs0mg"},{"bike_id":"607b30c7-a52e-4d82-8fbd-5f098dbfcdb7","system_id":"levelo_inurba_marseille","lat":43.30193,"lon":5.36625,"is_reserved":false,"is_disabled":false,"rental_uris":{"android":"levelo://app?vid=607b30c7-a52e-4d82-8fbd-5f098dbfcdb7","ios":"levelo://app?vid=607b30c7-a52e-4d82-8fbd-5f098dbfcdb7"},"vehicle_type_id":"4","last_reported":1758273094,"current_range_meters":16000,"station_id":"ce4bgrh2rcd13ifvqc8g","pricing_plan_id":"cebpf4jnsgd1na2vs0mg"},{"bike_id":"d11cefb4-8c9a-4798-9873-5824add058f1","system_id":"levelo_inurba_marseille","lat":43.3008,"lon":5.38351,"is_reserved":false,"is_disabled":false,"rental_uris":{"android":"levelo://app?vid=d11cefb4-8c9a-4798-9873-5824add058f1","ios":"levelo://app?vid=d11cefb4-8c9a-4798-9873-5824add058f1"},"vehicle_type_id":"4","last_reported":1758273094,"current_range_meters":16000,"station_id":"","pricing_plan_id":"cebpf4jnsgd1na2vs0mg"},{"bike_id":"a1759435-7c8c-454b-b3b7-2dee821a2bbd","system_id":"levelo_inurba_marseille","lat":43.24167,"lon":5.39723,"is_reserved":false,"is_disabled":false,"rental_uris":{"android":"levelo://app?vid=a1759435-7c8c-454b-b3b7-2dee821a2bbd","ios":"levelo://app?vid=a1759435-7c8c-454b-b3b7-2dee821a2bbd"},"vehicle_type_id":"4","last_reported":1758273094,"current_range_meters":16000,"station_id":"ce4bhn12rcd13ifvqgpg","pricing_plan_id":"cebpf4jnsgd1na2vs0mg"},{"bike_id":"12ff3963-3182-47ee-81cb-7483644bf66a","system_id":"levelo_inurba_marseille","lat":43.24061,"lon":5.37769,"is_reserved":false,"is_disabled":false,"rental_uris":{"android":"levelo://app?vid=12ff3963-3182-47ee-81cb-7483644bf66a","ios":"levelo://app?vid=12ff3963-3182-47ee-81cb-7483644bf66a"},"vehicle_type_id":"4","last_reported":1758273094,"current_range_meters":16000,"station_id":"ce4bhnp2rcd13ifvqgvg","pricing_plan_id":"cebpf4jnsgd1na2vs0mg"},{"bike_id":"7df5983d-afc7-4c15-a3e6-ba7d41a736f9","system_id":"levelo_inurba_marseille","lat":43.24537,"lon":5.37331,"is_reserved":false,"is_disabled":true,"rental_uris":{"android":"levelo://app?vid=7df5983d-afc7-4c15-a3e6-ba7d41a736f9","ios":"levelo://app?vid=7df5983d-afc7-4c15-a3e6-ba7d41a736f9"},"vehicle_type_id":"4","last_reported":1758273094,"current_range_meters":16000,"station_id":"","pricing_plan_id":"cebpf4jnsgd1na2vs0mg"},{"bike_id":"518eef5b-9e3c-4b06-94a9-56e70af9d262","system_id":"levelo_inurba_marseille","lat":43.30799,"lon":5.38168,"is_reserved":false,"is_disabled":true,"rental_uris":{"android":"levelo://app?vid=518eef5b-9e3c-4b06-94a9-56e70af9d262","ios":"levelo://app?vid=518eef5b-9e3c-4b06-94a9-56e70af9d262"},"vehicle_type_id":"4","last_reported":1758273094,"current_range_meters":16000,"station_id":"ce4bgt12rcd13ifvqce0","pricing_plan_id":"cebpf4jnsgd1na2vs0mg"},{"bike_id":"1e49be67-046c-490d-bed5-acacb7818ce7","system_id":"levelo_inurba_marseille","lat":43.23144,"lon":5.437267,"is_reserved":false,"is_disabled":false,"rental_uris":{"android":"levelo://app?vid=1e49be67-046c-490d-bed5-acacb7818ce7","ios":"levelo://app?vid=1e49be67-046c-490d-bed5-acacb7818ce7"},"vehicle_type_id":"4","last_reported":1758273094,"current_range_meters":16000,"station_id":"ce4bhmp2rcd13ifvqgog","pricing_plan_id":"cebpf4jnsgd1na2vs0mg"},{"bike_id":"8745c251-e416-4ea6-8fbc-d4e92795e895","system_id":"levelo_inurba_marseille","lat":43.28259,"lon":5.35069,"is_reserved":false,"is_disabled":false,"rental_uris":{"android":"levelo://app?vid=8745c251-e416-4ea6-8fbc-d4e92795e895","ios":"levelo://app?vid=8745c251-e416-4ea6-8fbc-d4e92795e895"},"vehicle_type_id":"4","last_reported":1758273094,"current_range_meters":16000,"station_id":"ce4bhbp2rcd13ifvqerg","pricing_plan_id":"cebpf4jnsgd1na2vs0mg"},{"bike_id":"7b95a386-4ff2-4940-8845-3ba8590fe668","system_id":"levelo_inurba_marseille","lat":43.28923,"lon":5.36648,"is_reserved":false,"is_disabled":false,"rental_uris":{"android":"levelo://app?vid=7b95a386-4ff2-4940-8845-3ba8590fe668","ios":"levelo://app?vid=7b95a386-4ff2-4940-8845-3ba8590fe668"},"vehicle_type_id":"4","last_reported":1758273094,"current_range_meters":16000,"station_id":"ce4bhap2rcd13ifvqek0","pricing_plan_id":"cebpf4jnsgd1na2vs0mg"},{"bike_id":"b82f0259-678f-49b8-b7f8-2b64e33c43a1","system_id":"levelo_inurba_marseille","lat":43.29582,"lon":5.36729,"is_reserved":false,"is_disabled":false,"rental_uris":{"android":"levelo://app?vid=b82f0259-678f-49b8-b7f8-2b64e33c43a1","ios":"levelo://app?vid=b82f0259-678f-49b8-b7f8-2b64e33c43a1"},"vehicle_type_id":"4","last_reported":1758273094,"current_range_meters":16400,"station_id":"ce4bgph2rcd13ifvqc2g","pricing_plan_id":"cebpf4jnsgd1na2vs0mg"},{"bike_id":"3bc55b74-eb07-4466-8bdc-16723c3f40c8","system_id":"levelo_inurba_marseille","lat":43.26645,"lon":5.39355,"is_reserved":false,"is_disabled":false,"rental_uris":{"android":"levelo://app?vid=3bc55b74-eb07-4466-8bdc-16723c3f40c8","ios":"levelo://app?vid=3bc55b74-eb07-4466-8bdc-16723c3f40c8"},"vehicle_type_id":"4","last_reported":1758273094,"current_range_meters":16400,"station_id":"","pricing_plan_id":"cebpf4jnsgd1na2vs0mg"},{"bike_id":"f85a8c4d-f9d0-4136-9b57-8bfb28db950c","system_id":"levelo_inurba_marseille","lat":43.31877,"lon":5.37422,"is_reserved":false,"is_disabled":false,"rental_uris":{"android":"levelo://app?vid=f85a8c4d-f9d0-4136-9b57-8bfb28db950c","ios":"levelo://app?vid=f85a8c4d-f9d0-4136-9b57-8bfb28db950c"},"vehicle_type_id":"4","last_reported":1758273094,"current_range_meters":16400,"station_id":"","pricing_plan_id":"cebpf4jnsgd1na2vs0mg"},{"bike_id":"26ba6f66-2afd-4344-aadf-5a49cfc63dec","system_id":"levelo_inurba_marseille","lat":43.29864,"lon":5.39728,"is_reserved":false,"is_disabled":false,"rental_uris":{"android":"levelo://app?vid=26ba6f66-2afd-4344-aadf-5a49cfc63dec","ios":"levelo://app?vid=26ba6f66-2afd-4344-aadf-5a49cfc63dec"},"vehicle_type_id":"4","last_reported":1758273094,"current_range_meters":16400,"station_id":"ce4bh0h2rcd13ifvqd50","pricing_plan_id":"cebpf4jnsgd1na2vs0mg"},{"bike_id":"b1aea033-d9a7-44a7-8a23-2e263bbc1dee","system_id":"levelo_inurba_marseille","lat":43.30455,"lon":5.36675,"is_reserved":false,"is_disabled":false,"rental_uris":{"android":"levelo://app?vid=b1aea033-d9a7-44a7-8a23-2e263bbc1dee","ios":"levelo://app?vid=b1aea033-d9a7-44a7-8a23-2e263bbc1dee"},"vehicle_type_id":"4","last_reported":1758273094,"current_range_meters":16400,"station_id":"","pricing_plan_id":"cebpf4jnsgd1na2vs0mg"},{"bike_id":"82ff2aa5-7947-4d6a-b628-a72140befcb9","system_id":"levelo_inurba_marseille","lat":43.23149,"lon":5.43714,"is_reserved":false,"is_disabled":false,"rental_uris":{"android":"levelo://app?vid=82ff2aa5-7947-4d6a-b628-a72140befcb9","ios":"levelo://app?vid=82ff2aa5-7947-4d6a-b628-a72140befcb9"},"vehicle_type_id":"4","last_reported":1758273094,"current_range_meters":16400,"station_id":"ce4bhmp2rcd13ifvqgog","pricing_plan_id":"cebpf4jnsgd1na2vs0mg"},{"bike_id":"26b43886-fa77-4bdc-88cd-18b348cfd5a1","system_id":"levelo_inurba_marseille","lat":43.24147,"lon":5.39718,"is_reserved":false,"is_disabled":false,"rental_uris":{"android":"levelo://app?vid=26b43886-fa77-4bdc-88cd-18b348cfd5a1","ios":"levelo://app?vid=26b43886-fa77-4bdc-88cd-18b348cfd5a1"},"vehicle_type_id":"4","last_reported":1758273094,"current_range_meters":16400,"station_id":"ce4bhn12rcd13ifvqgpg","pricing_plan_id":"cebpf4jnsgd1na2vs0mg"},{"bike_id":"e423b17e-bee6-4641-9e18-1ee6c8adfdce","system_id":"levelo_inurba_marseille","lat":43.292,"lon":5.39319,"is_reserved":false,"is_disabled":false,"rental_uris":{"android":"levelo://app?vid=e423b17e-bee6-4641-9e18-1ee6c8adfdce","ios":"levelo://app?vid=e423b17e-bee6-4641-9e18-1ee6c8adfdce"},"vehicle_type_id":"4","last_reported":1758273094,"current_range_meters":16800,"station_id":"ce4bh192rcd13ifvqdd0","pricing_plan_id":"cebpf4jnsgd1na2vs0mg"},{"bike_id":"f2e49732-6a84-44dd-8bcb-da6447440a25","system_id":"levelo_inurba_marseille","lat":43.29293,"lon":5.37439,"is_reserved":false,"is_disabled":false,"rental_uris":{"android":"levelo://app?vid=f2e49732-6a84-44dd-8bcb-da6447440a25","ios":"levelo://app?vid=f2e49732-6a84-44dd-8bcb-da6447440a25"},"vehicle_type_id":"4","last_reported":1758273094,"current_range_meters":16800,"station_id":"ce4bgi12rcd13ifvqb70","pricing_plan_id":"cebpf4jnsgd1na2vs0mg"},{"bike_id":"3a0966a2-c500-4147-8c9f-b002587ec121","system_id":"levelo_inurba_marseille","lat":43.29579,"lon":5.36743,"is_reserved":false,"is_disabled":false,"rental_uris":{"android":"levelo://app?vid=3a0966a2-c500-4147-8c9f-b002587ec121","ios":"levelo://app?vid=3a0966a2-c500-4147-8c9f-b002587ec121"},"vehicle_type_id":"4","last_reported":1758273094,"current_range_meters":16800,"station_id":"ce4bgph2rcd13ifvqc2g","pricing_plan_id":"cebpf4jnsgd1na2vs0mg"},{"bike_id":"c4c05990-0c10-4ded-b64b-24584fc8fd18","system_id":"levelo_inurba_marseille","lat":43.29049,"lon":5.35912,"is_reserved":false,"is_disabled":false,"rental_uris":{"android":"levelo://app?vid=c4c05990-0c10-4ded-b64b-24584fc8fd18","ios":"levelo://app?vid=c4c05990-0c10-4ded-b64b-24584fc8fd18"},"vehicle_type_id":"4","last_reported":1758273094,"current_range_meters":16800,"station_id":"ce4bha92rcd13ifvqeg0","pricing_plan_id":"cebpf4jnsgd1na2vs0mg"},{"bike_id":"1c1c57b0-c85b-42a6-b036-989d80d1def6","system_id":"levelo_inurba_marseille","lat":43.33731,"lon":5.39184,"is_reserved":false,"is_disabled":false,"rental_uris":{"android":"levelo://app?vid=1c1c57b0-c85b-42a6-b036-989d80d1def6","ios":"levelo://app?vid=1c1c57b0-c85b-42a6-b036-989d80d1def6"},"vehicle_type_id":"4","last_reported":1758273094,"current_range_meters":16800,"station_id":"ce4bhr92rcd13ifvqhsg","pricing_plan_id":"cebpf4jnsgd1na2vs0mg"},{"bike_id":"dc97f280-afc6-4d62-9cc9-7d24b854463e","system_id":"levelo_inurba_marseille","lat":43.29628,"lon":5.40589,"is_reserved":false,"is_disabled":false,"rental_uris":{"android":"levelo://app?vid=dc97f280-afc6-4d62-9cc9-7d24b854463e","ios":"levelo://app?vid=dc97f280-afc6-4d62-9cc9-7d24b854463e"},"vehicle_type_id":"4","last_reported":1758273094,"current_range_meters":16800,"station_id":"ce4bh0h2rcd13ifvqd60","pricing_plan_id":"cebpf4jnsgd1na2vs0mg"},{"bike_id":"b083180e-5270-4d54-ac91-583447fb356e","system_id":"levelo_inurba_marseille","lat":43.26556,"lon":5.37281,"is_reserved":false,"is_disabled":false,"rental_uris":{"android":"levelo://app?vid=b083180e-5270-4d54-ac91-583447fb356e","ios":"levelo://app?vid=b083180e-5270-4d54-ac91-583447fb356e"},"vehicle_type_id":"4","last_reported":1758273094,"current_range_meters":17200,"station_id":"ce4bhgp2rcd13ifvqfc0","pricing_plan_id":"cebpf4jnsgd1na2vs0mg"},{"bike_id":"9e19ad5a-0408-4bf0-9add-0f73585cf222","system_id":"levelo_inurba_marseille","lat":43.30245,"lon":5.40061,"is_reserved":false,"is_disabled":false,"rental_uris":{"android":"levelo://app?vid=9e19ad5a-0408-4bf0-9add-0f73585cf222","ios":"levelo://app?vid=9e19ad5a-0408-4bf0-9add-0f73585cf222"},"vehicle_type_id":"4","last_reported":1758273094,"current_range_meters":17200,"station_id":"ce4bgvh2rcd13ifvqcs0","pricing_plan_id":"cebpf4jnsgd1na2vs0mg"},{"bike_id":"3f119b89-de14-48d9-a023-9280cd215b5c","system_id":"levelo_inurba_marseille","lat":43.30598,"lon":5.37231,"is_reserved":false,"is_disabled":false,"rental_uris":{"android":"levelo://app?vid=3f119b89-de14-48d9-a023-9280cd215b5c","ios":"levelo://app?vid=3f119b89-de14-48d9-a023-9280cd215b5c"},"vehicle_type_id":"4","last_reported":1758273094,"current_range_meters":17200,"station_id":"ce4bgqh2rcd13ifvqc4g","pricing_plan_id":"cebpf4jnsgd1na2vs0mg"},{"bike_id":"c4706891-6ce1-4440-91ff-a3ecf2ff007e","system_id":"levelo_inurba_marseille","lat":43.26374,"lon":5.40075,"is_reserved":false,"is_disabled":false,"rental_uris":{"android":"levelo://app?vid=c4706891-6ce1-4440-91ff-a3ecf2ff007e","ios":"levelo://app?vid=c4706891-6ce1-4440-91ff-a3ecf2ff007e"},"vehicle_type_id":"4","last_reported":1758273094,"current_range_meters":17200,"station_id":"","pricing_plan_id":"cebpf4jnsgd1na2vs0mg"},{"bike_id":"4341df71-11d4-4878-b657-c65b2d88e04c","system_id":"levelo_inurba_marseille","lat":43.24386,"lon":5.37065,"is_reserved":false,"is_disabled":false,"rental_uris":{"android":"levelo://app?vid=4341df71-11d4-4878-b657-c65b2d88e04c","ios":"levelo://app?vid=4341df71-11d4-4878-b657-c65b2d88e04c"},"vehicle_type_id":"4","last_reported":1758273094,"current_range_meters":17200,"station_id":"ce4bhhh2rcd13ifvqfk0","pricing_plan_id":"cebpf4jnsgd1na2vs0mg"},{"bike_id":"aee9c6f6-70ab-4876-ae2b-30b50d3b0a5d","system_id":"levelo_inurba_marseille","lat":43.295781,"lon":5.367433,"is_reserved":false,"is_disabled":false,"rental_uris":{"android":"levelo://app?vid=aee9c6f6-70ab-4876-ae2b-30b50d3b0a5d","ios":"levelo://app?vid=aee9c6f6-70ab-4876-ae2b-30b50d3b0a5d"},"vehicle_type_id":"4","last_reported":1758273094,"current_range_meters":17200,"station_id":"ce4bgph2rcd13ifvqc2g","pricing_plan_id":"cebpf4jnsgd1na2vs0mg"},{"bike_id":"05e697d9-69d9-403b-8383-1e1277147bbe","system_id":"levelo_inurba_marseille","lat":43.28257,"lon":5.35076,"is_reserved":false,"is_disabled":false,"rental_uris":{"android":"levelo://app?vid=05e697d9-69d9-403b-8383-1e1277147bbe","ios":"levelo://app?vid=05e697d9-69d9-403b-8383-1e1277147bbe"},"vehicle_type_id":"4","last_reported":1758273094,"current_range_meters":17200,"station_id":"ce4bhbp2rcd13ifvqerg","pricing_plan_id":"cebpf4jnsgd1na2vs0mg"},{"bike_id":"835975a0-27c7-47e7-bc1c-b8ba0b505127","system_id":"levelo_inurba_marseille","lat":43.32585,"lon":5.37809,"is_reserved":false,"is_disabled":false,"rental_uris":{"android":"levelo://app?vid=835975a0-27c7-47e7-bc1c-b8ba0b505127","ios":"levelo://app?vid=835975a0-27c7-47e7-bc1c-b8ba0b505127"},"vehicle_type_id":"4","last_reported":1758273094,"current_range_meters":17200,"station_id":"","pricing_plan_id":"cebpf4jnsgd1na2vs0mg"},{"bike_id":"ab09fc25-a927-4eaa-89f3-db2f60fbba75","system_id":"levelo_inurba_marseille","lat":43.302502,"lon":5.400569,"is_reserved":false,"is_disabled":false,"rental_uris":{"android":"levelo://app?vid=ab09fc25-a927-4eaa-89f3-db2f60fbba75","ios":"levelo://app?vid=ab09fc25-a927-4eaa-89f3-db2f60fbba75"},"vehicle_type_id":"4","last_reported":1758273094,"current_range_meters":17200,"station_id":"ce4bgvh2rcd13ifvqcs0","pricing_plan_id":"cebpf4jnsgd1na2vs0mg"},{"bike_id":"6c2c7fc8-53c9-4e73-8e20-f193590dbe08","system_id":"levelo_inurba_marseille","lat":43.25917,"lon":5.40905,"is_reserved":false,"is_disabled":false,"rental_uris":{"android":"levelo://app?vid=6c2c7fc8-53c9-4e73-8e20-f193590dbe08","ios":"levelo://app?vid=6c2c7fc8-53c9-4e73-8e20-f193590dbe08"},"vehicle_type_id":"4","last_reported":1758273094,"current_range_meters":17600,"station_id":"ce4bhm92rcd13ifvqglg","pricing_plan_id":"cebpf4jnsgd1na2vs0mg"},{"bike_id":"d0800c74-8054-46c5-8886-40d371b2bb58","system_id":"levelo_inurba_marseille","lat":43.29318,"lon":5.37148,"is_reserved":false,"is_disabled":false,"rental_uris":{"android":"levelo://app?vid=d0800c74-8054-46c5-8886-40d371b2bb58","ios":"levelo://app?vid=d0800c74-8054-46c5-8886-40d371b2bb58"},"vehicle_type_id":"4","last_reported":1758273094,"current_range_meters":17600,"station_id":"ce4bgh92rcd13ifvqb40","pricing_plan_id":"cebpf4jnsgd1na2vs0mg"},{"bike_id":"0d9edbf8-e222-4f58-8507-cb6fd06720fd","system_id":"levelo_inurba_marseille","lat":43.2315,"lon":5.43719,"is_reserved":false,"is_disabled":false,"rental_uris":{"android":"levelo://app?vid=0d9edbf8-e222-4f58-8507-cb6fd06720fd","ios":"levelo://app?vid=0d9edbf8-e222-4f58-8507-cb6fd06720fd"},"vehicle_type_id":"4","last_reported":1758273094,"current_range_meters":17600,"station_id":"ce4bhmp2rcd13ifvqgog","pricing_plan_id":"cebpf4jnsgd1na2vs0mg"},{"bike_id":"af92115d-6f7a-49ce-a65e-77f9182df835","system_id":"levelo_inurba_marseille","lat":43.21754,"lon":5.34597,"is_reserved":false,"is_disabled":false,"rental_uris":{"android":"levelo://app?vid=af92115d-6f7a-49ce-a65e-77f9182df835","ios":"levelo://app?vid=af92115d-6f7a-49ce-a65e-77f9182df835"},"vehicle_type_id":"4","last_reported":1758273094,"current_range_meters":18000,"station_id":"st_cvj6r9ubvosntc0bgbag","pricing_plan_id":"cebpf4jnsgd1na2vs0mg"},{"bike_id":"445fcaa8-1878-47eb-b033-a3a669fb7efe","system_id":"levelo_inurba_marseille","lat":43.31444,"lon":5.37065,"is_reserved":false,"is_disabled":false,"rental_uris":{"android":"levelo://app?vid=445fcaa8-1878-47eb-b033-a3a669fb7efe","ios":"levelo://app?vid=445fcaa8-1878-47eb-b033-a3a669fb7efe"},"vehicle_type_id":"4","last_reported":1758273094,"current_range_meters":18000,"station_id":"","pricing_plan_id":"cebpf4jnsgd1na2vs0mg"},{"bike_id":"e1ba66d7-1c19-42d8-87e1-dd97753311fb","system_id":"levelo_inurba_marseille","lat":43.28105,"lon":5.37841,"is_reserved":false,"is_disabled":false,"rental_uris":{"android":"levelo://app?vid=e1ba66d7-1c19-42d8-87e1-dd97753311fb","ios":"levelo://app?vid=e1ba66d7-1c19-42d8-87e1-dd97753311fb"},"vehicle_type_id":"4","last_reported":1758273094,"current_range_meters":18000,"station_id":"ce4bha12rcd13ifvqee0","pricing_plan_id":"cebpf4jnsgd1na2vs0mg"},{"bike_id":"0bdec8b9-0134-4819-b214-e915cd1f844e","system_id":"levelo_inurba_marseille","lat":43.30141,"lon":5.39854,"is_reserved":false,"is_disabled":false,"rental_uris":{"android":"levelo://app?vid=0bdec8b9-0134-4819-b214-e915cd1f844e","ios":"levelo://app?vid=0bdec8b9-0134-4819-b214-e915cd1f844e"},"vehicle_type_id":"4","last_reported":1758273094,"current_range_meters":18000,"station_id":"ce4bh0h2rcd13ifvqd40","pricing_plan_id":"cebpf4jnsgd1na2vs0mg"},{"bike_id":"af0490b6-c1c9-4895-8a15-568d23e0a730","system_id":"levelo_inurba_marseille","lat":43.28078,"lon":5.40782,"is_reserved":false,"is_disabled":false,"rental_uris":{"android":"levelo://app?vid=af0490b6-c1c9-4895-8a15-568d23e0a730","ios":"levelo://app?vid=af0490b6-c1c9-4895-8a15-568d23e0a730"},"vehicle_type_id":"4","last_reported":1758273094,"current_range_meters":18000,"station_id":"","pricing_plan_id":"cebpf4jnsgd1na2vs0mg"},{"bike_id":"394b6efc-46f6-4164-b08b-0a3b6791fba5","system_id":"levelo_inurba_marseille","lat":43.28695,"lon":5.39979,"is_reserved":false,"is_disabled":false,"rental_uris":{"android":"levelo://app?vid=394b6efc-46f6-4164-b08b-0a3b6791fba5","ios":"levelo://app?vid=394b6efc-46f6-4164-b08b-0a3b6791fba5"},"vehicle_type_id":"4","last_reported":1758273094,"current_range_meters":18000,"station_id":"ce4bho92rcd13ifvqh3g","pricing_plan_id":"cebpf4jnsgd1na2vs0mg"},{"bike_id":"24040c57-fc34-4395-a6ca-895d8d97bd5d","system_id":"levelo_inurba_marseille","lat":43.24385,"lon":5.37054,"is_reserved":false,"is_disabled":false,"rental_uris":{"android":"levelo://app?vid=24040c57-fc34-4395-a6ca-895d8d97bd5d","ios":"levelo://app?vid=24040c57-fc34-4395-a6ca-895d8d97bd5d"},"vehicle_type_id":"4","last_reported":1758273094,"current_range_meters":18000,"station_id":"ce4bhhh2rcd13ifvqfk0","pricing_plan_id":"cebpf4jnsgd1na2vs0mg"},{"bike_id":"6e5fbf7e-9be6-491b-afa5-8392769bcea2","system_id":"levelo_inurba_marseille","lat":43.31351,"lon":5.36694,"is_reserved":false,"is_disabled":false,"rental_uris":{"android":"levelo://app?vid=6e5fbf7e-9be6-491b-afa5-8392769bcea2","ios":"levelo://app?vid=6e5fbf7e-9be6-491b-afa5-8392769bcea2"},"vehicle_type_id":"4","last_reported":1758273094,"current_range_meters":18000,"station_id":"ce4bgr92rcd13ifvqc6g","pricing_plan_id":"cebpf4jnsgd1na2vs0mg"},{"bike_id":"43d57fd4-047e-4ac8-97e5-ec9b96239472","system_id":"levelo_inurba_marseille","lat":43.32951,"lon":5.39103,"is_reserved":false,"is_disabled":false,"rental_uris":{"android":"levelo://app?vid=43d57fd4-047e-4ac8-97e5-ec9b96239472","ios":"levelo://app?vid=43d57fd4-047e-4ac8-97e5-ec9b96239472"},"vehicle_type_id":"4","last_reported":1758273094,"current_range_meters":18000,"station_id":"","pricing_plan_id":"cebpf4jnsgd1na2vs0mg"},{"bike_id":"4c5253ab-ccc7-4a7d-9b68-064d6f4f7b21","system_id":"levelo_inurba_marseille","lat":43.30463,"lon":5.37909,"is_reserved":false,"is_disabled":false,"rental_uris":{"android":"levelo://app?vid=4c5253ab-ccc7-4a7d-9b68-064d6f4f7b21","ios":"levelo://app?vid=4c5253ab-ccc7-4a7d-9b68-064d6f4f7b21"},"vehicle_type_id":"4","last_reported":1758273094,"current_range_meters":20400,"station_id":"ce4bgup2rcd13ifvqcn0","pricing_plan_id":"cebpf4jnsgd1na2vs0mg"},{"bike_id":"e88386b8-7aca-418e-890a-a1ac409a820e","system_id":"levelo_inurba_marseille","lat":43.25913,"lon":5.40899,"is_reserved":false,"is_disabled":false,"rental_uris":{"android":"levelo://app?vid=e88386b8-7aca-418e-890a-a1ac409a820e","ios":"levelo://app?vid=e88386b8-7aca-418e-890a-a1ac409a820e"},"vehicle_type_id":"4","last_reported":1758273094,"current_range_meters":18000,"station_id":"ce4bhm92rcd13ifvqglg","pricing_plan_id":"cebpf4jnsgd1na2vs0mg"},{"bike_id":"4b211dab-df7b-48e2-815b-e60d43ce5bcb","system_id":"levelo_inurba_marseille","lat":43.26482,"lon":5.39546,"is_reserved":false,"is_disabled":false,"rental_uris":{"android":"levelo://app?vid=4b211dab-df7b-48e2-815b-e60d43ce5bcb","ios":"levelo://app?vid=4b211dab-df7b-48e2-815b-e60d43ce5bcb"},"vehicle_type_id":"4","last_reported":1758273094,"current_range_meters":18800,"station_id":"ce4bhi12rcd13ifvqfq0","pricing_plan_id":"cebpf4jnsgd1na2vs0mg"},{"bike_id":"fcae965b-ac21-4078-851f-e67d29961456","system_id":"levelo_inurba_marseille","lat":43.33773,"lon":5.37469,"is_reserved":false,"is_disabled":false,"rental_uris":{"android":"levelo://app?vid=fcae965b-ac21-4078-851f-e67d29961456","ios":"levelo://app?vid=fcae965b-ac21-4078-851f-e67d29961456"},"vehicle_type_id":"4","last_reported":1758273094,"current_range_meters":18800,"station_id":"","pricing_plan_id":"cebpf4jnsgd1na2vs0mg"},{"bike_id":"a5b16399-9a20-4b46-8928-debc37ec2a7b","system_id":"levelo_inurba_marseille","lat":43.27062,"lon":5.40257,"is_reserved":false,"is_disabled":false,"rental_uris":{"android":"levelo://app?vid=a5b16399-9a20-4b46-8928-debc37ec2a7b","ios":"levelo://app?vid=a5b16399-9a20-4b46-8928-debc37ec2a7b"},"vehicle_type_id":"4","last_reported":1758273094,"current_range_meters":18800,"station_id":"ce4bhk92rcd13ifvqgc0","pricing_plan_id":"cebpf4jnsgd1na2vs0mg"},{"bike_id":"3d158a28-bece-4b10-9f82-ab3eb3313408","system_id":"levelo_inurba_marseille","lat":43.337485,"lon":5.374512,"is_reserved":false,"is_disabled":false,"rental_uris":{"android":"levelo://app?vid=3d158a28-bece-4b10-9f82-ab3eb3313408","ios":"levelo://app?vid=3d158a28-bece-4b10-9f82-ab3eb3313408"},"vehicle_type_id":"4","last_reported":1758273094,"current_range_meters":18800,"station_id":"","pricing_plan_id":"cebpf4jnsgd1na2vs0mg"},{"bike_id":"55d1bc08-fd54-4a82-afc7-2adcaa7b1c4e","system_id":"levelo_inurba_marseille","lat":43.30035,"lon":5.37684,"is_reserved":false,"is_disabled":false,"rental_uris":{"android":"levelo://app?vid=55d1bc08-fd54-4a82-afc7-2adcaa7b1c4e","ios":"levelo://app?vid=55d1bc08-fd54-4a82-afc7-2adcaa7b1c4e"},"vehicle_type_id":"4","last_reported":1758273094,"current_range_meters":18800,"station_id":"","pricing_plan_id":"cebpf4jnsgd1na2vs0mg"},{"bike_id":"de2864f1-cf6e-44c0-b4b4-3b8661ef7972","system_id":"levelo_inurba_marseille","lat":43.33704,"lon":5.39207,"is_reserved":false,"is_disabled":false,"rental_uris":{"android":"levelo://app?vid=de2864f1-cf6e-44c0-b4b4-3b8661ef7972","ios":"levelo://app?vid=de2864f1-cf6e-44c0-b4b4-3b8661ef7972"},"vehicle_type_id":"4","last_reported":1758273094,"current_range_meters":18800,"station_id":"ce4bhr92rcd13ifvqhsg","pricing_plan_id":"cebpf4jnsgd1na2vs0mg"},{"bike_id":"d582ba82-de0a-401e-8bd3-378f0cec80f7","system_id":"levelo_inurba_marseille","lat":43.25924,"lon":5.40878,"is_reserved":false,"is_disabled":false,"rental_uris":{"android":"levelo://app?vid=d582ba82-de0a-401e-8bd3-378f0cec80f7","ios":"levelo://app?vid=d582ba82-de0a-401e-8bd3-378f0cec80f7"},"vehicle_type_id":"4","last_reported":1758273094,"current_range_meters":18800,"station_id":"ce4bhm92rcd13ifvqglg","pricing_plan_id":"cebpf4jnsgd1na2vs0mg"},{"bike_id":"26aad28d-6c1e-40ed-92ad-c79fd9f42384","system_id":"levelo_inurba_marseille","lat":43.34121,"lon":5.37543,"is_reserved":false,"is_disabled":false,"rental_uris":{"android":"levelo://app?vid=26aad28d-6c1e-40ed-92ad-c79fd9f42384","ios":"levelo://app?vid=26aad28d-6c1e-40ed-92ad-c79fd9f42384"},"vehicle_type_id":"4","last_reported":1758273094,"current_range_meters":18800,"station_id":"","pricing_plan_id":"cebpf4jnsgd1na2vs0mg"},{"bike_id":"0f7caa9f-1d1a-40d7-9b4a-2f8720e63681","system_id":"levelo_inurba_marseille","lat":43.30853,"lon":5.37489,"is_reserved":false,"is_disabled":false,"rental_uris":{"android":"levelo://app?vid=0f7caa9f-1d1a-40d7-9b4a-2f8720e63681","ios":"levelo://app?vid=0f7caa9f-1d1a-40d7-9b4a-2f8720e63681"},"vehicle_type_id":"4","last_reported":1758273094,"current_range_meters":19200,"station_id":"","pricing_plan_id":"cebpf4jnsgd1na2vs0mg"},{"bike_id":"a0cb40db-0501-4f8a-b155-e0ce329c239d","system_id":"levelo_inurba_marseille","lat":43.29845,"lon":5.36273,"is_reserved":false,"is_disabled":false,"rental_uris":{"android":"levelo://app?vid=a0cb40db-0501-4f8a-b155-e0ce329c239d","ios":"levelo://app?vid=a0cb40db-0501-4f8a-b155-e0ce329c239d"},"vehicle_type_id":"4","last_reported":1758273094,"current_range_meters":19200,"station_id":"ce4bgpp2rcd13ifvqc3g","pricing_plan_id":"cebpf4jnsgd1na2vs0mg"},{"bike_id":"b810ec46-97ab-4356-95f9-0c9d02506d5a","system_id":"levelo_inurba_marseille","lat":43.24458,"lon":5.39039,"is_reserved":false,"is_disabled":false,"rental_uris":{"android":"levelo://app?vid=b810ec46-97ab-4356-95f9-0c9d02506d5a","ios":"levelo://app?vid=b810ec46-97ab-4356-95f9-0c9d02506d5a"},"vehicle_type_id":"4","last_reported":1758273094,"current_range_meters":19200,"station_id":"","pricing_plan_id":"cebpf4jnsgd1na2vs0mg"},{"bike_id":"8f3f0f0f-47be-411d-9ef8-5f8e7cb3eaad","system_id":"levelo_inurba_marseille","lat":43.24392,"lon":5.37055,"is_reserved":false,"is_disabled":false,"rental_uris":{"android":"levelo://app?vid=8f3f0f0f-47be-411d-9ef8-5f8e7cb3eaad","ios":"levelo://app?vid=8f3f0f0f-47be-411d-9ef8-5f8e7cb3eaad"},"vehicle_type_id":"4","last_reported":1758273094,"current_range_meters":19200,"station_id":"ce4bhhh2rcd13ifvqfk0","pricing_plan_id":"cebpf4jnsgd1na2vs0mg"},{"bike_id":"13400bdd-4ed6-4201-b7cd-1d0573886f52","system_id":"levelo_inurba_marseille","lat":43.31077,"lon":5.38351,"is_reserved":false,"is_disabled":false,"rental_uris":{"android":"levelo://app?vid=13400bdd-4ed6-4201-b7cd-1d0573886f52","ios":"levelo://app?vid=13400bdd-4ed6-4201-b7cd-1d0573886f52"},"vehicle_type_id":"4","last_reported":1758273094,"current_range_meters":19200,"station_id":"ce4bgv92rcd13ifvqcr0","pricing_plan_id":"cebpf4jnsgd1na2vs0mg"},{"bike_id":"f6a3c64c-8146-4c1a-80c2-9c8571d9b801","system_id":"levelo_inurba_marseille","lat":43.292676,"lon":5.37635,"is_reserved":false,"is_disabled":false,"rental_uris":{"android":"levelo://app?vid=f6a3c64c-8146-4c1a-80c2-9c8571d9b801","ios":"levelo://app?vid=f6a3c64c-8146-4c1a-80c2-9c8571d9b801"},"vehicle_type_id":"4","last_reported":1758273094,"current_range_meters":19200,"station_id":"ce4bgi12rcd13ifvqb80","pricing_plan_id":"cebpf4jnsgd1na2vs0mg"},{"bike_id":"f8767221-6e17-4108-921d-0376ff2719b7","system_id":"levelo_inurba_marseille","lat":43.30933,"lon":5.40143,"is_reserved":false,"is_disabled":false,"rental_uris":{"android":"levelo://app?vid=f8767221-6e17-4108-921d-0376ff2719b7","ios":"levelo://app?vid=f8767221-6e17-4108-921d-0376ff2719b7"},"vehicle_type_id":"4","last_reported":1758273094,"current_range_meters":19200,"station_id":"ce4bgvp2rcd13ifvqct0","pricing_plan_id":"cebpf4jnsgd1na2vs0mg"},{"bike_id":"969e50c3-a6fa-49a2-8381-35f10a15b038","system_id":"levelo_inurba_marseille","lat":43.22561,"lon":5.41632,"is_reserved":false,"is_disabled":false,"rental_uris":{"android":"levelo://app?vid=969e50c3-a6fa-49a2-8381-35f10a15b038","ios":"levelo://app?vid=969e50c3-a6fa-49a2-8381-35f10a15b038"},"vehicle_type_id":"4","last_reported":1758273094,"current_range_meters":19200,"station_id":"st_d2o4gvlbi1j2169b742g","pricing_plan_id":"cebpf4jnsgd1na2vs0mg"},{"bike_id":"6e33e01c-37ba-45a5-91d3-e67172d5764c","system_id":"levelo_inurba_marseille","lat":43.33769,"lon":5.3747,"is_reserved":false,"is_disabled":false,"rental_uris":{"android":"levelo://app?vid=6e33e01c-37ba-45a5-91d3-e67172d5764c","ios":"levelo://app?vid=6e33e01c-37ba-45a5-91d3-e67172d5764c"},"vehicle_type_id":"4","last_reported":1758273094,"current_range_meters":19200,"station_id":"","pricing_plan_id":"cebpf4jnsgd1na2vs0mg"},{"bike_id":"6a669b76-d921-4be3-b03a-5942df7f3234","system_id":"levelo_inurba_marseille","lat":43.30098,"lon":5.38208,"is_reserved":false,"is_disabled":false,"rental_uris":{"android":"levelo://app?vid=6a669b76-d921-4be3-b03a-5942df7f3234","ios":"levelo://app?vid=6a669b76-d921-4be3-b03a-5942df7f3234"},"vehicle_type_id":"4","last_reported":1758273094,"current_range_meters":19200,"station_id":"","pricing_plan_id":"cebpf4jnsgd1na2vs0mg"},{"bike_id":"5dd20dc3-e6d9-485b-bf30-486bba29b931","system_id":"levelo_inurba_marseille","lat":43.29445,"lon":5.38632,"is_reserved":false,"is_disabled":false,"rental_uris":{"android":"levelo://app?vid=5dd20dc3-e6d9-485b-bf30-486bba29b931","ios":"levelo://app?vid=5dd20dc3-e6d9-485b-bf30-486bba29b931"},"vehicle_type_id":"4","last_reported":1758273094,"current_range_meters":19200,"station_id":"","pricing_plan_id":"cebpf4jnsgd1na2vs0mg"},{"bike_id":"71f2778a-2b29-41d4-b5cc-f35efa4b34b3","system_id":"levelo_inurba_marseille","lat":43.30918,"lon":5.36842,"is_reserved":false,"is_disabled":false,"rental_uris":{"android":"levelo://app?vid=71f2778a-2b29-41d4-b5cc-f35efa4b34b3","ios":"levelo://app?vid=71f2778a-2b29-41d4-b5cc-f35efa4b34b3"},"vehicle_type_id":"4","last_reported":1758273094,"current_range_meters":19200,"station_id":"ce4bgn92rcd13ifvqbvg","pricing_plan_id":"cebpf4jnsgd1na2vs0mg"},{"bike_id":"2e28cd50-93de-4b40-9a33-f298034fa7e6","system_id":"levelo_inurba_marseille","lat":43.302599,"lon":5.40057,"is_reserved":false,"is_disabled":false,"rental_uris":{"android":"levelo://app?vid=2e28cd50-93de-4b40-9a33-f298034fa7e6","ios":"levelo://app?vid=2e28cd50-93de-4b40-9a33-f298034fa7e6"},"vehicle_type_id":"4","last_reported":1758273094,"current_range_meters":19600,"station_id":"ce4bgvh2rcd13ifvqcs0","pricing_plan_id":"cebpf4jnsgd1na2vs0mg"},{"bike_id":"4bd4d194-9121-4c59-9abb-87f6519689fe","system_id":"levelo_inurba_marseille","lat":43.310734,"lon":5.383589,"is_reserved":false,"is_disabled":false,"rental_uris":{"android":"levelo://app?vid=4bd4d194-9121-4c59-9abb-87f6519689fe","ios":"levelo://app?vid=4bd4d194-9121-4c59-9abb-87f6519689fe"},"vehicle_type_id":"4","last_reported":1758273094,"current_range_meters":19600,"station_id":"ce4bgv92rcd13ifvqcr0","pricing_plan_id":"cebpf4jnsgd1na2vs0mg"},{"bike_id":"703475ee-3854-4f59-822d-a7bdb11b43d0","system_id":"levelo_inurba_marseille","lat":43.32483,"lon":5.36589,"is_reserved":false,"is_disabled":false,"rental_uris":{"android":"levelo://app?vid=703475ee-3854-4f59-822d-a7bdb11b43d0","ios":"levelo://app?vid=703475ee-3854-4f59-822d-a7bdb11b43d0"},"vehicle_type_id":"4","last_reported":1758273094,"current_range_meters":19600,"station_id":"ce4bhs12rcd13ifvqhvg","pricing_plan_id":"cebpf4jnsgd1na2vs0mg"},{"bike_id":"016479c8-adb3-4e9f-91ab-63dde4601175","system_id":"levelo_inurba_marseille","lat":43.29789,"lon":5.38121,"is_reserved":false,"is_disabled":true,"rental_uris":{"android":"levelo://app?vid=016479c8-adb3-4e9f-91ab-63dde4601175","ios":"levelo://app?vid=016479c8-adb3-4e9f-91ab-63dde4601175"},"vehicle_type_id":"4","last_reported":1758273094,"current_range_meters":19600,"station_id":"ce4bgip2rcd13ifvqbb0","pricing_plan_id":"cebpf4jnsgd1na2vs0mg"},{"bike_id":"58cf797e-3a87-4d23-b3dd-f2ada5fb26ef","system_id":"levelo_inurba_marseille","lat":43.25914,"lon":5.40891,"is_reserved":false,"is_disabled":false,"rental_uris":{"android":"levelo://app?vid=58cf797e-3a87-4d23-b3dd-f2ada5fb26ef","ios":"levelo://app?vid=58cf797e-3a87-4d23-b3dd-f2ada5fb26ef"},"vehicle_type_id":"4","last_reported":1758273094,"current_range_meters":19600,"station_id":"ce4bhm92rcd13ifvqglg","pricing_plan_id":"cebpf4jnsgd1na2vs0mg"},{"bike_id":"419910d5-6432-4b45-8071-c82fa6be016b","system_id":"levelo_inurba_marseille","lat":43.29307,"lon":5.37177,"is_reserved":false,"is_disabled":false,"rental_uris":{"android":"levelo://app?vid=419910d5-6432-4b45-8071-c82fa6be016b","ios":"levelo://app?vid=419910d5-6432-4b45-8071-c82fa6be016b"},"vehicle_type_id":"4","last_reported":1758273094,"current_range_meters":19600,"station_id":"ce4bgh92rcd13ifvqb40","pricing_plan_id":"cebpf4jnsgd1na2vs0mg"},{"bike_id":"2a00cb84-e9e6-4781-804d-0494d7480777","system_id":"levelo_inurba_marseille","lat":43.22551,"lon":5.41641,"is_reserved":false,"is_disabled":false,"rental_uris":{"android":"levelo://app?vid=2a00cb84-e9e6-4781-804d-0494d7480777","ios":"levelo://app?vid=2a00cb84-e9e6-4781-804d-0494d7480777"},"vehicle_type_id":"4","last_reported":1758273094,"current_range_meters":20000,"station_id":"st_d2o4gvlbi1j2169b742g","pricing_plan_id":"cebpf4jnsgd1na2vs0mg"},{"bike_id":"cdf24d1e-36fa-469e-b497-018ed5fcc946","system_id":"levelo_inurba_marseille","lat":43.29165,"lon":5.37143,"is_reserved":false,"is_disabled":false,"rental_uris":{"android":"levelo://app?vid=cdf24d1e-36fa-469e-b497-018ed5fcc946","ios":"levelo://app?vid=cdf24d1e-36fa-469e-b497-018ed5fcc946"},"vehicle_type_id":"4","last_reported":1758273094,"current_range_meters":20000,"station_id":"ce4bha92rcd13ifvqeh0","pricing_plan_id":"cebpf4jnsgd1na2vs0mg"},{"bike_id":"2c734c36-442f-468e-ab47-e34ad5183e32","system_id":"levelo_inurba_marseille","lat":43.25772,"lon":5.41047,"is_reserved":false,"is_disabled":true,"rental_uris":{"android":"levelo://app?vid=2c734c36-442f-468e-ab47-e34ad5183e32","ios":"levelo://app?vid=2c734c36-442f-468e-ab47-e34ad5183e32"},"vehicle_type_id":"4","last_reported":1758273094,"current_range_meters":20000,"station_id":"","pricing_plan_id":"cebpf4jnsgd1na2vs0mg"},{"bike_id":"68adab37-f5ad-4072-b58a-fe6c68285ca6","system_id":"levelo_inurba_marseille","lat":43.30605,"lon":5.3762,"is_reserved":false,"is_disabled":false,"rental_uris":{"android":"levelo://app?vid=68adab37-f5ad-4072-b58a-fe6c68285ca6","ios":"levelo://app?vid=68adab37-f5ad-4072-b58a-fe6c68285ca6"},"vehicle_type_id":"4","last_reported":1758273094,"current_range_meters":20000,"station_id":"","pricing_plan_id":"cebpf4jnsgd1na2vs0mg"},{"bike_id":"29b89cb5-75fe-4215-be52-b9434fd389da","system_id":"levelo_inurba_marseille","lat":43.296316,"lon":5.405961,"is_reserved":false,"is_disabled":false,"rental_uris":{"android":"levelo://app?vid=29b89cb5-75fe-4215-be52-b9434fd389da","ios":"levelo://app?vid=29b89cb5-75fe-4215-be52-b9434fd389da"},"vehicle_type_id":"4","last_reported":1758273094,"current_range_meters":20000,"station_id":"ce4bh0h2rcd13ifvqd60","pricing_plan_id":"cebpf4jnsgd1na2vs0mg"},{"bike_id":"13eb3edd-9f60-4741-ac45-2e7c3cc7d73c","system_id":"levelo_inurba_marseille","lat":43.28417,"lon":5.34979,"is_reserved":false,"is_disabled":false,"rental_uris":{"android":"levelo://app?vid=13eb3edd-9f60-4741-ac45-2e7c3cc7d73c","ios":"levelo://app?vid=13eb3edd-9f60-4741-ac45-2e7c3cc7d73c"},"vehicle_type_id":"4","last_reported":1758273094,"current_range_meters":20000,"station_id":"ce4bhbh2rcd13ifvqepg","pricing_plan_id":"cebpf4jnsgd1na2vs0mg"},{"bike_id":"d9b2cf94-228a-4aaa-a7df-d12e2e06c63d","system_id":"levelo_inurba_marseille","lat":43.24076,"lon":5.37754,"is_reserved":false,"is_disabled":false,"rental_uris":{"android":"levelo://app?vid=d9b2cf94-228a-4aaa-a7df-d12e2e06c63d","ios":"levelo://app?vid=d9b2cf94-228a-4aaa-a7df-d12e2e06c63d"},"vehicle_type_id":"4","last_reported":1758273094,"current_range_meters":20000,"station_id":"ce4bhnp2rcd13ifvqgvg","pricing_plan_id":"cebpf4jnsgd1na2vs0mg"},{"bike_id":"b05ab237-5916-46ac-a2fb-5139a54b4b22","system_id":"levelo_inurba_marseille","lat":43.24161,"lon":5.36395,"is_reserved":false,"is_disabled":false,"rental_uris":{"android":"levelo://app?vid=b05ab237-5916-46ac-a2fb-5139a54b4b22","ios":"levelo://app?vid=b05ab237-5916-46ac-a2fb-5139a54b4b22"},"vehicle_type_id":"4","last_reported":1758273094,"current_range_meters":20000,"station_id":"cpo36qri1sfpv3e86is0","pricing_plan_id":"cebpf4jnsgd1na2vs0mg"},{"bike_id":"ac21e71a-b450-4295-8869-9725e0873c08","system_id":"levelo_inurba_marseille","lat":43.337444,"lon":5.374475,"is_reserved":false,"is_disabled":false,"rental_uris":{"android":"levelo://app?vid=ac21e71a-b450-4295-8869-9725e0873c08","ios":"levelo://app?vid=ac21e71a-b450-4295-8869-9725e0873c08"},"vehicle_type_id":"4","last_reported":1758273094,"current_range_meters":20000,"station_id":"","pricing_plan_id":"cebpf4jnsgd1na2vs0mg"},{"bike_id":"600376d4-59e5-4f60-a682-4a53815c7bf6","system_id":"levelo_inurba_marseille","lat":43.27423,"lon":5.39419,"is_reserved":false,"is_disabled":false,"rental_uris":{"android":"levelo://app?vid=600376d4-59e5-4f60-a682-4a53815c7bf6","ios":"levelo://app?vid=600376d4-59e5-4f60-a682-4a53815c7bf6"},"vehicle_type_id":"4","last_reported":1758273094,"current_range_meters":20000,"station_id":"ce4bhdp2rcd13ifvqf20","pricing_plan_id":"cebpf4jnsgd1na2vs0mg"},{"bike_id":"8e047761-4cb2-4fa7-920f-ce3feb6390f9","system_id":"levelo_inurba_marseille","lat":43.33755,"lon":5.37472,"is_reserved":false,"is_disabled":false,"rental_uris":{"android":"levelo://app?vid=8e047761-4cb2-4fa7-920f-ce3feb6390f9","ios":"levelo://app?vid=8e047761-4cb2-4fa7-920f-ce3feb6390f9"},"vehicle_type_id":"4","last_reported":1758273094,"current_range_meters":20000,"station_id":"","pricing_plan_id":"cebpf4jnsgd1na2vs0mg"},{"bike_id":"a07a513e-e5a9-4481-8592-d991379bc662","system_id":"levelo_inurba_marseille","lat":43.337536,"lon":5.374536,"is_reserved":false,"is_disabled":false,"rental_uris":{"android":"levelo://app?vid=a07a513e-e5a9-4481-8592-d991379bc662","ios":"levelo://app?vid=a07a513e-e5a9-4481-8592-d991379bc662"},"vehicle_type_id":"4","last_reported":1758273094,"current_range_meters":20000,"station_id":"","pricing_plan_id":"cebpf4jnsgd1na2vs0mg"},{"bike_id":"579524a7-534b-4d5e-8393-4b981fc7ceec","system_id":"levelo_inurba_marseille","lat":43.29111,"lon":5.37609,"is_reserved":false,"is_disabled":false,"rental_uris":{"android":"levelo://app?vid=579524a7-534b-4d5e-8393-4b981fc7ceec","ios":"levelo://app?vid=579524a7-534b-4d5e-8393-4b981fc7ceec"},"vehicle_type_id":"4","last_reported":1758273094,"current_range_meters":20400,"station_id":"","pricing_plan_id":"cebpf4jnsgd1na2vs0mg"},{"bike_id":"109aa2a7-3a74-47e3-a179-90b8d8d9564f","system_id":"levelo_inurba_marseille","lat":43.3014,"lon":5.39872,"is_reserved":false,"is_disabled":false,"rental_uris":{"android":"levelo://app?vid=109aa2a7-3a74-47e3-a179-90b8d8d9564f","ios":"levelo://app?vid=109aa2a7-3a74-47e3-a179-90b8d8d9564f"},"vehicle_type_id":"4","last_reported":1758273094,"current_range_meters":20400,"station_id":"ce4bh0h2rcd13ifvqd40","pricing_plan_id":"cebpf4jnsgd1na2vs0mg"},{"bike_id":"518d9e89-229d-4ee8-ab30-425609b60429","system_id":"levelo_inurba_marseille","lat":43.30157,"lon":5.39886,"is_reserved":false,"is_disabled":false,"rental_uris":{"android":"levelo://app?vid=518d9e89-229d-4ee8-ab30-425609b60429","ios":"levelo://app?vid=518d9e89-229d-4ee8-ab30-425609b60429"},"vehicle_type_id":"4","last_reported":1758273094,"current_range_meters":20800,"station_id":"ce4bh0h2rcd13ifvqd40","pricing_plan_id":"cebpf4jnsgd1na2vs0mg"},{"bike_id":"fa51ffa4-3f55-4a3d-86f2-f41a060a75bb","system_id":"levelo_inurba_marseille","lat":43.23934,"lon":5.36681,"is_reserved":false,"is_disabled":true,"rental_uris":{"android":"levelo://app?vid=fa51ffa4-3f55-4a3d-86f2-f41a060a75bb","ios":"levelo://app?vid=fa51ffa4-3f55-4a3d-86f2-f41a060a75bb"},"vehicle_type_id":"4","last_reported":1758273094,"current_range_meters":20800,"station_id":"","pricing_plan_id":"cebpf4jnsgd1na2vs0mg"},{"bike_id":"e26424ca-8e61-4792-8c48-17cb93dcbe5a","system_id":"levelo_inurba_marseille","lat":43.29815,"lon":5.3767,"is_reserved":false,"is_disabled":false,"rental_uris":{"android":"levelo://app?vid=e26424ca-8e61-4792-8c48-17cb93dcbe5a","ios":"levelo://app?vid=e26424ca-8e61-4792-8c48-17cb93dcbe5a"},"vehicle_type_id":"4","last_reported":1758273094,"current_range_meters":20800,"station_id":"","pricing_plan_id":"cebpf4jnsgd1na2vs0mg"},{"bike_id":"abdb25e5-3623-4b64-b82b-dc29ce9d8a68","system_id":"levelo_inurba_marseille","lat":43.32478,"lon":5.36571,"is_reserved":false,"is_disabled":false,"rental_uris":{"android":"levelo://app?vid=abdb25e5-3623-4b64-b82b-dc29ce9d8a68","ios":"levelo://app?vid=abdb25e5-3623-4b64-b82b-dc29ce9d8a68"},"vehicle_type_id":"4","last_reported":1758273094,"current_range_meters":20800,"station_id":"ce4bhs12rcd13ifvqhvg","pricing_plan_id":"cebpf4jnsgd1na2vs0mg"},{"bike_id":"cf00de56-ef8e-4488-9e68-c7a84a60f3e7","system_id":"levelo_inurba_marseille","lat":43.33717,"lon":5.39177,"is_reserved":false,"is_disabled":false,"rental_uris":{"android":"levelo://app?vid=cf00de56-ef8e-4488-9e68-c7a84a60f3e7","ios":"levelo://app?vid=cf00de56-ef8e-4488-9e68-c7a84a60f3e7"},"vehicle_type_id":"4","last_reported":1758273094,"current_range_meters":20800,"station_id":"ce4bhr92rcd13ifvqhsg","pricing_plan_id":"cebpf4jnsgd1na2vs0mg"},{"bike_id":"622e6da0-7ea0-4709-acc3-5fab7e337770","system_id":"levelo_inurba_marseille","lat":43.29531,"lon":5.36455,"is_reserved":false,"is_disabled":false,"rental_uris":{"android":"levelo://app?vid=622e6da0-7ea0-4709-acc3-5fab7e337770","ios":"levelo://app?vid=622e6da0-7ea0-4709-acc3-5fab7e337770"},"vehicle_type_id":"4","last_reported":1758273094,"current_range_meters":21600,"station_id":"","pricing_plan_id":"cebpf4jnsgd1na2vs0mg"},{"bike_id":"b8af4056-fb36-4e39-a4f0-5cd179383459","system_id":"levelo_inurba_marseille","lat":43.32918,"lon":5.38949,"is_reserved":false,"is_disabled":false,"rental_uris":{"android":"levelo://app?vid=b8af4056-fb36-4e39-a4f0-5cd179383459","ios":"levelo://app?vid=b8af4056-fb36-4e39-a4f0-5cd179383459"},"vehicle_type_id":"4","last_reported":1758273094,"current_range_meters":21600,"station_id":"","pricing_plan_id":"cebpf4jnsgd1na2vs0mg"},{"bike_id":"a139b30b-b64f-4669-971d-31c78166d39d","system_id":"levelo_inurba_marseille","lat":43.29309,"lon":5.37173,"is_reserved":false,"is_disabled":false,"rental_uris":{"android":"levelo://app?vid=a139b30b-b64f-4669-971d-31c78166d39d","ios":"levelo://app?vid=a139b30b-b64f-4669-971d-31c78166d39d"},"vehicle_type_id":"4","last_reported":1758273094,"current_range_meters":22000,"station_id":"ce4bgh92rcd13ifvqb40","pricing_plan_id":"cebpf4jnsgd1na2vs0mg"},{"bike_id":"cfe6dec4-7099-43b3-9e41-3212cd5eeadd","system_id":"levelo_inurba_marseille","lat":43.296,"lon":5.37706,"is_reserved":false,"is_disabled":true,"rental_uris":{"android":"levelo://app?vid=cfe6dec4-7099-43b3-9e41-3212cd5eeadd","ios":"levelo://app?vid=cfe6dec4-7099-43b3-9e41-3212cd5eeadd"},"vehicle_type_id":"4","last_reported":1758273094,"current_range_meters":22000,"station_id":"ce4bgi92rcd13ifvqb90","pricing_plan_id":"cebpf4jnsgd1na2vs0mg"},{"bike_id":"5a0ff359-3461-420d-b0ee-ffaadfd8c812","system_id":"levelo_inurba_marseille","lat":43.30074,"lon":5.39082,"is_reserved":false,"is_disabled":false,"rental_uris":{"android":"levelo://app?vid=5a0ff359-3461-420d-b0ee-ffaadfd8c812","ios":"levelo://app?vid=5a0ff359-3461-420d-b0ee-ffaadfd8c812"},"vehicle_type_id":"4","last_reported":1758273094,"current_range_meters":22000,"station_id":"ce4bh192rcd13ifvqdb0","pricing_plan_id":"cebpf4jnsgd1na2vs0mg"},{"bike_id":"242f7fb3-a98e-42c5-879c-7d816378314a","system_id":"levelo_inurba_marseille","lat":43.27673,"lon":5.3889,"is_reserved":false,"is_disabled":false,"rental_uris":{"android":"levelo://app?vid=242f7fb3-a98e-42c5-879c-7d816378314a","ios":"levelo://app?vid=242f7fb3-a98e-42c5-879c-7d816378314a"},"vehicle_type_id":"4","last_reported":1758273094,"current_range_meters":23200,"station_id":"ce4bhi12rcd13ifvqfo0","pricing_plan_id":"cebpf4jnsgd1na2vs0mg"},{"bike_id":"bcb07c3b-b628-4fc0-aea1-920f0ba67f44","system_id":"levelo_inurba_marseille","lat":43.23961,"lon":5.36626,"is_reserved":false,"is_disabled":false,"rental_uris":{"android":"levelo://app?vid=bcb07c3b-b628-4fc0-aea1-920f0ba67f44","ios":"levelo://app?vid=bcb07c3b-b628-4fc0-aea1-920f0ba67f44"},"vehicle_type_id":"4","last_reported":1758273094,"current_range_meters":22000,"station_id":"ce4bhi12rcd13ifvqfp0","pricing_plan_id":"cebpf4jnsgd1na2vs0mg"},{"bike_id":"932aaedf-dd17-4047-8c0a-8fa28c4ede96","system_id":"levelo_inurba_marseille","lat":43.33757,"lon":5.37487,"is_reserved":false,"is_disabled":false,"rental_uris":{"android":"levelo://app?vid=932aaedf-dd17-4047-8c0a-8fa28c4ede96","ios":"levelo://app?vid=932aaedf-dd17-4047-8c0a-8fa28c4ede96"},"vehicle_type_id":"4","last_reported":1758273094,"current_range_meters":22000,"station_id":"","pricing_plan_id":"cebpf4jnsgd1na2vs0mg"},{"bike_id":"37f99d20-8b7f-45c6-94aa-9a4143897022","system_id":"levelo_inurba_marseille","lat":43.30924,"lon":5.40131,"is_reserved":false,"is_disabled":false,"rental_uris":{"android":"levelo://app?vid=37f99d20-8b7f-45c6-94aa-9a4143897022","ios":"levelo://app?vid=37f99d20-8b7f-45c6-94aa-9a4143897022"},"vehicle_type_id":"4","last_reported":1758273094,"current_range_meters":22000,"station_id":"","pricing_plan_id":"cebpf4jnsgd1na2vs0mg"},{"bike_id":"7a15d92f-7be6-4c35-a733-907359471e75","system_id":"levelo_inurba_marseille","lat":43.25937,"lon":5.40852,"is_reserved":false,"is_disabled":false,"rental_uris":{"android":"levelo://app?vid=7a15d92f-7be6-4c35-a733-907359471e75","ios":"levelo://app?vid=7a15d92f-7be6-4c35-a733-907359471e75"},"vehicle_type_id":"4","last_reported":1758273094,"current_range_meters":22000,"station_id":"ce4bhm92rcd13ifvqglg","pricing_plan_id":"cebpf4jnsgd1na2vs0mg"},{"bike_id":"76bbf107-7ec5-4826-b296-ab629ecd14ab","system_id":"levelo_inurba_marseille","lat":43.2984,"lon":5.42031,"is_reserved":false,"is_disabled":false,"rental_uris":{"android":"levelo://app?vid=76bbf107-7ec5-4826-b296-ab629ecd14ab","ios":"levelo://app?vid=76bbf107-7ec5-4826-b296-ab629ecd14ab"},"vehicle_type_id":"4","last_reported":1758273094,"current_range_meters":22000,"station_id":"","pricing_plan_id":"cebpf4jnsgd1na2vs0mg"},{"bike_id":"10fd59d4-badb-4fbf-8db8-0564e4631b77","system_id":"levelo_inurba_marseille","lat":43.2996,"lon":5.41323,"is_reserved":false,"is_disabled":false,"rental_uris":{"android":"levelo://app?vid=10fd59d4-badb-4fbf-8db8-0564e4631b77","ios":"levelo://app?vid=10fd59d4-badb-4fbf-8db8-0564e4631b77"},"vehicle_type_id":"4","last_reported":1758273094,"current_range_meters":22400,"station_id":"ce4bhp12rcd13ifvqh9g","pricing_plan_id":"cebpf4jnsgd1na2vs0mg"},{"bike_id":"97514a44-1f4d-4ae1-a270-04ca7b75c621","system_id":"levelo_inurba_marseille","lat":43.2885,"lon":5.42525,"is_reserved":false,"is_disabled":false,"rental_uris":{"android":"levelo://app?vid=97514a44-1f4d-4ae1-a270-04ca7b75c621","ios":"levelo://app?vid=97514a44-1f4d-4ae1-a270-04ca7b75c621"},"vehicle_type_id":"4","last_reported":1758273094,"current_range_meters":22400,"station_id":"","pricing_plan_id":"cebpf4jnsgd1na2vs0mg"},{"bike_id":"2d0a4a80-3697-44b3-a970-56edf966f4c6","system_id":"levelo_inurba_marseille","lat":43.31752,"lon":5.39016,"is_reserved":false,"is_disabled":false,"rental_uris":{"android":"levelo://app?vid=2d0a4a80-3697-44b3-a970-56edf966f4c6","ios":"levelo://app?vid=2d0a4a80-3697-44b3-a970-56edf966f4c6"},"vehicle_type_id":"4","last_reported":1758273094,"current_range_meters":22400,"station_id":"ce4bhqp2rcd13ifvqhng","pricing_plan_id":"cebpf4jnsgd1na2vs0mg"},{"bike_id":"eb2b898f-592d-45b8-9d8f-a1b321c34201","system_id":"levelo_inurba_marseille","lat":43.29301,"lon":5.37453,"is_reserved":false,"is_disabled":false,"rental_uris":{"android":"levelo://app?vid=eb2b898f-592d-45b8-9d8f-a1b321c34201","ios":"levelo://app?vid=eb2b898f-592d-45b8-9d8f-a1b321c34201"},