{"last_updated":1778928820,"ttl":60,"version":"2.2","data":{"bikes":[{"bike_id":"08c772e3-0504-446f-b5ab-8f8a5debda77","system_id":"levelo_inurba_marseille","lat":43.28171,"lon":5.42633,"is_reserved":false,"is_disabled":false,"rental_uris":{"android":"levelo://app?vid=08c772e3-0504-446f-b5ab-8f8a5debda77","ios":"levelo://app?vid=08c772e3-0504-446f-b5ab-8f8a5debda77"},"vehicle_type_id":"4","last_reported":1778928821,"current_range_meters":2800,"station_id":"ce4bhnh2rcd13ifvqgug","pricing_plan_id":"cebpf4jnsgd1na2vs0mg"},{"bike_id":"7639b823-344d-4b05-9053-b6d23e61c6df","system_id":"levelo_inurba_marseille","lat":43.2603,"lon":5.3755,"is_reserved":false,"is_disabled":false,"rental_uris":{"android":"levelo://app?vid=7639b823-344d-4b05-9053-b6d23e61c6df","ios":"levelo://app?vid=7639b823-344d-4b05-9053-b6d23e61c6df"},"vehicle_type_id":"4","last_reported":1778928821,"current_range_meters":2800,"station_id":"ce4bhgh2rcd13ifvqfa0","pricing_plan_id":"cebpf4jnsgd1na2vs0mg"},{"bike_id":"cb55187e-ff5f-4e6e-9ebf-678eeb9a4053","system_id":"levelo_inurba_marseille","lat":43.26196,"lon":5.37444,"is_reserved":false,"is_disabled":false,"rental_uris":{"android":"levelo://app?vid=cb55187e-ff5f-4e6e-9ebf-678eeb9a4053","ios":"levelo://app?vid=cb55187e-ff5f-4e6e-9ebf-678eeb9a4053"},"vehicle_type_id":"4","last_reported":1778928821,"current_range_meters":2800,"station_id":"ce4bhgp2rcd13ifvqfc0","pricing_plan_id":"cebpf4jnsgd1na2vs0mg"},{"bike_id":"a4c2eede-e013-4321-8302-912589e82a3a","system_id":"levelo_inurba_marseille","lat":43.31221,"lon":5.36787,"is_reserved":false,"is_disabled":false,"rental_uris":{"android":"levelo://app?vid=a4c2eede-e013-4321-8302-912589e82a3a","ios":"levelo://app?vid=a4c2eede-e013-4321-8302-912589e82a3a"},"vehicle_type_id":"4","last_reported":1778928821,"current_range_meters":2800,"station_id":"","pricing_plan_id":"cebpf4jnsgd1na2vs0mg"},{"bike_id":"683c2f64-d560-477d-bf79-f81884be1301","system_id":"levelo_inurba_marseille","lat":43.26377,"lon":5.40223,"is_reserved":false,"is_disabled":false,"rental_uris":{"android":"levelo://app?vid=683c2f64-d560-477d-bf79-f81884be1301","ios":"levelo://app?vid=683c2f64-d560-477d-bf79-f81884be1301"},"vehicle_type_id":"4","last_reported":1778928821,"current_range_meters":2800,"station_id":"","pricing_plan_id":"cebpf4jnsgd1na2vs0mg"},{"bike_id":"0d5dd8d5-22ce-4cf4-96c4-a16487c95253","system_id":"levelo_inurba_marseille","lat":43.29962,"lon":5.38667,"is_reserved":false,"is_disabled":false,"rental_uris":{"android":"levelo://app?vid=0d5dd8d5-22ce-4cf4-96c4-a16487c95253","ios":"levelo://app?vid=0d5dd8d5-22ce-4cf4-96c4-a16487c95253"},"vehicle_type_id":"4","last_reported":1778928821,"current_range_meters":2800,"station_id":"","pricing_plan_id":"cebpf4jnsgd1na2vs0mg"},{"bike_id":"a25c7dfe-3cf1-45e6-98f0-576db10cdfab","system_id":"levelo_inurba_marseille","lat":43.25333,"lon":5.42163,"is_reserved":false,"is_disabled":false,"rental_uris":{"android":"levelo://app?vid=a25c7dfe-3cf1-45e6-98f0-576db10cdfab","ios":"levelo://app?vid=a25c7dfe-3cf1-45e6-98f0-576db10cdfab"},"vehicle_type_id":"4","last_reported":1778928821,"current_range_meters":3200,"station_id":"st_d2m65c5bi1j21697t3ng","pricing_plan_id":"cebpf4jnsgd1na2vs0mg"},{"bike_id":"ded1ab57-040f-4289-a7c4-e1663a2b2654","system_id":"levelo_inurba_marseille","lat":43.30145,"lon":5.3741,"is_reserved":false,"is_disabled":false,"rental_uris":{"android":"levelo://app?vid=ded1ab57-040f-4289-a7c4-e1663a2b2654","ios":"levelo://app?vid=ded1ab57-040f-4289-a7c4-e1663a2b2654"},"vehicle_type_id":"4","last_reported":1778928821,"current_range_meters":3200,"station_id":"ce4bgs92rcd13ifvqcc0","pricing_plan_id":"cebpf4jnsgd1na2vs0mg"},{"bike_id":"c4ee361f-040e-4ad9-8fc8-7b730e9f0c39","system_id":"levelo_inurba_marseille","lat":43.337444,"lon":5.374475,"is_reserved":false,"is_disabled":true,"rental_uris":{"android":"levelo://app?vid=c4ee361f-040e-4ad9-8fc8-7b730e9f0c39","ios":"levelo://app?vid=c4ee361f-040e-4ad9-8fc8-7b730e9f0c39"},"vehicle_type_id":"4","last_reported":1778928821,"current_range_meters":3200,"station_id":"","pricing_plan_id":"cebpf4jnsgd1na2vs0mg"},{"bike_id":"216987c8-1f68-4f7b-91e0-236683f77960","system_id":"levelo_inurba_marseille","lat":43.24649,"lon":5.38899,"is_reserved":false,"is_disabled":false,"rental_uris":{"android":"levelo://app?vid=216987c8-1f68-4f7b-91e0-236683f77960","ios":"levelo://app?vid=216987c8-1f68-4f7b-91e0-236683f77960"},"vehicle_type_id":"4","last_reported":1778928821,"current_range_meters":3200,"station_id":"ce4bhg12rcd13ifvqf60","pricing_plan_id":"cebpf4jnsgd1na2vs0mg"},{"bike_id":"b1b1c9ad-0e11-41a8-95b1-ee1803460284","system_id":"levelo_inurba_marseille","lat":43.33544,"lon":5.37469,"is_reserved":false,"is_disabled":false,"rental_uris":{"android":"levelo://app?vid=b1b1c9ad-0e11-41a8-95b1-ee1803460284","ios":"levelo://app?vid=b1b1c9ad-0e11-41a8-95b1-ee1803460284"},"vehicle_type_id":"4","last_reported":1778928821,"current_range_meters":3200,"station_id":"st_d46tts09ee8s73dlu43g","pricing_plan_id":"cebpf4jnsgd1na2vs0mg"},{"bike_id":"f3198137-cbc8-4311-8899-b4ab689fee46","system_id":"levelo_inurba_marseille","lat":43.26029,"lon":5.3753,"is_reserved":false,"is_disabled":true,"rental_uris":{"android":"levelo://app?vid=f3198137-cbc8-4311-8899-b4ab689fee46","ios":"levelo://app?vid=f3198137-cbc8-4311-8899-b4ab689fee46"},"vehicle_type_id":"4","last_reported":1778928821,"current_range_meters":3200,"station_id":"ce4bhgh2rcd13ifvqfa0","pricing_plan_id":"cebpf4jnsgd1na2vs0mg"},{"bike_id":"2e76f4d6-2f20-4e80-a9b5-3132602c2ce9","system_id":"levelo_inurba_marseille","lat":43.24699,"lon":5.38134,"is_reserved":false,"is_disabled":false,"rental_uris":{"android":"levelo://app?vid=2e76f4d6-2f20-4e80-a9b5-3132602c2ce9","ios":"levelo://app?vid=2e76f4d6-2f20-4e80-a9b5-3132602c2ce9"},"vehicle_type_id":"4","last_reported":1778928821,"current_range_meters":3200,"station_id":"ce4bhih2rcd13ifvqfr0","pricing_plan_id":"cebpf4jnsgd1na2vs0mg"},{"bike_id":"8fd1db17-458e-4031-915e-2e0b7b5b67d4","system_id":"levelo_inurba_marseille","lat":43.27373,"lon":5.36252,"is_reserved":false,"is_disabled":false,"rental_uris":{"android":"levelo://app?vid=8fd1db17-458e-4031-915e-2e0b7b5b67d4","ios":"levelo://app?vid=8fd1db17-458e-4031-915e-2e0b7b5b67d4"},"vehicle_type_id":"4","last_reported":1778928821,"current_range_meters":3200,"station_id":"ce4bhbh2rcd13ifvqeo0","pricing_plan_id":"cebpf4jnsgd1na2vs0mg"},{"bike_id":"9b0d300e-df14-4113-9c71-af15c744e30b","system_id":"levelo_inurba_marseille","lat":43.31718,"lon":5.42387,"is_reserved":false,"is_disabled":false,"rental_uris":{"android":"levelo://app?vid=9b0d300e-df14-4113-9c71-af15c744e30b","ios":"levelo://app?vid=9b0d300e-df14-4113-9c71-af15c744e30b"},"vehicle_type_id":"4","last_reported":1778928821,"current_range_meters":3600,"station_id":"ce4bhp92rcd13ifvqhbg","pricing_plan_id":"cebpf4jnsgd1na2vs0mg"},{"bike_id":"aca9ae95-ef58-4bc5-8975-7ec12cd51eb1","system_id":"levelo_inurba_marseille","lat":43.30141,"lon":5.3807,"is_reserved":false,"is_disabled":false,"rental_uris":{"android":"levelo://app?vid=aca9ae95-ef58-4bc5-8975-7ec12cd51eb1","ios":"levelo://app?vid=aca9ae95-ef58-4bc5-8975-7ec12cd51eb1"},"vehicle_type_id":"4","last_reported":1778928821,"current_range_meters":3600,"station_id":"ce4bgjp2rcd13ifvqbh0","pricing_plan_id":"cebpf4jnsgd1na2vs0mg"},{"bike_id":"18eb90ac-eec2-4913-9241-dd8d26049a6e","system_id":"levelo_inurba_marseille","lat":43.28683,"lon":5.46681,"is_reserved":false,"is_disabled":false,"rental_uris":{"android":"levelo://app?vid=18eb90ac-eec2-4913-9241-dd8d26049a6e","ios":"levelo://app?vid=18eb90ac-eec2-4913-9241-dd8d26049a6e"},"vehicle_type_id":"4","last_reported":1778928821,"current_range_meters":3600,"station_id":"st_d6tc3vkotcvc738tfjhg","pricing_plan_id":"cebpf4jnsgd1na2vs0mg"},{"bike_id":"0851ef02-abf8-47b5-8d41-445bb5757760","system_id":"levelo_inurba_marseille","lat":43.26981,"lon":5.40211,"is_reserved":false,"is_disabled":false,"rental_uris":{"android":"levelo://app?vid=0851ef02-abf8-47b5-8d41-445bb5757760","ios":"levelo://app?vid=0851ef02-abf8-47b5-8d41-445bb5757760"},"vehicle_type_id":"4","last_reported":1778928821,"current_range_meters":3600,"station_id":"","pricing_plan_id":"cebpf4jnsgd1na2vs0mg"},{"bike_id":"eb69ded8-3844-4366-a6c0-c2401c6cc839","system_id":"levelo_inurba_marseille","lat":43.287,"lon":5.46688,"is_reserved":false,"is_disabled":false,"rental_uris":{"android":"levelo://app?vid=eb69ded8-3844-4366-a6c0-c2401c6cc839","ios":"levelo://app?vid=eb69ded8-3844-4366-a6c0-c2401c6cc839"},"vehicle_type_id":"4","last_reported":1778928821,"current_range_meters":3600,"station_id":"st_d6tc3vkotcvc738tfjhg","pricing_plan_id":"cebpf4jnsgd1na2vs0mg"},{"bike_id":"5842d00e-d8a8-43bf-a2c8-9628aa748a0e","system_id":"levelo_inurba_marseille","lat":43.27901,"lon":5.39594,"is_reserved":false,"is_disabled":false,"rental_uris":{"android":"levelo://app?vid=5842d00e-d8a8-43bf-a2c8-9628aa748a0e","ios":"levelo://app?vid=5842d00e-d8a8-43bf-a2c8-9628aa748a0e"},"vehicle_type_id":"4","last_reported":1778928821,"current_range_meters":4000,"station_id":"ce4bhf92rcd13ifvqf40","pricing_plan_id":"cebpf4jnsgd1na2vs0mg"},{"bike_id":"6661dcda-2c61-4ee5-8306-6a982459bb60","system_id":"levelo_inurba_marseille","lat":43.25724,"lon":5.41112,"is_reserved":false,"is_disabled":false,"rental_uris":{"android":"levelo://app?vid=6661dcda-2c61-4ee5-8306-6a982459bb60","ios":"levelo://app?vid=6661dcda-2c61-4ee5-8306-6a982459bb60"},"vehicle_type_id":"4","last_reported":1778928821,"current_range_meters":4000,"station_id":"ce4bhkp2rcd13ifvqgd0","pricing_plan_id":"cebpf4jnsgd1na2vs0mg"},{"bike_id":"df06f853-df8b-44c5-8abd-63dd254e997c","system_id":"levelo_inurba_marseille","lat":43.29824,"lon":5.3866,"is_reserved":false,"is_disabled":false,"rental_uris":{"android":"levelo://app?vid=df06f853-df8b-44c5-8abd-63dd254e997c","ios":"levelo://app?vid=df06f853-df8b-44c5-8abd-63dd254e997c"},"vehicle_type_id":"4","last_reported":1778928821,"current_range_meters":4000,"station_id":"","pricing_plan_id":"cebpf4jnsgd1na2vs0mg"},{"bike_id":"197f8590-4140-4e11-8b87-67ad98bb4bca","system_id":"levelo_inurba_marseille","lat":43.28594,"lon":5.37065,"is_reserved":false,"is_disabled":true,"rental_uris":{"android":"levelo://app?vid=197f8590-4140-4e11-8b87-67ad98bb4bca","ios":"levelo://app?vid=197f8590-4140-4e11-8b87-67ad98bb4bca"},"vehicle_type_id":"4","last_reported":1778928821,"current_range_meters":4000,"station_id":"ce4bht12rcd13ifvqi60","pricing_plan_id":"cebpf4jnsgd1na2vs0mg"},{"bike_id":"e0da8364-460d-4f6a-afe8-09ef339ab7cf","system_id":"levelo_inurba_marseille","lat":43.29262,"lon":5.37621,"is_reserved":false,"is_disabled":false,"rental_uris":{"android":"levelo://app?vid=e0da8364-460d-4f6a-afe8-09ef339ab7cf","ios":"levelo://app?vid=e0da8364-460d-4f6a-afe8-09ef339ab7cf"},"vehicle_type_id":"4","last_reported":1778928821,"current_range_meters":4000,"station_id":"ce4bgi12rcd13ifvqb80","pricing_plan_id":"cebpf4jnsgd1na2vs0mg"},{"bike_id":"a9451161-f8ad-4a00-83ee-48b580a6b1d9","system_id":"levelo_inurba_marseille","lat":43.27556,"lon":5.38426,"is_reserved":false,"is_disabled":false,"rental_uris":{"android":"levelo://app?vid=a9451161-f8ad-4a00-83ee-48b580a6b1d9","ios":"levelo://app?vid=a9451161-f8ad-4a00-83ee-48b580a6b1d9"},"vehicle_type_id":"4","last_reported":1778928821,"current_range_meters":4000,"station_id":"ce4bhh92rcd13ifvqfi0","pricing_plan_id":"cebpf4jnsgd1na2vs0mg"},{"bike_id":"4c4af55b-f60f-4b0e-bc18-caba52c3f95e","system_id":"levelo_inurba_marseille","lat":43.29537,"lon":5.42295,"is_reserved":false,"is_disabled":false,"rental_uris":{"android":"levelo://app?vid=4c4af55b-f60f-4b0e-bc18-caba52c3f95e","ios":"levelo://app?vid=4c4af55b-f60f-4b0e-bc18-caba52c3f95e"},"vehicle_type_id":"4","last_reported":1778928821,"current_range_meters":4000,"station_id":"ce4bhph2rcd13ifvqhdg","pricing_plan_id":"cebpf4jnsgd1na2vs0mg"},{"bike_id":"919a8fad-5bee-4771-be4b-62810fbda372","system_id":"levelo_inurba_marseille","lat":43.24976,"lon":5.38967,"is_reserved":false,"is_disabled":false,"rental_uris":{"android":"levelo://app?vid=919a8fad-5bee-4771-be4b-62810fbda372","ios":"levelo://app?vid=919a8fad-5bee-4771-be4b-62810fbda372"},"vehicle_type_id":"4","last_reported":1778928821,"current_range_meters":4000,"station_id":"","pricing_plan_id":"cebpf4jnsgd1na2vs0mg"},{"bike_id":"417bd26b-1701-485b-b896-bb7adc98bac9","system_id":"levelo_inurba_marseille","lat":43.23956,"lon":5.36631,"is_reserved":false,"is_disabled":true,"rental_uris":{"android":"levelo://app?vid=417bd26b-1701-485b-b896-bb7adc98bac9","ios":"levelo://app?vid=417bd26b-1701-485b-b896-bb7adc98bac9"},"vehicle_type_id":"4","last_reported":1778928821,"current_range_meters":4000,"station_id":"ce4bhi12rcd13ifvqfp0","pricing_plan_id":"cebpf4jnsgd1na2vs0mg"},{"bike_id":"664a66cf-32f5-4d4e-b164-e0c7e3c4db03","system_id":"levelo_inurba_marseille","lat":43.250845,"lon":5.395246,"is_reserved":false,"is_disabled":false,"rental_uris":{"android":"levelo://app?vid=664a66cf-32f5-4d4e-b164-e0c7e3c4db03","ios":"levelo://app?vid=664a66cf-32f5-4d4e-b164-e0c7e3c4db03"},"vehicle_type_id":"4","last_reported":1778928821,"current_range_meters":4000,"station_id":"ce4bhm12rcd13ifvqgkg","pricing_plan_id":"cebpf4jnsgd1na2vs0mg"},{"bike_id":"db434070-fbc8-463e-8a86-acaf6a506c56","system_id":"levelo_inurba_marseille","lat":43.28411,"lon":5.34986,"is_reserved":false,"is_disabled":false,"rental_uris":{"android":"levelo://app?vid=db434070-fbc8-463e-8a86-acaf6a506c56","ios":"levelo://app?vid=db434070-fbc8-463e-8a86-acaf6a506c56"},"vehicle_type_id":"4","last_reported":1778928821,"current_range_meters":4000,"station_id":"ce4bhbh2rcd13ifvqepg","pricing_plan_id":"cebpf4jnsgd1na2vs0mg"},{"bike_id":"2345b843-5a5e-4d20-a142-4f42e112b289","system_id":"levelo_inurba_marseille","lat":43.34138,"lon":5.40895,"is_reserved":false,"is_disabled":false,"rental_uris":{"android":"levelo://app?vid=2345b843-5a5e-4d20-a142-4f42e112b289","ios":"levelo://app?vid=2345b843-5a5e-4d20-a142-4f42e112b289"},"vehicle_type_id":"4","last_reported":1778928821,"current_range_meters":4000,"station_id":"ce4bhqh2rcd13ifvqhlg","pricing_plan_id":"cebpf4jnsgd1na2vs0mg"},{"bike_id":"2a01f0d7-8080-47d7-9ca5-40364fc7ed22","system_id":"levelo_inurba_marseille","lat":43.27621,"lon":5.36104,"is_reserved":false,"is_disabled":false,"rental_uris":{"android":"levelo://app?vid=2a01f0d7-8080-47d7-9ca5-40364fc7ed22","ios":"levelo://app?vid=2a01f0d7-8080-47d7-9ca5-40364fc7ed22"},"vehicle_type_id":"4","last_reported":1778928821,"current_range_meters":4000,"station_id":"ce4bgj92rcd13ifvqbe0","pricing_plan_id":"cebpf4jnsgd1na2vs0mg"},{"bike_id":"5549edf7-8dfe-42df-83b0-74493929c7c8","system_id":"levelo_inurba_marseille","lat":43.30579,"lon":5.37229,"is_reserved":false,"is_disabled":false,"rental_uris":{"android":"levelo://app?vid=5549edf7-8dfe-42df-83b0-74493929c7c8","ios":"levelo://app?vid=5549edf7-8dfe-42df-83b0-74493929c7c8"},"vehicle_type_id":"4","last_reported":1778928821,"current_range_meters":4000,"station_id":"ce4bgqh2rcd13ifvqc4g","pricing_plan_id":"cebpf4jnsgd1na2vs0mg"},{"bike_id":"c15b7d9d-4d2e-4558-9fe7-1ee3f2efc7ae","system_id":"levelo_inurba_marseille","lat":43.29483,"lon":5.43312,"is_reserved":false,"is_disabled":false,"rental_uris":{"android":"levelo://app?vid=c15b7d9d-4d2e-4558-9fe7-1ee3f2efc7ae","ios":"levelo://app?vid=c15b7d9d-4d2e-4558-9fe7-1ee3f2efc7ae"},"vehicle_type_id":"4","last_reported":1778928821,"current_range_meters":4000,"station_id":"st_d3j5ugp08ojc73fj9d10","pricing_plan_id":"cebpf4jnsgd1na2vs0mg"},{"bike_id":"55ba4af7-a49e-4f0b-adbf-e969fb355a90","system_id":"levelo_inurba_marseille","lat":43.30114,"lon":5.39868,"is_reserved":false,"is_disabled":false,"rental_uris":{"android":"levelo://app?vid=55ba4af7-a49e-4f0b-adbf-e969fb355a90","ios":"levelo://app?vid=55ba4af7-a49e-4f0b-adbf-e969fb355a90"},"vehicle_type_id":"4","last_reported":1778928821,"current_range_meters":4000,"station_id":"ce4bh0h2rcd13ifvqd40","pricing_plan_id":"cebpf4jnsgd1na2vs0mg"},{"bike_id":"a47210f8-ae85-48d0-963a-6b250afbdadb","system_id":"levelo_inurba_marseille","lat":43.28005,"lon":5.39992,"is_reserved":false,"is_disabled":false,"rental_uris":{"android":"levelo://app?vid=a47210f8-ae85-48d0-963a-6b250afbdadb","ios":"levelo://app?vid=a47210f8-ae85-48d0-963a-6b250afbdadb"},"vehicle_type_id":"4","last_reported":1778928821,"current_range_meters":4000,"station_id":"ce4bho92rcd13ifvqh4g","pricing_plan_id":"cebpf4jnsgd1na2vs0mg"},{"bike_id":"579c1010-a0a4-4e44-bcba-24d9838b4262","system_id":"levelo_inurba_marseille","lat":43.24952,"lon":5.40487,"is_reserved":false,"is_disabled":false,"rental_uris":{"android":"levelo://app?vid=579c1010-a0a4-4e44-bcba-24d9838b4262","ios":"levelo://app?vid=579c1010-a0a4-4e44-bcba-24d9838b4262"},"vehicle_type_id":"4","last_reported":1778928821,"current_range_meters":4000,"station_id":"st_d2ngiaodas8pm72gd1h0","pricing_plan_id":"cebpf4jnsgd1na2vs0mg"},{"bike_id":"67ecae68-d24a-4dbc-b685-351365b700de","system_id":"levelo_inurba_marseille","lat":43.25498,"lon":5.37635,"is_reserved":false,"is_disabled":false,"rental_uris":{"android":"levelo://app?vid=67ecae68-d24a-4dbc-b685-351365b700de","ios":"levelo://app?vid=67ecae68-d24a-4dbc-b685-351365b700de"},"vehicle_type_id":"4","last_reported":1778928821,"current_range_meters":4400,"station_id":"ce4bhh12rcd13ifvqff0","pricing_plan_id":"cebpf4jnsgd1na2vs0mg"},{"bike_id":"9eb50ef0-d222-4848-9f4f-b79a03731b4c","system_id":"levelo_inurba_marseille","lat":43.21184,"lon":5.35074,"is_reserved":false,"is_disabled":false,"rental_uris":{"android":"levelo://app?vid=9eb50ef0-d222-4848-9f4f-b79a03731b4c","ios":"levelo://app?vid=9eb50ef0-d222-4848-9f4f-b79a03731b4c"},"vehicle_type_id":"4","last_reported":1778928821,"current_range_meters":4400,"station_id":"st_cvj6sg6p6f1abm77japg","pricing_plan_id":"cebpf4jnsgd1na2vs0mg"},{"bike_id":"3007388a-056f-4684-be3d-794e8cb052f8","system_id":"levelo_inurba_marseille","lat":43.29747,"lon":5.37663,"is_reserved":false,"is_disabled":false,"rental_uris":{"android":"levelo://app?vid=3007388a-056f-4684-be3d-794e8cb052f8","ios":"levelo://app?vid=3007388a-056f-4684-be3d-794e8cb052f8"},"vehicle_type_id":"4","last_reported":1778928821,"current_range_meters":4400,"station_id":"ce4bgkh2rcd13ifvqbl0","pricing_plan_id":"cebpf4jnsgd1na2vs0mg"},{"bike_id":"0dd514b6-b156-4ed7-99ae-7c193fdb1091","system_id":"levelo_inurba_marseille","lat":43.28929,"lon":5.38394,"is_reserved":false,"is_disabled":false,"rental_uris":{"android":"levelo://app?vid=0dd514b6-b156-4ed7-99ae-7c193fdb1091","ios":"levelo://app?vid=0dd514b6-b156-4ed7-99ae-7c193fdb1091"},"vehicle_type_id":"4","last_reported":1778928821,"current_range_meters":4400,"station_id":"ce4bh612rcd13ifvqe6g","pricing_plan_id":"cebpf4jnsgd1na2vs0mg"},{"bike_id":"69a4de94-ae1f-4385-aa61-58a2336f8cb8","system_id":"levelo_inurba_marseille","lat":43.3004,"lon":5.42993,"is_reserved":false,"is_disabled":false,"rental_uris":{"android":"levelo://app?vid=69a4de94-ae1f-4385-aa61-58a2336f8cb8","ios":"levelo://app?vid=69a4de94-ae1f-4385-aa61-58a2336f8cb8"},"vehicle_type_id":"4","last_reported":1778928821,"current_range_meters":4400,"station_id":"","pricing_plan_id":"cebpf4jnsgd1na2vs0mg"},{"bike_id":"44d71ae5-a5e6-42a3-99db-4175ddd046fa","system_id":"levelo_inurba_marseille","lat":43.31043,"lon":5.37166,"is_reserved":false,"is_disabled":false,"rental_uris":{"android":"levelo://app?vid=44d71ae5-a5e6-42a3-99db-4175ddd046fa","ios":"levelo://app?vid=44d71ae5-a5e6-42a3-99db-4175ddd046fa"},"vehicle_type_id":"4","last_reported":1778928821,"current_range_meters":4400,"station_id":"st_d4kl2rp97mjs73e7tdfg","pricing_plan_id":"cebpf4jnsgd1na2vs0mg"},{"bike_id":"4c1456b4-c5f4-49ed-bd33-6f63525d7c4f","system_id":"levelo_inurba_marseille","lat":43.27913,"lon":5.38709,"is_reserved":false,"is_disabled":true,"rental_uris":{"android":"levelo://app?vid=4c1456b4-c5f4-49ed-bd33-6f63525d7c4f","ios":"levelo://app?vid=4c1456b4-c5f4-49ed-bd33-6f63525d7c4f"},"vehicle_type_id":"4","last_reported":1778928821,"current_range_meters":4400,"station_id":"","pricing_plan_id":"cebpf4jnsgd1na2vs0mg"},{"bike_id":"6333f407-6aa7-4348-8257-6f3e46ee6fc2","system_id":"levelo_inurba_marseille","lat":43.24983,"lon":5.38967,"is_reserved":false,"is_disabled":false,"rental_uris":{"android":"levelo://app?vid=6333f407-6aa7-4348-8257-6f3e46ee6fc2","ios":"levelo://app?vid=6333f407-6aa7-4348-8257-6f3e46ee6fc2"},"vehicle_type_id":"4","last_reported":1778928821,"current_range_meters":4400,"station_id":"","pricing_plan_id":"cebpf4jnsgd1na2vs0mg"},{"bike_id":"bea8f6dc-3107-47d3-94c4-947f2ef9741a","system_id":"levelo_inurba_marseille","lat":43.24176,"lon":5.3637,"is_reserved":false,"is_disabled":false,"rental_uris":{"android":"levelo://app?vid=bea8f6dc-3107-47d3-94c4-947f2ef9741a","ios":"levelo://app?vid=bea8f6dc-3107-47d3-94c4-947f2ef9741a"},"vehicle_type_id":"4","last_reported":1778928821,"current_range_meters":4400,"station_id":"cpo36qri1sfpv3e86is0","pricing_plan_id":"cebpf4jnsgd1na2vs0mg"},{"bike_id":"4a8828bf-5352-4721-8c19-0a06947545c0","system_id":"levelo_inurba_marseille","lat":43.27978,"lon":5.41666,"is_reserved":false,"is_disabled":false,"rental_uris":{"android":"levelo://app?vid=4a8828bf-5352-4721-8c19-0a06947545c0","ios":"levelo://app?vid=4a8828bf-5352-4721-8c19-0a06947545c0"},"vehicle_type_id":"4","last_reported":1778928821,"current_range_meters":4400,"station_id":"ce4bho12rcd13ifvqh1g","pricing_plan_id":"cebpf4jnsgd1na2vs0mg"},{"bike_id":"89a26143-74c4-49ae-b5cf-e30eaecdc6d9","system_id":"levelo_inurba_marseille","lat":43.25295,"lon":5.42257,"is_reserved":false,"is_disabled":false,"rental_uris":{"android":"levelo://app?vid=89a26143-74c4-49ae-b5cf-e30eaecdc6d9","ios":"levelo://app?vid=89a26143-74c4-49ae-b5cf-e30eaecdc6d9"},"vehicle_type_id":"4","last_reported":1778928821,"current_range_meters":4400,"station_id":"","pricing_plan_id":"cebpf4jnsgd1na2vs0mg"},{"bike_id":"8dbf00ed-ebb6-4545-a181-a737a2afcaf2","system_id":"levelo_inurba_marseille","lat":43.21189,"lon":5.35076,"is_reserved":false,"is_disabled":false,"rental_uris":{"android":"levelo://app?vid=8dbf00ed-ebb6-4545-a181-a737a2afcaf2","ios":"levelo://app?vid=8dbf00ed-ebb6-4545-a181-a737a2afcaf2"},"vehicle_type_id":"4","last_reported":1778928821,"current_range_meters":4800,"station_id":"st_cvj6sg6p6f1abm77japg","pricing_plan_id":"cebpf4jnsgd1na2vs0mg"},{"bike_id":"305f8012-853c-4e5c-b4a3-badea1215a44","system_id":"levelo_inurba_marseille","lat":43.33754,"lon":5.37506,"is_reserved":false,"is_disabled":false,"rental_uris":{"android":"levelo://app?vid=305f8012-853c-4e5c-b4a3-badea1215a44","ios":"levelo://app?vid=305f8012-853c-4e5c-b4a3-badea1215a44"},"vehicle_type_id":"4","last_reported":1778928821,"current_range_meters":4800,"station_id":"","pricing_plan_id":"cebpf4jnsgd1na2vs0mg"},{"bike_id":"f35538c5-f923-479b-ac74-73e10ca6c589","system_id":"levelo_inurba_marseille","lat":43.2559,"lon":5.38205,"is_reserved":false,"is_disabled":false,"rental_uris":{"android":"levelo://app?vid=f35538c5-f923-479b-ac74-73e10ca6c589","ios":"levelo://app?vid=f35538c5-f923-479b-ac74-73e10ca6c589"},"vehicle_type_id":"4","last_reported":1778928821,"current_range_meters":4800,"station_id":"ce4bhih2rcd13ifvqfs0","pricing_plan_id":"cebpf4jnsgd1na2vs0mg"},{"bike_id":"83655719-ddfd-490b-952e-717c396c4dc6","system_id":"levelo_inurba_marseille","lat":43.29595,"lon":5.38106,"is_reserved":false,"is_disabled":false,"rental_uris":{"android":"levelo://app?vid=83655719-ddfd-490b-952e-717c396c4dc6","ios":"levelo://app?vid=83655719-ddfd-490b-952e-717c396c4dc6"},"vehicle_type_id":"4","last_reported":1778928821,"current_range_meters":4800,"station_id":"ce4bgl12rcd13ifvqbo0","pricing_plan_id":"cebpf4jnsgd1na2vs0mg"},{"bike_id":"ceeae13a-87c9-4495-9238-e5a5cc9c4c69","system_id":"levelo_inurba_marseille","lat":43.29627,"lon":5.37145,"is_reserved":false,"is_disabled":false,"rental_uris":{"android":"levelo://app?vid=ceeae13a-87c9-4495-9238-e5a5cc9c4c69","ios":"levelo://app?vid=ceeae13a-87c9-4495-9238-e5a5cc9c4c69"},"vehicle_type_id":"4","last_reported":1778928821,"current_range_meters":5600,"station_id":"ce4bgnh2rcd13ifvqc0g","pricing_plan_id":"cebpf4jnsgd1na2vs0mg"},{"bike_id":"4a1cb5aa-30fd-413c-854e-87a16ba9759a","system_id":"levelo_inurba_marseille","lat":43.30137,"lon":5.38089,"is_reserved":false,"is_disabled":false,"rental_uris":{"android":"levelo://app?vid=4a1cb5aa-30fd-413c-854e-87a16ba9759a","ios":"levelo://app?vid=4a1cb5aa-30fd-413c-854e-87a16ba9759a"},"vehicle_type_id":"4","last_reported":1778928821,"current_range_meters":5600,"station_id":"ce4bgjp2rcd13ifvqbh0","pricing_plan_id":"cebpf4jnsgd1na2vs0mg"},{"bike_id":"1f27b9c7-f593-4ee3-b394-7ce199ed2756","system_id":"levelo_inurba_marseille","lat":43.309018,"lon":5.37188,"is_reserved":false,"is_disabled":false,"rental_uris":{"android":"levelo://app?vid=1f27b9c7-f593-4ee3-b394-7ce199ed2756","ios":"levelo://app?vid=1f27b9c7-f593-4ee3-b394-7ce199ed2756"},"vehicle_type_id":"4","last_reported":1778928821,"current_range_meters":5600,"station_id":"","pricing_plan_id":"cebpf4jnsgd1na2vs0mg"},{"bike_id":"76e33348-6a4a-4160-8477-e9650ddfdc10","system_id":"levelo_inurba_marseille","lat":43.29561,"lon":5.4229,"is_reserved":false,"is_disabled":false,"rental_uris":{"android":"levelo://app?vid=76e33348-6a4a-4160-8477-e9650ddfdc10","ios":"levelo://app?vid=76e33348-6a4a-4160-8477-e9650ddfdc10"},"vehicle_type_id":"4","last_reported":1778928821,"current_range_meters":5600,"station_id":"ce4bhph2rcd13ifvqhdg","pricing_plan_id":"cebpf4jnsgd1na2vs0mg"},{"bike_id":"ca01c33c-99c8-4ff8-a274-d065c7262a1a","system_id":"levelo_inurba_marseille","lat":43.26429,"lon":5.38818,"is_reserved":false,"is_disabled":false,"rental_uris":{"android":"levelo://app?vid=ca01c33c-99c8-4ff8-a274-d065c7262a1a","ios":"levelo://app?vid=ca01c33c-99c8-4ff8-a274-d065c7262a1a"},"vehicle_type_id":"4","last_reported":1778928821,"current_range_meters":5600,"station_id":"","pricing_plan_id":"cebpf4jnsgd1na2vs0mg"},{"bike_id":"e7dc8666-d660-459c-b749-3649acf06c31","system_id":"levelo_inurba_marseille","lat":43.27045,"lon":5.40269,"is_reserved":false,"is_disabled":false,"rental_uris":{"android":"levelo://app?vid=e7dc8666-d660-459c-b749-3649acf06c31","ios":"levelo://app?vid=e7dc8666-d660-459c-b749-3649acf06c31"},"vehicle_type_id":"4","last_reported":1778928821,"current_range_meters":5600,"station_id":"ce4bhk92rcd13ifvqgc0","pricing_plan_id":"cebpf4jnsgd1na2vs0mg"},{"bike_id":"33833229-ef28-4f91-b3a0-0a9a37bc4c8f","system_id":"levelo_inurba_marseille","lat":43.27494,"lon":5.4244,"is_reserved":false,"is_disabled":false,"rental_uris":{"android":"levelo://app?vid=33833229-ef28-4f91-b3a0-0a9a37bc4c8f","ios":"levelo://app?vid=33833229-ef28-4f91-b3a0-0a9a37bc4c8f"},"vehicle_type_id":"4","last_reported":1778928821,"current_range_meters":5600,"station_id":"ce4bhn92rcd13ifvqgrg","pricing_plan_id":"cebpf4jnsgd1na2vs0mg"},{"bike_id":"484a878a-41a9-4f5c-9e4b-e4b15cd94849","system_id":"levelo_inurba_marseille","lat":43.29801,"lon":5.38088,"is_reserved":false,"is_disabled":false,"rental_uris":{"android":"levelo://app?vid=484a878a-41a9-4f5c-9e4b-e4b15cd94849","ios":"levelo://app?vid=484a878a-41a9-4f5c-9e4b-e4b15cd94849"},"vehicle_type_id":"4","last_reported":1778928821,"current_range_meters":5600,"station_id":"ce4bgip2rcd13ifvqbb0","pricing_plan_id":"cebpf4jnsgd1na2vs0mg"},{"bike_id":"fc3434ec-3f12-4fe2-a883-c7406c4652f9","system_id":"levelo_inurba_marseille","lat":43.295,"lon":5.43297,"is_reserved":false,"is_disabled":false,"rental_uris":{"android":"levelo://app?vid=fc3434ec-3f12-4fe2-a883-c7406c4652f9","ios":"levelo://app?vid=fc3434ec-3f12-4fe2-a883-c7406c4652f9"},"vehicle_type_id":"4","last_reported":1778928821,"current_range_meters":6000,"station_id":"st_d3j5ugp08ojc73fj9d10","pricing_plan_id":"cebpf4jnsgd1na2vs0mg"},{"bike_id":"310313f9-4c8b-458d-834b-81e71f22dc3f","system_id":"levelo_inurba_marseille","lat":43.27927,"lon":5.39583,"is_reserved":false,"is_disabled":true,"rental_uris":{"android":"levelo://app?vid=310313f9-4c8b-458d-834b-81e71f22dc3f","ios":"levelo://app?vid=310313f9-4c8b-458d-834b-81e71f22dc3f"},"vehicle_type_id":"4","last_reported":1778928821,"current_range_meters":6000,"station_id":"ce4bhf92rcd13ifvqf40","pricing_plan_id":"cebpf4jnsgd1na2vs0mg"},{"bike_id":"ba857fbd-dfd7-4912-a275-4ec1b34f9a01","system_id":"levelo_inurba_marseille","lat":43.28037,"lon":5.36952,"is_reserved":false,"is_disabled":false,"rental_uris":{"android":"levelo://app?vid=ba857fbd-dfd7-4912-a275-4ec1b34f9a01","ios":"levelo://app?vid=ba857fbd-dfd7-4912-a275-4ec1b34f9a01"},"vehicle_type_id":"4","last_reported":1778928821,"current_range_meters":6000,"station_id":"ce4bha12rcd13ifvqef0","pricing_plan_id":"cebpf4jnsgd1na2vs0mg"},{"bike_id":"92aa287c-1ffd-4e0d-a777-d680461d889a","system_id":"levelo_inurba_marseille","lat":43.22551,"lon":5.41637,"is_reserved":false,"is_disabled":false,"rental_uris":{"android":"levelo://app?vid=92aa287c-1ffd-4e0d-a777-d680461d889a","ios":"levelo://app?vid=92aa287c-1ffd-4e0d-a777-d680461d889a"},"vehicle_type_id":"4","last_reported":1778928821,"current_range_meters":6000,"station_id":"st_d2o4gvlbi1j2169b742g","pricing_plan_id":"cebpf4jnsgd1na2vs0mg"},{"bike_id":"c522deca-789e-49b3-982f-1f0402a24572","system_id":"levelo_inurba_marseille","lat":43.24637,"lon":5.38894,"is_reserved":false,"is_disabled":false,"rental_uris":{"android":"levelo://app?vid=c522deca-789e-49b3-982f-1f0402a24572","ios":"levelo://app?vid=c522deca-789e-49b3-982f-1f0402a24572"},"vehicle_type_id":"4","last_reported":1778928821,"current_range_meters":6000,"station_id":"ce4bhg12rcd13ifvqf60","pricing_plan_id":"cebpf4jnsgd1na2vs0mg"},{"bike_id":"9ff893e8-a35b-4276-8349-bacec107d22b","system_id":"levelo_inurba_marseille","lat":43.31233,"lon":5.37945,"is_reserved":false,"is_disabled":false,"rental_uris":{"android":"levelo://app?vid=9ff893e8-a35b-4276-8349-bacec107d22b","ios":"levelo://app?vid=9ff893e8-a35b-4276-8349-bacec107d22b"},"vehicle_type_id":"4","last_reported":1778928821,"current_range_meters":6000,"station_id":"","pricing_plan_id":"cebpf4jnsgd1na2vs0mg"},{"bike_id":"ed5eb57b-d6f8-442e-85b4-bdabb36648da","system_id":"levelo_inurba_marseille","lat":43.27209,"lon":5.39173,"is_reserved":false,"is_disabled":false,"rental_uris":{"android":"levelo://app?vid=ed5eb57b-d6f8-442e-85b4-bdabb36648da","ios":"levelo://app?vid=ed5eb57b-d6f8-442e-85b4-bdabb36648da"},"vehicle_type_id":"4","last_reported":1778928821,"current_range_meters":6000,"station_id":"ce4bhhp2rcd13ifvqfm0","pricing_plan_id":"cebpf4jnsgd1na2vs0mg"},{"bike_id":"2214caf3-9aea-4a83-affe-5bf61833eb11","system_id":"levelo_inurba_marseille","lat":43.30041,"lon":5.39848,"is_reserved":false,"is_disabled":true,"rental_uris":{"android":"levelo://app?vid=2214caf3-9aea-4a83-affe-5bf61833eb11","ios":"levelo://app?vid=2214caf3-9aea-4a83-affe-5bf61833eb11"},"vehicle_type_id":"4","last_reported":1778928821,"current_range_meters":6000,"station_id":"","pricing_plan_id":"cebpf4jnsgd1na2vs0mg"},{"bike_id":"236c5423-3de2-4984-a104-160edb8897a0","system_id":"levelo_inurba_marseille","lat":43.307291,"lon":5.40954,"is_reserved":false,"is_disabled":false,"rental_uris":{"android":"levelo://app?vid=236c5423-3de2-4984-a104-160edb8897a0","ios":"levelo://app?vid=236c5423-3de2-4984-a104-160edb8897a0"},"vehicle_type_id":"4","last_reported":1778928821,"current_range_meters":6000,"station_id":"","pricing_plan_id":"cebpf4jnsgd1na2vs0mg"},{"bike_id":"bf4140c2-b60d-49c9-a4a2-8e589e154982","system_id":"levelo_inurba_marseille","lat":43.33527,"lon":5.3746,"is_reserved":false,"is_disabled":false,"rental_uris":{"android":"levelo://app?vid=bf4140c2-b60d-49c9-a4a2-8e589e154982","ios":"levelo://app?vid=bf4140c2-b60d-49c9-a4a2-8e589e154982"},"vehicle_type_id":"4","last_reported":1778928821,"current_range_meters":6000,"station_id":"st_d46tts09ee8s73dlu43g","pricing_plan_id":"cebpf4jnsgd1na2vs0mg"},{"bike_id":"9e90ecb9-eb42-4b6f-b217-a489aed4d6ac","system_id":"levelo_inurba_marseille","lat":43.32487,"lon":5.383,"is_reserved":false,"is_disabled":false,"rental_uris":{"android":"levelo://app?vid=9e90ecb9-eb42-4b6f-b217-a489aed4d6ac","ios":"levelo://app?vid=9e90ecb9-eb42-4b6f-b217-a489aed4d6ac"},"vehicle_type_id":"4","last_reported":1778928821,"current_range_meters":6000,"station_id":"st_d4asgbiv49dc73anf9m0","pricing_plan_id":"cebpf4jnsgd1na2vs0mg"},{"bike_id":"5d5b3199-994c-45f9-880e-4f660ed45343","system_id":"levelo_inurba_marseille","lat":43.30417,"lon":5.41257,"is_reserved":false,"is_disabled":false,"rental_uris":{"android":"levelo://app?vid=5d5b3199-994c-45f9-880e-4f660ed45343","ios":"levelo://app?vid=5d5b3199-994c-45f9-880e-4f660ed45343"},"vehicle_type_id":"4","last_reported":1778928821,"current_range_meters":6000,"station_id":"ce4bhop2rcd13ifvqh8g","pricing_plan_id":"cebpf4jnsgd1na2vs0mg"},{"bike_id":"d90e1575-ec76-461f-9701-a245bb59404f","system_id":"levelo_inurba_marseille","lat":43.24381,"lon":5.37052,"is_reserved":false,"is_disabled":false,"rental_uris":{"android":"levelo://app?vid=d90e1575-ec76-461f-9701-a245bb59404f","ios":"levelo://app?vid=d90e1575-ec76-461f-9701-a245bb59404f"},"vehicle_type_id":"4","last_reported":1778928821,"current_range_meters":6000,"station_id":"ce4bhhh2rcd13ifvqfk0","pricing_plan_id":"cebpf4jnsgd1na2vs0mg"},{"bike_id":"b279d425-b605-4dce-aa38-d74dc6161e68","system_id":"levelo_inurba_marseille","lat":43.22545,"lon":5.41619,"is_reserved":false,"is_disabled":false,"rental_uris":{"android":"levelo://app?vid=b279d425-b605-4dce-aa38-d74dc6161e68","ios":"levelo://app?vid=b279d425-b605-4dce-aa38-d74dc6161e68"},"vehicle_type_id":"4","last_reported":1778928821,"current_range_meters":6000,"station_id":"st_d2o4gvlbi1j2169b742g","pricing_plan_id":"cebpf4jnsgd1na2vs0mg"},{"bike_id":"09099464-4f17-4a84-bc25-c18dd5728f2f","system_id":"levelo_inurba_marseille","lat":43.26767,"lon":5.39428,"is_reserved":false,"is_disabled":false,"rental_uris":{"android":"levelo://app?vid=09099464-4f17-4a84-bc25-c18dd5728f2f","ios":"levelo://app?vid=09099464-4f17-4a84-bc25-c18dd5728f2f"},"vehicle_type_id":"4","last_reported":1778928821,"current_range_meters":6400,"station_id":"ce4bhh12rcd13ifvqfg0","pricing_plan_id":"cebpf4jnsgd1na2vs0mg"},{"bike_id":"b6acbf8c-bacd-487d-8128-5244dbbd5a1c","system_id":"levelo_inurba_marseille","lat":43.30541,"lon":5.36537,"is_reserved":false,"is_disabled":false,"rental_uris":{"android":"levelo://app?vid=b6acbf8c-bacd-487d-8128-5244dbbd5a1c","ios":"levelo://app?vid=b6acbf8c-bacd-487d-8128-5244dbbd5a1c"},"vehicle_type_id":"4","last_reported":1778928821,"current_range_meters":6400,"station_id":"ce4bgs12rcd13ifvqcag","pricing_plan_id":"cebpf4jnsgd1na2vs0mg"},{"bike_id":"2c4e2c80-7a7f-49e7-8a11-230c3e37ee87","system_id":"levelo_inurba_marseille","lat":43.22557,"lon":5.41618,"is_reserved":false,"is_disabled":false,"rental_uris":{"android":"levelo://app?vid=2c4e2c80-7a7f-49e7-8a11-230c3e37ee87","ios":"levelo://app?vid=2c4e2c80-7a7f-49e7-8a11-230c3e37ee87"},"vehicle_type_id":"4","last_reported":1778928821,"current_range_meters":6400,"station_id":"st_d2o4gvlbi1j2169b742g","pricing_plan_id":"cebpf4jnsgd1na2vs0mg"},{"bike_id":"6f525aed-9c7c-48ab-80b8-fb60425b4d51","system_id":"levelo_inurba_marseille","lat":43.28473,"lon":5.38453,"is_reserved":false,"is_disabled":false,"rental_uris":{"android":"levelo://app?vid=6f525aed-9c7c-48ab-80b8-fb60425b4d51","ios":"levelo://app?vid=6f525aed-9c7c-48ab-80b8-fb60425b4d51"},"vehicle_type_id":"4","last_reported":1778928821,"current_range_meters":6400,"station_id":"ce4bh512rcd13ifvqe3g","pricing_plan_id":"cebpf4jnsgd1na2vs0mg"},{"bike_id":"41a64653-3770-4ece-a8b3-ec575962743c","system_id":"levelo_inurba_marseille","lat":43.30959,"lon":5.39046,"is_reserved":false,"is_disabled":false,"rental_uris":{"android":"levelo://app?vid=41a64653-3770-4ece-a8b3-ec575962743c","ios":"levelo://app?vid=41a64653-3770-4ece-a8b3-ec575962743c"},"vehicle_type_id":"4","last_reported":1778928821,"current_range_meters":6400,"station_id":"ce4bgup2rcd13ifvqco0","pricing_plan_id":"cebpf4jnsgd1na2vs0mg"},{"bike_id":"da25d015-d7dd-4fbf-997f-9acf97aa246b","system_id":"levelo_inurba_marseille","lat":43.28614,"lon":5.35089,"is_reserved":false,"is_disabled":false,"rental_uris":{"android":"levelo://app?vid=da25d015-d7dd-4fbf-997f-9acf97aa246b","ios":"levelo://app?vid=da25d015-d7dd-4fbf-997f-9acf97aa246b"},"vehicle_type_id":"4","last_reported":1778928821,"current_range_meters":6400,"station_id":"ce4bhch2rcd13ifvqeug","pricing_plan_id":"cebpf4jnsgd1na2vs0mg"},{"bike_id":"ab883a8a-7183-49e5-b0ca-478bfd40dbb5","system_id":"levelo_inurba_marseille","lat":43.27576,"lon":5.38427,"is_reserved":false,"is_disabled":false,"rental_uris":{"android":"levelo://app?vid=ab883a8a-7183-49e5-b0ca-478bfd40dbb5","ios":"levelo://app?vid=ab883a8a-7183-49e5-b0ca-478bfd40dbb5"},"vehicle_type_id":"4","last_reported":1778928821,"current_range_meters":6400,"station_id":"ce4bhh92rcd13ifvqfi0","pricing_plan_id":"cebpf4jnsgd1na2vs0mg"},{"bike_id":"a925d029-af9d-439e-b7ff-1c5bb1c3c5db","system_id":"levelo_inurba_marseille","lat":43.26525,"lon":5.39522,"is_reserved":false,"is_disabled":false,"rental_uris":{"android":"levelo://app?vid=a925d029-af9d-439e-b7ff-1c5bb1c3c5db","ios":"levelo://app?vid=a925d029-af9d-439e-b7ff-1c5bb1c3c5db"},"vehicle_type_id":"4","last_reported":1778928821,"current_range_meters":6400,"station_id":"ce4bhi12rcd13ifvqfq0","pricing_plan_id":"cebpf4jnsgd1na2vs0mg"},{"bike_id":"8e3d0809-192a-486b-9365-2b295367c4f7","system_id":"levelo_inurba_marseille","lat":43.23194,"lon":5.35551,"is_reserved":false,"is_disabled":false,"rental_uris":{"android":"levelo://app?vid=8e3d0809-192a-486b-9365-2b295367c4f7","ios":"levelo://app?vid=8e3d0809-192a-486b-9365-2b295367c4f7"},"vehicle_type_id":"4","last_reported":1778928821,"current_range_meters":6400,"station_id":"ce4bhu92rcd13ifvqi70","pricing_plan_id":"cebpf4jnsgd1na2vs0mg"},{"bike_id":"84496ff4-7ca0-4094-8a0f-b50184415265","system_id":"levelo_inurba_marseille","lat":43.26537,"lon":5.37297,"is_reserved":false,"is_disabled":false,"rental_uris":{"android":"levelo://app?vid=84496ff4-7ca0-4094-8a0f-b50184415265","ios":"levelo://app?vid=84496ff4-7ca0-4094-8a0f-b50184415265"},"vehicle_type_id":"4","last_reported":1778928821,"current_range_meters":6400,"station_id":"ce4bhg12rcd13ifvqf70","pricing_plan_id":"cebpf4jnsgd1na2vs0mg"},{"bike_id":"f2155f52-8bee-4917-9ad6-c70fd2ebaa35","system_id":"levelo_inurba_marseille","lat":43.2533,"lon":5.42123,"is_reserved":false,"is_disabled":false,"rental_uris":{"android":"levelo://app?vid=f2155f52-8bee-4917-9ad6-c70fd2ebaa35","ios":"levelo://app?vid=f2155f52-8bee-4917-9ad6-c70fd2ebaa35"},"vehicle_type_id":"4","last_reported":1778928821,"current_range_meters":6400,"station_id":"st_d2m65c5bi1j21697t3ng","pricing_plan_id":"cebpf4jnsgd1na2vs0mg"},{"bike_id":"996bb126-198e-42bb-99a0-1c834dfbb3ba","system_id":"levelo_inurba_marseille","lat":43.30165,"lon":5.38085,"is_reserved":false,"is_disabled":false,"rental_uris":{"android":"levelo://app?vid=996bb126-198e-42bb-99a0-1c834dfbb3ba","ios":"levelo://app?vid=996bb126-198e-42bb-99a0-1c834dfbb3ba"},"vehicle_type_id":"4","last_reported":1778928821,"current_range_meters":6400,"station_id":"ce4bgjp2rcd13ifvqbh0","pricing_plan_id":"cebpf4jnsgd1na2vs0mg"},{"bike_id":"1c155cb8-50aa-4ad8-95d4-a32cca5f7a07","system_id":"levelo_inurba_marseille","lat":43.24459,"lon":5.42533,"is_reserved":false,"is_disabled":false,"rental_uris":{"android":"levelo://app?vid=1c155cb8-50aa-4ad8-95d4-a32cca5f7a07","ios":"levelo://app?vid=1c155cb8-50aa-4ad8-95d4-a32cca5f7a07"},"vehicle_type_id":"4","last_reported":1778928821,"current_range_meters":6400,"station_id":"st_d4a3vfp97mjs738cd8kg","pricing_plan_id":"cebpf4jnsgd1na2vs0mg"},{"bike_id":"61831312-25bc-4fd1-8367-b8a3f62931eb","system_id":"levelo_inurba_marseille","lat":43.28413,"lon":5.34984,"is_reserved":false,"is_disabled":false,"rental_uris":{"android":"levelo://app?vid=61831312-25bc-4fd1-8367-b8a3f62931eb","ios":"levelo://app?vid=61831312-25bc-4fd1-8367-b8a3f62931eb"},"vehicle_type_id":"4","last_reported":1778928821,"current_range_meters":6400,"station_id":"ce4bhbh2rcd13ifvqepg","pricing_plan_id":"cebpf4jnsgd1na2vs0mg"},{"bike_id":"bc1ceef2-7ab6-4b29-97cf-e699caf1898f","system_id":"levelo_inurba_marseille","lat":43.24641,"lon":5.38895,"is_reserved":false,"is_disabled":false,"rental_uris":{"android":"levelo://app?vid=bc1ceef2-7ab6-4b29-97cf-e699caf1898f","ios":"levelo://app?vid=bc1ceef2-7ab6-4b29-97cf-e699caf1898f"},"vehicle_type_id":"4","last_reported":1778928821,"current_range_meters":6400,"station_id":"ce4bhg12rcd13ifvqf60","pricing_plan_id":"cebpf4jnsgd1na2vs0mg"},{"bike_id":"f0e8a7c3-abe9-4f4e-ab03-813d235f62e2","system_id":"levelo_inurba_marseille","lat":43.29801,"lon":5.40415,"is_reserved":false,"is_disabled":false,"rental_uris":{"android":"levelo://app?vid=f0e8a7c3-abe9-4f4e-ab03-813d235f62e2","ios":"levelo://app?vid=f0e8a7c3-abe9-4f4e-ab03-813d235f62e2"},"vehicle_type_id":"4","last_reported":1778928821,"current_range_meters":6400,"station_id":"ce4bh112rcd13ifvqd90","pricing_plan_id":"cebpf4jnsgd1na2vs0mg"},{"bike_id":"ecb43cf3-4571-441f-b7de-470cf95dfc38","system_id":"levelo_inurba_marseille","lat":43.21769,"lon":5.34573,"is_reserved":false,"is_disabled":false,"rental_uris":{"android":"levelo://app?vid=ecb43cf3-4571-441f-b7de-470cf95dfc38","ios":"levelo://app?vid=ecb43cf3-4571-441f-b7de-470cf95dfc38"},"vehicle_type_id":"4","last_reported":1778928821,"current_range_meters":6400,"station_id":"st_cvj6r9ubvosntc0bgbag","pricing_plan_id":"cebpf4jnsgd1na2vs0mg"},{"bike_id":"d2b9001b-3bd6-4e11-a455-c06b5cf0ca28","system_id":"levelo_inurba_marseille","lat":43.29612,"lon":5.38094,"is_reserved":false,"is_disabled":false,"rental_uris":{"android":"levelo://app?vid=d2b9001b-3bd6-4e11-a455-c06b5cf0ca28","ios":"levelo://app?vid=d2b9001b-3bd6-4e11-a455-c06b5cf0ca28"},"vehicle_type_id":"4","last_reported":1778928821,"current_range_meters":6400,"station_id":"ce4bgl12rcd13ifvqbo0","pricing_plan_id":"cebpf4jnsgd1na2vs0mg"},{"bike_id":"c0afe38e-1b1f-4737-9474-5d6681e1c046","system_id":"levelo_inurba_marseille","lat":43.29848,"lon":5.42075,"is_reserved":false,"is_disabled":false,"rental_uris":{"android":"levelo://app?vid=c0afe38e-1b1f-4737-9474-5d6681e1c046","ios":"levelo://app?vid=c0afe38e-1b1f-4737-9474-5d6681e1c046"},"vehicle_type_id":"4","last_reported":1778928821,"current_range_meters":6800,"station_id":"st_d6tc004otcvc738tfe70","pricing_plan_id":"cebpf4jnsgd1na2vs0mg"},{"bike_id":"0d51e5ef-ab9b-491a-8c9e-45cfe2cd3256","system_id":"levelo_inurba_marseille","lat":43.29581,"lon":5.36747,"is_reserved":false,"is_disabled":false,"rental_uris":{"android":"levelo://app?vid=0d51e5ef-ab9b-491a-8c9e-45cfe2cd3256","ios":"levelo://app?vid=0d51e5ef-ab9b-491a-8c9e-45cfe2cd3256"},"vehicle_type_id":"4","last_reported":1778928821,"current_range_meters":6800,"station_id":"ce4bgph2rcd13ifvqc2g","pricing_plan_id":"cebpf4jnsgd1na2vs0mg"},{"bike_id":"a56a8a0c-3ab9-465a-bdae-f5897ec1f98a","system_id":"levelo_inurba_marseille","lat":43.24166,"lon":5.36402,"is_reserved":false,"is_disabled":false,"rental_uris":{"android":"levelo://app?vid=a56a8a0c-3ab9-465a-bdae-f5897ec1f98a","ios":"levelo://app?vid=a56a8a0c-3ab9-465a-bdae-f5897ec1f98a"},"vehicle_type_id":"4","last_reported":1778928821,"current_range_meters":6800,"station_id":"cpo36qri1sfpv3e86is0","pricing_plan_id":"cebpf4jnsgd1na2vs0mg"},{"bike_id":"6ed28fa0-f20b-450d-a789-f0b565e64f1b","system_id":"levelo_inurba_marseille","lat":43.2984,"lon":5.38256,"is_reserved":false,"is_disabled":false,"rental_uris":{"android":"levelo://app?vid=6ed28fa0-f20b-450d-a789-f0b565e64f1b","ios":"levelo://app?vid=6ed28fa0-f20b-450d-a789-f0b565e64f1b"},"vehicle_type_id":"4","last_reported":1778928821,"current_range_meters":6800,"station_id":"","pricing_plan_id":"cebpf4jnsgd1na2vs0mg"},{"bike_id":"c6c3ffa5-2514-4dce-9955-6dea3b87213e","system_id":"levelo_inurba_marseille","lat":43.33544,"lon":5.37436,"is_reserved":false,"is_disabled":false,"rental_uris":{"android":"levelo://app?vid=c6c3ffa5-2514-4dce-9955-6dea3b87213e","ios":"levelo://app?vid=c6c3ffa5-2514-4dce-9955-6dea3b87213e"},"vehicle_type_id":"4","last_reported":1778928821,"current_range_meters":6800,"station_id":"st_d46tts09ee8s73dlu43g","pricing_plan_id":"cebpf4jnsgd1na2vs0mg"},{"bike_id":"47ed1e61-4521-4891-9a88-a361ffece6cb","system_id":"levelo_inurba_marseille","lat":43.29597,"lon":5.37491,"is_reserved":false,"is_disabled":false,"rental_uris":{"android":"levelo://app?vid=47ed1e61-4521-4891-9a88-a361ffece6cb","ios":"levelo://app?vid=47ed1e61-4521-4891-9a88-a361ffece6cb"},"vehicle_type_id":"4","last_reported":1778928821,"current_range_meters":6800,"station_id":"ce4bgh92rcd13ifvqb50","pricing_plan_id":"cebpf4jnsgd1na2vs0mg"},{"bike_id":"cc714d65-6c6d-4271-afe8-f44f6cdd97a5","system_id":"levelo_inurba_marseille","lat":43.31754,"lon":5.39015,"is_reserved":false,"is_disabled":false,"rental_uris":{"android":"levelo://app?vid=cc714d65-6c6d-4271-afe8-f44f6cdd97a5","ios":"levelo://app?vid=cc714d65-6c6d-4271-afe8-f44f6cdd97a5"},"vehicle_type_id":"4","last_reported":1778928821,"current_range_meters":6800,"station_id":"ce4bhqp2rcd13ifvqhng","pricing_plan_id":"cebpf4jnsgd1na2vs0mg"},{"bike_id":"a36168d9-0b2a-4981-8b8e-6a59ec3108e0","system_id":"levelo_inurba_marseille","lat":43.29619,"lon":5.37706,"is_reserved":false,"is_disabled":true,"rental_uris":{"android":"levelo://app?vid=a36168d9-0b2a-4981-8b8e-6a59ec3108e0","ios":"levelo://app?vid=a36168d9-0b2a-4981-8b8e-6a59ec3108e0"},"vehicle_type_id":"4","last_reported":1778928821,"current_range_meters":6800,"station_id":"ce4bgi92rcd13ifvqb90","pricing_plan_id":"cebpf4jnsgd1na2vs0mg"},{"bike_id":"e36e9ae6-760f-4d6b-b27b-2683e1da6b8e","system_id":"levelo_inurba_marseille","lat":43.31766,"lon":5.39012,"is_reserved":false,"is_disabled":false,"rental_uris":{"android":"levelo://app?vid=e36e9ae6-760f-4d6b-b27b-2683e1da6b8e","ios":"levelo://app?vid=e36e9ae6-760f-4d6b-b27b-2683e1da6b8e"},"vehicle_type_id":"4","last_reported":1778928821,"current_range_meters":6800,"station_id":"ce4bhqp2rcd13ifvqhng","pricing_plan_id":"cebpf4jnsgd1na2vs0mg"},{"bike_id":"dc437964-578c-4f7a-be1e-9a5b7abec9f5","system_id":"levelo_inurba_marseille","lat":43.24523,"lon":5.37615,"is_reserved":false,"is_disabled":false,"rental_uris":{"android":"levelo://app?vid=dc437964-578c-4f7a-be1e-9a5b7abec9f5","ios":"levelo://app?vid=dc437964-578c-4f7a-be1e-9a5b7abec9f5"},"vehicle_type_id":"4","last_reported":1778928821,"current_range_meters":6800,"station_id":"","pricing_plan_id":"cebpf4jnsgd1na2vs0mg"},{"bike_id":"bc8c2695-d41e-43a5-a503-073f39b3a18d","system_id":"levelo_inurba_marseille","lat":43.27626,"lon":5.36097,"is_reserved":false,"is_disabled":false,"rental_uris":{"android":"levelo://app?vid=bc8c2695-d41e-43a5-a503-073f39b3a18d","ios":"levelo://app?vid=bc8c2695-d41e-43a5-a503-073f39b3a18d"},"vehicle_type_id":"4","last_reported":1778928821,"current_range_meters":6800,"station_id":"ce4bgj92rcd13ifvqbe0","pricing_plan_id":"cebpf4jnsgd1na2vs0mg"},{"bike_id":"489a1706-c3ea-4b0e-8e98-c2ee70717ba8","system_id":"levelo_inurba_marseille","lat":43.22554,"lon":5.41622,"is_reserved":false,"is_disabled":false,"rental_uris":{"android":"levelo://app?vid=489a1706-c3ea-4b0e-8e98-c2ee70717ba8","ios":"levelo://app?vid=489a1706-c3ea-4b0e-8e98-c2ee70717ba8"},"vehicle_type_id":"4","last_reported":1778928821,"current_range_meters":6800,"station_id":"st_d2o4gvlbi1j2169b742g","pricing_plan_id":"cebpf4jnsgd1na2vs0mg"},{"bike_id":"255a8db9-6ac5-445d-8da2-584280160595","system_id":"levelo_inurba_marseille","lat":43.29966,"lon":5.36728,"is_reserved":false,"is_disabled":false,"rental_uris":{"android":"levelo://app?vid=255a8db9-6ac5-445d-8da2-584280160595","ios":"levelo://app?vid=255a8db9-6ac5-445d-8da2-584280160595"},"vehicle_type_id":"4","last_reported":1778928821,"current_range_meters":6800,"station_id":"","pricing_plan_id":"cebpf4jnsgd1na2vs0mg"},{"bike_id":"16563b41-ae10-4e2f-a0fe-eb22ad006f33","system_id":"levelo_inurba_marseille","lat":43.2496,"lon":5.40487,"is_reserved":false,"is_disabled":false,"rental_uris":{"android":"levelo://app?vid=16563b41-ae10-4e2f-a0fe-eb22ad006f33","ios":"levelo://app?vid=16563b41-ae10-4e2f-a0fe-eb22ad006f33"},"vehicle_type_id":"4","last_reported":1778928821,"current_range_meters":6800,"station_id":"st_d2ngiaodas8pm72gd1h0","pricing_plan_id":"cebpf4jnsgd1na2vs0mg"},{"bike_id":"e0ce2f37-052e-484f-8e3c-c297b98b6f87","system_id":"levelo_inurba_marseille","lat":43.30143,"lon":5.38096,"is_reserved":false,"is_disabled":false,"rental_uris":{"android":"levelo://app?vid=e0ce2f37-052e-484f-8e3c-c297b98b6f87","ios":"levelo://app?vid=e0ce2f37-052e-484f-8e3c-c297b98b6f87"},"vehicle_type_id":"4","last_reported":1778928821,"current_range_meters":6800,"station_id":"ce4bgjp2rcd13ifvqbh0","pricing_plan_id":"cebpf4jnsgd1na2vs0mg"},{"bike_id":"d9eb170c-e64b-478b-9f1b-2227e59b0665","system_id":"levelo_inurba_marseille","lat":43.25493,"lon":5.3764,"is_reserved":false,"is_disabled":false,"rental_uris":{"android":"levelo://app?vid=d9eb170c-e64b-478b-9f1b-2227e59b0665","ios":"levelo://app?vid=d9eb170c-e64b-478b-9f1b-2227e59b0665"},"vehicle_type_id":"4","last_reported":1778928821,"current_range_meters":6800,"station_id":"ce4bhh12rcd13ifvqff0","pricing_plan_id":"cebpf4jnsgd1na2vs0mg"},{"bike_id":"b467cf52-e84d-42b9-ad71-bed97235ec79","system_id":"levelo_inurba_marseille","lat":43.29713,"lon":5.37635,"is_reserved":false,"is_disabled":false,"rental_uris":{"android":"levelo://app?vid=b467cf52-e84d-42b9-ad71-bed97235ec79","ios":"levelo://app?vid=b467cf52-e84d-42b9-ad71-bed97235ec79"},"vehicle_type_id":"4","last_reported":1778928821,"current_range_meters":7200,"station_id":"ce4bgkh2rcd13ifvqbl0","pricing_plan_id":"cebpf4jnsgd1na2vs0mg"},{"bike_id":"03891f04-e4d5-4f4c-a686-0dee6d4aa3c1","system_id":"levelo_inurba_marseille","lat":43.30905,"lon":5.36851,"is_reserved":false,"is_disabled":false,"rental_uris":{"android":"levelo://app?vid=03891f04-e4d5-4f4c-a686-0dee6d4aa3c1","ios":"levelo://app?vid=03891f04-e4d5-4f4c-a686-0dee6d4aa3c1"},"vehicle_type_id":"4","last_reported":1778928821,"current_range_meters":7200,"station_id":"ce4bgn92rcd13ifvqbvg","pricing_plan_id":"cebpf4jnsgd1na2vs0mg"},{"bike_id":"dbf94776-63a1-426f-85ae-41abd5903310","system_id":"levelo_inurba_marseille","lat":43.30954,"lon":5.37652,"is_reserved":false,"is_disabled":false,"rental_uris":{"android":"levelo://app?vid=dbf94776-63a1-426f-85ae-41abd5903310","ios":"levelo://app?vid=dbf94776-63a1-426f-85ae-41abd5903310"},"vehicle_type_id":"4","last_reported":1778928821,"current_range_meters":7200,"station_id":"","pricing_plan_id":"cebpf4jnsgd1na2vs0mg"},{"bike_id":"2afb1c43-c4ae-4dbf-a94b-bbd6e75c31b0","system_id":"levelo_inurba_marseille","lat":43.29739,"lon":5.37647,"is_reserved":false,"is_disabled":false,"rental_uris":{"android":"levelo://app?vid=2afb1c43-c4ae-4dbf-a94b-bbd6e75c31b0","ios":"levelo://app?vid=2afb1c43-c4ae-4dbf-a94b-bbd6e75c31b0"},"vehicle_type_id":"4","last_reported":1778928821,"current_range_meters":7200,"station_id":"ce4bgkh2rcd13ifvqbl0","pricing_plan_id":"cebpf4jnsgd1na2vs0mg"},{"bike_id":"0b7d6088-40ed-490a-99dd-7a6e4ba0f145","system_id":"levelo_inurba_marseille","lat":43.292749,"lon":5.384401,"is_reserved":false,"is_disabled":false,"rental_uris":{"android":"levelo://app?vid=0b7d6088-40ed-490a-99dd-7a6e4ba0f145","ios":"levelo://app?vid=0b7d6088-40ed-490a-99dd-7a6e4ba0f145"},"vehicle_type_id":"4","last_reported":1778928821,"current_range_meters":7200,"station_id":"ce4bh692rcd13ifvqea0","pricing_plan_id":"cebpf4jnsgd1na2vs0mg"},{"bike_id":"9328df09-7c77-4ef9-a326-cd1cda9dd29d","system_id":"levelo_inurba_marseille","lat":43.30816,"lon":5.38486,"is_reserved":false,"is_disabled":false,"rental_uris":{"android":"levelo://app?vid=9328df09-7c77-4ef9-a326-cd1cda9dd29d","ios":"levelo://app?vid=9328df09-7c77-4ef9-a326-cd1cda9dd29d"},"vehicle_type_id":"4","last_reported":1778928821,"current_range_meters":7200,"station_id":"","pricing_plan_id":"cebpf4jnsgd1na2vs0mg"},{"bike_id":"015aad6e-f7c0-4598-9ad7-38c4d3fee62c","system_id":"levelo_inurba_marseille","lat":43.28616,"lon":5.35096,"is_reserved":false,"is_disabled":false,"rental_uris":{"android":"levelo://app?vid=015aad6e-f7c0-4598-9ad7-38c4d3fee62c","ios":"levelo://app?vid=015aad6e-f7c0-4598-9ad7-38c4d3fee62c"},"vehicle_type_id":"4","last_reported":1778928821,"current_range_meters":7200,"station_id":"ce4bhch2rcd13ifvqeug","pricing_plan_id":"cebpf4jnsgd1na2vs0mg"},{"bike_id":"b9fc383d-7675-4ac1-96a8-b14863e064c9","system_id":"levelo_inurba_marseille","lat":43.31313,"lon":5.37243,"is_reserved":false,"is_disabled":false,"rental_uris":{"android":"levelo://app?vid=b9fc383d-7675-4ac1-96a8-b14863e064c9","ios":"levelo://app?vid=b9fc383d-7675-4ac1-96a8-b14863e064c9"},"vehicle_type_id":"4","last_reported":1778928821,"current_range_meters":7200,"station_id":"","pricing_plan_id":"cebpf4jnsgd1na2vs0mg"},{"bike_id":"b307ebcf-a623-4ce8-bd6b-ce1a3ee616ac","system_id":"levelo_inurba_marseille","lat":43.251,"lon":5.39491,"is_reserved":false,"is_disabled":false,"rental_uris":{"android":"levelo://app?vid=b307ebcf-a623-4ce8-bd6b-ce1a3ee616ac","ios":"levelo://app?vid=b307ebcf-a623-4ce8-bd6b-ce1a3ee616ac"},"vehicle_type_id":"4","last_reported":1778928821,"current_range_meters":7200,"station_id":"ce4bhm12rcd13ifvqgkg","pricing_plan_id":"cebpf4jnsgd1na2vs0mg"},{"bike_id":"40fba273-30a0-4610-9faa-17aeee18cf47","system_id":"levelo_inurba_marseille","lat":43.29601,"lon":5.38101,"is_reserved":false,"is_disabled":false,"rental_uris":{"android":"levelo://app?vid=40fba273-30a0-4610-9faa-17aeee18cf47","ios":"levelo://app?vid=40fba273-30a0-4610-9faa-17aeee18cf47"},"vehicle_type_id":"4","last_reported":1778928821,"current_range_meters":7200,"station_id":"ce4bgl12rcd13ifvqbo0","pricing_plan_id":"cebpf4jnsgd1na2vs0mg"},{"bike_id":"2d2c7674-d2ca-402f-b8b0-47c4cc0178f0","system_id":"levelo_inurba_marseille","lat":43.2314,"lon":5.43716,"is_reserved":false,"is_disabled":false,"rental_uris":{"android":"levelo://app?vid=2d2c7674-d2ca-402f-b8b0-47c4cc0178f0","ios":"levelo://app?vid=2d2c7674-d2ca-402f-b8b0-47c4cc0178f0"},"vehicle_type_id":"4","last_reported":1778928821,"current_range_meters":7200,"station_id":"ce4bhmp2rcd13ifvqgog","pricing_plan_id":"cebpf4jnsgd1na2vs0mg"},{"bike_id":"810ef53a-5aff-49f3-99db-34213da1b1cf","system_id":"levelo_inurba_marseille","lat":43.28697,"lon":5.46687,"is_reserved":false,"is_disabled":false,"rental_uris":{"android":"levelo://app?vid=810ef53a-5aff-49f3-99db-34213da1b1cf","ios":"levelo://app?vid=810ef53a-5aff-49f3-99db-34213da1b1cf"},"vehicle_type_id":"4","last_reported":1778928821,"current_range_meters":7200,"station_id":"st_d6tc3vkotcvc738tfjhg","pricing_plan_id":"cebpf4jnsgd1na2vs0mg"},{"bike_id":"4cf8e064-21a7-4e57-ac70-a7acee42c98c","system_id":"levelo_inurba_marseille","lat":43.27614,"lon":5.36106,"is_reserved":false,"is_disabled":false,"rental_uris":{"android":"levelo://app?vid=4cf8e064-21a7-4e57-ac70-a7acee42c98c","ios":"levelo://app?vid=4cf8e064-21a7-4e57-ac70-a7acee42c98c"},"vehicle_type_id":"4","last_reported":1778928821,"current_range_meters":7200,"station_id":"ce4bgj92rcd13ifvqbe0","pricing_plan_id":"cebpf4jnsgd1na2vs0mg"},{"bike_id":"ae292c7b-0f60-4dc1-9e06-163aacb9f71d","system_id":"levelo_inurba_marseille","lat":43.21193,"lon":5.35076,"is_reserved":false,"is_disabled":false,"rental_uris":{"android":"levelo://app?vid=ae292c7b-0f60-4dc1-9e06-163aacb9f71d","ios":"levelo://app?vid=ae292c7b-0f60-4dc1-9e06-163aacb9f71d"},"vehicle_type_id":"4","last_reported":1778928821,"current_range_meters":7200,"station_id":"st_cvj6sg6p6f1abm77japg","pricing_plan_id":"cebpf4jnsgd1na2vs0mg"},{"bike_id":"5b61ad3d-c4b3-4bf0-9170-da55ed29dbbb","system_id":"levelo_inurba_marseille","lat":43.30787,"lon":5.39341,"is_reserved":false,"is_disabled":false,"rental_uris":{"android":"levelo://app?vid=5b61ad3d-c4b3-4bf0-9170-da55ed29dbbb","ios":"levelo://app?vid=5b61ad3d-c4b3-4bf0-9170-da55ed29dbbb"},"vehicle_type_id":"4","last_reported":1778928821,"current_range_meters":7200,"station_id":"","pricing_plan_id":"cebpf4jnsgd1na2vs0mg"},{"bike_id":"b645593d-f67c-4f1b-b9f9-f8e1b08f24ee","system_id":"levelo_inurba_marseille","lat":43.25096,"lon":5.41367,"is_reserved":false,"is_disabled":false,"rental_uris":{"android":"levelo://app?vid=b645593d-f67c-4f1b-b9f9-f8e1b08f24ee","ios":"levelo://app?vid=b645593d-f67c-4f1b-b9f9-f8e1b08f24ee"},"vehicle_type_id":"4","last_reported":1778928821,"current_range_meters":7200,"station_id":"","pricing_plan_id":"cebpf4jnsgd1na2vs0mg"},{"bike_id":"62d156b1-3ed6-496f-9d27-264502b676a3","system_id":"levelo_inurba_marseille","lat":43.33527,"lon":5.37453,"is_reserved":false,"is_disabled":false,"rental_uris":{"android":"levelo://app?vid=62d156b1-3ed6-496f-9d27-264502b676a3","ios":"levelo://app?vid=62d156b1-3ed6-496f-9d27-264502b676a3"},"vehicle_type_id":"4","last_reported":1778928821,"current_range_meters":7200,"station_id":"st_d46tts09ee8s73dlu43g","pricing_plan_id":"cebpf4jnsgd1na2vs0mg"},{"bike_id":"559d1e2a-3378-464a-bb49-bac80a61d607","system_id":"levelo_inurba_marseille","lat":43.24468,"lon":5.42534,"is_reserved":false,"is_disabled":false,"rental_uris":{"android":"levelo://app?vid=559d1e2a-3378-464a-bb49-bac80a61d607","ios":"levelo://app?vid=559d1e2a-3378-464a-bb49-bac80a61d607"},"vehicle_type_id":"4","last_reported":1778928821,"current_range_meters":7200,"station_id":"st_d4a3vfp97mjs738cd8kg","pricing_plan_id":"cebpf4jnsgd1na2vs0mg"},{"bike_id":"4ec959dd-1de1-448f-b442-aa2685dcb0b4","system_id":"levelo_inurba_marseille","lat":43.31214,"lon":5.3684,"is_reserved":false,"is_disabled":false,"rental_uris":{"android":"levelo://app?vid=4ec959dd-1de1-448f-b442-aa2685dcb0b4","ios":"levelo://app?vid=4ec959dd-1de1-448f-b442-aa2685dcb0b4"},"vehicle_type_id":"4","last_reported":1778928821,"current_range_meters":7200,"station_id":"ce4bgl92rcd13ifvqbq0","pricing_plan_id":"cebpf4jnsgd1na2vs0mg"},{"bike_id":"6eb70678-e4de-48b2-9bcf-c2743dfd747c","system_id":"levelo_inurba_marseille","lat":43.2316,"lon":5.43685,"is_reserved":false,"is_disabled":false,"rental_uris":{"android":"levelo://app?vid=6eb70678-e4de-48b2-9bcf-c2743dfd747c","ios":"levelo://app?vid=6eb70678-e4de-48b2-9bcf-c2743dfd747c"},"vehicle_type_id":"4","last_reported":1778928821,"current_range_meters":7200,"station_id":"ce4bhmp2rcd13ifvqgog","pricing_plan_id":"cebpf4jnsgd1na2vs0mg"},{"bike_id":"659fb7a5-acda-4bf0-b4d5-df0d7201ad7c","system_id":"levelo_inurba_marseille","lat":43.28697,"lon":5.46676,"is_reserved":false,"is_disabled":false,"rental_uris":{"android":"levelo://app?vid=659fb7a5-acda-4bf0-b4d5-df0d7201ad7c","ios":"levelo://app?vid=659fb7a5-acda-4bf0-b4d5-df0d7201ad7c"},"vehicle_type_id":"4","last_reported":1778928821,"current_range_meters":7200,"station_id":"st_d6tc3vkotcvc738tfjhg","pricing_plan_id":"cebpf4jnsgd1na2vs0mg"},{"bike_id":"470ea25e-7fd9-4141-8ab7-89f5e202b013","system_id":"levelo_inurba_marseille","lat":43.27989,"lon":5.40018,"is_reserved":false,"is_disabled":false,"rental_uris":{"android":"levelo://app?vid=470ea25e-7fd9-4141-8ab7-89f5e202b013","ios":"levelo://app?vid=470ea25e-7fd9-4141-8ab7-89f5e202b013"},"vehicle_type_id":"4","last_reported":1778928821,"current_range_meters":7200,"station_id":"ce4bho92rcd13ifvqh4g","pricing_plan_id":"cebpf4jnsgd1na2vs0mg"},{"bike_id":"f3c994d6-6814-4d99-92c4-8e22f5dffb58","system_id":"levelo_inurba_marseille","lat":43.28485,"lon":5.38422,"is_reserved":false,"is_disabled":false,"rental_uris":{"android":"levelo://app?vid=f3c994d6-6814-4d99-92c4-8e22f5dffb58","ios":"levelo://app?vid=f3c994d6-6814-4d99-92c4-8e22f5dffb58"},"vehicle_type_id":"4","last_reported":1778928821,"current_range_meters":7200,"station_id":"ce4bh512rcd13ifvqe3g","pricing_plan_id":"cebpf4jnsgd1na2vs0mg"},{"bike_id":"11cfcfb7-7cef-4ca3-94fd-d649299b0219","system_id":"levelo_inurba_marseille","lat":43.31714,"lon":5.42416,"is_reserved":false,"is_disabled":false,"rental_uris":{"android":"levelo://app?vid=11cfcfb7-7cef-4ca3-94fd-d649299b0219","ios":"levelo://app?vid=11cfcfb7-7cef-4ca3-94fd-d649299b0219"},"vehicle_type_id":"4","last_reported":1778928821,"current_range_meters":7200,"station_id":"ce4bhp92rcd13ifvqhbg","pricing_plan_id":"cebpf4jnsgd1na2vs0mg"},{"bike_id":"25d874e2-4fb0-465d-875a-02b69a82441a","system_id":"levelo_inurba_marseille","lat":43.24799,"lon":5.37446,"is_reserved":false,"is_disabled":false,"rental_uris":{"android":"levelo://app?vid=25d874e2-4fb0-465d-875a-02b69a82441a","ios":"levelo://app?vid=25d874e2-4fb0-465d-875a-02b69a82441a"},"vehicle_type_id":"4","last_reported":1778928821,"current_range_meters":7200,"station_id":"ce4bhgh2rcd13ifvqfb0","pricing_plan_id":"cebpf4jnsgd1na2vs0mg"},{"bike_id":"3de64d2d-b4d9-4cbf-a1f6-2f87d0874401","system_id":"levelo_inurba_marseille","lat":43.30539,"lon":5.36694,"is_reserved":false,"is_disabled":false,"rental_uris":{"android":"levelo://app?vid=3de64d2d-b4d9-4cbf-a1f6-2f87d0874401","ios":"levelo://app?vid=3de64d2d-b4d9-4cbf-a1f6-2f87d0874401"},"vehicle_type_id":"4","last_reported":1778928821,"current_range_meters":8000,"station_id":"ce4bgrp2rcd13ifvqc9g","pricing_plan_id":"cebpf4jnsgd1na2vs0mg"},{"bike_id":"9eb3c74a-4d93-422d-89bc-d96b7b8615b0","system_id":"levelo_inurba_marseille","lat":43.29845,"lon":5.36262,"is_reserved":false,"is_disabled":false,"rental_uris":{"android":"levelo://app?vid=9eb3c74a-4d93-422d-89bc-d96b7b8615b0","ios":"levelo://app?vid=9eb3c74a-4d93-422d-89bc-d96b7b8615b0"},"vehicle_type_id":"4","last_reported":1778928821,"current_range_meters":8000,"station_id":"ce4bgpp2rcd13ifvqc3g","pricing_plan_id":"cebpf4jnsgd1na2vs0mg"},{"bike_id":"171050af-87b6-4745-966b-011c90f35208","system_id":"levelo_inurba_marseille","lat":43.29615,"lon":5.40609,"is_reserved":false,"is_disabled":false,"rental_uris":{"android":"levelo://app?vid=171050af-87b6-4745-966b-011c90f35208","ios":"levelo://app?vid=171050af-87b6-4745-966b-011c90f35208"},"vehicle_type_id":"4","last_reported":1778928821,"current_range_meters":8000,"station_id":"ce4bh0h2rcd13ifvqd60","pricing_plan_id":"cebpf4jnsgd1na2vs0mg"},{"bike_id":"74f12a6d-7a94-4ce3-8725-e3fbbe23ae70","system_id":"levelo_inurba_marseille","lat":43.33536,"lon":5.37469,"is_reserved":false,"is_disabled":false,"rental_uris":{"android":"levelo://app?vid=74f12a6d-7a94-4ce3-8725-e3fbbe23ae70","ios":"levelo://app?vid=74f12a6d-7a94-4ce3-8725-e3fbbe23ae70"},"vehicle_type_id":"4","last_reported":1778928821,"current_range_meters":8000,"station_id":"st_d46tts09ee8s73dlu43g","pricing_plan_id":"cebpf4jnsgd1na2vs0mg"},{"bike_id":"b3d3f46d-8b61-4048-a49d-46db42a99359","system_id":"levelo_inurba_marseille","lat":43.2481,"lon":5.3745,"is_reserved":false,"is_disabled":false,"rental_uris":{"android":"levelo://app?vid=b3d3f46d-8b61-4048-a49d-46db42a99359","ios":"levelo://app?vid=b3d3f46d-8b61-4048-a49d-46db42a99359"},"vehicle_type_id":"4","last_reported":1778928821,"current_range_meters":8000,"station_id":"ce4bhgh2rcd13ifvqfb0","pricing_plan_id":"cebpf4jnsgd1na2vs0mg"},{"bike_id":"9d9da9b1-62c5-4232-8888-7d36c96bb153","system_id":"levelo_inurba_marseille","lat":43.27494,"lon":5.41578,"is_reserved":false,"is_disabled":false,"rental_uris":{"android":"levelo://app?vid=9d9da9b1-62c5-4232-8888-7d36c96bb153","ios":"levelo://app?vid=9d9da9b1-62c5-4232-8888-7d36c96bb153"},"vehicle_type_id":"4","last_reported":1778928821,"current_range_meters":8000,"station_id":"st_d6im8g6chgec73a5pndg","pricing_plan_id":"cebpf4jnsgd1na2vs0mg"},{"bike_id":"5b744d3a-164e-40a7-b9c8-92dc8a498fc5","system_id":"levelo_inurba_marseille","lat":43.2621,"lon":5.3755,"is_reserved":false,"is_disabled":false,"rental_uris":{"android":"levelo://app?vid=5b744d3a-164e-40a7-b9c8-92dc8a498fc5","ios":"levelo://app?vid=5b744d3a-164e-40a7-b9c8-92dc8a498fc5"},"vehicle_type_id":"4","last_reported":1778928821,"current_range_meters":8000,"station_id":"","pricing_plan_id":"cebpf4jnsgd1na2vs0mg"},{"bike_id":"616353f1-4754-4f57-9465-e46d49d24354","system_id":"levelo_inurba_marseille","lat":43.33635,"lon":5.36296,"is_reserved":false,"is_disabled":false,"rental_uris":{"android":"levelo://app?vid=616353f1-4754-4f57-9465-e46d49d24354","ios":"levelo://app?vid=616353f1-4754-4f57-9465-e46d49d24354"},"vehicle_type_id":"4","last_reported":1778928821,"current_range_meters":8000,"station_id":"","pricing_plan_id":"cebpf4jnsgd1na2vs0mg"},{"bike_id":"fd40b65e-4533-406f-9f7a-1eb7ebc9e5a5","system_id":"levelo_inurba_marseille","lat":43.30176,"lon":5.3663,"is_reserved":false,"is_disabled":false,"rental_uris":{"android":"levelo://app?vid=fd40b65e-4533-406f-9f7a-1eb7ebc9e5a5","ios":"levelo://app?vid=fd40b65e-4533-406f-9f7a-1eb7ebc9e5a5"},"vehicle_type_id":"4","last_reported":1778928821,"current_range_meters":8000,"station_id":"ce4bgrh2rcd13ifvqc8g","pricing_plan_id":"cebpf4jnsgd1na2vs0mg"},{"bike_id":"4d31ed6e-13e0-4959-aa6c-cce6ffc3f7ff","system_id":"levelo_inurba_marseille","lat":43.275,"lon":5.41583,"is_reserved":false,"is_disabled":false,"rental_uris":{"android":"levelo://app?vid=4d31ed6e-13e0-4959-aa6c-cce6ffc3f7ff","ios":"levelo://app?vid=4d31ed6e-13e0-4959-aa6c-cce6ffc3f7ff"},"vehicle_type_id":"4","last_reported":1778928821,"current_range_meters":8000,"station_id":"st_d6im8g6chgec73a5pndg","pricing_plan_id":"cebpf4jnsgd1na2vs0mg"},{"bike_id":"95d4bd31-b89c-4cb2-afa3-9e6e4ba15e30","system_id":"levelo_inurba_marseille","lat":43.25496,"lon":5.37653,"is_reserved":false,"is_disabled":false,"rental_uris":{"android":"levelo://app?vid=95d4bd31-b89c-4cb2-afa3-9e6e4ba15e30","ios":"levelo://app?vid=95d4bd31-b89c-4cb2-afa3-9e6e4ba15e30"},"vehicle_type_id":"4","last_reported":1778928821,"current_range_meters":8000,"station_id":"ce4bhh12rcd13ifvqff0","pricing_plan_id":"cebpf4jnsgd1na2vs0mg"},{"bike_id":"1124e8ed-181a-445d-9220-36e963831e6c","system_id":"levelo_inurba_marseille","lat":43.23897,"lon":5.37455,"is_reserved":false,"is_disabled":true,"rental_uris":{"android":"levelo://app?vid=1124e8ed-181a-445d-9220-36e963831e6c","ios":"levelo://app?vid=1124e8ed-181a-445d-9220-36e963831e6c"},"vehicle_type_id":"4","last_reported":1778928821,"current_range_meters":8000,"station_id":"st_d6sm7csbq4hs73f8fpjg","pricing_plan_id":"cebpf4jnsgd1na2vs0mg"},{"bike_id":"c840fdcf-1e65-4005-a5a6-debdb0deb9d7","system_id":"levelo_inurba_marseille","lat":43.31126,"lon":5.37762,"is_reserved":false,"is_disabled":false,"rental_uris":{"android":"levelo://app?vid=c840fdcf-1e65-4005-a5a6-debdb0deb9d7","ios":"levelo://app?vid=c840fdcf-1e65-4005-a5a6-debdb0deb9d7"},"vehicle_type_id":"4","last_reported":1778928821,"current_range_meters":8000,"station_id":"ce4bgt92rcd13ifvqcg0","pricing_plan_id":"cebpf4jnsgd1na2vs0mg"},{"bike_id":"083fbb6d-203d-4e81-b472-0332cf51cdeb","system_id":"levelo_inurba_marseille","lat":43.31755,"lon":5.39013,"is_reserved":false,"is_disabled":false,"rental_uris":{"android":"levelo://app?vid=083fbb6d-203d-4e81-b472-0332cf51cdeb","ios":"levelo://app?vid=083fbb6d-203d-4e81-b472-0332cf51cdeb"},"vehicle_type_id":"4","last_reported":1778928821,"current_range_meters":8000,"station_id":"ce4bhqp2rcd13ifvqhng","pricing_plan_id":"cebpf4jnsgd1na2vs0mg"},{"bike_id":"57716f1b-e850-455e-8535-b5db4b2543ce","system_id":"levelo_inurba_marseille","lat":43.27946,"lon":5.38704,"is_reserved":false,"is_disabled":false,"rental_uris":{"android":"levelo://app?vid=57716f1b-e850-455e-8535-b5db4b2543ce","ios":"levelo://app?vid=57716f1b-e850-455e-8535-b5db4b2543ce"},"vehicle_type_id":"4","last_reported":1778928821,"current_range_meters":8000,"station_id":"ce4bhg12rcd13ifvqf80","pricing_plan_id":"cebpf4jnsgd1na2vs0mg"},{"bike_id":"34678a1c-60f3-45d1-98d5-4a975c55a3b5","system_id":"levelo_inurba_marseille","lat":43.29226,"lon":5.3607,"is_reserved":false,"is_disabled":true,"rental_uris":{"android":"levelo://app?vid=34678a1c-60f3-45d1-98d5-4a975c55a3b5","ios":"levelo://app?vid=34678a1c-60f3-45d1-98d5-4a975c55a3b5"},"vehicle_type_id":"4","last_reported":1778928821,"current_range_meters":8000,"station_id":"ce4bhbh2rcd13ifvqeqg","pricing_plan_id":"cebpf4jnsgd1na2vs0mg"},{"bike_id":"f1828d5c-4a6d-47d8-9802-638377778610","system_id":"levelo_inurba_marseille","lat":43.292,"lon":5.36068,"is_reserved":false,"is_disabled":false,"rental_uris":{"android":"levelo://app?vid=f1828d5c-4a6d-47d8-9802-638377778610","ios":"levelo://app?vid=f1828d5c-4a6d-47d8-9802-638377778610"},"vehicle_type_id":"4","last_reported":1778928821,"current_range_meters":8000,"station_id":"ce4bhbh2rcd13ifvqeqg","pricing_plan_id":"cebpf4jnsgd1na2vs0mg"},{"bike_id":"23c7a8d6-3cfa-456d-b438-60a0b1f1d263","system_id":"levelo_inurba_marseille","lat":43.2512,"lon":5.40314,"is_reserved":false,"is_disabled":false,"rental_uris":{"android":"levelo://app?vid=23c7a8d6-3cfa-456d-b438-60a0b1f1d263","ios":"levelo://app?vid=23c7a8d6-3cfa-456d-b438-60a0b1f1d263"},"vehicle_type_id":"4","last_reported":1778928821,"current_range_meters":8000,"station_id":"ce4bhlh2rcd13ifvqgig","pricing_plan_id":"cebpf4jnsgd1na2vs0mg"},{"bike_id":"73d2634d-1a46-4320-a5c0-4dcddddaa01f","system_id":"levelo_inurba_marseille","lat":43.272,"lon":5.40972,"is_reserved":false,"is_disabled":false,"rental_uris":{"android":"levelo://app?vid=73d2634d-1a46-4320-a5c0-4dcddddaa01f","ios":"levelo://app?vid=73d2634d-1a46-4320-a5c0-4dcddddaa01f"},"vehicle_type_id":"4","last_reported":1778928821,"current_range_meters":8000,"station_id":"ce4bhl12rcd13ifvqgf0","pricing_plan_id":"cebpf4jnsgd1na2vs0mg"},{"bike_id":"275452fa-49c7-4ee3-b3e6-44621052e7fd","system_id":"levelo_inurba_marseille","lat":43.2841,"lon":5.34989,"is_reserved":false,"is_disabled":false,"rental_uris":{"android":"levelo://app?vid=275452fa-49c7-4ee3-b3e6-44621052e7fd","ios":"levelo://app?vid=275452fa-49c7-4ee3-b3e6-44621052e7fd"},"vehicle_type_id":"4","last_reported":1778928821,"current_range_meters":8000,"station_id":"ce4bhbh2rcd13ifvqepg","pricing_plan_id":"cebpf4jnsgd1na2vs0mg"},{"bike_id":"78a05d99-04e8-4d44-b30f-76f897048f1b","system_id":"levelo_inurba_marseille","lat":43.27913,"lon":5.39578,"is_reserved":false,"is_disabled":false,"rental_uris":{"android":"levelo://app?vid=78a05d99-04e8-4d44-b30f-76f897048f1b","ios":"levelo://app?vid=78a05d99-04e8-4d44-b30f-76f897048f1b"},"vehicle_type_id":"4","last_reported":1778928821,"current_range_meters":8000,"station_id":"ce4bhf92rcd13ifvqf40","pricing_plan_id":"cebpf4jnsgd1na2vs0mg"},{"bike_id":"a90bb131-ab97-4866-93b6-a21239fc5036","system_id":"levelo_inurba_marseille","lat":43.29244,"lon":5.38425,"is_reserved":false,"is_disabled":false,"rental_uris":{"android":"levelo://app?vid=a90bb131-ab97-4866-93b6-a21239fc5036","ios":"levelo://app?vid=a90bb131-ab97-4866-93b6-a21239fc5036"},"vehicle_type_id":"4","last_reported":1778928821,"current_range_meters":8000,"station_id":"ce4bh692rcd13ifvqea0","pricing_plan_id":"cebpf4jnsgd1na2vs0mg"},{"bike_id":"380b5b02-7761-49fd-a03f-39d0fb476707","system_id":"levelo_inurba_marseille","lat":43.24462,"lon":5.42537,"is_reserved":false,"is_disabled":false,"rental_uris":{"android":"levelo://app?vid=380b5b02-7761-49fd-a03f-39d0fb476707","ios":"levelo://app?vid=380b5b02-7761-49fd-a03f-39d0fb476707"},"vehicle_type_id":"4","last_reported":1778928821,"current_range_meters":8000,"station_id":"st_d4a3vfp97mjs738cd8kg","pricing_plan_id":"cebpf4jnsgd1na2vs0mg"},{"bike_id":"b5700011-a486-4e56-b8fb-207aaf85d4db","system_id":"levelo_inurba_marseille","lat":43.31903,"lon":5.36813,"is_reserved":false,"is_disabled":false,"rental_uris":{"android":"levelo://app?vid=b5700011-a486-4e56-b8fb-207aaf85d4db","ios":"levelo://app?vid=b5700011-a486-4e56-b8fb-207aaf85d4db"},"vehicle_type_id":"4","last_reported":1778928821,"current_range_meters":8000,"station_id":"st_d6o2h0d0559c73evc1b0","pricing_plan_id":"cebpf4jnsgd1na2vs0mg"},{"bike_id":"d1f3b13b-a61c-41fc-b986-79acc9b16fe8","system_id":"levelo_inurba_marseille","lat":43.28527,"lon":5.441,"is_reserved":false,"is_disabled":false,"rental_uris":{"android":"levelo://app?vid=d1f3b13b-a61c-41fc-b986-79acc9b16fe8","ios":"levelo://app?vid=d1f3b13b-a61c-41fc-b986-79acc9b16fe8"},"vehicle_type_id":"4","last_reported":1778928821,"current_range_meters":8000,"station_id":"st_d3j3df2ikq2c7380ej80","pricing_plan_id":"cebpf4jnsgd1na2vs0mg"},{"bike_id":"ee15264c-c5fd-4c69-a06f-329fd6fb9d0d","system_id":"levelo_inurba_marseille","lat":43.30126,"lon":5.43115,"is_reserved":false,"is_disabled":false,"rental_uris":{"android":"levelo://app?vid=ee15264c-c5fd-4c69-a06f-329fd6fb9d0d","ios":"levelo://app?vid=ee15264c-c5fd-4c69-a06f-329fd6fb9d0d"},"vehicle_type_id":"4","last_reported":1778928821,"current_range_meters":8000,"station_id":"st_d3js3co5814s73ftftug","pricing_plan_id":"cebpf4jnsgd1na2vs0mg"},{"bike_id":"fea54104-bb98-4d6d-b765-f71a537f5666","system_id":"levelo_inurba_marseille","lat":43.23539,"lon":5.40688,"is_reserved":false,"is_disabled":false,"rental_uris":{"android":"levelo://app?vid=fea54104-bb98-4d6d-b765-f71a537f5666","ios":"levelo://app?vid=fea54104-bb98-4d6d-b765-f71a537f5666"},"vehicle_type_id":"4","last_reported":1778928821,"current_range_meters":8000,"station_id":"","pricing_plan_id":"cebpf4jnsgd1na2vs0mg"},{"bike_id":"5c08e5b3-b846-4384-a4c4-429efddecf08","system_id":"levelo_inurba_marseille","lat":43.29586,"lon":5.36747,"is_reserved":false,"is_disabled":false,"rental_uris":{"android":"levelo://app?vid=5c08e5b3-b846-4384-a4c4-429efddecf08","ios":"levelo://app?vid=5c08e5b3-b846-4384-a4c4-429efddecf08"},"vehicle_type_id":"4","last_reported":1778928821,"current_range_meters":8000,"station_id":"ce4bgph2rcd13ifvqc2g","pricing_plan_id":"cebpf4jnsgd1na2vs0mg"},{"bike_id":"d03feebf-44f6-4a35-a255-300719e2729a","system_id":"levelo_inurba_marseille","lat":43.29005,"lon":5.3561,"is_reserved":false,"is_disabled":false,"rental_uris":{"android":"levelo://app?vid=d03feebf-44f6-4a35-a255-300719e2729a","ios":"levelo://app?vid=d03feebf-44f6-4a35-a255-300719e2729a"},"vehicle_type_id":"4","last_reported":1778928821,"current_range_meters":8000,"station_id":"ce4bhb92rcd13ifvqen0","pricing_plan_id":"cebpf4jnsgd1na2vs0mg"},{"bike_id":"db02ef7c-640a-4c96-9b71-5ccb495b164c","system_id":"levelo_inurba_marseille","lat":43.30891,"lon":5.3964,"is_reserved":false,"is_disabled":false,"rental_uris":{"android":"levelo://app?vid=db02ef7c-640a-4c96-9b71-5ccb495b164c","ios":"levelo://app?vid=db02ef7c-640a-4c96-9b71-5ccb495b164c"},"vehicle_type_id":"4","last_reported":1778928821,"current_range_meters":8400,"station_id":"ce4bh012rcd13ifvqcv0","pricing_plan_id":"cebpf4jnsgd1na2vs0mg"},{"bike_id":"f38bfbf4-35c7-497d-ac01-cb0d2c78788a","system_id":"levelo_inurba_marseille","lat":43.29247,"lon":5.37622,"is_reserved":false,"is_disabled":false,"rental_uris":{"android":"levelo://app?vid=f38bfbf4-35c7-497d-ac01-cb0d2c78788a","ios":"levelo://app?vid=f38bfbf4-35c7-497d-ac01-cb0d2c78788a"},"vehicle_type_id":"4","last_reported":1778928821,"current_range_meters":8400,"station_id":"ce4bgi12rcd13ifvqb80","pricing_plan_id":"cebpf4jnsgd1na2vs0mg"},{"bike_id":"c091a819-21d8-46ac-8161-23f60b78cf02","system_id":"levelo_inurba_marseille","lat":43.27615,"lon":5.36106,"is_reserved":false,"is_disabled":true,"rental_uris":{"android":"levelo://app?vid=c091a819-21d8-46ac-8161-23f60b78cf02","ios":"levelo://app?vid=c091a819-21d8-46ac-8161-23f60b78cf02"},"vehicle_type_id":"4","last_reported":1778928821,"current_range_meters":8400,"station_id":"ce4bgj92rcd13ifvqbe0","pricing_plan_id":"cebpf4jnsgd1na2vs0mg"},{"bike_id":"df3b4c65-b594-43d2-9619-bf34b1560986","system_id":"levelo_inurba_marseille","lat":43.33539,"lon":5.37459,"is_reserved":false,"is_disabled":false,"rental_uris":{"android":"levelo://app?vid=df3b4c65-b594-43d2-9619-bf34b1560986","ios":"levelo://app?vid=df3b4c65-b594-43d2-9619-bf34b1560986"},"vehicle_type_id":"4","last_reported":1778928821,"current_range_meters":8400,"station_id":"st_d46tts09ee8s73dlu43g","pricing_plan_id":"cebpf4jnsgd1na2vs0mg"},{"bike_id":"6d33eede-1808-4886-b572-697220686ed0","system_id":"levelo_inurba_marseille","lat":43.28348,"lon":5.38107,"is_reserved":false,"is_disabled":false,"rental_uris":{"android":"levelo://app?vid=6d33eede-1808-4886-b572-697220686ed0","ios":"levelo://app?vid=6d33eede-1808-4886-b572-697220686ed0"},"vehicle_type_id":"4","last_reported":1778928821,"current_range_meters":8400,"station_id":"ce4bh412rcd13ifvqdr0","pricing_plan_id":"cebpf4jnsgd1na2vs0mg"},{"bike_id":"ef20a65f-19f4-4491-8360-61efaea0f2fe","system_id":"levelo_inurba_marseille","lat":43.27665,"lon":5.41367,"is_reserved":false,"is_disabled":false,"rental_uris":{"android":"levelo://app?vid=ef20a65f-19f4-4491-8360-61efaea0f2fe","ios":"levelo://app?vid=ef20a65f-19f4-4491-8360-61efaea0f2fe"},"vehicle_type_id":"4","last_reported":1778928821,"current_range_meters":8400,"station_id":"","pricing_plan_id":"cebpf4jnsgd1na2vs0mg"},{"bike_id":"b9785728-d604-45a3-8811-1929b23ae6f4","system_id":"levelo_inurba_marseille","lat":43.24392,"lon":5.37071,"is_reserved":false,"is_disabled":false,"rental_uris":{"android":"levelo://app?vid=b9785728-d604-45a3-8811-1929b23ae6f4","ios":"levelo://app?vid=b9785728-d604-45a3-8811-1929b23ae6f4"},"vehicle_type_id":"4","last_reported":1778928821,"current_range_meters":8400,"station_id":"ce4bhhh2rcd13ifvqfk0","pricing_plan_id":"cebpf4jnsgd1na2vs0mg"},{"bike_id":"4ee69d41-30d6-469e-829a-74d2ce79aff4","system_id":"levelo_inurba_marseille","lat":43.3355,"lon":5.37456,"is_reserved":false,"is_disabled":false,"rental_uris":{"android":"levelo://app?vid=4ee69d41-30d6-469e-829a-74d2ce79aff4","ios":"levelo://app?vid=4ee69d41-30d6-469e-829a-74d2ce79aff4"},"vehicle_type_id":"4","last_reported":1778928821,"current_range_meters":8400,"station_id":"st_d46tts09ee8s73dlu43g","pricing_plan_id":"cebpf4jnsgd1na2vs0mg"},{"bike_id":"dbcb99d7-b21a-4ba8-9326-06fe4ababdac","system_id":"levelo_inurba_marseille","lat":43.2323,"lon":5.3553,"is_reserved":false,"is_disabled":false,"rental_uris":{"android":"levelo://app?vid=dbcb99d7-b21a-4ba8-9326-06fe4ababdac","ios":"levelo://app?vid=dbcb99d7-b21a-4ba8-9326-06fe4ababdac"},"vehicle_type_id":"4","last_reported":1778928821,"current_range_meters":8400,"station_id":"ce4bhu92rcd13ifvqi70","pricing_plan_id":"cebpf4jnsgd1na2vs0mg"},{"bike_id":"edd5c786-8d24-46bc-bdcd-f0f00a11c1c1","system_id":"levelo_inurba_marseille","lat":43.25516,"lon":5.37651,"is_reserved":false,"is_disabled":true,"rental_uris":{"android":"levelo://app?vid=edd5c786-8d24-46bc-bdcd-f0f00a11c1c1","ios":"levelo://app?vid=edd5c786-8d24-46bc-bdcd-f0f00a11c1c1"},"vehicle_type_id":"4","last_reported":1778928821,"current_range_meters":8400,"station_id":"ce4bhh12rcd13ifvqff0","pricing_plan_id":"cebpf4jnsgd1na2vs0mg"},{"bike_id":"6318188d-a7e6-43b4-b011-3b8ec9dda8d9","system_id":"levelo_inurba_marseille","lat":43.21754,"lon":5.34593,"is_reserved":false,"is_disabled":false,"rental_uris":{"android":"levelo://app?vid=6318188d-a7e6-43b4-b011-3b8ec9dda8d9","ios":"levelo://app?vid=6318188d-a7e6-43b4-b011-3b8ec9dda8d9"},"vehicle_type_id":"4","last_reported":1778928821,"current_range_meters":8400,"station_id":"st_cvj6r9ubvosntc0bgbag","pricing_plan_id":"cebpf4jnsgd1na2vs0mg"},{"bike_id":"3b262f3c-5b03-4b53-8a66-da358a5a543b","system_id":"levelo_inurba_marseille","lat":43.29608,"lon":5.38071,"is_reserved":false,"is_disabled":false,"rental_uris":{"android":"levelo://app?vid=3b262f3c-5b03-4b53-8a66-da358a5a543b","ios":"levelo://app?vid=3b262f3c-5b03-4b53-8a66-da358a5a543b"},"vehicle_type_id":"4","last_reported":1778928821,"current_range_meters":8400,"station_id":"ce4bgl12rcd13ifvqbo0","pricing_plan_id":"cebpf4jnsgd1na2vs0mg"},{"bike_id":"5ce80697-225a-4775-9620-63268fa34f78","system_id":"levelo_inurba_marseille","lat":43.30153,"lon":5.38086,"is_reserved":false,"is_disabled":false,"rental_uris":{"android":"levelo://app?vid=5ce80697-225a-4775-9620-63268fa34f78","ios":"levelo://app?vid=5ce80697-225a-4775-9620-63268fa34f78"},"vehicle_type_id":"4","last_reported":1778928821,"current_range_meters":8400,"station_id":"ce4bgjp2rcd13ifvqbh0","pricing_plan_id":"cebpf4jnsgd1na2vs0mg"},{"bike_id":"d74e6cb2-9b2e-4676-ab53-3e763325f771","system_id":"levelo_inurba_marseille","lat":43.24385,"lon":5.37044,"is_reserved":false,"is_disabled":false,"rental_uris":{"android":"levelo://app?vid=d74e6cb2-9b2e-4676-ab53-3e763325f771","ios":"levelo://app?vid=d74e6cb2-9b2e-4676-ab53-3e763325f771"},"vehicle_type_id":"4","last_reported":1778928821,"current_range_meters":8400,"station_id":"ce4bhhh2rcd13ifvqfk0","pricing_plan_id":"cebpf4jnsgd1na2vs0mg"},{"bike_id":"5ca2a651-1081-4448-8a0d-b4a6e57f52b6","system_id":"levelo_inurba_marseille","lat":43.28473,"lon":5.38527,"is_reserved":false,"is_disabled":false,"rental_uris":{"android":"levelo://app?vid=5ca2a651-1081-4448-8a0d-b4a6e57f52b6","ios":"levelo://app?vid=5ca2a651-1081-4448-8a0d-b4a6e57f52b6"},"vehicle_type_id":"4","last_reported":1778928821,"current_range_meters":8400,"station_id":"ce4bh8p2rcd13ifvqeb0","pricing_plan_id":"cebpf4jnsgd1na2vs0mg"},{"bike_id":"d49f6b23-c0e1-4db4-a3be-5dd85026d484","system_id":"levelo_inurba_marseille","lat":43.290511,"lon":5.359045,"is_reserved":false,"is_disabled":false,"rental_uris":{"android":"levelo://app?vid=d49f6b23-c0e1-4db4-a3be-5dd85026d484","ios":"levelo://app?vid=d49f6b23-c0e1-4db4-a3be-5dd85026d484"},"vehicle_type_id":"4","last_reported":1778928821,"current_range_meters":8400,"station_id":"ce4bha92rcd13ifvqeg0","pricing_plan_id":"cebpf4jnsgd1na2vs0mg"},{"bike_id":"2f701455-9a88-4bab-99f0-da0dade42e53","system_id":"levelo_inurba_marseille","lat":43.29488,"lon":5.43289,"is_reserved":false,"is_disabled":false,"rental_uris":{"android":"levelo://app?vid=2f701455-9a88-4bab-99f0-da0dade42e53","ios":"levelo://app?vid=2f701455-9a88-4bab-99f0-da0dade42e53"},"vehicle_type_id":"4","last_reported":1778928821,"current_range_meters":8400,"station_id":"st_d3j5ugp08ojc73fj9d10","pricing_plan_id":"cebpf4jnsgd1na2vs0mg"},{"bike_id":"dace259d-e3eb-491e-95dc-863daa176674","system_id":"levelo_inurba_marseille","lat":43.24168,"lon":5.36384,"is_reserved":false,"is_disabled":false,"rental_uris":{"android":"levelo://app?vid=dace259d-e3eb-491e-95dc-863daa176674","ios":"levelo://app?vid=dace259d-e3eb-491e-95dc-863daa176674"},"vehicle_type_id":"4","last_reported":1778928821,"current_range_meters":8400,"station_id":"cpo36qri1sfpv3e86is0","pricing_plan_id":"cebpf4jnsgd1na2vs0mg"},{"bike_id":"52fb7434-896e-4c97-817e-ac9657918ab4","system_id":"levelo_inurba_marseille","lat":43.33539,"lon":5.37465,"is_reserved":false,"is_disabled":false,"rental_uris":{"android":"levelo://app?vid=52fb7434-896e-4c97-817e-ac9657918ab4","ios":"levelo://app?vid=52fb7434-896e-4c97-817e-ac9657918ab4"},"vehicle_type_id":"4","last_reported":1778928821,"current_range_meters":8400,"station_id":"st_d46tts09ee8s73dlu43g","pricing_plan_id":"cebpf4jnsgd1na2vs0mg"},{"bike_id":"fedccf78-7208-491e-ad79-9052f3365971","system_id":"levelo_inurba_marseille","lat":43.27645,"lon":5.36094,"is_reserved":false,"is_disabled":false,"rental_uris":{"android":"levelo://app?vid=fedccf78-7208-491e-ad79-9052f3365971","ios":"levelo://app?vid=fedccf78-7208-491e-ad79-9052f3365971"},"vehicle_type_id":"4","last_reported":1778928821,"current_range_meters":8400,"station_id":"ce4bgj92rcd13ifvqbe0","pricing_plan_id":"cebpf4jnsgd1na2vs0mg"},{"bike_id":"698b85c5-bf11-437e-913f-7d2243a0f74a","system_id":"levelo_inurba_marseille","lat":43.26223,"lon":5.3757,"is_reserved":false,"is_disabled":false,"rental_uris":{"android":"levelo://app?vid=698b85c5-bf11-437e-913f-7d2243a0f74a","ios":"levelo://app?vid=698b85c5-bf11-437e-913f-7d2243a0f74a"},"vehicle_type_id":"4","last_reported":1778928821,"current_range_meters":8400,"station_id":"","pricing_plan_id":"cebpf4jnsgd1na2vs0mg"},{"bike_id":"acb74f7b-0e8d-4aa0-a451-a35d8a14e4b7","system_id":"levelo_inurba_marseille","lat":43.28349,"lon":5.38097,"is_reserved":false,"is_disabled":false,"rental_uris":{"android":"levelo://app?vid=acb74f7b-0e8d-4aa0-a451-a35d8a14e4b7","ios":"levelo://app?vid=acb74f7b-0e8d-4aa0-a451-a35d8a14e4b7"},"vehicle_type_id":"4","last_reported":1778928821,"current_range_meters":8400,"station_id":"ce4bh412rcd13ifvqdr0","pricing_plan_id":"cebpf4jnsgd1na2vs0mg"},{"bike_id":"b609bd99-0408-43a0-9a9d-8206ba067457","system_id":"levelo_inurba_marseille","lat":43.29931,"lon":5.36524,"is_reserved":false,"is_disabled":false,"rental_uris":{"android":"levelo://app?vid=b609bd99-0408-43a0-9a9d-8206ba067457","ios":"levelo://app?vid=b609bd99-0408-43a0-9a9d-8206ba067457"},"vehicle_type_id":"4","last_reported":1778928821,"current_range_meters":8800,"station_id":"ce4bgm92rcd13ifvqbr0","pricing_plan_id":"cebpf4jnsgd1na2vs0mg"},{"bike_id":"b85c6d79-bf2e-49ca-8635-115961a7a63d","system_id":"levelo_inurba_marseille","lat":43.30924,"lon":5.40147,"is_reserved":false,"is_disabled":false,"rental_uris":{"android":"levelo://app?vid=b85c6d79-bf2e-49ca-8635-115961a7a63d","ios":"levelo://app?vid=b85c6d79-bf2e-49ca-8635-115961a7a63d"},"vehicle_type_id":"4","last_reported":1778928821,"current_range_meters":8800,"station_id":"ce4bgvp2rcd13ifvqct0","pricing_plan_id":"cebpf4jnsgd1na2vs0mg"},{"bike_id":"ed8b9caf-da29-4c6c-b8b8-2bb3a2494930","system_id":"levelo_inurba_marseille","lat":43.22557,"lon":5.4163,"is_reserved":false,"is_disabled":false,"rental_uris":{"android":"levelo://app?vid=ed8b9caf-da29-4c6c-b8b8-2bb3a2494930","ios":"levelo://app?vid=ed8b9caf-da29-4c6c-b8b8-2bb3a2494930"},"vehicle_type_id":"4","last_reported":1778928821,"current_range_meters":8800,"station_id":"st_d2o4gvlbi1j2169b742g","pricing_plan_id":"cebpf4jnsgd1na2vs0mg"},{"bike_id":"86507b1b-bc31-4a81-bf67-bec0a597c983","system_id":"levelo_inurba_marseille","lat":43.26372,"lon":5.4108,"is_reserved":false,"is_disabled":false,"rental_uris":{"android":"levelo://app?vid=86507b1b-bc31-4a81-bf67-bec0a597c983","ios":"levelo://app?vid=86507b1b-bc31-4a81-bf67-bec0a597c983"},"vehicle_type_id":"4","last_reported":1778928821,"current_range_meters":8800,"station_id":"st_d4e5ca6na9uc73bfl5fg","pricing_plan_id":"cebpf4jnsgd1na2vs0mg"},{"bike_id":"a1475d99-48d4-492a-9346-7b6c84ba6610","system_id":"levelo_inurba_marseille","lat":43.25083,"lon":5.39517,"is_reserved":false,"is_disabled":false,"rental_uris":{"android":"levelo://app?vid=a1475d99-48d4-492a-9346-7b6c84ba6610","ios":"levelo://app?vid=a1475d99-48d4-492a-9346-7b6c84ba6610"},"vehicle_type_id":"4","last_reported":1778928821,"current_range_meters":8800,"station_id":"ce4bhm12rcd13ifvqgkg","pricing_plan_id":"cebpf4jnsgd1na2vs0mg"},{"bike_id":"d14c9127-179a-477e-a2fb-37842921942c","system_id":"levelo_inurba_marseille","lat":43.286114,"lon":5.351069,"is_reserved":false,"is_disabled":false,"rental_uris":{"android":"levelo://app?vid=d14c9127-179a-477e-a2fb-37842921942c","ios":"levelo://app?vid=d14c9127-179a-477e-a2fb-37842921942c"},"vehicle_type_id":"4","last_reported":1778928821,"current_range_meters":8800,"station_id":"ce4bhch2rcd13ifvqeug","pricing_plan_id":"cebpf4jnsgd1na2vs0mg"},{"bike_id":"59063f1e-10d8-4690-9ce0-08923f74ec53","system_id":"levelo_inurba_marseille","lat":43.29,"lon":5.35628,"is_reserved":false,"is_disabled":false,"rental_uris":{"android":"levelo://app?vid=59063f1e-10d8-4690-9ce0-08923f74ec53","ios":"levelo://app?vid=59063f1e-10d8-4690-9ce0-08923f74ec53"},"vehicle_type_id":"4","last_reported":1778928821,"current_range_meters":8800,"station_id":"ce4bhb92rcd13ifvqen0","pricing_plan_id":"cebpf4jnsgd1na2vs0mg"},{"bike_id":"7b1dec29-4a90-4c62-a15c-7321693f7cdf","system_id":"levelo_inurba_marseille","lat":43.21753,"lon":5.346,"is_reserved":false,"is_disabled":false,"rental_uris":{"android":"levelo://app?vid=7b1dec29-4a90-4c62-a15c-7321693f7cdf","ios":"levelo://app?vid=7b1dec29-4a90-4c62-a15c-7321693f7cdf"},"vehicle_type_id":"4","last_reported":1778928821,"current_range_meters":8800,"station_id":"st_cvj6r9ubvosntc0bgbag","pricing_plan_id":"cebpf4jnsgd1na2vs0mg"},{"bike_id":"7c9517e3-38cb-4a87-948b-926583eebece","system_id":"levelo_inurba_marseille","lat":43.21194,"lon":5.35058,"is_reserved":false,"is_disabled":false,"rental_uris":{"android":"levelo://app?vid=7c9517e3-38cb-4a87-948b-926583eebece","ios":"levelo://app?vid=7c9517e3-38cb-4a87-948b-926583eebece"},"vehicle_type_id":"4","last_reported":1778928821,"current_range_meters":8800,"station_id":"st_cvj6sg6p6f1abm77japg","pricing_plan_id":"cebpf4jnsgd1na2vs0mg"},{"bike_id":"707aeda5-beeb-4b0f-a43b-8908dbd6120b","system_id":"levelo_inurba_marseille","lat":43.30156,"lon":5.36611,"is_reserved":false,"is_disabled":false,"rental_uris":{"android":"levelo://app?vid=707aeda5-beeb-4b0f-a43b-8908dbd6120b","ios":"levelo://app?vid=707aeda5-beeb-4b0f-a43b-8908dbd6120b"},"vehicle_type_id":"4","last_reported":1778928821,"current_range_meters":8800,"station_id":"ce4bgrh2rcd13ifvqc8g","pricing_plan_id":"cebpf4jnsgd1na2vs0mg"},{"bike_id":"0aabf782-ccac-4c6e-b424-2952407b7d7c","system_id":"levelo_inurba_marseille","lat":43.23165,"lon":5.437,"is_reserved":false,"is_disabled":false,"rental_uris":{"android":"levelo://app?vid=0aabf782-ccac-4c6e-b424-2952407b7d7c","ios":"levelo://app?vid=0aabf782-ccac-4c6e-b424-2952407b7d7c"},"vehicle_type_id":"4","last_reported":1778928821,"current_range_meters":8800,"station_id":"ce4bhmp2rcd13ifvqgog","pricing_plan_id":"cebpf4jnsgd1na2vs0mg"},{"bike_id":"6ea257e9-ce11-4d49-a2f8-fd99dac0cf24","system_id":"levelo_inurba_marseille","lat":43.24678,"lon":5.38195,"is_reserved":false,"is_disabled":false,"rental_uris":{"android":"levelo://app?vid=6ea257e9-ce11-4d49-a2f8-fd99dac0cf24","ios":"levelo://app?vid=6ea257e9-ce11-4d49-a2f8-fd99dac0cf24"},"vehicle_type_id":"4","last_reported":1778928821,"current_range_meters":8800,"station_id":"ce4bhih2rcd13ifvqfr0","pricing_plan_id":"cebpf4jnsgd1na2vs0mg"},{"bike_id":"de17aa78-af3b-474d-b16e-76c40c910e54","system_id":"levelo_inurba_marseille","lat":43.30926,"lon":5.40142,"is_reserved":false,"is_disabled":false,"rental_uris":{"android":"levelo://app?vid=de17aa78-af3b-474d-b16e-76c40c910e54","ios":"levelo://app?vid=de17aa78-af3b-474d-b16e-76c40c910e54"},"vehicle_type_id":"4","last_reported":1778928821,"current_range_meters":8800,"station_id":"ce4bgvp2rcd13ifvqct0","pricing_plan_id":"cebpf4jnsgd1na2vs0mg"},{"bike_id":"b99f3fcb-1bd8-490c-9327-4f96d9f8fa4c","system_id":"levelo_inurba_marseille","lat":43.27973,"lon":5.38738,"is_reserved":false,"is_disabled":false,"rental_uris":{"android":"levelo://app?vid=b99f3fcb-1bd8-490c-9327-4f96d9f8fa4c","ios":"levelo://app?vid=b99f3fcb-1bd8-490c-9327-4f96d9f8fa4c"},"vehicle_type_id":"4","last_reported":1778928821,"current_range_meters":8800,"station_id":"ce4bhg12rcd13ifvqf80","pricing_plan_id":"cebpf4jnsgd1na2vs0mg"},{"bike_id":"6e07fdcc-5bd1-475f-bd15-3140883aeeee","system_id":"levelo_inurba_marseille","lat":43.29002,"lon":5.35603,"is_reserved":false,"is_disabled":false,"rental_uris":{"android":"levelo://app?vid=6e07fdcc-5bd1-475f-bd15-3140883aeeee","ios":"levelo://app?vid=6e07fdcc-5bd1-475f-bd15-3140883aeeee"},"vehicle_type_id":"4","last_reported":1778928821,"current_range_meters":8800,"station_id":"ce4bhb92rcd13ifvqen0","pricing_plan_id":"cebpf4jnsgd1na2vs0mg"},{"bike_id":"88676436-b644-4b39-91d3-cc5d29c9ef88","system_id":"levelo_inurba_marseille","lat":43.29886,"lon":5.38385,"is_reserved":false,"is_disabled":false,"rental_uris":{"android":"levelo://app?vid=88676436-b644-4b39-91d3-cc5d29c9ef88","ios":"levelo://app?vid=88676436-b644-4b39-91d3-cc5d29c9ef88"},"vehicle_type_id":"4","last_reported":1778928821,"current_range_meters":8800,"station_id":"","pricing_plan_id":"cebpf4jnsgd1na2vs0mg"},{"bike_id":"0e4b3cc2-d0d1-4acc-8ee4-dbc0c18861db","system_id":"levelo_inurba_marseille","lat":43.32496,"lon":5.38304,"is_reserved":false,"is_disabled":false,"rental_uris":{"android":"levelo://app?vid=0e4b3cc2-d0d1-4acc-8ee4-dbc0c18861db","ios":"levelo://app?vid=0e4b3cc2-d0d1-4acc-8ee4-dbc0c18861db"},"vehicle_type_id":"4","last_reported":1778928821,"current_range_meters":8800,"station_id":"st_d4asgbiv49dc73anf9m0","pricing_plan_id":"cebpf4jnsgd1na2vs0mg"},{"bike_id":"183ecbf2-1487-4e31-a0b0-97fce68bdb3c","system_id":"levelo_inurba_marseille","lat":43.3137,"lon":5.38523,"is_reserved":false,"is_disabled":false,"rental_uris":{"android":"levelo://app?vid=183ecbf2-1487-4e31-a0b0-97fce68bdb3c","ios":"levelo://app?vid=183ecbf2-1487-4e31-a0b0-97fce68bdb3c"},"vehicle_type_id":"4","last_reported":1778928821,"current_range_meters":8800,"station_id":"ce4bgt92rcd13ifvqcf0","pricing_plan_id":"cebpf4jnsgd1na2vs0mg"},{"bike_id":"577f4409-ee6b-43c3-9307-e01c3b155c8c","system_id":"levelo_inurba_marseille","lat":43.30155,"lon":5.38075,"is_reserved":false,"is_disabled":false,"rental_uris":{"android":"levelo://app?vid=577f4409-ee6b-43c3-9307-e01c3b155c8c","ios":"levelo://app?vid=577f4409-ee6b-43c3-9307-e01c3b155c8c"},"vehicle_type_id":"4","last_reported":1778928821,"current_range_meters":8800,"station_id":"ce4bgjp2rcd13ifvqbh0","pricing_plan_id":"cebpf4jnsgd1na2vs0mg"},{"bike_id":"d25109a8-a81a-4861-98fd-7c80e05338b0","system_id":"levelo_inurba_marseille","lat":43.30347,"lon":5.41891,"is_reserved":false,"is_disabled":false,"rental_uris":{"android":"levelo://app?vid=d25109a8-a81a-4861-98fd-7c80e05338b0","ios":"levelo://app?vid=d25109a8-a81a-4861-98fd-7c80e05338b0"},"vehicle_type_id":"4","last_reported":1778928821,"current_range_meters":8800,"station_id":"ce4bhop2rcd13ifvqh7g","pricing_plan_id":"cebpf4jnsgd1na2vs0mg"},{"bike_id":"03708e57-f82c-472f-9ce8-535a83c715b0","system_id":"levelo_inurba_marseille","lat":43.22933,"lon":5.35371,"is_reserved":false,"is_disabled":false,"rental_uris":{"android":"levelo://app?vid=03708e57-f82c-472f-9ce8-535a83c715b0","ios":"levelo://app?vid=03708e57-f82c-472f-9ce8-535a83c715b0"},"vehicle_type_id":"4","last_reported":1778928821,"current_range_meters":9200,"station_id":"cpo3532slgdg3j2ikp40","pricing_plan_id":"cebpf4jnsgd1na2vs0mg"},{"bike_id":"f87478db-494d-43a5-bfc5-7a3e984e86f0","system_id":"levelo_inurba_marseille","lat":43.26568,"lon":5.37256,"is_reserved":false,"is_disabled":false,"rental_uris":{"android":"levelo://app?vid=f87478db-494d-43a5-bfc5-7a3e984e86f0","ios":"levelo://app?vid=f87478db-494d-43a5-bfc5-7a3e984e86f0"},"vehicle_type_id":"4","last_reported":1778928821,"current_range_meters":9200,"station_id":"ce4bhg12rcd13ifvqf70","pricing_plan_id":"cebpf4jnsgd1na2vs0mg"},{"bike_id":"882dfd3d-587f-4e3a-b520-12d7ecd93bed","system_id":"levelo_inurba_marseille","lat":43.28616,"lon":5.35101,"is_reserved":false,"is_disabled":false,"rental_uris":{"android":"levelo://app?vid=882dfd3d-587f-4e3a-b520-12d7ecd93bed","ios":"levelo://app?vid=882dfd3d-587f-4e3a-b520-12d7ecd93bed"},"vehicle_type_id":"4","last_reported":1778928821,"current_range_meters":9200,"station_id":"ce4bhch2rcd13ifvqeug","pricing_plan_id":"cebpf4jnsgd1na2vs0mg"},{"bike_id":"1f93da94-550b-4e81-9f0e-25034fa80fd7","system_id":"levelo_inurba_marseille","lat":43.26211,"lon":5.37438,"is_reserved":false,"is_disabled":false,"rental_uris":{"android":"levelo://app?vid=1f93da94-550b-4e81-9f0e-25034fa80fd7","ios":"levelo://app?vid=1f93da94-550b-4e81-9f0e-25034fa80fd7"},"vehicle_type_id":"4","last_reported":1778928821,"current_range_meters":9200,"station_id":"ce4bhgp2rcd13ifvqfc0","pricing_plan_id":"cebpf4jnsgd1na2vs0mg"},{"bike_id":"838dedee-4cbd-4997-9d32-b652b1084416","system_id":"levelo_inurba_marseille","lat":43.28605,"lon":5.35101,"is_reserved":false,"is_disabled":false,"rental_uris":{"android":"levelo://app?vid=838dedee-4cbd-4997-9d32-b652b1084416","ios":"levelo://app?vid=838dedee-4cbd-4997-9d32-b652b1084416"},"vehicle_type_id":"4","last_reported":1778928821,"current_range_meters":9200,"station_id":"","pricing_plan_id":"cebpf4jnsgd1na2vs0mg"},{"bike_id":"39f5e5e3-bdaa-431e-ab82-46a06c8cb2ae","system_id":"levelo_inurba_marseille","lat":43.24491,"lon":5.42527,"is_reserved":false,"is_disabled":false,"rental_uris":{"android":"levelo://app?vid=39f5e5e3-bdaa-431e-ab82-46a06c8cb2ae","ios":"levelo://app?vid=39f5e5e3-bdaa-431e-ab82-46a06c8cb2ae"},"vehicle_type_id":"4","last_reported":1778928821,"current_range_meters":9200,"station_id":"st_d4a3vfp97mjs738cd8kg","pricing_plan_id":"cebpf4jnsgd1na2vs0mg"},{"bike_id":"dde3c223-d3b7-4d90-b88c-5bf1a77b7d08","system_id":"levelo_inurba_marseille","lat":43.30932,"lon":5.40149,"is_reserved":false,"is_disabled":false,"rental_uris":{"android":"levelo://app?vid=dde3c223-d3b7-4d90-b88c-5bf1a77b7d08","ios":"levelo://app?vid=dde3c223-d3b7-4d90-b88c-5bf1a77b7d08"},"vehicle_type_id":"4","last_reported":1778928821,"current_range_meters":9200,"station_id":"ce4bgvp2rcd13ifvqct0","pricing_plan_id":"cebpf4jnsgd1na2vs0mg"},{"bike_id":"b658e2e6-7f0d-4ad9-a856-e181b6fea62a","system_id":"levelo_inurba_marseille","lat":43.24714,"lon":5.38128,"is_reserved":false,"is_disabled":false,"rental_uris":{"android":"levelo://app?vid=b658e2e6-7f0d-4ad9-a856-e181b6fea62a","ios":"levelo://app?vid=b658e2e6-7f0d-4ad9-a856-e181b6fea62a"},"vehicle_type_id":"4","last_reported":1778928821,"current_range_meters":9200,"station_id":"ce4bhih2rcd13ifvqfr0","pricing_plan_id":"cebpf4jnsgd1na2vs0mg"},{"bike_id":"41ed03a9-ce21-4903-a810-ca307a88c332","system_id":"levelo_inurba_marseille","lat":43.25409,"lon":5.38333,"is_reserved":false,"is_disabled":false,"rental_uris":{"android":"levelo://app?vid=41ed03a9-ce21-4903-a810-ca307a88c332","ios":"levelo://app?vid=41ed03a9-ce21-4903-a810-ca307a88c332"},"vehicle_type_id":"4","last_reported":1778928821,"current_range_meters":9200,"station_id":"","pricing_plan_id":"cebpf4jnsgd1na2vs0mg"},{"bike_id":"3d9bf024-855c-473b-979a-b3f0e37fdc4e","system_id":"levelo_inurba_marseille","lat":43.29464,"lon":5.43313,"is_reserved":false,"is_disabled":false,"rental_uris":{"android":"levelo://app?vid=3d9bf024-855c-473b-979a-b3f0e37fdc4e","ios":"levelo://app?vid=3d9bf024-855c-473b-979a-b3f0e37fdc4e"},"vehicle_type_id":"4","last_reported":1778928821,"current_range_meters":9200,"station_id":"st_d3j5ugp08ojc73fj9d10","pricing_plan_id":"cebpf4jnsgd1na2vs0mg"},{"bike_id":"107a3c86-bc02-435d-a4ff-1da64509eb8c","system_id":"levelo_inurba_marseille","lat":43.23062,"lon":5.3549,"is_reserved":false,"is_disabled":false,"rental_uris":{"android":"levelo://app?vid=107a3c86-bc02-435d-a4ff-1da64509eb8c","ios":"levelo://app?vid=107a3c86-bc02-435d-a4ff-1da64509eb8c"},"vehicle_type_id":"4","last_reported":1778928821,"current_range_meters":9200,"station_id":"cpo3342slgdg3j2ifvpg","pricing_plan_id":"cebpf4jnsgd1na2vs0mg"},{"bike_id":"94fe4c19-2661-43c2-97ea-a4f88c5516e7","system_id":"levelo_inurba_marseille","lat":43.289209,"lon":5.383994,"is_reserved":false,"is_disabled":false,"rental_uris":{"android":"levelo://app?vid=94fe4c19-2661-43c2-97ea-a4f88c5516e7","ios":"levelo://app?vid=94fe4c19-2661-43c2-97ea-a4f88c5516e7"},"vehicle_type_id":"4","last_reported":1778928821,"current_range_meters":9200,"station_id":"ce4bh612rcd13ifvqe6g","pricing_plan_id":"cebpf4jnsgd1na2vs0mg"},{"bike_id":"ea931ebd-1bf3-4e19-9335-f087cbfbab1c","system_id":"levelo_inurba_marseille","lat":43.24467,"lon":5.42535,"is_reserved":false,"is_disabled":false,"rental_uris":{"android":"levelo://app?vid=ea931ebd-1bf3-4e19-9335-f087cbfbab1c","ios":"levelo://app?vid=ea931ebd-1bf3-4e19-9335-f087cbfbab1c"},"vehicle_type_id":"4","last_reported":1778928821,"current_range_meters":9200,"station_id":"st_d4a3vfp97mjs738cd8kg","pricing_plan_id":"cebpf4jnsgd1na2vs0mg"},{"bike_id":"cc421a39-fb72-4a11-ba11-b6c7fd9e1c12","system_id":"levelo_inurba_marseille","lat":43.3011,"lon":5.38099,"is_reserved":false,"is_disabled":false,"rental_uris":{"android":"levelo://app?vid=cc421a39-fb72-4a11-ba11-b6c7fd9e1c12","ios":"levelo://app?vid=cc421a39-fb72-4a11-ba11-b6c7fd9e1c12"},"vehicle_type_id":"4","last_reported":1778928821,"current_range_meters":9200,"station_id":"ce4bgjp2rcd13ifvqbh0","pricing_plan_id":"cebpf4jnsgd1na2vs0mg"},{"bike_id":"d3f8cb08-f3cd-416b-953a-eae8db0a255e","system_id":"levelo_inurba_marseille","lat":43.26788,"lon":5.40806,"is_reserved":false,"is_disabled":false,"rental_uris":{"android":"levelo://app?vid=d3f8cb08-f3cd-416b-953a-eae8db0a255e","ios":"levelo://app?vid=d3f8cb08-f3cd-416b-953a-eae8db0a255e"},"vehicle_type_id":"4","last_reported":1778928821,"current_range_meters":9200,"station_id":"","pricing_plan_id":"cebpf4jnsgd1na2vs0mg"},{"bike_id":"34912ff6-4669-4dfb-a3c7-58734de9e7db","system_id":"levelo_inurba_marseille","lat":43.3015,"lon":5.37405,"is_reserved":false,"is_disabled":false,"rental_uris":{"android":"levelo://app?vid=34912ff6-4669-4dfb-a3c7-58734de9e7db","ios":"levelo://app?vid=34912ff6-4669-4dfb-a3c7-58734de9e7db"},"vehicle_type_id":"4","last_reported":1778928821,"current_range_meters":9200,"station_id":"ce4bgs92rcd13ifvqcc0","pricing_plan_id":"cebpf4jnsgd1na2vs0mg"},