{"last_updated":1739138909,"ttl":60,"version":"2.2","data":{"bikes":[{"bike_id":"9b232bcd-84e3-4ef9-b08f-211b12d665ca","system_id":"levelo_inurba_marseille","lat":43.29855,"lon":5.36289,"is_reserved":false,"is_disabled":false,"rental_uris":{"android":"levelo://app?vid=9b232bcd-84e3-4ef9-b08f-211b12d665ca","ios":"levelo://app?vid=9b232bcd-84e3-4ef9-b08f-211b12d665ca"},"vehicle_type_id":"4","last_reported":1739138909,"current_range_meters":32800,"station_id":"ce4bgpp2rcd13ifvqc3g","pricing_plan_id":"cebpf4jnsgd1na2vs0mg"},{"bike_id":"48ad5b7e-c208-46f0-aedf-aa3a6d01b4ea","system_id":"levelo_inurba_marseille","lat":43.28117,"lon":5.37859,"is_reserved":false,"is_disabled":false,"rental_uris":{"android":"levelo://app?vid=48ad5b7e-c208-46f0-aedf-aa3a6d01b4ea","ios":"levelo://app?vid=48ad5b7e-c208-46f0-aedf-aa3a6d01b4ea"},"vehicle_type_id":"4","last_reported":1739138909,"current_range_meters":25600,"station_id":"ce4bha12rcd13ifvqee0","pricing_plan_id":"cebpf4jnsgd1na2vs0mg"},{"bike_id":"f539ce0b-f819-43fb-aa2e-9ae2ad77e10c","system_id":"levelo_inurba_marseille","lat":43.2993,"lon":5.36557,"is_reserved":false,"is_disabled":false,"rental_uris":{"android":"levelo://app?vid=f539ce0b-f819-43fb-aa2e-9ae2ad77e10c","ios":"levelo://app?vid=f539ce0b-f819-43fb-aa2e-9ae2ad77e10c"},"vehicle_type_id":"4","last_reported":1739138909,"current_range_meters":22000,"station_id":"ce4bgm92rcd13ifvqbr0","pricing_plan_id":"cebpf4jnsgd1na2vs0mg"},{"bike_id":"7d725cf2-0c30-4096-89b1-7c1fc4a52147","system_id":"levelo_inurba_marseille","lat":43.28678,"lon":5.36368,"is_reserved":false,"is_disabled":false,"rental_uris":{"android":"levelo://app?vid=7d725cf2-0c30-4096-89b1-7c1fc4a52147","ios":"levelo://app?vid=7d725cf2-0c30-4096-89b1-7c1fc4a52147"},"vehicle_type_id":"4","last_reported":1739138909,"current_range_meters":18800,"station_id":"ce4bhah2rcd13ifvqej0","pricing_plan_id":"cebpf4jnsgd1na2vs0mg"},{"bike_id":"cfa7f1cc-5150-48ed-843c-f6960ddad1e1","system_id":"levelo_inurba_marseille","lat":43.26497,"lon":5.39562,"is_reserved":false,"is_disabled":true,"rental_uris":{"android":"levelo://app?vid=cfa7f1cc-5150-48ed-843c-f6960ddad1e1","ios":"levelo://app?vid=cfa7f1cc-5150-48ed-843c-f6960ddad1e1"},"vehicle_type_id":"4","last_reported":1739138909,"current_range_meters":8000,"station_id":"ce4bhi12rcd13ifvqfq0","pricing_plan_id":"cebpf4jnsgd1na2vs0mg"},{"bike_id":"e06bad01-5d50-47d2-96c7-a75ef9dc120d","system_id":"levelo_inurba_marseille","lat":43.33768,"lon":5.37484,"is_reserved":false,"is_disabled":false,"rental_uris":{"android":"levelo://app?vid=e06bad01-5d50-47d2-96c7-a75ef9dc120d","ios":"levelo://app?vid=e06bad01-5d50-47d2-96c7-a75ef9dc120d"},"vehicle_type_id":"4","last_reported":1739138909,"current_range_meters":18000,"station_id":"","pricing_plan_id":"cebpf4jnsgd1na2vs0mg"},{"bike_id":"a7cfb898-c168-4772-adb6-d7ea991ef424","system_id":"levelo_inurba_marseille","lat":43.243936,"lon":5.370548,"is_reserved":false,"is_disabled":false,"rental_uris":{"android":"levelo://app?vid=a7cfb898-c168-4772-adb6-d7ea991ef424","ios":"levelo://app?vid=a7cfb898-c168-4772-adb6-d7ea991ef424"},"vehicle_type_id":"4","last_reported":1739138909,"current_range_meters":38400,"station_id":"ce4bhhh2rcd13ifvqfk0","pricing_plan_id":"cebpf4jnsgd1na2vs0mg"},{"bike_id":"c9eff8f3-a90e-4097-a2d7-a923b8eb1a2b","system_id":"levelo_inurba_marseille","lat":43.264928,"lon":5.395504,"is_reserved":false,"is_disabled":false,"rental_uris":{"android":"levelo://app?vid=c9eff8f3-a90e-4097-a2d7-a923b8eb1a2b","ios":"levelo://app?vid=c9eff8f3-a90e-4097-a2d7-a923b8eb1a2b"},"vehicle_type_id":"4","last_reported":1739138909,"current_range_meters":14400,"station_id":"ce4bhi12rcd13ifvqfq0","pricing_plan_id":"cebpf4jnsgd1na2vs0mg"},{"bike_id":"e21518e4-a98d-4012-af94-402110f75216","system_id":"levelo_inurba_marseille","lat":43.2952,"lon":5.39033,"is_reserved":false,"is_disabled":false,"rental_uris":{"android":"levelo://app?vid=e21518e4-a98d-4012-af94-402110f75216","ios":"levelo://app?vid=e21518e4-a98d-4012-af94-402110f75216"},"vehicle_type_id":"4","last_reported":1739138909,"current_range_meters":38800,"station_id":"ce4bh3p2rcd13ifvqdp0","pricing_plan_id":"cebpf4jnsgd1na2vs0mg"},{"bike_id":"b225a116-2b93-4007-b200-ac7139df231c","system_id":"levelo_inurba_marseille","lat":43.2797,"lon":5.35845,"is_reserved":false,"is_disabled":false,"rental_uris":{"android":"levelo://app?vid=b225a116-2b93-4007-b200-ac7139df231c","ios":"levelo://app?vid=b225a116-2b93-4007-b200-ac7139df231c"},"vehicle_type_id":"4","last_reported":1739138909,"current_range_meters":39200,"station_id":"ce4bhah2rcd13ifvqei0","pricing_plan_id":"cebpf4jnsgd1na2vs0mg"},{"bike_id":"952ab6ee-c71f-431a-a116-28c771dc3a24","system_id":"levelo_inurba_marseille","lat":43.27963,"lon":5.41074,"is_reserved":false,"is_disabled":true,"rental_uris":{"android":"levelo://app?vid=952ab6ee-c71f-431a-a116-28c771dc3a24","ios":"levelo://app?vid=952ab6ee-c71f-431a-a116-28c771dc3a24"},"vehicle_type_id":"4","last_reported":1739138909,"current_range_meters":0,"station_id":"ce4bhnp2rcd13ifvqh0g","pricing_plan_id":"cebpf4jnsgd1na2vs0mg"},{"bike_id":"d2ca646d-6c43-44e0-9ebb-f44c4b2c8ad4","system_id":"levelo_inurba_marseille","lat":43.33604,"lon":5.41006,"is_reserved":false,"is_disabled":false,"rental_uris":{"android":"levelo://app?vid=d2ca646d-6c43-44e0-9ebb-f44c4b2c8ad4","ios":"levelo://app?vid=d2ca646d-6c43-44e0-9ebb-f44c4b2c8ad4"},"vehicle_type_id":"4","last_reported":1739138909,"current_range_meters":22000,"station_id":"ce4bhqh2rcd13ifvqhmg","pricing_plan_id":"cebpf4jnsgd1na2vs0mg"},{"bike_id":"f2a06944-5f25-42ee-adfd-13ca46a86135","system_id":"levelo_inurba_marseille","lat":43.29021,"lon":5.35619,"is_reserved":false,"is_disabled":false,"rental_uris":{"android":"levelo://app?vid=f2a06944-5f25-42ee-adfd-13ca46a86135","ios":"levelo://app?vid=f2a06944-5f25-42ee-adfd-13ca46a86135"},"vehicle_type_id":"4","last_reported":1739138909,"current_range_meters":37600,"station_id":"ce4bhb92rcd13ifvqen0","pricing_plan_id":"cebpf4jnsgd1na2vs0mg"},{"bike_id":"1b516083-7142-4596-8591-4acfa89a635a","system_id":"levelo_inurba_marseille","lat":43.246711,"lon":5.381627,"is_reserved":false,"is_disabled":false,"rental_uris":{"android":"levelo://app?vid=1b516083-7142-4596-8591-4acfa89a635a","ios":"levelo://app?vid=1b516083-7142-4596-8591-4acfa89a635a"},"vehicle_type_id":"4","last_reported":1739138909,"current_range_meters":31200,"station_id":"ce4bhih2rcd13ifvqfr0","pricing_plan_id":"cebpf4jnsgd1na2vs0mg"},{"bike_id":"ad133f6a-2286-4493-a7cc-07a27efe882a","system_id":"levelo_inurba_marseille","lat":43.31785,"lon":5.40466,"is_reserved":false,"is_disabled":false,"rental_uris":{"android":"levelo://app?vid=ad133f6a-2286-4493-a7cc-07a27efe882a","ios":"levelo://app?vid=ad133f6a-2286-4493-a7cc-07a27efe882a"},"vehicle_type_id":"4","last_reported":1739138909,"current_range_meters":32800,"station_id":"ce4bh012rcd13ifvqd00","pricing_plan_id":"cebpf4jnsgd1na2vs0mg"},{"bike_id":"2a9d100a-1d87-435a-bb91-1b5ca2697470","system_id":"levelo_inurba_marseille","lat":43.29597,"lon":5.3998,"is_reserved":false,"is_disabled":false,"rental_uris":{"android":"levelo://app?vid=2a9d100a-1d87-435a-bb91-1b5ca2697470","ios":"levelo://app?vid=2a9d100a-1d87-435a-bb91-1b5ca2697470"},"vehicle_type_id":"4","last_reported":1739138909,"current_range_meters":38800,"station_id":"ce4bh312rcd13ifvqdj0","pricing_plan_id":"cebpf4jnsgd1na2vs0mg"},{"bike_id":"cbf6e554-c810-49c7-9240-6e0cd2acf3fb","system_id":"levelo_inurba_marseille","lat":43.27812,"lon":5.40707,"is_reserved":false,"is_disabled":false,"rental_uris":{"android":"levelo://app?vid=cbf6e554-c810-49c7-9240-6e0cd2acf3fb","ios":"levelo://app?vid=cbf6e554-c810-49c7-9240-6e0cd2acf3fb"},"vehicle_type_id":"4","last_reported":1739138909,"current_range_meters":12800,"station_id":"ce4bhnh2rcd13ifvqgtg","pricing_plan_id":"cebpf4jnsgd1na2vs0mg"},{"bike_id":"27b79768-bfb5-4acf-aea3-498440a8fca1","system_id":"levelo_inurba_marseille","lat":43.30957,"lon":5.39045,"is_reserved":false,"is_disabled":false,"rental_uris":{"android":"levelo://app?vid=27b79768-bfb5-4acf-aea3-498440a8fca1","ios":"levelo://app?vid=27b79768-bfb5-4acf-aea3-498440a8fca1"},"vehicle_type_id":"4","last_reported":1739138909,"current_range_meters":14000,"station_id":"","pricing_plan_id":"cebpf4jnsgd1na2vs0mg"},{"bike_id":"e8a3e162-b376-4472-9ccd-6708ad711574","system_id":"levelo_inurba_marseille","lat":43.30145,"lon":5.37426,"is_reserved":false,"is_disabled":false,"rental_uris":{"android":"levelo://app?vid=e8a3e162-b376-4472-9ccd-6708ad711574","ios":"levelo://app?vid=e8a3e162-b376-4472-9ccd-6708ad711574"},"vehicle_type_id":"4","last_reported":1739138909,"current_range_meters":38800,"station_id":"ce4bgs92rcd13ifvqcc0","pricing_plan_id":"cebpf4jnsgd1na2vs0mg"},{"bike_id":"d193eb37-f71a-4a70-8312-716e5260a8fe","system_id":"levelo_inurba_marseille","lat":43.29095,"lon":5.38195,"is_reserved":false,"is_disabled":false,"rental_uris":{"android":"levelo://app?vid=d193eb37-f71a-4a70-8312-716e5260a8fe","ios":"levelo://app?vid=d193eb37-f71a-4a70-8312-716e5260a8fe"},"vehicle_type_id":"4","last_reported":1739138909,"current_range_meters":38800,"station_id":"ce4bh512rcd13ifvqe2g","pricing_plan_id":"cebpf4jnsgd1na2vs0mg"},{"bike_id":"734ad8ef-8f3b-4a01-b800-99f2e0cd8cb3","system_id":"levelo_inurba_marseille","lat":43.28557,"lon":5.36724,"is_reserved":false,"is_disabled":false,"rental_uris":{"android":"levelo://app?vid=734ad8ef-8f3b-4a01-b800-99f2e0cd8cb3","ios":"levelo://app?vid=734ad8ef-8f3b-4a01-b800-99f2e0cd8cb3"},"vehicle_type_id":"4","last_reported":1739138909,"current_range_meters":22800,"station_id":"","pricing_plan_id":"cebpf4jnsgd1na2vs0mg"},{"bike_id":"ab477c97-eb80-4558-9f73-598dbf16e965","system_id":"levelo_inurba_marseille","lat":43.29576,"lon":5.36774,"is_reserved":false,"is_disabled":false,"rental_uris":{"android":"levelo://app?vid=ab477c97-eb80-4558-9f73-598dbf16e965","ios":"levelo://app?vid=ab477c97-eb80-4558-9f73-598dbf16e965"},"vehicle_type_id":"4","last_reported":1739138909,"current_range_meters":16000,"station_id":"ce4bgph2rcd13ifvqc2g","pricing_plan_id":"cebpf4jnsgd1na2vs0mg"},{"bike_id":"cc5be222-f5b9-4564-8357-792e36ef3901","system_id":"levelo_inurba_marseille","lat":43.28043,"lon":5.36959,"is_reserved":false,"is_disabled":false,"rental_uris":{"android":"levelo://app?vid=cc5be222-f5b9-4564-8357-792e36ef3901","ios":"levelo://app?vid=cc5be222-f5b9-4564-8357-792e36ef3901"},"vehicle_type_id":"4","last_reported":1739138909,"current_range_meters":38800,"station_id":"ce4bha12rcd13ifvqef0","pricing_plan_id":"cebpf4jnsgd1na2vs0mg"},{"bike_id":"bf1166a6-6d02-4b59-a461-8ee8d9697ddf","system_id":"levelo_inurba_marseille","lat":43.23955,"lon":5.36651,"is_reserved":false,"is_disabled":false,"rental_uris":{"android":"levelo://app?vid=bf1166a6-6d02-4b59-a461-8ee8d9697ddf","ios":"levelo://app?vid=bf1166a6-6d02-4b59-a461-8ee8d9697ddf"},"vehicle_type_id":"4","last_reported":1739138909,"current_range_meters":38800,"station_id":"ce4bhi12rcd13ifvqfp0","pricing_plan_id":"cebpf4jnsgd1na2vs0mg"},{"bike_id":"145e1ddc-c4e5-4c14-a47c-5f54ecd341fb","system_id":"levelo_inurba_marseille","lat":43.26188,"lon":5.37458,"is_reserved":false,"is_disabled":false,"rental_uris":{"android":"levelo://app?vid=145e1ddc-c4e5-4c14-a47c-5f54ecd341fb","ios":"levelo://app?vid=145e1ddc-c4e5-4c14-a47c-5f54ecd341fb"},"vehicle_type_id":"4","last_reported":1739138909,"current_range_meters":25200,"station_id":"ce4bhgp2rcd13ifvqfc0","pricing_plan_id":"cebpf4jnsgd1na2vs0mg"},{"bike_id":"d23673f6-efcc-4090-96d5-d04104e5caab","system_id":"levelo_inurba_marseille","lat":43.29766,"lon":5.37109,"is_reserved":false,"is_disabled":false,"rental_uris":{"android":"levelo://app?vid=d23673f6-efcc-4090-96d5-d04104e5caab","ios":"levelo://app?vid=d23673f6-efcc-4090-96d5-d04104e5caab"},"vehicle_type_id":"4","last_reported":1739138909,"current_range_meters":20800,"station_id":"ce4bgop2rcd13ifvqc1g","pricing_plan_id":"cebpf4jnsgd1na2vs0mg"},{"bike_id":"c7214087-f338-4aa0-87d4-4c782ee32a35","system_id":"levelo_inurba_marseille","lat":43.23935,"lon":5.36639,"is_reserved":false,"is_disabled":false,"rental_uris":{"android":"levelo://app?vid=c7214087-f338-4aa0-87d4-4c782ee32a35","ios":"levelo://app?vid=c7214087-f338-4aa0-87d4-4c782ee32a35"},"vehicle_type_id":"4","last_reported":1739138909,"current_range_meters":38800,"station_id":"ce4bhi12rcd13ifvqfp0","pricing_plan_id":"cebpf4jnsgd1na2vs0mg"},{"bike_id":"17ac8b25-d860-410b-9dd3-c5eb83a21260","system_id":"levelo_inurba_marseille","lat":43.30245,"lon":5.40061,"is_reserved":false,"is_disabled":false,"rental_uris":{"android":"levelo://app?vid=17ac8b25-d860-410b-9dd3-c5eb83a21260","ios":"levelo://app?vid=17ac8b25-d860-410b-9dd3-c5eb83a21260"},"vehicle_type_id":"4","last_reported":1739138909,"current_range_meters":38000,"station_id":"ce4bgvh2rcd13ifvqcs0","pricing_plan_id":"cebpf4jnsgd1na2vs0mg"},{"bike_id":"9fc8715c-1f2d-42c5-9ab4-6c7456cd97de","system_id":"levelo_inurba_marseille","lat":43.26632,"lon":5.39292,"is_reserved":false,"is_disabled":false,"rental_uris":{"android":"levelo://app?vid=9fc8715c-1f2d-42c5-9ab4-6c7456cd97de","ios":"levelo://app?vid=9fc8715c-1f2d-42c5-9ab4-6c7456cd97de"},"vehicle_type_id":"4","last_reported":1739138909,"current_range_meters":8800,"station_id":"","pricing_plan_id":"cebpf4jnsgd1na2vs0mg"},{"bike_id":"65a7c23e-796e-448a-9c20-43066b092b67","system_id":"levelo_inurba_marseille","lat":43.23954,"lon":5.36636,"is_reserved":false,"is_disabled":false,"rental_uris":{"android":"levelo://app?vid=65a7c23e-796e-448a-9c20-43066b092b67","ios":"levelo://app?vid=65a7c23e-796e-448a-9c20-43066b092b67"},"vehicle_type_id":"4","last_reported":1739138909,"current_range_meters":28000,"station_id":"ce4bhi12rcd13ifvqfp0","pricing_plan_id":"cebpf4jnsgd1na2vs0mg"},{"bike_id":"caa5df8d-7e03-466c-a218-989234e1b71c","system_id":"levelo_inurba_marseille","lat":43.32358,"lon":5.3676,"is_reserved":false,"is_disabled":false,"rental_uris":{"android":"levelo://app?vid=caa5df8d-7e03-466c-a218-989234e1b71c","ios":"levelo://app?vid=caa5df8d-7e03-466c-a218-989234e1b71c"},"vehicle_type_id":"4","last_reported":1739138909,"current_range_meters":36000,"station_id":"ce4bhsh2rcd13ifvqi2g","pricing_plan_id":"cebpf4jnsgd1na2vs0mg"},{"bike_id":"0af02bd1-6d9c-47e0-ae5d-8dea750df397","system_id":"levelo_inurba_marseille","lat":43.28422,"lon":5.37535,"is_reserved":false,"is_disabled":false,"rental_uris":{"android":"levelo://app?vid=0af02bd1-6d9c-47e0-ae5d-8dea750df397","ios":"levelo://app?vid=0af02bd1-6d9c-47e0-ae5d-8dea750df397"},"vehicle_type_id":"4","last_reported":1739138909,"current_range_meters":18800,"station_id":"ce4bh412rcd13ifvqds0","pricing_plan_id":"cebpf4jnsgd1na2vs0mg"},{"bike_id":"309e9d9b-33b9-41cf-aba4-3051ad31e641","system_id":"levelo_inurba_marseille","lat":43.28466,"lon":5.38387,"is_reserved":false,"is_disabled":false,"rental_uris":{"android":"levelo://app?vid=309e9d9b-33b9-41cf-aba4-3051ad31e641","ios":"levelo://app?vid=309e9d9b-33b9-41cf-aba4-3051ad31e641"},"vehicle_type_id":"4","last_reported":1739138909,"current_range_meters":36800,"station_id":"ce4bh512rcd13ifvqe3g","pricing_plan_id":"cebpf4jnsgd1na2vs0mg"},{"bike_id":"2d6a2e4c-47bb-4bf8-8e22-1e9c987f8b16","system_id":"levelo_inurba_marseille","lat":43.2396,"lon":5.3664,"is_reserved":false,"is_disabled":false,"rental_uris":{"android":"levelo://app?vid=2d6a2e4c-47bb-4bf8-8e22-1e9c987f8b16","ios":"levelo://app?vid=2d6a2e4c-47bb-4bf8-8e22-1e9c987f8b16"},"vehicle_type_id":"4","last_reported":1739138909,"current_range_meters":6400,"station_id":"ce4bhi12rcd13ifvqfp0","pricing_plan_id":"cebpf4jnsgd1na2vs0mg"},{"bike_id":"1c74561b-a6f6-4c2e-bc62-f72ba306b05e","system_id":"levelo_inurba_marseille","lat":43.28442,"lon":5.39235,"is_reserved":false,"is_disabled":false,"rental_uris":{"android":"levelo://app?vid=1c74561b-a6f6-4c2e-bc62-f72ba306b05e","ios":"levelo://app?vid=1c74561b-a6f6-4c2e-bc62-f72ba306b05e"},"vehicle_type_id":"4","last_reported":1739138909,"current_range_meters":38800,"station_id":"ce4bhoh2rcd13ifvqh5g","pricing_plan_id":"cebpf4jnsgd1na2vs0mg"},{"bike_id":"605b43cc-2917-4b41-830c-35183c4d48dc","system_id":"levelo_inurba_marseille","lat":43.25589,"lon":5.38283,"is_reserved":false,"is_disabled":false,"rental_uris":{"android":"levelo://app?vid=605b43cc-2917-4b41-830c-35183c4d48dc","ios":"levelo://app?vid=605b43cc-2917-4b41-830c-35183c4d48dc"},"vehicle_type_id":"4","last_reported":1739138909,"current_range_meters":23200,"station_id":"ce4bhih2rcd13ifvqfs0","pricing_plan_id":"cebpf4jnsgd1na2vs0mg"},{"bike_id":"c53aabef-2f2b-4451-8277-85a4bfc94fb8","system_id":"levelo_inurba_marseille","lat":43.28469,"lon":5.38416,"is_reserved":false,"is_disabled":false,"rental_uris":{"android":"levelo://app?vid=c53aabef-2f2b-4451-8277-85a4bfc94fb8","ios":"levelo://app?vid=c53aabef-2f2b-4451-8277-85a4bfc94fb8"},"vehicle_type_id":"4","last_reported":1739138909,"current_range_meters":38800,"station_id":"ce4bh512rcd13ifvqe3g","pricing_plan_id":"cebpf4jnsgd1na2vs0mg"},{"bike_id":"ecdc2c1c-a479-46bb-a6b7-dbc77a937bb6","system_id":"levelo_inurba_marseille","lat":43.29395,"lon":5.37853,"is_reserved":false,"is_disabled":false,"rental_uris":{"android":"levelo://app?vid=ecdc2c1c-a479-46bb-a6b7-dbc77a937bb6","ios":"levelo://app?vid=ecdc2c1c-a479-46bb-a6b7-dbc77a937bb6"},"vehicle_type_id":"4","last_reported":1739138909,"current_range_meters":36800,"station_id":"ce4bgjh2rcd13ifvqbf0","pricing_plan_id":"cebpf4jnsgd1na2vs0mg"},{"bike_id":"3ba26bce-5451-4186-8570-150535f6ec60","system_id":"levelo_inurba_marseille","lat":43.291895,"lon":5.35801,"is_reserved":false,"is_disabled":true,"rental_uris":{"android":"levelo://app?vid=3ba26bce-5451-4186-8570-150535f6ec60","ios":"levelo://app?vid=3ba26bce-5451-4186-8570-150535f6ec60"},"vehicle_type_id":"4","last_reported":1739138909,"current_range_meters":38800,"station_id":"ce4bhb12rcd13ifvqel0","pricing_plan_id":"cebpf4jnsgd1na2vs0mg"},{"bike_id":"4a4bde4d-ebaf-497c-9433-602988098783","system_id":"levelo_inurba_marseille","lat":43.25063,"lon":5.39499,"is_reserved":false,"is_disabled":false,"rental_uris":{"android":"levelo://app?vid=4a4bde4d-ebaf-497c-9433-602988098783","ios":"levelo://app?vid=4a4bde4d-ebaf-497c-9433-602988098783"},"vehicle_type_id":"4","last_reported":1739138909,"current_range_meters":24000,"station_id":"ce4bhm12rcd13ifvqgkg","pricing_plan_id":"cebpf4jnsgd1na2vs0mg"},{"bike_id":"f7664c8b-6032-41b2-9355-bc31c4ae36c6","system_id":"levelo_inurba_marseille","lat":43.30873,"lon":5.36839,"is_reserved":false,"is_disabled":false,"rental_uris":{"android":"levelo://app?vid=f7664c8b-6032-41b2-9355-bc31c4ae36c6","ios":"levelo://app?vid=f7664c8b-6032-41b2-9355-bc31c4ae36c6"},"vehicle_type_id":"4","last_reported":1739138909,"current_range_meters":39200,"station_id":"ce4bgn92rcd13ifvqbvg","pricing_plan_id":"cebpf4jnsgd1na2vs0mg"},{"bike_id":"474b2b53-423a-41c0-972d-ef66966d1287","system_id":"levelo_inurba_marseille","lat":43.26555,"lon":5.37303,"is_reserved":false,"is_disabled":true,"rental_uris":{"android":"levelo://app?vid=474b2b53-423a-41c0-972d-ef66966d1287","ios":"levelo://app?vid=474b2b53-423a-41c0-972d-ef66966d1287"},"vehicle_type_id":"4","last_reported":1739138909,"current_range_meters":32800,"station_id":"ce4bhg12rcd13ifvqf70","pricing_plan_id":"cebpf4jnsgd1na2vs0mg"},{"bike_id":"cbaf70f6-6a39-4b18-8e74-7e8e028a22ea","system_id":"levelo_inurba_marseille","lat":43.25864,"lon":5.39914,"is_reserved":false,"is_disabled":false,"rental_uris":{"android":"levelo://app?vid=cbaf70f6-6a39-4b18-8e74-7e8e028a22ea","ios":"levelo://app?vid=cbaf70f6-6a39-4b18-8e74-7e8e028a22ea"},"vehicle_type_id":"4","last_reported":1739138909,"current_range_meters":39200,"station_id":"ce4bhl92rcd13ifvqghg","pricing_plan_id":"cebpf4jnsgd1na2vs0mg"},{"bike_id":"eeada6f9-bc17-47bf-a657-75c63cc565ad","system_id":"levelo_inurba_marseille","lat":43.28999,"lon":5.35586,"is_reserved":false,"is_disabled":true,"rental_uris":{"android":"levelo://app?vid=eeada6f9-bc17-47bf-a657-75c63cc565ad","ios":"levelo://app?vid=eeada6f9-bc17-47bf-a657-75c63cc565ad"},"vehicle_type_id":"4","last_reported":1739138909,"current_range_meters":37600,"station_id":"ce4bhb92rcd13ifvqen0","pricing_plan_id":"cebpf4jnsgd1na2vs0mg"},{"bike_id":"01d0c51b-0d20-4b41-b841-735cf2170247","system_id":"levelo_inurba_marseille","lat":43.32385,"lon":5.40613,"is_reserved":false,"is_disabled":false,"rental_uris":{"android":"levelo://app?vid=01d0c51b-0d20-4b41-b841-735cf2170247","ios":"levelo://app?vid=01d0c51b-0d20-4b41-b841-735cf2170247"},"vehicle_type_id":"4","last_reported":1739138909,"current_range_meters":28000,"station_id":"","pricing_plan_id":"cebpf4jnsgd1na2vs0mg"},{"bike_id":"2ebd233c-fd15-4f13-9700-c155c053523f","system_id":"levelo_inurba_marseille","lat":43.259244,"lon":5.409008,"is_reserved":false,"is_disabled":true,"rental_uris":{"android":"levelo://app?vid=2ebd233c-fd15-4f13-9700-c155c053523f","ios":"levelo://app?vid=2ebd233c-fd15-4f13-9700-c155c053523f"},"vehicle_type_id":"4","last_reported":1739138909,"current_range_meters":16800,"station_id":"ce4bhm92rcd13ifvqglg","pricing_plan_id":"cebpf4jnsgd1na2vs0mg"},{"bike_id":"bb334525-e89b-47d3-8d25-ea366febad7d","system_id":"levelo_inurba_marseille","lat":43.30237,"lon":5.4006,"is_reserved":false,"is_disabled":false,"rental_uris":{"android":"levelo://app?vid=bb334525-e89b-47d3-8d25-ea366febad7d","ios":"levelo://app?vid=bb334525-e89b-47d3-8d25-ea366febad7d"},"vehicle_type_id":"4","last_reported":1739138909,"current_range_meters":31200,"station_id":"ce4bgvh2rcd13ifvqcs0","pricing_plan_id":"cebpf4jnsgd1na2vs0mg"},{"bike_id":"de9d362b-1d25-46c9-9024-4b8baa1f47f1","system_id":"levelo_inurba_marseille","lat":43.28728,"lon":5.37396,"is_reserved":false,"is_disabled":false,"rental_uris":{"android":"levelo://app?vid=de9d362b-1d25-46c9-9024-4b8baa1f47f1","ios":"levelo://app?vid=de9d362b-1d25-46c9-9024-4b8baa1f47f1"},"vehicle_type_id":"4","last_reported":1739138909,"current_range_meters":39200,"station_id":"ce4bh3p2rcd13ifvqdq0","pricing_plan_id":"cebpf4jnsgd1na2vs0mg"},{"bike_id":"d415a4d3-8eac-442d-b68c-547e0ba97d1b","system_id":"levelo_inurba_marseille","lat":43.27985,"lon":5.44226,"is_reserved":false,"is_disabled":false,"rental_uris":{"android":"levelo://app?vid=d415a4d3-8eac-442d-b68c-547e0ba97d1b","ios":"levelo://app?vid=d415a4d3-8eac-442d-b68c-547e0ba97d1b"},"vehicle_type_id":"4","last_reported":1739138909,"current_range_meters":6400,"station_id":"","pricing_plan_id":"cebpf4jnsgd1na2vs0mg"},{"bike_id":"62b2f978-50a9-419a-9077-4f080baec81c","system_id":"levelo_inurba_marseille","lat":43.28343,"lon":5.38099,"is_reserved":false,"is_disabled":false,"rental_uris":{"android":"levelo://app?vid=62b2f978-50a9-419a-9077-4f080baec81c","ios":"levelo://app?vid=62b2f978-50a9-419a-9077-4f080baec81c"},"vehicle_type_id":"4","last_reported":1739138909,"current_range_meters":30400,"station_id":"ce4bh412rcd13ifvqdr0","pricing_plan_id":"cebpf4jnsgd1na2vs0mg"},{"bike_id":"c13ae62e-d5d6-4d3f-b979-0be4fe4644ed","system_id":"levelo_inurba_marseille","lat":43.24701,"lon":5.38189,"is_reserved":false,"is_disabled":false,"rental_uris":{"android":"levelo://app?vid=c13ae62e-d5d6-4d3f-b979-0be4fe4644ed","ios":"levelo://app?vid=c13ae62e-d5d6-4d3f-b979-0be4fe4644ed"},"vehicle_type_id":"4","last_reported":1739138909,"current_range_meters":12800,"station_id":"ce4bhih2rcd13ifvqfr0","pricing_plan_id":"cebpf4jnsgd1na2vs0mg"},{"bike_id":"bd8ca020-fda8-4805-b382-496c28d5da7f","system_id":"levelo_inurba_marseille","lat":43.30917,"lon":5.39034,"is_reserved":false,"is_disabled":true,"rental_uris":{"android":"levelo://app?vid=bd8ca020-fda8-4805-b382-496c28d5da7f","ios":"levelo://app?vid=bd8ca020-fda8-4805-b382-496c28d5da7f"},"vehicle_type_id":"4","last_reported":1739138909,"current_range_meters":24000,"station_id":"","pricing_plan_id":"cebpf4jnsgd1na2vs0mg"},{"bike_id":"2ba197c5-59fe-4a9c-ba96-b1806efdcd97","system_id":"levelo_inurba_marseille","lat":43.24159,"lon":5.39678,"is_reserved":false,"is_disabled":false,"rental_uris":{"android":"levelo://app?vid=2ba197c5-59fe-4a9c-ba96-b1806efdcd97","ios":"levelo://app?vid=2ba197c5-59fe-4a9c-ba96-b1806efdcd97"},"vehicle_type_id":"4","last_reported":1739138909,"current_range_meters":8400,"station_id":"ce4bhn12rcd13ifvqgpg","pricing_plan_id":"cebpf4jnsgd1na2vs0mg"},{"bike_id":"1d9b9c9d-363a-40b7-904e-bb37859e7849","system_id":"levelo_inurba_marseille","lat":43.24813,"lon":5.37469,"is_reserved":false,"is_disabled":false,"rental_uris":{"android":"levelo://app?vid=1d9b9c9d-363a-40b7-904e-bb37859e7849","ios":"levelo://app?vid=1d9b9c9d-363a-40b7-904e-bb37859e7849"},"vehicle_type_id":"4","last_reported":1739138909,"current_range_meters":22800,"station_id":"ce4bhgh2rcd13ifvqfb0","pricing_plan_id":"cebpf4jnsgd1na2vs0mg"},{"bike_id":"d673d385-256b-4786-9ff8-e7f9b22ac5f8","system_id":"levelo_inurba_marseille","lat":43.2396,"lon":5.3663,"is_reserved":false,"is_disabled":false,"rental_uris":{"android":"levelo://app?vid=d673d385-256b-4786-9ff8-e7f9b22ac5f8","ios":"levelo://app?vid=d673d385-256b-4786-9ff8-e7f9b22ac5f8"},"vehicle_type_id":"4","last_reported":1739138909,"current_range_meters":36400,"station_id":"ce4bhi12rcd13ifvqfp0","pricing_plan_id":"cebpf4jnsgd1na2vs0mg"},{"bike_id":"674ce223-46fe-4be2-a344-d5864277e5b4","system_id":"levelo_inurba_marseille","lat":43.29534,"lon":5.39029,"is_reserved":false,"is_disabled":false,"rental_uris":{"android":"levelo://app?vid=674ce223-46fe-4be2-a344-d5864277e5b4","ios":"levelo://app?vid=674ce223-46fe-4be2-a344-d5864277e5b4"},"vehicle_type_id":"4","last_reported":1739138909,"current_range_meters":38800,"station_id":"ce4bh3p2rcd13ifvqdp0","pricing_plan_id":"cebpf4jnsgd1na2vs0mg"},{"bike_id":"c3297162-1cce-4aee-9ab9-0cb6b8c8d4b6","system_id":"levelo_inurba_marseille","lat":43.29547,"lon":5.42279,"is_reserved":false,"is_disabled":false,"rental_uris":{"android":"levelo://app?vid=c3297162-1cce-4aee-9ab9-0cb6b8c8d4b6","ios":"levelo://app?vid=c3297162-1cce-4aee-9ab9-0cb6b8c8d4b6"},"vehicle_type_id":"4","last_reported":1739138909,"current_range_meters":32800,"station_id":"ce4bhph2rcd13ifvqhdg","pricing_plan_id":"cebpf4jnsgd1na2vs0mg"},{"bike_id":"89912e32-c5f0-448f-82d2-e236e4d6d653","system_id":"levelo_inurba_marseille","lat":43.28254,"lon":5.40776,"is_reserved":false,"is_disabled":true,"rental_uris":{"android":"levelo://app?vid=89912e32-c5f0-448f-82d2-e236e4d6d653","ios":"levelo://app?vid=89912e32-c5f0-448f-82d2-e236e4d6d653"},"vehicle_type_id":"4","last_reported":1739138909,"current_range_meters":0,"station_id":"","pricing_plan_id":"cebpf4jnsgd1na2vs0mg"},{"bike_id":"4bd291fb-ee92-4d1f-a3ca-beb12487822b","system_id":"levelo_inurba_marseille","lat":43.31696,"lon":5.37764,"is_reserved":false,"is_disabled":false,"rental_uris":{"android":"levelo://app?vid=4bd291fb-ee92-4d1f-a3ca-beb12487822b","ios":"levelo://app?vid=4bd291fb-ee92-4d1f-a3ca-beb12487822b"},"vehicle_type_id":"4","last_reported":1739138909,"current_range_meters":39200,"station_id":"ce4bgth2rcd13ifvqch0","pricing_plan_id":"cebpf4jnsgd1na2vs0mg"},{"bike_id":"afb7d23d-3672-4b9e-8299-48ecc1b6574f","system_id":"levelo_inurba_marseille","lat":43.25864,"lon":5.39918,"is_reserved":false,"is_disabled":false,"rental_uris":{"android":"levelo://app?vid=afb7d23d-3672-4b9e-8299-48ecc1b6574f","ios":"levelo://app?vid=afb7d23d-3672-4b9e-8299-48ecc1b6574f"},"vehicle_type_id":"4","last_reported":1739138909,"current_range_meters":17600,"station_id":"ce4bhl92rcd13ifvqghg","pricing_plan_id":"cebpf4jnsgd1na2vs0mg"},{"bike_id":"e7e14db6-3bef-453a-aab6-06ade3cdd6b0","system_id":"levelo_inurba_marseille","lat":43.24405,"lon":5.44127,"is_reserved":false,"is_disabled":true,"rental_uris":{"android":"levelo://app?vid=e7e14db6-3bef-453a-aab6-06ade3cdd6b0","ios":"levelo://app?vid=e7e14db6-3bef-453a-aab6-06ade3cdd6b0"},"vehicle_type_id":"4","last_reported":1739138909,"current_range_meters":0,"station_id":"","pricing_plan_id":"cebpf4jnsgd1na2vs0mg"},{"bike_id":"a08a98ae-ca74-472f-b632-031f9209c0f2","system_id":"levelo_inurba_marseille","lat":43.27917,"lon":5.39595,"is_reserved":false,"is_disabled":false,"rental_uris":{"android":"levelo://app?vid=a08a98ae-ca74-472f-b632-031f9209c0f2","ios":"levelo://app?vid=a08a98ae-ca74-472f-b632-031f9209c0f2"},"vehicle_type_id":"4","last_reported":1739138909,"current_range_meters":20800,"station_id":"ce4bhf92rcd13ifvqf40","pricing_plan_id":"cebpf4jnsgd1na2vs0mg"},{"bike_id":"fb5a704f-a51b-458c-a6e9-f5586a789b94","system_id":"levelo_inurba_marseille","lat":43.24161,"lon":5.36473,"is_reserved":false,"is_disabled":false,"rental_uris":{"android":"levelo://app?vid=fb5a704f-a51b-458c-a6e9-f5586a789b94","ios":"levelo://app?vid=fb5a704f-a51b-458c-a6e9-f5586a789b94"},"vehicle_type_id":"4","last_reported":1739138909,"current_range_meters":32000,"station_id":"","pricing_plan_id":"cebpf4jnsgd1na2vs0mg"},{"bike_id":"99a2797b-392c-45fd-b5b4-178139f4e513","system_id":"levelo_inurba_marseille","lat":43.28924,"lon":5.36432,"is_reserved":false,"is_disabled":false,"rental_uris":{"android":"levelo://app?vid=99a2797b-392c-45fd-b5b4-178139f4e513","ios":"levelo://app?vid=99a2797b-392c-45fd-b5b4-178139f4e513"},"vehicle_type_id":"4","last_reported":1739138909,"current_range_meters":11200,"station_id":"","pricing_plan_id":"cebpf4jnsgd1na2vs0mg"},{"bike_id":"bfd84249-0515-4ab9-801d-3a8bb75b155d","system_id":"levelo_inurba_marseille","lat":43.27567,"lon":5.38408,"is_reserved":false,"is_disabled":false,"rental_uris":{"android":"levelo://app?vid=bfd84249-0515-4ab9-801d-3a8bb75b155d","ios":"levelo://app?vid=bfd84249-0515-4ab9-801d-3a8bb75b155d"},"vehicle_type_id":"4","last_reported":1739138909,"current_range_meters":36800,"station_id":"ce4bhh92rcd13ifvqfi0","pricing_plan_id":"cebpf4jnsgd1na2vs0mg"},{"bike_id":"badda3c4-70ef-41fb-b835-c3b6b3ba2d76","system_id":"levelo_inurba_marseille","lat":43.265003,"lon":5.39574,"is_reserved":false,"is_disabled":false,"rental_uris":{"android":"levelo://app?vid=badda3c4-70ef-41fb-b835-c3b6b3ba2d76","ios":"levelo://app?vid=badda3c4-70ef-41fb-b835-c3b6b3ba2d76"},"vehicle_type_id":"4","last_reported":1739138909,"current_range_meters":38800,"station_id":"ce4bhi12rcd13ifvqfq0","pricing_plan_id":"cebpf4jnsgd1na2vs0mg"},{"bike_id":"a9f65387-f128-48a1-bc09-415b86ce9420","system_id":"levelo_inurba_marseille","lat":43.284127,"lon":5.375166,"is_reserved":false,"is_disabled":false,"rental_uris":{"android":"levelo://app?vid=a9f65387-f128-48a1-bc09-415b86ce9420","ios":"levelo://app?vid=a9f65387-f128-48a1-bc09-415b86ce9420"},"vehicle_type_id":"4","last_reported":1739138909,"current_range_meters":39200,"station_id":"ce4bh412rcd13ifvqds0","pricing_plan_id":"cebpf4jnsgd1na2vs0mg"},{"bike_id":"ab54e2d0-4c2c-486a-84c7-811ed9008ddc","system_id":"levelo_inurba_marseille","lat":43.27956,"lon":5.42355,"is_reserved":false,"is_disabled":true,"rental_uris":{"android":"levelo://app?vid=ab54e2d0-4c2c-486a-84c7-811ed9008ddc","ios":"levelo://app?vid=ab54e2d0-4c2c-486a-84c7-811ed9008ddc"},"vehicle_type_id":"4","last_reported":1739138909,"current_range_meters":0,"station_id":"","pricing_plan_id":"cebpf4jnsgd1na2vs0mg"},{"bike_id":"04e9976f-fc67-4b3f-9a5f-08268a5eb49c","system_id":"levelo_inurba_marseille","lat":43.29427,"lon":5.38608,"is_reserved":false,"is_disabled":true,"rental_uris":{"android":"levelo://app?vid=04e9976f-fc67-4b3f-9a5f-08268a5eb49c","ios":"levelo://app?vid=04e9976f-fc67-4b3f-9a5f-08268a5eb49c"},"vehicle_type_id":"4","last_reported":1739138909,"current_range_meters":36000,"station_id":"ce4bh2h2rcd13ifvqdh0","pricing_plan_id":"cebpf4jnsgd1na2vs0mg"},{"bike_id":"11da167c-6357-4f03-843b-90d72159d0db","system_id":"levelo_inurba_marseille","lat":43.305933,"lon":5.393543,"is_reserved":false,"is_disabled":false,"rental_uris":{"android":"levelo://app?vid=11da167c-6357-4f03-843b-90d72159d0db","ios":"levelo://app?vid=11da167c-6357-4f03-843b-90d72159d0db"},"vehicle_type_id":"4","last_reported":1739138909,"current_range_meters":11200,"station_id":"ce4bh0p2rcd13ifvqd80","pricing_plan_id":"cebpf4jnsgd1na2vs0mg"},{"bike_id":"61b62a5a-5bc2-487b-b92d-7b20142491cd","system_id":"levelo_inurba_marseille","lat":43.28745,"lon":5.40013,"is_reserved":false,"is_disabled":true,"rental_uris":{"android":"levelo://app?vid=61b62a5a-5bc2-487b-b92d-7b20142491cd","ios":"levelo://app?vid=61b62a5a-5bc2-487b-b92d-7b20142491cd"},"vehicle_type_id":"4","last_reported":1739138909,"current_range_meters":37600,"station_id":"ce4bho92rcd13ifvqh3g","pricing_plan_id":"cebpf4jnsgd1na2vs0mg"},{"bike_id":"b5135d91-2dbc-4326-bda2-20e06e74cbe2","system_id":"levelo_inurba_marseille","lat":43.29584,"lon":5.37026,"is_reserved":false,"is_disabled":false,"rental_uris":{"android":"levelo://app?vid=b5135d91-2dbc-4326-bda2-20e06e74cbe2","ios":"levelo://app?vid=b5135d91-2dbc-4326-bda2-20e06e74cbe2"},"vehicle_type_id":"4","last_reported":1739138909,"current_range_meters":14400,"station_id":"","pricing_plan_id":"cebpf4jnsgd1na2vs0mg"},{"bike_id":"167cf25b-6766-480f-a5ed-9c09e9c92509","system_id":"levelo_inurba_marseille","lat":43.26681,"lon":5.38258,"is_reserved":false,"is_disabled":false,"rental_uris":{"android":"levelo://app?vid=167cf25b-6766-480f-a5ed-9c09e9c92509","ios":"levelo://app?vid=167cf25b-6766-480f-a5ed-9c09e9c92509"},"vehicle_type_id":"4","last_reported":1739138909,"current_range_meters":38000,"station_id":"ce4bhg92rcd13ifvqf90","pricing_plan_id":"cebpf4jnsgd1na2vs0mg"},{"bike_id":"bb1bab95-412e-41ba-879a-c483b6ec0924","system_id":"levelo_inurba_marseille","lat":43.278118,"lon":5.407194,"is_reserved":false,"is_disabled":false,"rental_uris":{"android":"levelo://app?vid=bb1bab95-412e-41ba-879a-c483b6ec0924","ios":"levelo://app?vid=bb1bab95-412e-41ba-879a-c483b6ec0924"},"vehicle_type_id":"4","last_reported":1739138909,"current_range_meters":38800,"station_id":"ce4bhnh2rcd13ifvqgtg","pricing_plan_id":"cebpf4jnsgd1na2vs0mg"},{"bike_id":"d32d93c2-c2da-4831-bc10-4e8421f31d3d","system_id":"levelo_inurba_marseille","lat":43.31481,"lon":5.37398,"is_reserved":false,"is_disabled":false,"rental_uris":{"android":"levelo://app?vid=d32d93c2-c2da-4831-bc10-4e8421f31d3d","ios":"levelo://app?vid=d32d93c2-c2da-4831-bc10-4e8421f31d3d"},"vehicle_type_id":"4","last_reported":1739138909,"current_range_meters":24800,"station_id":"","pricing_plan_id":"cebpf4jnsgd1na2vs0mg"},{"bike_id":"38227206-c7be-41c9-81a7-6ec322b074c1","system_id":"levelo_inurba_marseille","lat":43.3077,"lon":5.3765,"is_reserved":false,"is_disabled":false,"rental_uris":{"android":"levelo://app?vid=38227206-c7be-41c9-81a7-6ec322b074c1","ios":"levelo://app?vid=38227206-c7be-41c9-81a7-6ec322b074c1"},"vehicle_type_id":"4","last_reported":1739138909,"current_range_meters":26000,"station_id":"ce4bgv92rcd13ifvqcq0","pricing_plan_id":"cebpf4jnsgd1na2vs0mg"},{"bike_id":"3600cf6e-b370-46a9-a53c-871abbc03398","system_id":"levelo_inurba_marseille","lat":43.28262,"lon":5.35068,"is_reserved":false,"is_disabled":true,"rental_uris":{"android":"levelo://app?vid=3600cf6e-b370-46a9-a53c-871abbc03398","ios":"levelo://app?vid=3600cf6e-b370-46a9-a53c-871abbc03398"},"vehicle_type_id":"4","last_reported":1739138909,"current_range_meters":38400,"station_id":"ce4bhbp2rcd13ifvqerg","pricing_plan_id":"cebpf4jnsgd1na2vs0mg"},{"bike_id":"9ee17cc6-94b6-42f9-a180-22e25ec3ed8d","system_id":"levelo_inurba_marseille","lat":43.28663,"lon":5.37454,"is_reserved":false,"is_disabled":true,"rental_uris":{"android":"levelo://app?vid=9ee17cc6-94b6-42f9-a180-22e25ec3ed8d","ios":"levelo://app?vid=9ee17cc6-94b6-42f9-a180-22e25ec3ed8d"},"vehicle_type_id":"4","last_reported":1739138909,"current_range_meters":38000,"station_id":"ce4bh3p2rcd13ifvqdq0","pricing_plan_id":"cebpf4jnsgd1na2vs0mg"},{"bike_id":"f9dde9d4-a53a-4289-ab4e-7e52a5ff0166","system_id":"levelo_inurba_marseille","lat":43.25145,"lon":5.4037,"is_reserved":false,"is_disabled":false,"rental_uris":{"android":"levelo://app?vid=f9dde9d4-a53a-4289-ab4e-7e52a5ff0166","ios":"levelo://app?vid=f9dde9d4-a53a-4289-ab4e-7e52a5ff0166"},"vehicle_type_id":"4","last_reported":1739138909,"current_range_meters":38800,"station_id":"","pricing_plan_id":"cebpf4jnsgd1na2vs0mg"},{"bike_id":"59ed3fb4-1686-4d00-a8be-2761e0896b58","system_id":"levelo_inurba_marseille","lat":43.29783,"lon":5.39319,"is_reserved":false,"is_disabled":false,"rental_uris":{"android":"levelo://app?vid=59ed3fb4-1686-4d00-a8be-2761e0896b58","ios":"levelo://app?vid=59ed3fb4-1686-4d00-a8be-2761e0896b58"},"vehicle_type_id":"4","last_reported":1739138909,"current_range_meters":30400,"station_id":"chh1huq6cuj3fo74tm60","pricing_plan_id":"cebpf4jnsgd1na2vs0mg"},{"bike_id":"20c61011-003a-4533-a88a-798242df303c","system_id":"levelo_inurba_marseille","lat":43.28863,"lon":5.39319,"is_reserved":false,"is_disabled":false,"rental_uris":{"android":"levelo://app?vid=20c61011-003a-4533-a88a-798242df303c","ios":"levelo://app?vid=20c61011-003a-4533-a88a-798242df303c"},"vehicle_type_id":"4","last_reported":1739138909,"current_range_meters":38000,"station_id":"ce4bh2p2rcd13ifvqdi0","pricing_plan_id":"cebpf4jnsgd1na2vs0mg"},{"bike_id":"4913b8b5-d6bb-4003-9626-2e55d74c370d","system_id":"levelo_inurba_marseille","lat":43.23955,"lon":5.36634,"is_reserved":false,"is_disabled":false,"rental_uris":{"android":"levelo://app?vid=4913b8b5-d6bb-4003-9626-2e55d74c370d","ios":"levelo://app?vid=4913b8b5-d6bb-4003-9626-2e55d74c370d"},"vehicle_type_id":"4","last_reported":1739138909,"current_range_meters":8800,"station_id":"ce4bhi12rcd13ifvqfp0","pricing_plan_id":"cebpf4jnsgd1na2vs0mg"},{"bike_id":"5fdb6860-5ee3-463b-aea0-6848b9ff5ddc","system_id":"levelo_inurba_marseille","lat":43.26228,"lon":5.40459,"is_reserved":false,"is_disabled":false,"rental_uris":{"android":"levelo://app?vid=5fdb6860-5ee3-463b-aea0-6848b9ff5ddc","ios":"levelo://app?vid=5fdb6860-5ee3-463b-aea0-6848b9ff5ddc"},"vehicle_type_id":"4","last_reported":1739138909,"current_range_meters":20800,"station_id":"ce4bhmh2rcd13ifvqgmg","pricing_plan_id":"cebpf4jnsgd1na2vs0mg"},{"bike_id":"10761931-4912-422a-b0ba-64ce8dff9b1c","system_id":"levelo_inurba_marseille","lat":43.25578,"lon":5.3824,"is_reserved":false,"is_disabled":false,"rental_uris":{"android":"levelo://app?vid=10761931-4912-422a-b0ba-64ce8dff9b1c","ios":"levelo://app?vid=10761931-4912-422a-b0ba-64ce8dff9b1c"},"vehicle_type_id":"4","last_reported":1739138909,"current_range_meters":36800,"station_id":"ce4bhih2rcd13ifvqfs0","pricing_plan_id":"cebpf4jnsgd1na2vs0mg"},{"bike_id":"0416297c-a742-467c-97d9-7f4ad8b43584","system_id":"levelo_inurba_marseille","lat":43.31355,"lon":5.38493,"is_reserved":false,"is_disabled":false,"rental_uris":{"android":"levelo://app?vid=0416297c-a742-467c-97d9-7f4ad8b43584","ios":"levelo://app?vid=0416297c-a742-467c-97d9-7f4ad8b43584"},"vehicle_type_id":"4","last_reported":1739138909,"current_range_meters":26000,"station_id":"ce4bgt92rcd13ifvqcf0","pricing_plan_id":"cebpf4jnsgd1na2vs0mg"},{"bike_id":"b7243654-4532-4cac-8442-f713a0170558","system_id":"levelo_inurba_marseille","lat":43.30661,"lon":5.40077,"is_reserved":false,"is_disabled":false,"rental_uris":{"android":"levelo://app?vid=b7243654-4532-4cac-8442-f713a0170558","ios":"levelo://app?vid=b7243654-4532-4cac-8442-f713a0170558"},"vehicle_type_id":"4","last_reported":1739138909,"current_range_meters":38800,"station_id":"ce4bh112rcd13ifvqda0","pricing_plan_id":"cebpf4jnsgd1na2vs0mg"},{"bike_id":"0ccae692-16fa-48e3-88e0-236b5491d838","system_id":"levelo_inurba_marseille","lat":43.33762,"lon":5.39188,"is_reserved":false,"is_disabled":false,"rental_uris":{"android":"levelo://app?vid=0ccae692-16fa-48e3-88e0-236b5491d838","ios":"levelo://app?vid=0ccae692-16fa-48e3-88e0-236b5491d838"},"vehicle_type_id":"4","last_reported":1739138909,"current_range_meters":38800,"station_id":"ce4bhr92rcd13ifvqhsg","pricing_plan_id":"cebpf4jnsgd1na2vs0mg"},{"bike_id":"3387e857-76e8-4fc1-a1cf-94655f3cc3c6","system_id":"levelo_inurba_marseille","lat":43.23858,"lon":5.3638,"is_reserved":false,"is_disabled":false,"rental_uris":{"android":"levelo://app?vid=3387e857-76e8-4fc1-a1cf-94655f3cc3c6","ios":"levelo://app?vid=3387e857-76e8-4fc1-a1cf-94655f3cc3c6"},"vehicle_type_id":"4","last_reported":1739138909,"current_range_meters":27200,"station_id":"","pricing_plan_id":"cebpf4jnsgd1na2vs0mg"},{"bike_id":"c36c8044-6867-4246-a417-4507f7337dfb","system_id":"levelo_inurba_marseille","lat":43.30142,"lon":5.38779,"is_reserved":false,"is_disabled":false,"rental_uris":{"android":"levelo://app?vid=c36c8044-6867-4246-a417-4507f7337dfb","ios":"levelo://app?vid=c36c8044-6867-4246-a417-4507f7337dfb"},"vehicle_type_id":"4","last_reported":1739138909,"current_range_meters":38400,"station_id":"ce4bhoh2rcd13ifvqh6g","pricing_plan_id":"cebpf4jnsgd1na2vs0mg"},{"bike_id":"fb4ff991-8c44-4e6e-9881-23d19b1c7472","system_id":"levelo_inurba_marseille","lat":43.29103,"lon":5.38151,"is_reserved":false,"is_disabled":true,"rental_uris":{"android":"levelo://app?vid=fb4ff991-8c44-4e6e-9881-23d19b1c7472","ios":"levelo://app?vid=fb4ff991-8c44-4e6e-9881-23d19b1c7472"},"vehicle_type_id":"4","last_reported":1739138909,"current_range_meters":35200,"station_id":"ce4bh512rcd13ifvqe2g","pricing_plan_id":"cebpf4jnsgd1na2vs0mg"},{"bike_id":"2351dc65-5e1d-4355-baa5-f0044f698c58","system_id":"levelo_inurba_marseille","lat":43.27821,"lon":5.38113,"is_reserved":false,"is_disabled":false,"rental_uris":{"android":"levelo://app?vid=2351dc65-5e1d-4355-baa5-f0044f698c58","ios":"levelo://app?vid=2351dc65-5e1d-4355-baa5-f0044f698c58"},"vehicle_type_id":"4","last_reported":1739138909,"current_range_meters":39200,"station_id":"ce4bh412rcd13ifvqdr0","pricing_plan_id":"cebpf4jnsgd1na2vs0mg"},{"bike_id":"45bb24a1-0c85-41c1-81d0-60806ea0d3e6","system_id":"levelo_inurba_marseille","lat":43.27181,"lon":5.40998,"is_reserved":false,"is_disabled":false,"rental_uris":{"android":"levelo://app?vid=45bb24a1-0c85-41c1-81d0-60806ea0d3e6","ios":"levelo://app?vid=45bb24a1-0c85-41c1-81d0-60806ea0d3e6"},"vehicle_type_id":"4","last_reported":1739138909,"current_range_meters":16000,"station_id":"ce4bhl12rcd13ifvqgf0","pricing_plan_id":"cebpf4jnsgd1na2vs0mg"},{"bike_id":"96fe1668-af51-4478-b65e-c78b039aaaeb","system_id":"levelo_inurba_marseille","lat":43.29548,"lon":5.37489,"is_reserved":false,"is_disabled":true,"rental_uris":{"android":"levelo://app?vid=96fe1668-af51-4478-b65e-c78b039aaaeb","ios":"levelo://app?vid=96fe1668-af51-4478-b65e-c78b039aaaeb"},"vehicle_type_id":"4","last_reported":1739138909,"current_range_meters":30400,"station_id":"ce4bgkp2rcd13ifvqbmg","pricing_plan_id":"cebpf4jnsgd1na2vs0mg"},{"bike_id":"ed0b2315-f280-4663-928e-852d5e569ec3","system_id":"levelo_inurba_marseille","lat":43.29628,"lon":5.40595,"is_reserved":false,"is_disabled":false,"rental_uris":{"android":"levelo://app?vid=ed0b2315-f280-4663-928e-852d5e569ec3","ios":"levelo://app?vid=ed0b2315-f280-4663-928e-852d5e569ec3"},"vehicle_type_id":"4","last_reported":1739138909,"current_range_meters":35200,"station_id":"ce4bh0h2rcd13ifvqd60","pricing_plan_id":"cebpf4jnsgd1na2vs0mg"},{"bike_id":"d5fb8c48-9459-473c-b5dd-b02c4cc38a87","system_id":"levelo_inurba_marseille","lat":43.23012,"lon":5.40542,"is_reserved":false,"is_disabled":true,"rental_uris":{"android":"levelo://app?vid=d5fb8c48-9459-473c-b5dd-b02c4cc38a87","ios":"levelo://app?vid=d5fb8c48-9459-473c-b5dd-b02c4cc38a87"},"vehicle_type_id":"4","last_reported":1739138909,"current_range_meters":0,"station_id":"ce4bhn12rcd13ifvqgqg","pricing_plan_id":"cebpf4jnsgd1na2vs0mg"},{"bike_id":"e90ce1ed-64b5-41ca-ac41-97830c581c78","system_id":"levelo_inurba_marseille","lat":43.28443,"lon":5.38332,"is_reserved":false,"is_disabled":true,"rental_uris":{"android":"levelo://app?vid=e90ce1ed-64b5-41ca-ac41-97830c581c78","ios":"levelo://app?vid=e90ce1ed-64b5-41ca-ac41-97830c581c78"},"vehicle_type_id":"4","last_reported":1739138909,"current_range_meters":30400,"station_id":"ce4bh512rcd13ifvqe3g","pricing_plan_id":"cebpf4jnsgd1na2vs0mg"},{"bike_id":"5eb59fd4-34c7-4030-bbe2-18e35f7c6137","system_id":"levelo_inurba_marseille","lat":43.27616,"lon":5.38364,"is_reserved":false,"is_disabled":false,"rental_uris":{"android":"levelo://app?vid=5eb59fd4-34c7-4030-bbe2-18e35f7c6137","ios":"levelo://app?vid=5eb59fd4-34c7-4030-bbe2-18e35f7c6137"},"vehicle_type_id":"4","last_reported":1739138909,"current_range_meters":20400,"station_id":"ce4bhh92rcd13ifvqfi0","pricing_plan_id":"cebpf4jnsgd1na2vs0mg"},{"bike_id":"f67b7531-6c63-4f46-a9d4-4fdf588facb0","system_id":"levelo_inurba_marseille","lat":43.27874,"lon":5.40597,"is_reserved":false,"is_disabled":true,"rental_uris":{"android":"levelo://app?vid=f67b7531-6c63-4f46-a9d4-4fdf588facb0","ios":"levelo://app?vid=f67b7531-6c63-4f46-a9d4-4fdf588facb0"},"vehicle_type_id":"4","last_reported":1739138909,"current_range_meters":0,"station_id":"","pricing_plan_id":"cebpf4jnsgd1na2vs0mg"},{"bike_id":"e9abc266-97cf-4da1-9e7e-1c0fc8e14f22","system_id":"levelo_inurba_marseille","lat":43.305969,"lon":5.393519,"is_reserved":false,"is_disabled":false,"rental_uris":{"android":"levelo://app?vid=e9abc266-97cf-4da1-9e7e-1c0fc8e14f22","ios":"levelo://app?vid=e9abc266-97cf-4da1-9e7e-1c0fc8e14f22"},"vehicle_type_id":"4","last_reported":1739138909,"current_range_meters":38800,"station_id":"ce4bh0p2rcd13ifvqd80","pricing_plan_id":"cebpf4jnsgd1na2vs0mg"},{"bike_id":"0b8b03a1-3d98-40ad-8759-9e3d3635efba","system_id":"levelo_inurba_marseille","lat":43.24604,"lon":5.39535,"is_reserved":false,"is_disabled":false,"rental_uris":{"android":"levelo://app?vid=0b8b03a1-3d98-40ad-8759-9e3d3635efba","ios":"levelo://app?vid=0b8b03a1-3d98-40ad-8759-9e3d3635efba"},"vehicle_type_id":"4","last_reported":1739138909,"current_range_meters":38000,"station_id":"ce4bhlp2rcd13ifvqgjg","pricing_plan_id":"cebpf4jnsgd1na2vs0mg"},{"bike_id":"5a038bcc-0586-47f4-9979-c7b3fee1c0b2","system_id":"levelo_inurba_marseille","lat":43.29277,"lon":5.40915,"is_reserved":false,"is_disabled":false,"rental_uris":{"android":"levelo://app?vid=5a038bcc-0586-47f4-9979-c7b3fee1c0b2","ios":"levelo://app?vid=5a038bcc-0586-47f4-9979-c7b3fee1c0b2"},"vehicle_type_id":"4","last_reported":1739138909,"current_range_meters":12800,"station_id":"ce4bh192rcd13ifvqdc0","pricing_plan_id":"cebpf4jnsgd1na2vs0mg"},{"bike_id":"1d849361-3f4a-4b95-8a2f-dc215017c47c","system_id":"levelo_inurba_marseille","lat":43.24057,"lon":5.3779,"is_reserved":false,"is_disabled":false,"rental_uris":{"android":"levelo://app?vid=1d849361-3f4a-4b95-8a2f-dc215017c47c","ios":"levelo://app?vid=1d849361-3f4a-4b95-8a2f-dc215017c47c"},"vehicle_type_id":"4","last_reported":1739138909,"current_range_meters":9600,"station_id":"ce4bhnp2rcd13ifvqgvg","pricing_plan_id":"cebpf4jnsgd1na2vs0mg"},{"bike_id":"74dda318-1b0b-46a6-82cc-20741b70a914","system_id":"levelo_inurba_marseille","lat":43.293091,"lon":5.374468,"is_reserved":false,"is_disabled":true,"rental_uris":{"android":"levelo://app?vid=74dda318-1b0b-46a6-82cc-20741b70a914","ios":"levelo://app?vid=74dda318-1b0b-46a6-82cc-20741b70a914"},"vehicle_type_id":"4","last_reported":1739138909,"current_range_meters":19200,"station_id":"ce4bgi12rcd13ifvqb70","pricing_plan_id":"cebpf4jnsgd1na2vs0mg"},{"bike_id":"72495247-1710-4663-af7f-fdc8134eeee5","system_id":"levelo_inurba_marseille","lat":43.29208,"lon":5.3932,"is_reserved":false,"is_disabled":false,"rental_uris":{"android":"levelo://app?vid=72495247-1710-4663-af7f-fdc8134eeee5","ios":"levelo://app?vid=72495247-1710-4663-af7f-fdc8134eeee5"},"vehicle_type_id":"4","last_reported":1739138909,"current_range_meters":14800,"station_id":"ce4bh192rcd13ifvqdd0","pricing_plan_id":"cebpf4jnsgd1na2vs0mg"},{"bike_id":"9b75ae9b-b90a-48f8-a41d-97979498df8e","system_id":"levelo_inurba_marseille","lat":43.25112,"lon":5.40322,"is_reserved":false,"is_disabled":false,"rental_uris":{"android":"levelo://app?vid=9b75ae9b-b90a-48f8-a41d-97979498df8e","ios":"levelo://app?vid=9b75ae9b-b90a-48f8-a41d-97979498df8e"},"vehicle_type_id":"4","last_reported":1739138909,"current_range_meters":31200,"station_id":"ce4bhlh2rcd13ifvqgig","pricing_plan_id":"cebpf4jnsgd1na2vs0mg"},{"bike_id":"2630b278-fac1-4428-b2cf-3ead41153464","system_id":"levelo_inurba_marseille","lat":43.27999,"lon":5.40018,"is_reserved":false,"is_disabled":false,"rental_uris":{"android":"levelo://app?vid=2630b278-fac1-4428-b2cf-3ead41153464","ios":"levelo://app?vid=2630b278-fac1-4428-b2cf-3ead41153464"},"vehicle_type_id":"4","last_reported":1739138909,"current_range_meters":38400,"station_id":"ce4bho92rcd13ifvqh4g","pricing_plan_id":"cebpf4jnsgd1na2vs0mg"},{"bike_id":"1c006256-7530-4a56-a25d-dca64c3573d8","system_id":"levelo_inurba_marseille","lat":43.28704,"lon":5.39953,"is_reserved":false,"is_disabled":true,"rental_uris":{"android":"levelo://app?vid=1c006256-7530-4a56-a25d-dca64c3573d8","ios":"levelo://app?vid=1c006256-7530-4a56-a25d-dca64c3573d8"},"vehicle_type_id":"4","last_reported":1739138909,"current_range_meters":38000,"station_id":"ce4bho92rcd13ifvqh3g","pricing_plan_id":"cebpf4jnsgd1na2vs0mg"},{"bike_id":"028e5bc2-b679-4b6c-a013-843d23405193","system_id":"levelo_inurba_marseille","lat":43.28695,"lon":5.37388,"is_reserved":false,"is_disabled":false,"rental_uris":{"android":"levelo://app?vid=028e5bc2-b679-4b6c-a013-843d23405193","ios":"levelo://app?vid=028e5bc2-b679-4b6c-a013-843d23405193"},"vehicle_type_id":"4","last_reported":1739138909,"current_range_meters":38800,"station_id":"ce4bh3p2rcd13ifvqdq0","pricing_plan_id":"cebpf4jnsgd1na2vs0mg"},{"bike_id":"1fd8bc52-5626-4408-a638-b144452061ee","system_id":"levelo_inurba_marseille","lat":43.29083,"lon":5.37171,"is_reserved":false,"is_disabled":false,"rental_uris":{"android":"levelo://app?vid=1fd8bc52-5626-4408-a638-b144452061ee","ios":"levelo://app?vid=1fd8bc52-5626-4408-a638-b144452061ee"},"vehicle_type_id":"4","last_reported":1739138909,"current_range_meters":34000,"station_id":"ce4bh5p2rcd13ifvqe4g","pricing_plan_id":"cebpf4jnsgd1na2vs0mg"},{"bike_id":"5c7479b7-7263-4b4c-a3b1-0d7fb0f411f8","system_id":"levelo_inurba_marseille","lat":43.30326,"lon":5.40449,"is_reserved":false,"is_disabled":true,"rental_uris":{"android":"levelo://app?vid=5c7479b7-7263-4b4c-a3b1-0d7fb0f411f8","ios":"levelo://app?vid=5c7479b7-7263-4b4c-a3b1-0d7fb0f411f8"},"vehicle_type_id":"4","last_reported":1739138909,"current_range_meters":36000,"station_id":"ce4bh012rcd13ifvqd10","pricing_plan_id":"cebpf4jnsgd1na2vs0mg"},{"bike_id":"dbce0a2c-d399-453d-9b14-9a6cf741b605","system_id":"levelo_inurba_marseille","lat":43.32344,"lon":5.40622,"is_reserved":false,"is_disabled":false,"rental_uris":{"android":"levelo://app?vid=dbce0a2c-d399-453d-9b14-9a6cf741b605","ios":"levelo://app?vid=dbce0a2c-d399-453d-9b14-9a6cf741b605"},"vehicle_type_id":"4","last_reported":1739138909,"current_range_meters":24400,"station_id":"ce4bhq92rcd13ifvqhjg","pricing_plan_id":"cebpf4jnsgd1na2vs0mg"},{"bike_id":"5dec2fdf-46a6-4d2a-a8dd-9a8ec1a948d3","system_id":"levelo_inurba_marseille","lat":43.23191,"lon":5.35553,"is_reserved":false,"is_disabled":false,"rental_uris":{"android":"levelo://app?vid=5dec2fdf-46a6-4d2a-a8dd-9a8ec1a948d3","ios":"levelo://app?vid=5dec2fdf-46a6-4d2a-a8dd-9a8ec1a948d3"},"vehicle_type_id":"4","last_reported":1739138909,"current_range_meters":38800,"station_id":"ce4bhu92rcd13ifvqi70","pricing_plan_id":"cebpf4jnsgd1na2vs0mg"},{"bike_id":"9a60e64f-7e9b-429b-979a-69b96116d027","system_id":"levelo_inurba_marseille","lat":43.29541,"lon":5.38543,"is_reserved":false,"is_disabled":false,"rental_uris":{"android":"levelo://app?vid=9a60e64f-7e9b-429b-979a-69b96116d027","ios":"levelo://app?vid=9a60e64f-7e9b-429b-979a-69b96116d027"},"vehicle_type_id":"4","last_reported":1739138909,"current_range_meters":25600,"station_id":"ce4bgih2rcd13ifvqba0","pricing_plan_id":"cebpf4jnsgd1na2vs0mg"},{"bike_id":"1cf7639f-986a-4ff0-8c1b-fc8fa315c86d","system_id":"levelo_inurba_marseille","lat":43.28683,"lon":5.35097,"is_reserved":false,"is_disabled":false,"rental_uris":{"android":"levelo://app?vid=1cf7639f-986a-4ff0-8c1b-fc8fa315c86d","ios":"levelo://app?vid=1cf7639f-986a-4ff0-8c1b-fc8fa315c86d"},"vehicle_type_id":"4","last_reported":1739138909,"current_range_meters":38800,"station_id":"ce4bhch2rcd13ifvqeug","pricing_plan_id":"cebpf4jnsgd1na2vs0mg"},{"bike_id":"71fb3431-27ca-43bd-91e9-e81a05c563a7","system_id":"levelo_inurba_marseille","lat":43.23235,"lon":5.40026,"is_reserved":false,"is_disabled":false,"rental_uris":{"android":"levelo://app?vid=71fb3431-27ca-43bd-91e9-e81a05c563a7","ios":"levelo://app?vid=71fb3431-27ca-43bd-91e9-e81a05c563a7"},"vehicle_type_id":"4","last_reported":1739138909,"current_range_meters":38400,"station_id":"ce4bhn12rcd13ifvqgqg","pricing_plan_id":"cebpf4jnsgd1na2vs0mg"},{"bike_id":"22669ad6-c05b-49c6-864d-bb442ac14c15","system_id":"levelo_inurba_marseille","lat":43.2595,"lon":5.40863,"is_reserved":false,"is_disabled":false,"rental_uris":{"android":"levelo://app?vid=22669ad6-c05b-49c6-864d-bb442ac14c15","ios":"levelo://app?vid=22669ad6-c05b-49c6-864d-bb442ac14c15"},"vehicle_type_id":"4","last_reported":1739138909,"current_range_meters":28800,"station_id":"ce4bhm92rcd13ifvqglg","pricing_plan_id":"cebpf4jnsgd1na2vs0mg"},{"bike_id":"5c55719c-bf56-4316-adc3-30111af87656","system_id":"levelo_inurba_marseille","lat":43.2305,"lon":5.35494,"is_reserved":false,"is_disabled":false,"rental_uris":{"android":"levelo://app?vid=5c55719c-bf56-4316-adc3-30111af87656","ios":"levelo://app?vid=5c55719c-bf56-4316-adc3-30111af87656"},"vehicle_type_id":"4","last_reported":1739138909,"current_range_meters":38800,"station_id":"cpo3342slgdg3j2ifvpg","pricing_plan_id":"cebpf4jnsgd1na2vs0mg"},{"bike_id":"c2b542d5-20ee-4d02-a9e4-f66e0540bcfb","system_id":"levelo_inurba_marseille","lat":43.24203,"lon":5.3977,"is_reserved":false,"is_disabled":false,"rental_uris":{"android":"levelo://app?vid=c2b542d5-20ee-4d02-a9e4-f66e0540bcfb","ios":"levelo://app?vid=c2b542d5-20ee-4d02-a9e4-f66e0540bcfb"},"vehicle_type_id":"4","last_reported":1739138909,"current_range_meters":10800,"station_id":"ce4bhn12rcd13ifvqgpg","pricing_plan_id":"cebpf4jnsgd1na2vs0mg"},{"bike_id":"c97b9d9c-7a8f-420b-a22c-c53c46a789aa","system_id":"levelo_inurba_marseille","lat":43.29004,"lon":5.35604,"is_reserved":false,"is_disabled":false,"rental_uris":{"android":"levelo://app?vid=c97b9d9c-7a8f-420b-a22c-c53c46a789aa","ios":"levelo://app?vid=c97b9d9c-7a8f-420b-a22c-c53c46a789aa"},"vehicle_type_id":"4","last_reported":1739138909,"current_range_meters":38800,"station_id":"ce4bhb92rcd13ifvqen0","pricing_plan_id":"cebpf4jnsgd1na2vs0mg"},{"bike_id":"1513dc82-88ef-45d8-8ca7-77bdcf6c3f4a","system_id":"levelo_inurba_marseille","lat":43.290914,"lon":5.38144,"is_reserved":false,"is_disabled":false,"rental_uris":{"android":"levelo://app?vid=1513dc82-88ef-45d8-8ca7-77bdcf6c3f4a","ios":"levelo://app?vid=1513dc82-88ef-45d8-8ca7-77bdcf6c3f4a"},"vehicle_type_id":"4","last_reported":1739138909,"current_range_meters":30800,"station_id":"ce4bh512rcd13ifvqe2g","pricing_plan_id":"cebpf4jnsgd1na2vs0mg"},{"bike_id":"1da8b17b-ad28-4780-a711-431647c244ed","system_id":"levelo_inurba_marseille","lat":43.23958,"lon":5.3662,"is_reserved":false,"is_disabled":false,"rental_uris":{"android":"levelo://app?vid=1da8b17b-ad28-4780-a711-431647c244ed","ios":"levelo://app?vid=1da8b17b-ad28-4780-a711-431647c244ed"},"vehicle_type_id":"4","last_reported":1739138909,"current_range_meters":18800,"station_id":"ce4bhi12rcd13ifvqfp0","pricing_plan_id":"cebpf4jnsgd1na2vs0mg"},{"bike_id":"93dc3672-a389-4ac3-951a-e08918bdd48c","system_id":"levelo_inurba_marseille","lat":43.28622,"lon":5.37059,"is_reserved":false,"is_disabled":false,"rental_uris":{"android":"levelo://app?vid=93dc3672-a389-4ac3-951a-e08918bdd48c","ios":"levelo://app?vid=93dc3672-a389-4ac3-951a-e08918bdd48c"},"vehicle_type_id":"4","last_reported":1739138909,"current_range_meters":38800,"station_id":"ce4bht12rcd13ifvqi60","pricing_plan_id":"cebpf4jnsgd1na2vs0mg"},{"bike_id":"f78952aa-a1e4-42f8-b5d2-31338580d315","system_id":"levelo_inurba_marseille","lat":43.23962,"lon":5.36646,"is_reserved":false,"is_disabled":false,"rental_uris":{"android":"levelo://app?vid=f78952aa-a1e4-42f8-b5d2-31338580d315","ios":"levelo://app?vid=f78952aa-a1e4-42f8-b5d2-31338580d315"},"vehicle_type_id":"4","last_reported":1739138909,"current_range_meters":38800,"station_id":"ce4bhi12rcd13ifvqfp0","pricing_plan_id":"cebpf4jnsgd1na2vs0mg"},{"bike_id":"f2d50267-98d9-493b-8957-63594a0dadcc","system_id":"levelo_inurba_marseille","lat":43.23051,"lon":5.35481,"is_reserved":false,"is_disabled":false,"rental_uris":{"android":"levelo://app?vid=f2d50267-98d9-493b-8957-63594a0dadcc","ios":"levelo://app?vid=f2d50267-98d9-493b-8957-63594a0dadcc"},"vehicle_type_id":"4","last_reported":1739138909,"current_range_meters":38800,"station_id":"cpo3342slgdg3j2ifvpg","pricing_plan_id":"cebpf4jnsgd1na2vs0mg"},{"bike_id":"985ea620-1838-4cc4-9f45-6622855b2de9","system_id":"levelo_inurba_marseille","lat":43.27996,"lon":5.40025,"is_reserved":false,"is_disabled":false,"rental_uris":{"android":"levelo://app?vid=985ea620-1838-4cc4-9f45-6622855b2de9","ios":"levelo://app?vid=985ea620-1838-4cc4-9f45-6622855b2de9"},"vehicle_type_id":"4","last_reported":1739138909,"current_range_meters":37600,"station_id":"ce4bho92rcd13ifvqh4g","pricing_plan_id":"cebpf4jnsgd1na2vs0mg"},{"bike_id":"b62dea62-0007-4bca-a1b0-d88bfab77dea","system_id":"levelo_inurba_marseille","lat":43.32479,"lon":5.36578,"is_reserved":false,"is_disabled":false,"rental_uris":{"android":"levelo://app?vid=b62dea62-0007-4bca-a1b0-d88bfab77dea","ios":"levelo://app?vid=b62dea62-0007-4bca-a1b0-d88bfab77dea"},"vehicle_type_id":"4","last_reported":1739138909,"current_range_meters":28000,"station_id":"ce4bhs12rcd13ifvqhvg","pricing_plan_id":"cebpf4jnsgd1na2vs0mg"},{"bike_id":"d5111df9-6dfd-4934-921c-464b7c6355d7","system_id":"levelo_inurba_marseille","lat":43.29547,"lon":5.39048,"is_reserved":false,"is_disabled":false,"rental_uris":{"android":"levelo://app?vid=d5111df9-6dfd-4934-921c-464b7c6355d7","ios":"levelo://app?vid=d5111df9-6dfd-4934-921c-464b7c6355d7"},"vehicle_type_id":"4","last_reported":1739138909,"current_range_meters":25600,"station_id":"ce4bh3p2rcd13ifvqdp0","pricing_plan_id":"cebpf4jnsgd1na2vs0mg"},{"bike_id":"7c0de3db-d7ac-4c9d-8d57-1dfbdd7f0c15","system_id":"levelo_inurba_marseille","lat":43.25111,"lon":5.40322,"is_reserved":false,"is_disabled":false,"rental_uris":{"android":"levelo://app?vid=7c0de3db-d7ac-4c9d-8d57-1dfbdd7f0c15","ios":"levelo://app?vid=7c0de3db-d7ac-4c9d-8d57-1dfbdd7f0c15"},"vehicle_type_id":"4","last_reported":1739138909,"current_range_meters":39200,"station_id":"ce4bhlh2rcd13ifvqgig","pricing_plan_id":"cebpf4jnsgd1na2vs0mg"},{"bike_id":"98514ce6-c9a0-445d-988e-9d038e3f1731","system_id":"levelo_inurba_marseille","lat":43.24153,"lon":5.37856,"is_reserved":false,"is_disabled":false,"rental_uris":{"android":"levelo://app?vid=98514ce6-c9a0-445d-988e-9d038e3f1731","ios":"levelo://app?vid=98514ce6-c9a0-445d-988e-9d038e3f1731"},"vehicle_type_id":"4","last_reported":1739138909,"current_range_meters":38800,"station_id":"ce4bhnp2rcd13ifvqgvg","pricing_plan_id":"cebpf4jnsgd1na2vs0mg"},{"bike_id":"e38741f1-8474-4386-8bfd-89db690dc374","system_id":"levelo_inurba_marseille","lat":43.30276,"lon":5.37709,"is_reserved":false,"is_disabled":false,"rental_uris":{"android":"levelo://app?vid=e38741f1-8474-4386-8bfd-89db690dc374","ios":"levelo://app?vid=e38741f1-8474-4386-8bfd-89db690dc374"},"vehicle_type_id":"4","last_reported":1739138909,"current_range_meters":24000,"station_id":"ce4bguh2rcd13ifvqcj0","pricing_plan_id":"cebpf4jnsgd1na2vs0mg"},{"bike_id":"8e8ca363-1972-443b-8848-3e4ee3048265","system_id":"levelo_inurba_marseille","lat":43.29426,"lon":5.38613,"is_reserved":false,"is_disabled":true,"rental_uris":{"android":"levelo://app?vid=8e8ca363-1972-443b-8848-3e4ee3048265","ios":"levelo://app?vid=8e8ca363-1972-443b-8848-3e4ee3048265"},"vehicle_type_id":"4","last_reported":1739138909,"current_range_meters":38800,"station_id":"ce4bh2h2rcd13ifvqdh0","pricing_plan_id":"cebpf4jnsgd1na2vs0mg"},{"bike_id":"847c6a31-e9b4-472a-a4ac-05a8b1063248","system_id":"levelo_inurba_marseille","lat":43.31339,"lon":5.39735,"is_reserved":false,"is_disabled":false,"rental_uris":{"android":"levelo://app?vid=847c6a31-e9b4-472a-a4ac-05a8b1063248","ios":"levelo://app?vid=847c6a31-e9b4-472a-a4ac-05a8b1063248"},"vehicle_type_id":"4","last_reported":1739138909,"current_range_meters":38800,"station_id":"ce4bgvp2rcd13ifvqcu0","pricing_plan_id":"cebpf4jnsgd1na2vs0mg"},{"bike_id":"c07725ed-0527-46d6-b17c-99fd5891c3a0","system_id":"levelo_inurba_marseille","lat":43.26694,"lon":5.38261,"is_reserved":false,"is_disabled":false,"rental_uris":{"android":"levelo://app?vid=c07725ed-0527-46d6-b17c-99fd5891c3a0","ios":"levelo://app?vid=c07725ed-0527-46d6-b17c-99fd5891c3a0"},"vehicle_type_id":"4","last_reported":1739138909,"current_range_meters":38800,"station_id":"ce4bhg92rcd13ifvqf90","pricing_plan_id":"cebpf4jnsgd1na2vs0mg"},{"bike_id":"6f2c96b5-8b55-47a9-8003-452561cb51d9","system_id":"levelo_inurba_marseille","lat":43.24646,"lon":5.38908,"is_reserved":false,"is_disabled":false,"rental_uris":{"android":"levelo://app?vid=6f2c96b5-8b55-47a9-8003-452561cb51d9","ios":"levelo://app?vid=6f2c96b5-8b55-47a9-8003-452561cb51d9"},"vehicle_type_id":"4","last_reported":1739138909,"current_range_meters":37600,"station_id":"ce4bhg12rcd13ifvqf60","pricing_plan_id":"cebpf4jnsgd1na2vs0mg"},{"bike_id":"22a5c6e1-bb6b-4333-8051-e7583e5afc36","system_id":"levelo_inurba_marseille","lat":43.29464,"lon":5.39775,"is_reserved":false,"is_disabled":true,"rental_uris":{"android":"levelo://app?vid=22a5c6e1-bb6b-4333-8051-e7583e5afc36","ios":"levelo://app?vid=22a5c6e1-bb6b-4333-8051-e7583e5afc36"},"vehicle_type_id":"4","last_reported":1739138909,"current_range_meters":37600,"station_id":"ce4bh3h2rcd13ifvqdo0","pricing_plan_id":"cebpf4jnsgd1na2vs0mg"},{"bike_id":"e922a998-68bd-49a9-b7e7-19716fa09a9c","system_id":"levelo_inurba_marseille","lat":43.299758,"lon":5.37174,"is_reserved":false,"is_disabled":false,"rental_uris":{"android":"levelo://app?vid=e922a998-68bd-49a9-b7e7-19716fa09a9c","ios":"levelo://app?vid=e922a998-68bd-49a9-b7e7-19716fa09a9c"},"vehicle_type_id":"4","last_reported":1739138909,"current_range_meters":38800,"station_id":"ce4bgr92rcd13ifvqc7g","pricing_plan_id":"cebpf4jnsgd1na2vs0mg"},{"bike_id":"3acdbd7b-d5de-4cb2-b3ca-5916b021fd2b","system_id":"levelo_inurba_marseille","lat":43.28929,"lon":5.36619,"is_reserved":false,"is_disabled":false,"rental_uris":{"android":"levelo://app?vid=3acdbd7b-d5de-4cb2-b3ca-5916b021fd2b","ios":"levelo://app?vid=3acdbd7b-d5de-4cb2-b3ca-5916b021fd2b"},"vehicle_type_id":"4","last_reported":1739138909,"current_range_meters":38400,"station_id":"ce4bhap2rcd13ifvqek0","pricing_plan_id":"cebpf4jnsgd1na2vs0mg"},{"bike_id":"cb7cea78-096e-459c-809e-84e5f255dc87","system_id":"levelo_inurba_marseille","lat":43.294476,"lon":5.397558,"is_reserved":false,"is_disabled":false,"rental_uris":{"android":"levelo://app?vid=cb7cea78-096e-459c-809e-84e5f255dc87","ios":"levelo://app?vid=cb7cea78-096e-459c-809e-84e5f255dc87"},"vehicle_type_id":"4","last_reported":1739138909,"current_range_meters":38000,"station_id":"ce4bh3h2rcd13ifvqdo0","pricing_plan_id":"cebpf4jnsgd1na2vs0mg"},{"bike_id":"fd7f60dd-1b52-46f9-9b6b-de4b0fe7477f","system_id":"levelo_inurba_marseille","lat":43.27055,"lon":5.42266,"is_reserved":false,"is_disabled":true,"rental_uris":{"android":"levelo://app?vid=fd7f60dd-1b52-46f9-9b6b-de4b0fe7477f","ios":"levelo://app?vid=fd7f60dd-1b52-46f9-9b6b-de4b0fe7477f"},"vehicle_type_id":"4","last_reported":1739138909,"current_range_meters":32400,"station_id":"ce4bhk92rcd13ifvqgb0","pricing_plan_id":"cebpf4jnsgd1na2vs0mg"},{"bike_id":"2a256a54-1e9f-4d2e-856a-c49046f7dde9","system_id":"levelo_inurba_marseille","lat":43.26096,"lon":5.39354,"is_reserved":false,"is_disabled":false,"rental_uris":{"android":"levelo://app?vid=2a256a54-1e9f-4d2e-856a-c49046f7dde9","ios":"levelo://app?vid=2a256a54-1e9f-4d2e-856a-c49046f7dde9"},"vehicle_type_id":"4","last_reported":1739138909,"current_range_meters":38800,"station_id":"ce4bhh92rcd13ifvqfj0","pricing_plan_id":"cebpf4jnsgd1na2vs0mg"},{"bike_id":"8802eaae-1412-4b2a-9df1-423615bb9b62","system_id":"levelo_inurba_marseille","lat":43.30602,"lon":5.3723,"is_reserved":false,"is_disabled":false,"rental_uris":{"android":"levelo://app?vid=8802eaae-1412-4b2a-9df1-423615bb9b62","ios":"levelo://app?vid=8802eaae-1412-4b2a-9df1-423615bb9b62"},"vehicle_type_id":"4","last_reported":1739138909,"current_range_meters":25600,"station_id":"ce4bgqh2rcd13ifvqc4g","pricing_plan_id":"cebpf4jnsgd1na2vs0mg"},{"bike_id":"17cc233b-4927-4413-aa6b-1c4dfd84036b","system_id":"levelo_inurba_marseille","lat":43.28625,"lon":5.35095,"is_reserved":false,"is_disabled":false,"rental_uris":{"android":"levelo://app?vid=17cc233b-4927-4413-aa6b-1c4dfd84036b","ios":"levelo://app?vid=17cc233b-4927-4413-aa6b-1c4dfd84036b"},"vehicle_type_id":"4","last_reported":1739138909,"current_range_meters":30800,"station_id":"ce4bhch2rcd13ifvqeug","pricing_plan_id":"cebpf4jnsgd1na2vs0mg"},{"bike_id":"b108129b-a98c-44dc-9179-6b5664963c24","system_id":"levelo_inurba_marseille","lat":43.23967,"lon":5.36629,"is_reserved":false,"is_disabled":false,"rental_uris":{"android":"levelo://app?vid=b108129b-a98c-44dc-9179-6b5664963c24","ios":"levelo://app?vid=b108129b-a98c-44dc-9179-6b5664963c24"},"vehicle_type_id":"4","last_reported":1739138909,"current_range_meters":38000,"station_id":"ce4bhi12rcd13ifvqfp0","pricing_plan_id":"cebpf4jnsgd1na2vs0mg"},{"bike_id":"78a185a7-75a0-4ed5-bb58-6aa660a67990","system_id":"levelo_inurba_marseille","lat":43.28347,"lon":5.3811,"is_reserved":false,"is_disabled":false,"rental_uris":{"android":"levelo://app?vid=78a185a7-75a0-4ed5-bb58-6aa660a67990","ios":"levelo://app?vid=78a185a7-75a0-4ed5-bb58-6aa660a67990"},"vehicle_type_id":"4","last_reported":1739138909,"current_range_meters":39200,"station_id":"ce4bh412rcd13ifvqdr0","pricing_plan_id":"cebpf4jnsgd1na2vs0mg"},{"bike_id":"b3733916-dcc4-4879-a92d-febab77a44df","system_id":"levelo_inurba_marseille","lat":43.29591,"lon":5.36752,"is_reserved":false,"is_disabled":false,"rental_uris":{"android":"levelo://app?vid=b3733916-dcc4-4879-a92d-febab77a44df","ios":"levelo://app?vid=b3733916-dcc4-4879-a92d-febab77a44df"},"vehicle_type_id":"4","last_reported":1739138909,"current_range_meters":38000,"station_id":"ce4bgph2rcd13ifvqc2g","pricing_plan_id":"cebpf4jnsgd1na2vs0mg"},{"bike_id":"03b0eb25-29ab-46cb-ad6e-20033cf7c6d4","system_id":"levelo_inurba_marseille","lat":43.28871,"lon":5.39321,"is_reserved":false,"is_disabled":false,"rental_uris":{"android":"levelo://app?vid=03b0eb25-29ab-46cb-ad6e-20033cf7c6d4","ios":"levelo://app?vid=03b0eb25-29ab-46cb-ad6e-20033cf7c6d4"},"vehicle_type_id":"4","last_reported":1739138909,"current_range_meters":24400,"station_id":"ce4bh2p2rcd13ifvqdi0","pricing_plan_id":"cebpf4jnsgd1na2vs0mg"},{"bike_id":"6a14739a-b5fc-42d5-9b40-b808b7ab9afe","system_id":"levelo_inurba_marseille","lat":43.24638,"lon":5.38156,"is_reserved":false,"is_disabled":false,"rental_uris":{"android":"levelo://app?vid=6a14739a-b5fc-42d5-9b40-b808b7ab9afe","ios":"levelo://app?vid=6a14739a-b5fc-42d5-9b40-b808b7ab9afe"},"vehicle_type_id":"4","last_reported":1739138909,"current_range_meters":34000,"station_id":"ce4bhih2rcd13ifvqfr0","pricing_plan_id":"cebpf4jnsgd1na2vs0mg"},{"bike_id":"fd6f86e4-3405-4b25-8300-c35a46555030","system_id":"levelo_inurba_marseille","lat":43.27953,"lon":5.41059,"is_reserved":false,"is_disabled":false,"rental_uris":{"android":"levelo://app?vid=fd6f86e4-3405-4b25-8300-c35a46555030","ios":"levelo://app?vid=fd6f86e4-3405-4b25-8300-c35a46555030"},"vehicle_type_id":"4","last_reported":1739138909,"current_range_meters":32400,"station_id":"ce4bhnp2rcd13ifvqh0g","pricing_plan_id":"cebpf4jnsgd1na2vs0mg"},{"bike_id":"9da2535f-e77c-4f48-aae1-c197f0a0daad","system_id":"levelo_inurba_marseille","lat":43.27951,"lon":5.41654,"is_reserved":false,"is_disabled":false,"rental_uris":{"android":"levelo://app?vid=9da2535f-e77c-4f48-aae1-c197f0a0daad","ios":"levelo://app?vid=9da2535f-e77c-4f48-aae1-c197f0a0daad"},"vehicle_type_id":"4","last_reported":1739138909,"current_range_meters":38800,"station_id":"","pricing_plan_id":"cebpf4jnsgd1na2vs0mg"},{"bike_id":"7907c11f-3c79-4dd6-931b-6c5fc9d16927","system_id":"levelo_inurba_marseille","lat":43.28068,"lon":5.39624,"is_reserved":false,"is_disabled":false,"rental_uris":{"android":"levelo://app?vid=7907c11f-3c79-4dd6-931b-6c5fc9d16927","ios":"levelo://app?vid=7907c11f-3c79-4dd6-931b-6c5fc9d16927"},"vehicle_type_id":"4","last_reported":1739138909,"current_range_meters":39200,"station_id":"ce4bho12rcd13ifvqh2g","pricing_plan_id":"cebpf4jnsgd1na2vs0mg"},{"bike_id":"509991cb-55ac-4408-b763-08ae4cd6f988","system_id":"levelo_inurba_marseille","lat":43.29789,"lon":5.39356,"is_reserved":false,"is_disabled":false,"rental_uris":{"android":"levelo://app?vid=509991cb-55ac-4408-b763-08ae4cd6f988","ios":"levelo://app?vid=509991cb-55ac-4408-b763-08ae4cd6f988"},"vehicle_type_id":"4","last_reported":1739138909,"current_range_meters":38800,"station_id":"chh1huq6cuj3fo74tm60","pricing_plan_id":"cebpf4jnsgd1na2vs0mg"},{"bike_id":"29c9ba85-0135-4611-af6c-b8dee113d319","system_id":"levelo_inurba_marseille","lat":43.26948,"lon":5.38625,"is_reserved":false,"is_disabled":false,"rental_uris":{"android":"levelo://app?vid=29c9ba85-0135-4611-af6c-b8dee113d319","ios":"levelo://app?vid=29c9ba85-0135-4611-af6c-b8dee113d319"},"vehicle_type_id":"4","last_reported":1739138909,"current_range_meters":38800,"station_id":"ce4bhh92rcd13ifvqfh0","pricing_plan_id":"cebpf4jnsgd1na2vs0mg"},{"bike_id":"c6f92ca4-91f7-4b27-a97d-0ada5b4e29ae","system_id":"levelo_inurba_marseille","lat":43.24687,"lon":5.38146,"is_reserved":false,"is_disabled":false,"rental_uris":{"android":"levelo://app?vid=c6f92ca4-91f7-4b27-a97d-0ada5b4e29ae","ios":"levelo://app?vid=c6f92ca4-91f7-4b27-a97d-0ada5b4e29ae"},"vehicle_type_id":"4","last_reported":1739138909,"current_range_meters":24000,"station_id":"ce4bhih2rcd13ifvqfr0","pricing_plan_id":"cebpf4jnsgd1na2vs0mg"},{"bike_id":"1ce1764c-394e-43d2-9be8-2c487193aeec","system_id":"levelo_inurba_marseille","lat":43.326598,"lon":5.409902,"is_reserved":false,"is_disabled":false,"rental_uris":{"android":"levelo://app?vid=1ce1764c-394e-43d2-9be8-2c487193aeec","ios":"levelo://app?vid=1ce1764c-394e-43d2-9be8-2c487193aeec"},"vehicle_type_id":"4","last_reported":1739138909,"current_range_meters":38800,"station_id":"ce4bhpp2rcd13ifvqhgg","pricing_plan_id":"cebpf4jnsgd1na2vs0mg"},{"bike_id":"ebced9b6-6e30-4a7b-9d5d-df5e69b24717","system_id":"levelo_inurba_marseille","lat":43.28722,"lon":5.39979,"is_reserved":false,"is_disabled":false,"rental_uris":{"android":"levelo://app?vid=ebced9b6-6e30-4a7b-9d5d-df5e69b24717","ios":"levelo://app?vid=ebced9b6-6e30-4a7b-9d5d-df5e69b24717"},"vehicle_type_id":"4","last_reported":1739138909,"current_range_meters":38000,"station_id":"ce4bho92rcd13ifvqh3g","pricing_plan_id":"cebpf4jnsgd1na2vs0mg"},{"bike_id":"e6be63e9-14c3-419b-bde8-22acf2b44567","system_id":"levelo_inurba_marseille","lat":43.32364,"lon":5.38882,"is_reserved":false,"is_disabled":false,"rental_uris":{"android":"levelo://app?vid=e6be63e9-14c3-419b-bde8-22acf2b44567","ios":"levelo://app?vid=e6be63e9-14c3-419b-bde8-22acf2b44567"},"vehicle_type_id":"4","last_reported":1739138909,"current_range_meters":16000,"station_id":"ce4bhqp2rcd13ifvqhog","pricing_plan_id":"cebpf4jnsgd1na2vs0mg"},{"bike_id":"52dd4d60-0f73-4f62-8808-1c67e5f3eea4","system_id":"levelo_inurba_marseille","lat":43.27851,"lon":5.39205,"is_reserved":false,"is_disabled":false,"rental_uris":{"android":"levelo://app?vid=52dd4d60-0f73-4f62-8808-1c67e5f3eea4","ios":"levelo://app?vid=52dd4d60-0f73-4f62-8808-1c67e5f3eea4"},"vehicle_type_id":"4","last_reported":1739138909,"current_range_meters":38800,"station_id":"ce4bhjp2rcd13ifvqga0","pricing_plan_id":"cebpf4jnsgd1na2vs0mg"},{"bike_id":"ccb78696-46a1-4323-8616-e3ce582f947c","system_id":"levelo_inurba_marseille","lat":43.29982,"lon":5.37166,"is_reserved":false,"is_disabled":false,"rental_uris":{"android":"levelo://app?vid=ccb78696-46a1-4323-8616-e3ce582f947c","ios":"levelo://app?vid=ccb78696-46a1-4323-8616-e3ce582f947c"},"vehicle_type_id":"4","last_reported":1739138909,"current_range_meters":24000,"station_id":"ce4bgr92rcd13ifvqc7g","pricing_plan_id":"cebpf4jnsgd1na2vs0mg"},{"bike_id":"4c6e5ed1-272b-49c1-ad5d-302bd9b9e47f","system_id":"levelo_inurba_marseille","lat":43.31198,"lon":5.36821,"is_reserved":false,"is_disabled":false,"rental_uris":{"android":"levelo://app?vid=4c6e5ed1-272b-49c1-ad5d-302bd9b9e47f","ios":"levelo://app?vid=4c6e5ed1-272b-49c1-ad5d-302bd9b9e47f"},"vehicle_type_id":"4","last_reported":1739138909,"current_range_meters":38800,"station_id":"ce4bgl92rcd13ifvqbq0","pricing_plan_id":"cebpf4jnsgd1na2vs0mg"},{"bike_id":"2b5781c9-d3d9-4875-b5da-04147f9edefe","system_id":"levelo_inurba_marseille","lat":43.275352,"lon":5.360051,"is_reserved":false,"is_disabled":false,"rental_uris":{"android":"levelo://app?vid=2b5781c9-d3d9-4875-b5da-04147f9edefe","ios":"levelo://app?vid=2b5781c9-d3d9-4875-b5da-04147f9edefe"},"vehicle_type_id":"4","last_reported":1739138909,"current_range_meters":15200,"station_id":"","pricing_plan_id":"cebpf4jnsgd1na2vs0mg"},{"bike_id":"c5789181-d252-4c46-b75d-908f3a6a38fe","system_id":"levelo_inurba_marseille","lat":43.33721,"lon":5.39187,"is_reserved":false,"is_disabled":false,"rental_uris":{"android":"levelo://app?vid=c5789181-d252-4c46-b75d-908f3a6a38fe","ios":"levelo://app?vid=c5789181-d252-4c46-b75d-908f3a6a38fe"},"vehicle_type_id":"4","last_reported":1739138909,"current_range_meters":38800,"station_id":"ce4bhr92rcd13ifvqhsg","pricing_plan_id":"cebpf4jnsgd1na2vs0mg"},{"bike_id":"4662cadc-d8cc-46d4-8513-fe6cec73d116","system_id":"levelo_inurba_marseille","lat":43.31357,"lon":5.385,"is_reserved":false,"is_disabled":false,"rental_uris":{"android":"levelo://app?vid=4662cadc-d8cc-46d4-8513-fe6cec73d116","ios":"levelo://app?vid=4662cadc-d8cc-46d4-8513-fe6cec73d116"},"vehicle_type_id":"4","last_reported":1739138909,"current_range_meters":36800,"station_id":"ce4bgt92rcd13ifvqcf0","pricing_plan_id":"cebpf4jnsgd1na2vs0mg"},{"bike_id":"eadb002c-aff3-497b-9382-03b50b72d244","system_id":"levelo_inurba_marseille","lat":43.28874,"lon":5.39337,"is_reserved":false,"is_disabled":false,"rental_uris":{"android":"levelo://app?vid=eadb002c-aff3-497b-9382-03b50b72d244","ios":"levelo://app?vid=eadb002c-aff3-497b-9382-03b50b72d244"},"vehicle_type_id":"4","last_reported":1739138909,"current_range_meters":39200,"station_id":"ce4bh2p2rcd13ifvqdi0","pricing_plan_id":"cebpf4jnsgd1na2vs0mg"},{"bike_id":"64827bc9-d09f-479e-a534-fff687017e38","system_id":"levelo_inurba_marseille","lat":43.2962,"lon":5.40573,"is_reserved":false,"is_disabled":false,"rental_uris":{"android":"levelo://app?vid=64827bc9-d09f-479e-a534-fff687017e38","ios":"levelo://app?vid=64827bc9-d09f-479e-a534-fff687017e38"},"vehicle_type_id":"4","last_reported":1739138909,"current_range_meters":38800,"station_id":"ce4bh0h2rcd13ifvqd60","pricing_plan_id":"cebpf4jnsgd1na2vs0mg"},{"bike_id":"aec70e69-6051-4962-b9c5-d72001832294","system_id":"levelo_inurba_marseille","lat":43.27553,"lon":5.38421,"is_reserved":false,"is_disabled":false,"rental_uris":{"android":"levelo://app?vid=aec70e69-6051-4962-b9c5-d72001832294","ios":"levelo://app?vid=aec70e69-6051-4962-b9c5-d72001832294"},"vehicle_type_id":"4","last_reported":1739138909,"current_range_meters":38800,"station_id":"ce4bhh92rcd13ifvqfi0","pricing_plan_id":"cebpf4jnsgd1na2vs0mg"},{"bike_id":"0465b098-501d-4eaa-9851-ecad7c11e06c","system_id":"levelo_inurba_marseille","lat":43.27833,"lon":5.40745,"is_reserved":false,"is_disabled":false,"rental_uris":{"android":"levelo://app?vid=0465b098-501d-4eaa-9851-ecad7c11e06c","ios":"levelo://app?vid=0465b098-501d-4eaa-9851-ecad7c11e06c"},"vehicle_type_id":"4","last_reported":1739138909,"current_range_meters":38000,"station_id":"ce4bhnh2rcd13ifvqgtg","pricing_plan_id":"cebpf4jnsgd1na2vs0mg"},{"bike_id":"c639e761-78ab-4037-aab4-60cfebbed0e1","system_id":"levelo_inurba_marseille","lat":43.28151,"lon":5.42642,"is_reserved":false,"is_disabled":false,"rental_uris":{"android":"levelo://app?vid=c639e761-78ab-4037-aab4-60cfebbed0e1","ios":"levelo://app?vid=c639e761-78ab-4037-aab4-60cfebbed0e1"},"vehicle_type_id":"4","last_reported":1739138909,"current_range_meters":29600,"station_id":"ce4bhnh2rcd13ifvqgug","pricing_plan_id":"cebpf4jnsgd1na2vs0mg"},{"bike_id":"a0e4aa32-2930-4b3f-a9c9-c8d667116e7d","system_id":"levelo_inurba_marseille","lat":43.30156,"lon":5.39687,"is_reserved":false,"is_disabled":false,"rental_uris":{"android":"levelo://app?vid=a0e4aa32-2930-4b3f-a9c9-c8d667116e7d","ios":"levelo://app?vid=a0e4aa32-2930-4b3f-a9c9-c8d667116e7d"},"vehicle_type_id":"4","last_reported":1739138909,"current_range_meters":22400,"station_id":"","pricing_plan_id":"cebpf4jnsgd1na2vs0mg"},{"bike_id":"ff4d285c-32a7-4a68-98cc-31f88255627e","system_id":"levelo_inurba_marseille","lat":43.28432,"lon":5.37537,"is_reserved":false,"is_disabled":false,"rental_uris":{"android":"levelo://app?vid=ff4d285c-32a7-4a68-98cc-31f88255627e","ios":"levelo://app?vid=ff4d285c-32a7-4a68-98cc-31f88255627e"},"vehicle_type_id":"4","last_reported":1739138909,"current_range_meters":27200,"station_id":"ce4bh412rcd13ifvqds0","pricing_plan_id":"cebpf4jnsgd1na2vs0mg"},{"bike_id":"bc4abc58-0169-44e7-a2dd-d4fa4a8b4eb9","system_id":"levelo_inurba_marseille","lat":43.24188,"lon":5.39708,"is_reserved":false,"is_disabled":false,"rental_uris":{"android":"levelo://app?vid=bc4abc58-0169-44e7-a2dd-d4fa4a8b4eb9","ios":"levelo://app?vid=bc4abc58-0169-44e7-a2dd-d4fa4a8b4eb9"},"vehicle_type_id":"4","last_reported":1739138909,"current_range_meters":20000,"station_id":"ce4bhn12rcd13ifvqgpg","pricing_plan_id":"cebpf4jnsgd1na2vs0mg"},{"bike_id":"8d1bc373-7d32-4dd9-9a78-d7a1451cb355","system_id":"levelo_inurba_marseille","lat":43.26054,"lon":5.39385,"is_reserved":false,"is_disabled":false,"rental_uris":{"android":"levelo://app?vid=8d1bc373-7d32-4dd9-9a78-d7a1451cb355","ios":"levelo://app?vid=8d1bc373-7d32-4dd9-9a78-d7a1451cb355"},"vehicle_type_id":"4","last_reported":1739138909,"current_range_meters":38800,"station_id":"ce4bhh92rcd13ifvqfj0","pricing_plan_id":"cebpf4jnsgd1na2vs0mg"},{"bike_id":"c64786ed-b0b5-41a0-b7bd-37264f9b11f3","system_id":"levelo_inurba_marseille","lat":43.31173,"lon":5.38693,"is_reserved":false,"is_disabled":false,"rental_uris":{"android":"levelo://app?vid=c64786ed-b0b5-41a0-b7bd-37264f9b11f3","ios":"levelo://app?vid=c64786ed-b0b5-41a0-b7bd-37264f9b11f3"},"vehicle_type_id":"4","last_reported":1739138909,"current_range_meters":34000,"station_id":"ce4bgv12rcd13ifvqcp0","pricing_plan_id":"cebpf4jnsgd1na2vs0mg"},{"bike_id":"880ce712-c0f5-4aaf-8504-50bcf653db47","system_id":"levelo_inurba_marseille","lat":43.24831,"lon":5.37485,"is_reserved":false,"is_disabled":false,"rental_uris":{"android":"levelo://app?vid=880ce712-c0f5-4aaf-8504-50bcf653db47","ios":"levelo://app?vid=880ce712-c0f5-4aaf-8504-50bcf653db47"},"vehicle_type_id":"4","last_reported":1739138909,"current_range_meters":27600,"station_id":"","pricing_plan_id":"cebpf4jnsgd1na2vs0mg"},{"bike_id":"ee9cd95f-558c-4d1b-b8e7-18e8b49b2941","system_id":"levelo_inurba_marseille","lat":43.28831,"lon":5.39331,"is_reserved":false,"is_disabled":false,"rental_uris":{"android":"levelo://app?vid=ee9cd95f-558c-4d1b-b8e7-18e8b49b2941","ios":"levelo://app?vid=ee9cd95f-558c-4d1b-b8e7-18e8b49b2941"},"vehicle_type_id":"4","last_reported":1739138909,"current_range_meters":26800,"station_id":"ce4bh2p2rcd13ifvqdi0","pricing_plan_id":"cebpf4jnsgd1na2vs0mg"},{"bike_id":"013ac57c-0826-426d-84a7-60e833c60d0a","system_id":"levelo_inurba_marseille","lat":43.32346,"lon":5.40629,"is_reserved":false,"is_disabled":false,"rental_uris":{"android":"levelo://app?vid=013ac57c-0826-426d-84a7-60e833c60d0a","ios":"levelo://app?vid=013ac57c-0826-426d-84a7-60e833c60d0a"},"vehicle_type_id":"4","last_reported":1739138909,"current_range_meters":12800,"station_id":"ce4bhq92rcd13ifvqhjg","pricing_plan_id":"cebpf4jnsgd1na2vs0mg"},{"bike_id":"656b3b3b-ebfa-4345-b7c9-9eedd9381155","system_id":"levelo_inurba_marseille","lat":43.30784,"lon":5.39989,"is_reserved":false,"is_disabled":false,"rental_uris":{"android":"levelo://app?vid=656b3b3b-ebfa-4345-b7c9-9eedd9381155","ios":"levelo://app?vid=656b3b3b-ebfa-4345-b7c9-9eedd9381155"},"vehicle_type_id":"4","last_reported":1739138909,"current_range_meters":10000,"station_id":"","pricing_plan_id":"cebpf4jnsgd1na2vs0mg"},{"bike_id":"61eb2808-2c90-4520-bbbd-2714ebd35cad","system_id":"levelo_inurba_marseille","lat":43.2872,"lon":5.36103,"is_reserved":false,"is_disabled":false,"rental_uris":{"android":"levelo://app?vid=61eb2808-2c90-4520-bbbd-2714ebd35cad","ios":"levelo://app?vid=61eb2808-2c90-4520-bbbd-2714ebd35cad"},"vehicle_type_id":"4","last_reported":1739138909,"current_range_meters":16400,"station_id":"cki0cbj6b192h4jlfktg","pricing_plan_id":"cebpf4jnsgd1na2vs0mg"},{"bike_id":"f9ec8a41-50bd-48e3-a9c3-1936ef8a8e37","system_id":"levelo_inurba_marseille","lat":43.26923,"lon":5.38669,"is_reserved":false,"is_disabled":false,"rental_uris":{"android":"levelo://app?vid=f9ec8a41-50bd-48e3-a9c3-1936ef8a8e37","ios":"levelo://app?vid=f9ec8a41-50bd-48e3-a9c3-1936ef8a8e37"},"vehicle_type_id":"4","last_reported":1739138909,"current_range_meters":38800,"station_id":"ce4bhh92rcd13ifvqfh0","pricing_plan_id":"cebpf4jnsgd1na2vs0mg"},{"bike_id":"5f4c0fcb-a35b-4374-aa55-6ae702d7d671","system_id":"levelo_inurba_marseille","lat":43.2848,"lon":5.35897,"is_reserved":false,"is_disabled":false,"rental_uris":{"android":"levelo://app?vid=5f4c0fcb-a35b-4374-aa55-6ae702d7d671","ios":"levelo://app?vid=5f4c0fcb-a35b-4374-aa55-6ae702d7d671"},"vehicle_type_id":"4","last_reported":1739138909,"current_range_meters":35200,"station_id":"ce4bhah2rcd13ifvqei0","pricing_plan_id":"cebpf4jnsgd1na2vs0mg"},{"bike_id":"32377b15-aaab-41c8-ac5a-c4269621e1be","system_id":"levelo_inurba_marseille","lat":43.3112,"lon":5.37757,"is_reserved":false,"is_disabled":false,"rental_uris":{"android":"levelo://app?vid=32377b15-aaab-41c8-ac5a-c4269621e1be","ios":"levelo://app?vid=32377b15-aaab-41c8-ac5a-c4269621e1be"},"vehicle_type_id":"4","last_reported":1739138909,"current_range_meters":29600,"station_id":"ce4bgt92rcd13ifvqcg0","pricing_plan_id":"cebpf4jnsgd1na2vs0mg"},{"bike_id":"7ea602af-bc8d-4d49-af25-40c9a921e77f","system_id":"levelo_inurba_marseille","lat":43.26934,"lon":5.38922,"is_reserved":false,"is_disabled":false,"rental_uris":{"android":"levelo://app?vid=7ea602af-bc8d-4d49-af25-40c9a921e77f","ios":"levelo://app?vid=7ea602af-bc8d-4d49-af25-40c9a921e77f"},"vehicle_type_id":"4","last_reported":1739138909,"current_range_meters":36000,"station_id":"ce4bhhh2rcd13ifvqfl0","pricing_plan_id":"cebpf4jnsgd1na2vs0mg"},{"bike_id":"7f2deb56-183c-436c-981c-cfbcfece13e6","system_id":"levelo_inurba_marseille","lat":43.23954,"lon":5.36636,"is_reserved":false,"is_disabled":false,"rental_uris":{"android":"levelo://app?vid=7f2deb56-183c-436c-981c-cfbcfece13e6","ios":"levelo://app?vid=7f2deb56-183c-436c-981c-cfbcfece13e6"},"vehicle_type_id":"4","last_reported":1739138909,"current_range_meters":37600,"station_id":"ce4bhi12rcd13ifvqfp0","pricing_plan_id":"cebpf4jnsgd1na2vs0mg"},{"bike_id":"1c392f62-33c0-4d1d-9a0e-eb4241b06292","system_id":"levelo_inurba_marseille","lat":43.23475,"lon":5.3772,"is_reserved":false,"is_disabled":false,"rental_uris":{"android":"levelo://app?vid=1c392f62-33c0-4d1d-9a0e-eb4241b06292","ios":"levelo://app?vid=1c392f62-33c0-4d1d-9a0e-eb4241b06292"},"vehicle_type_id":"4","last_reported":1739138909,"current_range_meters":10000,"station_id":"","pricing_plan_id":"cebpf4jnsgd1na2vs0mg"},{"bike_id":"a5a14ac8-8c40-406c-865a-09ed98e25470","system_id":"levelo_inurba_marseille","lat":43.23189,"lon":5.35537,"is_reserved":false,"is_disabled":false,"rental_uris":{"android":"levelo://app?vid=a5a14ac8-8c40-406c-865a-09ed98e25470","ios":"levelo://app?vid=a5a14ac8-8c40-406c-865a-09ed98e25470"},"vehicle_type_id":"4","last_reported":1739138909,"current_range_meters":11600,"station_id":"ce4bhu92rcd13ifvqi70","pricing_plan_id":"cebpf4jnsgd1na2vs0mg"},{"bike_id":"9d7240fb-8e21-4950-bea4-7cd7d1bcedc2","system_id":"levelo_inurba_marseille","lat":43.28195,"lon":5.4267,"is_reserved":false,"is_disabled":false,"rental_uris":{"android":"levelo://app?vid=9d7240fb-8e21-4950-bea4-7cd7d1bcedc2","ios":"levelo://app?vid=9d7240fb-8e21-4950-bea4-7cd7d1bcedc2"},"vehicle_type_id":"4","last_reported":1739138909,"current_range_meters":22400,"station_id":"ce4bhnh2rcd13ifvqgug","pricing_plan_id":"cebpf4jnsgd1na2vs0mg"},{"bike_id":"146d0ad8-09df-4c93-8f1f-eaf8cf98715d","system_id":"levelo_inurba_marseille","lat":43.29924,"lon":5.37487,"is_reserved":false,"is_disabled":false,"rental_uris":{"android":"levelo://app?vid=146d0ad8-09df-4c93-8f1f-eaf8cf98715d","ios":"levelo://app?vid=146d0ad8-09df-4c93-8f1f-eaf8cf98715d"},"vehicle_type_id":"4","last_reported":1739138909,"current_range_meters":9600,"station_id":"ce4bgjh2rcd13ifvqbg0","pricing_plan_id":"cebpf4jnsgd1na2vs0mg"},{"bike_id":"87f55178-b221-4f5a-9b43-4df846d42ec8","system_id":"levelo_inurba_marseille","lat":43.32286,"lon":5.38292,"is_reserved":false,"is_disabled":false,"rental_uris":{"android":"levelo://app?vid=87f55178-b221-4f5a-9b43-4df846d42ec8","ios":"levelo://app?vid=87f55178-b221-4f5a-9b43-4df846d42ec8"},"vehicle_type_id":"4","last_reported":1739138909,"current_range_meters":27600,"station_id":"ce4bhr12rcd13ifvqhqg","pricing_plan_id":"cebpf4jnsgd1na2vs0mg"},{"bike_id":"36456092-02af-4986-81b0-acf304d0e1aa","system_id":"levelo_inurba_marseille","lat":43.24102,"lon":5.37763,"is_reserved":false,"is_disabled":false,"rental_uris":{"android":"levelo://app?vid=36456092-02af-4986-81b0-acf304d0e1aa","ios":"levelo://app?vid=36456092-02af-4986-81b0-acf304d0e1aa"},"vehicle_type_id":"4","last_reported":1739138909,"current_range_meters":38800,"station_id":"ce4bhnp2rcd13ifvqgvg","pricing_plan_id":"cebpf4jnsgd1na2vs0mg"},{"bike_id":"ab445631-9e5a-46dc-8708-c7ea376fcabc","system_id":"levelo_inurba_marseille","lat":43.2511,"lon":5.3951,"is_reserved":false,"is_disabled":false,"rental_uris":{"android":"levelo://app?vid=ab445631-9e5a-46dc-8708-c7ea376fcabc","ios":"levelo://app?vid=ab445631-9e5a-46dc-8708-c7ea376fcabc"},"vehicle_type_id":"4","last_reported":1739138909,"current_range_meters":16800,"station_id":"ce4bhm12rcd13ifvqgkg","pricing_plan_id":"cebpf4jnsgd1na2vs0mg"},{"bike_id":"42da078a-a3f2-4210-a507-da2b76ddcd09","system_id":"levelo_inurba_marseille","lat":43.27945,"lon":5.41045,"is_reserved":false,"is_disabled":false,"rental_uris":{"android":"levelo://app?vid=42da078a-a3f2-4210-a507-da2b76ddcd09","ios":"levelo://app?vid=42da078a-a3f2-4210-a507-da2b76ddcd09"},"vehicle_type_id":"4","last_reported":1739138909,"current_range_meters":33600,"station_id":"ce4bhnp2rcd13ifvqh0g","pricing_plan_id":"cebpf4jnsgd1na2vs0mg"},{"bike_id":"59db9156-837c-4bef-bdf0-6cb05d00fb23","system_id":"levelo_inurba_marseille","lat":43.24165,"lon":5.36394,"is_reserved":false,"is_disabled":false,"rental_uris":{"android":"levelo://app?vid=59db9156-837c-4bef-bdf0-6cb05d00fb23","ios":"levelo://app?vid=59db9156-837c-4bef-bdf0-6cb05d00fb23"},"vehicle_type_id":"4","last_reported":1739138909,"current_range_meters":22000,"station_id":"cpo36qri1sfpv3e86is0","pricing_plan_id":"cebpf4jnsgd1na2vs0mg"},{"bike_id":"d446a54e-91d0-4fd3-93f6-5b56c534a5d2","system_id":"levelo_inurba_marseille","lat":43.28676,"lon":5.38681,"is_reserved":false,"is_disabled":false,"rental_uris":{"android":"levelo://app?vid=d446a54e-91d0-4fd3-93f6-5b56c534a5d2","ios":"levelo://app?vid=d446a54e-91d0-4fd3-93f6-5b56c534a5d2"},"vehicle_type_id":"4","last_reported":1739138909,"current_range_meters":38000,"station_id":"ce4bh492rcd13ifvqdug","pricing_plan_id":"cebpf4jnsgd1na2vs0mg"},{"bike_id":"d3390ecb-8a8f-4eb0-88d0-b0d404280f3c","system_id":"levelo_inurba_marseille","lat":43.32651,"lon":5.40998,"is_reserved":false,"is_disabled":false,"rental_uris":{"android":"levelo://app?vid=d3390ecb-8a8f-4eb0-88d0-b0d404280f3c","ios":"levelo://app?vid=d3390ecb-8a8f-4eb0-88d0-b0d404280f3c"},"vehicle_type_id":"4","last_reported":1739138909,"current_range_meters":24000,"station_id":"ce4bhpp2rcd13ifvqhgg","pricing_plan_id":"cebpf4jnsgd1na2vs0mg"},{"bike_id":"f1e9b514-8d63-4512-92a1-4bc9d87c157b","system_id":"levelo_inurba_marseille","lat":43.31724,"lon":5.43768,"is_reserved":false,"is_disabled":true,"rental_uris":{"android":"levelo://app?vid=f1e9b514-8d63-4512-92a1-4bc9d87c157b","ios":"levelo://app?vid=f1e9b514-8d63-4512-92a1-4bc9d87c157b"},"vehicle_type_id":"4","last_reported":1739138909,"current_range_meters":0,"station_id":"","pricing_plan_id":"cebpf4jnsgd1na2vs0mg"},{"bike_id":"116a180f-5576-4e39-be0a-546c9a9a25cf","system_id":"levelo_inurba_marseille","lat":43.27568,"lon":5.38423,"is_reserved":false,"is_disabled":false,"rental_uris":{"android":"levelo://app?vid=116a180f-5576-4e39-be0a-546c9a9a25cf","ios":"levelo://app?vid=116a180f-5576-4e39-be0a-546c9a9a25cf"},"vehicle_type_id":"4","last_reported":1739138909,"current_range_meters":6800,"station_id":"ce4bhh92rcd13ifvqfi0","pricing_plan_id":"cebpf4jnsgd1na2vs0mg"},{"bike_id":"81d37ca3-5a86-4697-be03-dd0b787f28cf","system_id":"levelo_inurba_marseille","lat":43.32341,"lon":5.406208,"is_reserved":false,"is_disabled":true,"rental_uris":{"android":"levelo://app?vid=81d37ca3-5a86-4697-be03-dd0b787f28cf","ios":"levelo://app?vid=81d37ca3-5a86-4697-be03-dd0b787f28cf"},"vehicle_type_id":"4","last_reported":1739138909,"current_range_meters":1600,"station_id":"ce4bhq92rcd13ifvqhjg","pricing_plan_id":"cebpf4jnsgd1na2vs0mg"},{"bike_id":"27fe88b6-f81f-4aba-983f-e2e9fb819079","system_id":"levelo_inurba_marseille","lat":43.32535,"lon":5.41466,"is_reserved":false,"is_disabled":false,"rental_uris":{"android":"levelo://app?vid=27fe88b6-f81f-4aba-983f-e2e9fb819079","ios":"levelo://app?vid=27fe88b6-f81f-4aba-983f-e2e9fb819079"},"vehicle_type_id":"4","last_reported":1739138909,"current_range_meters":38000,"station_id":"ce4bhq12rcd13ifvqhhg","pricing_plan_id":"cebpf4jnsgd1na2vs0mg"},{"bike_id":"6674b7a0-0829-4083-87e9-153a68d821fd","system_id":"levelo_inurba_marseille","lat":43.27846,"lon":5.39217,"is_reserved":false,"is_disabled":false,"rental_uris":{"android":"levelo://app?vid=6674b7a0-0829-4083-87e9-153a68d821fd","ios":"levelo://app?vid=6674b7a0-0829-4083-87e9-153a68d821fd"},"vehicle_type_id":"4","last_reported":1739138909,"current_range_meters":38800,"station_id":"ce4bhjp2rcd13ifvqga0","pricing_plan_id":"cebpf4jnsgd1na2vs0mg"},{"bike_id":"e6dc9bdf-237c-47b7-ab28-1a867206a3b1","system_id":"levelo_inurba_marseille","lat":43.30142,"lon":5.38108,"is_reserved":false,"is_disabled":true,"rental_uris":{"android":"levelo://app?vid=e6dc9bdf-237c-47b7-ab28-1a867206a3b1","ios":"levelo://app?vid=e6dc9bdf-237c-47b7-ab28-1a867206a3b1"},"vehicle_type_id":"4","last_reported":1739138909,"current_range_meters":24400,"station_id":"ce4bgjp2rcd13ifvqbh0","pricing_plan_id":"cebpf4jnsgd1na2vs0mg"},{"bike_id":"f3fc0745-6005-45dc-bfe5-86d1ae104432","system_id":"levelo_inurba_marseille","lat":43.29584,"lon":5.36749,"is_reserved":false,"is_disabled":false,"rental_uris":{"android":"levelo://app?vid=f3fc0745-6005-45dc-bfe5-86d1ae104432","ios":"levelo://app?vid=f3fc0745-6005-45dc-bfe5-86d1ae104432"},"vehicle_type_id":"4","last_reported":1739138909,"current_range_meters":38800,"station_id":"ce4bgph2rcd13ifvqc2g","pricing_plan_id":"cebpf4jnsgd1na2vs0mg"},{"bike_id":"021e6bd5-daa3-472a-bb16-7b66448937d9","system_id":"levelo_inurba_marseille","lat":43.24818,"lon":5.37478,"is_reserved":false,"is_disabled":false,"rental_uris":{"android":"levelo://app?vid=021e6bd5-daa3-472a-bb16-7b66448937d9","ios":"levelo://app?vid=021e6bd5-daa3-472a-bb16-7b66448937d9"},"vehicle_type_id":"4","last_reported":1739138909,"current_range_meters":38800,"station_id":"ce4bhgh2rcd13ifvqfb0","pricing_plan_id":"cebpf4jnsgd1na2vs0mg"},{"bike_id":"9c3ed8fb-7268-418c-ac09-3f255c9e9b5e","system_id":"levelo_inurba_marseille","lat":43.27946,"lon":5.3692,"is_reserved":false,"is_disabled":false,"rental_uris":{"android":"levelo://app?vid=9c3ed8fb-7268-418c-ac09-3f255c9e9b5e","ios":"levelo://app?vid=9c3ed8fb-7268-418c-ac09-3f255c9e9b5e"},"vehicle_type_id":"4","last_reported":1739138909,"current_range_meters":36400,"station_id":"","pricing_plan_id":"cebpf4jnsgd1na2vs0mg"},{"bike_id":"11a6894e-4826-4e6b-8b29-57e9936461c1","system_id":"levelo_inurba_marseille","lat":43.29373,"lon":5.37832,"is_reserved":false,"is_disabled":false,"rental_uris":{"android":"levelo://app?vid=11a6894e-4826-4e6b-8b29-57e9936461c1","ios":"levelo://app?vid=11a6894e-4826-4e6b-8b29-57e9936461c1"},"vehicle_type_id":"4","last_reported":1739138909,"current_range_meters":38800,"station_id":"ce4bgjh2rcd13ifvqbf0","pricing_plan_id":"cebpf4jnsgd1na2vs0mg"},{"bike_id":"c91fa3f3-a774-43d0-92fe-010e57bc5d25","system_id":"levelo_inurba_marseille","lat":43.26219,"lon":5.37429,"is_reserved":false,"is_disabled":false,"rental_uris":{"android":"levelo://app?vid=c91fa3f3-a774-43d0-92fe-010e57bc5d25","ios":"levelo://app?vid=c91fa3f3-a774-43d0-92fe-010e57bc5d25"},"vehicle_type_id":"4","last_reported":1739138909,"current_range_meters":8800,"station_id":"ce4bhgp2rcd13ifvqfc0","pricing_plan_id":"cebpf4jnsgd1na2vs0mg"},{"bike_id":"c5f3788f-5df9-44c6-b0ba-b26d46568740","system_id":"levelo_inurba_marseille","lat":43.28616,"lon":5.35107,"is_reserved":false,"is_disabled":false,"rental_uris":{"android":"levelo://app?vid=c5f3788f-5df9-44c6-b0ba-b26d46568740","ios":"levelo://app?vid=c5f3788f-5df9-44c6-b0ba-b26d46568740"},"vehicle_type_id":"4","last_reported":1739138909,"current_range_meters":30800,"station_id":"ce4bhch2rcd13ifvqeug","pricing_plan_id":"cebpf4jnsgd1na2vs0mg"},{"bike_id":"277b6126-0441-4bd1-a1f0-147e7c5fd945","system_id":"levelo_inurba_marseille","lat":43.26056,"lon":5.37594,"is_reserved":false,"is_disabled":false,"rental_uris":{"android":"levelo://app?vid=277b6126-0441-4bd1-a1f0-147e7c5fd945","ios":"levelo://app?vid=277b6126-0441-4bd1-a1f0-147e7c5fd945"},"vehicle_type_id":"4","last_reported":1739138909,"current_range_meters":38000,"station_id":"ce4bhgh2rcd13ifvqfa0","pricing_plan_id":"cebpf4jnsgd1na2vs0mg"},{"bike_id":"6ff781d1-2621-44d1-b299-83b571f09432","system_id":"levelo_inurba_marseille","lat":43.34056,"lon":5.38517,"is_reserved":false,"is_disabled":true,"rental_uris":{"android":"levelo://app?vid=6ff781d1-2621-44d1-b299-83b571f09432","ios":"levelo://app?vid=6ff781d1-2621-44d1-b299-83b571f09432"},"vehicle_type_id":"4","last_reported":1739138909,"current_range_meters":0,"station_id":"","pricing_plan_id":"cebpf4jnsgd1na2vs0mg"},{"bike_id":"4bb456e6-a4c6-42a9-8a69-a7349e693bfb","system_id":"levelo_inurba_marseille","lat":43.29554,"lon":5.37497,"is_reserved":false,"is_disabled":true,"rental_uris":{"android":"levelo://app?vid=4bb456e6-a4c6-42a9-8a69-a7349e693bfb","ios":"levelo://app?vid=4bb456e6-a4c6-42a9-8a69-a7349e693bfb"},"vehicle_type_id":"4","last_reported":1739138909,"current_range_meters":28000,"station_id":"ce4bgkp2rcd13ifvqbmg","pricing_plan_id":"cebpf4jnsgd1na2vs0mg"},{"bike_id":"e0668dc4-b635-4db8-9d9b-275cae297a6f","system_id":"levelo_inurba_marseille","lat":43.30347,"lon":5.3922,"is_reserved":false,"is_disabled":true,"rental_uris":{"android":"levelo://app?vid=e0668dc4-b635-4db8-9d9b-275cae297a6f","ios":"levelo://app?vid=e0668dc4-b635-4db8-9d9b-275cae297a6f"},"vehicle_type_id":"4","last_reported":1739138909,"current_range_meters":38800,"station_id":"ce4bgkh2rcd13ifvqbk0","pricing_plan_id":"cebpf4jnsgd1na2vs0mg"},{"bike_id":"023da4ba-3275-433f-9c20-6aa1fe5c1824","system_id":"levelo_inurba_marseille","lat":43.24071,"lon":5.3776,"is_reserved":false,"is_disabled":false,"rental_uris":{"android":"levelo://app?vid=023da4ba-3275-433f-9c20-6aa1fe5c1824","ios":"levelo://app?vid=023da4ba-3275-433f-9c20-6aa1fe5c1824"},"vehicle_type_id":"4","last_reported":1739138909,"current_range_meters":33200,"station_id":"ce4bhnp2rcd13ifvqgvg","pricing_plan_id":"cebpf4jnsgd1na2vs0mg"},{"bike_id":"9e63b302-312f-4d74-a023-ce0458bc929d","system_id":"levelo_inurba_marseille","lat":43.26575,"lon":5.38995,"is_reserved":false,"is_disabled":false,"rental_uris":{"android":"levelo://app?vid=9e63b302-312f-4d74-a023-ce0458bc929d","ios":"levelo://app?vid=9e63b302-312f-4d74-a023-ce0458bc929d"},"vehicle_type_id":"4","last_reported":1739138909,"current_range_meters":25200,"station_id":"ce4bhe12rcd13ifvqf30","pricing_plan_id":"cebpf4jnsgd1na2vs0mg"},{"bike_id":"5c4011be-9b33-43c9-a6d1-d3816c99eeee","system_id":"levelo_inurba_marseille","lat":43.24675,"lon":5.38186,"is_reserved":false,"is_disabled":false,"rental_uris":{"android":"levelo://app?vid=5c4011be-9b33-43c9-a6d1-d3816c99eeee","ios":"levelo://app?vid=5c4011be-9b33-43c9-a6d1-d3816c99eeee"},"vehicle_type_id":"4","last_reported":1739138909,"current_range_meters":16400,"station_id":"ce4bhih2rcd13ifvqfr0","pricing_plan_id":"cebpf4jnsgd1na2vs0mg"},{"bike_id":"dc0d3e91-1e2e-47cd-9305-50037ea9b2ae","system_id":"levelo_inurba_marseille","lat":43.31168,"lon":5.38709,"is_reserved":false,"is_disabled":false,"rental_uris":{"android":"levelo://app?vid=dc0d3e91-1e2e-47cd-9305-50037ea9b2ae","ios":"levelo://app?vid=dc0d3e91-1e2e-47cd-9305-50037ea9b2ae"},"vehicle_type_id":"4","last_reported":1739138909,"current_range_meters":24000,"station_id":"ce4bgv12rcd13ifvqcp0","pricing_plan_id":"cebpf4jnsgd1na2vs0mg"},{"bike_id":"03dc0a60-23d6-429c-a406-0c86a8f516e4","system_id":"levelo_inurba_marseille","lat":43.2417,"lon":5.39716,"is_reserved":false,"is_disabled":false,"rental_uris":{"android":"levelo://app?vid=03dc0a60-23d6-429c-a406-0c86a8f516e4","ios":"levelo://app?vid=03dc0a60-23d6-429c-a406-0c86a8f516e4"},"vehicle_type_id":"4","last_reported":1739138909,"current_range_meters":31200,"station_id":"ce4bhn12rcd13ifvqgpg","pricing_plan_id":"cebpf4jnsgd1na2vs0mg"},{"bike_id":"d1051760-9042-4c15-bb45-6461e5096fa1","system_id":"levelo_inurba_marseille","lat":43.27299,"lon":5.39081,"is_reserved":false,"is_disabled":false,"rental_uris":{"android":"levelo://app?vid=d1051760-9042-4c15-bb45-6461e5096fa1","ios":"levelo://app?vid=d1051760-9042-4c15-bb45-6461e5096fa1"},"vehicle_type_id":"4","last_reported":1739138909,"current_range_meters":28400,"station_id":"ce4bhgp2rcd13ifvqfe0","pricing_plan_id":"cebpf4jnsgd1na2vs0mg"},{"bike_id":"e1d069b2-75f3-4301-996f-816fcfdac823","system_id":"levelo_inurba_marseille","lat":43.29446,"lon":5.39752,"is_reserved":false,"is_disabled":false,"rental_uris":{"android":"levelo://app?vid=e1d069b2-75f3-4301-996f-816fcfdac823","ios":"levelo://app?vid=e1d069b2-75f3-4301-996f-816fcfdac823"},"vehicle_type_id":"4","last_reported":1739138909,"current_range_meters":38000,"station_id":"ce4bh3h2rcd13ifvqdo0","pricing_plan_id":"cebpf4jnsgd1na2vs0mg"},{"bike_id":"b080f969-d0f4-41a1-9df9-120530dd2850","system_id":"levelo_inurba_marseille","lat":43.27915,"lon":5.39597,"is_reserved":false,"is_disabled":false,"rental_uris":{"android":"levelo://app?vid=b080f969-d0f4-41a1-9df9-120530dd2850","ios":"levelo://app?vid=b080f969-d0f4-41a1-9df9-120530dd2850"},"vehicle_type_id":"4","last_reported":1739138909,"current_range_meters":21600,"station_id":"ce4bhf92rcd13ifvqf40","pricing_plan_id":"cebpf4jnsgd1na2vs0mg"},{"bike_id":"37fc9ecf-d187-4780-98f8-bfafd8664be0","system_id":"levelo_inurba_marseille","lat":43.26564,"lon":5.37318,"is_reserved":false,"is_disabled":true,"rental_uris":{"android":"levelo://app?vid=37fc9ecf-d187-4780-98f8-bfafd8664be0","ios":"levelo://app?vid=37fc9ecf-d187-4780-98f8-bfafd8664be0"},"vehicle_type_id":"4","last_reported":1739138909,"current_range_meters":35200,"station_id":"ce4bhg12rcd13ifvqf70","pricing_plan_id":"cebpf4jnsgd1na2vs0mg"},{"bike_id":"075ed970-5a3d-4337-9f72-6cfe3793fdfe","system_id":"levelo_inurba_marseille","lat":43.31362,"lon":5.38496,"is_reserved":false,"is_disabled":false,"rental_uris":{"android":"levelo://app?vid=075ed970-5a3d-4337-9f72-6cfe3793fdfe","ios":"levelo://app?vid=075ed970-5a3d-4337-9f72-6cfe3793fdfe"},"vehicle_type_id":"4","last_reported":1739138909,"current_range_meters":20000,"station_id":"ce4bgt92rcd13ifvqcf0","pricing_plan_id":"cebpf4jnsgd1na2vs0mg"},{"bike_id":"6dc8aad2-7037-4229-8043-78cd60c32539","system_id":"levelo_inurba_marseille","lat":43.23947,"lon":5.36644,"is_reserved":false,"is_disabled":false,"rental_uris":{"android":"levelo://app?vid=6dc8aad2-7037-4229-8043-78cd60c32539","ios":"levelo://app?vid=6dc8aad2-7037-4229-8043-78cd60c32539"},